{"data": {"bikes": [{"lon": -77.0048985, "rental_uris": {"android": "https://dc.lft.to/lastmile_qr_scan", "ios": "https://dc.lft.to/lastmile_qr_scan"}, "fusion_lon": 0.0, "is_reserved": 0, "is_disabled": 0, "fusion_lat": 0.0, "type": "electric_scooter", "name": "916568ab735a0000d92bb5e30713adc4", "lat": 38.89688666666667, "bike_id": "916568ab735a0000d92bb5e30713adc4"}, {"lon": -77.030095, "rental_uris": {"android": "https://dc.lft.to/lastmile_qr_scan", "ios": "https://dc.lft.to/lastmile_qr_scan"}, "fusion_lon": 0.0, "is_reserved": 0, "is_disabled": 0, "fusion_lat": 0.0, "type": "electric_scooter", "name": "090dbdcb99d8fe2d110c8279770f6cac", "lat": 38.93487366666667, "bike_id": "090dbdcb99d8fe2d110c8279770f6cac"}, {"lon": -77.01107666666667, "rental_uris": {"android": "https://dc.lft.to/lastmile_qr_scan", "ios": "https://dc.lft.to/lastmile_qr_scan"}, "fusion_lon": 0.0, "is_reserved": 0, "is_disabled": 0, "fusion_lat": 0.0, "type": "electric_scooter", "name": "643838a0a429636ddece1b0d72cbf292", "lat": 38.89495483333334, "bike_id": "643838a0a429636ddece1b0d72cbf292"}, {"lon": -77.039751, "rental_uris": {"android": "https://dc.lft.to/lastmile_qr_scan", "ios": "https://dc.lft.to/lastmile_qr_scan"}, "fusion_lon": 0.0, "is_reserved": 0, "is_disabled": 0, "fusion_lat": 0.0, "type": "electric_scooter", "name": "0316cf533514ccc43f6907516b7ec7ed", "lat": 38.89916083333333, "bike_id": "0316cf533514ccc43f6907516b7ec7ed"}, {"lon": -76.98484633333334, "rental_uris": {"android": "https://dc.lft.to/lastmile_qr_scan", "ios": "https://dc.lft.to/lastmile_qr_scan"}, "fusion_lon": 0.0, "is_reserved": 0, "is_disabled": 0, "fusion_lat": 0.0, "type": "electric_bike", "name": "287194fb845b7a1e737a8472fd2be753", "lat": 38.87942116666667, "bike_id": "287194fb845b7a1e737a8472fd2be753"}, {"lon": -77.04589683333333, "rental_uris": {"android": "https://dc.lft.to/lastmile_qr_scan", "ios": "https://dc.lft.to/lastmile_qr_scan"}, "fusion_lon": 0.0, "is_reserved": 0, "is_disabled": 0, "fusion_lat": 0.0, "type": "electric_scooter", "name": "fb415e57cf23a4b0ee926abc7fa72aef", "lat": 38.9026115, "bike_id": "fb415e57cf23a4b0ee926abc7fa72aef"}, {"lon": -77.229049, "rental_uris": {"android": "https://dc.lft.to/lastmile_qr_scan", "ios": "https://dc.lft.to/lastmile_qr_scan"}, "fusion_lon": 0.0, "is_reserved": 0, "is_disabled": 0, "fusion_lat": 0.0, "type": "electric_bike", "name": "b0cdc464735dcadb05771424682fd0ac", "lat": 38.87028883333333, "bike_id": "b0cdc464735dcadb05771424682fd0ac"}, {"lon": -76.988768, "rental_uris": {"android": "https://dc.lft.to/lastmile_qr_scan", "ios": "https://dc.lft.to/lastmile_qr_scan"}, "fusion_lon": 0.0, "is_reserved": 0, "is_disabled": 0, "fusion_lat": 0.0, "type": "electric_bike", "name": "68e1cf5f7e813ed987aff3afbefa3fcb", "lat": 38.92135833333333, "bike_id": "68e1cf5f7e813ed987aff3afbefa3fcb"}, {"lon": -77.03161166666666, "rental_uris": {"android": "https://dc.lft.to/lastmile_qr_scan", "ios": "https://dc.lft.to/lastmile_qr_scan"}, "fusion_lon": 0.0, "is_reserved": 0, "is_disabled": 0, "fusion_lat": 0.0, "type": "electric_scooter", "name": "43f72ede5f7f0c8c98be67eefa324348", "lat": 38.916289166666665, "bike_id": "43f72ede5f7f0c8c98be67eefa324348"}, {"lon": -77.00333583333334, "rental_uris": {"android": "https://dc.lft.to/lastmile_qr_scan", "ios": "https://dc.lft.to/lastmile_qr_scan"}, "fusion_lon": 0.0, "is_reserved": 0, "is_disabled": 0, "fusion_lat": 0.0, "type": "electric_scooter", "name": "452ce2006bd1d11b624dc9031e8bd947", "lat": 38.8767755, "bike_id": "452ce2006bd1d11b624dc9031e8bd947"}, {"lon": -77.01441383333334, "rental_uris": {"android": "https://dc.lft.to/lastmile_qr_scan", "ios": "https://dc.lft.to/lastmile_qr_scan"}, "fusion_lon": 0.0, "is_reserved": 0, "is_disabled": 0, "fusion_lat": 0.0, "type": "electric_scooter", "name": "5660377567f730b235bfb200268963e3", "lat": 38.9159185, "bike_id": "5660377567f730b235bfb200268963e3"}, {"lon": -77.03516116666667, "rental_uris": {"android": "https://dc.lft.to/lastmile_qr_scan", "ios": "https://dc.lft.to/lastmile_qr_scan"}, "fusion_lon": 0.0, "is_reserved": 0, "is_disabled": 0, "fusion_lat": 0.0, "type": "electric_scooter", "name": "828754ad6648b0d42bfc3f583f18d448", "lat": 38.91857533333334, "bike_id": "828754ad6648b0d42bfc3f583f18d448"}, {"lon": -77.021893, "rental_uris": {"android": "https://dc.lft.to/lastmile_qr_scan", "ios": "https://dc.lft.to/lastmile_qr_scan"}, "fusion_lon": 0.0, "is_reserved": 0, "is_disabled": 0, "fusion_lat": 0.0, "type": "electric_scooter", "name": "73719b401feacaf3fac807afd1610e7d", "lat": 38.91964383333333, "bike_id": "73719b401feacaf3fac807afd1610e7d"}, {"lon": -77.0244555, "rental_uris": {"android": "https://dc.lft.to/lastmile_qr_scan", "ios": "https://dc.lft.to/lastmile_qr_scan"}, "fusion_lon": 0.0, "is_reserved": 0, "is_disabled": 0, "fusion_lat": 0.0, "type": "electric_scooter", "name": "7f688bf6a078518af4358bf180db95d4", "lat": 38.92346233333333, "bike_id": "7f688bf6a078518af4358bf180db95d4"}, {"lon": -76.97981016666667, "rental_uris": {"android": "https://dc.lft.to/lastmile_qr_scan", "ios": "https://dc.lft.to/lastmile_qr_scan"}, "fusion_lon": 0.0, "is_reserved": 0, "is_disabled": 0, "fusion_lat": 0.0, "type": "electric_scooter", "name": "c1edce503ffc15b555618ee0cc2087db", "lat": 38.907223333333334, "bike_id": "c1edce503ffc15b555618ee0cc2087db"}, {"lon": -77.03542533333334, "rental_uris": {"android": "https://dc.lft.to/lastmile_qr_scan", "ios": "https://dc.lft.to/lastmile_qr_scan"}, "fusion_lon": 0.0, "is_reserved": 0, "is_disabled": 0, "fusion_lat": 0.0, "type": "electric_scooter", "name": "218bb92f50afc7d96e69ffc60ba22d73", "lat": 38.9183925, "bike_id": "218bb92f50afc7d96e69ffc60ba22d73"}, {"lon": -76.99310416666667, "rental_uris": {"android": "https://dc.lft.to/lastmile_qr_scan", "ios": "https://dc.lft.to/lastmile_qr_scan"}, "fusion_lon": 0.0, "is_reserved": 0, "is_disabled": 0, "fusion_lat": 0.0, "type": "electric_bike", "name": "5b2c8a341e1d11d2f58e2325ef5d4766", "lat": 38.94630516666667, "bike_id": "5b2c8a341e1d11d2f58e2325ef5d4766"}, {"lon": -77.03093183333333, "rental_uris": {"android": "https://dc.lft.to/lastmile_qr_scan", "ios": "https://dc.lft.to/lastmile_qr_scan"}, "fusion_lon": 0.0, "is_reserved": 0, "is_disabled": 0, "fusion_lat": 0.0, "type": "electric_scooter", "name": "8cbb65c9de23054cbf202b6d9d4e0a32", "lat": 38.9105665, "bike_id": "8cbb65c9de23054cbf202b6d9d4e0a32"}, {"lon": -77.03219716666666, "rental_uris": {"android": "https://dc.lft.to/lastmile_qr_scan", "ios": "https://dc.lft.to/lastmile_qr_scan"}, "fusion_lon": 0.0, "is_reserved": 0, "is_disabled": 0, "fusion_lat": 0.0, "type": "electric_scooter", "name": "f738470511a6a93e4cadce362f7e4689", "lat": 38.89214583333333, "bike_id": "f738470511a6a93e4cadce362f7e4689"}, {"lon": -77.03136183333334, "rental_uris": {"android": "https://dc.lft.to/lastmile_qr_scan", "ios": "https://dc.lft.to/lastmile_qr_scan"}, "fusion_lon": 0.0, "is_reserved": 0, "is_disabled": 0, "fusion_lat": 0.0, "type": "electric_scooter", "name": "49cc86b6a56e13d176de3c34df38e3ee", "lat": 38.899218, "bike_id": "49cc86b6a56e13d176de3c34df38e3ee"}, {"lon": -76.95815816666666, "rental_uris": {"android": "https://dc.lft.to/lastmile_qr_scan", "ios": "https://dc.lft.to/lastmile_qr_scan"}, "fusion_lon": 0.0, "is_reserved": 0, "is_disabled": 0, "fusion_lat": 0.0, "type": "electric_bike", "name": "3c47a5deebfc6b20eeda804cca62799a", "lat": 38.92000383333333, "bike_id": "3c47a5deebfc6b20eeda804cca62799a"}, {"lon": -77.02453466666667, "rental_uris": {"android": "https://dc.lft.to/lastmile_qr_scan", "ios": "https://dc.lft.to/lastmile_qr_scan"}, "fusion_lon": 0.0, "is_reserved": 0, "is_disabled": 0, "fusion_lat": 0.0, "type": "electric_bike", "name": "4f293d14ad261ab1255f6a679ebe488a", "lat": 38.89834166666667, "bike_id": "4f293d14ad261ab1255f6a679ebe488a"}, {"lon": -77.03882183333333, "rental_uris": {"android": "https://dc.lft.to/lastmile_qr_scan", "ios": "https://dc.lft.to/lastmile_qr_scan"}, "fusion_lon": 0.0, "is_reserved": 0, "is_disabled": 0, "fusion_lat": 0.0, "type": "electric_scooter", "name": "fef8877c5f6c5e9d7fb0335a482fd1f8", "lat": 38.90363516666667, "bike_id": "fef8877c5f6c5e9d7fb0335a482fd1f8"}, {"lon": -77.06097116666666, "rental_uris": {"android": "https://dc.lft.to/lastmile_qr_scan", "ios": "https://dc.lft.to/lastmile_qr_scan"}, "fusion_lon": 0.0, "is_reserved": 0, "is_disabled": 0, "fusion_lat": 0.0, "type": "electric_scooter", "name": "ae3077da880bc1763a04028213e9c48b", "lat": 38.902357333333335, "bike_id": "ae3077da880bc1763a04028213e9c48b"}, {"lon": -77.002079, "rental_uris": {"android": "https://dc.lft.to/lastmile_qr_scan", "ios": "https://dc.lft.to/lastmile_qr_scan"}, "fusion_lon": 0.0, "is_reserved": 0, "is_disabled": 0, "fusion_lat": 0.0, "type": "electric_scooter", "name": "66b4c475514c3708f76d98b4351c98d7", "lat": 38.900461, "bike_id": "66b4c475514c3708f76d98b4351c98d7"}, {"lon": -77.01972583333334, "rental_uris": {"android": "https://dc.lft.to/lastmile_qr_scan", "ios": "https://dc.lft.to/lastmile_qr_scan"}, "fusion_lon": 0.0, "is_reserved": 0, "is_disabled": 0, "fusion_lat": 0.0, "type": "electric_scooter", "name": "7cb57426efb0370100802632ce5e2ed4", "lat": 38.908513166666665, "bike_id": "7cb57426efb0370100802632ce5e2ed4"}, {"lon": -77.02804616666667, "rental_uris": {"android": "https://dc.lft.to/lastmile_qr_scan", "ios": "https://dc.lft.to/lastmile_qr_scan"}, "fusion_lon": 0.0, "is_reserved": 0, "is_disabled": 0, "fusion_lat": 0.0, "type": "electric_scooter", "name": "4429e253c24ac6447182d6ebad04f047", "lat": 38.904925, "bike_id": "4429e253c24ac6447182d6ebad04f047"}, {"lon": -77.04163933333334, "rental_uris": {"android": "https://dc.lft.to/lastmile_qr_scan", "ios": "https://dc.lft.to/lastmile_qr_scan"}, "fusion_lon": 0.0, "is_reserved": 0, "is_disabled": 0, "fusion_lat": 0.0, "type": "electric_scooter", "name": "d2094e1974b3353385272f8795ff4820", "lat": 38.898046666666666, "bike_id": "d2094e1974b3353385272f8795ff4820"}, {"lon": -77.03271533333333, "rental_uris": {"android": "https://dc.lft.to/lastmile_qr_scan", "ios": "https://dc.lft.to/lastmile_qr_scan"}, "fusion_lon": 0.0, "is_reserved": 0, "is_disabled": 0, "fusion_lat": 0.0, "type": "electric_scooter", "name": "9092808683005ef6144a6edfe58d6a88", "lat": 38.92967866666667, "bike_id": "9092808683005ef6144a6edfe58d6a88"}, {"lon": -77.03586566666667, "rental_uris": {"android": "https://dc.lft.to/lastmile_qr_scan", "ios": "https://dc.lft.to/lastmile_qr_scan"}, "fusion_lon": 0.0, "is_reserved": 0, "is_disabled": 0, "fusion_lat": 0.0, "type": "electric_scooter", "name": "ce301d24a3618f13d2c65a24b1207a41", "lat": 38.907225333333336, "bike_id": "ce301d24a3618f13d2c65a24b1207a41"}, {"lon": -77.0386365, "rental_uris": {"android": "https://dc.lft.to/lastmile_qr_scan", "ios": "https://dc.lft.to/lastmile_qr_scan"}, "fusion_lon": 0.0, "is_reserved": 0, "is_disabled": 0, "fusion_lat": 0.0, "type": "electric_scooter", "name": "ed24dee9989a7e4cc091a8f5765f588c", "lat": 38.906519333333335, "bike_id": "ed24dee9989a7e4cc091a8f5765f588c"}, {"lon": -76.974231, "rental_uris": {"android": "https://dc.lft.to/lastmile_qr_scan", "ios": "https://dc.lft.to/lastmile_qr_scan"}, "fusion_lon": 0.0, "is_reserved": 0, "is_disabled": 0, "fusion_lat": 0.0, "type": "electric_scooter", "name": "1c5beec072b26ba8a00767bcca1ea7ae", "lat": 38.90202883333333, "bike_id": "1c5beec072b26ba8a00767bcca1ea7ae"}, {"lon": -77.025413, "rental_uris": {"android": "https://dc.lft.to/lastmile_qr_scan", "ios": "https://dc.lft.to/lastmile_qr_scan"}, "fusion_lon": 0.0, "is_reserved": 0, "is_disabled": 0, "fusion_lat": 0.0, "type": "electric_scooter", "name": "d88406907926b443251b80bcd273f826", "lat": 38.900765, "bike_id": "d88406907926b443251b80bcd273f826"}, {"lon": -77.01481, "rental_uris": {"android": "https://dc.lft.to/lastmile_qr_scan", "ios": "https://dc.lft.to/lastmile_qr_scan"}, "fusion_lon": 0.0, "is_reserved": 0, "is_disabled": 0, "fusion_lat": 0.0, "type": "electric_scooter", "name": "ba4115c86d84c41b9c7e7bb0dfa05217", "lat": 38.9159305, "bike_id": "ba4115c86d84c41b9c7e7bb0dfa05217"}, {"lon": -76.98301866666667, "rental_uris": {"android": "https://dc.lft.to/lastmile_qr_scan", "ios": "https://dc.lft.to/lastmile_qr_scan"}, "fusion_lon": 0.0, "is_reserved": 0, "is_disabled": 0, "fusion_lat": 0.0, "type": "electric_scooter", "name": "7c55cec6ae21a69bb2046e157bd99291", "lat": 38.88764366666667, "bike_id": "7c55cec6ae21a69bb2046e157bd99291"}, {"lon": -77.02946616666667, "rental_uris": {"android": "https://dc.lft.to/lastmile_qr_scan", "ios": "https://dc.lft.to/lastmile_qr_scan"}, "fusion_lon": 0.0, "is_reserved": 0, "is_disabled": 0, "fusion_lat": 0.0, "type": "electric_scooter", "name": "caf973c16fffb99905ee241c629edfdb", "lat": 38.899234666666665, "bike_id": "caf973c16fffb99905ee241c629edfdb"}, {"lon": -77.01686966666666, "rental_uris": {"android": "https://dc.lft.to/lastmile_qr_scan", "ios": "https://dc.lft.to/lastmile_qr_scan"}, "fusion_lon": 0.0, "is_reserved": 0, "is_disabled": 0, "fusion_lat": 0.0, "type": "electric_scooter", "name": "9fb3967b6ca8e9bd497191ac1ac438a0", "lat": 38.881152, "bike_id": "9fb3967b6ca8e9bd497191ac1ac438a0"}, {"lon": -77.0793565, "rental_uris": {"android": "https://dc.lft.to/lastmile_qr_scan", "ios": "https://dc.lft.to/lastmile_qr_scan"}, "fusion_lon": 0.0, "is_reserved": 0, "is_disabled": 0, "fusion_lat": 0.0, "type": "electric_scooter", "name": "a7a95e32df99f35e33f8b40ee964ef03", "lat": 38.919183, "bike_id": "a7a95e32df99f35e33f8b40ee964ef03"}, {"lon": -77.0217585, "rental_uris": {"android": "https://dc.lft.to/lastmile_qr_scan", "ios": "https://dc.lft.to/lastmile_qr_scan"}, "fusion_lon": 0.0, "is_reserved": 0, "is_disabled": 0, "fusion_lat": 0.0, "type": "electric_scooter", "name": "2a0e11c86b8bbf42c78994af32cdd2a8", "lat": 38.94280166666667, "bike_id": "2a0e11c86b8bbf42c78994af32cdd2a8"}, {"lon": -77.042988, "rental_uris": {"android": "https://dc.lft.to/lastmile_qr_scan", "ios": "https://dc.lft.to/lastmile_qr_scan"}, "fusion_lon": 0.0, "is_reserved": 0, "is_disabled": 0, "fusion_lat": 0.0, "type": "electric_scooter", "name": "801d7586f421673677dc98ce6784a64a", "lat": 38.93191816666667, "bike_id": "801d7586f421673677dc98ce6784a64a"}, {"lon": -77.03393033333333, "rental_uris": {"android": "https://dc.lft.to/lastmile_qr_scan", "ios": "https://dc.lft.to/lastmile_qr_scan"}, "fusion_lon": 0.0, "is_reserved": 0, "is_disabled": 0, "fusion_lat": 0.0, "type": "electric_scooter", "name": "f01dc9e577ff0887a2128d1c4ee093f9", "lat": 38.88656016666667, "bike_id": "f01dc9e577ff0887a2128d1c4ee093f9"}, {"lon": -77.01979116666666, "rental_uris": {"android": "https://dc.lft.to/lastmile_qr_scan", "ios": "https://dc.lft.to/lastmile_qr_scan"}, "fusion_lon": 0.0, "is_reserved": 0, "is_disabled": 0, "fusion_lat": 0.0, "type": "electric_scooter", "name": "49296b6b8e95efdb676aaa98ca616a62", "lat": 38.91194433333333, "bike_id": "49296b6b8e95efdb676aaa98ca616a62"}, {"lon": -77.01829066666667, "rental_uris": {"android": "https://dc.lft.to/lastmile_qr_scan", "ios": "https://dc.lft.to/lastmile_qr_scan"}, "fusion_lon": 0.0, "is_reserved": 0, "is_disabled": 0, "fusion_lat": 0.0, "type": "electric_scooter", "name": "ad472178b9829ee7eec2f75369d14cbe", "lat": 38.92236966666667, "bike_id": "ad472178b9829ee7eec2f75369d14cbe"}, {"lon": -77.06281866666667, "rental_uris": {"android": "https://dc.lft.to/lastmile_qr_scan", "ios": "https://dc.lft.to/lastmile_qr_scan"}, "fusion_lon": 0.0, "is_reserved": 0, "is_disabled": 0, "fusion_lat": 0.0, "type": "electric_scooter", "name": "8d384887eb327406ea333d47754c527c", "lat": 38.9025675, "bike_id": "8d384887eb327406ea333d47754c527c"}, {"lon": -76.99504516666667, "rental_uris": {"android": "https://dc.lft.to/lastmile_qr_scan", "ios": "https://dc.lft.to/lastmile_qr_scan"}, "fusion_lon": 0.0, "is_reserved": 0, "is_disabled": 0, "fusion_lat": 0.0, "type": "electric_scooter", "name": "753d7ac3a523c4932a77a732b4eb5ab4", "lat": 38.90464133333333, "bike_id": "753d7ac3a523c4932a77a732b4eb5ab4"}, {"lon": -77.04393983333334, "rental_uris": {"android": "https://dc.lft.to/lastmile_qr_scan", "ios": "https://dc.lft.to/lastmile_qr_scan"}, "fusion_lon": 0.0, "is_reserved": 0, "is_disabled": 0, "fusion_lat": 0.0, "type": "electric_scooter", "name": "3709945fdb0d6c8902a1b9abbb5486b4", "lat": 38.914917333333335, "bike_id": "3709945fdb0d6c8902a1b9abbb5486b4"}, {"lon": -77.0383035, "rental_uris": {"android": "https://dc.lft.to/lastmile_qr_scan", "ios": "https://dc.lft.to/lastmile_qr_scan"}, "fusion_lon": 0.0, "is_reserved": 0, "is_disabled": 0, "fusion_lat": 0.0, "type": "electric_scooter", "name": "d1a9ab2a3bd291d8429cac622ddf72b7", "lat": 38.9188745, "bike_id": "d1a9ab2a3bd291d8429cac622ddf72b7"}, {"lon": -77.02326483333333, "rental_uris": {"android": "https://dc.lft.to/lastmile_qr_scan", "ios": "https://dc.lft.to/lastmile_qr_scan"}, "fusion_lon": 0.0, "is_reserved": 0, "is_disabled": 0, "fusion_lat": 0.0, "type": "electric_scooter", "name": "e83e35972c59e8aa8e33e04f2a0c33d9", "lat": 38.92298483333333, "bike_id": "e83e35972c59e8aa8e33e04f2a0c33d9"}, {"lon": -76.9728245, "rental_uris": {"android": "https://dc.lft.to/lastmile_qr_scan", "ios": "https://dc.lft.to/lastmile_qr_scan"}, "fusion_lon": 0.0, "is_reserved": 0, "is_disabled": 0, "fusion_lat": 0.0, "type": "electric_scooter", "name": "c9dfaae1352a9b3bad9d33bc428b24fc", "lat": 38.917166333333334, "bike_id": "c9dfaae1352a9b3bad9d33bc428b24fc"}, {"lon": -77.048673, "rental_uris": {"android": "https://dc.lft.to/lastmile_qr_scan", "ios": "https://dc.lft.to/lastmile_qr_scan"}, "fusion_lon": 0.0, "is_reserved": 0, "is_disabled": 0, "fusion_lat": 0.0, "type": "electric_scooter", "name": "d2861c4dfec6864d580f4f586ef4d3fe", "lat": 38.904699666666666, "bike_id": "d2861c4dfec6864d580f4f586ef4d3fe"}, {"lon": -77.041865, "rental_uris": {"android": "https://dc.lft.to/lastmile_qr_scan", "ios": "https://dc.lft.to/lastmile_qr_scan"}, "fusion_lon": 0.0, "is_reserved": 0, "is_disabled": 0, "fusion_lat": 0.0, "type": "electric_scooter", "name": "d51f2db12bf87fdbc27ce64627f25d3d", "lat": 38.905225, "bike_id": "d51f2db12bf87fdbc27ce64627f25d3d"}, {"lon": -77.009271, "rental_uris": {"android": "https://dc.lft.to/lastmile_qr_scan", "ios": "https://dc.lft.to/lastmile_qr_scan"}, "fusion_lon": 0.0, "is_reserved": 0, "is_disabled": 0, "fusion_lat": 0.0, "type": "electric_scooter", "name": "8b0f42ce349f070f416cb292dccc1160", "lat": 38.8964375, "bike_id": "8b0f42ce349f070f416cb292dccc1160"}, {"lon": -77.04654533333333, "rental_uris": {"android": "https://dc.lft.to/lastmile_qr_scan", "ios": "https://dc.lft.to/lastmile_qr_scan"}, "fusion_lon": 0.0, "is_reserved": 0, "is_disabled": 0, "fusion_lat": 0.0, "type": "electric_scooter", "name": "5534a5ad4732e96475913276b891e8f9", "lat": 38.89230083333333, "bike_id": "5534a5ad4732e96475913276b891e8f9"}, {"lon": -77.0005245, "rental_uris": {"android": "https://dc.lft.to/lastmile_qr_scan", "ios": "https://dc.lft.to/lastmile_qr_scan"}, "fusion_lon": 0.0, "is_reserved": 0, "is_disabled": 0, "fusion_lat": 0.0, "type": "electric_scooter", "name": "d2f8b308fd5e329ea9f00236964f322a", "lat": 38.87367416666667, "bike_id": "d2f8b308fd5e329ea9f00236964f322a"}, {"lon": -77.0517655, "rental_uris": {"android": "https://dc.lft.to/lastmile_qr_scan", "ios": "https://dc.lft.to/lastmile_qr_scan"}, "fusion_lon": 0.0, "is_reserved": 0, "is_disabled": 0, "fusion_lat": 0.0, "type": "electric_scooter", "name": "8cab214e2889ef198426f93a3dbbaa83", "lat": 38.92344516666667, "bike_id": "8cab214e2889ef198426f93a3dbbaa83"}, {"lon": -77.02541466666666, "rental_uris": {"android": "https://dc.lft.to/lastmile_qr_scan", "ios": "https://dc.lft.to/lastmile_qr_scan"}, "fusion_lon": 0.0, "is_reserved": 0, "is_disabled": 0, "fusion_lat": 0.0, "type": "electric_scooter", "name": "971161019b6a07702b0806cef005ee8d", "lat": 38.940841, "bike_id": "971161019b6a07702b0806cef005ee8d"}, {"lon": -77.02576566666667, "rental_uris": {"android": "https://dc.lft.to/lastmile_qr_scan", "ios": "https://dc.lft.to/lastmile_qr_scan"}, "fusion_lon": 0.0, "is_reserved": 0, "is_disabled": 0, "fusion_lat": 0.0, "type": "electric_scooter", "name": "d62de5e3a93b457208b7a6fbb902b53b", "lat": 38.8841425, "bike_id": "d62de5e3a93b457208b7a6fbb902b53b"}, {"lon": -77.038629, "rental_uris": {"android": "https://dc.lft.to/lastmile_qr_scan", "ios": "https://dc.lft.to/lastmile_qr_scan"}, "fusion_lon": 0.0, "is_reserved": 0, "is_disabled": 0, "fusion_lat": 0.0, "type": "electric_scooter", "name": "6d0f89fc5eef8d11eda2fc9626a373ce", "lat": 38.906546, "bike_id": "6d0f89fc5eef8d11eda2fc9626a373ce"}, {"lon": -76.9908, "rental_uris": {"android": "https://dc.lft.to/lastmile_qr_scan", "ios": "https://dc.lft.to/lastmile_qr_scan"}, "fusion_lon": 0.0, "is_reserved": 0, "is_disabled": 0, "fusion_lat": 0.0, "type": "electric_bike", "name": "fd59e90b1f5838249322a83acfb24259", "lat": 38.94263133333333, "bike_id": "fd59e90b1f5838249322a83acfb24259"}, {"lon": -77.02966283333333, "rental_uris": {"android": "https://dc.lft.to/lastmile_qr_scan", "ios": "https://dc.lft.to/lastmile_qr_scan"}, "fusion_lon": 0.0, "is_reserved": 0, "is_disabled": 0, "fusion_lat": 0.0, "type": "electric_scooter", "name": "191e9d779f03c1ce97a93bdd5dcf520b", "lat": 38.91684433333333, "bike_id": "191e9d779f03c1ce97a93bdd5dcf520b"}, {"lon": -77.0394555, "rental_uris": {"android": "https://dc.lft.to/lastmile_qr_scan", "ios": "https://dc.lft.to/lastmile_qr_scan"}, "fusion_lon": 0.0, "is_reserved": 0, "is_disabled": 0, "fusion_lat": 0.0, "type": "electric_scooter", "name": "d88da9aa0039b072e53bfdde8f545549", "lat": 38.90839016666666, "bike_id": "d88da9aa0039b072e53bfdde8f545549"}, {"lon": -77.02996833333333, "rental_uris": {"android": "https://dc.lft.to/lastmile_qr_scan", "ios": "https://dc.lft.to/lastmile_qr_scan"}, "fusion_lon": 0.0, "is_reserved": 0, "is_disabled": 0, "fusion_lat": 0.0, "type": "electric_scooter", "name": "ca7d43c0f53ff0392e427465261bad1d", "lat": 38.91668166666667, "bike_id": "ca7d43c0f53ff0392e427465261bad1d"}, {"lon": -77.05751516666666, "rental_uris": {"android": "https://dc.lft.to/lastmile_qr_scan", "ios": "https://dc.lft.to/lastmile_qr_scan"}, "fusion_lon": 0.0, "is_reserved": 0, "is_disabled": 0, "fusion_lat": 0.0, "type": "electric_scooter", "name": "92aaf649fecdb78d68df8f0acaf23935", "lat": 38.933741166666664, "bike_id": "92aaf649fecdb78d68df8f0acaf23935"}, {"lon": -77.02410316666666, "rental_uris": {"android": "https://dc.lft.to/lastmile_qr_scan", "ios": "https://dc.lft.to/lastmile_qr_scan"}, "fusion_lon": 0.0, "is_reserved": 0, "is_disabled": 0, "fusion_lat": 0.0, "type": "electric_scooter", "name": "39373dd0a8218e6e9b0ed95595095d70", "lat": 38.901917166666664, "bike_id": "39373dd0a8218e6e9b0ed95595095d70"}, {"lon": -76.99651566666667, "rental_uris": {"android": "https://dc.lft.to/lastmile_qr_scan", "ios": "https://dc.lft.to/lastmile_qr_scan"}, "fusion_lon": 0.0, "is_reserved": 0, "is_disabled": 0, "fusion_lat": 0.0, "type": "electric_scooter", "name": "d64f40e58c0135a13d1895eb2698ea7b", "lat": 38.85978983333333, "bike_id": "d64f40e58c0135a13d1895eb2698ea7b"}, {"lon": -77.045566, "rental_uris": {"android": "https://dc.lft.to/lastmile_qr_scan", "ios": "https://dc.lft.to/lastmile_qr_scan"}, "fusion_lon": 0.0, "is_reserved": 0, "is_disabled": 0, "fusion_lat": 0.0, "type": "electric_scooter", "name": "6dd3e2b728db254119f40586062683ff", "lat": 38.89606833333333, "bike_id": "6dd3e2b728db254119f40586062683ff"}, {"lon": -77.0334575, "rental_uris": {"android": "https://dc.lft.to/lastmile_qr_scan", "ios": "https://dc.lft.to/lastmile_qr_scan"}, "fusion_lon": 0.0, "is_reserved": 0, "is_disabled": 0, "fusion_lat": 0.0, "type": "electric_scooter", "name": "9687ef0bf27579bd37d471395e923925", "lat": 38.898042333333336, "bike_id": "9687ef0bf27579bd37d471395e923925"}, {"lon": -77.00289666666667, "rental_uris": {"android": "https://dc.lft.to/lastmile_qr_scan", "ios": "https://dc.lft.to/lastmile_qr_scan"}, "fusion_lon": 0.0, "is_reserved": 0, "is_disabled": 0, "fusion_lat": 0.0, "type": "electric_scooter", "name": "fd429778eae3af8f2a29d1371d1e8513", "lat": 38.87654233333333, "bike_id": "fd429778eae3af8f2a29d1371d1e8513"}, {"lon": -77.038038, "rental_uris": {"android": "https://dc.lft.to/lastmile_qr_scan", "ios": "https://dc.lft.to/lastmile_qr_scan"}, "fusion_lon": 0.0, "is_reserved": 0, "is_disabled": 0, "fusion_lat": 0.0, "type": "electric_scooter", "name": "cab17ca03c002cc8f33f03112e48a032", "lat": 38.923111666666664, "bike_id": "cab17ca03c002cc8f33f03112e48a032"}, {"lon": -77.00163533333334, "rental_uris": {"android": "https://dc.lft.to/lastmile_qr_scan", "ios": "https://dc.lft.to/lastmile_qr_scan"}, "fusion_lon": 0.0, "is_reserved": 0, "is_disabled": 0, "fusion_lat": 0.0, "type": "electric_scooter", "name": "744621e444ca10101ef63b540fc6a280", "lat": 38.95832433333333, "bike_id": "744621e444ca10101ef63b540fc6a280"}, {"lon": -77.04356183333333, "rental_uris": {"android": "https://dc.lft.to/lastmile_qr_scan", "ios": "https://dc.lft.to/lastmile_qr_scan"}, "fusion_lon": 0.0, "is_reserved": 0, "is_disabled": 0, "fusion_lat": 0.0, "type": "electric_scooter", "name": "3b94ba1e317fd9a265e7deda292bf8d1", "lat": 38.921685, "bike_id": "3b94ba1e317fd9a265e7deda292bf8d1"}, {"lon": -77.0218685, "rental_uris": {"android": "https://dc.lft.to/lastmile_qr_scan", "ios": "https://dc.lft.to/lastmile_qr_scan"}, "fusion_lon": 0.0, "is_reserved": 0, "is_disabled": 0, "fusion_lat": 0.0, "type": "electric_scooter", "name": "b63141e59dadbc8e8a20b2ef4aabdb1e", "lat": 38.918829, "bike_id": "b63141e59dadbc8e8a20b2ef4aabdb1e"}, {"lon": -77.04265033333333, "rental_uris": {"android": "https://dc.lft.to/lastmile_qr_scan", "ios": "https://dc.lft.to/lastmile_qr_scan"}, "fusion_lon": 0.0, "is_reserved": 0, "is_disabled": 0, "fusion_lat": 0.0, "type": "electric_scooter", "name": "8684a192fb5d8dcc40d037058594b42b", "lat": 38.92234233333333, "bike_id": "8684a192fb5d8dcc40d037058594b42b"}, {"lon": -77.03164916666667, "rental_uris": {"android": "https://dc.lft.to/lastmile_qr_scan", "ios": "https://dc.lft.to/lastmile_qr_scan"}, "fusion_lon": 0.0, "is_reserved": 0, "is_disabled": 0, "fusion_lat": 0.0, "type": "electric_scooter", "name": "b4e4561f61542dd7af393bfa3b5d33bf", "lat": 38.892177, "bike_id": "b4e4561f61542dd7af393bfa3b5d33bf"}, {"lon": -77.04883016666666, "rental_uris": {"android": "https://dc.lft.to/lastmile_qr_scan", "ios": "https://dc.lft.to/lastmile_qr_scan"}, "fusion_lon": 0.0, "is_reserved": 0, "is_disabled": 0, "fusion_lat": 0.0, "type": "electric_scooter", "name": "d171cabfb370c2ebd3e5632082cca917", "lat": 38.90534016666667, "bike_id": "d171cabfb370c2ebd3e5632082cca917"}, {"lon": -77.038375, "rental_uris": {"android": "https://dc.lft.to/lastmile_qr_scan", "ios": "https://dc.lft.to/lastmile_qr_scan"}, "fusion_lon": 0.0, "is_reserved": 0, "is_disabled": 0, "fusion_lat": 0.0, "type": "electric_scooter", "name": "222ec5fc80fd63e2a9a05e15bb6950cc", "lat": 38.909574666666664, "bike_id": "222ec5fc80fd63e2a9a05e15bb6950cc"}, {"lon": -77.0050955, "rental_uris": {"android": "https://dc.lft.to/lastmile_qr_scan", "ios": "https://dc.lft.to/lastmile_qr_scan"}, "fusion_lon": 0.0, "is_reserved": 0, "is_disabled": 0, "fusion_lat": 0.0, "type": "electric_scooter", "name": "1dcf9c5e00cf8bba26880fcda6f106c3", "lat": 38.9169215, "bike_id": "1dcf9c5e00cf8bba26880fcda6f106c3"}, {"lon": -77.0152805, "rental_uris": {"android": "https://dc.lft.to/lastmile_qr_scan", "ios": "https://dc.lft.to/lastmile_qr_scan"}, "fusion_lon": 0.0, "is_reserved": 0, "is_disabled": 0, "fusion_lat": 0.0, "type": "electric_scooter", "name": "3dcd5c4197bf5d08e33dd7e534037796", "lat": 38.887349666666665, "bike_id": "3dcd5c4197bf5d08e33dd7e534037796"}, {"lon": -77.07270266666667, "rental_uris": {"android": "https://dc.lft.to/lastmile_qr_scan", "ios": "https://dc.lft.to/lastmile_qr_scan"}, "fusion_lon": 0.0, "is_reserved": 0, "is_disabled": 0, "fusion_lat": 0.0, "type": "electric_scooter", "name": "9501f449b8f37e99edaa3a0ab6eea936", "lat": 38.934625833333335, "bike_id": "9501f449b8f37e99edaa3a0ab6eea936"}, {"lon": -77.04172116666666, "rental_uris": {"android": "https://dc.lft.to/lastmile_qr_scan", "ios": "https://dc.lft.to/lastmile_qr_scan"}, "fusion_lon": 0.0, "is_reserved": 0, "is_disabled": 0, "fusion_lat": 0.0, "type": "electric_scooter", "name": "9fa578fefea6a406e186b9b9197e9a8e", "lat": 38.905049, "bike_id": "9fa578fefea6a406e186b9b9197e9a8e"}, {"lon": -77.03632833333333, "rental_uris": {"android": "https://dc.lft.to/lastmile_qr_scan", "ios": "https://dc.lft.to/lastmile_qr_scan"}, "fusion_lon": 0.0, "is_reserved": 0, "is_disabled": 0, "fusion_lat": 0.0, "type": "electric_scooter", "name": "3a1f49ac5bb2e731691d9bd58760cf2a", "lat": 38.93928966666667, "bike_id": "3a1f49ac5bb2e731691d9bd58760cf2a"}, {"lon": -77.03277266666667, "rental_uris": {"android": "https://dc.lft.to/lastmile_qr_scan", "ios": "https://dc.lft.to/lastmile_qr_scan"}, "fusion_lon": 0.0, "is_reserved": 0, "is_disabled": 0, "fusion_lat": 0.0, "type": "electric_scooter", "name": "a7db89660600c7cebf7acfee89b15416", "lat": 38.93962483333333, "bike_id": "a7db89660600c7cebf7acfee89b15416"}, {"lon": -77.05546516666666, "rental_uris": {"android": "https://dc.lft.to/lastmile_qr_scan", "ios": "https://dc.lft.to/lastmile_qr_scan"}, "fusion_lon": 0.0, "is_reserved": 0, "is_disabled": 0, "fusion_lat": 0.0, "type": "electric_scooter", "name": "24608cf847d7e369ea74308759c7aefe", "lat": 38.92524733333333, "bike_id": "24608cf847d7e369ea74308759c7aefe"}, {"lon": -77.02063783333334, "rental_uris": {"android": "https://dc.lft.to/lastmile_qr_scan", "ios": "https://dc.lft.to/lastmile_qr_scan"}, "fusion_lon": 0.0, "is_reserved": 0, "is_disabled": 0, "fusion_lat": 0.0, "type": "electric_scooter", "name": "76cff22c6e99c6c323432359f6d7b702", "lat": 38.9275885, "bike_id": "76cff22c6e99c6c323432359f6d7b702"}, {"lon": -77.03616783333334, "rental_uris": {"android": "https://dc.lft.to/lastmile_qr_scan", "ios": "https://dc.lft.to/lastmile_qr_scan"}, "fusion_lon": 0.0, "is_reserved": 0, "is_disabled": 0, "fusion_lat": 0.0, "type": "electric_bike", "name": "ad5f378d3a8b8c4470922b2b49ce349f", "lat": 38.907529, "bike_id": "ad5f378d3a8b8c4470922b2b49ce349f"}, {"lon": -77.05548216666666, "rental_uris": {"android": "https://dc.lft.to/lastmile_qr_scan", "ios": "https://dc.lft.to/lastmile_qr_scan"}, "fusion_lon": 0.0, "is_reserved": 0, "is_disabled": 0, "fusion_lat": 0.0, "type": "electric_bike", "name": "c46cf4e7635cb987bea44f915e7a7d8e", "lat": 39.0360565, "bike_id": "c46cf4e7635cb987bea44f915e7a7d8e"}, {"lon": -76.96255483333333, "rental_uris": {"android": "https://dc.lft.to/lastmile_qr_scan", "ios": "https://dc.lft.to/lastmile_qr_scan"}, "fusion_lon": 0.0, "is_reserved": 0, "is_disabled": 0, "fusion_lat": 0.0, "type": "electric_scooter", "name": "17fb69668b2b0c869a3359adc53a39a3", "lat": 38.878666333333335, "bike_id": "17fb69668b2b0c869a3359adc53a39a3"}, {"lon": -77.03891533333334, "rental_uris": {"android": "https://dc.lft.to/lastmile_qr_scan", "ios": "https://dc.lft.to/lastmile_qr_scan"}, "fusion_lon": 0.0, "is_reserved": 0, "is_disabled": 0, "fusion_lat": 0.0, "type": "electric_scooter", "name": "39adde6954b0951c37a33c0f56ade7e4", "lat": 38.9063495, "bike_id": "39adde6954b0951c37a33c0f56ade7e4"}, {"lon": -77.03216066666667, "rental_uris": {"android": "https://dc.lft.to/lastmile_qr_scan", "ios": "https://dc.lft.to/lastmile_qr_scan"}, "fusion_lon": 0.0, "is_reserved": 0, "is_disabled": 0, "fusion_lat": 0.0, "type": "electric_scooter", "name": "47979904020791ce31df76938a8dd116", "lat": 38.917793, "bike_id": "47979904020791ce31df76938a8dd116"}, {"lon": -77.05006933333334, "rental_uris": {"android": "https://dc.lft.to/lastmile_qr_scan", "ios": "https://dc.lft.to/lastmile_qr_scan"}, "fusion_lon": 0.0, "is_reserved": 0, "is_disabled": 0, "fusion_lat": 0.0, "type": "electric_scooter", "name": "8fa64e99277154ea27e6ddce13ec9c31", "lat": 38.899216, "bike_id": "8fa64e99277154ea27e6ddce13ec9c31"}, {"lon": -77.033728, "rental_uris": {"android": "https://dc.lft.to/lastmile_qr_scan", "ios": "https://dc.lft.to/lastmile_qr_scan"}, "fusion_lon": 0.0, "is_reserved": 0, "is_disabled": 0, "fusion_lat": 0.0, "type": "electric_scooter", "name": "2ad7fc947cb9b74f99238c3f26f665b7", "lat": 38.919554, "bike_id": "2ad7fc947cb9b74f99238c3f26f665b7"}, {"lon": -77.04358666666667, "rental_uris": {"android": "https://dc.lft.to/lastmile_qr_scan", "ios": "https://dc.lft.to/lastmile_qr_scan"}, "fusion_lon": 0.0, "is_reserved": 0, "is_disabled": 0, "fusion_lat": 0.0, "type": "electric_scooter", "name": "bf56aa482729a8f05ac3f989c7aa92ef", "lat": 38.90618516666667, "bike_id": "bf56aa482729a8f05ac3f989c7aa92ef"}, {"lon": -76.9376055, "rental_uris": {"android": "https://dc.lft.to/lastmile_qr_scan", "ios": "https://dc.lft.to/lastmile_qr_scan"}, "fusion_lon": 0.0, "is_reserved": 0, "is_disabled": 0, "fusion_lat": 0.0, "type": "electric_scooter", "name": "abc4ad04a823c6f8bdf90b74ece78207", "lat": 38.8904545, "bike_id": "abc4ad04a823c6f8bdf90b74ece78207"}, {"lon": -77.03630116666666, "rental_uris": {"android": "https://dc.lft.to/lastmile_qr_scan", "ios": "https://dc.lft.to/lastmile_qr_scan"}, "fusion_lon": 0.0, "is_reserved": 0, "is_disabled": 0, "fusion_lat": 0.0, "type": "electric_scooter", "name": "0802150c033d66b92a97b2a1bc7c83d1", "lat": 38.903837, "bike_id": "0802150c033d66b92a97b2a1bc7c83d1"}, {"lon": -76.99411833333333, "rental_uris": {"android": "https://dc.lft.to/lastmile_qr_scan", "ios": "https://dc.lft.to/lastmile_qr_scan"}, "fusion_lon": 0.0, "is_reserved": 0, "is_disabled": 0, "fusion_lat": 0.0, "type": "electric_scooter", "name": "a78a01d372c6c70c741ef52dafc10c93", "lat": 38.87782816666667, "bike_id": "a78a01d372c6c70c741ef52dafc10c93"}, {"lon": -77.03237783333333, "rental_uris": {"android": "https://dc.lft.to/lastmile_qr_scan", "ios": "https://dc.lft.to/lastmile_qr_scan"}, "fusion_lon": 0.0, "is_reserved": 0, "is_disabled": 0, "fusion_lat": 0.0, "type": "electric_scooter", "name": "c074856e7617f3c985c4143a5d61a80f", "lat": 38.9169715, "bike_id": "c074856e7617f3c985c4143a5d61a80f"}, {"lon": -77.03947416666666, "rental_uris": {"android": "https://dc.lft.to/lastmile_qr_scan", "ios": "https://dc.lft.to/lastmile_qr_scan"}, "fusion_lon": 0.0, "is_reserved": 0, "is_disabled": 0, "fusion_lat": 0.0, "type": "electric_scooter", "name": "ec3b1f730c1f84f06057de82b7582304", "lat": 38.9159795, "bike_id": "ec3b1f730c1f84f06057de82b7582304"}, {"lon": -77.0240655, "rental_uris": {"android": "https://dc.lft.to/lastmile_qr_scan", "ios": "https://dc.lft.to/lastmile_qr_scan"}, "fusion_lon": 0.0, "is_reserved": 0, "is_disabled": 0, "fusion_lat": 0.0, "type": "electric_scooter", "name": "17473c925255ff0ce149b4041a982538", "lat": 38.900401333333335, "bike_id": "17473c925255ff0ce149b4041a982538"}, {"lon": -77.07295633333334, "rental_uris": {"android": "https://dc.lft.to/lastmile_qr_scan", "ios": "https://dc.lft.to/lastmile_qr_scan"}, "fusion_lon": 0.0, "is_reserved": 0, "is_disabled": 0, "fusion_lat": 0.0, "type": "electric_bike", "name": "ddf1054a6beadf9ec2952573a916a91c", "lat": 38.93542083333333, "bike_id": "ddf1054a6beadf9ec2952573a916a91c"}, {"lon": -77.02588333333334, "rental_uris": {"android": "https://dc.lft.to/lastmile_qr_scan", "ios": "https://dc.lft.to/lastmile_qr_scan"}, "fusion_lon": 0.0, "is_reserved": 0, "is_disabled": 0, "fusion_lat": 0.0, "type": "electric_scooter", "name": "8e3d0bccb2904ceda288f5153fbe72ac", "lat": 38.94199416666667, "bike_id": "8e3d0bccb2904ceda288f5153fbe72ac"}, {"lon": -77.05175, "rental_uris": {"android": "https://dc.lft.to/lastmile_qr_scan", "ios": "https://dc.lft.to/lastmile_qr_scan"}, "fusion_lon": 0.0, "is_reserved": 0, "is_disabled": 0, "fusion_lat": 0.0, "type": "electric_scooter", "name": "efb8d3232d81e595a97265d4a64bb550", "lat": 38.92424583333333, "bike_id": "efb8d3232d81e595a97265d4a64bb550"}, {"lon": -77.04491316666666, "rental_uris": {"android": "https://dc.lft.to/lastmile_qr_scan", "ios": "https://dc.lft.to/lastmile_qr_scan"}, "fusion_lon": 0.0, "is_reserved": 0, "is_disabled": 0, "fusion_lat": 0.0, "type": "electric_scooter", "name": "cb4a3a6b4833596062cbcd7ac63d08c0", "lat": 38.903692, "bike_id": "cb4a3a6b4833596062cbcd7ac63d08c0"}, {"lon": -77.2394525, "rental_uris": {"android": "https://dc.lft.to/lastmile_qr_scan", "ios": "https://dc.lft.to/lastmile_qr_scan"}, "fusion_lon": 0.0, "is_reserved": 0, "is_disabled": 0, "fusion_lat": 0.0, "type": "electric_bike", "name": "d59afdcfc1a2314427f3a5ec9fb379d7", "lat": 38.924778833333335, "bike_id": "d59afdcfc1a2314427f3a5ec9fb379d7"}, {"lon": -77.032914, "rental_uris": {"android": "https://dc.lft.to/lastmile_qr_scan", "ios": "https://dc.lft.to/lastmile_qr_scan"}, "fusion_lon": 0.0, "is_reserved": 0, "is_disabled": 0, "fusion_lat": 0.0, "type": "electric_bike", "name": "e3027767756b7758bf9f953c6cad6ec2", "lat": 38.9564535, "bike_id": "e3027767756b7758bf9f953c6cad6ec2"}, {"lon": -77.03076516666667, "rental_uris": {"android": "https://dc.lft.to/lastmile_qr_scan", "ios": "https://dc.lft.to/lastmile_qr_scan"}, "fusion_lon": 0.0, "is_reserved": 0, "is_disabled": 0, "fusion_lat": 0.0, "type": "electric_scooter", "name": "178c68336606473f67f55eb4aca2a50a", "lat": 38.91919, "bike_id": "178c68336606473f67f55eb4aca2a50a"}, {"lon": -77.02724633333334, "rental_uris": {"android": "https://dc.lft.to/lastmile_qr_scan", "ios": "https://dc.lft.to/lastmile_qr_scan"}, "fusion_lon": 0.0, "is_reserved": 0, "is_disabled": 0, "fusion_lat": 0.0, "type": "electric_scooter", "name": "e1eb61a6d369fbda6f4375d140c5fccf", "lat": 38.898214333333335, "bike_id": "e1eb61a6d369fbda6f4375d140c5fccf"}, {"lon": -77.02778566666667, "rental_uris": {"android": "https://dc.lft.to/lastmile_qr_scan", "ios": "https://dc.lft.to/lastmile_qr_scan"}, "fusion_lon": 0.0, "is_reserved": 0, "is_disabled": 0, "fusion_lat": 0.0, "type": "electric_scooter", "name": "281bdb068fa06cbdae60df85467c9c26", "lat": 38.9170615, "bike_id": "281bdb068fa06cbdae60df85467c9c26"}, {"lon": -77.07902866666667, "rental_uris": {"android": "https://dc.lft.to/lastmile_qr_scan", "ios": "https://dc.lft.to/lastmile_qr_scan"}, "fusion_lon": 0.0, "is_reserved": 0, "is_disabled": 0, "fusion_lat": 0.0, "type": "electric_scooter", "name": "4972d2bb67fe5ff47313cdc2f6ed39eb", "lat": 38.9246315, "bike_id": "4972d2bb67fe5ff47313cdc2f6ed39eb"}, {"lon": -76.98728633333333, "rental_uris": {"android": "https://dc.lft.to/lastmile_qr_scan", "ios": "https://dc.lft.to/lastmile_qr_scan"}, "fusion_lon": 0.0, "is_reserved": 0, "is_disabled": 0, "fusion_lat": 0.0, "type": "electric_bike", "name": "61ad6f3651ba32c431fd8a6a09b8c66e", "lat": 38.86320933333333, "bike_id": "61ad6f3651ba32c431fd8a6a09b8c66e"}, {"lon": -77.05309866666667, "rental_uris": {"android": "https://dc.lft.to/lastmile_qr_scan", "ios": "https://dc.lft.to/lastmile_qr_scan"}, "fusion_lon": 0.0, "is_reserved": 0, "is_disabled": 0, "fusion_lat": 0.0, "type": "electric_scooter", "name": "db79f8b69d01b70142d400e92b198ef0", "lat": 38.902708, "bike_id": "db79f8b69d01b70142d400e92b198ef0"}, {"lon": -77.03362666666666, "rental_uris": {"android": "https://dc.lft.to/lastmile_qr_scan", "ios": "https://dc.lft.to/lastmile_qr_scan"}, "fusion_lon": 0.0, "is_reserved": 0, "is_disabled": 0, "fusion_lat": 0.0, "type": "electric_scooter", "name": "a3fad7e9a264f7e626c3fc4aec4caeb9", "lat": 38.945147166666665, "bike_id": "a3fad7e9a264f7e626c3fc4aec4caeb9"}, {"lon": -77.0489845, "rental_uris": {"android": "https://dc.lft.to/lastmile_qr_scan", "ios": "https://dc.lft.to/lastmile_qr_scan"}, "fusion_lon": 0.0, "is_reserved": 0, "is_disabled": 0, "fusion_lat": 0.0, "type": "electric_scooter", "name": "61f2b257cdd5053fff2b322a8960bd34", "lat": 38.892249166666666, "bike_id": "61f2b257cdd5053fff2b322a8960bd34"}, {"lon": -77.02428716666667, "rental_uris": {"android": "https://dc.lft.to/lastmile_qr_scan", "ios": "https://dc.lft.to/lastmile_qr_scan"}, "fusion_lon": 0.0, "is_reserved": 0, "is_disabled": 0, "fusion_lat": 0.0, "type": "electric_scooter", "name": "faed1381f66dc6be19b6b122b676595b", "lat": 38.9562, "bike_id": "faed1381f66dc6be19b6b122b676595b"}, {"lon": -77.03868766666666, "rental_uris": {"android": "https://dc.lft.to/lastmile_qr_scan", "ios": "https://dc.lft.to/lastmile_qr_scan"}, "fusion_lon": 0.0, "is_reserved": 0, "is_disabled": 0, "fusion_lat": 0.0, "type": "electric_scooter", "name": "a0b7f884aa826f5b72ccd4546a361456", "lat": 38.9057975, "bike_id": "a0b7f884aa826f5b72ccd4546a361456"}, {"lon": -77.23673083333334, "rental_uris": {"android": "https://dc.lft.to/lastmile_qr_scan", "ios": "https://dc.lft.to/lastmile_qr_scan"}, "fusion_lon": 0.0, "is_reserved": 0, "is_disabled": 0, "fusion_lat": 0.0, "type": "electric_bike", "name": "3096957918184523a28d3cd6a59f2caf", "lat": 38.9211525, "bike_id": "3096957918184523a28d3cd6a59f2caf"}, {"lon": -77.037587, "rental_uris": {"android": "https://dc.lft.to/lastmile_qr_scan", "ios": "https://dc.lft.to/lastmile_qr_scan"}, "fusion_lon": 0.0, "is_reserved": 0, "is_disabled": 0, "fusion_lat": 0.0, "type": "electric_scooter", "name": "d6fc18deb1dcc2b6c13325d4191471a5", "lat": 38.9022175, "bike_id": "d6fc18deb1dcc2b6c13325d4191471a5"}, {"lon": -77.0250825, "rental_uris": {"android": "https://dc.lft.to/lastmile_qr_scan", "ios": "https://dc.lft.to/lastmile_qr_scan"}, "fusion_lon": 0.0, "is_reserved": 0, "is_disabled": 0, "fusion_lat": 0.0, "type": "electric_scooter", "name": "ef942ecd0849c3d64dfcc026867eb786", "lat": 38.91922733333333, "bike_id": "ef942ecd0849c3d64dfcc026867eb786"}, {"lon": -77.00322833333334, "rental_uris": {"android": "https://dc.lft.to/lastmile_qr_scan", "ios": "https://dc.lft.to/lastmile_qr_scan"}, "fusion_lon": 0.0, "is_reserved": 0, "is_disabled": 0, "fusion_lat": 0.0, "type": "electric_scooter", "name": "93b514b24551bd0f476e25019b7e1f69", "lat": 38.87673183333333, "bike_id": "93b514b24551bd0f476e25019b7e1f69"}, {"lon": -77.00872533333333, "rental_uris": {"android": "https://dc.lft.to/lastmile_qr_scan", "ios": "https://dc.lft.to/lastmile_qr_scan"}, "fusion_lon": 0.0, "is_reserved": 0, "is_disabled": 0, "fusion_lat": 0.0, "type": "electric_scooter", "name": "8d7679671acb8161fd283109feb40d57", "lat": 38.905800666666664, "bike_id": "8d7679671acb8161fd283109feb40d57"}, {"lon": -77.033991, "rental_uris": {"android": "https://dc.lft.to/lastmile_qr_scan", "ios": "https://dc.lft.to/lastmile_qr_scan"}, "fusion_lon": 0.0, "is_reserved": 0, "is_disabled": 0, "fusion_lat": 0.0, "type": "electric_scooter", "name": "75ab35d4039ab61be602f1e55a64af46", "lat": 38.9383295, "bike_id": "75ab35d4039ab61be602f1e55a64af46"}, {"lon": -77.01755466666667, "rental_uris": {"android": "https://dc.lft.to/lastmile_qr_scan", "ios": "https://dc.lft.to/lastmile_qr_scan"}, "fusion_lon": 0.0, "is_reserved": 0, "is_disabled": 0, "fusion_lat": 0.0, "type": "electric_scooter", "name": "6e87ffa8ecc34ea1cd776b1e2a242d49", "lat": 38.8771855, "bike_id": "6e87ffa8ecc34ea1cd776b1e2a242d49"}, {"lon": -77.072879, "rental_uris": {"android": "https://dc.lft.to/lastmile_qr_scan", "ios": "https://dc.lft.to/lastmile_qr_scan"}, "fusion_lon": 0.0, "is_reserved": 0, "is_disabled": 0, "fusion_lat": 0.0, "type": "electric_scooter", "name": "00d684362ecbe3027a66c4b8eddd6af0", "lat": 38.909117, "bike_id": "00d684362ecbe3027a66c4b8eddd6af0"}, {"lon": -77.027449, "rental_uris": {"android": "https://dc.lft.to/lastmile_qr_scan", "ios": "https://dc.lft.to/lastmile_qr_scan"}, "fusion_lon": 0.0, "is_reserved": 0, "is_disabled": 0, "fusion_lat": 0.0, "type": "electric_scooter", "name": "8aa37d608373f7fa4ed847032a2364e9", "lat": 38.966080166666664, "bike_id": "8aa37d608373f7fa4ed847032a2364e9"}, {"lon": -77.02174216666667, "rental_uris": {"android": "https://dc.lft.to/lastmile_qr_scan", "ios": "https://dc.lft.to/lastmile_qr_scan"}, "fusion_lon": 0.0, "is_reserved": 0, "is_disabled": 0, "fusion_lat": 0.0, "type": "electric_scooter", "name": "0a951bf1794d22075e521341df819e6f", "lat": 38.91889166666667, "bike_id": "0a951bf1794d22075e521341df819e6f"}, {"lon": -77.00453133333333, "rental_uris": {"android": "https://dc.lft.to/lastmile_qr_scan", "ios": "https://dc.lft.to/lastmile_qr_scan"}, "fusion_lon": 0.0, "is_reserved": 0, "is_disabled": 0, "fusion_lat": 0.0, "type": "electric_scooter", "name": "63a9d378673187fee5c2a32ac22e1b17", "lat": 38.83785916666667, "bike_id": "63a9d378673187fee5c2a32ac22e1b17"}, {"lon": -77.02980466666666, "rental_uris": {"android": "https://dc.lft.to/lastmile_qr_scan", "ios": "https://dc.lft.to/lastmile_qr_scan"}, "fusion_lon": 0.0, "is_reserved": 0, "is_disabled": 0, "fusion_lat": 0.0, "type": "electric_scooter", "name": "0014c76dada3fe576e45c46f6c935d35", "lat": 38.91104216666667, "bike_id": "0014c76dada3fe576e45c46f6c935d35"}, {"lon": -77.04459016666667, "rental_uris": {"android": "https://dc.lft.to/lastmile_qr_scan", "ios": "https://dc.lft.to/lastmile_qr_scan"}, "fusion_lon": 0.0, "is_reserved": 0, "is_disabled": 0, "fusion_lat": 0.0, "type": "electric_scooter", "name": "155e53a86c899582d0c2cad136a71611", "lat": 38.90318933333333, "bike_id": "155e53a86c899582d0c2cad136a71611"}, {"lon": -76.984151, "rental_uris": {"android": "https://dc.lft.to/lastmile_qr_scan", "ios": "https://dc.lft.to/lastmile_qr_scan"}, "fusion_lon": 0.0, "is_reserved": 0, "is_disabled": 0, "fusion_lat": 0.0, "type": "electric_bike", "name": "2efb85f2e5cdfb9c1bcf5776fd4f3d2c", "lat": 38.90951066666667, "bike_id": "2efb85f2e5cdfb9c1bcf5776fd4f3d2c"}, {"lon": -77.03850133333333, "rental_uris": {"android": "https://dc.lft.to/lastmile_qr_scan", "ios": "https://dc.lft.to/lastmile_qr_scan"}, "fusion_lon": 0.0, "is_reserved": 0, "is_disabled": 0, "fusion_lat": 0.0, "type": "electric_scooter", "name": "c232aeced44bbfa809c82ad2df6e1913", "lat": 38.916669166666665, "bike_id": "c232aeced44bbfa809c82ad2df6e1913"}, {"lon": -77.01907916666667, "rental_uris": {"android": "https://dc.lft.to/lastmile_qr_scan", "ios": "https://dc.lft.to/lastmile_qr_scan"}, "fusion_lon": 0.0, "is_reserved": 0, "is_disabled": 0, "fusion_lat": 0.0, "type": "electric_scooter", "name": "8032b6c7a10db24a3d6227049cbfa5f5", "lat": 38.92019166666667, "bike_id": "8032b6c7a10db24a3d6227049cbfa5f5"}, {"lon": -76.98891683333333, "rental_uris": {"android": "https://dc.lft.to/lastmile_qr_scan", "ios": "https://dc.lft.to/lastmile_qr_scan"}, "fusion_lon": 0.0, "is_reserved": 0, "is_disabled": 0, "fusion_lat": 0.0, "type": "electric_scooter", "name": "560aa6f569bb11d5dc823954617def02", "lat": 38.861148166666666, "bike_id": "560aa6f569bb11d5dc823954617def02"}, {"lon": -77.07234566666666, "rental_uris": {"android": "https://dc.lft.to/lastmile_qr_scan", "ios": "https://dc.lft.to/lastmile_qr_scan"}, "fusion_lon": 0.0, "is_reserved": 0, "is_disabled": 0, "fusion_lat": 0.0, "type": "electric_scooter", "name": "4a0f0c9ce90d03238af6b6cfcc39f263", "lat": 38.93846533333333, "bike_id": "4a0f0c9ce90d03238af6b6cfcc39f263"}, {"lon": -77.05741866666666, "rental_uris": {"android": "https://dc.lft.to/lastmile_qr_scan", "ios": "https://dc.lft.to/lastmile_qr_scan"}, "fusion_lon": 0.0, "is_reserved": 0, "is_disabled": 0, "fusion_lat": 0.0, "type": "electric_scooter", "name": "2b55c1de10ea0cf47bc8263672577cf1", "lat": 38.935425, "bike_id": "2b55c1de10ea0cf47bc8263672577cf1"}, {"lon": -77.037433, "rental_uris": {"android": "https://dc.lft.to/lastmile_qr_scan", "ios": "https://dc.lft.to/lastmile_qr_scan"}, "fusion_lon": 0.0, "is_reserved": 0, "is_disabled": 0, "fusion_lat": 0.0, "type": "electric_scooter", "name": "7ff88ed5543ccea6fe49a45de6974ff6", "lat": 38.903486, "bike_id": "7ff88ed5543ccea6fe49a45de6974ff6"}, {"lon": -77.04660766666667, "rental_uris": {"android": "https://dc.lft.to/lastmile_qr_scan", "ios": "https://dc.lft.to/lastmile_qr_scan"}, "fusion_lon": 0.0, "is_reserved": 0, "is_disabled": 0, "fusion_lat": 0.0, "type": "electric_scooter", "name": "336e869ff43a1ae04418235b77f1fa70", "lat": 38.904227, "bike_id": "336e869ff43a1ae04418235b77f1fa70"}, {"lon": -77.046518, "rental_uris": {"android": "https://dc.lft.to/lastmile_qr_scan", "ios": "https://dc.lft.to/lastmile_qr_scan"}, "fusion_lon": 0.0, "is_reserved": 0, "is_disabled": 0, "fusion_lat": 0.0, "type": "electric_scooter", "name": "46043ba1b01ff8bca4b479cc801bc3db", "lat": 38.892280666666665, "bike_id": "46043ba1b01ff8bca4b479cc801bc3db"}, {"lon": -77.07468133333333, "rental_uris": {"android": "https://dc.lft.to/lastmile_qr_scan", "ios": "https://dc.lft.to/lastmile_qr_scan"}, "fusion_lon": 0.0, "is_reserved": 0, "is_disabled": 0, "fusion_lat": 0.0, "type": "electric_scooter", "name": "0f37ea1b7bbeaf897fda3e3c2f323e13", "lat": 38.935512333333335, "bike_id": "0f37ea1b7bbeaf897fda3e3c2f323e13"}, {"lon": -77.0464145, "rental_uris": {"android": "https://dc.lft.to/lastmile_qr_scan", "ios": "https://dc.lft.to/lastmile_qr_scan"}, "fusion_lon": 0.0, "is_reserved": 0, "is_disabled": 0, "fusion_lat": 0.0, "type": "electric_scooter", "name": "a8da8e82c96dc406a170ba1fb8653e9e", "lat": 38.899504, "bike_id": "a8da8e82c96dc406a170ba1fb8653e9e"}, {"lon": -77.0321905, "rental_uris": {"android": "https://dc.lft.to/lastmile_qr_scan", "ios": "https://dc.lft.to/lastmile_qr_scan"}, "fusion_lon": 0.0, "is_reserved": 0, "is_disabled": 0, "fusion_lat": 0.0, "type": "electric_scooter", "name": "7f04be3e345d7361a51675e9dd358a3a", "lat": 38.908676166666666, "bike_id": "7f04be3e345d7361a51675e9dd358a3a"}, {"lon": -77.0500265, "rental_uris": {"android": "https://dc.lft.to/lastmile_qr_scan", "ios": "https://dc.lft.to/lastmile_qr_scan"}, "fusion_lon": 0.0, "is_reserved": 0, "is_disabled": 0, "fusion_lat": 0.0, "type": "electric_scooter", "name": "49e2792b4000d4defb92649674eae85a", "lat": 38.905455833333335, "bike_id": "49e2792b4000d4defb92649674eae85a"}, {"lon": -77.01522866666667, "rental_uris": {"android": "https://dc.lft.to/lastmile_qr_scan", "ios": "https://dc.lft.to/lastmile_qr_scan"}, "fusion_lon": 0.0, "is_reserved": 0, "is_disabled": 0, "fusion_lat": 0.0, "type": "electric_scooter", "name": "8aaa4cffb90a195512fd8742b0723fd0", "lat": 38.89233383333333, "bike_id": "8aaa4cffb90a195512fd8742b0723fd0"}, {"lon": -76.97960783333333, "rental_uris": {"android": "https://dc.lft.to/lastmile_qr_scan", "ios": "https://dc.lft.to/lastmile_qr_scan"}, "fusion_lon": 0.0, "is_reserved": 0, "is_disabled": 0, "fusion_lat": 0.0, "type": "electric_scooter", "name": "992c1dc9c66417bf7ec94d51f9181ec5", "lat": 38.89209616666667, "bike_id": "992c1dc9c66417bf7ec94d51f9181ec5"}, {"lon": -77.04129933333333, "rental_uris": {"android": "https://dc.lft.to/lastmile_qr_scan", "ios": "https://dc.lft.to/lastmile_qr_scan"}, "fusion_lon": 0.0, "is_reserved": 0, "is_disabled": 0, "fusion_lat": 0.0, "type": "electric_scooter", "name": "e25d2abd714bf3bdc4a772e5cf6e5f8d", "lat": 38.921392833333336, "bike_id": "e25d2abd714bf3bdc4a772e5cf6e5f8d"}, {"lon": -77.03632716666667, "rental_uris": {"android": "https://dc.lft.to/lastmile_qr_scan", "ios": "https://dc.lft.to/lastmile_qr_scan"}, "fusion_lon": 0.0, "is_reserved": 0, "is_disabled": 0, "fusion_lat": 0.0, "type": "electric_scooter", "name": "d3f05fc4639399ee25a8224394443402", "lat": 38.934985833333336, "bike_id": "d3f05fc4639399ee25a8224394443402"}, {"lon": -77.04074583333333, "rental_uris": {"android": "https://dc.lft.to/lastmile_qr_scan", "ios": "https://dc.lft.to/lastmile_qr_scan"}, "fusion_lon": 0.0, "is_reserved": 0, "is_disabled": 0, "fusion_lat": 0.0, "type": "electric_scooter", "name": "a433dbe43cf006d69c33b10d77592ed4", "lat": 38.899283833333335, "bike_id": "a433dbe43cf006d69c33b10d77592ed4"}, {"lon": -77.01821083333333, "rental_uris": {"android": "https://dc.lft.to/lastmile_qr_scan", "ios": "https://dc.lft.to/lastmile_qr_scan"}, "fusion_lon": 0.0, "is_reserved": 0, "is_disabled": 0, "fusion_lat": 0.0, "type": "electric_scooter", "name": "c0e8125c3900505c0784c548b7ce8994", "lat": 38.920423666666665, "bike_id": "c0e8125c3900505c0784c548b7ce8994"}, {"lon": -76.98853566666666, "rental_uris": {"android": "https://dc.lft.to/lastmile_qr_scan", "ios": "https://dc.lft.to/lastmile_qr_scan"}, "fusion_lon": 0.0, "is_reserved": 0, "is_disabled": 0, "fusion_lat": 0.0, "type": "electric_scooter", "name": "d60b4743b63c510043bbbeefcfff58bb", "lat": 38.906992333333335, "bike_id": "d60b4743b63c510043bbbeefcfff58bb"}, {"lon": -77.04584716666666, "rental_uris": {"android": "https://dc.lft.to/lastmile_qr_scan", "ios": "https://dc.lft.to/lastmile_qr_scan"}, "fusion_lon": 0.0, "is_reserved": 0, "is_disabled": 0, "fusion_lat": 0.0, "type": "electric_scooter", "name": "8f3b7c284893c886fd703a1fc025c66e", "lat": 38.90275316666666, "bike_id": "8f3b7c284893c886fd703a1fc025c66e"}, {"lon": -77.032807, "rental_uris": {"android": "https://dc.lft.to/lastmile_qr_scan", "ios": "https://dc.lft.to/lastmile_qr_scan"}, "fusion_lon": 0.0, "is_reserved": 0, "is_disabled": 0, "fusion_lat": 0.0, "type": "electric_scooter", "name": "528cb756356d813ba72278d19a5ace5f", "lat": 38.93761683333334, "bike_id": "528cb756356d813ba72278d19a5ace5f"}, {"lon": -77.02323716666666, "rental_uris": {"android": "https://dc.lft.to/lastmile_qr_scan", "ios": "https://dc.lft.to/lastmile_qr_scan"}, "fusion_lon": 0.0, "is_reserved": 0, "is_disabled": 0, "fusion_lat": 0.0, "type": "electric_scooter", "name": "a59ce118c9fd07f006a61ae327f6ec53", "lat": 38.87879316666667, "bike_id": "a59ce118c9fd07f006a61ae327f6ec53"}, {"lon": -77.1525165, "rental_uris": {"android": "https://dc.lft.to/lastmile_qr_scan", "ios": "https://dc.lft.to/lastmile_qr_scan"}, "fusion_lon": 0.0, "is_reserved": 0, "is_disabled": 0, "fusion_lat": 0.0, "type": "electric_bike", "name": "d4aa3d8698eed3539e6c2bf7c1b29af5", "lat": 39.086086, "bike_id": "d4aa3d8698eed3539e6c2bf7c1b29af5"}, {"lon": -76.98759283333334, "rental_uris": {"android": "https://dc.lft.to/lastmile_qr_scan", "ios": "https://dc.lft.to/lastmile_qr_scan"}, "fusion_lon": 0.0, "is_reserved": 0, "is_disabled": 0, "fusion_lat": 0.0, "type": "electric_bike", "name": "632b36bb138bef908b8aca4a9e2e219f", "lat": 38.857604, "bike_id": "632b36bb138bef908b8aca4a9e2e219f"}, {"lon": -77.0448, "rental_uris": {"android": "https://dc.lft.to/lastmile_qr_scan", "ios": "https://dc.lft.to/lastmile_qr_scan"}, "fusion_lon": 0.0, "is_reserved": 0, "is_disabled": 0, "fusion_lat": 0.0, "type": "electric_scooter", "name": "4a381ceb9bd84fde9808e11b18f5e79f", "lat": 38.9087, "bike_id": "4a381ceb9bd84fde9808e11b18f5e79f"}, {"lon": -77.0388695, "rental_uris": {"android": "https://dc.lft.to/lastmile_qr_scan", "ios": "https://dc.lft.to/lastmile_qr_scan"}, "fusion_lon": 0.0, "is_reserved": 0, "is_disabled": 0, "fusion_lat": 0.0, "type": "electric_scooter", "name": "a6f0f821d0849a03338fbbd803a02abf", "lat": 38.90349883333333, "bike_id": "a6f0f821d0849a03338fbbd803a02abf"}, {"lon": -77.05878383333334, "rental_uris": {"android": "https://dc.lft.to/lastmile_qr_scan", "ios": "https://dc.lft.to/lastmile_qr_scan"}, "fusion_lon": 0.0, "is_reserved": 0, "is_disabled": 0, "fusion_lat": 0.0, "type": "electric_scooter", "name": "de41048f59e0c2dcfe713f50e57427c3", "lat": 38.93628283333334, "bike_id": "de41048f59e0c2dcfe713f50e57427c3"}, {"lon": -77.075804, "rental_uris": {"android": "https://dc.lft.to/lastmile_qr_scan", "ios": "https://dc.lft.to/lastmile_qr_scan"}, "fusion_lon": 0.0, "is_reserved": 0, "is_disabled": 0, "fusion_lat": 0.0, "type": "electric_scooter", "name": "5b4b23fcb98a644a847956662256c804", "lat": 38.9120125, "bike_id": "5b4b23fcb98a644a847956662256c804"}, {"lon": -77.03200233333334, "rental_uris": {"android": "https://dc.lft.to/lastmile_qr_scan", "ios": "https://dc.lft.to/lastmile_qr_scan"}, "fusion_lon": 0.0, "is_reserved": 0, "is_disabled": 0, "fusion_lat": 0.0, "type": "electric_scooter", "name": "47cfaddefaaa5e6015043d9960414361", "lat": 38.9010955, "bike_id": "47cfaddefaaa5e6015043d9960414361"}, {"lon": -77.02076283333334, "rental_uris": {"android": "https://dc.lft.to/lastmile_qr_scan", "ios": "https://dc.lft.to/lastmile_qr_scan"}, "fusion_lon": 0.0, "is_reserved": 0, "is_disabled": 0, "fusion_lat": 0.0, "type": "electric_scooter", "name": "cd8f45fac0bfdf4dd4835df618d1081a", "lat": 38.902281333333335, "bike_id": "cd8f45fac0bfdf4dd4835df618d1081a"}, {"lon": -76.96705616666667, "rental_uris": {"android": "https://dc.lft.to/lastmile_qr_scan", "ios": "https://dc.lft.to/lastmile_qr_scan"}, "fusion_lon": 0.0, "is_reserved": 0, "is_disabled": 0, "fusion_lat": 0.0, "type": "electric_scooter", "name": "fd246001365ae43f38e8c388db6e7fe9", "lat": 38.860109, "bike_id": "fd246001365ae43f38e8c388db6e7fe9"}, {"lon": -77.03142833333334, "rental_uris": {"android": "https://dc.lft.to/lastmile_qr_scan", "ios": "https://dc.lft.to/lastmile_qr_scan"}, "fusion_lon": 0.0, "is_reserved": 0, "is_disabled": 0, "fusion_lat": 0.0, "type": "electric_scooter", "name": "521fbf22b50ee7471c8abffff6591d74", "lat": 38.941792666666665, "bike_id": "521fbf22b50ee7471c8abffff6591d74"}, {"lon": -77.0486375, "rental_uris": {"android": "https://dc.lft.to/lastmile_qr_scan", "ios": "https://dc.lft.to/lastmile_qr_scan"}, "fusion_lon": 0.0, "is_reserved": 0, "is_disabled": 0, "fusion_lat": 0.0, "type": "electric_scooter", "name": "6ec45c173ef6171f75e712b05849dc33", "lat": 38.89224433333333, "bike_id": "6ec45c173ef6171f75e712b05849dc33"}, {"lon": -77.04538983333333, "rental_uris": {"android": "https://dc.lft.to/lastmile_qr_scan", "ios": "https://dc.lft.to/lastmile_qr_scan"}, "fusion_lon": 0.0, "is_reserved": 0, "is_disabled": 0, "fusion_lat": 0.0, "type": "electric_scooter", "name": "99574c93d0823c1ed49efee4e1a0520c", "lat": 38.911040666666665, "bike_id": "99574c93d0823c1ed49efee4e1a0520c"}, {"lon": -77.03192, "rental_uris": {"android": "https://dc.lft.to/lastmile_qr_scan", "ios": "https://dc.lft.to/lastmile_qr_scan"}, "fusion_lon": 0.0, "is_reserved": 0, "is_disabled": 0, "fusion_lat": 0.0, "type": "electric_scooter", "name": "45b90f2b8c51b5a267a460117547ab78", "lat": 38.90822516666667, "bike_id": "45b90f2b8c51b5a267a460117547ab78"}, {"lon": -77.02058, "rental_uris": {"android": "https://dc.lft.to/lastmile_qr_scan", "ios": "https://dc.lft.to/lastmile_qr_scan"}, "fusion_lon": 0.0, "is_reserved": 0, "is_disabled": 0, "fusion_lat": 0.0, "type": "electric_scooter", "name": "8ef815fe81abe60fff4f73c9afee46e8", "lat": 38.915641, "bike_id": "8ef815fe81abe60fff4f73c9afee46e8"}, {"lon": -77.02402883333333, "rental_uris": {"android": "https://dc.lft.to/lastmile_qr_scan", "ios": "https://dc.lft.to/lastmile_qr_scan"}, "fusion_lon": 0.0, "is_reserved": 0, "is_disabled": 0, "fusion_lat": 0.0, "type": "electric_scooter", "name": "dbb21b32ae1cf8402e67e6fb3bb25024", "lat": 38.897407333333334, "bike_id": "dbb21b32ae1cf8402e67e6fb3bb25024"}, {"lon": -77.0531965, "rental_uris": {"android": "https://dc.lft.to/lastmile_qr_scan", "ios": "https://dc.lft.to/lastmile_qr_scan"}, "fusion_lon": 0.0, "is_reserved": 0, "is_disabled": 0, "fusion_lat": 0.0, "type": "electric_scooter", "name": "0afb31cc23e388d7f1a8366eba548a43", "lat": 38.904193666666664, "bike_id": "0afb31cc23e388d7f1a8366eba548a43"}, {"lon": -77.0316895, "rental_uris": {"android": "https://dc.lft.to/lastmile_qr_scan", "ios": "https://dc.lft.to/lastmile_qr_scan"}, "fusion_lon": 0.0, "is_reserved": 0, "is_disabled": 0, "fusion_lat": 0.0, "type": "electric_scooter", "name": "0c2988588a1837ba1fcd83ffbea899fb", "lat": 38.9192445, "bike_id": "0c2988588a1837ba1fcd83ffbea899fb"}, {"lon": -77.00941466666667, "rental_uris": {"android": "https://dc.lft.to/lastmile_qr_scan", "ios": "https://dc.lft.to/lastmile_qr_scan"}, "fusion_lon": 0.0, "is_reserved": 0, "is_disabled": 0, "fusion_lat": 0.0, "type": "electric_scooter", "name": "745e97351ca6c1532ded84d5649e2bb8", "lat": 38.90851383333333, "bike_id": "745e97351ca6c1532ded84d5649e2bb8"}, {"lon": -77.04349, "rental_uris": {"android": "https://dc.lft.to/lastmile_qr_scan", "ios": "https://dc.lft.to/lastmile_qr_scan"}, "fusion_lon": 0.0, "is_reserved": 0, "is_disabled": 0, "fusion_lat": 0.0, "type": "electric_scooter", "name": "6ba25719b15c44ec3a5b0b1abc9d49b6", "lat": 38.90236633333333, "bike_id": "6ba25719b15c44ec3a5b0b1abc9d49b6"}, {"lon": -77.04591816666667, "rental_uris": {"android": "https://dc.lft.to/lastmile_qr_scan", "ios": "https://dc.lft.to/lastmile_qr_scan"}, "fusion_lon": 0.0, "is_reserved": 0, "is_disabled": 0, "fusion_lat": 0.0, "type": "electric_scooter", "name": "6a20006ecaef6d47cbb9244f808682e9", "lat": 38.9026365, "bike_id": "6a20006ecaef6d47cbb9244f808682e9"}, {"lon": -77.01061833333333, "rental_uris": {"android": "https://dc.lft.to/lastmile_qr_scan", "ios": "https://dc.lft.to/lastmile_qr_scan"}, "fusion_lon": 0.0, "is_reserved": 0, "is_disabled": 0, "fusion_lat": 0.0, "type": "electric_scooter", "name": "8515d92d3e845ed7fcaaf896c5fa56ce", "lat": 38.8948725, "bike_id": "8515d92d3e845ed7fcaaf896c5fa56ce"}, {"lon": -76.99612016666667, "rental_uris": {"android": "https://dc.lft.to/lastmile_qr_scan", "ios": "https://dc.lft.to/lastmile_qr_scan"}, "fusion_lon": 0.0, "is_reserved": 0, "is_disabled": 0, "fusion_lat": 0.0, "type": "electric_scooter", "name": "5f60b26c3337bc2a7e276c417a5b01e3", "lat": 38.882571, "bike_id": "5f60b26c3337bc2a7e276c417a5b01e3"}, {"lon": -77.05023366666667, "rental_uris": {"android": "https://dc.lft.to/lastmile_qr_scan", "ios": "https://dc.lft.to/lastmile_qr_scan"}, "fusion_lon": 0.0, "is_reserved": 0, "is_disabled": 0, "fusion_lat": 0.0, "type": "electric_scooter", "name": "d36db5033fe91c45ad9205ff4eca96cf", "lat": 38.898228833333334, "bike_id": "d36db5033fe91c45ad9205ff4eca96cf"}, {"lon": -77.038454, "rental_uris": {"android": "https://dc.lft.to/lastmile_qr_scan", "ios": "https://dc.lft.to/lastmile_qr_scan"}, "fusion_lon": 0.0, "is_reserved": 0, "is_disabled": 0, "fusion_lat": 0.0, "type": "electric_scooter", "name": "119fc61d72f6ca397833565e7f968c78", "lat": 38.90279916666667, "bike_id": "119fc61d72f6ca397833565e7f968c78"}, {"lon": -77.018505, "rental_uris": {"android": "https://dc.lft.to/lastmile_qr_scan", "ios": "https://dc.lft.to/lastmile_qr_scan"}, "fusion_lon": 0.0, "is_reserved": 0, "is_disabled": 0, "fusion_lat": 0.0, "type": "electric_scooter", "name": "14e4ccfbca510dc2d6d24370833b8b5b", "lat": 38.948882, "bike_id": "14e4ccfbca510dc2d6d24370833b8b5b"}, {"lon": -77.07900166666667, "rental_uris": {"android": "https://dc.lft.to/lastmile_qr_scan", "ios": "https://dc.lft.to/lastmile_qr_scan"}, "fusion_lon": 0.0, "is_reserved": 0, "is_disabled": 0, "fusion_lat": 0.0, "type": "electric_bike", "name": "7504a05b9b8e8b503a1a1335bc4e6787", "lat": 38.848198333333336, "bike_id": "7504a05b9b8e8b503a1a1335bc4e6787"}, {"lon": -77.05898883333333, "rental_uris": {"android": "https://dc.lft.to/lastmile_qr_scan", "ios": "https://dc.lft.to/lastmile_qr_scan"}, "fusion_lon": 0.0, "is_reserved": 0, "is_disabled": 0, "fusion_lat": 0.0, "type": "electric_scooter", "name": "3cde0c1cfcd3da03715707048ed7052a", "lat": 38.902781, "bike_id": "3cde0c1cfcd3da03715707048ed7052a"}, {"lon": -77.02132716666667, "rental_uris": {"android": "https://dc.lft.to/lastmile_qr_scan", "ios": "https://dc.lft.to/lastmile_qr_scan"}, "fusion_lon": 0.0, "is_reserved": 0, "is_disabled": 0, "fusion_lat": 0.0, "type": "electric_scooter", "name": "1f1f47d4118f7d46ad6d19a889269040", "lat": 38.92432133333333, "bike_id": "1f1f47d4118f7d46ad6d19a889269040"}, {"lon": -76.99496366666666, "rental_uris": {"android": "https://dc.lft.to/lastmile_qr_scan", "ios": "https://dc.lft.to/lastmile_qr_scan"}, "fusion_lon": 0.0, "is_reserved": 0, "is_disabled": 0, "fusion_lat": 0.0, "type": "electric_scooter", "name": "76be0e9053382a1e735675f460495231", "lat": 38.89973616666666, "bike_id": "76be0e9053382a1e735675f460495231"}, {"lon": -76.9922395, "rental_uris": {"android": "https://dc.lft.to/lastmile_qr_scan", "ios": "https://dc.lft.to/lastmile_qr_scan"}, "fusion_lon": 0.0, "is_reserved": 0, "is_disabled": 0, "fusion_lat": 0.0, "type": "electric_scooter", "name": "621d4b7ae82d845a6bdeeb15baabeb16", "lat": 38.86287216666667, "bike_id": "621d4b7ae82d845a6bdeeb15baabeb16"}, {"lon": -77.0727765, "rental_uris": {"android": "https://dc.lft.to/lastmile_qr_scan", "ios": "https://dc.lft.to/lastmile_qr_scan"}, "fusion_lon": 0.0, "is_reserved": 0, "is_disabled": 0, "fusion_lat": 0.0, "type": "electric_scooter", "name": "f1fedb2995ec2891da4b8f48ce0c7acf", "lat": 38.90912633333333, "bike_id": "f1fedb2995ec2891da4b8f48ce0c7acf"}, {"lon": -77.03537183333333, "rental_uris": {"android": "https://dc.lft.to/lastmile_qr_scan", "ios": "https://dc.lft.to/lastmile_qr_scan"}, "fusion_lon": 0.0, "is_reserved": 0, "is_disabled": 0, "fusion_lat": 0.0, "type": "electric_scooter", "name": "4a7b8b00c7302274731eb46441f6133b", "lat": 38.907312166666664, "bike_id": "4a7b8b00c7302274731eb46441f6133b"}, {"lon": -77.0343375, "rental_uris": {"android": "https://dc.lft.to/lastmile_qr_scan", "ios": "https://dc.lft.to/lastmile_qr_scan"}, "fusion_lon": 0.0, "is_reserved": 0, "is_disabled": 0, "fusion_lat": 0.0, "type": "electric_scooter", "name": "7c734bc32f5395b5e3e86db018c931b7", "lat": 38.90271083333333, "bike_id": "7c734bc32f5395b5e3e86db018c931b7"}, {"lon": -77.03254983333333, "rental_uris": {"android": "https://dc.lft.to/lastmile_qr_scan", "ios": "https://dc.lft.to/lastmile_qr_scan"}, "fusion_lon": 0.0, "is_reserved": 0, "is_disabled": 0, "fusion_lat": 0.0, "type": "electric_scooter", "name": "5acc473b41756fa026add9785c169921", "lat": 38.9275675, "bike_id": "5acc473b41756fa026add9785c169921"}, {"lon": -77.03804966666667, "rental_uris": {"android": "https://dc.lft.to/lastmile_qr_scan", "ios": "https://dc.lft.to/lastmile_qr_scan"}, "fusion_lon": 0.0, "is_reserved": 0, "is_disabled": 0, "fusion_lat": 0.0, "type": "electric_scooter", "name": "48b6df358a8ac643e76da0a96f670435", "lat": 38.90680066666667, "bike_id": "48b6df358a8ac643e76da0a96f670435"}, {"lon": -76.9806975, "rental_uris": {"android": "https://dc.lft.to/lastmile_qr_scan", "ios": "https://dc.lft.to/lastmile_qr_scan"}, "fusion_lon": 0.0, "is_reserved": 0, "is_disabled": 0, "fusion_lat": 0.0, "type": "electric_scooter", "name": "54c8a110a023e01844a24308293ae85b", "lat": 38.880141333333334, "bike_id": "54c8a110a023e01844a24308293ae85b"}, {"lon": -77.01403533333334, "rental_uris": {"android": "https://dc.lft.to/lastmile_qr_scan", "ios": "https://dc.lft.to/lastmile_qr_scan"}, "fusion_lon": 0.0, "is_reserved": 0, "is_disabled": 0, "fusion_lat": 0.0, "type": "electric_scooter", "name": "af247118a0ee5ef2f47d68e263050b5b", "lat": 38.88735633333334, "bike_id": "af247118a0ee5ef2f47d68e263050b5b"}, {"lon": -77.03963983333334, "rental_uris": {"android": "https://dc.lft.to/lastmile_qr_scan", "ios": "https://dc.lft.to/lastmile_qr_scan"}, "fusion_lon": 0.0, "is_reserved": 0, "is_disabled": 0, "fusion_lat": 0.0, "type": "electric_scooter", "name": "c3eac897d4451b9628452ef120424f5f", "lat": 38.906026833333335, "bike_id": "c3eac897d4451b9628452ef120424f5f"}, {"lon": -77.0089605, "rental_uris": {"android": "https://dc.lft.to/lastmile_qr_scan", "ios": "https://dc.lft.to/lastmile_qr_scan"}, "fusion_lon": 0.0, "is_reserved": 0, "is_disabled": 0, "fusion_lat": 0.0, "type": "electric_scooter", "name": "d60702029312b708af8e7ec4db06a1b6", "lat": 38.8850135, "bike_id": "d60702029312b708af8e7ec4db06a1b6"}, {"lon": -77.03439833333333, "rental_uris": {"android": "https://dc.lft.to/lastmile_qr_scan", "ios": "https://dc.lft.to/lastmile_qr_scan"}, "fusion_lon": 0.0, "is_reserved": 0, "is_disabled": 0, "fusion_lat": 0.0, "type": "electric_scooter", "name": "c2ab6ce6058f42dccd8572bb3a2bf2ef", "lat": 38.9039, "bike_id": "c2ab6ce6058f42dccd8572bb3a2bf2ef"}, {"lon": -77.02158633333333, "rental_uris": {"android": "https://dc.lft.to/lastmile_qr_scan", "ios": "https://dc.lft.to/lastmile_qr_scan"}, "fusion_lon": 0.0, "is_reserved": 0, "is_disabled": 0, "fusion_lat": 0.0, "type": "electric_scooter", "name": "a37a4b17fa4ee0fd08274949750900d0", "lat": 38.92610166666667, "bike_id": "a37a4b17fa4ee0fd08274949750900d0"}, {"lon": -77.04915933333334, "rental_uris": {"android": "https://dc.lft.to/lastmile_qr_scan", "ios": "https://dc.lft.to/lastmile_qr_scan"}, "fusion_lon": 0.0, "is_reserved": 0, "is_disabled": 0, "fusion_lat": 0.0, "type": "electric_scooter", "name": "6e7c01f62c169aa4d4a5e9d8c246be9c", "lat": 38.8982645, "bike_id": "6e7c01f62c169aa4d4a5e9d8c246be9c"}, {"lon": -77.03437183333334, "rental_uris": {"android": "https://dc.lft.to/lastmile_qr_scan", "ios": "https://dc.lft.to/lastmile_qr_scan"}, "fusion_lon": 0.0, "is_reserved": 0, "is_disabled": 0, "fusion_lat": 0.0, "type": "electric_scooter", "name": "49e227e042bdf2f06ab83aa920dd52da", "lat": 38.9095565, "bike_id": "49e227e042bdf2f06ab83aa920dd52da"}, {"lon": -77.0029575, "rental_uris": {"android": "https://dc.lft.to/lastmile_qr_scan", "ios": "https://dc.lft.to/lastmile_qr_scan"}, "fusion_lon": 0.0, "is_reserved": 0, "is_disabled": 0, "fusion_lat": 0.0, "type": "electric_scooter", "name": "bbba715f801afc10144bc9f018ec620f", "lat": 38.891972333333335, "bike_id": "bbba715f801afc10144bc9f018ec620f"}, {"lon": -76.97336733333333, "rental_uris": {"android": "https://dc.lft.to/lastmile_qr_scan", "ios": "https://dc.lft.to/lastmile_qr_scan"}, "fusion_lon": 0.0, "is_reserved": 0, "is_disabled": 0, "fusion_lat": 0.0, "type": "electric_bike", "name": "54ece21e9819ae482fb46f2daf3270cc", "lat": 38.897217, "bike_id": "54ece21e9819ae482fb46f2daf3270cc"}, {"lon": -77.0005635, "rental_uris": {"android": "https://dc.lft.to/lastmile_qr_scan", "ios": "https://dc.lft.to/lastmile_qr_scan"}, "fusion_lon": 0.0, "is_reserved": 0, "is_disabled": 0, "fusion_lat": 0.0, "type": "electric_scooter", "name": "1640ed57d3daa5c8ef511470ba0212e5", "lat": 38.87366166666666, "bike_id": "1640ed57d3daa5c8ef511470ba0212e5"}, {"lon": -76.97801916666667, "rental_uris": {"android": "https://dc.lft.to/lastmile_qr_scan", "ios": "https://dc.lft.to/lastmile_qr_scan"}, "fusion_lon": 0.0, "is_reserved": 0, "is_disabled": 0, "fusion_lat": 0.0, "type": "electric_scooter", "name": "15cd0babc7f00df26d0fe7cb5014a182", "lat": 38.90310566666667, "bike_id": "15cd0babc7f00df26d0fe7cb5014a182"}, {"lon": -77.063553, "rental_uris": {"android": "https://dc.lft.to/lastmile_qr_scan", "ios": "https://dc.lft.to/lastmile_qr_scan"}, "fusion_lon": 0.0, "is_reserved": 0, "is_disabled": 0, "fusion_lat": 0.0, "type": "electric_scooter", "name": "1d7fa3787b9e4ab09d2be53926013118", "lat": 38.94450366666667, "bike_id": "1d7fa3787b9e4ab09d2be53926013118"}, {"lon": -77.01130116666667, "rental_uris": {"android": "https://dc.lft.to/lastmile_qr_scan", "ios": "https://dc.lft.to/lastmile_qr_scan"}, "fusion_lon": 0.0, "is_reserved": 0, "is_disabled": 0, "fusion_lat": 0.0, "type": "electric_scooter", "name": "dee1e87baa9a517fcb924d934f6be60f", "lat": 38.89543283333333, "bike_id": "dee1e87baa9a517fcb924d934f6be60f"}, {"lon": -77.0223825, "rental_uris": {"android": "https://dc.lft.to/lastmile_qr_scan", "ios": "https://dc.lft.to/lastmile_qr_scan"}, "fusion_lon": 0.0, "is_reserved": 0, "is_disabled": 0, "fusion_lat": 0.0, "type": "electric_scooter", "name": "b7313fc780491eb703df44c650cc4cb9", "lat": 38.9141525, "bike_id": "b7313fc780491eb703df44c650cc4cb9"}, {"lon": -77.02493966666667, "rental_uris": {"android": "https://dc.lft.to/lastmile_qr_scan", "ios": "https://dc.lft.to/lastmile_qr_scan"}, "fusion_lon": 0.0, "is_reserved": 0, "is_disabled": 0, "fusion_lat": 0.0, "type": "electric_scooter", "name": "ba9646e26c1da4f43e511ce3a8e33118", "lat": 38.904126833333336, "bike_id": "ba9646e26c1da4f43e511ce3a8e33118"}, {"lon": -77.044737, "rental_uris": {"android": "https://dc.lft.to/lastmile_qr_scan", "ios": "https://dc.lft.to/lastmile_qr_scan"}, "fusion_lon": 0.0, "is_reserved": 0, "is_disabled": 0, "fusion_lat": 0.0, "type": "electric_scooter", "name": "d45fc2b2ce9b9745131a0c65faa794c6", "lat": 38.903898833333336, "bike_id": "d45fc2b2ce9b9745131a0c65faa794c6"}, {"lon": -77.04448833333333, "rental_uris": {"android": "https://dc.lft.to/lastmile_qr_scan", "ios": "https://dc.lft.to/lastmile_qr_scan"}, "fusion_lon": 0.0, "is_reserved": 0, "is_disabled": 0, "fusion_lat": 0.0, "type": "electric_bike", "name": "fae9b93191bc887a26073402e9cf1fe7", "lat": 38.90795033333333, "bike_id": "fae9b93191bc887a26073402e9cf1fe7"}, {"lon": -77.03186183333334, "rental_uris": {"android": "https://dc.lft.to/lastmile_qr_scan", "ios": "https://dc.lft.to/lastmile_qr_scan"}, "fusion_lon": 0.0, "is_reserved": 0, "is_disabled": 0, "fusion_lat": 0.0, "type": "electric_scooter", "name": "879275d9cb968a23ff6b18c1646c9e77", "lat": 38.891858, "bike_id": "879275d9cb968a23ff6b18c1646c9e77"}, {"lon": -77.0205585, "rental_uris": {"android": "https://dc.lft.to/lastmile_qr_scan", "ios": "https://dc.lft.to/lastmile_qr_scan"}, "fusion_lon": 0.0, "is_reserved": 0, "is_disabled": 0, "fusion_lat": 0.0, "type": "electric_scooter", "name": "d833a1fa3be09b0cf83678f191448366", "lat": 38.904080666666665, "bike_id": "d833a1fa3be09b0cf83678f191448366"}, {"lon": -77.03222216666667, "rental_uris": {"android": "https://dc.lft.to/lastmile_qr_scan", "ios": "https://dc.lft.to/lastmile_qr_scan"}, "fusion_lon": 0.0, "is_reserved": 0, "is_disabled": 0, "fusion_lat": 0.0, "type": "electric_scooter", "name": "a16f4c4695fff5e3369ddddfbba2752c", "lat": 38.928818666666665, "bike_id": "a16f4c4695fff5e3369ddddfbba2752c"}, {"lon": -77.04677266666667, "rental_uris": {"android": "https://dc.lft.to/lastmile_qr_scan", "ios": "https://dc.lft.to/lastmile_qr_scan"}, "fusion_lon": 0.0, "is_reserved": 0, "is_disabled": 0, "fusion_lat": 0.0, "type": "electric_scooter", "name": "77f0115bdaa6881f7d59c250248c38f1", "lat": 38.90266916666667, "bike_id": "77f0115bdaa6881f7d59c250248c38f1"}, {"lon": -77.02090716666666, "rental_uris": {"android": "https://dc.lft.to/lastmile_qr_scan", "ios": "https://dc.lft.to/lastmile_qr_scan"}, "fusion_lon": 0.0, "is_reserved": 0, "is_disabled": 0, "fusion_lat": 0.0, "type": "electric_scooter", "name": "a67837c566197e690d2fce734543e619", "lat": 38.9010585, "bike_id": "a67837c566197e690d2fce734543e619"}, {"lon": -77.00601383333333, "rental_uris": {"android": "https://dc.lft.to/lastmile_qr_scan", "ios": "https://dc.lft.to/lastmile_qr_scan"}, "fusion_lon": 0.0, "is_reserved": 0, "is_disabled": 0, "fusion_lat": 0.0, "type": "electric_bike", "name": "7093f83845d0249d23a5cee2acfc1be0", "lat": 38.8980905, "bike_id": "7093f83845d0249d23a5cee2acfc1be0"}, {"lon": -77.00535716666667, "rental_uris": {"android": "https://dc.lft.to/lastmile_qr_scan", "ios": "https://dc.lft.to/lastmile_qr_scan"}, "fusion_lon": 0.0, "is_reserved": 0, "is_disabled": 0, "fusion_lat": 0.0, "type": "electric_scooter", "name": "6d6d444a0032f64baba9d989f67b70a8", "lat": 38.87542766666667, "bike_id": "6d6d444a0032f64baba9d989f67b70a8"}, {"lon": -77.02949716666667, "rental_uris": {"android": "https://dc.lft.to/lastmile_qr_scan", "ios": "https://dc.lft.to/lastmile_qr_scan"}, "fusion_lon": 0.0, "is_reserved": 0, "is_disabled": 0, "fusion_lat": 0.0, "type": "electric_scooter", "name": "d437c6366a3f432bd96c8ce3837914ed", "lat": 38.913437333333334, "bike_id": "d437c6366a3f432bd96c8ce3837914ed"}, {"lon": -77.0176305, "rental_uris": {"android": "https://dc.lft.to/lastmile_qr_scan", "ios": "https://dc.lft.to/lastmile_qr_scan"}, "fusion_lon": 0.0, "is_reserved": 0, "is_disabled": 0, "fusion_lat": 0.0, "type": "electric_scooter", "name": "23ba8a395621f834a4b7c6fcc15bc170", "lat": 38.900843333333334, "bike_id": "23ba8a395621f834a4b7c6fcc15bc170"}, {"lon": -77.044794, "rental_uris": {"android": "https://dc.lft.to/lastmile_qr_scan", "ios": "https://dc.lft.to/lastmile_qr_scan"}, "fusion_lon": 0.0, "is_reserved": 0, "is_disabled": 0, "fusion_lat": 0.0, "type": "electric_scooter", "name": "5d4ac5ab8bbfc321e74721314cffa150", "lat": 38.9140745, "bike_id": "5d4ac5ab8bbfc321e74721314cffa150"}, {"lon": -77.11287433333334, "rental_uris": {"android": "https://dc.lft.to/lastmile_qr_scan", "ios": "https://dc.lft.to/lastmile_qr_scan"}, "fusion_lon": 0.0, "is_reserved": 0, "is_disabled": 0, "fusion_lat": 0.0, "type": "electric_bike", "name": "cf9fe77c0121756499a830661ae02e4a", "lat": 38.83104216666667, "bike_id": "cf9fe77c0121756499a830661ae02e4a"}, {"lon": -77.00708, "rental_uris": {"android": "https://dc.lft.to/lastmile_qr_scan", "ios": "https://dc.lft.to/lastmile_qr_scan"}, "fusion_lon": 0.0, "is_reserved": 0, "is_disabled": 0, "fusion_lat": 0.0, "type": "electric_scooter", "name": "a7fec2c8d8400db16e7094468d0c3c74", "lat": 38.8849225, "bike_id": "a7fec2c8d8400db16e7094468d0c3c74"}, {"lon": -77.04998266666666, "rental_uris": {"android": "https://dc.lft.to/lastmile_qr_scan", "ios": "https://dc.lft.to/lastmile_qr_scan"}, "fusion_lon": 0.0, "is_reserved": 0, "is_disabled": 0, "fusion_lat": 0.0, "type": "electric_scooter", "name": "1f46be2e3fb3f198499079ca90f6fabe", "lat": 38.901112166666664, "bike_id": "1f46be2e3fb3f198499079ca90f6fabe"}, {"lon": -77.01222566666667, "rental_uris": {"android": "https://dc.lft.to/lastmile_qr_scan", "ios": "https://dc.lft.to/lastmile_qr_scan"}, "fusion_lon": 0.0, "is_reserved": 0, "is_disabled": 0, "fusion_lat": 0.0, "type": "electric_scooter", "name": "b0f895179e1eaa23607fb5ecc0ab2dbe", "lat": 38.893386666666665, "bike_id": "b0f895179e1eaa23607fb5ecc0ab2dbe"}, {"lon": -77.02368316666667, "rental_uris": {"android": "https://dc.lft.to/lastmile_qr_scan", "ios": "https://dc.lft.to/lastmile_qr_scan"}, "fusion_lon": 0.0, "is_reserved": 0, "is_disabled": 0, "fusion_lat": 0.0, "type": "electric_scooter", "name": "d237701a162119f6f299351dd3c1bb6a", "lat": 38.917672833333334, "bike_id": "d237701a162119f6f299351dd3c1bb6a"}, {"lon": -77.04849516666667, "rental_uris": {"android": "https://dc.lft.to/lastmile_qr_scan", "ios": "https://dc.lft.to/lastmile_qr_scan"}, "fusion_lon": 0.0, "is_reserved": 0, "is_disabled": 0, "fusion_lat": 0.0, "type": "electric_scooter", "name": "bb9207a8af74fe658d5d12b0044edb48", "lat": 38.909664166666666, "bike_id": "bb9207a8af74fe658d5d12b0044edb48"}, {"lon": -76.9836095, "rental_uris": {"android": "https://dc.lft.to/lastmile_qr_scan", "ios": "https://dc.lft.to/lastmile_qr_scan"}, "fusion_lon": 0.0, "is_reserved": 0, "is_disabled": 0, "fusion_lat": 0.0, "type": "electric_scooter", "name": "ab1f649a9f26b1ba9d6a891bda3dbf35", "lat": 38.9149295, "bike_id": "ab1f649a9f26b1ba9d6a891bda3dbf35"}, {"lon": -77.02239333333333, "rental_uris": {"android": "https://dc.lft.to/lastmile_qr_scan", "ios": "https://dc.lft.to/lastmile_qr_scan"}, "fusion_lon": 0.0, "is_reserved": 0, "is_disabled": 0, "fusion_lat": 0.0, "type": "electric_scooter", "name": "b7c7797b7902141d9cecaae49fac4bf8", "lat": 38.88763333333333, "bike_id": "b7c7797b7902141d9cecaae49fac4bf8"}, {"lon": -77.00582533333333, "rental_uris": {"android": "https://dc.lft.to/lastmile_qr_scan", "ios": "https://dc.lft.to/lastmile_qr_scan"}, "fusion_lon": 0.0, "is_reserved": 0, "is_disabled": 0, "fusion_lat": 0.0, "type": "electric_scooter", "name": "90db04a968e26f4159eee7e8655fc404", "lat": 38.90569516666667, "bike_id": "90db04a968e26f4159eee7e8655fc404"}, {"lon": -77.041459, "rental_uris": {"android": "https://dc.lft.to/lastmile_qr_scan", "ios": "https://dc.lft.to/lastmile_qr_scan"}, "fusion_lon": 0.0, "is_reserved": 0, "is_disabled": 0, "fusion_lat": 0.0, "type": "electric_scooter", "name": "8ded201d9dff8e291054190d5ea3bc64", "lat": 38.90371866666667, "bike_id": "8ded201d9dff8e291054190d5ea3bc64"}, {"lon": -76.99379066666667, "rental_uris": {"android": "https://dc.lft.to/lastmile_qr_scan", "ios": "https://dc.lft.to/lastmile_qr_scan"}, "fusion_lon": 0.0, "is_reserved": 0, "is_disabled": 0, "fusion_lat": 0.0, "type": "electric_scooter", "name": "0c8960606f50b86bb267546952b03494", "lat": 38.89335916666667, "bike_id": "0c8960606f50b86bb267546952b03494"}, {"lon": -77.05558616666667, "rental_uris": {"android": "https://dc.lft.to/lastmile_qr_scan", "ios": "https://dc.lft.to/lastmile_qr_scan"}, "fusion_lon": 0.0, "is_reserved": 0, "is_disabled": 0, "fusion_lat": 0.0, "type": "electric_scooter", "name": "2d6cf232f08bd4276cb3ae7d435633c6", "lat": 38.9302885, "bike_id": "2d6cf232f08bd4276cb3ae7d435633c6"}, {"lon": -77.03346016666667, "rental_uris": {"android": "https://dc.lft.to/lastmile_qr_scan", "ios": "https://dc.lft.to/lastmile_qr_scan"}, "fusion_lon": 0.0, "is_reserved": 0, "is_disabled": 0, "fusion_lat": 0.0, "type": "electric_bike", "name": "290bbd5ed1ac1946df434d9fe855bbb3", "lat": 38.96132983333333, "bike_id": "290bbd5ed1ac1946df434d9fe855bbb3"}, {"lon": -77.0382925, "rental_uris": {"android": "https://dc.lft.to/lastmile_qr_scan", "ios": "https://dc.lft.to/lastmile_qr_scan"}, "fusion_lon": 0.0, "is_reserved": 0, "is_disabled": 0, "fusion_lat": 0.0, "type": "electric_scooter", "name": "06f7ea1723f78558e9c5b0e1f4d090c5", "lat": 38.907777333333335, "bike_id": "06f7ea1723f78558e9c5b0e1f4d090c5"}, {"lon": -77.00645433333334, "rental_uris": {"android": "https://dc.lft.to/lastmile_qr_scan", "ios": "https://dc.lft.to/lastmile_qr_scan"}, "fusion_lon": 0.0, "is_reserved": 0, "is_disabled": 0, "fusion_lat": 0.0, "type": "electric_scooter", "name": "158d9a75b8f85dca19e61797da72977c", "lat": 38.8767715, "bike_id": "158d9a75b8f85dca19e61797da72977c"}, {"lon": -77.02957733333334, "rental_uris": {"android": "https://dc.lft.to/lastmile_qr_scan", "ios": "https://dc.lft.to/lastmile_qr_scan"}, "fusion_lon": 0.0, "is_reserved": 0, "is_disabled": 0, "fusion_lat": 0.0, "type": "electric_scooter", "name": "1542b980ebb4c11ed9958f9518e69831", "lat": 38.922846166666666, "bike_id": "1542b980ebb4c11ed9958f9518e69831"}, {"lon": -77.04028816666667, "rental_uris": {"android": "https://dc.lft.to/lastmile_qr_scan", "ios": "https://dc.lft.to/lastmile_qr_scan"}, "fusion_lon": 0.0, "is_reserved": 0, "is_disabled": 0, "fusion_lat": 0.0, "type": "electric_scooter", "name": "c7f7f41de50cfd3e86ef5406622b4cec", "lat": 38.917938, "bike_id": "c7f7f41de50cfd3e86ef5406622b4cec"}, {"lon": -77.02649333333333, "rental_uris": {"android": "https://dc.lft.to/lastmile_qr_scan", "ios": "https://dc.lft.to/lastmile_qr_scan"}, "fusion_lon": 0.0, "is_reserved": 0, "is_disabled": 0, "fusion_lat": 0.0, "type": "electric_scooter", "name": "050c7058a3edf110de03d776aca29d47", "lat": 38.881116166666665, "bike_id": "050c7058a3edf110de03d776aca29d47"}, {"lon": -77.03937016666667, "rental_uris": {"android": "https://dc.lft.to/lastmile_qr_scan", "ios": "https://dc.lft.to/lastmile_qr_scan"}, "fusion_lon": 0.0, "is_reserved": 0, "is_disabled": 0, "fusion_lat": 0.0, "type": "electric_scooter", "name": "94609ae65a32d24b68df0a0308c8797b", "lat": 38.90165566666667, "bike_id": "94609ae65a32d24b68df0a0308c8797b"}, {"lon": -77.04445816666667, "rental_uris": {"android": "https://dc.lft.to/lastmile_qr_scan", "ios": "https://dc.lft.to/lastmile_qr_scan"}, "fusion_lon": 0.0, "is_reserved": 0, "is_disabled": 0, "fusion_lat": 0.0, "type": "electric_scooter", "name": "a54d5aab104abe7866612ef897a22b5f", "lat": 38.909429, "bike_id": "a54d5aab104abe7866612ef897a22b5f"}, {"lon": -77.04271333333334, "rental_uris": {"android": "https://dc.lft.to/lastmile_qr_scan", "ios": "https://dc.lft.to/lastmile_qr_scan"}, "fusion_lon": 0.0, "is_reserved": 0, "is_disabled": 0, "fusion_lat": 0.0, "type": "electric_scooter", "name": "c78a323843b80a916c7d8316cf8fc43b", "lat": 38.9343065, "bike_id": "c78a323843b80a916c7d8316cf8fc43b"}, {"lon": -77.0352125, "rental_uris": {"android": "https://dc.lft.to/lastmile_qr_scan", "ios": "https://dc.lft.to/lastmile_qr_scan"}, "fusion_lon": 0.0, "is_reserved": 0, "is_disabled": 0, "fusion_lat": 0.0, "type": "electric_scooter", "name": "8f64b247d952c3b69cc1ca554ba60cc3", "lat": 38.93709233333333, "bike_id": "8f64b247d952c3b69cc1ca554ba60cc3"}, {"lon": -76.9951435, "rental_uris": {"android": "https://dc.lft.to/lastmile_qr_scan", "ios": "https://dc.lft.to/lastmile_qr_scan"}, "fusion_lon": 0.0, "is_reserved": 0, "is_disabled": 0, "fusion_lat": 0.0, "type": "electric_scooter", "name": "5dd1155bc3d3f5e595aa5085f5d0c5b6", "lat": 38.89167316666666, "bike_id": "5dd1155bc3d3f5e595aa5085f5d0c5b6"}, {"lon": -77.032781, "rental_uris": {"android": "https://dc.lft.to/lastmile_qr_scan", "ios": "https://dc.lft.to/lastmile_qr_scan"}, "fusion_lon": 0.0, "is_reserved": 0, "is_disabled": 0, "fusion_lat": 0.0, "type": "electric_scooter", "name": "f8bc31c8b6f0229392c3920080430d08", "lat": 38.93785866666666, "bike_id": "f8bc31c8b6f0229392c3920080430d08"}, {"lon": -77.01359, "rental_uris": {"android": "https://dc.lft.to/lastmile_qr_scan", "ios": "https://dc.lft.to/lastmile_qr_scan"}, "fusion_lon": 0.0, "is_reserved": 0, "is_disabled": 0, "fusion_lat": 0.0, "type": "electric_scooter", "name": "408df6aec43311ccbe499f2939384bfd", "lat": 38.92890583333333, "bike_id": "408df6aec43311ccbe499f2939384bfd"}, {"lon": -77.045685, "rental_uris": {"android": "https://dc.lft.to/lastmile_qr_scan", "ios": "https://dc.lft.to/lastmile_qr_scan"}, "fusion_lon": 0.0, "is_reserved": 0, "is_disabled": 0, "fusion_lat": 0.0, "type": "electric_scooter", "name": "67982c6522c56df5a75f43461e24c7cd", "lat": 38.902127666666665, "bike_id": "67982c6522c56df5a75f43461e24c7cd"}, {"lon": -77.0631115, "rental_uris": {"android": "https://dc.lft.to/lastmile_qr_scan", "ios": "https://dc.lft.to/lastmile_qr_scan"}, "fusion_lon": 0.0, "is_reserved": 0, "is_disabled": 0, "fusion_lat": 0.0, "type": "electric_bike", "name": "f02027a0f5ab721ee820cfd3e10f3acc", "lat": 38.84131883333333, "bike_id": "f02027a0f5ab721ee820cfd3e10f3acc"}, {"lon": -77.0246075, "rental_uris": {"android": "https://dc.lft.to/lastmile_qr_scan", "ios": "https://dc.lft.to/lastmile_qr_scan"}, "fusion_lon": 0.0, "is_reserved": 0, "is_disabled": 0, "fusion_lat": 0.0, "type": "electric_scooter", "name": "dcd2257e0d4eb66edc6b31d15e9dc904", "lat": 38.916677166666666, "bike_id": "dcd2257e0d4eb66edc6b31d15e9dc904"}, {"lon": -76.99416366666667, "rental_uris": {"android": "https://dc.lft.to/lastmile_qr_scan", "ios": "https://dc.lft.to/lastmile_qr_scan"}, "fusion_lon": 0.0, "is_reserved": 0, "is_disabled": 0, "fusion_lat": 0.0, "type": "electric_scooter", "name": "73d19eba741eb1beebed1fa36869f099", "lat": 38.933062666666665, "bike_id": "73d19eba741eb1beebed1fa36869f099"}, {"lon": -77.04328033333333, "rental_uris": {"android": "https://dc.lft.to/lastmile_qr_scan", "ios": "https://dc.lft.to/lastmile_qr_scan"}, "fusion_lon": 0.0, "is_reserved": 0, "is_disabled": 0, "fusion_lat": 0.0, "type": "electric_scooter", "name": "ce96244a45008e78249e228df98758eb", "lat": 38.9035415, "bike_id": "ce96244a45008e78249e228df98758eb"}, {"lon": -76.998953, "rental_uris": {"android": "https://dc.lft.to/lastmile_qr_scan", "ios": "https://dc.lft.to/lastmile_qr_scan"}, "fusion_lon": 0.0, "is_reserved": 0, "is_disabled": 0, "fusion_lat": 0.0, "type": "electric_scooter", "name": "23c4821e39543122a7aaeebc32535a57", "lat": 38.900070666666664, "bike_id": "23c4821e39543122a7aaeebc32535a57"}, {"lon": -77.0634715, "rental_uris": {"android": "https://dc.lft.to/lastmile_qr_scan", "ios": "https://dc.lft.to/lastmile_qr_scan"}, "fusion_lon": 0.0, "is_reserved": 0, "is_disabled": 0, "fusion_lat": 0.0, "type": "electric_scooter", "name": "9a4f6b21187110b5f10906efce46a2da", "lat": 38.94450066666667, "bike_id": "9a4f6b21187110b5f10906efce46a2da"}, {"lon": -77.03203916666666, "rental_uris": {"android": "https://dc.lft.to/lastmile_qr_scan", "ios": "https://dc.lft.to/lastmile_qr_scan"}, "fusion_lon": 0.0, "is_reserved": 0, "is_disabled": 0, "fusion_lat": 0.0, "type": "electric_scooter", "name": "00fbc73d7949545b16f8c839d6b49019", "lat": 38.900252, "bike_id": "00fbc73d7949545b16f8c839d6b49019"}, {"lon": -76.98222133333333, "rental_uris": {"android": "https://dc.lft.to/lastmile_qr_scan", "ios": "https://dc.lft.to/lastmile_qr_scan"}, "fusion_lon": 0.0, "is_reserved": 0, "is_disabled": 0, "fusion_lat": 0.0, "type": "electric_scooter", "name": "b4b94a0ac00f91f8f9b967432d7bdbf3", "lat": 38.89545833333333, "bike_id": "b4b94a0ac00f91f8f9b967432d7bdbf3"}, {"lon": -77.0434665, "rental_uris": {"android": "https://dc.lft.to/lastmile_qr_scan", "ios": "https://dc.lft.to/lastmile_qr_scan"}, "fusion_lon": 0.0, "is_reserved": 0, "is_disabled": 0, "fusion_lat": 0.0, "type": "electric_scooter", "name": "dea62fd1e34c174585616b79aa78bc8c", "lat": 38.9037235, "bike_id": "dea62fd1e34c174585616b79aa78bc8c"}, {"lon": -77.02882766666667, "rental_uris": {"android": "https://dc.lft.to/lastmile_qr_scan", "ios": "https://dc.lft.to/lastmile_qr_scan"}, "fusion_lon": 0.0, "is_reserved": 0, "is_disabled": 0, "fusion_lat": 0.0, "type": "electric_scooter", "name": "b0007fbb7ab106dbf8205513387339e9", "lat": 38.912604333333334, "bike_id": "b0007fbb7ab106dbf8205513387339e9"}, {"lon": -77.07655783333334, "rental_uris": {"android": "https://dc.lft.to/lastmile_qr_scan", "ios": "https://dc.lft.to/lastmile_qr_scan"}, "fusion_lon": 0.0, "is_reserved": 0, "is_disabled": 0, "fusion_lat": 0.0, "type": "electric_bike", "name": "cd51f094d97878bee2559463a6db2ce6", "lat": 38.809793166666665, "bike_id": "cd51f094d97878bee2559463a6db2ce6"}, {"lon": -77.0400055, "rental_uris": {"android": "https://dc.lft.to/lastmile_qr_scan", "ios": "https://dc.lft.to/lastmile_qr_scan"}, "fusion_lon": 0.0, "is_reserved": 0, "is_disabled": 0, "fusion_lat": 0.0, "type": "electric_scooter", "name": "b12d5d232bed4132005711f2c0cd228b", "lat": 38.924442166666665, "bike_id": "b12d5d232bed4132005711f2c0cd228b"}, {"lon": -76.9722245, "rental_uris": {"android": "https://dc.lft.to/lastmile_qr_scan", "ios": "https://dc.lft.to/lastmile_qr_scan"}, "fusion_lon": 0.0, "is_reserved": 0, "is_disabled": 0, "fusion_lat": 0.0, "type": "electric_bike", "name": "42e36cd094fb7f697d949e5d14d24d71", "lat": 38.90026366666667, "bike_id": "42e36cd094fb7f697d949e5d14d24d71"}, {"lon": -77.0196305, "rental_uris": {"android": "https://dc.lft.to/lastmile_qr_scan", "ios": "https://dc.lft.to/lastmile_qr_scan"}, "fusion_lon": 0.0, "is_reserved": 0, "is_disabled": 0, "fusion_lat": 0.0, "type": "electric_scooter", "name": "98f49ecaa6854bc1f6580f088183bdf9", "lat": 38.923255, "bike_id": "98f49ecaa6854bc1f6580f088183bdf9"}, {"lon": -77.05338033333334, "rental_uris": {"android": "https://dc.lft.to/lastmile_qr_scan", "ios": "https://dc.lft.to/lastmile_qr_scan"}, "fusion_lon": 0.0, "is_reserved": 0, "is_disabled": 0, "fusion_lat": 0.0, "type": "electric_scooter", "name": "79329a2571aacab384ac5f23ef2b5e54", "lat": 38.898787166666665, "bike_id": "79329a2571aacab384ac5f23ef2b5e54"}, {"lon": -77.02033633333333, "rental_uris": {"android": "https://dc.lft.to/lastmile_qr_scan", "ios": "https://dc.lft.to/lastmile_qr_scan"}, "fusion_lon": 0.0, "is_reserved": 0, "is_disabled": 0, "fusion_lat": 0.0, "type": "electric_scooter", "name": "7948ad873a5e6c9fd7baa7aeecf2eecc", "lat": 38.92432483333333, "bike_id": "7948ad873a5e6c9fd7baa7aeecf2eecc"}, {"lon": -77.06370866666667, "rental_uris": {"android": "https://dc.lft.to/lastmile_qr_scan", "ios": "https://dc.lft.to/lastmile_qr_scan"}, "fusion_lon": 0.0, "is_reserved": 0, "is_disabled": 0, "fusion_lat": 0.0, "type": "electric_scooter", "name": "69ce31e819c5f3750d92c76c292f8ab4", "lat": 38.90597366666667, "bike_id": "69ce31e819c5f3750d92c76c292f8ab4"}, {"lon": -77.043563, "rental_uris": {"android": "https://dc.lft.to/lastmile_qr_scan", "ios": "https://dc.lft.to/lastmile_qr_scan"}, "fusion_lon": 0.0, "is_reserved": 0, "is_disabled": 0, "fusion_lat": 0.0, "type": "electric_scooter", "name": "ab0475278d19e826192ccb5ff46ae68a", "lat": 38.90424816666667, "bike_id": "ab0475278d19e826192ccb5ff46ae68a"}, {"lon": -77.04538333333333, "rental_uris": {"android": "https://dc.lft.to/lastmile_qr_scan", "ios": "https://dc.lft.to/lastmile_qr_scan"}, "fusion_lon": 0.0, "is_reserved": 0, "is_disabled": 0, "fusion_lat": 0.0, "type": "electric_scooter", "name": "ee5226039a3dfafeb827903c68042ca9", "lat": 38.911045, "bike_id": "ee5226039a3dfafeb827903c68042ca9"}, {"lon": -77.01350033333334, "rental_uris": {"android": "https://dc.lft.to/lastmile_qr_scan", "ios": "https://dc.lft.to/lastmile_qr_scan"}, "fusion_lon": 0.0, "is_reserved": 0, "is_disabled": 0, "fusion_lat": 0.0, "type": "electric_scooter", "name": "4b614e5a13108712312298ba9d8c931f", "lat": 38.871614, "bike_id": "4b614e5a13108712312298ba9d8c931f"}, {"lon": -77.02366966666666, "rental_uris": {"android": "https://dc.lft.to/lastmile_qr_scan", "ios": "https://dc.lft.to/lastmile_qr_scan"}, "fusion_lon": 0.0, "is_reserved": 0, "is_disabled": 0, "fusion_lat": 0.0, "type": "electric_scooter", "name": "8ba94ec9cd2f7d2d1742d797993995f3", "lat": 38.925105333333335, "bike_id": "8ba94ec9cd2f7d2d1742d797993995f3"}, {"lon": -77.033786, "rental_uris": {"android": "https://dc.lft.to/lastmile_qr_scan", "ios": "https://dc.lft.to/lastmile_qr_scan"}, "fusion_lon": 0.0, "is_reserved": 0, "is_disabled": 0, "fusion_lat": 0.0, "type": "electric_scooter", "name": "9b8b369000e3cbe9d05bbba974e31f5e", "lat": 38.9384795, "bike_id": "9b8b369000e3cbe9d05bbba974e31f5e"}, {"lon": -76.99949083333334, "rental_uris": {"android": "https://dc.lft.to/lastmile_qr_scan", "ios": "https://dc.lft.to/lastmile_qr_scan"}, "fusion_lon": 0.0, "is_reserved": 0, "is_disabled": 0, "fusion_lat": 0.0, "type": "electric_scooter", "name": "83e2b59dd84b4b7e66af33f58a0ce3ef", "lat": 38.9042645, "bike_id": "83e2b59dd84b4b7e66af33f58a0ce3ef"}, {"lon": -77.02219333333333, "rental_uris": {"android": "https://dc.lft.to/lastmile_qr_scan", "ios": "https://dc.lft.to/lastmile_qr_scan"}, "fusion_lon": 0.0, "is_reserved": 0, "is_disabled": 0, "fusion_lat": 0.0, "type": "electric_scooter", "name": "15f7b0c994a0c0255b80d127a3fd6b54", "lat": 38.905182333333336, "bike_id": "15f7b0c994a0c0255b80d127a3fd6b54"}, {"lon": -77.02651916666667, "rental_uris": {"android": "https://dc.lft.to/lastmile_qr_scan", "ios": "https://dc.lft.to/lastmile_qr_scan"}, "fusion_lon": 0.0, "is_reserved": 0, "is_disabled": 0, "fusion_lat": 0.0, "type": "electric_scooter", "name": "9b40b45fe93824b09081f95e9a788526", "lat": 38.892145666666664, "bike_id": "9b40b45fe93824b09081f95e9a788526"}, {"lon": -77.02094866666667, "rental_uris": {"android": "https://dc.lft.to/lastmile_qr_scan", "ios": "https://dc.lft.to/lastmile_qr_scan"}, "fusion_lon": 0.0, "is_reserved": 0, "is_disabled": 0, "fusion_lat": 0.0, "type": "electric_scooter", "name": "b327cd308d1231a15a2044c10ec0a251", "lat": 38.93434083333333, "bike_id": "b327cd308d1231a15a2044c10ec0a251"}, {"lon": -77.2099275, "rental_uris": {"android": "https://dc.lft.to/lastmile_qr_scan", "ios": "https://dc.lft.to/lastmile_qr_scan"}, "fusion_lon": 0.0, "is_reserved": 0, "is_disabled": 0, "fusion_lat": 0.0, "type": "electric_bike", "name": "f3b366e758b3bf4ef98005dc716cb3fd", "lat": 38.925789333333334, "bike_id": "f3b366e758b3bf4ef98005dc716cb3fd"}, {"lon": -77.01575483333333, "rental_uris": {"android": "https://dc.lft.to/lastmile_qr_scan", "ios": "https://dc.lft.to/lastmile_qr_scan"}, "fusion_lon": 0.0, "is_reserved": 0, "is_disabled": 0, "fusion_lat": 0.0, "type": "electric_scooter", "name": "331cc36890370f65087bbf89619d95ca", "lat": 38.9149595, "bike_id": "331cc36890370f65087bbf89619d95ca"}, {"lon": -77.03760883333334, "rental_uris": {"android": "https://dc.lft.to/lastmile_qr_scan", "ios": "https://dc.lft.to/lastmile_qr_scan"}, "fusion_lon": 0.0, "is_reserved": 0, "is_disabled": 0, "fusion_lat": 0.0, "type": "electric_scooter", "name": "3da2c28a5be95e88c3756e5b07d5ad51", "lat": 38.90344066666667, "bike_id": "3da2c28a5be95e88c3756e5b07d5ad51"}, {"lon": -77.099473, "rental_uris": {"android": "https://dc.lft.to/lastmile_qr_scan", "ios": "https://dc.lft.to/lastmile_qr_scan"}, "fusion_lon": 0.0, "is_reserved": 0, "is_disabled": 0, "fusion_lat": 0.0, "type": "electric_bike", "name": "fa47e1e059804f8fac37a66305056bfb", "lat": 39.0148375, "bike_id": "fa47e1e059804f8fac37a66305056bfb"}, {"lon": -77.0220575, "rental_uris": {"android": "https://dc.lft.to/lastmile_qr_scan", "ios": "https://dc.lft.to/lastmile_qr_scan"}, "fusion_lon": 0.0, "is_reserved": 0, "is_disabled": 0, "fusion_lat": 0.0, "type": "electric_scooter", "name": "66a07fb0d42d9263d39c79d8149bed5d", "lat": 38.91535966666667, "bike_id": "66a07fb0d42d9263d39c79d8149bed5d"}, {"lon": -77.04127016666666, "rental_uris": {"android": "https://dc.lft.to/lastmile_qr_scan", "ios": "https://dc.lft.to/lastmile_qr_scan"}, "fusion_lon": 0.0, "is_reserved": 0, "is_disabled": 0, "fusion_lat": 0.0, "type": "electric_scooter", "name": "52ef7f59cececf6ca5f030370febcc4a", "lat": 38.921461, "bike_id": "52ef7f59cececf6ca5f030370febcc4a"}, {"lon": -76.99722416666667, "rental_uris": {"android": "https://dc.lft.to/lastmile_qr_scan", "ios": "https://dc.lft.to/lastmile_qr_scan"}, "fusion_lon": 0.0, "is_reserved": 0, "is_disabled": 0, "fusion_lat": 0.0, "type": "electric_scooter", "name": "f3e8d68eb9cb23c87102df29cfccd5d6", "lat": 38.91029, "bike_id": "f3e8d68eb9cb23c87102df29cfccd5d6"}, {"lon": -76.965039, "rental_uris": {"android": "https://dc.lft.to/lastmile_qr_scan", "ios": "https://dc.lft.to/lastmile_qr_scan"}, "fusion_lon": 0.0, "is_reserved": 0, "is_disabled": 0, "fusion_lat": 0.0, "type": "electric_scooter", "name": "146c55684d7adfc9f23e071dbdbdfb70", "lat": 38.87645366666667, "bike_id": "146c55684d7adfc9f23e071dbdbdfb70"}, {"lon": -77.00064183333333, "rental_uris": {"android": "https://dc.lft.to/lastmile_qr_scan", "ios": "https://dc.lft.to/lastmile_qr_scan"}, "fusion_lon": 0.0, "is_reserved": 0, "is_disabled": 0, "fusion_lat": 0.0, "type": "electric_scooter", "name": "fc39166dc1798f4b44608f4e5f804411", "lat": 38.876862833333334, "bike_id": "fc39166dc1798f4b44608f4e5f804411"}, {"lon": -76.9892035, "rental_uris": {"android": "https://dc.lft.to/lastmile_qr_scan", "ios": "https://dc.lft.to/lastmile_qr_scan"}, "fusion_lon": 0.0, "is_reserved": 0, "is_disabled": 0, "fusion_lat": 0.0, "type": "electric_scooter", "name": "4d36b10c2c5b1e9cfd1e8e64252b9048", "lat": 38.938229666666665, "bike_id": "4d36b10c2c5b1e9cfd1e8e64252b9048"}, {"lon": -77.0310515, "rental_uris": {"android": "https://dc.lft.to/lastmile_qr_scan", "ios": "https://dc.lft.to/lastmile_qr_scan"}, "fusion_lon": 0.0, "is_reserved": 0, "is_disabled": 0, "fusion_lat": 0.0, "type": "electric_scooter", "name": "170d7a30bfc697588aa9e13fb7b6a435", "lat": 38.8998465, "bike_id": "170d7a30bfc697588aa9e13fb7b6a435"}, {"lon": -77.03994583333333, "rental_uris": {"android": "https://dc.lft.to/lastmile_qr_scan", "ios": "https://dc.lft.to/lastmile_qr_scan"}, "fusion_lon": 0.0, "is_reserved": 0, "is_disabled": 0, "fusion_lat": 0.0, "type": "electric_scooter", "name": "89b66e6d4fd321930f9c807ad99fb7e3", "lat": 38.909581333333335, "bike_id": "89b66e6d4fd321930f9c807ad99fb7e3"}, {"lon": -76.99114266666666, "rental_uris": {"android": "https://dc.lft.to/lastmile_qr_scan", "ios": "https://dc.lft.to/lastmile_qr_scan"}, "fusion_lon": 0.0, "is_reserved": 0, "is_disabled": 0, "fusion_lat": 0.0, "type": "electric_scooter", "name": "9297865611d9d9fff1a4d018b38ef4b6", "lat": 38.90885016666667, "bike_id": "9297865611d9d9fff1a4d018b38ef4b6"}, {"lon": -76.93382333333334, "rental_uris": {"android": "https://dc.lft.to/lastmile_qr_scan", "ios": "https://dc.lft.to/lastmile_qr_scan"}, "fusion_lon": 0.0, "is_reserved": 0, "is_disabled": 0, "fusion_lat": 0.0, "type": "electric_scooter", "name": "6fb69e039b0cd4dd2f30a25ed7e66965", "lat": 38.89909933333333, "bike_id": "6fb69e039b0cd4dd2f30a25ed7e66965"}, {"lon": -77.038645, "rental_uris": {"android": "https://dc.lft.to/lastmile_qr_scan", "ios": "https://dc.lft.to/lastmile_qr_scan"}, "fusion_lon": 0.0, "is_reserved": 0, "is_disabled": 0, "fusion_lat": 0.0, "type": "electric_scooter", "name": "081efbf08df56f78c78fcff557e0c70e", "lat": 38.90648516666667, "bike_id": "081efbf08df56f78c78fcff557e0c70e"}, {"lon": -77.0166225, "rental_uris": {"android": "https://dc.lft.to/lastmile_qr_scan", "ios": "https://dc.lft.to/lastmile_qr_scan"}, "fusion_lon": 0.0, "is_reserved": 0, "is_disabled": 0, "fusion_lat": 0.0, "type": "electric_scooter", "name": "cc1923fea6deb66603ea0adaf5767958", "lat": 38.91381616666666, "bike_id": "cc1923fea6deb66603ea0adaf5767958"}, {"lon": -77.00711583333333, "rental_uris": {"android": "https://dc.lft.to/lastmile_qr_scan", "ios": "https://dc.lft.to/lastmile_qr_scan"}, "fusion_lon": 0.0, "is_reserved": 0, "is_disabled": 0, "fusion_lat": 0.0, "type": "electric_scooter", "name": "235ca36be0bc8245de69ccfe920512ea", "lat": 38.88492166666666, "bike_id": "235ca36be0bc8245de69ccfe920512ea"}, {"lon": -77.02125116666667, "rental_uris": {"android": "https://dc.lft.to/lastmile_qr_scan", "ios": "https://dc.lft.to/lastmile_qr_scan"},