{"data": {"bikes": [{"name": "bdd623e73c61402211eda169c9e0ff28", "fusion_lat": 0.0, "type": "electric_scooter", "lat": 38.949564, "is_reserved": 0, "is_disabled": 0, "fusion_lon": 0.0, "bike_id": "bdd623e73c61402211eda169c9e0ff28", "lon": -77.02720283333333, "rental_uris": {"ios": "https://dc.lft.to/lastmile_qr_scan", "android": "https://dc.lft.to/lastmile_qr_scan"}}, {"name": "c804f6bc74d91b6d2d49688208b0cdf6", "fusion_lat": 0.0, "type": "electric_scooter", "lat": 38.9229025, "is_reserved": 0, "is_disabled": 0, "fusion_lon": 0.0, "bike_id": "c804f6bc74d91b6d2d49688208b0cdf6", "lon": -77.0296165, "rental_uris": {"ios": "https://dc.lft.to/lastmile_qr_scan", "android": "https://dc.lft.to/lastmile_qr_scan"}}, {"name": "15ef9fead51263f6390e172b37ec0000", "fusion_lat": 0.0, "type": "electric_scooter", "lat": 38.87499666666667, "is_reserved": 0, "is_disabled": 0, "fusion_lon": 0.0, "bike_id": "15ef9fead51263f6390e172b37ec0000", "lon": -76.99795066666667, "rental_uris": {"ios": "https://dc.lft.to/lastmile_qr_scan", "android": "https://dc.lft.to/lastmile_qr_scan"}}, {"name": "b1a00393481e4bede333065e69ed43f7", "fusion_lat": 0.0, "type": "electric_bike", "lat": 38.9357745, "is_reserved": 0, "is_disabled": 0, "fusion_lon": 0.0, "bike_id": "b1a00393481e4bede333065e69ed43f7", "lon": -77.02127233333333, "rental_uris": {"ios": "https://dc.lft.to/lastmile_qr_scan", "android": "https://dc.lft.to/lastmile_qr_scan"}}, {"name": "fe53a146565305ed69d8662f7290f0fc", "fusion_lat": 0.0, "type": "electric_scooter", "lat": 38.9002325, "is_reserved": 0, "is_disabled": 0, "fusion_lon": 0.0, "bike_id": "fe53a146565305ed69d8662f7290f0fc", "lon": -77.00099933333334, "rental_uris": {"ios": "https://dc.lft.to/lastmile_qr_scan", "android": "https://dc.lft.to/lastmile_qr_scan"}}, {"name": "f85a6a69a3c7f2d0a32308449f5277c7", "fusion_lat": 0.0, "type": "electric_scooter", "lat": 38.906218833333334, "is_reserved": 0, "is_disabled": 0, "fusion_lon": 0.0, "bike_id": "f85a6a69a3c7f2d0a32308449f5277c7", "lon": -77.00608183333334, "rental_uris": {"ios": "https://dc.lft.to/lastmile_qr_scan", "android": "https://dc.lft.to/lastmile_qr_scan"}}, {"name": "c61c03cfb99cb5378602f9e6fcc3cf2c", "fusion_lat": 0.0, "type": "electric_scooter", "lat": 38.92068616666667, "is_reserved": 0, "is_disabled": 0, "fusion_lon": 0.0, "bike_id": "c61c03cfb99cb5378602f9e6fcc3cf2c", "lon": -77.0236665, "rental_uris": {"ios": "https://dc.lft.to/lastmile_qr_scan", "android": "https://dc.lft.to/lastmile_qr_scan"}}, {"name": "b98df39ca18957ca7d147aeb97363924", "fusion_lat": 0.0, "type": "electric_scooter", "lat": 38.914026166666666, "is_reserved": 0, "is_disabled": 0, "fusion_lon": 0.0, "bike_id": "b98df39ca18957ca7d147aeb97363924", "lon": -77.02226033333334, "rental_uris": {"ios": "https://dc.lft.to/lastmile_qr_scan", "android": "https://dc.lft.to/lastmile_qr_scan"}}, {"name": "938497a1cf38882579cd97e4ab32bdc4", "fusion_lat": 0.0, "type": "electric_scooter", "lat": 38.91696916666667, "is_reserved": 0, "is_disabled": 0, "fusion_lon": 0.0, "bike_id": "938497a1cf38882579cd97e4ab32bdc4", "lon": -77.03173166666667, "rental_uris": {"ios": "https://dc.lft.to/lastmile_qr_scan", "android": "https://dc.lft.to/lastmile_qr_scan"}}, {"name": "a163ad7a9ec8ec53c4b0f0994e3058fe", "fusion_lat": 0.0, "type": "electric_scooter", "lat": 38.9382265, "is_reserved": 0, "is_disabled": 0, "fusion_lon": 0.0, "bike_id": "a163ad7a9ec8ec53c4b0f0994e3058fe", "lon": -77.03278933333333, "rental_uris": {"ios": "https://dc.lft.to/lastmile_qr_scan", "android": "https://dc.lft.to/lastmile_qr_scan"}}, {"name": "c06d3ad11256baf6d6587ca77ce1dda8", "fusion_lat": 0.0, "type": "electric_scooter", "lat": 38.902695, "is_reserved": 0, "is_disabled": 0, "fusion_lon": 0.0, "bike_id": "c06d3ad11256baf6d6587ca77ce1dda8", "lon": -77.0092015, "rental_uris": {"ios": "https://dc.lft.to/lastmile_qr_scan", "android": "https://dc.lft.to/lastmile_qr_scan"}}, {"name": "ecd19733f857c2f24f17166280e548de", "fusion_lat": 0.0, "type": "electric_scooter", "lat": 38.9101145, "is_reserved": 0, "is_disabled": 0, "fusion_lon": 0.0, "bike_id": "ecd19733f857c2f24f17166280e548de", "lon": -77.021992, "rental_uris": {"ios": "https://dc.lft.to/lastmile_qr_scan", "android": "https://dc.lft.to/lastmile_qr_scan"}}, {"name": "5e764296a506b9c2b8526b8116a5fc7a", "fusion_lat": 0.0, "type": "electric_scooter", "lat": 38.90901133333333, "is_reserved": 0, "is_disabled": 0, "fusion_lon": 0.0, "bike_id": "5e764296a506b9c2b8526b8116a5fc7a", "lon": -77.03151383333334, "rental_uris": {"ios": "https://dc.lft.to/lastmile_qr_scan", "android": "https://dc.lft.to/lastmile_qr_scan"}}, {"name": "6d9b067b4819ea93178ff46c58f0ccb2", "fusion_lat": 0.0, "type": "electric_scooter", "lat": 38.9237255, "is_reserved": 0, "is_disabled": 0, "fusion_lon": 0.0, "bike_id": "6d9b067b4819ea93178ff46c58f0ccb2", "lon": -77.03129483333333, "rental_uris": {"ios": "https://dc.lft.to/lastmile_qr_scan", "android": "https://dc.lft.to/lastmile_qr_scan"}}, {"name": "b098f44d3ce6b4573bcf3648bf800728", "fusion_lat": 0.0, "type": "electric_scooter", "lat": 38.894761333333335, "is_reserved": 0, "is_disabled": 0, "fusion_lon": 0.0, "bike_id": "b098f44d3ce6b4573bcf3648bf800728", "lon": -77.030606, "rental_uris": {"ios": "https://dc.lft.to/lastmile_qr_scan", "android": "https://dc.lft.to/lastmile_qr_scan"}}, {"name": "ddb708fd76fc0e8c74f761e5b79c55a5", "fusion_lat": 0.0, "type": "electric_bike", "lat": 38.919261166666665, "is_reserved": 0, "is_disabled": 0, "fusion_lon": 0.0, "bike_id": "ddb708fd76fc0e8c74f761e5b79c55a5", "lon": -77.02517466666667, "rental_uris": {"ios": "https://dc.lft.to/lastmile_qr_scan", "android": "https://dc.lft.to/lastmile_qr_scan"}}, {"name": "b8fa9f1c8c598c2b0820a3e16475efc5", "fusion_lat": 0.0, "type": "electric_scooter", "lat": 38.865108666666664, "is_reserved": 0, "is_disabled": 0, "fusion_lon": 0.0, "bike_id": "b8fa9f1c8c598c2b0820a3e16475efc5", "lon": -76.99011533333334, "rental_uris": {"ios": "https://dc.lft.to/lastmile_qr_scan", "android": "https://dc.lft.to/lastmile_qr_scan"}}, {"name": "048fc4e0403de596af6430b4427cd45f", "fusion_lat": 0.0, "type": "electric_scooter", "lat": 38.924929, "is_reserved": 0, "is_disabled": 0, "fusion_lon": 0.0, "bike_id": "048fc4e0403de596af6430b4427cd45f", "lon": -77.0732045, "rental_uris": {"ios": "https://dc.lft.to/lastmile_qr_scan", "android": "https://dc.lft.to/lastmile_qr_scan"}}, {"name": "198f74a396387e650695b97e040dd064", "fusion_lat": 0.0, "type": "electric_scooter", "lat": 38.92135916666667, "is_reserved": 0, "is_disabled": 0, "fusion_lon": 0.0, "bike_id": "198f74a396387e650695b97e040dd064", "lon": -77.02507616666666, "rental_uris": {"ios": "https://dc.lft.to/lastmile_qr_scan", "android": "https://dc.lft.to/lastmile_qr_scan"}}, {"name": "87b6c3bdcc4cfa371f9e306828284fb5", "fusion_lat": 0.0, "type": "electric_scooter", "lat": 38.86254183333333, "is_reserved": 0, "is_disabled": 0, "fusion_lon": 0.0, "bike_id": "87b6c3bdcc4cfa371f9e306828284fb5", "lon": -76.99514833333333, "rental_uris": {"ios": "https://dc.lft.to/lastmile_qr_scan", "android": "https://dc.lft.to/lastmile_qr_scan"}}, {"name": "dabcfa7a11c8bc40caebeaa36b2051d9", "fusion_lat": 0.0, "type": "electric_bike", "lat": 38.831488666666665, "is_reserved": 0, "is_disabled": 0, "fusion_lon": 0.0, "bike_id": "dabcfa7a11c8bc40caebeaa36b2051d9", "lon": -77.113113, "rental_uris": {"ios": "https://dc.lft.to/lastmile_qr_scan", "android": "https://dc.lft.to/lastmile_qr_scan"}}, {"name": "32019c1e4386ae513e1e4aa19017b5ff", "fusion_lat": 0.0, "type": "electric_scooter", "lat": 38.900413, "is_reserved": 0, "is_disabled": 0, "fusion_lon": 0.0, "bike_id": "32019c1e4386ae513e1e4aa19017b5ff", "lon": -77.00203166666667, "rental_uris": {"ios": "https://dc.lft.to/lastmile_qr_scan", "android": "https://dc.lft.to/lastmile_qr_scan"}}, {"name": "928a79494de9cc6609d2ba560b6402dd", "fusion_lat": 0.0, "type": "electric_scooter", "lat": 38.92820316666667, "is_reserved": 0, "is_disabled": 0, "fusion_lon": 0.0, "bike_id": "928a79494de9cc6609d2ba560b6402dd", "lon": -77.02261066666667, "rental_uris": {"ios": "https://dc.lft.to/lastmile_qr_scan", "android": "https://dc.lft.to/lastmile_qr_scan"}}, {"name": "a20df4d06f2c0d469d4511484c07af72", "fusion_lat": 0.0, "type": "electric_bike", "lat": 38.92430433333333, "is_reserved": 0, "is_disabled": 0, "fusion_lon": 0.0, "bike_id": "a20df4d06f2c0d469d4511484c07af72", "lon": -76.99131883333334, "rental_uris": {"ios": "https://dc.lft.to/lastmile_qr_scan", "android": "https://dc.lft.to/lastmile_qr_scan"}}, {"name": "18703623eb615605e77b6f453eac33b3", "fusion_lat": 0.0, "type": "electric_scooter", "lat": 38.90063166666667, "is_reserved": 0, "is_disabled": 0, "fusion_lon": 0.0, "bike_id": "18703623eb615605e77b6f453eac33b3", "lon": -77.00198016666667, "rental_uris": {"ios": "https://dc.lft.to/lastmile_qr_scan", "android": "https://dc.lft.to/lastmile_qr_scan"}}, {"name": "76bd7ae994e40a6bf31d4f15b5047b85", "fusion_lat": 0.0, "type": "electric_scooter", "lat": 38.91782, "is_reserved": 0, "is_disabled": 0, "fusion_lon": 0.0, "bike_id": "76bd7ae994e40a6bf31d4f15b5047b85", "lon": -77.043014, "rental_uris": {"ios": "https://dc.lft.to/lastmile_qr_scan", "android": "https://dc.lft.to/lastmile_qr_scan"}}, {"name": "4185312ce554462020c282a3e1b1730c", "fusion_lat": 0.0, "type": "electric_scooter", "lat": 38.903567333333335, "is_reserved": 0, "is_disabled": 0, "fusion_lon": 0.0, "bike_id": "4185312ce554462020c282a3e1b1730c", "lon": -77.0260215, "rental_uris": {"ios": "https://dc.lft.to/lastmile_qr_scan", "android": "https://dc.lft.to/lastmile_qr_scan"}}, {"name": "b0a0338a52bd4576af0ecae1dd1fe650", "fusion_lat": 0.0, "type": "electric_bike", "lat": 38.842727833333335, "is_reserved": 0, "is_disabled": 0, "fusion_lon": 0.0, "bike_id": "b0a0338a52bd4576af0ecae1dd1fe650", "lon": -76.98834616666667, "rental_uris": {"ios": "https://dc.lft.to/lastmile_qr_scan", "android": "https://dc.lft.to/lastmile_qr_scan"}}, {"name": "559b6b26aa5ccb479865e1b38c77eb03", "fusion_lat": 0.0, "type": "electric_bike", "lat": 38.96012833333333, "is_reserved": 0, "is_disabled": 0, "fusion_lon": 0.0, "bike_id": "559b6b26aa5ccb479865e1b38c77eb03", "lon": -76.9986095, "rental_uris": {"ios": "https://dc.lft.to/lastmile_qr_scan", "android": "https://dc.lft.to/lastmile_qr_scan"}}, {"name": "c99d89f7e05a87b36bc25de76d855bdb", "fusion_lat": 0.0, "type": "electric_bike", "lat": 38.881190833333335, "is_reserved": 0, "is_disabled": 0, "fusion_lon": 0.0, "bike_id": "c99d89f7e05a87b36bc25de76d855bdb", "lon": -77.01344866666666, "rental_uris": {"ios": "https://dc.lft.to/lastmile_qr_scan", "android": "https://dc.lft.to/lastmile_qr_scan"}}, {"name": "620d6bb0ab0ec755b651b86cd0b36496", "fusion_lat": 0.0, "type": "electric_scooter", "lat": 38.901703, "is_reserved": 0, "is_disabled": 0, "fusion_lon": 0.0, "bike_id": "620d6bb0ab0ec755b651b86cd0b36496", "lon": -77.04687616666666, "rental_uris": {"ios": "https://dc.lft.to/lastmile_qr_scan", "android": "https://dc.lft.to/lastmile_qr_scan"}}, {"name": "630692c57926960fe63625581ac582cb", "fusion_lat": 0.0, "type": "electric_scooter", "lat": 38.9420685, "is_reserved": 0, "is_disabled": 0, "fusion_lon": 0.0, "bike_id": "630692c57926960fe63625581ac582cb", "lon": -77.025152, "rental_uris": {"ios": "https://dc.lft.to/lastmile_qr_scan", "android": "https://dc.lft.to/lastmile_qr_scan"}}, {"name": "7d7f5d1bd998bd03a22781b5d748ea7d", "fusion_lat": 0.0, "type": "electric_scooter", "lat": 38.906594166666665, "is_reserved": 0, "is_disabled": 0, "fusion_lon": 0.0, "bike_id": "7d7f5d1bd998bd03a22781b5d748ea7d", "lon": -77.0416455, "rental_uris": {"ios": "https://dc.lft.to/lastmile_qr_scan", "android": "https://dc.lft.to/lastmile_qr_scan"}}, {"name": "b1a062e01ca6dc76cbec7f6cd41b71d8", "fusion_lat": 0.0, "type": "electric_scooter", "lat": 38.90356416666667, "is_reserved": 0, "is_disabled": 0, "fusion_lon": 0.0, "bike_id": "b1a062e01ca6dc76cbec7f6cd41b71d8", "lon": -77.01101483333333, "rental_uris": {"ios": "https://dc.lft.to/lastmile_qr_scan", "android": "https://dc.lft.to/lastmile_qr_scan"}}, {"name": "a9f880969c81bc7fa515f17448a2bdae", "fusion_lat": 0.0, "type": "electric_scooter", "lat": 38.90339183333333, "is_reserved": 0, "is_disabled": 0, "fusion_lon": 0.0, "bike_id": "a9f880969c81bc7fa515f17448a2bdae", "lon": -77.06662283333333, "rental_uris": {"ios": "https://dc.lft.to/lastmile_qr_scan", "android": "https://dc.lft.to/lastmile_qr_scan"}}, {"name": "7e3d8583d2a23790e1f9616bfd84af38", "fusion_lat": 0.0, "type": "electric_scooter", "lat": 38.91614383333334, "is_reserved": 0, "is_disabled": 0, "fusion_lon": 0.0, "bike_id": "7e3d8583d2a23790e1f9616bfd84af38", "lon": -77.02170816666667, "rental_uris": {"ios": "https://dc.lft.to/lastmile_qr_scan", "android": "https://dc.lft.to/lastmile_qr_scan"}}, {"name": "f485a53644ef0b13a20089c4b94e33eb", "fusion_lat": 0.0, "type": "electric_bike", "lat": 38.86387166666667, "is_reserved": 0, "is_disabled": 0, "fusion_lon": 0.0, "bike_id": "f485a53644ef0b13a20089c4b94e33eb", "lon": -76.98990783333333, "rental_uris": {"ios": "https://dc.lft.to/lastmile_qr_scan", "android": "https://dc.lft.to/lastmile_qr_scan"}}, {"name": "3cd741f5f53759945cd7b757c385819a", "fusion_lat": 0.0, "type": "electric_scooter", "lat": 38.941746333333334, "is_reserved": 0, "is_disabled": 0, "fusion_lon": 0.0, "bike_id": "3cd741f5f53759945cd7b757c385819a", "lon": -77.04131633333333, "rental_uris": {"ios": "https://dc.lft.to/lastmile_qr_scan", "android": "https://dc.lft.to/lastmile_qr_scan"}}, {"name": "aabf58f4bee78e77600fae8ec570f51a", "fusion_lat": 0.0, "type": "electric_scooter", "lat": 38.911868, "is_reserved": 0, "is_disabled": 0, "fusion_lon": 0.0, "bike_id": "aabf58f4bee78e77600fae8ec570f51a", "lon": -77.03638616666667, "rental_uris": {"ios": "https://dc.lft.to/lastmile_qr_scan", "android": "https://dc.lft.to/lastmile_qr_scan"}}, {"name": "05f8b0a4e070288f07b79cf557505461", "fusion_lat": 0.0, "type": "electric_scooter", "lat": 38.9148485, "is_reserved": 0, "is_disabled": 0, "fusion_lon": 0.0, "bike_id": "05f8b0a4e070288f07b79cf557505461", "lon": -77.032484, "rental_uris": {"ios": "https://dc.lft.to/lastmile_qr_scan", "android": "https://dc.lft.to/lastmile_qr_scan"}}, {"name": "71c67877026cf2595f1e683502c1dbac", "fusion_lat": 0.0, "type": "electric_scooter", "lat": 38.89879116666667, "is_reserved": 0, "is_disabled": 0, "fusion_lon": 0.0, "bike_id": "71c67877026cf2595f1e683502c1dbac", "lon": -76.931576, "rental_uris": {"ios": "https://dc.lft.to/lastmile_qr_scan", "android": "https://dc.lft.to/lastmile_qr_scan"}}, {"name": "6851318159c609d77cea64b4530945c3", "fusion_lat": 0.0, "type": "electric_scooter", "lat": 38.874230833333336, "is_reserved": 0, "is_disabled": 0, "fusion_lon": 0.0, "bike_id": "6851318159c609d77cea64b4530945c3", "lon": -76.9718025, "rental_uris": {"ios": "https://dc.lft.to/lastmile_qr_scan", "android": "https://dc.lft.to/lastmile_qr_scan"}}, {"name": "20dd0d6de87827df7f9192d1b25ae9bb", "fusion_lat": 0.0, "type": "electric_bike", "lat": 38.998204333333334, "is_reserved": 0, "is_disabled": 0, "fusion_lon": 0.0, "bike_id": "20dd0d6de87827df7f9192d1b25ae9bb", "lon": -76.88371366666667, "rental_uris": {"ios": "https://dc.lft.to/lastmile_qr_scan", "android": "https://dc.lft.to/lastmile_qr_scan"}}, {"name": "e36f92ced0b087a6a6fff8ba5c53254b", "fusion_lat": 0.0, "type": "electric_scooter", "lat": 38.835957, "is_reserved": 0, "is_disabled": 0, "fusion_lon": 0.0, "bike_id": "e36f92ced0b087a6a6fff8ba5c53254b", "lon": -76.9935595, "rental_uris": {"ios": "https://dc.lft.to/lastmile_qr_scan", "android": "https://dc.lft.to/lastmile_qr_scan"}}, {"name": "1e594a5f78385ef41a143f6472552180", "fusion_lat": 0.0, "type": "electric_scooter", "lat": 38.918392, "is_reserved": 0, "is_disabled": 0, "fusion_lon": 0.0, "bike_id": "1e594a5f78385ef41a143f6472552180", "lon": -77.0260175, "rental_uris": {"ios": "https://dc.lft.to/lastmile_qr_scan", "android": "https://dc.lft.to/lastmile_qr_scan"}}, {"name": "6d1ac6f2d4041c6779189afee96d1b05", "fusion_lat": 0.0, "type": "electric_bike", "lat": 38.9490175, "is_reserved": 0, "is_disabled": 0, "fusion_lon": 0.0, "bike_id": "6d1ac6f2d4041c6779189afee96d1b05", "lon": -76.96373016666666, "rental_uris": {"ios": "https://dc.lft.to/lastmile_qr_scan", "android": "https://dc.lft.to/lastmile_qr_scan"}}, {"name": "c513b9bd35224413a9a36bc0d1f73090", "fusion_lat": 0.0, "type": "electric_scooter", "lat": 38.936056, "is_reserved": 0, "is_disabled": 0, "fusion_lon": 0.0, "bike_id": "c513b9bd35224413a9a36bc0d1f73090", "lon": -77.05857233333333, "rental_uris": {"ios": "https://dc.lft.to/lastmile_qr_scan", "android": "https://dc.lft.to/lastmile_qr_scan"}}, {"name": "f5b7b5a16cb7f13da118a66637b04440", "fusion_lat": 0.0, "type": "electric_scooter", "lat": 38.91009833333333, "is_reserved": 0, "is_disabled": 0, "fusion_lon": 0.0, "bike_id": "f5b7b5a16cb7f13da118a66637b04440", "lon": -77.04423483333333, "rental_uris": {"ios": "https://dc.lft.to/lastmile_qr_scan", "android": "https://dc.lft.to/lastmile_qr_scan"}}, {"name": "7e93724bd99931081ccb4f530c39086c", "fusion_lat": 0.0, "type": "electric_scooter", "lat": 38.933082166666665, "is_reserved": 0, "is_disabled": 0, "fusion_lon": 0.0, "bike_id": "7e93724bd99931081ccb4f530c39086c", "lon": -77.03764183333334, "rental_uris": {"ios": "https://dc.lft.to/lastmile_qr_scan", "android": "https://dc.lft.to/lastmile_qr_scan"}}, {"name": "0116a7b84640f4de1fa0565bdeead820", "fusion_lat": 0.0, "type": "electric_scooter", "lat": 38.900423333333336, "is_reserved": 0, "is_disabled": 0, "fusion_lon": 0.0, "bike_id": "0116a7b84640f4de1fa0565bdeead820", "lon": -77.001947, "rental_uris": {"ios": "https://dc.lft.to/lastmile_qr_scan", "android": "https://dc.lft.to/lastmile_qr_scan"}}, {"name": "e07655e7ebe5290d010a91b1476b77d5", "fusion_lat": 0.0, "type": "electric_bike", "lat": 39.0334615, "is_reserved": 0, "is_disabled": 0, "fusion_lon": 0.0, "bike_id": "e07655e7ebe5290d010a91b1476b77d5", "lon": -77.04908083333333, "rental_uris": {"ios": "https://dc.lft.to/lastmile_qr_scan", "android": "https://dc.lft.to/lastmile_qr_scan"}}, {"name": "4530f095a18f80f80c584dad7c8d46da", "fusion_lat": 0.0, "type": "electric_scooter", "lat": 38.943728166666666, "is_reserved": 0, "is_disabled": 0, "fusion_lon": 0.0, "bike_id": "4530f095a18f80f80c584dad7c8d46da", "lon": -77.06090216666666, "rental_uris": {"ios": "https://dc.lft.to/lastmile_qr_scan", "android": "https://dc.lft.to/lastmile_qr_scan"}}, {"name": "5f37b2d26d2579f4cd06ba4a89fb9206", "fusion_lat": 0.0, "type": "electric_scooter", "lat": 38.97502883333333, "is_reserved": 0, "is_disabled": 0, "fusion_lon": 0.0, "bike_id": "5f37b2d26d2579f4cd06ba4a89fb9206", "lon": -77.01688183333333, "rental_uris": {"ios": "https://dc.lft.to/lastmile_qr_scan", "android": "https://dc.lft.to/lastmile_qr_scan"}}, {"name": "b2323377df3555a4c89be1caf64b83ec", "fusion_lat": 0.0, "type": "electric_scooter", "lat": 38.906265, "is_reserved": 0, "is_disabled": 0, "fusion_lon": 0.0, "bike_id": "b2323377df3555a4c89be1caf64b83ec", "lon": -77.05150966666666, "rental_uris": {"ios": "https://dc.lft.to/lastmile_qr_scan", "android": "https://dc.lft.to/lastmile_qr_scan"}}, {"name": "1335dbaa13f8a3a423d53d4aefcb3058", "fusion_lat": 0.0, "type": "electric_scooter", "lat": 38.9237515, "is_reserved": 0, "is_disabled": 0, "fusion_lon": 0.0, "bike_id": "1335dbaa13f8a3a423d53d4aefcb3058", "lon": -77.01913716666667, "rental_uris": {"ios": "https://dc.lft.to/lastmile_qr_scan", "android": "https://dc.lft.to/lastmile_qr_scan"}}, {"name": "5d49a7a83ebc07e0023a7c8fb6c683e6", "fusion_lat": 0.0, "type": "electric_scooter", "lat": 38.91575666666667, "is_reserved": 0, "is_disabled": 0, "fusion_lon": 0.0, "bike_id": "5d49a7a83ebc07e0023a7c8fb6c683e6", "lon": -77.04686616666666, "rental_uris": {"ios": "https://dc.lft.to/lastmile_qr_scan", "android": "https://dc.lft.to/lastmile_qr_scan"}}, {"name": "722f355380cab6ae90c24e981afb91d2", "fusion_lat": 0.0, "type": "electric_scooter", "lat": 38.9237595, "is_reserved": 0, "is_disabled": 0, "fusion_lon": 0.0, "bike_id": "722f355380cab6ae90c24e981afb91d2", "lon": -77.01913783333333, "rental_uris": {"ios": "https://dc.lft.to/lastmile_qr_scan", "android": "https://dc.lft.to/lastmile_qr_scan"}}, {"name": "a1a1cc861c9f0b0a1275d66cff3bd32f", "fusion_lat": 0.0, "type": "electric_scooter", "lat": 38.87755633333333, "is_reserved": 0, "is_disabled": 0, "fusion_lon": 0.0, "bike_id": "a1a1cc861c9f0b0a1275d66cff3bd32f", "lon": -76.97242166666666, "rental_uris": {"ios": "https://dc.lft.to/lastmile_qr_scan", "android": "https://dc.lft.to/lastmile_qr_scan"}}, {"name": "7e1837a61a216b9fce616bc575d75000", "fusion_lat": 0.0, "type": "electric_scooter", "lat": 38.862149333333335, "is_reserved": 0, "is_disabled": 0, "fusion_lon": 0.0, "bike_id": "7e1837a61a216b9fce616bc575d75000", "lon": -76.9946835, "rental_uris": {"ios": "https://dc.lft.to/lastmile_qr_scan", "android": "https://dc.lft.to/lastmile_qr_scan"}}, {"name": "c1f68f8f3826c6b643e41f74935bc387", "fusion_lat": 0.0, "type": "electric_bike", "lat": 38.87078066666667, "is_reserved": 0, "is_disabled": 0, "fusion_lon": 0.0, "bike_id": "c1f68f8f3826c6b643e41f74935bc387", "lon": -77.110498, "rental_uris": {"ios": "https://dc.lft.to/lastmile_qr_scan", "android": "https://dc.lft.to/lastmile_qr_scan"}}, {"name": "2b920a7f8733e1ec6c93f5bfa81165f5", "fusion_lat": 0.0, "type": "electric_scooter", "lat": 38.897092, "is_reserved": 0, "is_disabled": 0, "fusion_lon": 0.0, "bike_id": "2b920a7f8733e1ec6c93f5bfa81165f5", "lon": -77.02149433333334, "rental_uris": {"ios": "https://dc.lft.to/lastmile_qr_scan", "android": "https://dc.lft.to/lastmile_qr_scan"}}, {"name": "c2846790775f7dc860c5c43719da7d8d", "fusion_lat": 0.0, "type": "electric_scooter", "lat": 38.92902266666667, "is_reserved": 0, "is_disabled": 0, "fusion_lon": 0.0, "bike_id": "c2846790775f7dc860c5c43719da7d8d", "lon": -77.0250235, "rental_uris": {"ios": "https://dc.lft.to/lastmile_qr_scan", "android": "https://dc.lft.to/lastmile_qr_scan"}}, {"name": "e297debad073f5a05012200e3e8e1546", "fusion_lat": 0.0, "type": "electric_scooter", "lat": 38.92310533333333, "is_reserved": 0, "is_disabled": 0, "fusion_lon": 0.0, "bike_id": "e297debad073f5a05012200e3e8e1546", "lon": -77.04109366666667, "rental_uris": {"ios": "https://dc.lft.to/lastmile_qr_scan", "android": "https://dc.lft.to/lastmile_qr_scan"}}, {"name": "c1273b8016862e95ee897c80f6cb4c9b", "fusion_lat": 0.0, "type": "electric_scooter", "lat": 38.94838633333333, "is_reserved": 0, "is_disabled": 0, "fusion_lon": 0.0, "bike_id": "c1273b8016862e95ee897c80f6cb4c9b", "lon": -77.02556233333334, "rental_uris": {"ios": "https://dc.lft.to/lastmile_qr_scan", "android": "https://dc.lft.to/lastmile_qr_scan"}}, {"name": "cb250b1def63c905f7e2b1dcdd7b5bbe", "fusion_lat": 0.0, "type": "electric_scooter", "lat": 38.941853, "is_reserved": 0, "is_disabled": 0, "fusion_lon": 0.0, "bike_id": "cb250b1def63c905f7e2b1dcdd7b5bbe", "lon": -77.024929, "rental_uris": {"ios": "https://dc.lft.to/lastmile_qr_scan", "android": "https://dc.lft.to/lastmile_qr_scan"}}, {"name": "b2c4cce2a328ad511c4a68c13f5c0e36", "fusion_lat": 0.0, "type": "electric_scooter", "lat": 38.89873633333333, "is_reserved": 0, "is_disabled": 0, "fusion_lon": 0.0, "bike_id": "b2c4cce2a328ad511c4a68c13f5c0e36", "lon": -76.931573, "rental_uris": {"ios": "https://dc.lft.to/lastmile_qr_scan", "android": "https://dc.lft.to/lastmile_qr_scan"}}, {"name": "999e70fbe272ab9cc3ba12636ac7f4fa", "fusion_lat": 0.0, "type": "electric_scooter", "lat": 38.9037005, "is_reserved": 0, "is_disabled": 0, "fusion_lon": 0.0, "bike_id": "999e70fbe272ab9cc3ba12636ac7f4fa", "lon": -77.01766533333333, "rental_uris": {"ios": "https://dc.lft.to/lastmile_qr_scan", "android": "https://dc.lft.to/lastmile_qr_scan"}}, {"name": "50235d01139ecc73eb79ace234673411", "fusion_lat": 0.0, "type": "electric_scooter", "lat": 38.8614605, "is_reserved": 0, "is_disabled": 0, "fusion_lon": 0.0, "bike_id": "50235d01139ecc73eb79ace234673411", "lon": -76.98922933333333, "rental_uris": {"ios": "https://dc.lft.to/lastmile_qr_scan", "android": "https://dc.lft.to/lastmile_qr_scan"}}, {"name": "08dc1c5b2faea0d08b76650475325127", "fusion_lat": 0.0, "type": "electric_scooter", "lat": 38.924459166666665, "is_reserved": 0, "is_disabled": 0, "fusion_lon": 0.0, "bike_id": "08dc1c5b2faea0d08b76650475325127", "lon": -76.993376, "rental_uris": {"ios": "https://dc.lft.to/lastmile_qr_scan", "android": "https://dc.lft.to/lastmile_qr_scan"}}, {"name": "8bd5bc0fd1e625146f43a168d9bb14ce", "fusion_lat": 0.0, "type": "electric_scooter", "lat": 38.90313783333333, "is_reserved": 0, "is_disabled": 0, "fusion_lon": 0.0, "bike_id": "8bd5bc0fd1e625146f43a168d9bb14ce", "lon": -77.02431966666667, "rental_uris": {"ios": "https://dc.lft.to/lastmile_qr_scan", "android": "https://dc.lft.to/lastmile_qr_scan"}}, {"name": "7c32518aa10fddc5e35a6e53218dc00c", "fusion_lat": 0.0, "type": "electric_scooter", "lat": 38.91270983333333, "is_reserved": 0, "is_disabled": 0, "fusion_lon": 0.0, "bike_id": "7c32518aa10fddc5e35a6e53218dc00c", "lon": -77.0354875, "rental_uris": {"ios": "https://dc.lft.to/lastmile_qr_scan", "android": "https://dc.lft.to/lastmile_qr_scan"}}, {"name": "256b36f78bb2b36aa5e0a70f5f04bd07", "fusion_lat": 0.0, "type": "electric_bike", "lat": 38.96128066666667, "is_reserved": 0, "is_disabled": 0, "fusion_lon": 0.0, "bike_id": "256b36f78bb2b36aa5e0a70f5f04bd07", "lon": -77.03269916666666, "rental_uris": {"ios": "https://dc.lft.to/lastmile_qr_scan", "android": "https://dc.lft.to/lastmile_qr_scan"}}, {"name": "9cfc981cbe3d77027817b30e571df585", "fusion_lat": 0.0, "type": "electric_scooter", "lat": 38.92362766666667, "is_reserved": 0, "is_disabled": 0, "fusion_lon": 0.0, "bike_id": "9cfc981cbe3d77027817b30e571df585", "lon": -77.05239466666667, "rental_uris": {"ios": "https://dc.lft.to/lastmile_qr_scan", "android": "https://dc.lft.to/lastmile_qr_scan"}}, {"name": "15e2aff886d25e762eefe0c6acfb303d", "fusion_lat": 0.0, "type": "electric_scooter", "lat": 38.918177166666666, "is_reserved": 0, "is_disabled": 0, "fusion_lon": 0.0, "bike_id": "15e2aff886d25e762eefe0c6acfb303d", "lon": -77.04000366666666, "rental_uris": {"ios": "https://dc.lft.to/lastmile_qr_scan", "android": "https://dc.lft.to/lastmile_qr_scan"}}, {"name": "5c6fba1709215c68d5a7a32e2d7c9443", "fusion_lat": 0.0, "type": "electric_scooter", "lat": 38.9088865, "is_reserved": 0, "is_disabled": 0, "fusion_lon": 0.0, "bike_id": "5c6fba1709215c68d5a7a32e2d7c9443", "lon": -77.00576483333333, "rental_uris": {"ios": "https://dc.lft.to/lastmile_qr_scan", "android": "https://dc.lft.to/lastmile_qr_scan"}}, {"name": "bdabc09b5c774c6b61e625b711b4cf05", "fusion_lat": 0.0, "type": "electric_scooter", "lat": 38.928034333333336, "is_reserved": 0, "is_disabled": 0, "fusion_lon": 0.0, "bike_id": "bdabc09b5c774c6b61e625b711b4cf05", "lon": -77.03979433333333, "rental_uris": {"ios": "https://dc.lft.to/lastmile_qr_scan", "android": "https://dc.lft.to/lastmile_qr_scan"}}, {"name": "94af581081d34cfe75b8f636deecec3c", "fusion_lat": 0.0, "type": "electric_scooter", "lat": 38.919334166666665, "is_reserved": 0, "is_disabled": 0, "fusion_lon": 0.0, "bike_id": "94af581081d34cfe75b8f636deecec3c", "lon": -77.04506183333334, "rental_uris": {"ios": "https://dc.lft.to/lastmile_qr_scan", "android": "https://dc.lft.to/lastmile_qr_scan"}}, {"name": "76ff0882b7cc7405d6e9aeb50ea2293a", "fusion_lat": 0.0, "type": "electric_scooter", "lat": 38.903975333333335, "is_reserved": 0, "is_disabled": 0, "fusion_lon": 0.0, "bike_id": "76ff0882b7cc7405d6e9aeb50ea2293a", "lon": -77.06399616666667, "rental_uris": {"ios": "https://dc.lft.to/lastmile_qr_scan", "android": "https://dc.lft.to/lastmile_qr_scan"}}, {"name": "7bf10505e4a3698b8fda98cc42faa457", "fusion_lat": 0.0, "type": "electric_scooter", "lat": 38.904781, "is_reserved": 0, "is_disabled": 0, "fusion_lon": 0.0, "bike_id": "7bf10505e4a3698b8fda98cc42faa457", "lon": -77.00720166666666, "rental_uris": {"ios": "https://dc.lft.to/lastmile_qr_scan", "android": "https://dc.lft.to/lastmile_qr_scan"}}, {"name": "93a02405e55f9abd236eec4636609fda", "fusion_lat": 0.0, "type": "electric_scooter", "lat": 38.90557116666667, "is_reserved": 0, "is_disabled": 0, "fusion_lon": 0.0, "bike_id": "93a02405e55f9abd236eec4636609fda", "lon": -77.02248683333333, "rental_uris": {"ios": "https://dc.lft.to/lastmile_qr_scan", "android": "https://dc.lft.to/lastmile_qr_scan"}}, {"name": "3bf44c91f55f77fdbd5fcd19439a4d89", "fusion_lat": 0.0, "type": "electric_scooter", "lat": 38.917331833333336, "is_reserved": 0, "is_disabled": 0, "fusion_lon": 0.0, "bike_id": "3bf44c91f55f77fdbd5fcd19439a4d89", "lon": -77.01033566666666, "rental_uris": {"ios": "https://dc.lft.to/lastmile_qr_scan", "android": "https://dc.lft.to/lastmile_qr_scan"}}, {"name": "2c9ecd4ba8fad46ce12647993694a718", "fusion_lat": 0.0, "type": "electric_scooter", "lat": 38.93098083333334, "is_reserved": 0, "is_disabled": 0, "fusion_lon": 0.0, "bike_id": "2c9ecd4ba8fad46ce12647993694a718", "lon": -77.023959, "rental_uris": {"ios": "https://dc.lft.to/lastmile_qr_scan", "android": "https://dc.lft.to/lastmile_qr_scan"}}, {"name": "de2be30e89d343be762cd16b05ceba81", "fusion_lat": 0.0, "type": "electric_scooter", "lat": 38.91762333333333, "is_reserved": 0, "is_disabled": 0, "fusion_lon": 0.0, "bike_id": "de2be30e89d343be762cd16b05ceba81", "lon": -77.01868066666667, "rental_uris": {"ios": "https://dc.lft.to/lastmile_qr_scan", "android": "https://dc.lft.to/lastmile_qr_scan"}}, {"name": "d1bfbc04106b4cddc670a46ef176d473", "fusion_lat": 0.0, "type": "electric_scooter", "lat": 38.938996, "is_reserved": 0, "is_disabled": 0, "fusion_lon": 0.0, "bike_id": "d1bfbc04106b4cddc670a46ef176d473", "lon": -77.03264016666667, "rental_uris": {"ios": "https://dc.lft.to/lastmile_qr_scan", "android": "https://dc.lft.to/lastmile_qr_scan"}}, {"name": "f0a2396a37e0108c230e196901cf748f", "fusion_lat": 0.0, "type": "electric_scooter", "lat": 38.914226, "is_reserved": 0, "is_disabled": 0, "fusion_lon": 0.0, "bike_id": "f0a2396a37e0108c230e196901cf748f", "lon": -77.0317375, "rental_uris": {"ios": "https://dc.lft.to/lastmile_qr_scan", "android": "https://dc.lft.to/lastmile_qr_scan"}}, {"name": "7e3b314ec9b73de70cbe793705209f12", "fusion_lat": 0.0, "type": "electric_scooter", "lat": 38.903434, "is_reserved": 0, "is_disabled": 0, "fusion_lon": 0.0, "bike_id": "7e3b314ec9b73de70cbe793705209f12", "lon": -76.97564783333334, "rental_uris": {"ios": "https://dc.lft.to/lastmile_qr_scan", "android": "https://dc.lft.to/lastmile_qr_scan"}}, {"name": "cb1a52d46b22cef3bfc1fc466df7cbb2", "fusion_lat": 0.0, "type": "electric_scooter", "lat": 38.90957, "is_reserved": 0, "is_disabled": 0, "fusion_lon": 0.0, "bike_id": "cb1a52d46b22cef3bfc1fc466df7cbb2", "lon": -77.0386355, "rental_uris": {"ios": "https://dc.lft.to/lastmile_qr_scan", "android": "https://dc.lft.to/lastmile_qr_scan"}}, {"name": "634a83d08502891a6af26a55eb935640", "fusion_lat": 0.0, "type": "electric_bike", "lat": 38.907057333333334, "is_reserved": 0, "is_disabled": 0, "fusion_lon": 0.0, "bike_id": "634a83d08502891a6af26a55eb935640", "lon": -77.00334133333334, "rental_uris": {"ios": "https://dc.lft.to/lastmile_qr_scan", "android": "https://dc.lft.to/lastmile_qr_scan"}}, {"name": "d4c6310c9cf831f2dbd98be6aa4de3ec", "fusion_lat": 0.0, "type": "electric_scooter", "lat": 38.87373633333333, "is_reserved": 0, "is_disabled": 0, "fusion_lon": 0.0, "bike_id": "d4c6310c9cf831f2dbd98be6aa4de3ec", "lon": -77.0003495, "rental_uris": {"ios": "https://dc.lft.to/lastmile_qr_scan", "android": "https://dc.lft.to/lastmile_qr_scan"}}, {"name": "5a12b90f8b182fd982fc7d76f559081e", "fusion_lat": 0.0, "type": "electric_scooter", "lat": 38.91725566666667, "is_reserved": 0, "is_disabled": 0, "fusion_lon": 0.0, "bike_id": "5a12b90f8b182fd982fc7d76f559081e", "lon": -77.00010533333334, "rental_uris": {"ios": "https://dc.lft.to/lastmile_qr_scan", "android": "https://dc.lft.to/lastmile_qr_scan"}}, {"name": "41513c1365f93bd3f5ee0ebf488aa246", "fusion_lat": 0.0, "type": "electric_scooter", "lat": 38.90020483333333, "is_reserved": 0, "is_disabled": 0, "fusion_lon": 0.0, "bike_id": "41513c1365f93bd3f5ee0ebf488aa246", "lon": -77.0448805, "rental_uris": {"ios": "https://dc.lft.to/lastmile_qr_scan", "android": "https://dc.lft.to/lastmile_qr_scan"}}, {"name": "2625dee66e97da6c8693a8d47b5a9212", "fusion_lat": 0.0, "type": "electric_scooter", "lat": 38.9020575, "is_reserved": 0, "is_disabled": 0, "fusion_lon": 0.0, "bike_id": "2625dee66e97da6c8693a8d47b5a9212", "lon": -77.023774, "rental_uris": {"ios": "https://dc.lft.to/lastmile_qr_scan", "android": "https://dc.lft.to/lastmile_qr_scan"}}, {"name": "ce7c0954047b553407ef0a7176d1f7c3", "fusion_lat": 0.0, "type": "electric_scooter", "lat": 38.919077333333334, "is_reserved": 0, "is_disabled": 0, "fusion_lon": 0.0, "bike_id": "ce7c0954047b553407ef0a7176d1f7c3", "lon": -77.02136016666667, "rental_uris": {"ios": "https://dc.lft.to/lastmile_qr_scan", "android": "https://dc.lft.to/lastmile_qr_scan"}}, {"name": "57f007f105513d1ff72348bff5f1c45f", "fusion_lat": 0.0, "type": "electric_scooter", "lat": 38.92488866666667, "is_reserved": 0, "is_disabled": 0, "fusion_lon": 0.0, "bike_id": "57f007f105513d1ff72348bff5f1c45f", "lon": -77.0520905, "rental_uris": {"ios": "https://dc.lft.to/lastmile_qr_scan", "android": "https://dc.lft.to/lastmile_qr_scan"}}, {"name": "756cec7fea32d98cb5bd92bafeff53dd", "fusion_lat": 0.0, "type": "electric_scooter", "lat": 38.91879866666667, "is_reserved": 0, "is_disabled": 0, "fusion_lon": 0.0, "bike_id": "756cec7fea32d98cb5bd92bafeff53dd", "lon": -77.04215916666666, "rental_uris": {"ios": "https://dc.lft.to/lastmile_qr_scan", "android": "https://dc.lft.to/lastmile_qr_scan"}}, {"name": "546d7eca753a81ad69969e650d3d1438", "fusion_lat": 0.0, "type": "electric_scooter", "lat": 38.885197, "is_reserved": 0, "is_disabled": 0, "fusion_lon": 0.0, "bike_id": "546d7eca753a81ad69969e650d3d1438", "lon": -77.03350716666667, "rental_uris": {"ios": "https://dc.lft.to/lastmile_qr_scan", "android": "https://dc.lft.to/lastmile_qr_scan"}}, {"name": "662e204390aedc0da282eabf82637ddb", "fusion_lat": 0.0, "type": "electric_scooter", "lat": 38.922342666666665, "is_reserved": 0, "is_disabled": 0, "fusion_lon": 0.0, "bike_id": "662e204390aedc0da282eabf82637ddb", "lon": -77.04485583333333, "rental_uris": {"ios": "https://dc.lft.to/lastmile_qr_scan", "android": "https://dc.lft.to/lastmile_qr_scan"}}, {"name": "36fde8f80fce17c1e1f699919361c2e6", "fusion_lat": 0.0, "type": "electric_scooter", "lat": 38.90030633333333, "is_reserved": 0, "is_disabled": 0, "fusion_lon": 0.0, "bike_id": "36fde8f80fce17c1e1f699919361c2e6", "lon": -76.98846633333334, "rental_uris": {"ios": "https://dc.lft.to/lastmile_qr_scan", "android": "https://dc.lft.to/lastmile_qr_scan"}}, {"name": "b9aaebb9370660747d14b01a6e0768c5", "fusion_lat": 0.0, "type": "electric_scooter", "lat": 38.870827, "is_reserved": 0, "is_disabled": 0, "fusion_lon": 0.0, "bike_id": "b9aaebb9370660747d14b01a6e0768c5", "lon": -76.968561, "rental_uris": {"ios": "https://dc.lft.to/lastmile_qr_scan", "android": "https://dc.lft.to/lastmile_qr_scan"}}, {"name": "60742e2cd2b6a232dffd575d69ff7172", "fusion_lat": 0.0, "type": "electric_scooter", "lat": 38.884341666666664, "is_reserved": 0, "is_disabled": 0, "fusion_lon": 0.0, "bike_id": "60742e2cd2b6a232dffd575d69ff7172", "lon": -76.9959565, "rental_uris": {"ios": "https://dc.lft.to/lastmile_qr_scan", "android": "https://dc.lft.to/lastmile_qr_scan"}}, {"name": "dc245d01afed4bed129df88eacc91275", "fusion_lat": 0.0, "type": "electric_scooter", "lat": 38.90022333333334, "is_reserved": 0, "is_disabled": 0, "fusion_lon": 0.0, "bike_id": "dc245d01afed4bed129df88eacc91275", "lon": -76.99830416666667, "rental_uris": {"ios": "https://dc.lft.to/lastmile_qr_scan", "android": "https://dc.lft.to/lastmile_qr_scan"}}, {"name": "e04dc0cfa2d773fa48dc800aaaea46a5", "fusion_lat": 0.0, "type": "electric_scooter", "lat": 38.9065345, "is_reserved": 0, "is_disabled": 0, "fusion_lon": 0.0, "bike_id": "e04dc0cfa2d773fa48dc800aaaea46a5", "lon": -77.01408533333333, "rental_uris": {"ios": "https://dc.lft.to/lastmile_qr_scan", "android": "https://dc.lft.to/lastmile_qr_scan"}}, {"name": "576019cf45f4a0f3a3d09237ac5f1bf8", "fusion_lat": 0.0, "type": "electric_scooter", "lat": 38.896004833333336, "is_reserved": 0, "is_disabled": 0, "fusion_lon": 0.0, "bike_id": "576019cf45f4a0f3a3d09237ac5f1bf8", "lon": -77.0413625, "rental_uris": {"ios": "https://dc.lft.to/lastmile_qr_scan", "android": "https://dc.lft.to/lastmile_qr_scan"}}, {"name": "87af216ed0ab8c3b12ca420181bcbb05", "fusion_lat": 0.0, "type": "electric_bike", "lat": 39.030508833333336, "is_reserved": 0, "is_disabled": 0, "fusion_lon": 0.0, "bike_id": "87af216ed0ab8c3b12ca420181bcbb05", "lon": -77.09487133333333, "rental_uris": {"ios": "https://dc.lft.to/lastmile_qr_scan", "android": "https://dc.lft.to/lastmile_qr_scan"}}, {"name": "3809b839a008ea7afd7e7100a9591e2c", "fusion_lat": 0.0, "type": "electric_scooter", "lat": 38.92777266666667, "is_reserved": 0, "is_disabled": 0, "fusion_lon": 0.0, "bike_id": "3809b839a008ea7afd7e7100a9591e2c", "lon": -77.026509, "rental_uris": {"ios": "https://dc.lft.to/lastmile_qr_scan", "android": "https://dc.lft.to/lastmile_qr_scan"}}, {"name": "7a417489a7c5f64db69905b5adcebbd2", "fusion_lat": 0.0, "type": "electric_scooter", "lat": 38.92006383333333, "is_reserved": 0, "is_disabled": 0, "fusion_lon": 0.0, "bike_id": "7a417489a7c5f64db69905b5adcebbd2", "lon": -77.03979383333333, "rental_uris": {"ios": "https://dc.lft.to/lastmile_qr_scan", "android": "https://dc.lft.to/lastmile_qr_scan"}}, {"name": "2af4e2f3fea73c622d5d93986aeeb7d0", "fusion_lat": 0.0, "type": "electric_scooter", "lat": 38.87239666666667, "is_reserved": 0, "is_disabled": 0, "fusion_lon": 0.0, "bike_id": "2af4e2f3fea73c622d5d93986aeeb7d0", "lon": -77.01159183333333, "rental_uris": {"ios": "https://dc.lft.to/lastmile_qr_scan", "android": "https://dc.lft.to/lastmile_qr_scan"}}, {"name": "7c460b2368c7230858cdfa5e6b7a055d", "fusion_lat": 0.0, "type": "electric_bike", "lat": 38.965459833333334, "is_reserved": 0, "is_disabled": 0, "fusion_lon": 0.0, "bike_id": "7c460b2368c7230858cdfa5e6b7a055d", "lon": -77.03525333333333, "rental_uris": {"ios": "https://dc.lft.to/lastmile_qr_scan", "android": "https://dc.lft.to/lastmile_qr_scan"}}, {"name": "f564a577f7cccd162d23dd411ad5df90", "fusion_lat": 0.0, "type": "electric_scooter", "lat": 38.91547816666667, "is_reserved": 0, "is_disabled": 0, "fusion_lon": 0.0, "bike_id": "f564a577f7cccd162d23dd411ad5df90", "lon": -77.03854083333333, "rental_uris": {"ios": "https://dc.lft.to/lastmile_qr_scan", "android": "https://dc.lft.to/lastmile_qr_scan"}}, {"name": "e5b9524b09bfeb141ddda03efec77108", "fusion_lat": 0.0, "type": "electric_scooter", "lat": 38.9420415, "is_reserved": 0, "is_disabled": 0, "fusion_lon": 0.0, "bike_id": "e5b9524b09bfeb141ddda03efec77108", "lon": -77.025184, "rental_uris": {"ios": "https://dc.lft.to/lastmile_qr_scan", "android": "https://dc.lft.to/lastmile_qr_scan"}}, {"name": "7b7220270b12f5a85cb7eb1cf0eb4474", "fusion_lat": 0.0, "type": "electric_bike", "lat": 38.863695166666666, "is_reserved": 0, "is_disabled": 0, "fusion_lon": 0.0, "bike_id": "7b7220270b12f5a85cb7eb1cf0eb4474", "lon": -76.970057, "rental_uris": {"ios": "https://dc.lft.to/lastmile_qr_scan", "android": "https://dc.lft.to/lastmile_qr_scan"}}, {"name": "2e1c2311b2529137c5246f8356e03df1", "fusion_lat": 0.0, "type": "electric_bike", "lat": 38.81939633333333, "is_reserved": 0, "is_disabled": 0, "fusion_lon": 0.0, "bike_id": "2e1c2311b2529137c5246f8356e03df1", "lon": -77.00206316666667, "rental_uris": {"ios": "https://dc.lft.to/lastmile_qr_scan", "android": "https://dc.lft.to/lastmile_qr_scan"}}, {"name": "5b1695fde16564d0c54d1e1490679416", "fusion_lat": 0.0, "type": "electric_scooter", "lat": 38.935539, "is_reserved": 0, "is_disabled": 0, "fusion_lon": 0.0, "bike_id": "5b1695fde16564d0c54d1e1490679416", "lon": -77.08191933333333, "rental_uris": {"ios": "https://dc.lft.to/lastmile_qr_scan", "android": "https://dc.lft.to/lastmile_qr_scan"}}, {"name": "c593cb06d6f8b66bfe63e5a2891e04eb", "fusion_lat": 0.0, "type": "electric_scooter", "lat": 38.90734916666667, "is_reserved": 0, "is_disabled": 0, "fusion_lon": 0.0, "bike_id": "c593cb06d6f8b66bfe63e5a2891e04eb", "lon": -77.02971616666666, "rental_uris": {"ios": "https://dc.lft.to/lastmile_qr_scan", "android": "https://dc.lft.to/lastmile_qr_scan"}}, {"name": "0708c2b28c787f9d4ea20770c9026320", "fusion_lat": 0.0, "type": "electric_scooter", "lat": 38.90550566666667, "is_reserved": 0, "is_disabled": 0, "fusion_lon": 0.0, "bike_id": "0708c2b28c787f9d4ea20770c9026320", "lon": -77.044845, "rental_uris": {"ios": "https://dc.lft.to/lastmile_qr_scan", "android": "https://dc.lft.to/lastmile_qr_scan"}}, {"name": "f84fd908633408a4d1cb10adbbe6c6e9", "fusion_lat": 0.0, "type": "electric_scooter", "lat": 38.89492466666667, "is_reserved": 0, "is_disabled": 0, "fusion_lon": 0.0, "bike_id": "f84fd908633408a4d1cb10adbbe6c6e9", "lon": -77.02020166666667, "rental_uris": {"ios": "https://dc.lft.to/lastmile_qr_scan", "android": "https://dc.lft.to/lastmile_qr_scan"}}, {"name": "65699e1cfefca7f8d6c8c04a35029bc8", "fusion_lat": 0.0, "type": "electric_scooter", "lat": 38.918062, "is_reserved": 0, "is_disabled": 0, "fusion_lon": 0.0, "bike_id": "65699e1cfefca7f8d6c8c04a35029bc8", "lon": -77.03212866666667, "rental_uris": {"ios": "https://dc.lft.to/lastmile_qr_scan", "android": "https://dc.lft.to/lastmile_qr_scan"}}, {"name": "8d554629b917d81131ccb17177bcc57d", "fusion_lat": 0.0, "type": "electric_scooter", "lat": 38.884106, "is_reserved": 0, "is_disabled": 0, "fusion_lon": 0.0, "bike_id": "8d554629b917d81131ccb17177bcc57d", "lon": -76.97599016666666, "rental_uris": {"ios": "https://dc.lft.to/lastmile_qr_scan", "android": "https://dc.lft.to/lastmile_qr_scan"}}, {"name": "0222375cdfe832e34f6e33732355a6c7", "fusion_lat": 0.0, "type": "electric_scooter", "lat": 38.91767133333333, "is_reserved": 0, "is_disabled": 0, "fusion_lon": 0.0, "bike_id": "0222375cdfe832e34f6e33732355a6c7", "lon": -77.01492066666667, "rental_uris": {"ios": "https://dc.lft.to/lastmile_qr_scan", "android": "https://dc.lft.to/lastmile_qr_scan"}}, {"name": "7eb6f7ef5019085f104dfcf38bcdf174", "fusion_lat": 0.0, "type": "electric_bike", "lat": 38.9171545, "is_reserved": 0, "is_disabled": 0, "fusion_lon": 0.0, "bike_id": "7eb6f7ef5019085f104dfcf38bcdf174", "lon": -76.9888955, "rental_uris": {"ios": "https://dc.lft.to/lastmile_qr_scan", "android": "https://dc.lft.to/lastmile_qr_scan"}}, {"name": "69235b40cd76aa99263fba858a2cdfb1", "fusion_lat": 0.0, "type": "electric_scooter", "lat": 38.90327533333333, "is_reserved": 0, "is_disabled": 0, "fusion_lon": 0.0, "bike_id": "69235b40cd76aa99263fba858a2cdfb1", "lon": -77.05327016666666, "rental_uris": {"ios": "https://dc.lft.to/lastmile_qr_scan", "android": "https://dc.lft.to/lastmile_qr_scan"}}, {"name": "e07b8283ea0e4c7cff37b30f1c07bbf1", "fusion_lat": 0.0, "type": "electric_bike", "lat": 38.832359, "is_reserved": 0, "is_disabled": 0, "fusion_lon": 0.0, "bike_id": "e07b8283ea0e4c7cff37b30f1c07bbf1", "lon": -76.94614833333333, "rental_uris": {"ios": "https://dc.lft.to/lastmile_qr_scan", "android": "https://dc.lft.to/lastmile_qr_scan"}}, {"name": "9414eafd2b72247ca4df85db88b6f083", "fusion_lat": 0.0, "type": "electric_scooter", "lat": 38.90911916666667, "is_reserved": 0, "is_disabled": 0, "fusion_lon": 0.0, "bike_id": "9414eafd2b72247ca4df85db88b6f083", "lon": -77.03191716666667, "rental_uris": {"ios": "https://dc.lft.to/lastmile_qr_scan", "android": "https://dc.lft.to/lastmile_qr_scan"}}, {"name": "e9b663084e9bed49694e7c2540f70b94", "fusion_lat": 0.0, "type": "electric_scooter", "lat": 38.90131516666667, "is_reserved": 0, "is_disabled": 0, "fusion_lon": 0.0, "bike_id": "e9b663084e9bed49694e7c2540f70b94", "lon": -77.0237875, "rental_uris": {"ios": "https://dc.lft.to/lastmile_qr_scan", "android": "https://dc.lft.to/lastmile_qr_scan"}}, {"name": "37791dd6ab73c641a962190bfb6d9106", "fusion_lat": 0.0, "type": "electric_scooter", "lat": 38.8909225, "is_reserved": 0, "is_disabled": 0, "fusion_lon": 0.0, "bike_id": "37791dd6ab73c641a962190bfb6d9106", "lon": -76.99139116666667, "rental_uris": {"ios": "https://dc.lft.to/lastmile_qr_scan", "android": "https://dc.lft.to/lastmile_qr_scan"}}, {"name": "71702423c22336f67c21e9f2030d80cd", "fusion_lat": 0.0, "type": "electric_scooter", "lat": 38.909853166666664, "is_reserved": 0, "is_disabled": 0, "fusion_lon": 0.0, "bike_id": "71702423c22336f67c21e9f2030d80cd", "lon": -77.0488885, "rental_uris": {"ios": "https://dc.lft.to/lastmile_qr_scan", "android": "https://dc.lft.to/lastmile_qr_scan"}}, {"name": "24d95371cbb2bbb1c2bfc1facaedcf3c", "fusion_lat": 0.0, "type": "electric_scooter", "lat": 38.907896, "is_reserved": 0, "is_disabled": 0, "fusion_lon": 0.0, "bike_id": "24d95371cbb2bbb1c2bfc1facaedcf3c", "lon": -77.03856183333333, "rental_uris": {"ios": "https://dc.lft.to/lastmile_qr_scan", "android": "https://dc.lft.to/lastmile_qr_scan"}}, {"name": "f9c7c84b80cab375e9b676003b64aca1", "fusion_lat": 0.0, "type": "electric_scooter", "lat": 38.93963133333333, "is_reserved": 0, "is_disabled": 0, "fusion_lon": 0.0, "bike_id": "f9c7c84b80cab375e9b676003b64aca1", "lon": -77.02750033333334, "rental_uris": {"ios": "https://dc.lft.to/lastmile_qr_scan", "android": "https://dc.lft.to/lastmile_qr_scan"}}, {"name": "3ebac4a02d6e623746eda2519c4d92b6", "fusion_lat": 0.0, "type": "electric_scooter", "lat": 38.892959833333336, "is_reserved": 0, "is_disabled": 0, "fusion_lon": 0.0, "bike_id": "3ebac4a02d6e623746eda2519c4d92b6", "lon": -76.93927083333334, "rental_uris": {"ios": "https://dc.lft.to/lastmile_qr_scan", "android": "https://dc.lft.to/lastmile_qr_scan"}}, {"name": "c485e33775fa365225df5acaa7abddaf", "fusion_lat": 0.0, "type": "electric_scooter", "lat": 38.926135333333335, "is_reserved": 0, "is_disabled": 0, "fusion_lon": 0.0, "bike_id": "c485e33775fa365225df5acaa7abddaf", "lon": -77.02163283333333, "rental_uris": {"ios": "https://dc.lft.to/lastmile_qr_scan", "android": "https://dc.lft.to/lastmile_qr_scan"}}, {"name": "6fc087d6f2bd6ef8ded3f3550b643d28", "fusion_lat": 0.0, "type": "electric_scooter", "lat": 38.92319533333333, "is_reserved": 0, "is_disabled": 0, "fusion_lon": 0.0, "bike_id": "6fc087d6f2bd6ef8ded3f3550b643d28", "lon": -77.0297065, "rental_uris": {"ios": "https://dc.lft.to/lastmile_qr_scan", "android": "https://dc.lft.to/lastmile_qr_scan"}}, {"name": "754ff29b18bf1c1b9bcdb63aaa9bdbd4", "fusion_lat": 0.0, "type": "electric_scooter", "lat": 38.9032285, "is_reserved": 0, "is_disabled": 0, "fusion_lon": 0.0, "bike_id": "754ff29b18bf1c1b9bcdb63aaa9bdbd4", "lon": -77.05169033333334, "rental_uris": {"ios": "https://dc.lft.to/lastmile_qr_scan", "android": "https://dc.lft.to/lastmile_qr_scan"}}, {"name": "3ce9779cabd334791142fc18cd2e7c68", "fusion_lat": 0.0, "type": "electric_bike", "lat": 38.91856466666667, "is_reserved": 0, "is_disabled": 0, "fusion_lon": 0.0, "bike_id": "3ce9779cabd334791142fc18cd2e7c68", "lon": -76.96090833333334, "rental_uris": {"ios": "https://dc.lft.to/lastmile_qr_scan", "android": "https://dc.lft.to/lastmile_qr_scan"}}, {"name": "6459a1d04f6a462dc4f5e1697455c019", "fusion_lat": 0.0, "type": "electric_scooter", "lat": 38.887493, "is_reserved": 0, "is_disabled": 0, "fusion_lon": 0.0, "bike_id": "6459a1d04f6a462dc4f5e1697455c019", "lon": -77.02843666666666, "rental_uris": {"ios": "https://dc.lft.to/lastmile_qr_scan", "android": "https://dc.lft.to/lastmile_qr_scan"}}, {"name": "662559fd9fe20e6fec3fc11b17f10d82", "fusion_lat": 0.0, "type": "electric_scooter", "lat": 38.932498, "is_reserved": 0, "is_disabled": 0, "fusion_lon": 0.0, "bike_id": "662559fd9fe20e6fec3fc11b17f10d82", "lon": -77.02387116666667, "rental_uris": {"ios": "https://dc.lft.to/lastmile_qr_scan", "android": "https://dc.lft.to/lastmile_qr_scan"}}, {"name": "5ebbfe63e612d209208dd5a5b9394b92", "fusion_lat": 0.0, "type": "electric_scooter", "lat": 38.907651666666666, "is_reserved": 0, "is_disabled": 0, "fusion_lon": 0.0, "bike_id": "5ebbfe63e612d209208dd5a5b9394b92", "lon": -77.02790033333333, "rental_uris": {"ios": "https://dc.lft.to/lastmile_qr_scan", "android": "https://dc.lft.to/lastmile_qr_scan"}}, {"name": "c902f8f4b6381f54cb15f03e164e02c2", "fusion_lat": 0.0, "type": "electric_scooter", "lat": 38.90267383333333, "is_reserved": 0, "is_disabled": 0, "fusion_lon": 0.0, "bike_id": "c902f8f4b6381f54cb15f03e164e02c2", "lon": -77.03981216666666, "rental_uris": {"ios": "https://dc.lft.to/lastmile_qr_scan", "android": "https://dc.lft.to/lastmile_qr_scan"}}, {"name": "ce639e8e47a274e431b67fb36f5b428a", "fusion_lat": 0.0, "type": "electric_scooter", "lat": 38.9172215, "is_reserved": 0, "is_disabled": 0, "fusion_lon": 0.0, "bike_id": "ce639e8e47a274e431b67fb36f5b428a", "lon": -77.03836783333334, "rental_uris": {"ios": "https://dc.lft.to/lastmile_qr_scan", "android": "https://dc.lft.to/lastmile_qr_scan"}}, {"name": "3eb22f9f06de91cf6a539d12ff77bf61", "fusion_lat": 0.0, "type": "electric_scooter", "lat": 38.897363166666665, "is_reserved": 0, "is_disabled": 0, "fusion_lon": 0.0, "bike_id": "3eb22f9f06de91cf6a539d12ff77bf61", "lon": -77.046504, "rental_uris": {"ios": "https://dc.lft.to/lastmile_qr_scan", "android": "https://dc.lft.to/lastmile_qr_scan"}}, {"name": "4073af272807e8cd929345ad788d60c1", "fusion_lat": 0.0, "type": "electric_scooter", "lat": 38.89919366666667, "is_reserved": 0, "is_disabled": 0, "fusion_lon": 0.0, "bike_id": "4073af272807e8cd929345ad788d60c1", "lon": -76.9338055, "rental_uris": {"ios": "https://dc.lft.to/lastmile_qr_scan", "android": "https://dc.lft.to/lastmile_qr_scan"}}, {"name": "dc82277bc6d686fe90420891e1c332f8", "fusion_lat": 0.0, "type": "electric_scooter", "lat": 38.92352116666667, "is_reserved": 0, "is_disabled": 0, "fusion_lon": 0.0, "bike_id": "dc82277bc6d686fe90420891e1c332f8", "lon": -77.03534, "rental_uris": {"ios": "https://dc.lft.to/lastmile_qr_scan", "android": "https://dc.lft.to/lastmile_qr_scan"}}, {"name": "fe76b26a8818969403eb23ca3a590ead", "fusion_lat": 0.0, "type": "electric_bike", "lat": 38.82444733333333, "is_reserved": 0, "is_disabled": 0, "fusion_lon": 0.0, "bike_id": "fe76b26a8818969403eb23ca3a590ead", "lon": -77.07041183333334, "rental_uris": {"ios": "https://dc.lft.to/lastmile_qr_scan", "android": "https://dc.lft.to/lastmile_qr_scan"}}, {"name": "4a863962c850f40fc14a7c0d235fc77d", "fusion_lat": 0.0, "type": "electric_scooter", "lat": 38.911125, "is_reserved": 0, "is_disabled": 0, "fusion_lon": 0.0, "bike_id": "4a863962c850f40fc14a7c0d235fc77d", "lon": -77.02461266666667, "rental_uris": {"ios": "https://dc.lft.to/lastmile_qr_scan", "android": "https://dc.lft.to/lastmile_qr_scan"}}, {"name": "4355802f591f3e70e5f385306e8fd6c3", "fusion_lat": 0.0, "type": "electric_scooter", "lat": 38.883753166666665, "is_reserved": 0, "is_disabled": 0, "fusion_lon": 0.0, "bike_id": "4355802f591f3e70e5f385306e8fd6c3", "lon": -76.9237305, "rental_uris": {"ios": "https://dc.lft.to/lastmile_qr_scan", "android": "https://dc.lft.to/lastmile_qr_scan"}}, {"name": "22b84e37cd125b39350212f4053931af", "fusion_lat": 0.0, "type": "electric_scooter", "lat": 38.92360866666667, "is_reserved": 0, "is_disabled": 0, "fusion_lon": 0.0, "bike_id": "22b84e37cd125b39350212f4053931af", "lon": -77.058382, "rental_uris": {"ios": "https://dc.lft.to/lastmile_qr_scan", "android": "https://dc.lft.to/lastmile_qr_scan"}}, {"name": "f9bcac1755ea0bd687cf583907a977b0", "fusion_lat": 0.0, "type": "electric_scooter", "lat": 38.919124, "is_reserved": 0, "is_disabled": 0, "fusion_lon": 0.0, "bike_id": "f9bcac1755ea0bd687cf583907a977b0", "lon": -77.03163866666667, "rental_uris": {"ios": "https://dc.lft.to/lastmile_qr_scan", "android": "https://dc.lft.to/lastmile_qr_scan"}}, {"name": "a346c48533464a6ae905f6d5c87382c2", "fusion_lat": 0.0, "type": "electric_scooter", "lat": 38.89615366666666, "is_reserved": 0, "is_disabled": 0, "fusion_lon": 0.0, "bike_id": "a346c48533464a6ae905f6d5c87382c2", "lon": -77.04463716666666, "rental_uris": {"ios": "https://dc.lft.to/lastmile_qr_scan", "android": "https://dc.lft.to/lastmile_qr_scan"}}, {"name": "8487acb65e62c5de1d30a1aa4b553318", "fusion_lat": 0.0, "type": "electric_scooter", "lat": 38.925141333333336, "is_reserved": 0, "is_disabled": 0, "fusion_lon": 0.0, "bike_id": "8487acb65e62c5de1d30a1aa4b553318", "lon": -77.00173933333333, "rental_uris": {"ios": "https://dc.lft.to/lastmile_qr_scan", "android": "https://dc.lft.to/lastmile_qr_scan"}}, {"name": "b35bae7a20771813a8b0d5c365196176", "fusion_lat": 0.0, "type": "electric_scooter", "lat": 38.89511366666667, "is_reserved": 0, "is_disabled": 0, "fusion_lon": 0.0, "bike_id": "b35bae7a20771813a8b0d5c365196176", "lon": -77.01131183333334, "rental_uris": {"ios": "https://dc.lft.to/lastmile_qr_scan", "android": "https://dc.lft.to/lastmile_qr_scan"}}, {"name": "e542bcf33258c4c63340f67753d4dcb7", "fusion_lat": 0.0, "type": "electric_scooter", "lat": 38.912723166666666, "is_reserved": 0, "is_disabled": 0, "fusion_lon": 0.0, "bike_id": "e542bcf33258c4c63340f67753d4dcb7", "lon": -77.0449825, "rental_uris": {"ios": "https://dc.lft.to/lastmile_qr_scan", "android": "https://dc.lft.to/lastmile_qr_scan"}}, {"name": "c0df9437cf84c6e04782daeefac866e3", "fusion_lat": 0.0, "type": "electric_scooter", "lat": 38.92853816666667, "is_reserved": 0, "is_disabled": 0, "fusion_lon": 0.0, "bike_id": "c0df9437cf84c6e04782daeefac866e3", "lon": -77.02730883333334, "rental_uris": {"ios": "https://dc.lft.to/lastmile_qr_scan", "android": "https://dc.lft.to/lastmile_qr_scan"}}, {"name": "ecb951682ed82002732f1d5885c1247e", "fusion_lat": 0.0, "type": "electric_scooter", "lat": 38.90200383333333, "is_reserved": 0, "is_disabled": 0, "fusion_lon": 0.0, "bike_id": "ecb951682ed82002732f1d5885c1247e", "lon": -76.98207883333333, "rental_uris": {"ios": "https://dc.lft.to/lastmile_qr_scan", "android": "https://dc.lft.to/lastmile_qr_scan"}}, {"name": "216c554c173f7ee07b19687bb54e4992", "fusion_lat": 0.0, "type": "electric_scooter", "lat": 38.919278166666665, "is_reserved": 0, "is_disabled": 0, "fusion_lon": 0.0, "bike_id": "216c554c173f7ee07b19687bb54e4992", "lon": -77.03431283333333, "rental_uris": {"ios": "https://dc.lft.to/lastmile_qr_scan", "android": "https://dc.lft.to/lastmile_qr_scan"}}, {"name": "d56a77968fb39c3290fef590af2d40d7", "fusion_lat": 0.0, "type": "electric_scooter", "lat": 38.906763, "is_reserved": 0, "is_disabled": 0, "fusion_lon": 0.0, "bike_id": "d56a77968fb39c3290fef590af2d40d7", "lon": -77.0465735, "rental_uris": {"ios": "https://dc.lft.to/lastmile_qr_scan", "android": "https://dc.lft.to/lastmile_qr_scan"}}, {"name": "dee3802beacd9160d5393073b36c4710", "fusion_lat": 0.0, "type": "electric_scooter", "lat": 38.909658666666665, "is_reserved": 0, "is_disabled": 0, "fusion_lon": 0.0, "bike_id": "dee3802beacd9160d5393073b36c4710", "lon": -77.02745066666667, "rental_uris": {"ios": "https://dc.lft.to/lastmile_qr_scan", "android": "https://dc.lft.to/lastmile_qr_scan"}}, {"name": "8ad787289e76608353bc4f0c18897ae8", "fusion_lat": 0.0, "type": "electric_scooter", "lat": 38.917655833333335, "is_reserved": 0, "is_disabled": 0, "fusion_lon": 0.0, "bike_id": "8ad787289e76608353bc4f0c18897ae8", "lon": -77.09668783333333, "rental_uris": {"ios": "https://dc.lft.to/lastmile_qr_scan", "android": "https://dc.lft.to/lastmile_qr_scan"}}, {"name": "1fb7dd9a657537b0ce4d3e06a1129e84", "fusion_lat": 0.0, "type": "electric_scooter", "lat": 38.9251845, "is_reserved": 0, "is_disabled": 0, "fusion_lon": 0.0, "bike_id": "1fb7dd9a657537b0ce4d3e06a1129e84", "lon": -77.0331815, "rental_uris": {"ios": "https://dc.lft.to/lastmile_qr_scan", "android": "https://dc.lft.to/lastmile_qr_scan"}}, {"name": "311e3b929fdc5e248c71960e6aca478b", "fusion_lat": 0.0, "type": "electric_scooter", "lat": 38.86661133333333, "is_reserved": 0, "is_disabled": 0, "fusion_lon": 0.0, "bike_id": "311e3b929fdc5e248c71960e6aca478b", "lon": -76.98883366666666, "rental_uris": {"ios": "https://dc.lft.to/lastmile_qr_scan", "android": "https://dc.lft.to/lastmile_qr_scan"}}, {"name": "c1bccafad07cc40f4b532de03b851cb4", "fusion_lat": 0.0, "type": "electric_scooter", "lat": 38.91926133333333, "is_reserved": 0, "is_disabled": 0, "fusion_lon": 0.0, "bike_id": "c1bccafad07cc40f4b532de03b851cb4", "lon": -77.04155683333333, "rental_uris": {"ios": "https://dc.lft.to/lastmile_qr_scan", "android": "https://dc.lft.to/lastmile_qr_scan"}}, {"name": "5293f50ae0447b4ce85bfb1671ba8f60", "fusion_lat": 0.0, "type": "electric_scooter", "lat": 38.9148645, "is_reserved": 0, "is_disabled": 0, "fusion_lon": 0.0, "bike_id": "5293f50ae0447b4ce85bfb1671ba8f60", "lon": -77.03237366666667, "rental_uris": {"ios": "https://dc.lft.to/lastmile_qr_scan", "android": "https://dc.lft.to/lastmile_qr_scan"}}, {"name": "be63a6d10e6d36259d39163e766f3837", "fusion_lat": 0.0, "type": "electric_scooter", "lat": 38.91807766666667, "is_reserved": 0, "is_disabled": 0, "fusion_lon": 0.0, "bike_id": "be63a6d10e6d36259d39163e766f3837", "lon": -77.03212916666666, "rental_uris": {"ios": "https://dc.lft.to/lastmile_qr_scan", "android": "https://dc.lft.to/lastmile_qr_scan"}}, {"name": "0d626803f7dcbd72ed8785f23a36c477", "fusion_lat": 0.0, "type": "electric_bike", "lat": 38.96864516666667, "is_reserved": 0, "is_disabled": 0, "fusion_lon": 0.0, "bike_id": "0d626803f7dcbd72ed8785f23a36c477", "lon": -77.03333016666667, "rental_uris": {"ios": "https://dc.lft.to/lastmile_qr_scan", "android": "https://dc.lft.to/lastmile_qr_scan"}}, {"name": "d3e3728dbd889e3b3d8a6d7efaebf2ae", "fusion_lat": 0.0, "type": "electric_bike", "lat": 38.958452333333334, "is_reserved": 0, "is_disabled": 0, "fusion_lon": 0.0, "bike_id": "d3e3728dbd889e3b3d8a6d7efaebf2ae", "lon": -76.99868033333334, "rental_uris": {"ios": "https://dc.lft.to/lastmile_qr_scan", "android": "https://dc.lft.to/lastmile_qr_scan"}}, {"name": "7cfe9940cb6316e8666cf5f4a5542f96", "fusion_lat": 0.0, "type": "electric_scooter", "lat": 38.895760333333335, "is_reserved": 0, "is_disabled": 0, "fusion_lon": 0.0, "bike_id": "7cfe9940cb6316e8666cf5f4a5542f96", "lon": -76.94882633333333, "rental_uris": {"ios": "https://dc.lft.to/lastmile_qr_scan", "android": "https://dc.lft.to/lastmile_qr_scan"}}, {"name": "c2eba392fbe19163b9d9be663dc1fa1e", "fusion_lat": 0.0, "type": "electric_scooter", "lat": 38.918746, "is_reserved": 0, "is_disabled": 0, "fusion_lon": 0.0, "bike_id": "c2eba392fbe19163b9d9be663dc1fa1e", "lon": -77.04353466666667, "rental_uris": {"ios": "https://dc.lft.to/lastmile_qr_scan", "android": "https://dc.lft.to/lastmile_qr_scan"}}, {"name": "9c8f0be80f90881fdffcbc419be30828", "fusion_lat": 0.0, "type": "electric_scooter", "lat": 38.900799666666664, "is_reserved": 0, "is_disabled": 0, "fusion_lon": 0.0, "bike_id": "9c8f0be80f90881fdffcbc419be30828", "lon": -77.04987816666667, "rental_uris": {"ios": "https://dc.lft.to/lastmile_qr_scan", "android": "https://dc.lft.to/lastmile_qr_scan"}}, {"name": "8c78548da86b0340ffe88c0c0b3b0d10", "fusion_lat": 0.0, "type": "electric_scooter", "lat": 38.90578683333333, "is_reserved": 0, "is_disabled": 0, "fusion_lon": 0.0, "bike_id": "8c78548da86b0340ffe88c0c0b3b0d10", "lon": -77.0326825, "rental_uris": {"ios": "https://dc.lft.to/lastmile_qr_scan", "android": "https://dc.lft.to/lastmile_qr_scan"}}, {"name": "1f83565c035f54f01622c8d5ddc4cd17", "fusion_lat": 0.0, "type": "electric_scooter", "lat": 38.899379333333336, "is_reserved": 0, "is_disabled": 0, "fusion_lon": 0.0, "bike_id": "1f83565c035f54f01622c8d5ddc4cd17", "lon": -77.03111316666667, "rental_uris": {"ios": "https://dc.lft.to/lastmile_qr_scan", "android": "https://dc.lft.to/lastmile_qr_scan"}}, {"name": "88869b269fe688967b5d1fb036732e65", "fusion_lat": 0.0, "type": "electric_scooter", "lat": 38.911125, "is_reserved": 0, "is_disabled": 0, "fusion_lon": 0.0, "bike_id": "88869b269fe688967b5d1fb036732e65", "lon": -77.024123, "rental_uris": {"ios": "https://dc.lft.to/lastmile_qr_scan", "android": "https://dc.lft.to/lastmile_qr_scan"}}, {"name": "3d11dca583725c8d67800a2cdeaf5557", "fusion_lat": 0.0, "type": "electric_scooter", "lat": 38.922407666666665, "is_reserved": 0, "is_disabled": 0, "fusion_lon": 0.0, "bike_id": "3d11dca583725c8d67800a2cdeaf5557", "lon": -77.03661533333333, "rental_uris": {"ios": "https://dc.lft.to/lastmile_qr_scan", "android": "https://dc.lft.to/lastmile_qr_scan"}}, {"name": "305a57b838dec9e57fd5d4c738cfd0d2", "fusion_lat": 0.0, "type": "electric_scooter", "lat": 38.897133833333335, "is_reserved": 0, "is_disabled": 0, "fusion_lon": 0.0, "bike_id": "305a57b838dec9e57fd5d4c738cfd0d2", "lon": -77.03247966666666, "rental_uris": {"ios": "https://dc.lft.to/lastmile_qr_scan", "android": "https://dc.lft.to/lastmile_qr_scan"}}, {"name": "c17266139b9c8b11de260a2ccf0bd300", "fusion_lat": 0.0, "type": "electric_scooter", "lat": 38.914228333333334, "is_reserved": 0, "is_disabled": 0, "fusion_lon": 0.0, "bike_id": "c17266139b9c8b11de260a2ccf0bd300", "lon": -77.02611583333334, "rental_uris": {"ios": "https://dc.lft.to/lastmile_qr_scan", "android": "https://dc.lft.to/lastmile_qr_scan"}}, {"name": "1b3000eb9d920766d4d1b0cb26f3cfb2", "fusion_lat": 0.0, "type": "electric_scooter", "lat": 38.9030885, "is_reserved": 0, "is_disabled": 0, "fusion_lon": 0.0, "bike_id": "1b3000eb9d920766d4d1b0cb26f3cfb2", "lon": -77.03200733333334, "rental_uris": {"ios": "https://dc.lft.to/lastmile_qr_scan", "android": "https://dc.lft.to/lastmile_qr_scan"}}, {"name": "b93f92628c80f45030e2408e65fcfff8", "fusion_lat": 0.0, "type": "electric_scooter", "lat": 38.889308166666666, "is_reserved": 0, "is_disabled": 0, "fusion_lon": 0.0, "bike_id": "b93f92628c80f45030e2408e65fcfff8", "lon": -76.947822, "rental_uris": {"ios": "https://dc.lft.to/lastmile_qr_scan", "android": "https://dc.lft.to/lastmile_qr_scan"}}, {"name": "beff4efb5a57a3cdc0ff667482919f12", "fusion_lat": 0.0, "type": "electric_bike", "lat": 38.8386065, "is_reserved": 0, "is_disabled": 0, "fusion_lon": 0.0, "bike_id": "beff4efb5a57a3cdc0ff667482919f12", "lon": -77.08864633333333, "rental_uris": {"ios": "https://dc.lft.to/lastmile_qr_scan", "android": "https://dc.lft.to/lastmile_qr_scan"}}, {"name": "d52a062877fa5461a5443a75ebf3b007", "fusion_lat": 0.0, "type": "electric_scooter", "lat": 38.903237, "is_reserved": 0, "is_disabled": 0, "fusion_lon": 0.0, "bike_id": "d52a062877fa5461a5443a75ebf3b007", "lon": -77.0382085, "rental_uris": {"ios": "https://dc.lft.to/lastmile_qr_scan", "android": "https://dc.lft.to/lastmile_qr_scan"}}, {"name": "6e31ff09656ac151c062050286e00227", "fusion_lat": 0.0, "type": "electric_bike", "lat": 38.973264, "is_reserved": 0, "is_disabled": 0, "fusion_lon": 0.0, "bike_id": "6e31ff09656ac151c062050286e00227", "lon": -77.02148633333333, "rental_uris": {"ios": "https://dc.lft.to/lastmile_qr_scan", "android": "https://dc.lft.to/lastmile_qr_scan"}}, {"name": "9ef48cce2df5be2fda9fbe6aa6e44f0a", "fusion_lat": 0.0, "type": "electric_scooter", "lat": 38.91805, "is_reserved": 0, "is_disabled": 0, "fusion_lon": 0.0, "bike_id": "9ef48cce2df5be2fda9fbe6aa6e44f0a", "lon": -77.028152, "rental_uris": {"ios": "https://dc.lft.to/lastmile_qr_scan", "android": "https://dc.lft.to/lastmile_qr_scan"}}, {"name": "7b724fc262748450ffe1b1adc013b0f7", "fusion_lat": 0.0, "type": "electric_scooter", "lat": 38.92208866666667, "is_reserved": 0, "is_disabled": 0, "fusion_lon": 0.0, "bike_id": "7b724fc262748450ffe1b1adc013b0f7", "lon": -77.0423935, "rental_uris": {"ios": "https://dc.lft.to/lastmile_qr_scan", "android": "https://dc.lft.to/lastmile_qr_scan"}}, {"name": "67bbfdd9f95d26f7c8282e652c1ceba1", "fusion_lat": 0.0, "type": "electric_scooter", "lat": 38.901402833333336, "is_reserved": 0, "is_disabled": 0, "fusion_lon": 0.0, "bike_id": "67bbfdd9f95d26f7c8282e652c1ceba1", "lon": -76.99969266666666, "rental_uris": {"ios": "https://dc.lft.to/lastmile_qr_scan", "android": "https://dc.lft.to/lastmile_qr_scan"}}, {"name": "d47086a48f0b5bfb64581414ebfade01", "fusion_lat": 0.0, "type": "electric_scooter", "lat": 38.93089833333333, "is_reserved": 0, "is_disabled": 0, "fusion_lon": 0.0, "bike_id": "d47086a48f0b5bfb64581414ebfade01", "lon": -77.024002, "rental_uris": {"ios": "https://dc.lft.to/lastmile_qr_scan", "android": "https://dc.lft.to/lastmile_qr_scan"}}, {"name": "366d1aa77f18622693d4f1fed14d8d24", "fusion_lat": 0.0, "type": "electric_scooter", "lat": 38.939614, "is_reserved": 0, "is_disabled": 0, "fusion_lon": 0.0, "bike_id": "366d1aa77f18622693d4f1fed14d8d24", "lon": -77.03284066666667, "rental_uris": {"ios": "https://dc.lft.to/lastmile_qr_scan", "android": "https://dc.lft.to/lastmile_qr_scan"}}, {"name": "54486376a69a9a385699d2ed8917afbf", "fusion_lat": 0.0, "type": "electric_bike", "lat": 39.05205083333333, "is_reserved": 0, "is_disabled": 0, "fusion_lon": 0.0, "bike_id": "54486376a69a9a385699d2ed8917afbf", "lon": -77.10916016666667, "rental_uris": {"ios": "https://dc.lft.to/lastmile_qr_scan", "android": "https://dc.lft.to/lastmile_qr_scan"}}, {"name": "eade3cf317638f2e68edffd47342a0bd", "fusion_lat": 0.0, "type": "electric_bike", "lat": 38.841645, "is_reserved": 0, "is_disabled": 0, "fusion_lon": 0.0, "bike_id": "eade3cf317638f2e68edffd47342a0bd", "lon": -77.08889933333333, "rental_uris": {"ios": "https://dc.lft.to/lastmile_qr_scan", "android": "https://dc.lft.to/lastmile_qr_scan"}}, {"name": "49f3ded4e30d0f83ada232cf383a9474", "fusion_lat": 0.0, "type": "electric_scooter", "lat": 38.901418, "is_reserved": 0, "is_disabled": 0, "fusion_lon": 0.0, "bike_id": "49f3ded4e30d0f83ada232cf383a9474", "lon": -76.99119816666666, "rental_uris": {"ios": "https://dc.lft.to/lastmile_qr_scan", "android": "https://dc.lft.to/lastmile_qr_scan"}}, {"name": "26fde2dd9245b2eee18d4771bbef2378", "fusion_lat": 0.0, "type": "electric_scooter", "lat": 38.909822166666665, "is_reserved": 0, "is_disabled": 0, "fusion_lon": 0.0, "bike_id": "26fde2dd9245b2eee18d4771bbef2378", "lon": -77.0487855, "rental_uris": {"ios": "https://dc.lft.to/lastmile_qr_scan", "android": "https://dc.lft.to/lastmile_qr_scan"}}, {"name": "14639425747a989fd7f3db66e6f67e84", "fusion_lat": 0.0, "type": "electric_scooter", "lat": 38.92370366666667, "is_reserved": 0, "is_disabled": 0, "fusion_lon": 0.0, "bike_id": "14639425747a989fd7f3db66e6f67e84", "lon": -77.01915166666667, "rental_uris": {"ios": "https://dc.lft.to/lastmile_qr_scan", "android": "https://dc.lft.to/lastmile_qr_scan"}}, {"name": "f43eb891d56b8a0f6607309ab896a0bb", "fusion_lat": 0.0, "type": "electric_scooter", "lat": 38.904415666666665, "is_reserved": 0, "is_disabled": 0, "fusion_lon": 0.0, "bike_id": "f43eb891d56b8a0f6607309ab896a0bb", "lon": -77.03261033333334, "rental_uris": {"ios": "https://dc.lft.to/lastmile_qr_scan", "android": "https://dc.lft.to/lastmile_qr_scan"}}, {"name": "c83f0e51e37e5c5c8162d3afc54b219e", "fusion_lat": 0.0, "type": "electric_scooter", "lat": 38.928768, "is_reserved": 0, "is_disabled": 0, "fusion_lon": 0.0, "bike_id": "c83f0e51e37e5c5c8162d3afc54b219e", "lon": -77.0413005, "rental_uris": {"ios": "https://dc.lft.to/lastmile_qr_scan", "android": "https://dc.lft.to/lastmile_qr_scan"}}, {"name": "6742e95ba29835892a9563f1c115c874", "fusion_lat": 0.0, "type": "electric_bike", "lat": 38.95481266666667, "is_reserved": 0, "is_disabled": 0, "fusion_lon": 0.0, "bike_id": "6742e95ba29835892a9563f1c115c874", "lon": -77.082408, "rental_uris": {"ios": "https://dc.lft.to/lastmile_qr_scan", "android": "https://dc.lft.to/lastmile_qr_scan"}}, {"name": "716f25bceb690f73c4c2bf66ea190ef3", "fusion_lat": 0.0, "type": "electric_scooter", "lat": 38.93366966666667, "is_reserved": 0, "is_disabled": 0, "fusion_lon": 0.0, "bike_id": "716f25bceb690f73c4c2bf66ea190ef3", "lon": -77.05723516666667, "rental_uris": {"ios": "https://dc.lft.to/lastmile_qr_scan", "android": "https://dc.lft.to/lastmile_qr_scan"}}, {"name": "05590a66a86fb627d0c8d09fbc5a3621", "fusion_lat": 0.0, "type": "electric_scooter", "lat": 38.92899966666667, "is_reserved": 0, "is_disabled": 0, "fusion_lon": 0.0, "bike_id": "05590a66a86fb627d0c8d09fbc5a3621", "lon": -77.0593385, "rental_uris": {"ios": "https://dc.lft.to/lastmile_qr_scan", "android": "https://dc.lft.to/lastmile_qr_scan"}}, {"name": "d6c2a7d4939b6c89b8f9d89e72edb5ce", "fusion_lat": 0.0, "type": "electric_scooter", "lat": 38.932994666666666, "is_reserved": 0, "is_disabled": 0, "fusion_lon": 0.0, "bike_id": "d6c2a7d4939b6c89b8f9d89e72edb5ce", "lon": -77.02464183333333, "rental_uris": {"ios": "https://dc.lft.to/lastmile_qr_scan", "android": "https://dc.lft.to/lastmile_qr_scan"}}, {"name": "a843376d7f65b58e67741af2fa715b76", "fusion_lat": 0.0, "type": "electric_scooter", "lat": 38.89662233333333, "is_reserved": 0, "is_disabled": 0, "fusion_lon": 0.0, "bike_id": "a843376d7f65b58e67741af2fa715b76", "lon": -77.04890833333333, "rental_uris": {"ios": "https://dc.lft.to/lastmile_qr_scan", "android": "https://dc.lft.to/lastmile_qr_scan"}}, {"name": "07ec04554c9aca4a7bf2a654cd99eaec", "fusion_lat": 0.0, "type": "electric_scooter", "lat": 38.92422216666667, "is_reserved": 0, "is_disabled": 0, "fusion_lon": 0.0, "bike_id": "07ec04554c9aca4a7bf2a654cd99eaec", "lon": -77.01946366666667, "rental_uris": {"ios": "https://dc.lft.to/lastmile_qr_scan", "android": "https://dc.lft.to/lastmile_qr_scan"}}, {"name": "a3b92e59456f13fb8fe7aaf00f6291ab", "fusion_lat": 0.0, "type": "electric_scooter", "lat": 38.904709833333335, "is_reserved": 0, "is_disabled": 0, "fusion_lon": 0.0, "bike_id": "a3b92e59456f13fb8fe7aaf00f6291ab", "lon": -77.04173266666666, "rental_uris": {"ios": "https://dc.lft.to/lastmile_qr_scan", "android": "https://dc.lft.to/lastmile_qr_scan"}}, {"name": "519f7c420347f538b87dbf1a50a86167", "fusion_lat": 0.0, "type": "electric_scooter", "lat": 38.91109433333333, "is_reserved": 0, "is_disabled": 0, "fusion_lon": 0.0, "bike_id": "519f7c420347f538b87dbf1a50a86167", "lon": -77.03483233333333, "rental_uris": {"ios": "https://dc.lft.to/lastmile_qr_scan", "android": "https://dc.lft.to/lastmile_qr_scan"}}, {"name": "f0e33fbe0762ffa8d85367ebd6e417b6", "fusion_lat": 0.0, "type": "electric_scooter", "lat": 38.900796166666666, "is_reserved": 0, "is_disabled": 0, "fusion_lon": 0.0, "bike_id": "f0e33fbe0762ffa8d85367ebd6e417b6", "lon": -77.0502605, "rental_uris": {"ios": "https://dc.lft.to/lastmile_qr_scan", "android": "https://dc.lft.to/lastmile_qr_scan"}}, {"name": "02c7929becd615325f9f09985d3784a2", "fusion_lat": 0.0, "type": "electric_scooter", "lat": 38.883473333333335, "is_reserved": 0, "is_disabled": 0, "fusion_lon": 0.0, "bike_id": "02c7929becd615325f9f09985d3784a2", "lon": -76.98563316666667, "rental_uris": {"ios": "https://dc.lft.to/lastmile_qr_scan", "android": "https://dc.lft.to/lastmile_qr_scan"}}, {"name": "fd4030f1ab1361ba63678a270ebfe0ec", "fusion_lat": 0.0, "type": "electric_bike", "lat": 38.9367125, "is_reserved": 0, "is_disabled": 0, "fusion_lon": 0.0, "bike_id": "fd4030f1ab1361ba63678a270ebfe0ec", "lon": -76.952079, "rental_uris": {"ios": "https://dc.lft.to/lastmile_qr_scan", "android": "https://dc.lft.to/lastmile_qr_scan"}}, {"name": "66bcd4e4fdd32b16c489105b6813a1dc", "fusion_lat": 0.0, "type": "electric_scooter", "lat": 38.9258485, "is_reserved": 0, "is_disabled": 0, "fusion_lon": 0.0, "bike_id": "66bcd4e4fdd32b16c489105b6813a1dc", "lon": -77.02964516666667, "rental_uris": {"ios": "https://dc.lft.to/lastmile_qr_scan", "android": "https://dc.lft.to/lastmile_qr_scan"}}, {"name": "f23cb2d87847a33bb40e8b1d00f55693", "fusion_lat": 0.0, "type": "electric_scooter", "lat": 38.90143783333333, "is_reserved": 0, "is_disabled": 0, "fusion_lon": 0.0, "bike_id": "f23cb2d87847a33bb40e8b1d00f55693", "lon": -77.02868516666666, "rental_uris": {"ios": "https://dc.lft.to/lastmile_qr_scan", "android": "https://dc.lft.to/lastmile_qr_scan"}}, {"name": "340103d5d8eca1cd350168f4cc8009df", "fusion_lat": 0.0, "type": "electric_scooter", "lat": 38.90125666666667, "is_reserved": 0, "is_disabled": 0, "fusion_lon": 0.0, "bike_id": "340103d5d8eca1cd350168f4cc8009df", "lon": -77.030428, "rental_uris": {"ios": "https://dc.lft.to/lastmile_qr_scan", "android": "https://dc.lft.to/lastmile_qr_scan"}}, {"name": "79d7116e27f710efa47f4d57c54aa290", "fusion_lat": 0.0, "type": "electric_scooter", "lat": 38.90723033333333, "is_reserved": 0, "is_disabled": 0, "fusion_lon": 0.0, "bike_id": "79d7116e27f710efa47f4d57c54aa290", "lon": -77.02327983333333, "rental_uris": {"ios": "https://dc.lft.to/lastmile_qr_scan", "android": "https://dc.lft.to/lastmile_qr_scan"}}, {"name": "d982abf51fd7f6fee511e3151f830d70", "fusion_lat": 0.0, "type": "electric_scooter", "lat": 38.9170185, "is_reserved": 0, "is_disabled": 0, "fusion_lon": 0.0, "bike_id": "d982abf51fd7f6fee511e3151f830d70", "lon": -77.046938, "rental_uris": {"ios": "https://dc.lft.to/lastmile_qr_scan", "android": "https://dc.lft.to/lastmile_qr_scan"}}, {"name": "c864a1e16697eb8ba0debb098cd4c226", "fusion_lat": 0.0, "type": "electric_scooter", "lat": 38.92023416666667, "is_reserved": 0, "is_disabled": 0, "fusion_lon": 0.0, "bike_id": "c864a1e16697eb8ba0debb098cd4c226", "lon": -77.0311135, "rental_uris": {"ios": "https://dc.lft.to/lastmile_qr_scan", "android": "https://dc.lft.to/lastmile_qr_scan"}}, {"name": "753bb572f6805ce120e95eba67a2797d", "fusion_lat": 0.0, "type": "electric_scooter", "lat": 38.8941465, "is_reserved": 0, "is_disabled": 0, "fusion_lon": 0.0, "bike_id": "753bb572f6805ce120e95eba67a2797d", "lon": -76.93958883333333, "rental_uris": {"ios": "https://dc.lft.to/lastmile_qr_scan", "android": "https://dc.lft.to/lastmile_qr_scan"}}, {"name": "db4bcee43b1da62299f364bc5f332055", "fusion_lat": 0.0, "type": "electric_scooter", "lat": 38.90677216666667, "is_reserved": 0, "is_disabled": 0, "fusion_lon": 0.0, "bike_id": "db4bcee43b1da62299f364bc5f332055", "lon": -77.02704633333333, "rental_uris": {"ios": "https://dc.lft.to/lastmile_qr_scan", "android": "https://dc.lft.to/lastmile_qr_scan"}}, {"name": "65b6d6dfd00784bac976bb2f8162d9e9", "fusion_lat": 0.0, "type": "electric_scooter", "lat": 38.905712333333334, "is_reserved": 0, "is_disabled": 0, "fusion_lon": 0.0, "bike_id": "65b6d6dfd00784bac976bb2f8162d9e9", "lon": -77.02210783333334, "rental_uris": {"ios": "https://dc.lft.to/lastmile_qr_scan", "android": "https://dc.lft.to/lastmile_qr_scan"}}, {"name": "682fbf2fb716f1a2cfbc843cea474068", "fusion_lat": 0.0, "type": "electric_scooter", "lat": 38.8665955, "is_reserved": 0, "is_disabled": 0, "fusion_lon": 0.0, "bike_id": "682fbf2fb716f1a2cfbc843cea474068", "lon": -76.98882716666667, "rental_uris": {"ios": "https://dc.lft.to/lastmile_qr_scan", "android": "https://dc.lft.to/lastmile_qr_scan"}}, {"name": "ebd29329013f21c39d177ca83e38f8f6", "fusion_lat": 0.0, "type": "electric_scooter", "lat": 38.9262535, "is_reserved": 0, "is_disabled": 0, "fusion_lon": 0.0, "bike_id": "ebd29329013f21c39d177ca83e38f8f6", "lon": -77.03705566666666, "rental_uris": {"ios": "https://dc.lft.to/lastmile_qr_scan", "android": "https://dc.lft.to/lastmile_qr_scan"}}, {"name": "9bc5418167e9ba125e4b9a2576e1a9c3", "fusion_lat": 0.0, "type": "electric_scooter", "lat": 38.90506833333333, "is_reserved": 0, "is_disabled": 0, "fusion_lon": 0.0, "bike_id": "9bc5418167e9ba125e4b9a2576e1a9c3", "lon": -76.99448966666667, "rental_uris": {"ios": "https://dc.lft.to/lastmile_qr_scan", "android": "https://dc.lft.to/lastmile_qr_scan"}}, {"name": "78148bb2b8e02806326a0d55d002f7b1", "fusion_lat": 0.0, "type": "electric_bike", "lat": 38.90571216666667, "is_reserved": 0, "is_disabled": 0, "fusion_lon": 0.0, "bike_id": "78148bb2b8e02806326a0d55d002f7b1", "lon": -77.0473485, "rental_uris": {"ios": "https://dc.lft.to/lastmile_qr_scan", "android": "https://dc.lft.to/lastmile_qr_scan"}}, {"name": "70d97879871385fc7555b184b6640d05", "fusion_lat": 0.0, "type": "electric_scooter", "lat": 38.906418333333335, "is_reserved": 0, "is_disabled": 0, "fusion_lon": 0.0, "bike_id": "70d97879871385fc7555b184b6640d05", "lon": -77.038638, "rental_uris": {"ios": "https://dc.lft.to/lastmile_qr_scan", "android": "https://dc.lft.to/lastmile_qr_scan"}}, {"name": "be28d085a56f7e305ad0afc4ee9a251f", "fusion_lat": 0.0, "type": "electric_scooter", "lat": 38.88413833333333, "is_reserved": 0, "is_disabled": 0, "fusion_lon": 0.0, "bike_id": "be28d085a56f7e305ad0afc4ee9a251f", "lon": -77.01531316666667, "rental_uris": {"ios": "https://dc.lft.to/lastmile_qr_scan", "android": "https://dc.lft.to/lastmile_qr_scan"}}, {"name": "80648c09d070b3e2cba9beb9d33be466", "fusion_lat": 0.0, "type": "electric_bike", "lat": 38.99091216666667, "is_reserved": 0, "is_disabled": 0, "fusion_lon": 0.0, "bike_id": "80648c09d070b3e2cba9beb9d33be466", "lon": -76.874945, "rental_uris": {"ios": "https://dc.lft.to/lastmile_qr_scan", "android": "https://dc.lft.to/lastmile_qr_scan"}}, {"name": "4f46c678d137935766b9729d1be91251", "fusion_lat": 0.0, "type": "electric_scooter", "lat": 38.917495, "is_reserved": 0, "is_disabled": 0, "fusion_lon": 0.0, "bike_id": "4f46c678d137935766b9729d1be91251", "lon": -77.02292266666667, "rental_uris": {"ios": "https://dc.lft.to/lastmile_qr_scan", "android": "https://dc.lft.to/lastmile_qr_scan"}}, {"name": "d10dde52c84e026dddb81b3b44db0790", "fusion_lat": 0.0, "type": "electric_bike", "lat": 38.82874, "is_reserved": 0, "is_disabled": 0, "fusion_lon": 0.0, "bike_id": "d10dde52c84e026dddb81b3b44db0790", "lon": -77.11220016666667, "rental_uris": {"ios": "https://dc.lft.to/lastmile_qr_scan", "android": "https://dc.lft.to/lastmile_qr_scan"}}, {"name": "cff89dc9141499a2add2cafb01099b9b", "fusion_lat": 0.0, "type": "electric_scooter", "lat": 38.8997245, "is_reserved": 0, "is_disabled": 0, "fusion_lon": 0.0, "bike_id": "cff89dc9141499a2add2cafb01099b9b", "lon": -77.057059, "rental_uris": {"ios": "https://dc.lft.to/lastmile_qr_scan", "android": "https://dc.lft.to/lastmile_qr_scan"}}, {"name": "3efed9216649c157d2469e6458841666", "fusion_lat": 0.0, "type": "electric_scooter", "lat": 38.94281016666667, "is_reserved": 0, "is_disabled": 0, "fusion_lon": 0.0, "bike_id": "3efed9216649c157d2469e6458841666", "lon": -77.02502216666667, "rental_uris": {"ios": "https://dc.lft.to/lastmile_qr_scan", "android": "https://dc.lft.to/lastmile_qr_scan"}}, {"name": "618167c23877b9254e035e1ded50dc84", "fusion_lat": 0.0, "type": "electric_scooter", "lat": 38.91417833333333, "is_reserved": 0, "is_disabled": 0, "fusion_lon": 0.0, "bike_id": "618167c23877b9254e035e1ded50dc84", "lon": -77.03995783333333, "rental_uris": {"ios": "https://dc.lft.to/lastmile_qr_scan", "android": "https://dc.lft.to/lastmile_qr_scan"}}, {"name": "4541dee2dfaec76ac956e48a3a59f33f", "fusion_lat": 0.0, "type": "electric_scooter", "lat": 38.90500483333334, "is_reserved": 0, "is_disabled": 0, "fusion_lon": 0.0, "bike_id": "4541dee2dfaec76ac956e48a3a59f33f", "lon": -77.04635216666667, "rental_uris": {"ios": "https://dc.lft.to/lastmile_qr_scan", "android": "https://dc.lft.to/lastmile_qr_scan"}}, {"name": "d415006d1d5b956d0cf13c1bb6e089ff", "fusion_lat": 0.0, "type": "electric_scooter", "lat": 38.90635066666667, "is_reserved": 0, "is_disabled": 0, "fusion_lon": 0.0, "bike_id": "d415006d1d5b956d0cf13c1bb6e089ff", "lon": -77.03860483333334, "rental_uris": {"ios": "https://dc.lft.to/lastmile_qr_scan", "android": "https://dc.lft.to/lastmile_qr_scan"}}, {"name": "0c2b1f63c919d8ddd88a06b8d80ce3b4", "fusion_lat": 0.0, "type": "electric_scooter", "lat": 38.9245585, "is_reserved": 0, "is_disabled": 0, "fusion_lon": 0.0, "bike_id": "0c2b1f63c919d8ddd88a06b8d80ce3b4", "lon": -77.03362966666667, "rental_uris": {"ios": "https://dc.lft.to/lastmile_qr_scan", "android": "https://dc.lft.to/lastmile_qr_scan"}}, {"name": "dba194407774aaa32580232d5bb47f7f", "fusion_lat": 0.0, "type": "electric_scooter", "lat": 38.9215195, "is_reserved": 0, "is_disabled": 0, "fusion_lon": 0.0, "bike_id": "dba194407774aaa32580232d5bb47f7f", "lon": -77.03389833333334, "rental_uris": {"ios": "https://dc.lft.to/lastmile_qr_scan", "android": "https://dc.lft.to/lastmile_qr_scan"}}, {"name": "c2813066e1496a66f225e4cd2d008453", "fusion_lat": 0.0, "type": "electric_scooter", "lat": 38.90010183333333, "is_reserved": 0, "is_disabled": 0, "fusion_lon": 0.0, "bike_id": "c2813066e1496a66f225e4cd2d008453", "lon": -77.04021516666667, "rental_uris": {"ios": "https://dc.lft.to/lastmile_qr_scan", "android": "https://dc.lft.to/lastmile_qr_scan"}}, {"name": "1213bb3320e70677ac271e2dbff047a1", "fusion_lat": 0.0, "type": "electric_bike", "lat": 38.928457, "is_reserved": 0, "is_disabled": 0, "fusion_lon": 0.0, "bike_id": "1213bb3320e70677ac271e2dbff047a1", "lon": -77.020484, "rental_uris": {"ios": "https://dc.lft.to/lastmile_qr_scan", "android": "https://dc.lft.to/lastmile_qr_scan"}}, {"name": "ac4ae5ebf70b2e8f73454c3268f1ce75", "fusion_lat": 0.0, "type": "electric_scooter", "lat": 38.930933, "is_reserved": 0, "is_disabled": 0, "fusion_lon": 0.0, "bike_id": "ac4ae5ebf70b2e8f73454c3268f1ce75", "lon": -77.02487516666666, "rental_uris": {"ios": "https://dc.lft.to/lastmile_qr_scan", "android": "https://dc.lft.to/lastmile_qr_scan"}}, {"name": "e3e859cbced9508b92ea1d2b1967f8c1", "fusion_lat": 0.0, "type": "electric_scooter", "lat": 38.901582166666664, "is_reserved": 0, "is_disabled": 0, "fusion_lon": 0.0, "bike_id": "e3e859cbced9508b92ea1d2b1967f8c1", "lon": -76.98082666666667, "rental_uris": {"ios": "https://dc.lft.to/lastmile_qr_scan", "android": "https://dc.lft.to/lastmile_qr_scan"}}, {"name": "b150f5da0dbd71a0075211ba36df1377", "fusion_lat": 0.0, "type": "electric_scooter", "lat": 38.9348375, "is_reserved": 0, "is_disabled": 0, "fusion_lon": 0.0, "bike_id": "b150f5da0dbd71a0075211ba36df1377", "lon": -77.033935, "rental_uris": {"ios": "https://dc.lft.to/lastmile_qr_scan", "android": "https://dc.lft.to/lastmile_qr_scan"}}, {"name": "6f02e060435a2fa3fa041cd8d7f8d0d2", "fusion_lat": 0.0, "type": "electric_scooter", "lat": 38.91742983333333, "is_reserved": 0, "is_disabled": 0, "fusion_lon": 0.0, "bike_id": "6f02e060435a2fa3fa041cd8d7f8d0d2", "lon": -77.04166483333333, "rental_uris": {"ios": "https://dc.lft.to/lastmile_qr_scan", "android": "https://dc.lft.to/lastmile_qr_scan"}}, {"name": "ed1bc0fa693a26d0881067e4857adad1", "fusion_lat": 0.0, "type": "electric_scooter", "lat": 38.9154375, "is_reserved": 0, "is_disabled": 0, "fusion_lon": 0.0, "bike_id": "ed1bc0fa693a26d0881067e4857adad1", "lon": -77.0385865, "rental_uris": {"ios": "https://dc.lft.to/lastmile_qr_scan", "android": "https://dc.lft.to/lastmile_qr_scan"}}, {"name": "3ebcde39aa3ab4abb75292f06aa841cd", "fusion_lat": 0.0, "type": "electric_scooter", "lat": 38.92155416666667, "is_reserved": 0, "is_disabled": 0, "fusion_lon": 0.0, "bike_id": "3ebcde39aa3ab4abb75292f06aa841cd", "lon": -77.033815, "rental_uris": {"ios": "https://dc.lft.to/lastmile_qr_scan", "android": "https://dc.lft.to/lastmile_qr_scan"}}, {"name": "acdf67735673f1d507c51403ef43fd9e", "fusion_lat": 0.0, "type": "electric_scooter", "lat": 38.900341166666664, "is_reserved": 0, "is_disabled": 0, "fusion_lon": 0.0, "bike_id": "acdf67735673f1d507c51403ef43fd9e", "lon": -77.00904966666667, "rental_uris": {"ios": "https://dc.lft.to/lastmile_qr_scan", "android": "https://dc.lft.to/lastmile_qr_scan"}}, {"name": "859550af730b4d46d5d724b3b7d96633", "fusion_lat": 0.0, "type": "electric_scooter", "lat": 38.9210955, "is_reserved": 0, "is_disabled": 0, "fusion_lon": 0.0, "bike_id": "859550af730b4d46d5d724b3b7d96633", "lon": -77.017678, "rental_uris": {"ios": "https://dc.lft.to/lastmile_qr_scan", "android": "https://dc.lft.to/lastmile_qr_scan"}}, {"name": "fb0de82a1f33b454556dbae1f1366ea6", "fusion_lat": 0.0, "type": "electric_scooter", "lat": 38.91635433333333, "is_reserved": 0, "is_disabled": 0, "fusion_lon": 0.0, "bike_id": "fb0de82a1f33b454556dbae1f1366ea6", "lon": -77.03594966666667, "rental_uris": {"ios": "https://dc.lft.to/lastmile_qr_scan", "android": "https://dc.lft.to/lastmile_qr_scan"}}, {"name": "df0a63a17168e1d3c7ecb06306c53e6f", "fusion_lat": 0.0, "type": "electric_scooter", "lat": 38.92485583333333, "is_reserved": 0, "is_disabled": 0, "fusion_lon": 0.0, "bike_id": "df0a63a17168e1d3c7ecb06306c53e6f", "lon": -77.02709566666667, "rental_uris": {"ios": "https://dc.lft.to/lastmile_qr_scan", "android": "https://dc.lft.to/lastmile_qr_scan"}}, {"name": "eff38315386d3dddb5d9c2d4664426f1", "fusion_lat": 0.0, "type": "electric_scooter", "lat": 38.916899, "is_reserved": 0, "is_disabled": 0, "fusion_lon": 0.0, "bike_id": "eff38315386d3dddb5d9c2d4664426f1", "lon": -77.03206483333334, "rental_uris": {"ios": "https://dc.lft.to/lastmile_qr_scan", "android": "https://dc.lft.to/lastmile_qr_scan"}}, {"name": "ac7f739b7dff04b5b647b198db28b206", "fusion_lat": 0.0, "type": "electric_scooter", "lat": 38.9141515, "is_reserved": 0, "is_disabled": 0, "fusion_lon": 0.0, "bike_id": "ac7f739b7dff04b5b647b198db28b206", "lon": -77.028049, "rental_uris": {"ios": "https://dc.lft.to/lastmile_qr_scan", "android": "https://dc.lft.to/lastmile_qr_scan"}}, {"name": "6b12040b9e468ffaee1870b3f092b31a", "fusion_lat": 0.0, "type": "electric_scooter", "lat": 38.88219566666667, "is_reserved": 0, "is_disabled": 0, "fusion_lon": 0.0, "bike_id": "6b12040b9e468ffaee1870b3f092b31a", "lon": -76.94176433333334, "rental_uris": {"ios": "https://dc.lft.to/lastmile_qr_scan", "android": "https://dc.lft.to/lastmile_qr_scan"}}, {"name": "52841dd4a301884795b5ef42b6ce77ad", "fusion_lat": 0.0, "type": "electric_scooter", "lat": 38.93264933333333, "is_reserved": 0, "is_disabled": 0, "fusion_lon": 0.0, "bike_id": "52841dd4a301884795b5ef42b6ce77ad", "lon": -77.03257066666667, "rental_uris": {"ios": "https://dc.lft.to/lastmile_qr_scan", "android": "https://dc.lft.to/lastmile_qr_scan"}}, {"name": "831b5ef58bfcacfc53b94e1c21c172d1", "fusion_lat": 0.0, "type": "electric_scooter", "lat": 38.9112185, "is_reserved": 0, "is_disabled": 0, "fusion_lon": 0.0, "bike_id": "831b5ef58bfcacfc53b94e1c21c172d1", "lon": -77.03191066666666, "rental_uris": {"ios": "https://dc.lft.to/lastmile_qr_scan", "android": "https://dc.lft.to/lastmile_qr_scan"}}, {"name": "15662620a0164c99cc687fc7c5b4ed55", "fusion_lat": 0.0, "type": "electric_scooter", "lat": 38.90337866666667, "is_reserved": 0, "is_disabled": 0, "fusion_lon": 0.0, "bike_id": "15662620a0164c99cc687fc7c5b4ed55", "lon": -76.989683, "rental_uris": {"ios": "https://dc.lft.to/lastmile_qr_scan", "android": "https://dc.lft.to/lastmile_qr_scan"}}, {"name": "9fa0efdb187af9d9d02a1b0378a6c7dd", "fusion_lat": 0.0, "type": "electric_scooter", "lat": 38.929288166666666, "is_reserved": 0, "is_disabled": 0, "fusion_lon": 0.0, "bike_id": "9fa0efdb187af9d9d02a1b0378a6c7dd", "lon": -77.02339266666667, "rental_uris": {"ios": "https://dc.lft.to/lastmile_qr_scan", "android": "https://dc.lft.to/lastmile_qr_scan"}}, {"name": "e9622f212f49866ad76911235a2b4a9a", "fusion_lat": 0.0, "type": "electric_scooter", "lat": 38.91252166666666, "is_reserved": 0, "is_disabled": 0, "fusion_lon": 0.0, "bike_id": "e9622f212f49866ad76911235a2b4a9a", "lon": -77.04775783333334, "rental_uris": {"ios": "https://dc.lft.to/lastmile_qr_scan", "android": "https://dc.lft.to/lastmile_qr_scan"}}, {"name": "9d2a9e06c484c5a40c1f5f4aff40d2e6", "fusion_lat": 0.0, "type": "electric_scooter", "lat": 38.90536483333333, "is_reserved": 0, "is_disabled": 0, "fusion_lon": 0.0, "bike_id": "9d2a9e06c484c5a40c1f5f4aff40d2e6", "lon": -77.0501315, "rental_uris": {"ios": "https://dc.lft.to/lastmile_qr_scan", "android": "https://dc.lft.to/lastmile_qr_scan"}}, {"name": "451496113eb59e1e76d9fa93181300e5", "fusion_lat": 0.0, "type": "electric_scooter", "lat": 38.8815, "is_reserved": 0, "is_disabled": 0, "fusion_lon": 0.0, "bike_id": "451496113eb59e1e76d9fa93181300e5", "lon": -77.01282033333334, "rental_uris": {"ios": "https://dc.lft.to/lastmile_qr_scan", "android": "https://dc.lft.to/lastmile_qr_scan"}}, {"name": "d19b5f47ec4771fd31825a7c3ff87cc0", "fusion_lat": 0.0, "type": "electric_scooter", "lat": 38.90094583333333, "is_reserved": 0, "is_disabled": 0, "fusion_lon": 0.0, "bike_id": "d19b5f47ec4771fd31825a7c3ff87cc0", "lon": -77.05013016666666, "rental_uris": {"ios": "https://dc.lft.to/lastmile_qr_scan", "android": "https://dc.lft.to/lastmile_qr_scan"}}, {"name": "2b5c54d01ac23b7789d1f1090399ba30", "fusion_lat": 0.0, "type": "electric_scooter", "lat": 38.92475116666667, "is_reserved": 0, "is_disabled": 0, "fusion_lon": 0.0, "bike_id": "2b5c54d01ac23b7789d1f1090399ba30", "lon": -77.030574, "rental_uris": {"ios": "https://dc.lft.to/lastmile_qr_scan", "android": "https://dc.lft.to/lastmile_qr_scan"}}, {"name": "2ea84ecd8df92e52046c50678b78ac0d", "fusion_lat": 0.0, "type": "electric_scooter", "lat": 38.904707, "is_reserved": 0, "is_disabled": 0, "fusion_lon": 0.0, "bike_id": "2ea84ecd8df92e52046c50678b78ac0d", "lon": -77.02811283333334, "rental_uris": {"ios": "https://dc.lft.to/lastmile_qr_scan", "android": "https://dc.lft.to/lastmile_qr_scan"}}, {"name": "6e1c66c16abdb66401cf966265ddd9af", "fusion_lat": 0.0, "type": "electric_bike", "lat": 38.920471166666665, "is_reserved": 0, "is_disabled": 0, "fusion_lon": 0.0, "bike_id": "6e1c66c16abdb66401cf966265ddd9af", "lon": -77.0035365, "rental_uris": {"ios": "https://dc.lft.to/lastmile_qr_scan", "android": "https://dc.lft.to/lastmile_qr_scan"}}, {"name": "47a08aced92c748ebc3d5a7ccf61111d", "fusion_lat": 0.0, "type": "electric_scooter", "lat": 38.92108366666667, "is_reserved": 0, "is_disabled": 0, "fusion_lon": 0.0, "bike_id": "47a08aced92c748ebc3d5a7ccf61111d", "lon": -77.02982666666666, "rental_uris": {"ios": "https://dc.lft.to/lastmile_qr_scan", "android": "https://dc.lft.to/lastmile_qr_scan"}}, {"name": "299992a35b97ba57ea4402af7ef1091d", "fusion_lat": 0.0, "type": "electric_scooter", "lat": 38.941061, "is_reserved": 0, "is_disabled": 0, "fusion_lon": 0.0, "bike_id": "299992a35b97ba57ea4402af7ef1091d", "lon": -77.02666416666666, "rental_uris": {"ios": "https://dc.lft.to/lastmile_qr_scan", "android": "https://dc.lft.to/lastmile_qr_scan"}}, {"name": "a10eb3ddd964a710fea176d772e35664", "fusion_lat": 0.0, "type": "electric_scooter", "lat": 38.90201616666667, "is_reserved": 0, "is_disabled": 0, "fusion_lon": 0.0, "bike_id": "a10eb3ddd964a710fea176d772e35664", "lon": -76.98816433333333, "rental_uris": {"ios": "https://dc.lft.to/lastmile_qr_scan", "android": "https://dc.lft.to/lastmile_qr_scan"}}, {"name": "5cfda285c81ac79f50a6f296ad0ce053", "fusion_lat": 0.0, "type": "electric_scooter", "lat": 38.86457583333333, "is_reserved": 0, "is_disabled": 0, "fusion_lon": 0.0, "bike_id": "5cfda285c81ac79f50a6f296ad0ce053", "lon": -76.98243566666666, "rental_uris": {"ios": "https://dc.lft.to/lastmile_qr_scan", "android": "https://dc.lft.to/lastmile_qr_scan"}}, {"name": "19d399637dc9c4fdce42e4f7bd763eb2", "fusion_lat": 0.0, "type": "electric_bike", "lat": 38.92866766666667, "is_reserved": 0, "is_disabled": 0, "fusion_lon": 0.0, "bike_id": "19d399637dc9c4fdce42e4f7bd763eb2", "lon": -76.96110466666667, "rental_uris": {"ios": "https://dc.lft.to/lastmile_qr_scan", "android": "https://dc.lft.to/lastmile_qr_scan"}}, {"name": "35194ed9d5b4fcf5b43ba668c9fdba71", "fusion_lat": 0.0, "type": "electric_scooter", "lat": 38.904307833333334, "is_reserved": 0, "is_disabled": 0, "fusion_lon": 0.0, "bike_id": "35194ed9d5b4fcf5b43ba668c9fdba71", "lon": -77.05304166666667, "rental_uris": {"ios": "https://dc.lft.to/lastmile_qr_scan", "android": "https://dc.lft.to/lastmile_qr_scan"}}, {"name": "f404d6a15c383fb3381707ea987eef58", "fusion_lat": 0.0, "type": "electric_scooter", "lat": 38.965621666666664, "is_reserved": 0, "is_disabled": 0, "fusion_lon": 0.0, "bike_id": "f404d6a15c383fb3381707ea987eef58", "lon": -77.01627633333334, "rental_uris": {"ios": "https://dc.lft.to/lastmile_qr_scan", "android": "https://dc.lft.to/lastmile_qr_scan"}}, {"name": "79b6982ef349f47c2753be0c2c867bca", "fusion_lat": 0.0, "type": "electric_scooter", "lat": 38.90643416666666, "is_reserved": 0, "is_disabled": 0, "fusion_lon": 0.0, "bike_id": "79b6982ef349f47c2753be0c2c867bca", "lon": -77.02603683333334, "rental_uris": {"ios": "https://dc.lft.to/lastmile_qr_scan", "android": "https://dc.lft.to/lastmile_qr_scan"}}, {"name": "423bb501a623c5983fe112b998d4f227", "fusion_lat": 0.0, "type": "electric_scooter", "lat": 38.938651, "is_reserved": 0, "is_disabled": 0, "fusion_lon": 0.0, "bike_id": "423bb501a623c5983fe112b998d4f227", "lon": -77.02648433333333, "rental_uris": {"ios": "https://dc.lft.to/lastmile_qr_scan", "android": "https://dc.lft.to/lastmile_qr_scan"}}, {"name": "42a101b448fca61b68b9f7ab5f545ec2", "fusion_lat": 0.0, "type": "electric_scooter", "lat": 38.86272783333333, "is_reserved": 0, "is_disabled": 0, "fusion_lon": 0.0, "bike_id": "42a101b448fca61b68b9f7ab5f545ec2", "lon": -76.987205, "rental_uris": {"ios": "https://dc.lft.to/lastmile_qr_scan", "android": "https://dc.lft.to/lastmile_qr_scan"}}, {"name": "6eb29a88970934e82bcfdb744f88ffd3", "fusion_lat": 0.0, "type": "electric_scooter", "lat": 38.887559, "is_reserved": 0, "is_disabled": 0, "fusion_lon": 0.0, "bike_id": "6eb29a88970934e82bcfdb744f88ffd3", "lon": -76.97983116666667, "rental_uris": {"ios": "https://dc.lft.to/lastmile_qr_scan", "android": "https://dc.lft.to/lastmile_qr_scan"}}, {"name": "5b784f3455967143db1e129253f9769d", "fusion_lat": 0.0, "type": "electric_bike", "lat": 38.8861665, "is_reserved": 0, "is_disabled": 0, "fusion_lon": 0.0, "bike_id": "5b784f3455967143db1e129253f9769d", "lon": -77.10754716666666, "rental_uris": {"ios": "https://dc.lft.to/lastmile_qr_scan", "android": "https://dc.lft.to/lastmile_qr_scan"}}, {"name": "c1cc2a1675d376b5bed8bb17275930d1", "fusion_lat": 0.0, "type": "electric_scooter", "lat": 38.92478033333333, "is_reserved": 0, "is_disabled": 0, "fusion_lon": 0.0, "bike_id": "c1cc2a1675d376b5bed8bb17275930d1", "lon": -77.03139083333333, "rental_uris": {"ios": "https://dc.lft.to/lastmile_qr_scan", "android": "https://dc.lft.to/lastmile_qr_scan"}}, {"name": "089f5044b852489ab617f60ac6449b2a", "fusion_lat": 0.0, "type": "electric_bike", "lat": 38.92207833333333, "is_reserved": 0, "is_disabled": 0, "fusion_lon": 0.0, "bike_id": "089f5044b852489ab617f60ac6449b2a", "lon": -76.98799966666667, "rental_uris": {"ios": "https://dc.lft.to/lastmile_qr_scan", "android": "https://dc.lft.to/lastmile_qr_scan"}}, {"name": "76473b25d112ede0a14d4e32a840a224", "fusion_lat": 0.0, "type": "electric_scooter", "lat": 38.90308733333333, "is_reserved": 0, "is_disabled": 0, "fusion_lon": 0.0, "bike_id": "76473b25d112ede0a14d4e32a840a224", "lon": -77.04984383333333, "rental_uris": {"ios": "https://dc.lft.to/lastmile_qr_scan", "android": "https://dc.lft.to/lastmile_qr_scan"}}, {"name": "8ceabb7cf92d30dae37d26a12f943239", "fusion_lat": 0.0, "type": "electric_scooter", "lat": 38.894870833333336, "is_reserved": 0, "is_disabled": 0, "fusion_lon": 0.0, "bike_id": "8ceabb7cf92d30dae37d26a12f943239", "lon": -77.01009416666666, "rental_uris": {"ios": "https://dc.lft.to/lastmile_qr_scan", "android": "https://dc.lft.to/lastmile_qr_scan"}}, {"name": "3f7cdd6944b2934751cb4732560f9372", "fusion_lat": 0.0, "type": "electric_scooter", "lat": 38.883889833333335, "is_reserved": 0, "is_disabled": 0, "fusion_lon": 0.0, "bike_id": "3f7cdd6944b2934751cb4732560f9372", "lon": -76.93048066666667, "rental_uris": {"ios": "https://dc.lft.to/lastmile_qr_scan", "android": "https://dc.lft.to/lastmile_qr_scan"}}, {"name": "96e35c504cf8b23e1060b2edf8c9b683", "fusion_lat": 0.0, "type": "electric_scooter", "lat": 38.9029275, "is_reserved": 0, "is_disabled": 0, "fusion_lon": 0.0, "bike_id": "96e35c504cf8b23e1060b2edf8c9b683", "lon": -77.0381625, "rental_uris": {"ios": "https://dc.lft.to/lastmile_qr_scan", "android": "https://dc.lft.to/lastmile_qr_scan"}}, {"name": "573f156b589eb14d9b1b5076060d44cd", "fusion_lat": 0.0, "type": "electric_scooter", "lat": 38.90276816666667, "is_reserved": 0, "is_disabled": 0, "fusion_lon": 0.0, "bike_id": "573f156b589eb14d9b1b5076060d44cd", "lon": -77.03828616666667, "rental_uris": {"ios": "https://dc.lft.to/lastmile_qr_scan", "android": "https://dc.lft.to/lastmile_qr_scan"}}, {"name": "b57b98d26e87af93810a4e877671a67f", "fusion_lat": 0.0, "type": "electric_scooter", "lat": 38.92159316666667, "is_reserved": 0, "is_disabled": 0, "fusion_lon": 0.0, "bike_id": "b57b98d26e87af93810a4e877671a67f", "lon": -77.03325083333333, "rental_uris": {"ios": "https://dc.lft.to/lastmile_qr_scan", "android": "https://dc.lft.to/lastmile_qr_scan"}}, {"name": "2a63e63db2aee4aafdcd3df4f5e7ec3b", "fusion_lat": 0.0, "type": "electric_scooter", "lat": 38.938949666666666, "is_reserved": 0, "is_disabled": 0, "fusion_lon": 0.0, "bike_id": "2a63e63db2aee4aafdcd3df4f5e7ec3b", "lon": -77.02467916666667, "rental_uris": {"ios": "https://dc.lft.to/lastmile_qr_scan", "android": "https://dc.lft.to/lastmile_qr_scan"}}, {"name": "bcdb317d652333c45dc8ea140adbd3d9", "fusion_lat": 0.0, "type": "electric_scooter", "lat": 38.863743166666666, "is_reserved": 0, "is_disabled": 0, "fusion_lon": 0.0, "bike_id": "bcdb317d652333c45dc8ea140adbd3d9", "lon": -77.01361216666666, "rental_uris": {"ios": "https://dc.lft.to/lastmile_qr_scan", "android": "https://dc.lft.to/lastmile_qr_scan"}}, {"name": "79404513a4503d678e3aecfc4c5d3599", "fusion_lat": 0.0, "type": "electric_scooter", "lat": 38.930619666666665, "is_reserved": 0, "is_disabled": 0, "fusion_lon": 0.0, "bike_id": "79404513a4503d678e3aecfc4c5d3599", "lon": -77.02323133333333, "rental_uris": {"ios": "https://dc.lft.to/lastmile_qr_scan", "android": "https://dc.lft.to/lastmile_qr_scan"}}, {"name": "0d25f73980946d00f272fb55ce078ff3", "fusion_lat": 0.0, "type": "electric_scooter", "lat": 38.89726116666667, "is_reserved": 0, "is_disabled": 0, "fusion_lon": 0.0, "bike_id": "0d25f73980946d00f272fb55ce078ff3", "lon": -77.04769866666666, "rental_uris": {"ios": "https://dc.lft.to/lastmile_qr_scan", "android": "https://dc.lft.to/lastmile_qr_scan"}}, {"name": "9591db1ff2e67156bcbc1006e24db7fb", "fusion_lat": 0.0, "type": "electric_scooter", "lat": 38.908939, "is_reserved": 0, "is_disabled": 0, "fusion_lon": 0.0, "bike_id": "9591db1ff2e67156bcbc1006e24db7fb", "lon": -77.03210033333333, "rental_uris": {"ios": "https://dc.lft.to/lastmile_qr_scan", "android": "https://dc.lft.to/lastmile_qr_scan"}}, {"name": "195f238756367782d4a53e3be9beedc2", "fusion_lat": 0.0, "type": "electric_scooter", "lat": 38.924434166666664, "is_reserved": 0, "is_disabled": 0, "fusion_lon": 0.0, "bike_id": "195f238756367782d4a53e3be9beedc2", "lon": -77.029812, "rental_uris": {"ios": "https://dc.lft.to/lastmile_qr_scan", "android": "https://dc.lft.to/lastmile_qr_scan"}}, {"name": "d02dab52e485992ce5de4e6b2cdd559e", "fusion_lat": 0.0, "type": "electric_scooter", "lat": 38.912581833333334, "is_reserved": 0, "is_disabled": 0, "fusion_lon": 0.0, "bike_id": "d02dab52e485992ce5de4e6b2cdd559e", "lon": -77.00766533333334, "rental_uris": {"ios": "https://dc.lft.to/lastmile_qr_scan", "android": "https://dc.lft.to/lastmile_qr_scan"}}, {"name": "67c8f7ef9f05e236f08d07d359b44247", "fusion_lat": 0.0, "type": "electric_scooter", "lat": 38.883519666666665, "is_reserved": 0, "is_disabled": 0, "fusion_lon": 0.0, "bike_id": "67c8f7ef9f05e236f08d07d359b44247", "lon": -76.94937733333333, "rental_uris": {"ios": "https://dc.lft.to/lastmile_qr_scan", "android": "https://dc.lft.to/lastmile_qr_scan"}}, {"name": "241bc50dcac86724212d693ff4283e19", "fusion_lat": 0.0, "type": "electric_scooter", "lat": 38.925619833333336, "is_reserved": 0, "is_disabled": 0, "fusion_lon": 0.0, "bike_id": "241bc50dcac86724212d693ff4283e19", "lon": -77.06283483333333, "rental_uris": {"ios": "https://dc.lft.to/lastmile_qr_scan", "android": "https://dc.lft.to/lastmile_qr_scan"}}, {"name": "cb66c574d6af8303a825c66acacd0990", "fusion_lat": 0.0, "type": "electric_scooter", "lat": 38.902855833333334, "is_reserved": 0, "is_disabled": 0, "fusion_lon": 0.0, "bike_id": "cb66c574d6af8303a825c66acacd0990", "lon": -77.04258583333333, "rental_uris": {"ios": "https://dc.lft.to/lastmile_qr_scan", "android": "https://dc.lft.to/lastmile_qr_scan"}}, {"name": "1bedc7cd091d60d6029daefa621a034c", "fusion_lat": 0.0, "type": "electric_scooter", "lat": 38.894808833333336, "is_reserved": 0, "is_disabled": 0, "fusion_lon": 0.0, "bike_id": "1bedc7cd091d60d6029daefa621a034c", "lon": -77.01071783333333, "rental_uris": {"ios": "https://dc.lft.to/lastmile_qr_scan", "android": "https://dc.lft.to/lastmile_qr_scan"}},