{"data": {"bikes": [{"bike_id": "d692340a7c06edafd3bf24d268d9bd14", "type": "electric_scooter", "is_disabled": 0, "lat": 38.898876333333334, "rental_uris": {"ios": "https://dc.lft.to/lastmile_qr_scan", "android": "https://dc.lft.to/lastmile_qr_scan"}, "is_reserved": 0, "fusion_lon": 0.0, "fusion_lat": 0.0, "lon": -77.015186, "name": "d692340a7c06edafd3bf24d268d9bd14"}, {"bike_id": "7921394e2b90f2997405b8b40f2ab5b5", "type": "electric_scooter", "is_disabled": 0, "lat": 38.87415166666667, "rental_uris": {"ios": "https://dc.lft.to/lastmile_qr_scan", "android": "https://dc.lft.to/lastmile_qr_scan"}, "is_reserved": 0, "fusion_lon": 0.0, "fusion_lat": 0.0, "lon": -76.97117333333334, "name": "7921394e2b90f2997405b8b40f2ab5b5"}, {"bike_id": "94085f3119a4546de703998d6b7a8594", "type": "electric_scooter", "is_disabled": 0, "lat": 38.951536, "rental_uris": {"ios": "https://dc.lft.to/lastmile_qr_scan", "android": "https://dc.lft.to/lastmile_qr_scan"}, "is_reserved": 0, "fusion_lon": 0.0, "fusion_lat": 0.0, "lon": -77.01864966666666, "name": "94085f3119a4546de703998d6b7a8594"}, {"bike_id": "59d47036cfd3a710ad86fdf011b0fb6b", "type": "electric_scooter", "is_disabled": 0, "lat": 38.893270666666666, "rental_uris": {"ios": "https://dc.lft.to/lastmile_qr_scan", "android": "https://dc.lft.to/lastmile_qr_scan"}, "is_reserved": 0, "fusion_lon": 0.0, "fusion_lat": 0.0, "lon": -77.04884616666666, "name": "59d47036cfd3a710ad86fdf011b0fb6b"}, {"bike_id": "c1a73eaeb3dede372270f5585c91bf8b", "type": "electric_scooter", "is_disabled": 0, "lat": 38.918482166666664, "rental_uris": {"ios": "https://dc.lft.to/lastmile_qr_scan", "android": "https://dc.lft.to/lastmile_qr_scan"}, "is_reserved": 0, "fusion_lon": 0.0, "fusion_lat": 0.0, "lon": -77.04497933333333, "name": "c1a73eaeb3dede372270f5585c91bf8b"}, {"bike_id": "bb88df81bcb07d1d3ad4e57afcd30446", "type": "electric_scooter", "is_disabled": 0, "lat": 38.91407066666667, "rental_uris": {"ios": "https://dc.lft.to/lastmile_qr_scan", "android": "https://dc.lft.to/lastmile_qr_scan"}, "is_reserved": 0, "fusion_lon": 0.0, "fusion_lat": 0.0, "lon": -77.03158816666667, "name": "bb88df81bcb07d1d3ad4e57afcd30446"}, {"bike_id": "1c7924cf19003ec20f9d0329e435b149", "type": "electric_scooter", "is_disabled": 0, "lat": 38.916343, "rental_uris": {"ios": "https://dc.lft.to/lastmile_qr_scan", "android": "https://dc.lft.to/lastmile_qr_scan"}, "is_reserved": 0, "fusion_lon": 0.0, "fusion_lat": 0.0, "lon": -77.0425515, "name": "1c7924cf19003ec20f9d0329e435b149"}, {"bike_id": "7327b6fd658196792d2eedb923bee5fb", "type": "electric_scooter", "is_disabled": 0, "lat": 38.958452333333334, "rental_uris": {"ios": "https://dc.lft.to/lastmile_qr_scan", "android": "https://dc.lft.to/lastmile_qr_scan"}, "is_reserved": 0, "fusion_lon": 0.0, "fusion_lat": 0.0, "lon": -77.02727, "name": "7327b6fd658196792d2eedb923bee5fb"}, {"bike_id": "361dae8dbfcf3fd89f0445ee5ce6130e", "type": "electric_scooter", "is_disabled": 0, "lat": 38.931244166666666, "rental_uris": {"ios": "https://dc.lft.to/lastmile_qr_scan", "android": "https://dc.lft.to/lastmile_qr_scan"}, "is_reserved": 0, "fusion_lon": 0.0, "fusion_lat": 0.0, "lon": -77.03656833333334, "name": "361dae8dbfcf3fd89f0445ee5ce6130e"}, {"bike_id": "85f48c33c2b50773a3b24b53fbec90a0", "type": "electric_bike", "is_disabled": 0, "lat": 38.836117333333334, "rental_uris": {"ios": "https://dc.lft.to/lastmile_qr_scan", "android": "https://dc.lft.to/lastmile_qr_scan"}, "is_reserved": 0, "fusion_lon": 0.0, "fusion_lat": 0.0, "lon": -77.00385783333333, "name": "85f48c33c2b50773a3b24b53fbec90a0"}, {"bike_id": "2fa928338b5d7481b4ef4d4705c9260f", "type": "electric_scooter", "is_disabled": 0, "lat": 38.9223575, "rental_uris": {"ios": "https://dc.lft.to/lastmile_qr_scan", "android": "https://dc.lft.to/lastmile_qr_scan"}, "is_reserved": 0, "fusion_lon": 0.0, "fusion_lat": 0.0, "lon": -77.04727666666666, "name": "2fa928338b5d7481b4ef4d4705c9260f"}, {"bike_id": "c0658fc5266a2ededf047b50f2e63901", "type": "electric_bike", "is_disabled": 0, "lat": 38.82372066666667, "rental_uris": {"ios": "https://dc.lft.to/lastmile_qr_scan", "android": "https://dc.lft.to/lastmile_qr_scan"}, "is_reserved": 0, "fusion_lon": 0.0, "fusion_lat": 0.0, "lon": -77.00218383333333, "name": "c0658fc5266a2ededf047b50f2e63901"}, {"bike_id": "3fd515ed91d77e722eb66cde01ad3be5", "type": "electric_scooter", "is_disabled": 0, "lat": 38.87723316666667, "rental_uris": {"ios": "https://dc.lft.to/lastmile_qr_scan", "android": "https://dc.lft.to/lastmile_qr_scan"}, "is_reserved": 0, "fusion_lon": 0.0, "fusion_lat": 0.0, "lon": -77.006169, "name": "3fd515ed91d77e722eb66cde01ad3be5"}, {"bike_id": "62158c392b751ae5cf002bb0347334ed", "type": "electric_scooter", "is_disabled": 0, "lat": 38.89238733333333, "rental_uris": {"ios": "https://dc.lft.to/lastmile_qr_scan", "android": "https://dc.lft.to/lastmile_qr_scan"}, "is_reserved": 0, "fusion_lon": 0.0, "fusion_lat": 0.0, "lon": -77.02383733333333, "name": "62158c392b751ae5cf002bb0347334ed"}, {"bike_id": "0ba358ef670edf38e51c1bd44b4fd0c6", "type": "electric_bike", "is_disabled": 0, "lat": 38.874084833333335, "rental_uris": {"ios": "https://dc.lft.to/lastmile_qr_scan", "android": "https://dc.lft.to/lastmile_qr_scan"}, "is_reserved": 0, "fusion_lon": 0.0, "fusion_lat": 0.0, "lon": -77.00581616666666, "name": "0ba358ef670edf38e51c1bd44b4fd0c6"}, {"bike_id": "5c42ddab31c403b20de4cf95315bebb0", "type": "electric_scooter", "is_disabled": 0, "lat": 38.9058945, "rental_uris": {"ios": "https://dc.lft.to/lastmile_qr_scan", "android": "https://dc.lft.to/lastmile_qr_scan"}, "is_reserved": 0, "fusion_lon": 0.0, "fusion_lat": 0.0, "lon": -77.0680525, "name": "5c42ddab31c403b20de4cf95315bebb0"}, {"bike_id": "3ac4351d8ac899b7f0513d78b1b31d13", "type": "electric_bike", "is_disabled": 0, "lat": 38.85940816666667, "rental_uris": {"ios": "https://dc.lft.to/lastmile_qr_scan", "android": "https://dc.lft.to/lastmile_qr_scan"}, "is_reserved": 0, "fusion_lon": 0.0, "fusion_lat": 0.0, "lon": -77.11832733333334, "name": "3ac4351d8ac899b7f0513d78b1b31d13"}, {"bike_id": "c637d2833189db54fb310c8dfbd816a3", "type": "electric_bike", "is_disabled": 0, "lat": 38.91952083333334, "rental_uris": {"ios": "https://dc.lft.to/lastmile_qr_scan", "android": "https://dc.lft.to/lastmile_qr_scan"}, "is_reserved": 0, "fusion_lon": 0.0, "fusion_lat": 0.0, "lon": -76.99197983333333, "name": "c637d2833189db54fb310c8dfbd816a3"}, {"bike_id": "3d42f7ce692befb2b0167a4322022abe", "type": "electric_scooter", "is_disabled": 0, "lat": 38.94984766666666, "rental_uris": {"ios": "https://dc.lft.to/lastmile_qr_scan", "android": "https://dc.lft.to/lastmile_qr_scan"}, "is_reserved": 0, "fusion_lon": 0.0, "fusion_lat": 0.0, "lon": -77.0265295, "name": "3d42f7ce692befb2b0167a4322022abe"}, {"bike_id": "3ea2c9011d8c8641f25faf9b28eda2b5", "type": "electric_scooter", "is_disabled": 0, "lat": 38.8841875, "rental_uris": {"ios": "https://dc.lft.to/lastmile_qr_scan", "android": "https://dc.lft.to/lastmile_qr_scan"}, "is_reserved": 0, "fusion_lon": 0.0, "fusion_lat": 0.0, "lon": -77.00741666666667, "name": "3ea2c9011d8c8641f25faf9b28eda2b5"}, {"bike_id": "6181d266894b46d138387f5f8b5eaf21", "type": "electric_scooter", "is_disabled": 0, "lat": 38.935252, "rental_uris": {"ios": "https://dc.lft.to/lastmile_qr_scan", "android": "https://dc.lft.to/lastmile_qr_scan"}, "is_reserved": 0, "fusion_lon": 0.0, "fusion_lat": 0.0, "lon": -77.02422716666666, "name": "6181d266894b46d138387f5f8b5eaf21"}, {"bike_id": "37f7042e194d0f2f0d5afc91976decfe", "type": "electric_scooter", "is_disabled": 0, "lat": 38.901059000000004, "rental_uris": {"ios": "https://dc.lft.to/lastmile_qr_scan", "android": "https://dc.lft.to/lastmile_qr_scan"}, "is_reserved": 0, "fusion_lon": 0.0, "fusion_lat": 0.0, "lon": -77.0066455, "name": "37f7042e194d0f2f0d5afc91976decfe"}, {"bike_id": "c390d6c7bf54f7141128cc043ecd5fd9", "type": "electric_scooter", "is_disabled": 0, "lat": 38.89244016666667, "rental_uris": {"ios": "https://dc.lft.to/lastmile_qr_scan", "android": "https://dc.lft.to/lastmile_qr_scan"}, "is_reserved": 0, "fusion_lon": 0.0, "fusion_lat": 0.0, "lon": -77.02414433333334, "name": "c390d6c7bf54f7141128cc043ecd5fd9"}, {"bike_id": "e838dbbb5c9e89b1c6af627fde68feca", "type": "electric_bike", "is_disabled": 0, "lat": 38.95626766666667, "rental_uris": {"ios": "https://dc.lft.to/lastmile_qr_scan", "android": "https://dc.lft.to/lastmile_qr_scan"}, "is_reserved": 0, "fusion_lon": 0.0, "fusion_lat": 0.0, "lon": -76.93881716666667, "name": "e838dbbb5c9e89b1c6af627fde68feca"}, {"bike_id": "b252a0f769f43e14d4c6bef945777a9e", "type": "electric_scooter", "is_disabled": 0, "lat": 38.928967666666665, "rental_uris": {"ios": "https://dc.lft.to/lastmile_qr_scan", "android": "https://dc.lft.to/lastmile_qr_scan"}, "is_reserved": 0, "fusion_lon": 0.0, "fusion_lat": 0.0, "lon": -77.03262566666666, "name": "b252a0f769f43e14d4c6bef945777a9e"}, {"bike_id": "3add666ed88aa8c71749ce42dc26f3d0", "type": "electric_scooter", "is_disabled": 0, "lat": 38.89747416666667, "rental_uris": {"ios": "https://dc.lft.to/lastmile_qr_scan", "android": "https://dc.lft.to/lastmile_qr_scan"}, "is_reserved": 0, "fusion_lon": 0.0, "fusion_lat": 0.0, "lon": -77.04592866666667, "name": "3add666ed88aa8c71749ce42dc26f3d0"}, {"bike_id": "071e266e4249f0828c12486a73c08112", "type": "electric_scooter", "is_disabled": 0, "lat": 38.984312833333334, "rental_uris": {"ios": "https://dc.lft.to/lastmile_qr_scan", "android": "https://dc.lft.to/lastmile_qr_scan"}, "is_reserved": 0, "fusion_lon": 0.0, "fusion_lat": 0.0, "lon": -77.02677583333333, "name": "071e266e4249f0828c12486a73c08112"}, {"bike_id": "80d1ebf85814d2a3735da7577a26a6e5", "type": "electric_scooter", "is_disabled": 0, "lat": 38.872322833333335, "rental_uris": {"ios": "https://dc.lft.to/lastmile_qr_scan", "android": "https://dc.lft.to/lastmile_qr_scan"}, "is_reserved": 0, "fusion_lon": 0.0, "fusion_lat": 0.0, "lon": -77.01172733333334, "name": "80d1ebf85814d2a3735da7577a26a6e5"}, {"bike_id": "6cc603206c8991ab91014f76477376cc", "type": "electric_scooter", "is_disabled": 0, "lat": 38.91331316666667, "rental_uris": {"ios": "https://dc.lft.to/lastmile_qr_scan", "android": "https://dc.lft.to/lastmile_qr_scan"}, "is_reserved": 0, "fusion_lon": 0.0, "fusion_lat": 0.0, "lon": -77.0319125, "name": "6cc603206c8991ab91014f76477376cc"}, {"bike_id": "26702eca07669847c64ca0e18bca1d62", "type": "electric_scooter", "is_disabled": 0, "lat": 38.91763533333334, "rental_uris": {"ios": "https://dc.lft.to/lastmile_qr_scan", "android": "https://dc.lft.to/lastmile_qr_scan"}, "is_reserved": 0, "fusion_lon": 0.0, "fusion_lat": 0.0, "lon": -77.04776566666666, "name": "26702eca07669847c64ca0e18bca1d62"}, {"bike_id": "9cdae4c93e02f0c9ebc844f37114ca20", "type": "electric_scooter", "is_disabled": 0, "lat": 38.91621766666667, "rental_uris": {"ios": "https://dc.lft.to/lastmile_qr_scan", "android": "https://dc.lft.to/lastmile_qr_scan"}, "is_reserved": 0, "fusion_lon": 0.0, "fusion_lat": 0.0, "lon": -77.02157666666666, "name": "9cdae4c93e02f0c9ebc844f37114ca20"}, {"bike_id": "1fcf8dbb5cd4563042c186b9b95f392c", "type": "electric_bike", "is_disabled": 0, "lat": 38.940256, "rental_uris": {"ios": "https://dc.lft.to/lastmile_qr_scan", "android": "https://dc.lft.to/lastmile_qr_scan"}, "is_reserved": 0, "fusion_lon": 0.0, "fusion_lat": 0.0, "lon": -76.97618716666666, "name": "1fcf8dbb5cd4563042c186b9b95f392c"}, {"bike_id": "f34e4de0154aa0231ec89b043af4dcfd", "type": "electric_scooter", "is_disabled": 0, "lat": 38.88375533333333, "rental_uris": {"ios": "https://dc.lft.to/lastmile_qr_scan", "android": "https://dc.lft.to/lastmile_qr_scan"}, "is_reserved": 0, "fusion_lon": 0.0, "fusion_lat": 0.0, "lon": -76.99522633333333, "name": "f34e4de0154aa0231ec89b043af4dcfd"}, {"bike_id": "f1486ea6cbe5e94f294803410240bc37", "type": "electric_bike", "is_disabled": 0, "lat": 38.913163, "rental_uris": {"ios": "https://dc.lft.to/lastmile_qr_scan", "android": "https://dc.lft.to/lastmile_qr_scan"}, "is_reserved": 0, "fusion_lon": 0.0, "fusion_lat": 0.0, "lon": -77.22320683333334, "name": "f1486ea6cbe5e94f294803410240bc37"}, {"bike_id": "e965c84440ddcbc393cd96b72c16ca95", "type": "electric_scooter", "is_disabled": 0, "lat": 38.9202475, "rental_uris": {"ios": "https://dc.lft.to/lastmile_qr_scan", "android": "https://dc.lft.to/lastmile_qr_scan"}, "is_reserved": 0, "fusion_lon": 0.0, "fusion_lat": 0.0, "lon": -77.031202, "name": "e965c84440ddcbc393cd96b72c16ca95"}, {"bike_id": "b3f428a0b391f440d72e08efe20e4bd3", "type": "electric_scooter", "is_disabled": 0, "lat": 38.86691666666667, "rental_uris": {"ios": "https://dc.lft.to/lastmile_qr_scan", "android": "https://dc.lft.to/lastmile_qr_scan"}, "is_reserved": 0, "fusion_lon": 0.0, "fusion_lat": 0.0, "lon": -76.98561616666667, "name": "b3f428a0b391f440d72e08efe20e4bd3"}, {"bike_id": "db334975a8ba33dd4923b4a5389832cf", "type": "electric_scooter", "is_disabled": 0, "lat": 38.91929916666667, "rental_uris": {"ios": "https://dc.lft.to/lastmile_qr_scan", "android": "https://dc.lft.to/lastmile_qr_scan"}, "is_reserved": 0, "fusion_lon": 0.0, "fusion_lat": 0.0, "lon": -77.04259933333333, "name": "db334975a8ba33dd4923b4a5389832cf"}, {"bike_id": "97352c0d4c2d42c0c379f9fd0bb0a1d0", "type": "electric_scooter", "is_disabled": 0, "lat": 38.902635833333335, "rental_uris": {"ios": "https://dc.lft.to/lastmile_qr_scan", "android": "https://dc.lft.to/lastmile_qr_scan"}, "is_reserved": 0, "fusion_lon": 0.0, "fusion_lat": 0.0, "lon": -77.039777, "name": "97352c0d4c2d42c0c379f9fd0bb0a1d0"}, {"bike_id": "d84c1aab1298e83e9eb235b4e8d2d6b4", "type": "electric_scooter", "is_disabled": 0, "lat": 38.88720466666667, "rental_uris": {"ios": "https://dc.lft.to/lastmile_qr_scan", "android": "https://dc.lft.to/lastmile_qr_scan"}, "is_reserved": 0, "fusion_lon": 0.0, "fusion_lat": 0.0, "lon": -77.02206983333333, "name": "d84c1aab1298e83e9eb235b4e8d2d6b4"}, {"bike_id": "e986e5d93f0777d8b9d17bacb158ba6b", "type": "electric_scooter", "is_disabled": 0, "lat": 38.9049625, "rental_uris": {"ios": "https://dc.lft.to/lastmile_qr_scan", "android": "https://dc.lft.to/lastmile_qr_scan"}, "is_reserved": 0, "fusion_lon": 0.0, "fusion_lat": 0.0, "lon": -77.05334533333334, "name": "e986e5d93f0777d8b9d17bacb158ba6b"}, {"bike_id": "e440defb9419cb23da8594e3fa491e17", "type": "electric_scooter", "is_disabled": 0, "lat": 38.916849666666664, "rental_uris": {"ios": "https://dc.lft.to/lastmile_qr_scan", "android": "https://dc.lft.to/lastmile_qr_scan"}, "is_reserved": 0, "fusion_lon": 0.0, "fusion_lat": 0.0, "lon": -77.02537666666667, "name": "e440defb9419cb23da8594e3fa491e17"}, {"bike_id": "d97386bb1ce28c65c5f5e0925c8303fc", "type": "electric_scooter", "is_disabled": 0, "lat": 38.863767, "rental_uris": {"ios": "https://dc.lft.to/lastmile_qr_scan", "android": "https://dc.lft.to/lastmile_qr_scan"}, "is_reserved": 0, "fusion_lon": 0.0, "fusion_lat": 0.0, "lon": -76.990661, "name": "d97386bb1ce28c65c5f5e0925c8303fc"}, {"bike_id": "fb46b5d3b0bb9adc7dea013b8db92cde", "type": "electric_scooter", "is_disabled": 0, "lat": 38.903588666666664, "rental_uris": {"ios": "https://dc.lft.to/lastmile_qr_scan", "android": "https://dc.lft.to/lastmile_qr_scan"}, "is_reserved": 0, "fusion_lon": 0.0, "fusion_lat": 0.0, "lon": -77.01909466666666, "name": "fb46b5d3b0bb9adc7dea013b8db92cde"}, {"bike_id": "1dfc6a6505da99c8c2f942cd19353c8f", "type": "electric_scooter", "is_disabled": 0, "lat": 38.906713, "rental_uris": {"ios": "https://dc.lft.to/lastmile_qr_scan", "android": "https://dc.lft.to/lastmile_qr_scan"}, "is_reserved": 0, "fusion_lon": 0.0, "fusion_lat": 0.0, "lon": -77.00076616666666, "name": "1dfc6a6505da99c8c2f942cd19353c8f"}, {"bike_id": "e7e9e42fad856db058595d25f3df8e24", "type": "electric_scooter", "is_disabled": 0, "lat": 38.908774, "rental_uris": {"ios": "https://dc.lft.to/lastmile_qr_scan", "android": "https://dc.lft.to/lastmile_qr_scan"}, "is_reserved": 0, "fusion_lon": 0.0, "fusion_lat": 0.0, "lon": -77.0197965, "name": "e7e9e42fad856db058595d25f3df8e24"}, {"bike_id": "81d062984f87680afb9ac45ce2569754", "type": "electric_scooter", "is_disabled": 0, "lat": 38.9049975, "rental_uris": {"ios": "https://dc.lft.to/lastmile_qr_scan", "android": "https://dc.lft.to/lastmile_qr_scan"}, "is_reserved": 0, "fusion_lon": 0.0, "fusion_lat": 0.0, "lon": -77.061126, "name": "81d062984f87680afb9ac45ce2569754"}, {"bike_id": "84e6d734e808c7a23b05006119163ca6", "type": "electric_bike", "is_disabled": 0, "lat": 38.97881916666667, "rental_uris": {"ios": "https://dc.lft.to/lastmile_qr_scan", "android": "https://dc.lft.to/lastmile_qr_scan"}, "is_reserved": 0, "fusion_lon": 0.0, "fusion_lat": 0.0, "lon": -77.06027883333333, "name": "84e6d734e808c7a23b05006119163ca6"}, {"bike_id": "afbc4ca9d80ff3de66570d9e0973b455", "type": "electric_scooter", "is_disabled": 0, "lat": 38.94497633333334, "rental_uris": {"ios": "https://dc.lft.to/lastmile_qr_scan", "android": "https://dc.lft.to/lastmile_qr_scan"}, "is_reserved": 0, "fusion_lon": 0.0, "fusion_lat": 0.0, "lon": -77.02624366666667, "name": "afbc4ca9d80ff3de66570d9e0973b455"}, {"bike_id": "83ba60d819dd0b8df40d0de5d500f0f3", "type": "electric_scooter", "is_disabled": 0, "lat": 38.923854166666665, "rental_uris": {"ios": "https://dc.lft.to/lastmile_qr_scan", "android": "https://dc.lft.to/lastmile_qr_scan"}, "is_reserved": 0, "fusion_lon": 0.0, "fusion_lat": 0.0, "lon": -77.02689333333333, "name": "83ba60d819dd0b8df40d0de5d500f0f3"}, {"bike_id": "5969037fb90362fdc1971ebdd60ee560", "type": "electric_scooter", "is_disabled": 0, "lat": 38.91472066666667, "rental_uris": {"ios": "https://dc.lft.to/lastmile_qr_scan", "android": "https://dc.lft.to/lastmile_qr_scan"}, "is_reserved": 0, "fusion_lon": 0.0, "fusion_lat": 0.0, "lon": -77.00925366666667, "name": "5969037fb90362fdc1971ebdd60ee560"}, {"bike_id": "14c8b081cdfb85d88f63a83361f13d4d", "type": "electric_scooter", "is_disabled": 0, "lat": 38.9097585, "rental_uris": {"ios": "https://dc.lft.to/lastmile_qr_scan", "android": "https://dc.lft.to/lastmile_qr_scan"}, "is_reserved": 0, "fusion_lon": 0.0, "fusion_lat": 0.0, "lon": -77.03397916666667, "name": "14c8b081cdfb85d88f63a83361f13d4d"}, {"bike_id": "d0adc2d390388a7f18f3d8d308354ec4", "type": "electric_scooter", "is_disabled": 0, "lat": 38.90148133333334, "rental_uris": {"ios": "https://dc.lft.to/lastmile_qr_scan", "android": "https://dc.lft.to/lastmile_qr_scan"}, "is_reserved": 0, "fusion_lon": 0.0, "fusion_lat": 0.0, "lon": -77.0433235, "name": "d0adc2d390388a7f18f3d8d308354ec4"}, {"bike_id": "804b88ba15dd6762f154061fc716f92a", "type": "electric_scooter", "is_disabled": 0, "lat": 38.928197, "rental_uris": {"ios": "https://dc.lft.to/lastmile_qr_scan", "android": "https://dc.lft.to/lastmile_qr_scan"}, "is_reserved": 0, "fusion_lon": 0.0, "fusion_lat": 0.0, "lon": -77.023221, "name": "804b88ba15dd6762f154061fc716f92a"}, {"bike_id": "5873d655e0d60efd6cdcd8959b8cde80", "type": "electric_scooter", "is_disabled": 0, "lat": 38.914747166666665, "rental_uris": {"ios": "https://dc.lft.to/lastmile_qr_scan", "android": "https://dc.lft.to/lastmile_qr_scan"}, "is_reserved": 0, "fusion_lon": 0.0, "fusion_lat": 0.0, "lon": -77.03199666666667, "name": "5873d655e0d60efd6cdcd8959b8cde80"}, {"bike_id": "8030f830e80ee46eefb88ee1ee22230b", "type": "electric_scooter", "is_disabled": 0, "lat": 38.90942183333333, "rental_uris": {"ios": "https://dc.lft.to/lastmile_qr_scan", "android": "https://dc.lft.to/lastmile_qr_scan"}, "is_reserved": 0, "fusion_lon": 0.0, "fusion_lat": 0.0, "lon": -77.03061916666667, "name": "8030f830e80ee46eefb88ee1ee22230b"}, {"bike_id": "2bcb26e3e2a9e93cfd386b484c23d802", "type": "electric_scooter", "is_disabled": 0, "lat": 38.9212565, "rental_uris": {"ios": "https://dc.lft.to/lastmile_qr_scan", "android": "https://dc.lft.to/lastmile_qr_scan"}, "is_reserved": 0, "fusion_lon": 0.0, "fusion_lat": 0.0, "lon": -77.012128, "name": "2bcb26e3e2a9e93cfd386b484c23d802"}, {"bike_id": "afbd1d92658542f06830a50b548c61f0", "type": "electric_scooter", "is_disabled": 0, "lat": 38.904188166666664, "rental_uris": {"ios": "https://dc.lft.to/lastmile_qr_scan", "android": "https://dc.lft.to/lastmile_qr_scan"}, "is_reserved": 0, "fusion_lon": 0.0, "fusion_lat": 0.0, "lon": -77.04365233333333, "name": "afbd1d92658542f06830a50b548c61f0"}, {"bike_id": "0f34587d14093e242cbe12c1d7edd82e", "type": "electric_scooter", "is_disabled": 0, "lat": 38.90052716666667, "rental_uris": {"ios": "https://dc.lft.to/lastmile_qr_scan", "android": "https://dc.lft.to/lastmile_qr_scan"}, "is_reserved": 0, "fusion_lon": 0.0, "fusion_lat": 0.0, "lon": -77.0007205, "name": "0f34587d14093e242cbe12c1d7edd82e"}, {"bike_id": "8c683386d66881636a828e7940740aa8", "type": "electric_scooter", "is_disabled": 0, "lat": 38.94567033333333, "rental_uris": {"ios": "https://dc.lft.to/lastmile_qr_scan", "android": "https://dc.lft.to/lastmile_qr_scan"}, "is_reserved": 0, "fusion_lon": 0.0, "fusion_lat": 0.0, "lon": -77.03284066666667, "name": "8c683386d66881636a828e7940740aa8"}, {"bike_id": "2c4444358e572269b7d4c5e4c5717484", "type": "electric_scooter", "is_disabled": 0, "lat": 38.92296066666667, "rental_uris": {"ios": "https://dc.lft.to/lastmile_qr_scan", "android": "https://dc.lft.to/lastmile_qr_scan"}, "is_reserved": 0, "fusion_lon": 0.0, "fusion_lat": 0.0, "lon": -77.04202183333334, "name": "2c4444358e572269b7d4c5e4c5717484"}, {"bike_id": "6b3cee452b4752e2dea0a29f5c749359", "type": "electric_scooter", "is_disabled": 0, "lat": 38.927156, "rental_uris": {"ios": "https://dc.lft.to/lastmile_qr_scan", "android": "https://dc.lft.to/lastmile_qr_scan"}, "is_reserved": 0, "fusion_lon": 0.0, "fusion_lat": 0.0, "lon": -77.0208915, "name": "6b3cee452b4752e2dea0a29f5c749359"}, {"bike_id": "5cbb7974ef0a40fcfcf7c0400094bf47", "type": "electric_scooter", "is_disabled": 0, "lat": 38.89220383333333, "rental_uris": {"ios": "https://dc.lft.to/lastmile_qr_scan", "android": "https://dc.lft.to/lastmile_qr_scan"}, "is_reserved": 0, "fusion_lon": 0.0, "fusion_lat": 0.0, "lon": -77.02586066666667, "name": "5cbb7974ef0a40fcfcf7c0400094bf47"}, {"bike_id": "51fba799e2dc0651c23e2a544f574ea1", "type": "electric_scooter", "is_disabled": 0, "lat": 38.926113, "rental_uris": {"ios": "https://dc.lft.to/lastmile_qr_scan", "android": "https://dc.lft.to/lastmile_qr_scan"}, "is_reserved": 0, "fusion_lon": 0.0, "fusion_lat": 0.0, "lon": -77.02415166666667, "name": "51fba799e2dc0651c23e2a544f574ea1"}, {"bike_id": "57d3e7ce88b9be4c8366cce40836eac2", "type": "electric_scooter", "is_disabled": 0, "lat": 38.881069833333335, "rental_uris": {"ios": "https://dc.lft.to/lastmile_qr_scan", "android": "https://dc.lft.to/lastmile_qr_scan"}, "is_reserved": 0, "fusion_lon": 0.0, "fusion_lat": 0.0, "lon": -76.99864233333334, "name": "57d3e7ce88b9be4c8366cce40836eac2"}, {"bike_id": "27af6db643c68c8e0977223b08567431", "type": "electric_scooter", "is_disabled": 0, "lat": 38.92555883333333, "rental_uris": {"ios": "https://dc.lft.to/lastmile_qr_scan", "android": "https://dc.lft.to/lastmile_qr_scan"}, "is_reserved": 0, "fusion_lon": 0.0, "fusion_lat": 0.0, "lon": -77.04383533333333, "name": "27af6db643c68c8e0977223b08567431"}, {"bike_id": "16e97927223f685f702a9e460fcd4198", "type": "electric_scooter", "is_disabled": 0, "lat": 38.90384316666667, "rental_uris": {"ios": "https://dc.lft.to/lastmile_qr_scan", "android": "https://dc.lft.to/lastmile_qr_scan"}, "is_reserved": 0, "fusion_lon": 0.0, "fusion_lat": 0.0, "lon": -77.04480466666666, "name": "16e97927223f685f702a9e460fcd4198"}, {"bike_id": "0e7586e32a58c5c35afd9357c0d41e1a", "type": "electric_scooter", "is_disabled": 0, "lat": 38.936077833333336, "rental_uris": {"ios": "https://dc.lft.to/lastmile_qr_scan", "android": "https://dc.lft.to/lastmile_qr_scan"}, "is_reserved": 0, "fusion_lon": 0.0, "fusion_lat": 0.0, "lon": -77.05860566666667, "name": "0e7586e32a58c5c35afd9357c0d41e1a"}, {"bike_id": "2ff08edc2d1f3dd444613d99387b7b85", "type": "electric_scooter", "is_disabled": 0, "lat": 38.9163155, "rental_uris": {"ios": "https://dc.lft.to/lastmile_qr_scan", "android": "https://dc.lft.to/lastmile_qr_scan"}, "is_reserved": 0, "fusion_lon": 0.0, "fusion_lat": 0.0, "lon": -77.039714, "name": "2ff08edc2d1f3dd444613d99387b7b85"}, {"bike_id": "d00635dd1294193f2b78405c75d07451", "type": "electric_scooter", "is_disabled": 0, "lat": 38.931692166666664, "rental_uris": {"ios": "https://dc.lft.to/lastmile_qr_scan", "android": "https://dc.lft.to/lastmile_qr_scan"}, "is_reserved": 0, "fusion_lon": 0.0, "fusion_lat": 0.0, "lon": -77.02820683333333, "name": "d00635dd1294193f2b78405c75d07451"}, {"bike_id": "1669aee2527d58ebb27f9672c4ce08b8", "type": "electric_scooter", "is_disabled": 0, "lat": 38.88531233333333, "rental_uris": {"ios": "https://dc.lft.to/lastmile_qr_scan", "android": "https://dc.lft.to/lastmile_qr_scan"}, "is_reserved": 0, "fusion_lon": 0.0, "fusion_lat": 0.0, "lon": -77.0218955, "name": "1669aee2527d58ebb27f9672c4ce08b8"}, {"bike_id": "8ed60414cc1b1d5bac494e820df20db0", "type": "electric_scooter", "is_disabled": 0, "lat": 38.92940383333333, "rental_uris": {"ios": "https://dc.lft.to/lastmile_qr_scan", "android": "https://dc.lft.to/lastmile_qr_scan"}, "is_reserved": 0, "fusion_lon": 0.0, "fusion_lat": 0.0, "lon": -77.019914, "name": "8ed60414cc1b1d5bac494e820df20db0"}, {"bike_id": "0318ee2b7074296330d1c02fe1f17b02", "type": "electric_scooter", "is_disabled": 0, "lat": 38.938867333333334, "rental_uris": {"ios": "https://dc.lft.to/lastmile_qr_scan", "android": "https://dc.lft.to/lastmile_qr_scan"}, "is_reserved": 0, "fusion_lon": 0.0, "fusion_lat": 0.0, "lon": -77.02484416666667, "name": "0318ee2b7074296330d1c02fe1f17b02"}, {"bike_id": "eaf20dde157a0857ef67df4d4ad85a90", "type": "electric_scooter", "is_disabled": 0, "lat": 38.899877333333336, "rental_uris": {"ios": "https://dc.lft.to/lastmile_qr_scan", "android": "https://dc.lft.to/lastmile_qr_scan"}, "is_reserved": 0, "fusion_lon": 0.0, "fusion_lat": 0.0, "lon": -76.95002666666667, "name": "eaf20dde157a0857ef67df4d4ad85a90"}, {"bike_id": "8a594aeb69addf27aaf9bf22dfdbabfb", "type": "electric_scooter", "is_disabled": 0, "lat": 38.93212483333333, "rental_uris": {"ios": "https://dc.lft.to/lastmile_qr_scan", "android": "https://dc.lft.to/lastmile_qr_scan"}, "is_reserved": 0, "fusion_lon": 0.0, "fusion_lat": 0.0, "lon": -77.02385833333334, "name": "8a594aeb69addf27aaf9bf22dfdbabfb"}, {"bike_id": "1b7847ce7006884584c5a77cc54eede1", "type": "electric_scooter", "is_disabled": 0, "lat": 38.92098, "rental_uris": {"ios": "https://dc.lft.to/lastmile_qr_scan", "android": "https://dc.lft.to/lastmile_qr_scan"}, "is_reserved": 0, "fusion_lon": 0.0, "fusion_lat": 0.0, "lon": -77.02224933333333, "name": "1b7847ce7006884584c5a77cc54eede1"}, {"bike_id": "9aea164a03f21f3ed208a50a0074da86", "type": "electric_scooter", "is_disabled": 0, "lat": 38.909609333333336, "rental_uris": {"ios": "https://dc.lft.to/lastmile_qr_scan", "android": "https://dc.lft.to/lastmile_qr_scan"}, "is_reserved": 0, "fusion_lon": 0.0, "fusion_lat": 0.0, "lon": -77.023853, "name": "9aea164a03f21f3ed208a50a0074da86"}, {"bike_id": "2404c6db775b2483ed250357e881a584", "type": "electric_scooter", "is_disabled": 0, "lat": 38.918275333333334, "rental_uris": {"ios": "https://dc.lft.to/lastmile_qr_scan", "android": "https://dc.lft.to/lastmile_qr_scan"}, "is_reserved": 0, "fusion_lon": 0.0, "fusion_lat": 0.0, "lon": -77.01210716666667, "name": "2404c6db775b2483ed250357e881a584"}, {"bike_id": "d797c067953ed1023335eb96ccbd4776", "type": "electric_scooter", "is_disabled": 0, "lat": 38.85894483333333, "rental_uris": {"ios": "https://dc.lft.to/lastmile_qr_scan", "android": "https://dc.lft.to/lastmile_qr_scan"}, "is_reserved": 0, "fusion_lon": 0.0, "fusion_lat": 0.0, "lon": -76.99734433333333, "name": "d797c067953ed1023335eb96ccbd4776"}, {"bike_id": "566954171605e8237afd95cb05842dac", "type": "electric_scooter", "is_disabled": 0, "lat": 38.876609333333334, "rental_uris": {"ios": "https://dc.lft.to/lastmile_qr_scan", "android": "https://dc.lft.to/lastmile_qr_scan"}, "is_reserved": 0, "fusion_lon": 0.0, "fusion_lat": 0.0, "lon": -77.0006735, "name": "566954171605e8237afd95cb05842dac"}, {"bike_id": "4ad6353962ff38f0c9d05e753311aef7", "type": "electric_scooter", "is_disabled": 0, "lat": 38.89901033333334, "rental_uris": {"ios": "https://dc.lft.to/lastmile_qr_scan", "android": "https://dc.lft.to/lastmile_qr_scan"}, "is_reserved": 0, "fusion_lon": 0.0, "fusion_lat": 0.0, "lon": -77.00715283333334, "name": "4ad6353962ff38f0c9d05e753311aef7"}, {"bike_id": "6f1ffa3074e21fa6941deb8009fa6b38", "type": "electric_scooter", "is_disabled": 0, "lat": 38.915538166666664, "rental_uris": {"ios": "https://dc.lft.to/lastmile_qr_scan", "android": "https://dc.lft.to/lastmile_qr_scan"}, "is_reserved": 0, "fusion_lon": 0.0, "fusion_lat": 0.0, "lon": -77.02881966666666, "name": "6f1ffa3074e21fa6941deb8009fa6b38"}, {"bike_id": "dbd405efc6ea5b92c9493b5484e2bc07", "type": "electric_scooter", "is_disabled": 0, "lat": 38.924865833333335, "rental_uris": {"ios": "https://dc.lft.to/lastmile_qr_scan", "android": "https://dc.lft.to/lastmile_qr_scan"}, "is_reserved": 0, "fusion_lon": 0.0, "fusion_lat": 0.0, "lon": -77.05771583333333, "name": "dbd405efc6ea5b92c9493b5484e2bc07"}, {"bike_id": "eb57f4c41478fcbbada6143f2358a84e", "type": "electric_scooter", "is_disabled": 0, "lat": 38.9231855, "rental_uris": {"ios": "https://dc.lft.to/lastmile_qr_scan", "android": "https://dc.lft.to/lastmile_qr_scan"}, "is_reserved": 0, "fusion_lon": 0.0, "fusion_lat": 0.0, "lon": -77.0412835, "name": "eb57f4c41478fcbbada6143f2358a84e"}, {"bike_id": "64a8e270aa0ef8e777a3850e91bced9b", "type": "electric_scooter", "is_disabled": 0, "lat": 38.89321566666667, "rental_uris": {"ios": "https://dc.lft.to/lastmile_qr_scan", "android": "https://dc.lft.to/lastmile_qr_scan"}, "is_reserved": 0, "fusion_lon": 0.0, "fusion_lat": 0.0, "lon": -76.9398025, "name": "64a8e270aa0ef8e777a3850e91bced9b"}, {"bike_id": "42e52c307f5f9b8e7afd8a11283a50e5", "type": "electric_scooter", "is_disabled": 0, "lat": 38.883734833333335, "rental_uris": {"ios": "https://dc.lft.to/lastmile_qr_scan", "android": "https://dc.lft.to/lastmile_qr_scan"}, "is_reserved": 0, "fusion_lon": 0.0, "fusion_lat": 0.0, "lon": -76.99522916666666, "name": "42e52c307f5f9b8e7afd8a11283a50e5"}, {"bike_id": "a2c5a4ae14cc8ca7715d7401ab21b7ab", "type": "electric_scooter", "is_disabled": 0, "lat": 38.91595916666667, "rental_uris": {"ios": "https://dc.lft.to/lastmile_qr_scan", "android": "https://dc.lft.to/lastmile_qr_scan"}, "is_reserved": 0, "fusion_lon": 0.0, "fusion_lat": 0.0, "lon": -77.04521483333333, "name": "a2c5a4ae14cc8ca7715d7401ab21b7ab"}, {"bike_id": "eabc17a9e46f863e2d7dbe8903c0a5f4", "type": "electric_scooter", "is_disabled": 0, "lat": 38.90381683333333, "rental_uris": {"ios": "https://dc.lft.to/lastmile_qr_scan", "android": "https://dc.lft.to/lastmile_qr_scan"}, "is_reserved": 0, "fusion_lon": 0.0, "fusion_lat": 0.0, "lon": -77.033158, "name": "eabc17a9e46f863e2d7dbe8903c0a5f4"}, {"bike_id": "687cd8019d8d056c1736fab3b3717714", "type": "electric_scooter", "is_disabled": 0, "lat": 38.87736533333333, "rental_uris": {"ios": "https://dc.lft.to/lastmile_qr_scan", "android": "https://dc.lft.to/lastmile_qr_scan"}, "is_reserved": 0, "fusion_lon": 0.0, "fusion_lat": 0.0, "lon": -77.01779, "name": "687cd8019d8d056c1736fab3b3717714"}, {"bike_id": "bb66d315bf831a367873ddda27b568d3", "type": "electric_scooter", "is_disabled": 0, "lat": 38.8314935, "rental_uris": {"ios": "https://dc.lft.to/lastmile_qr_scan", "android": "https://dc.lft.to/lastmile_qr_scan"}, "is_reserved": 0, "fusion_lon": 0.0, "fusion_lat": 0.0, "lon": -77.05126933333334, "name": "bb66d315bf831a367873ddda27b568d3"}, {"bike_id": "2be9eedd3690ccb3df77486bd89fae99", "type": "electric_bike", "is_disabled": 0, "lat": 38.98364866666667, "rental_uris": {"ios": "https://dc.lft.to/lastmile_qr_scan", "android": "https://dc.lft.to/lastmile_qr_scan"}, "is_reserved": 0, "fusion_lon": 0.0, "fusion_lat": 0.0, "lon": -76.97218366666667, "name": "2be9eedd3690ccb3df77486bd89fae99"}, {"bike_id": "93b3a2be24f083d5e329f28de87df556", "type": "electric_scooter", "is_disabled": 0, "lat": 38.93675966666667, "rental_uris": {"ios": "https://dc.lft.to/lastmile_qr_scan", "android": "https://dc.lft.to/lastmile_qr_scan"}, "is_reserved": 0, "fusion_lon": 0.0, "fusion_lat": 0.0, "lon": -77.03567816666667, "name": "93b3a2be24f083d5e329f28de87df556"}, {"bike_id": "f82a50f11a6f10a6550e8120b8e49def", "type": "electric_scooter", "is_disabled": 0, "lat": 38.915443833333335, "rental_uris": {"ios": "https://dc.lft.to/lastmile_qr_scan", "android": "https://dc.lft.to/lastmile_qr_scan"}, "is_reserved": 0, "fusion_lon": 0.0, "fusion_lat": 0.0, "lon": -77.03215516666667, "name": "f82a50f11a6f10a6550e8120b8e49def"}, {"bike_id": "bccfbb30d2521d1937ece18e8a76c08b", "type": "electric_bike", "is_disabled": 0, "lat": 38.8951955, "rental_uris": {"ios": "https://dc.lft.to/lastmile_qr_scan", "android": "https://dc.lft.to/lastmile_qr_scan"}, "is_reserved": 0, "fusion_lon": 0.0, "fusion_lat": 0.0, "lon": -77.028179, "name": "bccfbb30d2521d1937ece18e8a76c08b"}, {"bike_id": "85e206aa4b8d0867635c3a62e89b647c", "type": "electric_scooter", "is_disabled": 0, "lat": 38.96148766666666, "rental_uris": {"ios": "https://dc.lft.to/lastmile_qr_scan", "android": "https://dc.lft.to/lastmile_qr_scan"}, "is_reserved": 0, "fusion_lon": 0.0, "fusion_lat": 0.0, "lon": -77.0279495, "name": "85e206aa4b8d0867635c3a62e89b647c"}, {"bike_id": "b52499e80fbfca6a2faeb48b5d144901", "type": "electric_scooter", "is_disabled": 0, "lat": 38.864783833333334, "rental_uris": {"ios": "https://dc.lft.to/lastmile_qr_scan", "android": "https://dc.lft.to/lastmile_qr_scan"}, "is_reserved": 0, "fusion_lon": 0.0, "fusion_lat": 0.0, "lon": -76.98241016666667, "name": "b52499e80fbfca6a2faeb48b5d144901"}, {"bike_id": "bbc4ad850deda34328b71f55c549a2e4", "type": "electric_scooter", "is_disabled": 0, "lat": 38.90038366666667, "rental_uris": {"ios": "https://dc.lft.to/lastmile_qr_scan", "android": "https://dc.lft.to/lastmile_qr_scan"}, "is_reserved": 0, "fusion_lon": 0.0, "fusion_lat": 0.0, "lon": -76.9993875, "name": "bbc4ad850deda34328b71f55c549a2e4"}, {"bike_id": "12924d239d7df24c7439a4b024a7abfa", "type": "electric_scooter", "is_disabled": 0, "lat": 38.86248916666667, "rental_uris": {"ios": "https://dc.lft.to/lastmile_qr_scan", "android": "https://dc.lft.to/lastmile_qr_scan"}, "is_reserved": 0, "fusion_lon": 0.0, "fusion_lat": 0.0, "lon": -76.99502516666666, "name": "12924d239d7df24c7439a4b024a7abfa"}, {"bike_id": "442e88eb0e52ae675b47121f163e8c78", "type": "electric_scooter", "is_disabled": 0, "lat": 38.905385, "rental_uris": {"ios": "https://dc.lft.to/lastmile_qr_scan", "android": "https://dc.lft.to/lastmile_qr_scan"}, "is_reserved": 0, "fusion_lon": 0.0, "fusion_lat": 0.0, "lon": -77.04832316666666, "name": "442e88eb0e52ae675b47121f163e8c78"}, {"bike_id": "eda7ce02d6bfc8c4ee1a6d09eaad67c3", "type": "electric_scooter", "is_disabled": 0, "lat": 38.93952266666667, "rental_uris": {"ios": "https://dc.lft.to/lastmile_qr_scan", "android": "https://dc.lft.to/lastmile_qr_scan"}, "is_reserved": 0, "fusion_lon": 0.0, "fusion_lat": 0.0, "lon": -77.07259633333334, "name": "eda7ce02d6bfc8c4ee1a6d09eaad67c3"}, {"bike_id": "5e4cfbeafeb0ee7b1d99b927eb37b641", "type": "electric_scooter", "is_disabled": 0, "lat": 38.91902133333333, "rental_uris": {"ios": "https://dc.lft.to/lastmile_qr_scan", "android": "https://dc.lft.to/lastmile_qr_scan"}, "is_reserved": 0, "fusion_lon": 0.0, "fusion_lat": 0.0, "lon": -77.04621166666666, "name": "5e4cfbeafeb0ee7b1d99b927eb37b641"}, {"bike_id": "e032c34f98c5a9dc5f515d935c7eebbc", "type": "electric_scooter", "is_disabled": 0, "lat": 38.922844166666664, "rental_uris": {"ios": "https://dc.lft.to/lastmile_qr_scan", "android": "https://dc.lft.to/lastmile_qr_scan"}, "is_reserved": 0, "fusion_lon": 0.0, "fusion_lat": 0.0, "lon": -77.04467083333333, "name": "e032c34f98c5a9dc5f515d935c7eebbc"}, {"bike_id": "2a058f8b8ca01272e392e9b1f697dd58", "type": "electric_scooter", "is_disabled": 0, "lat": 38.900430166666666, "rental_uris": {"ios": "https://dc.lft.to/lastmile_qr_scan", "android": "https://dc.lft.to/lastmile_qr_scan"}, "is_reserved": 0, "fusion_lon": 0.0, "fusion_lat": 0.0, "lon": -76.98558816666667, "name": "2a058f8b8ca01272e392e9b1f697dd58"}, {"bike_id": "a36784aaede755ee4577f0bfb16bc29c", "type": "electric_scooter", "is_disabled": 0, "lat": 38.887195166666665, "rental_uris": {"ios": "https://dc.lft.to/lastmile_qr_scan", "android": "https://dc.lft.to/lastmile_qr_scan"}, "is_reserved": 0, "fusion_lon": 0.0, "fusion_lat": 0.0, "lon": -77.02211233333334, "name": "a36784aaede755ee4577f0bfb16bc29c"}, {"bike_id": "3ede67da9a4326a200b18e4151d39d18", "type": "electric_scooter", "is_disabled": 0, "lat": 38.891157666666665, "rental_uris": {"ios": "https://dc.lft.to/lastmile_qr_scan", "android": "https://dc.lft.to/lastmile_qr_scan"}, "is_reserved": 0, "fusion_lon": 0.0, "fusion_lat": 0.0, "lon": -76.9916525, "name": "3ede67da9a4326a200b18e4151d39d18"}, {"bike_id": "8946e31cbf30b78826562cd77a58d2c0", "type": "electric_scooter", "is_disabled": 0, "lat": 38.89925516666667, "rental_uris": {"ios": "https://dc.lft.to/lastmile_qr_scan", "android": "https://dc.lft.to/lastmile_qr_scan"}, "is_reserved": 0, "fusion_lon": 0.0, "fusion_lat": 0.0, "lon": -77.05368233333333, "name": "8946e31cbf30b78826562cd77a58d2c0"}, {"bike_id": "363d3bb3fa3b9bf97bfde9f185f6d6ee", "type": "electric_bike", "is_disabled": 0, "lat": 38.9225965, "rental_uris": {"ios": "https://dc.lft.to/lastmile_qr_scan", "android": "https://dc.lft.to/lastmile_qr_scan"}, "is_reserved": 0, "fusion_lon": 0.0, "fusion_lat": 0.0, "lon": -77.01950966666666, "name": "363d3bb3fa3b9bf97bfde9f185f6d6ee"}, {"bike_id": "aaedbdc54399afc1d3caac8939e53912", "type": "electric_scooter", "is_disabled": 0, "lat": 38.90695016666667, "rental_uris": {"ios": "https://dc.lft.to/lastmile_qr_scan", "android": "https://dc.lft.to/lastmile_qr_scan"}, "is_reserved": 0, "fusion_lon": 0.0, "fusion_lat": 0.0, "lon": -77.01632833333333, "name": "aaedbdc54399afc1d3caac8939e53912"}, {"bike_id": "a3b6bfb4f28ee4f50581f4c393c2262e", "type": "electric_scooter", "is_disabled": 0, "lat": 38.93011283333333, "rental_uris": {"ios": "https://dc.lft.to/lastmile_qr_scan", "android": "https://dc.lft.to/lastmile_qr_scan"}, "is_reserved": 0, "fusion_lon": 0.0, "fusion_lat": 0.0, "lon": -77.01437066666666, "name": "a3b6bfb4f28ee4f50581f4c393c2262e"}, {"bike_id": "dd92dda02cb860858c7a99f06f0ecad0", "type": "electric_scooter", "is_disabled": 0, "lat": 38.900591, "rental_uris": {"ios": "https://dc.lft.to/lastmile_qr_scan", "android": "https://dc.lft.to/lastmile_qr_scan"}, "is_reserved": 0, "fusion_lon": 0.0, "fusion_lat": 0.0, "lon": -76.9347365, "name": "dd92dda02cb860858c7a99f06f0ecad0"}, {"bike_id": "2de76ec503bde1299631a5c86b9752d5", "type": "electric_scooter", "is_disabled": 0, "lat": 38.90576083333333, "rental_uris": {"ios": "https://dc.lft.to/lastmile_qr_scan", "android": "https://dc.lft.to/lastmile_qr_scan"}, "is_reserved": 0, "fusion_lon": 0.0, "fusion_lat": 0.0, "lon": -77.0221335, "name": "2de76ec503bde1299631a5c86b9752d5"}, {"bike_id": "8e4302e51686cd8100a23d143201b9ad", "type": "electric_scooter", "is_disabled": 0, "lat": 38.9369265, "rental_uris": {"ios": "https://dc.lft.to/lastmile_qr_scan", "android": "https://dc.lft.to/lastmile_qr_scan"}, "is_reserved": 0, "fusion_lon": 0.0, "fusion_lat": 0.0, "lon": -77.03290316666667, "name": "8e4302e51686cd8100a23d143201b9ad"}, {"bike_id": "77e2997e577ccb41b194321101c0f305", "type": "electric_bike", "is_disabled": 0, "lat": 38.853192166666666, "rental_uris": {"ios": "https://dc.lft.to/lastmile_qr_scan", "android": "https://dc.lft.to/lastmile_qr_scan"}, "is_reserved": 0, "fusion_lon": 0.0, "fusion_lat": 0.0, "lon": -76.98012116666666, "name": "77e2997e577ccb41b194321101c0f305"}, {"bike_id": "267be157cc3f8a84194d16ae7216c209", "type": "electric_bike", "is_disabled": 0, "lat": 39.05789983333333, "rental_uris": {"ios": "https://dc.lft.to/lastmile_qr_scan", "android": "https://dc.lft.to/lastmile_qr_scan"}, "is_reserved": 0, "fusion_lon": 0.0, "fusion_lat": 0.0, "lon": -77.15024966666667, "name": "267be157cc3f8a84194d16ae7216c209"}, {"bike_id": "21ce9bc726e20331de4d49017896a799", "type": "electric_scooter", "is_disabled": 0, "lat": 38.92393833333333, "rental_uris": {"ios": "https://dc.lft.to/lastmile_qr_scan", "android": "https://dc.lft.to/lastmile_qr_scan"}, "is_reserved": 0, "fusion_lon": 0.0, "fusion_lat": 0.0, "lon": -77.0192495, "name": "21ce9bc726e20331de4d49017896a799"}, {"bike_id": "0cbc0b9b3bade22c512297751c0a352b", "type": "electric_scooter", "is_disabled": 0, "lat": 38.9219055, "rental_uris": {"ios": "https://dc.lft.to/lastmile_qr_scan", "android": "https://dc.lft.to/lastmile_qr_scan"}, "is_reserved": 0, "fusion_lon": 0.0, "fusion_lat": 0.0, "lon": -76.99366083333334, "name": "0cbc0b9b3bade22c512297751c0a352b"}, {"bike_id": "ebedaf022c52ec5c3168dcf2b8fdef60", "type": "electric_scooter", "is_disabled": 0, "lat": 38.912916833333334, "rental_uris": {"ios": "https://dc.lft.to/lastmile_qr_scan", "android": "https://dc.lft.to/lastmile_qr_scan"}, "is_reserved": 0, "fusion_lon": 0.0, "fusion_lat": 0.0, "lon": -77.01977983333333, "name": "ebedaf022c52ec5c3168dcf2b8fdef60"}, {"bike_id": "7736847777e40af80b5c749871208b04", "type": "electric_scooter", "is_disabled": 0, "lat": 38.85703383333333, "rental_uris": {"ios": "https://dc.lft.to/lastmile_qr_scan", "android": "https://dc.lft.to/lastmile_qr_scan"}, "is_reserved": 0, "fusion_lon": 0.0, "fusion_lat": 0.0, "lon": -76.98963516666667, "name": "7736847777e40af80b5c749871208b04"}, {"bike_id": "5bbcef11da6362a53d16adec6dc908d8", "type": "electric_scooter", "is_disabled": 0, "lat": 38.85202783333333, "rental_uris": {"ios": "https://dc.lft.to/lastmile_qr_scan", "android": "https://dc.lft.to/lastmile_qr_scan"}, "is_reserved": 0, "fusion_lon": 0.0, "fusion_lat": 0.0, "lon": -76.9856265, "name": "5bbcef11da6362a53d16adec6dc908d8"}, {"bike_id": "dd761f6226902906d69f8d3e192332ce", "type": "electric_scooter", "is_disabled": 0, "lat": 38.8967035, "rental_uris": {"ios": "https://dc.lft.to/lastmile_qr_scan", "android": "https://dc.lft.to/lastmile_qr_scan"}, "is_reserved": 0, "fusion_lon": 0.0, "fusion_lat": 0.0, "lon": -76.98823133333333, "name": "dd761f6226902906d69f8d3e192332ce"}, {"bike_id": "e741306e7d15b5560ef53d6f00e3dbc0", "type": "electric_scooter", "is_disabled": 0, "lat": 38.9004225, "rental_uris": {"ios": "https://dc.lft.to/lastmile_qr_scan", "android": "https://dc.lft.to/lastmile_qr_scan"}, "is_reserved": 0, "fusion_lon": 0.0, "fusion_lat": 0.0, "lon": -76.98840316666667, "name": "e741306e7d15b5560ef53d6f00e3dbc0"}, {"bike_id": "edd19065422ea8f95dc80d0bcbc25133", "type": "electric_scooter", "is_disabled": 0, "lat": 38.8801575, "rental_uris": {"ios": "https://dc.lft.to/lastmile_qr_scan", "android": "https://dc.lft.to/lastmile_qr_scan"}, "is_reserved": 0, "fusion_lon": 0.0, "fusion_lat": 0.0, "lon": -77.02486466666667, "name": "edd19065422ea8f95dc80d0bcbc25133"}, {"bike_id": "8b4b0fae0218966652dedf6b81c42d4d", "type": "electric_scooter", "is_disabled": 0, "lat": 38.870743, "rental_uris": {"ios": "https://dc.lft.to/lastmile_qr_scan", "android": "https://dc.lft.to/lastmile_qr_scan"}, "is_reserved": 0, "fusion_lon": 0.0, "fusion_lat": 0.0, "lon": -76.98904366666666, "name": "8b4b0fae0218966652dedf6b81c42d4d"}, {"bike_id": "6c1f0dcba609a06ef7850a11135a4202", "type": "electric_scooter", "is_disabled": 0, "lat": 38.91076666666667, "rental_uris": {"ios": "https://dc.lft.to/lastmile_qr_scan", "android": "https://dc.lft.to/lastmile_qr_scan"}, "is_reserved": 0, "fusion_lon": 0.0, "fusion_lat": 0.0, "lon": -77.03838316666666, "name": "6c1f0dcba609a06ef7850a11135a4202"}, {"bike_id": "8d4d5a9deaea4c3642cba59365761fd3", "type": "electric_scooter", "is_disabled": 0, "lat": 38.92317366666666, "rental_uris": {"ios": "https://dc.lft.to/lastmile_qr_scan", "android": "https://dc.lft.to/lastmile_qr_scan"}, "is_reserved": 0, "fusion_lon": 0.0, "fusion_lat": 0.0, "lon": -77.040461, "name": "8d4d5a9deaea4c3642cba59365761fd3"}, {"bike_id": "53d34de8c82a876ca69238dac3908d34", "type": "electric_scooter", "is_disabled": 0, "lat": 38.906826, "rental_uris": {"ios": "https://dc.lft.to/lastmile_qr_scan", "android": "https://dc.lft.to/lastmile_qr_scan"}, "is_reserved": 0, "fusion_lon": 0.0, "fusion_lat": 0.0, "lon": -77.0716705, "name": "53d34de8c82a876ca69238dac3908d34"}, {"bike_id": "2d89fef8a714ba1938ba1a29ba8693f4", "type": "electric_scooter", "is_disabled": 0, "lat": 38.91706083333333, "rental_uris": {"ios": "https://dc.lft.to/lastmile_qr_scan", "android": "https://dc.lft.to/lastmile_qr_scan"}, "is_reserved": 0, "fusion_lon": 0.0, "fusion_lat": 0.0, "lon": -77.02313516666666, "name": "2d89fef8a714ba1938ba1a29ba8693f4"}, {"bike_id": "f77f3e1a8039e420771d872ed94113b7", "type": "electric_scooter", "is_disabled": 0, "lat": 38.9321425, "rental_uris": {"ios": "https://dc.lft.to/lastmile_qr_scan", "android": "https://dc.lft.to/lastmile_qr_scan"}, "is_reserved": 0, "fusion_lon": 0.0, "fusion_lat": 0.0, "lon": -77.02390316666667, "name": "f77f3e1a8039e420771d872ed94113b7"}, {"bike_id": "bb509b2ed420dab3640a5e1b1af1aa52", "type": "electric_scooter", "is_disabled": 0, "lat": 38.91368333333333, "rental_uris": {"ios": "https://dc.lft.to/lastmile_qr_scan", "android": "https://dc.lft.to/lastmile_qr_scan"}, "is_reserved": 0, "fusion_lon": 0.0, "fusion_lat": 0.0, "lon": -77.045008, "name": "bb509b2ed420dab3640a5e1b1af1aa52"}, {"bike_id": "cc15d8c56c9c090987ef27f8c617ae6f", "type": "electric_scooter", "is_disabled": 0, "lat": 38.903346166666665, "rental_uris": {"ios": "https://dc.lft.to/lastmile_qr_scan", "android": "https://dc.lft.to/lastmile_qr_scan"}, "is_reserved": 0, "fusion_lon": 0.0, "fusion_lat": 0.0, "lon": -76.9759045, "name": "cc15d8c56c9c090987ef27f8c617ae6f"}, {"bike_id": "56e2d7f352552586bb55c6c8b924234f", "type": "electric_scooter", "is_disabled": 0, "lat": 38.917030833333335, "rental_uris": {"ios": "https://dc.lft.to/lastmile_qr_scan", "android": "https://dc.lft.to/lastmile_qr_scan"}, "is_reserved": 0, "fusion_lon": 0.0, "fusion_lat": 0.0, "lon": -77.0417535, "name": "56e2d7f352552586bb55c6c8b924234f"}, {"bike_id": "3759fd59d003550870a4dacc5583645b", "type": "electric_scooter", "is_disabled": 0, "lat": 38.900189, "rental_uris": {"ios": "https://dc.lft.to/lastmile_qr_scan", "android": "https://dc.lft.to/lastmile_qr_scan"}, "is_reserved": 0, "fusion_lon": 0.0, "fusion_lat": 0.0, "lon": -77.0010545, "name": "3759fd59d003550870a4dacc5583645b"}, {"bike_id": "fedd2bdd3318d196dbd3181e214ac958", "type": "electric_scooter", "is_disabled": 0, "lat": 38.90869383333333, "rental_uris": {"ios": "https://dc.lft.to/lastmile_qr_scan", "android": "https://dc.lft.to/lastmile_qr_scan"}, "is_reserved": 0, "fusion_lon": 0.0, "fusion_lat": 0.0, "lon": -77.03566633333334, "name": "fedd2bdd3318d196dbd3181e214ac958"}, {"bike_id": "eaff2dbc582c0cc69815ac987f553aa0", "type": "electric_scooter", "is_disabled": 0, "lat": 38.911921166666666, "rental_uris": {"ios": "https://dc.lft.to/lastmile_qr_scan", "android": "https://dc.lft.to/lastmile_qr_scan"}, "is_reserved": 0, "fusion_lon": 0.0, "fusion_lat": 0.0, "lon": -77.03292033333334, "name": "eaff2dbc582c0cc69815ac987f553aa0"}, {"bike_id": "64f7c3a97b0852923c40654984c15f90", "type": "electric_scooter", "is_disabled": 0, "lat": 38.92367566666667, "rental_uris": {"ios": "https://dc.lft.to/lastmile_qr_scan", "android": "https://dc.lft.to/lastmile_qr_scan"}, "is_reserved": 0, "fusion_lon": 0.0, "fusion_lat": 0.0, "lon": -77.0431765, "name": "64f7c3a97b0852923c40654984c15f90"}, {"bike_id": "2f1cbd6cf6fc4be7c6195e4094f2d520", "type": "electric_scooter", "is_disabled": 0, "lat": 38.89970233333333, "rental_uris": {"ios": "https://dc.lft.to/lastmile_qr_scan", "android": "https://dc.lft.to/lastmile_qr_scan"}, "is_reserved": 0, "fusion_lon": 0.0, "fusion_lat": 0.0, "lon": -77.05268683333334, "name": "2f1cbd6cf6fc4be7c6195e4094f2d520"}, {"bike_id": "6c741d453d5db9ca2a4c03584523bde2", "type": "electric_scooter", "is_disabled": 0, "lat": 38.89728516666667, "rental_uris": {"ios": "https://dc.lft.to/lastmile_qr_scan", "android": "https://dc.lft.to/lastmile_qr_scan"}, "is_reserved": 0, "fusion_lon": 0.0, "fusion_lat": 0.0, "lon": -77.03330866666667, "name": "6c741d453d5db9ca2a4c03584523bde2"}, {"bike_id": "689a5074f201831ccb4986f5d72bfa57", "type": "electric_scooter", "is_disabled": 0, "lat": 38.90452883333333, "rental_uris": {"ios": "https://dc.lft.to/lastmile_qr_scan", "android": "https://dc.lft.to/lastmile_qr_scan"}, "is_reserved": 0, "fusion_lon": 0.0, "fusion_lat": 0.0, "lon": -77.04846366666666, "name": "689a5074f201831ccb4986f5d72bfa57"}, {"bike_id": "e85c6ab7ccc0ecc7a92455396460489e", "type": "electric_scooter", "is_disabled": 0, "lat": 38.9247645, "rental_uris": {"ios": "https://dc.lft.to/lastmile_qr_scan", "android": "https://dc.lft.to/lastmile_qr_scan"}, "is_reserved": 0, "fusion_lon": 0.0, "fusion_lat": 0.0, "lon": -77.02230383333334, "name": "e85c6ab7ccc0ecc7a92455396460489e"}, {"bike_id": "734b2cd02a7526c2ad1036f674b0ee66", "type": "electric_scooter", "is_disabled": 0, "lat": 38.91568266666667, "rental_uris": {"ios": "https://dc.lft.to/lastmile_qr_scan", "android": "https://dc.lft.to/lastmile_qr_scan"}, "is_reserved": 0, "fusion_lon": 0.0, "fusion_lat": 0.0, "lon": -77.03872083333333, "name": "734b2cd02a7526c2ad1036f674b0ee66"}, {"bike_id": "79df52a9b64013042f904fea43e9af74", "type": "electric_scooter", "is_disabled": 0, "lat": 38.914836666666666, "rental_uris": {"ios": "https://dc.lft.to/lastmile_qr_scan", "android": "https://dc.lft.to/lastmile_qr_scan"}, "is_reserved": 0, "fusion_lon": 0.0, "fusion_lat": 0.0, "lon": -77.02182583333334, "name": "79df52a9b64013042f904fea43e9af74"}, {"bike_id": "171a5c0dd9f62fa6c7ec941294c2a128", "type": "electric_scooter", "is_disabled": 0, "lat": 38.95901216666667, "rental_uris": {"ios": "https://dc.lft.to/lastmile_qr_scan", "android": "https://dc.lft.to/lastmile_qr_scan"}, "is_reserved": 0, "fusion_lon": 0.0, "fusion_lat": 0.0, "lon": -77.08595616666666, "name": "171a5c0dd9f62fa6c7ec941294c2a128"}, {"bike_id": "559a896c53c84cb39d521298c3001557", "type": "electric_scooter", "is_disabled": 0, "lat": 38.8708325, "rental_uris": {"ios": "https://dc.lft.to/lastmile_qr_scan", "android": "https://dc.lft.to/lastmile_qr_scan"}, "is_reserved": 0, "fusion_lon": 0.0, "fusion_lat": 0.0, "lon": -77.011862, "name": "559a896c53c84cb39d521298c3001557"}, {"bike_id": "fef0f1581a13037c0dd758b9d47d47e1", "type": "electric_scooter", "is_disabled": 0, "lat": 38.8738345, "rental_uris": {"ios": "https://dc.lft.to/lastmile_qr_scan", "android": "https://dc.lft.to/lastmile_qr_scan"}, "is_reserved": 0, "fusion_lon": 0.0, "fusion_lat": 0.0, "lon": -77.00151983333333, "name": "fef0f1581a13037c0dd758b9d47d47e1"}, {"bike_id": "cbf3f572d572b145a174ab0657d29f38", "type": "electric_scooter", "is_disabled": 0, "lat": 38.94516516666667, "rental_uris": {"ios": "https://dc.lft.to/lastmile_qr_scan", "android": "https://dc.lft.to/lastmile_qr_scan"}, "is_reserved": 0, "fusion_lon": 0.0, "fusion_lat": 0.0, "lon": -77.03379183333334, "name": "cbf3f572d572b145a174ab0657d29f38"}, {"bike_id": "a5cfbb98c8e9429ec48099baa1d29a67", "type": "electric_scooter", "is_disabled": 0, "lat": 38.90487, "rental_uris": {"ios": "https://dc.lft.to/lastmile_qr_scan", "android": "https://dc.lft.to/lastmile_qr_scan"}, "is_reserved": 0, "fusion_lon": 0.0, "fusion_lat": 0.0, "lon": -77.05343283333333, "name": "a5cfbb98c8e9429ec48099baa1d29a67"}, {"bike_id": "e20b43b1125a30c4afd786757eccc0ac", "type": "electric_scooter", "is_disabled": 0, "lat": 38.89889433333333, "rental_uris": {"ios": "https://dc.lft.to/lastmile_qr_scan", "android": "https://dc.lft.to/lastmile_qr_scan"}, "is_reserved": 0, "fusion_lon": 0.0, "fusion_lat": 0.0, "lon": -77.0151295, "name": "e20b43b1125a30c4afd786757eccc0ac"}, {"bike_id": "87410bddcc2869e7c866f3c7c9844a83", "type": "electric_bike", "is_disabled": 0, "lat": 39.0505545, "rental_uris": {"ios": "https://dc.lft.to/lastmile_qr_scan", "android": "https://dc.lft.to/lastmile_qr_scan"}, "is_reserved": 0, "fusion_lon": 0.0, "fusion_lat": 0.0, "lon": -77.05149933333334, "name": "87410bddcc2869e7c866f3c7c9844a83"}, {"bike_id": "2fd9785880eeea1005ac3a9e3d576586", "type": "electric_scooter", "is_disabled": 0, "lat": 38.897944333333335, "rental_uris": {"ios": "https://dc.lft.to/lastmile_qr_scan", "android": "https://dc.lft.to/lastmile_qr_scan"}, "is_reserved": 0, "fusion_lon": 0.0, "fusion_lat": 0.0, "lon": -77.01204183333333, "name": "2fd9785880eeea1005ac3a9e3d576586"}, {"bike_id": "d72af8d99ac6fe79378673ba7c40b42a", "type": "electric_bike", "is_disabled": 0, "lat": 38.83241366666667, "rental_uris": {"ios": "https://dc.lft.to/lastmile_qr_scan", "android": "https://dc.lft.to/lastmile_qr_scan"}, "is_reserved": 0, "fusion_lon": 0.0, "fusion_lat": 0.0, "lon": -76.94631366666667, "name": "d72af8d99ac6fe79378673ba7c40b42a"}, {"bike_id": "88bdebf74f922a711589fb1c103a0b0e", "type": "electric_scooter", "is_disabled": 0, "lat": 38.90433216666667, "rental_uris": {"ios": "https://dc.lft.to/lastmile_qr_scan", "android": "https://dc.lft.to/lastmile_qr_scan"}, "is_reserved": 0, "fusion_lon": 0.0, "fusion_lat": 0.0, "lon": -77.02778483333333, "name": "88bdebf74f922a711589fb1c103a0b0e"}, {"bike_id": "841e104ecd990ade7806d6a37bf8f84f", "type": "electric_scooter", "is_disabled": 0, "lat": 38.8709495, "rental_uris": {"ios": "https://dc.lft.to/lastmile_qr_scan", "android": "https://dc.lft.to/lastmile_qr_scan"}, "is_reserved": 0, "fusion_lon": 0.0, "fusion_lat": 0.0, "lon": -77.0111525, "name": "841e104ecd990ade7806d6a37bf8f84f"}, {"bike_id": "a0fccd62da2defcc2826f8038cba0b05", "type": "electric_scooter", "is_disabled": 0, "lat": 38.904128166666666, "rental_uris": {"ios": "https://dc.lft.to/lastmile_qr_scan", "android": "https://dc.lft.to/lastmile_qr_scan"}, "is_reserved": 0, "fusion_lon": 0.0, "fusion_lat": 0.0, "lon": -76.973338, "name": "a0fccd62da2defcc2826f8038cba0b05"}, {"bike_id": "a016f4bfcdf79a9e25f96c40413fd8dc", "type": "electric_scooter", "is_disabled": 0, "lat": 38.918195833333336, "rental_uris": {"ios": "https://dc.lft.to/lastmile_qr_scan", "android": "https://dc.lft.to/lastmile_qr_scan"}, "is_reserved": 0, "fusion_lon": 0.0, "fusion_lat": 0.0, "lon": -77.03313683333333, "name": "a016f4bfcdf79a9e25f96c40413fd8dc"}, {"bike_id": "3e7e2a577bec4abb41d267069e5e49be", "type": "electric_scooter", "is_disabled": 0, "lat": 38.91419583333333, "rental_uris": {"ios": "https://dc.lft.to/lastmile_qr_scan", "android": "https://dc.lft.to/lastmile_qr_scan"}, "is_reserved": 0, "fusion_lon": 0.0, "fusion_lat": 0.0, "lon": -77.02984216666667, "name": "3e7e2a577bec4abb41d267069e5e49be"}, {"bike_id": "9a416ed7666999c3d26c5d8ac12fb220", "type": "electric_scooter", "is_disabled": 0, "lat": 38.905006166666666, "rental_uris": {"ios": "https://dc.lft.to/lastmile_qr_scan", "android": "https://dc.lft.to/lastmile_qr_scan"}, "is_reserved": 0, "fusion_lon": 0.0, "fusion_lat": 0.0, "lon": -77.05812583333334, "name": "9a416ed7666999c3d26c5d8ac12fb220"}, {"bike_id": "ed85b9ac8483eff6e820d4205e840feb", "type": "electric_scooter", "is_disabled": 0, "lat": 38.90081833333333, "rental_uris": {"ios": "https://dc.lft.to/lastmile_qr_scan", "android": "https://dc.lft.to/lastmile_qr_scan"}, "is_reserved": 0, "fusion_lon": 0.0, "fusion_lat": 0.0, "lon": -77.04657716666667, "name": "ed85b9ac8483eff6e820d4205e840feb"}, {"bike_id": "eaf5d50a16cdbc1b0569f36da3ce1ef5", "type": "electric_scooter", "is_disabled": 0, "lat": 38.932550666666664, "rental_uris": {"ios": "https://dc.lft.to/lastmile_qr_scan", "android": "https://dc.lft.to/lastmile_qr_scan"}, "is_reserved": 0, "fusion_lon": 0.0, "fusion_lat": 0.0, "lon": -77.038532, "name": "eaf5d50a16cdbc1b0569f36da3ce1ef5"}, {"bike_id": "82679132708293ddb8f4baf237418dda", "type": "electric_scooter", "is_disabled": 0, "lat": 38.8938615, "rental_uris": {"ios": "https://dc.lft.to/lastmile_qr_scan", "android": "https://dc.lft.to/lastmile_qr_scan"}, "is_reserved": 0, "fusion_lon": 0.0, "fusion_lat": 0.0, "lon": -77.028113, "name": "82679132708293ddb8f4baf237418dda"}, {"bike_id": "56940f576ab71228b62a3eaf927efac4", "type": "electric_scooter", "is_disabled": 0, "lat": 38.900187333333335, "rental_uris": {"ios": "https://dc.lft.to/lastmile_qr_scan", "android": "https://dc.lft.to/lastmile_qr_scan"}, "is_reserved": 0, "fusion_lon": 0.0, "fusion_lat": 0.0, "lon": -77.045035, "name": "56940f576ab71228b62a3eaf927efac4"}, {"bike_id": "a32735dbf4bc4832ae43858d5cb6c3ff", "type": "electric_scooter", "is_disabled": 0, "lat": 38.93545983333333, "rental_uris": {"ios": "https://dc.lft.to/lastmile_qr_scan", "android": "https://dc.lft.to/lastmile_qr_scan"}, "is_reserved": 0, "fusion_lon": 0.0, "fusion_lat": 0.0, "lon": -77.05824816666667, "name": "a32735dbf4bc4832ae43858d5cb6c3ff"}, {"bike_id": "b67b612937b6659c44cedb12585f77c1", "type": "electric_bike", "is_disabled": 0, "lat": 38.90707, "rental_uris": {"ios": "https://dc.lft.to/lastmile_qr_scan", "android": "https://dc.lft.to/lastmile_qr_scan"}, "is_reserved": 0, "fusion_lon": 0.0, "fusion_lat": 0.0, "lon": -77.031088, "name": "b67b612937b6659c44cedb12585f77c1"}, {"bike_id": "f868a6eb5ff5c48add1961e822579ea7", "type": "electric_scooter", "is_disabled": 0, "lat": 38.912799, "rental_uris": {"ios": "https://dc.lft.to/lastmile_qr_scan", "android": "https://dc.lft.to/lastmile_qr_scan"}, "is_reserved": 0, "fusion_lon": 0.0, "fusion_lat": 0.0, "lon": -77.02249583333334, "name": "f868a6eb5ff5c48add1961e822579ea7"}, {"bike_id": "a53ca139cae7f224acd1679e0f3bb547", "type": "electric_scooter", "is_disabled": 0, "lat": 38.8934675, "rental_uris": {"ios": "https://dc.lft.to/lastmile_qr_scan", "android": "https://dc.lft.to/lastmile_qr_scan"}, "is_reserved": 0, "fusion_lon": 0.0, "fusion_lat": 0.0, "lon": -77.0242325, "name": "a53ca139cae7f224acd1679e0f3bb547"}, {"bike_id": "da5b403b7cfb2bd91f8152727e526322", "type": "electric_scooter", "is_disabled": 0, "lat": 38.93877333333333, "rental_uris": {"ios": "https://dc.lft.to/lastmile_qr_scan", "android": "https://dc.lft.to/lastmile_qr_scan"}, "is_reserved": 0, "fusion_lon": 0.0, "fusion_lat": 0.0, "lon": -77.02924533333334, "name": "da5b403b7cfb2bd91f8152727e526322"}, {"bike_id": "6e37f69f590c8ca09cd2b1f2688dea43", "type": "electric_scooter", "is_disabled": 0, "lat": 38.935256833333334, "rental_uris": {"ios": "https://dc.lft.to/lastmile_qr_scan", "android": "https://dc.lft.to/lastmile_qr_scan"}, "is_reserved": 0, "fusion_lon": 0.0, "fusion_lat": 0.0, "lon": -77.0296895, "name": "6e37f69f590c8ca09cd2b1f2688dea43"}, {"bike_id": "7bde623af329e074288ec984be2f5bdb", "type": "electric_scooter", "is_disabled": 0, "lat": 38.97179033333333, "rental_uris": {"ios": "https://dc.lft.to/lastmile_qr_scan", "android": "https://dc.lft.to/lastmile_qr_scan"}, "is_reserved": 0, "fusion_lon": 0.0, "fusion_lat": 0.0, "lon": -77.02653566666666, "name": "7bde623af329e074288ec984be2f5bdb"}, {"bike_id": "1d77b70f5fa08a298ec00baec86fc4bf", "type": "electric_scooter", "is_disabled": 0, "lat": 38.909128, "rental_uris": {"ios": "https://dc.lft.to/lastmile_qr_scan", "android": "https://dc.lft.to/lastmile_qr_scan"}, "is_reserved": 0, "fusion_lon": 0.0, "fusion_lat": 0.0, "lon": -77.02394816666667, "name": "1d77b70f5fa08a298ec00baec86fc4bf"}, {"bike_id": "d955d4b7a64f01faf25ad41f8157d636", "type": "electric_scooter", "is_disabled": 0, "lat": 38.906403833333336, "rental_uris": {"ios": "https://dc.lft.to/lastmile_qr_scan", "android": "https://dc.lft.to/lastmile_qr_scan"}, "is_reserved": 0, "fusion_lon": 0.0, "fusion_lat": 0.0, "lon": -77.0102795, "name": "d955d4b7a64f01faf25ad41f8157d636"}, {"bike_id": "49cab8626158f6b9e6772d0e1341e1ba", "type": "electric_bike", "is_disabled": 0, "lat": 38.952525333333334, "rental_uris": {"ios": "https://dc.lft.to/lastmile_qr_scan", "android": "https://dc.lft.to/lastmile_qr_scan"}, "is_reserved": 0, "fusion_lon": 0.0, "fusion_lat": 0.0, "lon": -76.97678766666667, "name": "49cab8626158f6b9e6772d0e1341e1ba"}, {"bike_id": "9163c6f78516d9ff1d6b94f1a729129c", "type": "electric_scooter", "is_disabled": 0, "lat": 38.92048616666667, "rental_uris": {"ios": "https://dc.lft.to/lastmile_qr_scan", "android": "https://dc.lft.to/lastmile_qr_scan"}, "is_reserved": 0, "fusion_lon": 0.0, "fusion_lat": 0.0, "lon": -77.03475766666666, "name": "9163c6f78516d9ff1d6b94f1a729129c"}, {"bike_id": "6ce9128eda2db30edd4cd214566a9014", "type": "electric_scooter", "is_disabled": 0, "lat": 38.9285575, "rental_uris": {"ios": "https://dc.lft.to/lastmile_qr_scan", "android": "https://dc.lft.to/lastmile_qr_scan"}, "is_reserved": 0, "fusion_lon": 0.0, "fusion_lat": 0.0, "lon": -77.01958166666667, "name": "6ce9128eda2db30edd4cd214566a9014"}, {"bike_id": "09213030c30c20290fd283321cce5ea9", "type": "electric_bike", "is_disabled": 0, "lat": 38.9004785, "rental_uris": {"ios": "https://dc.lft.to/lastmile_qr_scan", "android": "https://dc.lft.to/lastmile_qr_scan"}, "is_reserved": 0, "fusion_lon": 0.0, "fusion_lat": 0.0, "lon": -76.99023016666666, "name": "09213030c30c20290fd283321cce5ea9"}, {"bike_id": "3171035a949bd5ae9353e1f04ec705f1", "type": "electric_scooter", "is_disabled": 0, "lat": 38.9209715, "rental_uris": {"ios": "https://dc.lft.to/lastmile_qr_scan", "android": "https://dc.lft.to/lastmile_qr_scan"}, "is_reserved": 0, "fusion_lon": 0.0, "fusion_lat": 0.0, "lon": -77.02318983333333, "name": "3171035a949bd5ae9353e1f04ec705f1"}, {"bike_id": "a0966ad0a22be710cebaba6404f5b5fb", "type": "electric_scooter", "is_disabled": 0, "lat": 38.9068825, "rental_uris": {"ios": "https://dc.lft.to/lastmile_qr_scan", "android": "https://dc.lft.to/lastmile_qr_scan"}, "is_reserved": 0, "fusion_lon": 0.0, "fusion_lat": 0.0, "lon": -77.0533075, "name": "a0966ad0a22be710cebaba6404f5b5fb"}, {"bike_id": "071b8093d51ed93a71513d4c36b4f02b", "type": "electric_bike", "is_disabled": 0, "lat": 38.834336, "rental_uris": {"ios": "https://dc.lft.to/lastmile_qr_scan", "android": "https://dc.lft.to/lastmile_qr_scan"}, "is_reserved": 0, "fusion_lon": 0.0, "fusion_lat": 0.0, "lon": -77.10364383333334, "name": "071b8093d51ed93a71513d4c36b4f02b"}, {"bike_id": "a85198cd5fddb95568f8c6a4310844a3", "type": "electric_scooter", "is_disabled": 0, "lat": 38.95662166666666, "rental_uris": {"ios": "https://dc.lft.to/lastmile_qr_scan", "android": "https://dc.lft.to/lastmile_qr_scan"}, "is_reserved": 0, "fusion_lon": 0.0, "fusion_lat": 0.0, "lon": -77.01038283333334, "name": "a85198cd5fddb95568f8c6a4310844a3"}, {"bike_id": "296e1b4d9fe9a9615ed3a75313500b46", "type": "electric_scooter", "is_disabled": 0, "lat": 38.905517333333336, "rental_uris": {"ios": "https://dc.lft.to/lastmile_qr_scan", "android": "https://dc.lft.to/lastmile_qr_scan"}, "is_reserved": 0, "fusion_lon": 0.0, "fusion_lat": 0.0, "lon": -76.98857266666667, "name": "296e1b4d9fe9a9615ed3a75313500b46"}, {"bike_id": "c2600fee81bb98404537e1164cb20682", "type": "electric_scooter", "is_disabled": 0, "lat": 38.911207166666664, "rental_uris": {"ios": "https://dc.lft.to/lastmile_qr_scan", "android": "https://dc.lft.to/lastmile_qr_scan"}, "is_reserved": 0, "fusion_lon": 0.0, "fusion_lat": 0.0, "lon": -77.022384, "name": "c2600fee81bb98404537e1164cb20682"}, {"bike_id": "9a6aa2163f609d374be06f72bd0abbe8", "type": "electric_scooter", "is_disabled": 0, "lat": 38.901476, "rental_uris": {"ios": "https://dc.lft.to/lastmile_qr_scan", "android": "https://dc.lft.to/lastmile_qr_scan"}, "is_reserved": 0, "fusion_lon": 0.0, "fusion_lat": 0.0, "lon": -77.01503683333334, "name": "9a6aa2163f609d374be06f72bd0abbe8"}, {"bike_id": "d4766f54c6ab472134924a3c99309838", "type": "electric_scooter", "is_disabled": 0, "lat": 38.9640895, "rental_uris": {"ios": "https://dc.lft.to/lastmile_qr_scan", "android": "https://dc.lft.to/lastmile_qr_scan"}, "is_reserved": 0, "fusion_lon": 0.0, "fusion_lat": 0.0, "lon": -77.0277835, "name": "d4766f54c6ab472134924a3c99309838"}, {"bike_id": "58e352d618825dfaeaea8143f2214b4d", "type": "electric_bike", "is_disabled": 0, "lat": 38.966255333333336, "rental_uris": {"ios": "https://dc.lft.to/lastmile_qr_scan", "android": "https://dc.lft.to/lastmile_qr_scan"}, "is_reserved": 0, "fusion_lon": 0.0, "fusion_lat": 0.0, "lon": -77.03427233333333, "name": "58e352d618825dfaeaea8143f2214b4d"}, {"bike_id": "df52b1bba5987113d8c3d11221537dad", "type": "electric_scooter", "is_disabled": 0, "lat": 38.9081655, "rental_uris": {"ios": "https://dc.lft.to/lastmile_qr_scan", "android": "https://dc.lft.to/lastmile_qr_scan"}, "is_reserved": 0, "fusion_lon": 0.0, "fusion_lat": 0.0, "lon": -77.03950466666667, "name": "df52b1bba5987113d8c3d11221537dad"}, {"bike_id": "0cdbbc9c63e5ca975c44b456f7c7a16b", "type": "electric_scooter", "is_disabled": 0, "lat": 38.91405733333333, "rental_uris": {"ios": "https://dc.lft.to/lastmile_qr_scan", "android": "https://dc.lft.to/lastmile_qr_scan"}, "is_reserved": 0, "fusion_lon": 0.0, "fusion_lat": 0.0, "lon": -77.02659466666667, "name": "0cdbbc9c63e5ca975c44b456f7c7a16b"}, {"bike_id": "e2e9dded11a378fee362c3bcb9e4fc85", "type": "electric_scooter", "is_disabled": 0, "lat": 38.8999945, "rental_uris": {"ios": "https://dc.lft.to/lastmile_qr_scan", "android": "https://dc.lft.to/lastmile_qr_scan"}, "is_reserved": 0, "fusion_lon": 0.0, "fusion_lat": 0.0, "lon": -76.99849366666666, "name": "e2e9dded11a378fee362c3bcb9e4fc85"}, {"bike_id": "77537cafe28d1aa566002a004a74be08", "type": "electric_scooter", "is_disabled": 0, "lat": 38.91161366666667, "rental_uris": {"ios": "https://dc.lft.to/lastmile_qr_scan", "android": "https://dc.lft.to/lastmile_qr_scan"}, "is_reserved": 0, "fusion_lon": 0.0, "fusion_lat": 0.0, "lon": -77.0228915, "name": "77537cafe28d1aa566002a004a74be08"}, {"bike_id": "2622eb4ec554a67e68445e05bac0635d", "type": "electric_scooter", "is_disabled": 0, "lat": 38.90061133333333, "rental_uris": {"ios": "https://dc.lft.to/lastmile_qr_scan", "android": "https://dc.lft.to/lastmile_qr_scan"}, "is_reserved": 0, "fusion_lon": 0.0, "fusion_lat": 0.0, "lon": -76.92750466666666, "name": "2622eb4ec554a67e68445e05bac0635d"}, {"bike_id": "5153d9b9b83e5804859871eedbc31f24", "type": "electric_scooter", "is_disabled": 0, "lat": 38.93612816666667, "rental_uris": {"ios": "https://dc.lft.to/lastmile_qr_scan", "android": "https://dc.lft.to/lastmile_qr_scan"}, "is_reserved": 0, "fusion_lon": 0.0, "fusion_lat": 0.0, "lon": -77.03818166666667, "name": "5153d9b9b83e5804859871eedbc31f24"}, {"bike_id": "93d03d72ce7f748e81e8db4e6d0ba453", "type": "electric_scooter", "is_disabled": 0, "lat": 38.910512833333335, "rental_uris": {"ios": "https://dc.lft.to/lastmile_qr_scan", "android": "https://dc.lft.to/lastmile_qr_scan"}, "is_reserved": 0, "fusion_lon": 0.0, "fusion_lat": 0.0, "lon": -77.044988, "name": "93d03d72ce7f748e81e8db4e6d0ba453"}, {"bike_id": "2c2890ccdb78589128982d3c3a6154ca", "type": "electric_scooter", "is_disabled": 0, "lat": 38.873798, "rental_uris": {"ios": "https://dc.lft.to/lastmile_qr_scan", "android": "https://dc.lft.to/lastmile_qr_scan"}, "is_reserved": 0, "fusion_lon": 0.0, "fusion_lat": 0.0, "lon": -77.00152466666667, "name": "2c2890ccdb78589128982d3c3a6154ca"}, {"bike_id": "edb9cec25f20df0e1fae9d183ab1227b", "type": "electric_scooter", "is_disabled": 0, "lat": 38.952062833333336, "rental_uris": {"ios": "https://dc.lft.to/lastmile_qr_scan", "android": "https://dc.lft.to/lastmile_qr_scan"}, "is_reserved": 0, "fusion_lon": 0.0, "fusion_lat": 0.0, "lon": -77.06795433333333, "name": "edb9cec25f20df0e1fae9d183ab1227b"}, {"bike_id": "4d624a7bcd464925759d6d035324d329", "type": "electric_scooter", "is_disabled": 0, "lat": 38.9361825, "rental_uris": {"ios": "https://dc.lft.to/lastmile_qr_scan", "android": "https://dc.lft.to/lastmile_qr_scan"}, "is_reserved": 0, "fusion_lon": 0.0, "fusion_lat": 0.0, "lon": -77.06760366666667, "name": "4d624a7bcd464925759d6d035324d329"}, {"bike_id": "043c91747480ba72c40254b27c6136ee", "type": "electric_scooter", "is_disabled": 0, "lat": 38.918772, "rental_uris": {"ios": "https://dc.lft.to/lastmile_qr_scan", "android": "https://dc.lft.to/lastmile_qr_scan"}, "is_reserved": 0, "fusion_lon": 0.0, "fusion_lat": 0.0, "lon": -77.04449683333333, "name": "043c91747480ba72c40254b27c6136ee"}, {"bike_id": "93a67e7591698015970fe74fca5fde24", "type": "electric_scooter", "is_disabled": 0, "lat": 38.900386833333336, "rental_uris": {"ios": "https://dc.lft.to/lastmile_qr_scan", "android": "https://dc.lft.to/lastmile_qr_scan"}, "is_reserved": 0, "fusion_lon": 0.0, "fusion_lat": 0.0, "lon": -76.98837383333333, "name": "93a67e7591698015970fe74fca5fde24"}, {"bike_id": "404c82be13b4868dcbb881c3d956afcb", "type": "electric_scooter", "is_disabled": 0, "lat": 38.91270983333333, "rental_uris": {"ios": "https://dc.lft.to/lastmile_qr_scan", "android": "https://dc.lft.to/lastmile_qr_scan"}, "is_reserved": 0, "fusion_lon": 0.0, "fusion_lat": 0.0, "lon": -77.0446575, "name": "404c82be13b4868dcbb881c3d956afcb"}, {"bike_id": "ba0df7c501e7b49364422543ed2a140c", "type": "electric_scooter", "is_disabled": 0, "lat": 38.8998015, "rental_uris": {"ios": "https://dc.lft.to/lastmile_qr_scan", "android": "https://dc.lft.to/lastmile_qr_scan"}, "is_reserved": 0, "fusion_lon": 0.0, "fusion_lat": 0.0, "lon": -77.02136666666667, "name": "ba0df7c501e7b49364422543ed2a140c"}, {"bike_id": "8fa6d259b976a39f7001cb73dce4be9b", "type": "electric_scooter", "is_disabled": 0, "lat": 38.91301466666667, "rental_uris": {"ios": "https://dc.lft.to/lastmile_qr_scan", "android": "https://dc.lft.to/lastmile_qr_scan"}, "is_reserved": 0, "fusion_lon": 0.0, "fusion_lat": 0.0, "lon": -77.01973333333333, "name": "8fa6d259b976a39f7001cb73dce4be9b"}, {"bike_id": "ee5c0ff59470a4e7d8d22bf7cc2419ce", "type": "electric_bike", "is_disabled": 0, "lat": 38.873073833333336, "rental_uris": {"ios": "https://dc.lft.to/lastmile_qr_scan", "android": "https://dc.lft.to/lastmile_qr_scan"}, "is_reserved": 0, "fusion_lon": 0.0, "fusion_lat": 0.0, "lon": -77.1392425, "name": "ee5c0ff59470a4e7d8d22bf7cc2419ce"}, {"bike_id": "382af6e5cb540c0e39baa59d5c82a40b", "type": "electric_scooter", "is_disabled": 0, "lat": 38.9420045, "rental_uris": {"ios": "https://dc.lft.to/lastmile_qr_scan", "android": "https://dc.lft.to/lastmile_qr_scan"}, "is_reserved": 0, "fusion_lon": 0.0, "fusion_lat": 0.0, "lon": -77.02351866666666, "name": "382af6e5cb540c0e39baa59d5c82a40b"}, {"bike_id": "20e43c8bdfe996d6989ada1c1c72cced", "type": "electric_scooter", "is_disabled": 0, "lat": 38.91180083333333, "rental_uris": {"ios": "https://dc.lft.to/lastmile_qr_scan", "android": "https://dc.lft.to/lastmile_qr_scan"}, "is_reserved": 0, "fusion_lon": 0.0, "fusion_lat": 0.0, "lon": -77.00650466666667, "name": "20e43c8bdfe996d6989ada1c1c72cced"}, {"bike_id": "2987c48f7a8519d1ac34be20499a8153", "type": "electric_scooter", "is_disabled": 0, "lat": 38.919777, "rental_uris": {"ios": "https://dc.lft.to/lastmile_qr_scan", "android": "https://dc.lft.to/lastmile_qr_scan"}, "is_reserved": 0, "fusion_lon": 0.0, "fusion_lat": 0.0, "lon": -77.0190595, "name": "2987c48f7a8519d1ac34be20499a8153"}, {"bike_id": "7f4bd1085f2a440fdb6bb2e9e883a2a6", "type": "electric_scooter", "is_disabled": 0, "lat": 38.897340166666666, "rental_uris": {"ios": "https://dc.lft.to/lastmile_qr_scan", "android": "https://dc.lft.to/lastmile_qr_scan"}, "is_reserved": 0, "fusion_lon": 0.0, "fusion_lat": 0.0, "lon": -77.0499395, "name": "7f4bd1085f2a440fdb6bb2e9e883a2a6"}, {"bike_id": "c6b1d80af561515bf186dd54b549ddc2", "type": "electric_bike", "is_disabled": 0, "lat": 38.959156, "rental_uris": {"ios": "https://dc.lft.to/lastmile_qr_scan", "android": "https://dc.lft.to/lastmile_qr_scan"}, "is_reserved": 0, "fusion_lon": 0.0, "fusion_lat": 0.0, "lon": -77.08476416666667, "name": "c6b1d80af561515bf186dd54b549ddc2"}, {"bike_id": "3c99e294a62128086e6091c1d0cc61dc", "type": "electric_scooter", "is_disabled": 0, "lat": 38.91524833333333, "rental_uris": {"ios": "https://dc.lft.to/lastmile_qr_scan", "android": "https://dc.lft.to/lastmile_qr_scan"}, "is_reserved": 0, "fusion_lon": 0.0, "fusion_lat": 0.0, "lon": -77.06859733333333, "name": "3c99e294a62128086e6091c1d0cc61dc"}, {"bike_id": "e77582ab6c2a003692b7a0dac231b57c", "type": "electric_scooter", "is_disabled": 0, "lat": 38.88373566666667, "rental_uris": {"ios": "https://dc.lft.to/lastmile_qr_scan", "android": "https://dc.lft.to/lastmile_qr_scan"}, "is_reserved": 0, "fusion_lon": 0.0, "fusion_lat": 0.0, "lon": -76.99526916666667, "name": "e77582ab6c2a003692b7a0dac231b57c"}, {"bike_id": "747258b4b583cd34a4e02bae167f9164", "type": "electric_scooter", "is_disabled": 0, "lat": 38.91856, "rental_uris": {"ios": "https://dc.lft.to/lastmile_qr_scan", "android": "https://dc.lft.to/lastmile_qr_scan"}, "is_reserved": 0, "fusion_lon": 0.0, "fusion_lat": 0.0, "lon": -77.041044, "name": "747258b4b583cd34a4e02bae167f9164"}, {"bike_id": "58c38f740ea1fa0929ee96d2a8b6ba19", "type": "electric_scooter", "is_disabled": 0, "lat": 38.9365685, "rental_uris": {"ios": "https://dc.lft.to/lastmile_qr_scan", "android": "https://dc.lft.to/lastmile_qr_scan"}, "is_reserved": 0, "fusion_lon": 0.0, "fusion_lat": 0.0, "lon": -77.02637333333334, "name": "58c38f740ea1fa0929ee96d2a8b6ba19"}, {"bike_id": "33bc73824dfd11be5f00fc0c6a2a7f4c", "type": "electric_scooter", "is_disabled": 0, "lat": 38.914185, "rental_uris": {"ios": "https://dc.lft.to/lastmile_qr_scan", "android": "https://dc.lft.to/lastmile_qr_scan"}, "is_reserved": 0, "fusion_lon": 0.0, "fusion_lat": 0.0, "lon": -77.04479983333333, "name": "33bc73824dfd11be5f00fc0c6a2a7f4c"}, {"bike_id": "8fb92a18fbf0a3ed468e1929c1384c47", "type": "electric_scooter", "is_disabled": 0, "lat": 38.90035683333333, "rental_uris": {"ios": "https://dc.lft.to/lastmile_qr_scan", "android": "https://dc.lft.to/lastmile_qr_scan"}, "is_reserved": 0, "fusion_lon": 0.0, "fusion_lat": 0.0, "lon": -76.997314, "name": "8fb92a18fbf0a3ed468e1929c1384c47"}, {"bike_id": "f8f7ae75ff13da8ada8bb00cbf0ce6fe", "type": "electric_bike", "is_disabled": 0, "lat": 38.869433666666666, "rental_uris": {"ios": "https://dc.lft.to/lastmile_qr_scan", "android": "https://dc.lft.to/lastmile_qr_scan"}, "is_reserved": 0, "fusion_lon": 0.0, "fusion_lat": 0.0, "lon": -77.09473666666666, "name": "f8f7ae75ff13da8ada8bb00cbf0ce6fe"}, {"bike_id": "e4f63c4a51e383b46129736eba257c89", "type": "electric_scooter", "is_disabled": 0, "lat": 38.888514666666666, "rental_uris": {"ios": "https://dc.lft.to/lastmile_qr_scan", "android": "https://dc.lft.to/lastmile_qr_scan"}, "is_reserved": 0, "fusion_lon": 0.0, "fusion_lat": 0.0, "lon": -76.92681116666667, "name": "e4f63c4a51e383b46129736eba257c89"}, {"bike_id": "b51105943d4b2b3f77b2d179ff867cdd", "type": "electric_scooter", "is_disabled": 0, "lat": 38.91261933333333, "rental_uris": {"ios": "https://dc.lft.to/lastmile_qr_scan", "android": "https://dc.lft.to/lastmile_qr_scan"}, "is_reserved": 0, "fusion_lon": 0.0, "fusion_lat": 0.0, "lon": -77.04470016666667, "name": "b51105943d4b2b3f77b2d179ff867cdd"}, {"bike_id": "2ca50d2756ed68f77426f39a0820326e", "type": "electric_scooter", "is_disabled": 0, "lat": 38.9082445, "rental_uris": {"ios": "https://dc.lft.to/lastmile_qr_scan", "android": "https://dc.lft.to/lastmile_qr_scan"}, "is_reserved": 0, "fusion_lon": 0.0, "fusion_lat": 0.0, "lon": -77.03449266666667, "name": "2ca50d2756ed68f77426f39a0820326e"}, {"bike_id": "ae48bd7dc1e81bd7d43f0e24091609a7", "type": "electric_scooter", "is_disabled": 0, "lat": 38.887452, "rental_uris": {"ios": "https://dc.lft.to/lastmile_qr_scan", "android": "https://dc.lft.to/lastmile_qr_scan"}, "is_reserved": 0, "fusion_lon": 0.0, "fusion_lat": 0.0, "lon": -77.02848683333333, "name": "ae48bd7dc1e81bd7d43f0e24091609a7"}, {"bike_id": "fae431880f10011643fbf38a99744402", "type": "electric_scooter", "is_disabled": 0, "lat": 38.884335666666665, "rental_uris": {"ios": "https://dc.lft.to/lastmile_qr_scan", "android": "https://dc.lft.to/lastmile_qr_scan"}, "is_reserved": 0, "fusion_lon": 0.0, "fusion_lat": 0.0, "lon": -76.95748233333333, "name": "fae431880f10011643fbf38a99744402"}, {"bike_id": "f1181d8a7e40d66ed0e737220dec8cc2", "type": "electric_scooter", "is_disabled": 0, "lat": 38.91705233333333, "rental_uris": {"ios": "https://dc.lft.to/lastmile_qr_scan", "android": "https://dc.lft.to/lastmile_qr_scan"}, "is_reserved": 0, "fusion_lon": 0.0, "fusion_lat": 0.0, "lon": -77.03043616666666, "name": "f1181d8a7e40d66ed0e737220dec8cc2"}, {"bike_id": "b9803454d0c09b4bb8a543c2552ad67f", "type": "electric_scooter", "is_disabled": 0, "lat": 38.88641, "rental_uris": {"ios": "https://dc.lft.to/lastmile_qr_scan", "android": "https://dc.lft.to/lastmile_qr_scan"}, "is_reserved": 0, "fusion_lon": 0.0, "fusion_lat": 0.0, "lon": -77.01901983333333, "name": "b9803454d0c09b4bb8a543c2552ad67f"}, {"bike_id": "1ad5611abed03025706bac9a63a29d90", "type": "electric_scooter", "is_disabled": 0, "lat": 38.93068266666667, "rental_uris": {"ios": "https://dc.lft.to/lastmile_qr_scan", "android": "https://dc.lft.to/lastmile_qr_scan"}, "is_reserved": 0, "fusion_lon": 0.0, "fusion_lat": 0.0, "lon": -77.02982083333333, "name": "1ad5611abed03025706bac9a63a29d90"}, {"bike_id": "af0f5527090bcd65173e07e2ecfc1cb5", "type": "electric_scooter", "is_disabled": 0, "lat": 38.90735266666667, "rental_uris": {"ios": "https://dc.lft.to/lastmile_qr_scan", "android": "https://dc.lft.to/lastmile_qr_scan"}, "is_reserved": 0, "fusion_lon": 0.0, "fusion_lat": 0.0, "lon": -77.0281875, "name": "af0f5527090bcd65173e07e2ecfc1cb5"}, {"bike_id": "8394321c799baa966516105a4b55138a", "type": "electric_scooter", "is_disabled": 0, "lat": 38.9112135, "rental_uris": {"ios": "https://dc.lft.to/lastmile_qr_scan", "android": "https://dc.lft.to/lastmile_qr_scan"}, "is_reserved": 0, "fusion_lon": 0.0, "fusion_lat": 0.0, "lon": -77.0437095, "name": "8394321c799baa966516105a4b55138a"}, {"bike_id": "abeafd74ac7fd6c60ec53a304b86a443", "type": "electric_scooter", "is_disabled": 0, "lat": 38.914971, "rental_uris": {"ios": "https://dc.lft.to/lastmile_qr_scan", "android": "https://dc.lft.to/lastmile_qr_scan"}, "is_reserved": 0, "fusion_lon": 0.0, "fusion_lat": 0.0, "lon": -77.04558766666666, "name": "abeafd74ac7fd6c60ec53a304b86a443"}, {"bike_id": "f49c0cc88a62a1cc7bc420be79511d2e", "type": "electric_scooter", "is_disabled": 0, "lat": 38.9283905, "rental_uris": {"ios": "https://dc.lft.to/lastmile_qr_scan", "android": "https://dc.lft.to/lastmile_qr_scan"}, "is_reserved": 0, "fusion_lon": 0.0, "fusion_lat": 0.0, "lon": -77.037297, "name": "f49c0cc88a62a1cc7bc420be79511d2e"}, {"bike_id": "cdd89c903ee6aa023c90afd9ca8d92f1", "type": "electric_scooter", "is_disabled": 0, "lat": 38.91122633333333, "rental_uris": {"ios": "https://dc.lft.to/lastmile_qr_scan", "android": "https://dc.lft.to/lastmile_qr_scan"}, "is_reserved": 0, "fusion_lon": 0.0, "fusion_lat": 0.0, "lon": -77.0333455, "name": "cdd89c903ee6aa023c90afd9ca8d92f1"}, {"bike_id": "04d724a3681f9e0ba806bed76b1aa2fd", "type": "electric_scooter", "is_disabled": 0, "lat": 38.91562966666667, "rental_uris": {"ios": "https://dc.lft.to/lastmile_qr_scan", "android": "https://dc.lft.to/lastmile_qr_scan"}, "is_reserved": 0, "fusion_lon": 0.0, "fusion_lat": 0.0, "lon": -77.03773, "name": "04d724a3681f9e0ba806bed76b1aa2fd"}, {"bike_id": "c116af3f6a016460b6b6bcd7491b1fd5", "type": "electric_bike", "is_disabled": 0, "lat": 38.93866333333333, "rental_uris": {"ios": "https://dc.lft.to/lastmile_qr_scan", "android": "https://dc.lft.to/lastmile_qr_scan"}, "is_reserved": 0, "fusion_lon": 0.0, "fusion_lat": 0.0, "lon": -77.02690383333334, "name": "c116af3f6a016460b6b6bcd7491b1fd5"}, {"bike_id": "291a2d6a78f2f452db7b5ee0a8564f34", "type": "electric_scooter", "is_disabled": 0, "lat": 38.91772916666667, "rental_uris": {"ios": "https://dc.lft.to/lastmile_qr_scan", "android": "https://dc.lft.to/lastmile_qr_scan"}, "is_reserved": 0, "fusion_lon": 0.0, "fusion_lat": 0.0, "lon": -77.04062, "name": "291a2d6a78f2f452db7b5ee0a8564f34"}, {"bike_id": "65c34779db0afab2565fea6f450bbc2b", "type": "electric_scooter", "is_disabled": 0, "lat": 38.936901166666665, "rental_uris": {"ios": "https://dc.lft.to/lastmile_qr_scan", "android": "https://dc.lft.to/lastmile_qr_scan"}, "is_reserved": 0, "fusion_lon": 0.0, "fusion_lat": 0.0, "lon": -77.032866, "name": "65c34779db0afab2565fea6f450bbc2b"}, {"bike_id": "686e3a4668e84a01a57906871df7f182", "type": "electric_scooter", "is_disabled": 0, "lat": 38.9170635, "rental_uris": {"ios": "https://dc.lft.to/lastmile_qr_scan", "android": "https://dc.lft.to/lastmile_qr_scan"}, "is_reserved": 0, "fusion_lon": 0.0, "fusion_lat": 0.0, "lon": -77.031232, "name": "686e3a4668e84a01a57906871df7f182"}, {"bike_id": "658a2b6d9e7bc8e6f03a64641f21245d", "type": "electric_scooter", "is_disabled": 0, "lat": 38.929387166666665, "rental_uris": {"ios": "https://dc.lft.to/lastmile_qr_scan", "android": "https://dc.lft.to/lastmile_qr_scan"}, "is_reserved": 0, "fusion_lon": 0.0, "fusion_lat": 0.0, "lon": -77.01640366666666, "name": "658a2b6d9e7bc8e6f03a64641f21245d"}, {"bike_id": "34d177516ffc6ea67dee4659dbae3d20", "type": "electric_scooter", "is_disabled": 0, "lat": 38.9113805, "rental_uris": {"ios": "https://dc.lft.to/lastmile_qr_scan", "android": "https://dc.lft.to/lastmile_qr_scan"}, "is_reserved": 0, "fusion_lon": 0.0, "fusion_lat": 0.0, "lon": -77.03212566666667, "name": "34d177516ffc6ea67dee4659dbae3d20"}, {"bike_id": "d6e551c0954a90ea90a81b91585c854f", "type": "electric_scooter", "is_disabled": 0, "lat": 38.924818333333334, "rental_uris": {"ios": "https://dc.lft.to/lastmile_qr_scan", "android": "https://dc.lft.to/lastmile_qr_scan"}, "is_reserved": 0, "fusion_lon": 0.0, "fusion_lat": 0.0, "lon": -77.03102133333333, "name": "d6e551c0954a90ea90a81b91585c854f"}, {"bike_id": "059032c26d0e81da9a1157a384b38a7b", "type": "electric_scooter", "is_disabled": 0, "lat": 38.898532333333335, "rental_uris": {"ios": "https://dc.lft.to/lastmile_qr_scan", "android": "https://dc.lft.to/lastmile_qr_scan"}, "is_reserved": 0, "fusion_lon": 0.0, "fusion_lat": 0.0, "lon": -77.03357866666667, "name": "059032c26d0e81da9a1157a384b38a7b"}, {"bike_id": "59889942928d5edb4283d3f5ceef1f14", "type": "electric_bike", "is_disabled": 0, "lat": 38.87888266666667, "rental_uris": {"ios": "https://dc.lft.to/lastmile_qr_scan", "android": "https://dc.lft.to/lastmile_qr_scan"}, "is_reserved": 0, "fusion_lon": 0.0, "fusion_lat": 0.0, "lon": -77.09617433333334, "name": "59889942928d5edb4283d3f5ceef1f14"}, {"bike_id": "975edbe6919c388603a1b8f02fb3d9df", "type": "electric_scooter", "is_disabled": 0, "lat": 38.92629266666667, "rental_uris": {"ios": "https://dc.lft.to/lastmile_qr_scan", "android": "https://dc.lft.to/lastmile_qr_scan"}, "is_reserved": 0, "fusion_lon": 0.0, "fusion_lat": 0.0, "lon": -76.99514283333333, "name": "975edbe6919c388603a1b8f02fb3d9df"}, {"bike_id": "329d4f699f48eed6a10a25ff664784c7", "type": "electric_scooter", "is_disabled": 0, "lat": 38.89732033333333, "rental_uris": {"ios": "https://dc.lft.to/lastmile_qr_scan", "android": "https://dc.lft.to/lastmile_qr_scan"}, "is_reserved": 0, "fusion_lon": 0.0, "fusion_lat": 0.0, "lon": -77.02141783333333, "name": "329d4f699f48eed6a10a25ff664784c7"}, {"bike_id": "ec9f7db7c9c68311b82f0bd6aaa486bd", "type": "electric_scooter", "is_disabled": 0, "lat": 38.912767333333335, "rental_uris": {"ios": "https://dc.lft.to/lastmile_qr_scan", "android": "https://dc.lft.to/lastmile_qr_scan"}, "is_reserved": 0, "fusion_lon": 0.0, "fusion_lat": 0.0, "lon": -77.022494, "name": "ec9f7db7c9c68311b82f0bd6aaa486bd"}, {"bike_id": "0672a05dccda8fc0135ee7b1f08ab465", "type": "electric_scooter", "is_disabled": 0, "lat": 38.923086, "rental_uris": {"ios": "https://dc.lft.to/lastmile_qr_scan", "android": "https://dc.lft.to/lastmile_qr_scan"}, "is_reserved": 0, "fusion_lon": 0.0, "fusion_lat": 0.0, "lon": -77.04128283333333, "name": "0672a05dccda8fc0135ee7b1f08ab465"}, {"bike_id": "d752e21358855adf8ff836e61bbaeaf2", "type": "electric_scooter", "is_disabled": 0, "lat": 38.89735616666667, "rental_uris": {"ios": "https://dc.lft.to/lastmile_qr_scan", "android": "https://dc.lft.to/lastmile_qr_scan"}, "is_reserved": 0, "fusion_lon": 0.0, "fusion_lat": 0.0, "lon": -77.04785766666667, "name": "d752e21358855adf8ff836e61bbaeaf2"}, {"bike_id": "82dbd68898868d993284bcc11f090dde", "type": "electric_scooter", "is_disabled": 0, "lat": 38.90406383333333, "rental_uris": {"ios": "https://dc.lft.to/lastmile_qr_scan", "android": "https://dc.lft.to/lastmile_qr_scan"}, "is_reserved": 0, "fusion_lon": 0.0, "fusion_lat": 0.0, "lon": -77.00584216666667, "name": "82dbd68898868d993284bcc11f090dde"}, {"bike_id": "dbdfdbf76303fd187ee15a63b257d218", "type": "electric_scooter", "is_disabled": 0, "lat": 38.894038, "rental_uris": {"ios": "https://dc.lft.to/lastmile_qr_scan", "android": "https://dc.lft.to/lastmile_qr_scan"}, "is_reserved": 0, "fusion_lon": 0.0, "fusion_lat": 0.0, "lon": -77.02263983333333, "name": "dbdfdbf76303fd187ee15a63b257d218"}, {"bike_id": "d4b06d988ab82a73958841a5057baf60", "type": "electric_scooter", "is_disabled": 0, "lat": 38.915621, "rental_uris": {"ios": "https://dc.lft.to/lastmile_qr_scan", "android": "https://dc.lft.to/lastmile_qr_scan"}, "is_reserved": 0, "fusion_lon": 0.0, "fusion_lat": 0.0, "lon": -77.04285133333333, "name": "d4b06d988ab82a73958841a5057baf60"}, {"bike_id": "8670953a4f79b175ca3000cff2bae755", "type": "electric_scooter", "is_disabled": 0, "lat": 38.91669, "rental_uris": {"ios": "https://dc.lft.to/lastmile_qr_scan", "android": "https://dc.lft.to/lastmile_qr_scan"}, "is_reserved": 0, "fusion_lon": 0.0, "fusion_lat": 0.0, "lon": -77.02895316666667, "name": "8670953a4f79b175ca3000cff2bae755"}, {"bike_id": "65d9d8ece2f2e88e1f2aebef9f9d35ff", "type": "electric_scooter", "is_disabled": 0, "lat": 38.90298533333333, "rental_uris": {"ios": "https://dc.lft.to/lastmile_qr_scan", "android": "https://dc.lft.to/lastmile_qr_scan"}, "is_reserved": 0, "fusion_lon": 0.0, "fusion_lat": 0.0, "lon": -77.02271833333333, "name": "65d9d8ece2f2e88e1f2aebef9f9d35ff"}, {"bike_id": "6efd058aa3b6d1a4334ffc95b4b99eb2", "type": "electric_scooter", "is_disabled": 0, "lat": 38.91105916666667, "rental_uris": {"ios": "https://dc.lft.to/lastmile_qr_scan", "android": "https://dc.lft.to/lastmile_qr_scan"}, "is_reserved": 0, "fusion_lon": 0.0, "fusion_lat": 0.0, "lon": -77.02205, "name": "6efd058aa3b6d1a4334ffc95b4b99eb2"}, {"bike_id": "9c4af96e43f94c3657333b4c5f5aa5b2", "type": "electric_scooter", "is_disabled": 0, "lat": 38.917720333333335, "rental_uris": {"ios": "https://dc.lft.to/lastmile_qr_scan", "android": "https://dc.lft.to/lastmile_qr_scan"}, "is_reserved": 0, "fusion_lon": 0.0, "fusion_lat": 0.0, "lon": -77.00720066666666, "name": "9c4af96e43f94c3657333b4c5f5aa5b2"}, {"bike_id": "ef8ed0aec164fad06eb5f36a1f051568", "type": "electric_scooter", "is_disabled": 0, "lat": 38.915831, "rental_uris": {"ios": "https://dc.lft.to/lastmile_qr_scan", "android": "https://dc.lft.to/lastmile_qr_scan"}, "is_reserved": 0, "fusion_lon": 0.0, "fusion_lat": 0.0, "lon": -77.01237766666667, "name": "ef8ed0aec164fad06eb5f36a1f051568"}, {"bike_id": "15cc9748d3c31090cc4a5e9080c5bae3", "type": "electric_scooter", "is_disabled": 0, "lat": 38.949048166666664, "rental_uris": {"ios": "https://dc.lft.to/lastmile_qr_scan", "android": "https://dc.lft.to/lastmile_qr_scan"}, "is_reserved": 0, "fusion_lon": 0.0, "fusion_lat": 0.0, "lon": -77.00647366666666, "name": "15cc9748d3c31090cc4a5e9080c5bae3"}, {"bike_id": "474d49924fa4b942f0a4f79bf2546297", "type": "electric_scooter", "is_disabled": 0, "lat": 38.92869016666667, "rental_uris": {"ios": "https://dc.lft.to/lastmile_qr_scan", "android": "https://dc.lft.to/lastmile_qr_scan"}, "is_reserved": 0, "fusion_lon": 0.0, "fusion_lat": 0.0, "lon": -77.0341495, "name": "474d49924fa4b942f0a4f79bf2546297"}, {"bike_id": "e71801a61932ed667e4068abbdd951b1", "type": "electric_scooter", "is_disabled": 0, "lat": 38.91139716666667, "rental_uris": {"ios": "https://dc.lft.to/lastmile_qr_scan", "android": "https://dc.lft.to/lastmile_qr_scan"}, "is_reserved": 0, "fusion_lon": 0.0, "fusion_lat": 0.0, "lon": -77.03842883333333, "name": "e71801a61932ed667e4068abbdd951b1"}, {"bike_id": "0d45c451e4c19e31245e76802ff1a655", "type": "electric_scooter", "is_disabled": 0, "lat": 38.90946983333333, "rental_uris": {"ios": "https://dc.lft.to/lastmile_qr_scan", "android": "https://dc.lft.to/lastmile_qr_scan"}, "is_reserved": 0, "fusion_lon": 0.0, "fusion_lat": 0.0, "lon": -77.04946183333334, "name": "0d45c451e4c19e31245e76802ff1a655"}, {"bike_id": "2d425c106f5b00342e1713cf2283980e", "type": "electric_scooter", "is_disabled": 0, "lat": 38.909485833333335, "rental_uris": {"ios": "https://dc.lft.to/lastmile_qr_scan", "android": "https://dc.lft.to/lastmile_qr_scan"}, "is_reserved": 0, "fusion_lon": 0.0, "fusion_lat": 0.0, "lon": -77.03447033333333, "name": "2d425c106f5b00342e1713cf2283980e"}, {"bike_id": "bedb1ebf5c9f881d0f960e1dd494bb97", "type": "electric_scooter", "is_disabled": 0, "lat": 38.92820783333333, "rental_uris": {"ios": "https://dc.lft.to/lastmile_qr_scan", "android": "https://dc.lft.to/lastmile_qr_scan"}, "is_reserved": 0, "fusion_lon": 0.0, "fusion_lat": 0.0, "lon": -77.023212, "name": "bedb1ebf5c9f881d0f960e1dd494bb97"}, {"bike_id": "22c7c4f481225a906269a8008a2fd99a", "type": "electric_bike", "is_disabled": 0, "lat": 38.9322885, "rental_uris": {"ios": "https://dc.lft.to/lastmile_qr_scan", "android": "https://dc.lft.to/lastmile_qr_scan"}, "is_reserved": 0, "fusion_lon": 0.0, "fusion_lat": 0.0, "lon": -77.18124183333333, "name": "22c7c4f481225a906269a8008a2fd99a"}, {"bike_id": "492a01becd3e59c2e3aed86be601b4ad", "type": "electric_scooter", "is_disabled": 0, "lat": 38.913324833333334, "rental_uris": {"ios": "https://dc.lft.to/lastmile_qr_scan", "android": "https://dc.lft.to/lastmile_qr_scan"}, "is_reserved": 0, "fusion_lon": 0.0, "fusion_lat": 0.0, "lon": -77.032762, "name": "492a01becd3e59c2e3aed86be601b4ad"}, {"bike_id": "9f11be2966afe28b957b2f9f11ca28ef", "type": "electric_scooter", "is_disabled": 0, "lat": 38.902855833333334, "rental_uris": {"ios": "https://dc.lft.to/lastmile_qr_scan", "android": "https://dc.lft.to/lastmile_qr_scan"}, "is_reserved": 0, "fusion_lon": 0.0, "fusion_lat": 0.0, "lon": -77.02199533333334, "name": "9f11be2966afe28b957b2f9f11ca28ef"}, {"bike_id": "6abb6bf165c710b89e5ef8198d9ee71a", "type": "electric_bike", "is_disabled": 0, "lat": 38.87499016666666, "rental_uris": {"ios": "https://dc.lft.to/lastmile_qr_scan", "android": "https://dc.lft.to/lastmile_qr_scan"}, "is_reserved": 0, "fusion_lon": 0.0, "fusion_lat": 0.0, "lon": -77.00264116666666, "name": "6abb6bf165c710b89e5ef8198d9ee71a"}, {"bike_id": "7aea028d050e5c66f9d9d881b2c5f125", "type": "electric_scooter", "is_disabled": 0, "lat": 38.910053166666664, "rental_uris": {"ios": "https://dc.lft.to/lastmile_qr_scan", "android": "https://dc.lft.to/lastmile_qr_scan"}, "is_reserved": 0, "fusion_lon": 0.0, "fusion_lat": 0.0, "lon": -77.04009866666667, "name": "7aea028d050e5c66f9d9d881b2c5f125"}, {"bike_id": "237e886c3af9b96b8cfa5ffa15d48f95", "type": "electric_scooter", "is_disabled": 0, "lat": 38.934194166666664, "rental_uris": {"ios": "https://dc.lft.to/lastmile_qr_scan", "android": "https://dc.lft.to/lastmile_qr_scan"}, "is_reserved": 0, "fusion_lon": 0.0, "fusion_lat": 0.0, "lon": -77.04150966666667, "name": "237e886c3af9b96b8cfa5ffa15d48f95"}, {"bike_id": "92f84554e25db30e679ba3341d1f51aa", "type": "electric_scooter", "is_disabled": 0, "lat": 38.9226135, "rental_uris": {"ios": "https://dc.lft.to/lastmile_qr_scan", "android": "https://dc.lft.to/lastmile_qr_scan"}, "is_reserved": 0, "fusion_lon": 0.0, "fusion_lat": 0.0, "lon": -77.0422115, "name": "92f84554e25db30e679ba3341d1f51aa"}, {"bike_id": "154517e258964bc45db468c2a1d1e7e4", "type": "electric_scooter", "is_disabled": 0, "lat": 38.906826833333334, "rental_uris": {"ios": "https://dc.lft.to/lastmile_qr_scan", "android": "https://dc.lft.to/lastmile_qr_scan"}, "is_reserved": 0, "fusion_lon": 0.0, "fusion_lat": 0.0, "lon": -77.06262416666667, "name": "154517e258964bc45db468c2a1d1e7e4"}, {"bike_id": "d2d60fa297e3a5d620e45dc717adf046", "type": "electric_bike", "is_disabled": 0, "lat": 38.934493333333336, "rental_uris": {"ios": "https://dc.lft.to/lastmile_qr_scan", "android": "https://dc.lft.to/lastmile_qr_scan"}, "is_reserved": 0, "fusion_lon": 0.0, "fusion_lat": 0.0, "lon": -77.04130066666667, "name": "d2d60fa297e3a5d620e45dc717adf046"}, {"bike_id": "a03c4681214013000f1ef99464b9021f", "type": "electric_scooter", "is_disabled": 0, "lat": 38.930632, "rental_uris": {"ios": "https://dc.lft.to/lastmile_qr_scan", "android": "https://dc.lft.to/lastmile_qr_scan"}, "is_reserved": 0, "fusion_lon": 0.0, "fusion_lat": 0.0, "lon": -77.02320733333333, "name": "a03c4681214013000f1ef99464b9021f"}, {"bike_id": "99b76bd54c66ab423026d57a17058ee9", "type": "electric_scooter", "is_disabled": 0, "lat": 38.874454166666666, "rental_uris": {"ios": "https://dc.lft.to/lastmile_qr_scan", "android": "https://dc.lft.to/lastmile_qr_scan"}, "is_reserved": 0, "fusion_lon": 0.0, "fusion_lat": 0.0, "lon": -77.006113, "name": "99b76bd54c66ab423026d57a17058ee9"}, {"bike_id": "052cb2dc6ec8a3b575b49a1a4475d0a7", "type": "electric_scooter", "is_disabled": 0, "lat": 38.93201833333333, "rental_uris": {"ios": "https://dc.lft.to/lastmile_qr_scan", "android": "https://dc.lft.to/lastmile_qr_scan"}, "is_reserved": 0, "fusion_lon": 0.0, "fusion_lat": 0.0, "lon": -77.02388166666667, "name": "052cb2dc6ec8a3b575b49a1a4475d0a7"}, {"bike_id": "b6780594ed31a0dbd3b8147ea23adffc", "type": "electric_scooter", "is_disabled": 0, "lat": 38.917738, "rental_uris": {"ios": "https://dc.lft.to/lastmile_qr_scan", "android": "https://dc.lft.to/lastmile_qr_scan"}, "is_reserved": 0, "fusion_lon": 0.0, "fusion_lat": 0.0, "lon": -77.0406355, "name": "b6780594ed31a0dbd3b8147ea23adffc"}, {"bike_id": "af200adbc895dd9dd48752fdc3a9be56", "type": "electric_scooter", "is_disabled": 0, "lat": 38.9138745, "rental_uris": {"ios": "https://dc.lft.to/lastmile_qr_scan", "android": "https://dc.lft.to/lastmile_qr_scan"}, "is_reserved": 0, "fusion_lon": 0.0, "fusion_lat": 0.0, "lon": -77.03220316666666, "name": "af200adbc895dd9dd48752fdc3a9be56"}, {"bike_id": "65bcc1ed41d9753a7570c9e0ca7c9390", "type": "electric_scooter", "is_disabled": 0, "lat": 38.91368283333333, "rental_uris": {"ios": "https://dc.lft.to/lastmile_qr_scan", "android": "https://dc.lft.to/lastmile_qr_scan"}, "is_reserved": 0, "fusion_lon": 0.0, "fusion_lat": 0.0, "lon": -77.070421, "name": "65bcc1ed41d9753a7570c9e0ca7c9390"}, {"bike_id": "28900e9562b63b8fddd6af60e09af8c1", "type": "electric_scooter", "is_disabled": 0, "lat": 38.935529833333334, "rental_uris": {"ios": "https://dc.lft.to/lastmile_qr_scan", "android": "https://dc.lft.to/lastmile_qr_scan"}, "is_reserved": 0, "fusion_lon": 0.0, "fusion_lat": 0.0, "lon": -77.03685366666667, "name": "28900e9562b63b8fddd6af60e09af8c1"}, {"bike_id": "60bbddbe511780be254e0a52c2e7c68d", "type": "electric_scooter", "is_disabled": 0, "lat": 38.900297, "rental_uris": {"ios": "https://dc.lft.to/lastmile_qr_scan", "android": "https://dc.lft.to/lastmile_qr_scan"}, "is_reserved": 0, "fusion_lon": 0.0, "fusion_lat": 0.0, "lon": -76.99865333333334, "name": "60bbddbe511780be254e0a52c2e7c68d"}, {"bike_id": "28048fb9daa7d219050208af9af21d9b", "type": "electric_bike", "is_disabled": 0, "lat": 39.03733033333334, "rental_uris": {"ios": "https://dc.lft.to/lastmile_qr_scan", "android": "https://dc.lft.to/lastmile_qr_scan"}, "is_reserved": 0, "fusion_lon": 0.0, "fusion_lat": 0.0, "lon": -77.054779, "name": "28048fb9daa7d219050208af9af21d9b"}, {"bike_id": "1d6f6066c4f479e4cb57dcf88403f1a7", "type": "electric_scooter", "is_disabled": 0, "lat": 38.909768166666666, "rental_uris": {"ios": "https://dc.lft.to/lastmile_qr_scan", "android": "https://dc.lft.to/lastmile_qr_scan"}, "is_reserved": 0, "fusion_lon": 0.0, "fusion_lat": 0.0, "lon": -77.033815, "name": "1d6f6066c4f479e4cb57dcf88403f1a7"}, {"bike_id": "aa737c16af4f9c8050a42787e36e6d14", "type": "electric_scooter", "is_disabled": 0, "lat": 38.91012716666667, "rental_uris": {"ios": "https://dc.lft.to/lastmile_qr_scan", "android": "https://dc.lft.to/lastmile_qr_scan"}, "is_reserved": 0, "fusion_lon": 0.0, "fusion_lat": 0.0, "lon": -77.02218716666667, "name": "aa737c16af4f9c8050a42787e36e6d14"}, {"bike_id": "bcda08978be7556ebc65ff882deaa122", "type": "electric_scooter", "is_disabled": 0, "lat": 38.913847, "rental_uris": {"ios": "https://dc.lft.to/lastmile_qr_scan", "android": "https://dc.lft.to/lastmile_qr_scan"}, "is_reserved": 0, "fusion_lon": 0.0, "fusion_lat": 0.0, "lon": -77.0461075, "name": "bcda08978be7556ebc65ff882deaa122"}, {"bike_id": "21a31ec4f59dca8cb687f22ca2a56814", "type": "electric_bike", "is_disabled": 0, "lat": 39.0550105, "rental_uris": {"ios": "https://dc.lft.to/lastmile_qr_scan", "android": "https://dc.lft.to/lastmile_qr_scan"}, "is_reserved": 0, "fusion_lon": 0.0, "fusion_lat": 0.0, "lon": -77.11791633333333, "name": "21a31ec4f59dca8cb687f22ca2a56814"}, {"bike_id": "41c7f76be01d5d26eb2f479980014c47", "type": "electric_scooter", "is_disabled": 0, "lat": 38.941306166666664, "rental_uris": {"ios": "https://dc.lft.to/lastmile_qr_scan", "android": "https://dc.lft.to/lastmile_qr_scan"}, "is_reserved": 0, "fusion_lon": 0.0, "fusion_lat": 0.0, "lon": -77.015471, "name": "41c7f76be01d5d26eb2f479980014c47"}, {"bike_id": "14a5b618f506bb4fc14402d1789b3944", "type": "electric_scooter", "is_disabled": 0, "lat": 38.92902466666666, "rental_uris": {"ios": "https://dc.lft.to/lastmile_qr_scan", "android": "https://dc.lft.to/lastmile_qr_scan"}, "is_reserved": 0, "fusion_lon": 0.0, "fusion_lat": 0.0, "lon": -77.01358166666667, "name": "14a5b618f506bb4fc14402d1789b3944"}, {"bike_id": "cdbbf8d126fa8a3b5594c5090158243f", "type": "electric_scooter", "is_disabled": 0, "lat": 38.923272833333336, "rental_uris": {"ios": "https://dc.lft.to/lastmile_qr_scan", "android": "https://dc.lft.to/lastmile_qr_scan"}, "is_reserved": 0, "fusion_lon": 0.0, "fusion_lat": 0.0, "lon": -77.02340716666667, "name": "cdbbf8d126fa8a3b5594c5090158243f"}, {"bike_id": "760840054564453b2202eeac398facd1", "type": "electric_scooter", "is_disabled": 0, "lat": 38.948448, "rental_uris": {"ios": "https://dc.lft.to/lastmile_qr_scan", "android": "https://dc.lft.to/lastmile_qr_scan"}, "is_reserved": 0, "fusion_lon": 0.0, "fusion_lat": 0.0, "lon": -77.02548116666667, "name": "760840054564453b2202eeac398facd1"}, {"bike_id": "20826c234a6d31158d7b5af489d33ea2", "type": "electric_scooter", "is_disabled": 0, "lat": 38.90032566666667, "rental_uris": {"ios": "https://dc.lft.to/lastmile_qr_scan", "android": "https://dc.lft.to/lastmile_qr_scan"}, "is_reserved": 0, "fusion_lon": 0.0, "fusion_lat": 0.0, "lon": -76.998683, "name": "20826c234a6d31158d7b5af489d33ea2"}, {"bike_id": "a0a919aa1413fac32ae252c17812eaaa", "type": "electric_scooter", "is_disabled": 0, "lat": 38.85445683333333, "rental_uris": {"ios": "https://dc.lft.to/lastmile_qr_scan", "android": "https://dc.lft.to/lastmile_qr_scan"}, "is_reserved": 0, "fusion_lon": 0.0, "fusion_lat": 0.0, "lon": -76.98609933333333, "name": "a0a919aa1413fac32ae252c17812eaaa"}, {"bike_id": "ecdd48ab397f5caefdc628f437979fcf", "type": "electric_scooter", "is_disabled": 0, "lat": 38.942992833333335, "rental_uris": {"ios": "https://dc.lft.to/lastmile_qr_scan", "android": "https://dc.lft.to/lastmile_qr_scan"}, "is_reserved": 0, "fusion_lon": 0.0, "fusion_lat": 0.0, "lon": -77.0217675, "name": "ecdd48ab397f5caefdc628f437979fcf"}, {"bike_id": "71c4c42ef43895139b6e8c2a74268bb1", "type": "electric_scooter", "is_disabled": 0, "lat": 38.89817583333333, "rental_uris": {"ios": "https://dc.lft.to/lastmile_qr_scan", "android": "https://dc.lft.to/lastmile_qr_scan"}, "is_reserved": 0, "fusion_lon": 0.0, "fusion_lat": 0.0, "lon": -77.02397616666667, "name": "71c4c42ef43895139b6e8c2a74268bb1"}, {"bike_id": "fef8ef1a1c591d2b059eb551177e2f29", "type": "electric_scooter", "is_disabled": 0, "lat": 38.878542333333336, "rental_uris": {"ios": "https://dc.lft.to/lastmile_qr_scan", "android": "https://dc.lft.to/lastmile_qr_scan"}, "is_reserved": 0, "fusion_lon": 0.0, "fusion_lat": 0.0, "lon": -77.00605866666666, "name": "fef8ef1a1c591d2b059eb551177e2f29"},