{"data": {"bikes": [{"lat": 38.90140316666667, "fusion_lat": 0.0, "type": "electric_scooter", "bike_id": "4fc50c14139d77926ac596e377e2a7a6", "is_reserved": 0, "rental_uris": {"ios": "https://dc.lft.to/lastmile_qr_scan", "android": "https://dc.lft.to/lastmile_qr_scan"}, "is_disabled": 0, "lon": -77.0132225, "name": "4fc50c14139d77926ac596e377e2a7a6", "fusion_lon": 0.0}, {"lat": 38.9098475, "fusion_lat": 0.0, "type": "electric_scooter", "bike_id": "23efd4ad4f5caf8a3d4efc91606a514b", "is_reserved": 0, "rental_uris": {"ios": "https://dc.lft.to/lastmile_qr_scan", "android": "https://dc.lft.to/lastmile_qr_scan"}, "is_disabled": 0, "lon": -77.03175766666666, "name": "23efd4ad4f5caf8a3d4efc91606a514b", "fusion_lon": 0.0}, {"lat": 38.916972333333334, "fusion_lat": 0.0, "type": "electric_scooter", "bike_id": "38a33d40f108013036a0064c74ee7108", "is_reserved": 0, "rental_uris": {"ios": "https://dc.lft.to/lastmile_qr_scan", "android": "https://dc.lft.to/lastmile_qr_scan"}, "is_disabled": 0, "lon": -77.010535, "name": "38a33d40f108013036a0064c74ee7108", "fusion_lon": 0.0}, {"lat": 38.893134, "fusion_lat": 0.0, "type": "electric_scooter", "bike_id": "5bb44b61dce1b2ac73564a3a208425bb", "is_reserved": 0, "rental_uris": {"ios": "https://dc.lft.to/lastmile_qr_scan", "android": "https://dc.lft.to/lastmile_qr_scan"}, "is_disabled": 0, "lon": -76.93969716666666, "name": "5bb44b61dce1b2ac73564a3a208425bb", "fusion_lon": 0.0}, {"lat": 38.934375833333334, "fusion_lat": 0.0, "type": "electric_scooter", "bike_id": "01b3b0c90f18adebcd8e591bcb4d3c6b", "is_reserved": 0, "rental_uris": {"ios": "https://dc.lft.to/lastmile_qr_scan", "android": "https://dc.lft.to/lastmile_qr_scan"}, "is_disabled": 0, "lon": -77.03293783333334, "name": "01b3b0c90f18adebcd8e591bcb4d3c6b", "fusion_lon": 0.0}, {"lat": 38.91560883333333, "fusion_lat": 0.0, "type": "electric_scooter", "bike_id": "19832648de2a172b0e18e2e03175f7d0", "is_reserved": 0, "rental_uris": {"ios": "https://dc.lft.to/lastmile_qr_scan", "android": "https://dc.lft.to/lastmile_qr_scan"}, "is_disabled": 0, "lon": -77.0395855, "name": "19832648de2a172b0e18e2e03175f7d0", "fusion_lon": 0.0}, {"lat": 38.90936133333334, "fusion_lat": 0.0, "type": "electric_scooter", "bike_id": "71e6650f921f2ac22c5caf50150bacf3", "is_reserved": 0, "rental_uris": {"ios": "https://dc.lft.to/lastmile_qr_scan", "android": "https://dc.lft.to/lastmile_qr_scan"}, "is_disabled": 0, "lon": -77.055387, "name": "71e6650f921f2ac22c5caf50150bacf3", "fusion_lon": 0.0}, {"lat": 38.8837235, "fusion_lat": 0.0, "type": "electric_scooter", "bike_id": "8b083bf6687e156470d4ebb6c16dc6f7", "is_reserved": 0, "rental_uris": {"ios": "https://dc.lft.to/lastmile_qr_scan", "android": "https://dc.lft.to/lastmile_qr_scan"}, "is_disabled": 0, "lon": -76.995178, "name": "8b083bf6687e156470d4ebb6c16dc6f7", "fusion_lon": 0.0}, {"lat": 38.93451366666667, "fusion_lat": 0.0, "type": "electric_scooter", "bike_id": "7d49965d46646c9cb5c4e7ffebac1d6d", "is_reserved": 0, "rental_uris": {"ios": "https://dc.lft.to/lastmile_qr_scan", "android": "https://dc.lft.to/lastmile_qr_scan"}, "is_disabled": 0, "lon": -77.02726833333334, "name": "7d49965d46646c9cb5c4e7ffebac1d6d", "fusion_lon": 0.0}, {"lat": 38.92226566666667, "fusion_lat": 0.0, "type": "electric_scooter", "bike_id": "d1b86ba265de05b62066c55a5c4fb2e2", "is_reserved": 0, "rental_uris": {"ios": "https://dc.lft.to/lastmile_qr_scan", "android": "https://dc.lft.to/lastmile_qr_scan"}, "is_disabled": 0, "lon": -77.0425, "name": "d1b86ba265de05b62066c55a5c4fb2e2", "fusion_lon": 0.0}, {"lat": 38.928716333333334, "fusion_lat": 0.0, "type": "electric_scooter", "bike_id": "c8b4c75a8a469a7537031af4b5c2f45d", "is_reserved": 0, "rental_uris": {"ios": "https://dc.lft.to/lastmile_qr_scan", "android": "https://dc.lft.to/lastmile_qr_scan"}, "is_disabled": 0, "lon": -77.03306566666667, "name": "c8b4c75a8a469a7537031af4b5c2f45d", "fusion_lon": 0.0}, {"lat": 38.91270033333333, "fusion_lat": 0.0, "type": "electric_scooter", "bike_id": "9e4bce633c7d026c392326b0aeef31ff", "is_reserved": 0, "rental_uris": {"ios": "https://dc.lft.to/lastmile_qr_scan", "android": "https://dc.lft.to/lastmile_qr_scan"}, "is_disabled": 0, "lon": -77.045571, "name": "9e4bce633c7d026c392326b0aeef31ff", "fusion_lon": 0.0}, {"lat": 38.917573166666664, "fusion_lat": 0.0, "type": "electric_scooter", "bike_id": "10751d351284448be0bbacc06787220c", "is_reserved": 0, "rental_uris": {"ios": "https://dc.lft.to/lastmile_qr_scan", "android": "https://dc.lft.to/lastmile_qr_scan"}, "is_disabled": 0, "lon": -77.0160665, "name": "10751d351284448be0bbacc06787220c", "fusion_lon": 0.0}, {"lat": 38.88340683333333, "fusion_lat": 0.0, "type": "electric_scooter", "bike_id": "d57630db2e95450a58885853137494d9", "is_reserved": 0, "rental_uris": {"ios": "https://dc.lft.to/lastmile_qr_scan", "android": "https://dc.lft.to/lastmile_qr_scan"}, "is_disabled": 0, "lon": -77.0175525, "name": "d57630db2e95450a58885853137494d9", "fusion_lon": 0.0}, {"lat": 38.9932765, "fusion_lat": 0.0, "type": "electric_bike", "bike_id": "92bb255686438c548a9ca0975f51f167", "is_reserved": 0, "rental_uris": {"ios": "https://dc.lft.to/lastmile_qr_scan", "android": "https://dc.lft.to/lastmile_qr_scan"}, "is_disabled": 0, "lon": -76.94614066666666, "name": "92bb255686438c548a9ca0975f51f167", "fusion_lon": 0.0}, {"lat": 38.90290783333333, "fusion_lat": 0.0, "type": "electric_scooter", "bike_id": "c4c4cdd213686b6292d9ab172a68a731", "is_reserved": 0, "rental_uris": {"ios": "https://dc.lft.to/lastmile_qr_scan", "android": "https://dc.lft.to/lastmile_qr_scan"}, "is_disabled": 0, "lon": -77.04881383333333, "name": "c4c4cdd213686b6292d9ab172a68a731", "fusion_lon": 0.0}, {"lat": 38.9119215, "fusion_lat": 0.0, "type": "electric_scooter", "bike_id": "baa549c9fd10080301df2bc9c1267228", "is_reserved": 0, "rental_uris": {"ios": "https://dc.lft.to/lastmile_qr_scan", "android": "https://dc.lft.to/lastmile_qr_scan"}, "is_disabled": 0, "lon": -77.00712233333333, "name": "baa549c9fd10080301df2bc9c1267228", "fusion_lon": 0.0}, {"lat": 38.92374616666667, "fusion_lat": 0.0, "type": "electric_scooter", "bike_id": "4a53db8c7c4967360be2475fad45d863", "is_reserved": 0, "rental_uris": {"ios": "https://dc.lft.to/lastmile_qr_scan", "android": "https://dc.lft.to/lastmile_qr_scan"}, "is_disabled": 0, "lon": -77.04096583333333, "name": "4a53db8c7c4967360be2475fad45d863", "fusion_lon": 0.0}, {"lat": 38.9086805, "fusion_lat": 0.0, "type": "electric_scooter", "bike_id": "91d895999d6706bf00631d9f75484ed9", "is_reserved": 0, "rental_uris": {"ios": "https://dc.lft.to/lastmile_qr_scan", "android": "https://dc.lft.to/lastmile_qr_scan"}, "is_disabled": 0, "lon": -77.02422933333334, "name": "91d895999d6706bf00631d9f75484ed9", "fusion_lon": 0.0}, {"lat": 38.855207166666666, "fusion_lat": 0.0, "type": "electric_bike", "bike_id": "0d25328512e9ff5616b4adfdc9e1edd6", "is_reserved": 0, "rental_uris": {"ios": "https://dc.lft.to/lastmile_qr_scan", "android": "https://dc.lft.to/lastmile_qr_scan"}, "is_disabled": 0, "lon": -77.119944, "name": "0d25328512e9ff5616b4adfdc9e1edd6", "fusion_lon": 0.0}, {"lat": 38.886098, "fusion_lat": 0.0, "type": "electric_scooter", "bike_id": "dd37c523b739433aae24c9f00034f3dc", "is_reserved": 0, "rental_uris": {"ios": "https://dc.lft.to/lastmile_qr_scan", "android": "https://dc.lft.to/lastmile_qr_scan"}, "is_disabled": 0, "lon": -76.99515133333334, "name": "dd37c523b739433aae24c9f00034f3dc", "fusion_lon": 0.0}, {"lat": 38.92879383333333, "fusion_lat": 0.0, "type": "electric_scooter", "bike_id": "fe0d892a56a5ea30f814156aa8ccc4b9", "is_reserved": 0, "rental_uris": {"ios": "https://dc.lft.to/lastmile_qr_scan", "android": "https://dc.lft.to/lastmile_qr_scan"}, "is_disabled": 0, "lon": -77.027357, "name": "fe0d892a56a5ea30f814156aa8ccc4b9", "fusion_lon": 0.0}, {"lat": 38.902394666666666, "fusion_lat": 0.0, "type": "electric_scooter", "bike_id": "873b044fe92676d0e3a5045d05de0332", "is_reserved": 0, "rental_uris": {"ios": "https://dc.lft.to/lastmile_qr_scan", "android": "https://dc.lft.to/lastmile_qr_scan"}, "is_disabled": 0, "lon": -77.04418266666667, "name": "873b044fe92676d0e3a5045d05de0332", "fusion_lon": 0.0}, {"lat": 38.90742266666667, "fusion_lat": 0.0, "type": "electric_scooter", "bike_id": "ceb161ba9e311f99aead3483d18c2e2c", "is_reserved": 0, "rental_uris": {"ios": "https://dc.lft.to/lastmile_qr_scan", "android": "https://dc.lft.to/lastmile_qr_scan"}, "is_disabled": 0, "lon": -77.0317065, "name": "ceb161ba9e311f99aead3483d18c2e2c", "fusion_lon": 0.0}, {"lat": 38.87876633333333, "fusion_lat": 0.0, "type": "electric_scooter", "bike_id": "4d3bce71bf88fdd996f900f28ffacad1", "is_reserved": 0, "rental_uris": {"ios": "https://dc.lft.to/lastmile_qr_scan", "android": "https://dc.lft.to/lastmile_qr_scan"}, "is_disabled": 0, "lon": -77.02310633333333, "name": "4d3bce71bf88fdd996f900f28ffacad1", "fusion_lon": 0.0}, {"lat": 38.98365283333333, "fusion_lat": 0.0, "type": "electric_bike", "bike_id": "030916aad241a77e8b245e160f76574d", "is_reserved": 0, "rental_uris": {"ios": "https://dc.lft.to/lastmile_qr_scan", "android": "https://dc.lft.to/lastmile_qr_scan"}, "is_disabled": 0, "lon": -76.972123, "name": "030916aad241a77e8b245e160f76574d", "fusion_lon": 0.0}, {"lat": 38.9235045, "fusion_lat": 0.0, "type": "electric_scooter", "bike_id": "b1d82bb68dff5b1e2a851cbc6fb3a2f5", "is_reserved": 0, "rental_uris": {"ios": "https://dc.lft.to/lastmile_qr_scan", "android": "https://dc.lft.to/lastmile_qr_scan"}, "is_disabled": 0, "lon": -77.05081916666667, "name": "b1d82bb68dff5b1e2a851cbc6fb3a2f5", "fusion_lon": 0.0}, {"lat": 38.9163415, "fusion_lat": 0.0, "type": "electric_scooter", "bike_id": "2c2c5bee62259e92666eda058c847eb9", "is_reserved": 0, "rental_uris": {"ios": "https://dc.lft.to/lastmile_qr_scan", "android": "https://dc.lft.to/lastmile_qr_scan"}, "is_disabled": 0, "lon": -77.0317285, "name": "2c2c5bee62259e92666eda058c847eb9", "fusion_lon": 0.0}, {"lat": 38.9614175, "fusion_lat": 0.0, "type": "electric_scooter", "bike_id": "64bb4ee0a559ef0adfca8c09139d42f1", "is_reserved": 0, "rental_uris": {"ios": "https://dc.lft.to/lastmile_qr_scan", "android": "https://dc.lft.to/lastmile_qr_scan"}, "is_disabled": 0, "lon": -77.02787583333334, "name": "64bb4ee0a559ef0adfca8c09139d42f1", "fusion_lon": 0.0}, {"lat": 38.924174, "fusion_lat": 0.0, "type": "electric_scooter", "bike_id": "b6b579d7a48088fd4434f3296f0a8e52", "is_reserved": 0, "rental_uris": {"ios": "https://dc.lft.to/lastmile_qr_scan", "android": "https://dc.lft.to/lastmile_qr_scan"}, "is_disabled": 0, "lon": -77.05069933333333, "name": "b6b579d7a48088fd4434f3296f0a8e52", "fusion_lon": 0.0}, {"lat": 38.90013033333334, "fusion_lat": 0.0, "type": "electric_scooter", "bike_id": "0e879ee96849b1ccd4c7f6a476ae489d", "is_reserved": 0, "rental_uris": {"ios": "https://dc.lft.to/lastmile_qr_scan", "android": "https://dc.lft.to/lastmile_qr_scan"}, "is_disabled": 0, "lon": -76.98009016666667, "name": "0e879ee96849b1ccd4c7f6a476ae489d", "fusion_lon": 0.0}, {"lat": 38.95751416666667, "fusion_lat": 0.0, "type": "electric_scooter", "bike_id": "aff97d9d306ab03b1a909c13060c0fe0", "is_reserved": 0, "rental_uris": {"ios": "https://dc.lft.to/lastmile_qr_scan", "android": "https://dc.lft.to/lastmile_qr_scan"}, "is_disabled": 0, "lon": -77.02066183333334, "name": "aff97d9d306ab03b1a909c13060c0fe0", "fusion_lon": 0.0}, {"lat": 38.83141116666667, "fusion_lat": 0.0, "type": "electric_scooter", "bike_id": "a42196f910ebf90bd78bd8b1157a27df", "is_reserved": 0, "rental_uris": {"ios": "https://dc.lft.to/lastmile_qr_scan", "android": "https://dc.lft.to/lastmile_qr_scan"}, "is_disabled": 0, "lon": -77.05128766666667, "name": "a42196f910ebf90bd78bd8b1157a27df", "fusion_lon": 0.0}, {"lat": 38.936763666666664, "fusion_lat": 0.0, "type": "electric_scooter", "bike_id": "882945148772e89cf5ba1678290bd7de", "is_reserved": 0, "rental_uris": {"ios": "https://dc.lft.to/lastmile_qr_scan", "android": "https://dc.lft.to/lastmile_qr_scan"}, "is_disabled": 0, "lon": -77.03561, "name": "882945148772e89cf5ba1678290bd7de", "fusion_lon": 0.0}, {"lat": 38.8624325, "fusion_lat": 0.0, "type": "electric_scooter", "bike_id": "a36204f9e8376d4aea88a926c256659f", "is_reserved": 0, "rental_uris": {"ios": "https://dc.lft.to/lastmile_qr_scan", "android": "https://dc.lft.to/lastmile_qr_scan"}, "is_disabled": 0, "lon": -76.9949595, "name": "a36204f9e8376d4aea88a926c256659f", "fusion_lon": 0.0}, {"lat": 38.903825, "fusion_lat": 0.0, "type": "electric_scooter", "bike_id": "1144047d09f70c430b7f61ce9c65b225", "is_reserved": 0, "rental_uris": {"ios": "https://dc.lft.to/lastmile_qr_scan", "android": "https://dc.lft.to/lastmile_qr_scan"}, "is_disabled": 0, "lon": -77.030206, "name": "1144047d09f70c430b7f61ce9c65b225", "fusion_lon": 0.0}, {"lat": 38.902742333333336, "fusion_lat": 0.0, "type": "electric_bike", "bike_id": "c4e6997d3e521eb1b46a41c2c0bd1c85", "is_reserved": 0, "rental_uris": {"ios": "https://dc.lft.to/lastmile_qr_scan", "android": "https://dc.lft.to/lastmile_qr_scan"}, "is_disabled": 0, "lon": -77.03219766666666, "name": "c4e6997d3e521eb1b46a41c2c0bd1c85", "fusion_lon": 0.0}, {"lat": 38.92035816666667, "fusion_lat": 0.0, "type": "electric_scooter", "bike_id": "60d7101a22747a962f9d8b2aeed1a358", "is_reserved": 0, "rental_uris": {"ios": "https://dc.lft.to/lastmile_qr_scan", "android": "https://dc.lft.to/lastmile_qr_scan"}, "is_disabled": 0, "lon": -77.0259115, "name": "60d7101a22747a962f9d8b2aeed1a358", "fusion_lon": 0.0}, {"lat": 38.8880995, "fusion_lat": 0.0, "type": "electric_bike", "bike_id": "af0e091831e24d15747f9797cfc783de", "is_reserved": 0, "rental_uris": {"ios": "https://dc.lft.to/lastmile_qr_scan", "android": "https://dc.lft.to/lastmile_qr_scan"}, "is_disabled": 0, "lon": -77.12636016666667, "name": "af0e091831e24d15747f9797cfc783de", "fusion_lon": 0.0}, {"lat": 38.92064166666667, "fusion_lat": 0.0, "type": "electric_scooter", "bike_id": "3e92f3b53ba3d27e825ed9d4f6a1e69a", "is_reserved": 0, "rental_uris": {"ios": "https://dc.lft.to/lastmile_qr_scan", "android": "https://dc.lft.to/lastmile_qr_scan"}, "is_disabled": 0, "lon": -77.02523, "name": "3e92f3b53ba3d27e825ed9d4f6a1e69a", "fusion_lon": 0.0}, {"lat": 38.93403, "fusion_lat": 0.0, "type": "electric_scooter", "bike_id": "8842b28e51555ad9ba4677600971fc6d", "is_reserved": 0, "rental_uris": {"ios": "https://dc.lft.to/lastmile_qr_scan", "android": "https://dc.lft.to/lastmile_qr_scan"}, "is_disabled": 0, "lon": -77.03988683333333, "name": "8842b28e51555ad9ba4677600971fc6d", "fusion_lon": 0.0}, {"lat": 38.9422105, "fusion_lat": 0.0, "type": "electric_bike", "bike_id": "0a2c4c833a584e57afef05b16c53dcf7", "is_reserved": 0, "rental_uris": {"ios": "https://dc.lft.to/lastmile_qr_scan", "android": "https://dc.lft.to/lastmile_qr_scan"}, "is_disabled": 0, "lon": -76.96616466666667, "name": "0a2c4c833a584e57afef05b16c53dcf7", "fusion_lon": 0.0}, {"lat": 38.929664, "fusion_lat": 0.0, "type": "electric_bike", "bike_id": "322d85a26e86166904e5851a4813190f", "is_reserved": 0, "rental_uris": {"ios": "https://dc.lft.to/lastmile_qr_scan", "android": "https://dc.lft.to/lastmile_qr_scan"}, "is_disabled": 0, "lon": -77.18565683333334, "name": "322d85a26e86166904e5851a4813190f", "fusion_lon": 0.0}, {"lat": 38.92454166666667, "fusion_lat": 0.0, "type": "electric_scooter", "bike_id": "9dce0eee155ddc8289a92d5622fb2460", "is_reserved": 0, "rental_uris": {"ios": "https://dc.lft.to/lastmile_qr_scan", "android": "https://dc.lft.to/lastmile_qr_scan"}, "is_disabled": 0, "lon": -77.07824283333333, "name": "9dce0eee155ddc8289a92d5622fb2460", "fusion_lon": 0.0}, {"lat": 38.886097, "fusion_lat": 0.0, "type": "electric_scooter", "bike_id": "9aae8c53caf6fe78a668de637f5ac2fa", "is_reserved": 0, "rental_uris": {"ios": "https://dc.lft.to/lastmile_qr_scan", "android": "https://dc.lft.to/lastmile_qr_scan"}, "is_disabled": 0, "lon": -76.9951215, "name": "9aae8c53caf6fe78a668de637f5ac2fa", "fusion_lon": 0.0}, {"lat": 39.05501366666667, "fusion_lat": 0.0, "type": "electric_bike", "bike_id": "793621f158648a301d5475d66de5d474", "is_reserved": 0, "rental_uris": {"ios": "https://dc.lft.to/lastmile_qr_scan", "android": "https://dc.lft.to/lastmile_qr_scan"}, "is_disabled": 0, "lon": -77.046542, "name": "793621f158648a301d5475d66de5d474", "fusion_lon": 0.0}, {"lat": 38.90285516666667, "fusion_lat": 0.0, "type": "electric_scooter", "bike_id": "b66881eb4176c116adef761ee27099db", "is_reserved": 0, "rental_uris": {"ios": "https://dc.lft.to/lastmile_qr_scan", "android": "https://dc.lft.to/lastmile_qr_scan"}, "is_disabled": 0, "lon": -77.05807216666666, "name": "b66881eb4176c116adef761ee27099db", "fusion_lon": 0.0}, {"lat": 38.89838733333333, "fusion_lat": 0.0, "type": "electric_scooter", "bike_id": "b21531abc6a62a038652f4dead1ac0fb", "is_reserved": 0, "rental_uris": {"ios": "https://dc.lft.to/lastmile_qr_scan", "android": "https://dc.lft.to/lastmile_qr_scan"}, "is_disabled": 0, "lon": -77.025919, "name": "b21531abc6a62a038652f4dead1ac0fb", "fusion_lon": 0.0}, {"lat": 38.90369333333334, "fusion_lat": 0.0, "type": "electric_scooter", "bike_id": "282158f7291a9438b18a365553921ef2", "is_reserved": 0, "rental_uris": {"ios": "https://dc.lft.to/lastmile_qr_scan", "android": "https://dc.lft.to/lastmile_qr_scan"}, "is_disabled": 0, "lon": -77.04341883333333, "name": "282158f7291a9438b18a365553921ef2", "fusion_lon": 0.0}, {"lat": 38.92823333333333, "fusion_lat": 0.0, "type": "electric_scooter", "bike_id": "353144b622c714dd20b8f745c0f6b0d5", "is_reserved": 0, "rental_uris": {"ios": "https://dc.lft.to/lastmile_qr_scan", "android": "https://dc.lft.to/lastmile_qr_scan"}, "is_disabled": 0, "lon": -77.03641383333333, "name": "353144b622c714dd20b8f745c0f6b0d5", "fusion_lon": 0.0}, {"lat": 38.920625666666666, "fusion_lat": 0.0, "type": "electric_scooter", "bike_id": "076add13ea568fa450d8185593d4ba27", "is_reserved": 0, "rental_uris": {"ios": "https://dc.lft.to/lastmile_qr_scan", "android": "https://dc.lft.to/lastmile_qr_scan"}, "is_disabled": 0, "lon": -77.02312866666666, "name": "076add13ea568fa450d8185593d4ba27", "fusion_lon": 0.0}, {"lat": 38.9332665, "fusion_lat": 0.0, "type": "electric_scooter", "bike_id": "aff05c898700e6153193e4cd4316cbce", "is_reserved": 0, "rental_uris": {"ios": "https://dc.lft.to/lastmile_qr_scan", "android": "https://dc.lft.to/lastmile_qr_scan"}, "is_disabled": 0, "lon": -77.034364, "name": "aff05c898700e6153193e4cd4316cbce", "fusion_lon": 0.0}, {"lat": 38.89614, "fusion_lat": 0.0, "type": "electric_scooter", "bike_id": "e42f258e5b1a6ad2b30492b919a61b47", "is_reserved": 0, "rental_uris": {"ios": "https://dc.lft.to/lastmile_qr_scan", "android": "https://dc.lft.to/lastmile_qr_scan"}, "is_disabled": 0, "lon": -77.044705, "name": "e42f258e5b1a6ad2b30492b919a61b47", "fusion_lon": 0.0}, {"lat": 38.864837666666666, "fusion_lat": 0.0, "type": "electric_scooter", "bike_id": "ecf3b23843cc98d39ef55047a46dd9b5", "is_reserved": 0, "rental_uris": {"ios": "https://dc.lft.to/lastmile_qr_scan", "android": "https://dc.lft.to/lastmile_qr_scan"}, "is_disabled": 0, "lon": -76.97741166666667, "name": "ecf3b23843cc98d39ef55047a46dd9b5", "fusion_lon": 0.0}, {"lat": 38.908342833333336, "fusion_lat": 0.0, "type": "electric_scooter", "bike_id": "47ef1bcc65bbff81394452f67a2a56a4", "is_reserved": 0, "rental_uris": {"ios": "https://dc.lft.to/lastmile_qr_scan", "android": "https://dc.lft.to/lastmile_qr_scan"}, "is_disabled": 0, "lon": -77.01272866666666, "name": "47ef1bcc65bbff81394452f67a2a56a4", "fusion_lon": 0.0}, {"lat": 38.89359283333334, "fusion_lat": 0.0, "type": "electric_scooter", "bike_id": "bc5b8dc074d0afafe2a46373a7b714a1", "is_reserved": 0, "rental_uris": {"ios": "https://dc.lft.to/lastmile_qr_scan", "android": "https://dc.lft.to/lastmile_qr_scan"}, "is_disabled": 0, "lon": -76.94937866666666, "name": "bc5b8dc074d0afafe2a46373a7b714a1", "fusion_lon": 0.0}, {"lat": 38.924158166666665, "fusion_lat": 0.0, "type": "electric_scooter", "bike_id": "a517bcaaedafa3beacc05182b235b5bd", "is_reserved": 0, "rental_uris": {"ios": "https://dc.lft.to/lastmile_qr_scan", "android": "https://dc.lft.to/lastmile_qr_scan"}, "is_disabled": 0, "lon": -77.020101, "name": "a517bcaaedafa3beacc05182b235b5bd", "fusion_lon": 0.0}, {"lat": 38.916836833333335, "fusion_lat": 0.0, "type": "electric_scooter", "bike_id": "91b89c3eaa4a124cb9cc1bb965c53f1e", "is_reserved": 0, "rental_uris": {"ios": "https://dc.lft.to/lastmile_qr_scan", "android": "https://dc.lft.to/lastmile_qr_scan"}, "is_disabled": 0, "lon": -77.02700733333333, "name": "91b89c3eaa4a124cb9cc1bb965c53f1e", "fusion_lon": 0.0}, {"lat": 38.91571783333333, "fusion_lat": 0.0, "type": "electric_scooter", "bike_id": "940aa19f2aec123d7cbfc8004c2ade7e", "is_reserved": 0, "rental_uris": {"ios": "https://dc.lft.to/lastmile_qr_scan", "android": "https://dc.lft.to/lastmile_qr_scan"}, "is_disabled": 0, "lon": -77.04494383333333, "name": "940aa19f2aec123d7cbfc8004c2ade7e", "fusion_lon": 0.0}, {"lat": 38.90009283333333, "fusion_lat": 0.0, "type": "electric_scooter", "bike_id": "ba99d148b3f49f40eabd037e5343b8fa", "is_reserved": 0, "rental_uris": {"ios": "https://dc.lft.to/lastmile_qr_scan", "android": "https://dc.lft.to/lastmile_qr_scan"}, "is_disabled": 0, "lon": -77.02618666666666, "name": "ba99d148b3f49f40eabd037e5343b8fa", "fusion_lon": 0.0}, {"lat": 38.93546466666667, "fusion_lat": 0.0, "type": "electric_scooter", "bike_id": "cf1eece34482a6bd4dab56dfa5b085f4", "is_reserved": 0, "rental_uris": {"ios": "https://dc.lft.to/lastmile_qr_scan", "android": "https://dc.lft.to/lastmile_qr_scan"}, "is_disabled": 0, "lon": -77.05859, "name": "cf1eece34482a6bd4dab56dfa5b085f4", "fusion_lon": 0.0}, {"lat": 38.91703, "fusion_lat": 0.0, "type": "electric_scooter", "bike_id": "b12ddd957ce8cdc254a637c692f25d2e", "is_reserved": 0, "rental_uris": {"ios": "https://dc.lft.to/lastmile_qr_scan", "android": "https://dc.lft.to/lastmile_qr_scan"}, "is_disabled": 0, "lon": -77.03154783333333, "name": "b12ddd957ce8cdc254a637c692f25d2e", "fusion_lon": 0.0}, {"lat": 38.96960516666667, "fusion_lat": 0.0, "type": "electric_bike", "bike_id": "12e89aaeec6e7ff8975bd68bfb959604", "is_reserved": 0, "rental_uris": {"ios": "https://dc.lft.to/lastmile_qr_scan", "android": "https://dc.lft.to/lastmile_qr_scan"}, "is_disabled": 0, "lon": -76.95748966666666, "name": "12e89aaeec6e7ff8975bd68bfb959604", "fusion_lon": 0.0}, {"lat": 38.895589333333334, "fusion_lat": 0.0, "type": "electric_scooter", "bike_id": "d4f1f594cb8256c814b65ddbac8650f8", "is_reserved": 0, "rental_uris": {"ios": "https://dc.lft.to/lastmile_qr_scan", "android": "https://dc.lft.to/lastmile_qr_scan"}, "is_disabled": 0, "lon": -77.04680083333334, "name": "d4f1f594cb8256c814b65ddbac8650f8", "fusion_lon": 0.0}, {"lat": 38.923332333333335, "fusion_lat": 0.0, "type": "electric_scooter", "bike_id": "42c4cb5f1bd00aa0e9f620c4cb458b98", "is_reserved": 0, "rental_uris": {"ios": "https://dc.lft.to/lastmile_qr_scan", "android": "https://dc.lft.to/lastmile_qr_scan"}, "is_disabled": 0, "lon": -77.029612, "name": "42c4cb5f1bd00aa0e9f620c4cb458b98", "fusion_lon": 0.0}, {"lat": 38.898496, "fusion_lat": 0.0, "type": "electric_scooter", "bike_id": "01efe8414007deb576b666ce1e9195eb", "is_reserved": 0, "rental_uris": {"ios": "https://dc.lft.to/lastmile_qr_scan", "android": "https://dc.lft.to/lastmile_qr_scan"}, "is_disabled": 0, "lon": -77.0218105, "name": "01efe8414007deb576b666ce1e9195eb", "fusion_lon": 0.0}, {"lat": 38.91028683333333, "fusion_lat": 0.0, "type": "electric_scooter", "bike_id": "fd880d4d73d7d07a59e5b0bf8103a464", "is_reserved": 0, "rental_uris": {"ios": "https://dc.lft.to/lastmile_qr_scan", "android": "https://dc.lft.to/lastmile_qr_scan"}, "is_disabled": 0, "lon": -77.048657, "name": "fd880d4d73d7d07a59e5b0bf8103a464", "fusion_lon": 0.0}, {"lat": 38.920162, "fusion_lat": 0.0, "type": "electric_scooter", "bike_id": "70b598ef7a9fcb067f3ae5ae76b62106", "is_reserved": 0, "rental_uris": {"ios": "https://dc.lft.to/lastmile_qr_scan", "android": "https://dc.lft.to/lastmile_qr_scan"}, "is_disabled": 0, "lon": -77.02071883333333, "name": "70b598ef7a9fcb067f3ae5ae76b62106", "fusion_lon": 0.0}, {"lat": 38.927408, "fusion_lat": 0.0, "type": "electric_scooter", "bike_id": "c662ec1e2211f02e6d5406772f4f6dd4", "is_reserved": 0, "rental_uris": {"ios": "https://dc.lft.to/lastmile_qr_scan", "android": "https://dc.lft.to/lastmile_qr_scan"}, "is_disabled": 0, "lon": -77.0226945, "name": "c662ec1e2211f02e6d5406772f4f6dd4", "fusion_lon": 0.0}, {"lat": 38.90023383333333, "fusion_lat": 0.0, "type": "electric_scooter", "bike_id": "c34db224b8a7abd297ac5ed11bf6485b", "is_reserved": 0, "rental_uris": {"ios": "https://dc.lft.to/lastmile_qr_scan", "android": "https://dc.lft.to/lastmile_qr_scan"}, "is_disabled": 0, "lon": -76.998622, "name": "c34db224b8a7abd297ac5ed11bf6485b", "fusion_lon": 0.0}, {"lat": 38.862365, "fusion_lat": 0.0, "type": "electric_scooter", "bike_id": "c8c088f355b24bb9e179f6a1681c5622", "is_reserved": 0, "rental_uris": {"ios": "https://dc.lft.to/lastmile_qr_scan", "android": "https://dc.lft.to/lastmile_qr_scan"}, "is_disabled": 0, "lon": -76.99517033333333, "name": "c8c088f355b24bb9e179f6a1681c5622", "fusion_lon": 0.0}, {"lat": 38.8922265, "fusion_lat": 0.0, "type": "electric_scooter", "bike_id": "a127bbd2390c851b9af21223660c4eaa", "is_reserved": 0, "rental_uris": {"ios": "https://dc.lft.to/lastmile_qr_scan", "android": "https://dc.lft.to/lastmile_qr_scan"}, "is_disabled": 0, "lon": -77.02312433333333, "name": "a127bbd2390c851b9af21223660c4eaa", "fusion_lon": 0.0}, {"lat": 38.9045815, "fusion_lat": 0.0, "type": "electric_scooter", "bike_id": "227bc13d92a9dfc4df1eecdbdc8ef93c", "is_reserved": 0, "rental_uris": {"ios": "https://dc.lft.to/lastmile_qr_scan", "android": "https://dc.lft.to/lastmile_qr_scan"}, "is_disabled": 0, "lon": -77.03564583333333, "name": "227bc13d92a9dfc4df1eecdbdc8ef93c", "fusion_lon": 0.0}, {"lat": 38.93474166666667, "fusion_lat": 0.0, "type": "electric_scooter", "bike_id": "04efdf9824ce294af7c5a08028be885d", "is_reserved": 0, "rental_uris": {"ios": "https://dc.lft.to/lastmile_qr_scan", "android": "https://dc.lft.to/lastmile_qr_scan"}, "is_disabled": 0, "lon": -77.03582433333334, "name": "04efdf9824ce294af7c5a08028be885d", "fusion_lon": 0.0}, {"lat": 38.9050235, "fusion_lat": 0.0, "type": "electric_scooter", "bike_id": "d2c11cb8985a443f89f989688dd65dd7", "is_reserved": 0, "rental_uris": {"ios": "https://dc.lft.to/lastmile_qr_scan", "android": "https://dc.lft.to/lastmile_qr_scan"}, "is_disabled": 0, "lon": -77.02949383333333, "name": "d2c11cb8985a443f89f989688dd65dd7", "fusion_lon": 0.0}, {"lat": 38.79986666666667, "fusion_lat": 0.0, "type": "electric_bike", "bike_id": "64110228f3aade10099cda4d9c79bcae", "is_reserved": 0, "rental_uris": {"ios": "https://dc.lft.to/lastmile_qr_scan", "android": "https://dc.lft.to/lastmile_qr_scan"}, "is_disabled": 0, "lon": -77.12979133333333, "name": "64110228f3aade10099cda4d9c79bcae", "fusion_lon": 0.0}, {"lat": 38.916809, "fusion_lat": 0.0, "type": "electric_scooter", "bike_id": "e80c10e874995afbfa2306b98dc56133", "is_reserved": 0, "rental_uris": {"ios": "https://dc.lft.to/lastmile_qr_scan", "android": "https://dc.lft.to/lastmile_qr_scan"}, "is_disabled": 0, "lon": -77.03692066666666, "name": "e80c10e874995afbfa2306b98dc56133", "fusion_lon": 0.0}, {"lat": 38.93637183333333, "fusion_lat": 0.0, "type": "electric_scooter", "bike_id": "a89ad16680b4b03c9db0de0e1e96a8b7", "is_reserved": 0, "rental_uris": {"ios": "https://dc.lft.to/lastmile_qr_scan", "android": "https://dc.lft.to/lastmile_qr_scan"}, "is_disabled": 0, "lon": -77.05887433333334, "name": "a89ad16680b4b03c9db0de0e1e96a8b7", "fusion_lon": 0.0}, {"lat": 38.9160615, "fusion_lat": 0.0, "type": "electric_scooter", "bike_id": "a6b01c0f702f92867d5c0bbaa6d2154e", "is_reserved": 0, "rental_uris": {"ios": "https://dc.lft.to/lastmile_qr_scan", "android": "https://dc.lft.to/lastmile_qr_scan"}, "is_disabled": 0, "lon": -77.03215633333333, "name": "a6b01c0f702f92867d5c0bbaa6d2154e", "fusion_lon": 0.0}, {"lat": 38.92319883333333, "fusion_lat": 0.0, "type": "electric_scooter", "bike_id": "c64e0b7849ae86238be80973bb8f8bde", "is_reserved": 0, "rental_uris": {"ios": "https://dc.lft.to/lastmile_qr_scan", "android": "https://dc.lft.to/lastmile_qr_scan"}, "is_disabled": 0, "lon": -77.03916066666666, "name": "c64e0b7849ae86238be80973bb8f8bde", "fusion_lon": 0.0}, {"lat": 38.90503866666667, "fusion_lat": 0.0, "type": "electric_scooter", "bike_id": "d99f3ce089ef422321fa57a9d6d2d73e", "is_reserved": 0, "rental_uris": {"ios": "https://dc.lft.to/lastmile_qr_scan", "android": "https://dc.lft.to/lastmile_qr_scan"}, "is_disabled": 0, "lon": -77.03858033333333, "name": "d99f3ce089ef422321fa57a9d6d2d73e", "fusion_lon": 0.0}, {"lat": 38.90503833333333, "fusion_lat": 0.0, "type": "electric_scooter", "bike_id": "f93cee0620fface21854c7a6cf18d15f", "is_reserved": 0, "rental_uris": {"ios": "https://dc.lft.to/lastmile_qr_scan", "android": "https://dc.lft.to/lastmile_qr_scan"}, "is_disabled": 0, "lon": -77.06512216666667, "name": "f93cee0620fface21854c7a6cf18d15f", "fusion_lon": 0.0}, {"lat": 38.91709483333333, "fusion_lat": 0.0, "type": "electric_scooter", "bike_id": "cfbee0fdc32e96d2f727ebc31c367eb3", "is_reserved": 0, "rental_uris": {"ios": "https://dc.lft.to/lastmile_qr_scan", "android": "https://dc.lft.to/lastmile_qr_scan"}, "is_disabled": 0, "lon": -77.03446916666667, "name": "cfbee0fdc32e96d2f727ebc31c367eb3", "fusion_lon": 0.0}, {"lat": 38.94962833333334, "fusion_lat": 0.0, "type": "electric_bike", "bike_id": "c3bc896cc9f0555929bf46519e18d142", "is_reserved": 0, "rental_uris": {"ios": "https://dc.lft.to/lastmile_qr_scan", "android": "https://dc.lft.to/lastmile_qr_scan"}, "is_disabled": 0, "lon": -77.0663155, "name": "c3bc896cc9f0555929bf46519e18d142", "fusion_lon": 0.0}, {"lat": 38.917116, "fusion_lat": 0.0, "type": "electric_scooter", "bike_id": "4c5e251595022559fee1f6e5c71eda38", "is_reserved": 0, "rental_uris": {"ios": "https://dc.lft.to/lastmile_qr_scan", "android": "https://dc.lft.to/lastmile_qr_scan"}, "is_disabled": 0, "lon": -77.034418, "name": "4c5e251595022559fee1f6e5c71eda38", "fusion_lon": 0.0}, {"lat": 38.885443333333335, "fusion_lat": 0.0, "type": "electric_scooter", "bike_id": "2fb24d2c3581631072a1f6a206641fd0", "is_reserved": 0, "rental_uris": {"ios": "https://dc.lft.to/lastmile_qr_scan", "android": "https://dc.lft.to/lastmile_qr_scan"}, "is_disabled": 0, "lon": -77.02189166666666, "name": "2fb24d2c3581631072a1f6a206641fd0", "fusion_lon": 0.0}, {"lat": 38.911030333333336, "fusion_lat": 0.0, "type": "electric_scooter", "bike_id": "31e7d3f1dde850c33da4df6bdf58eafa", "is_reserved": 0, "rental_uris": {"ios": "https://dc.lft.to/lastmile_qr_scan", "android": "https://dc.lft.to/lastmile_qr_scan"}, "is_disabled": 0, "lon": -77.02505883333333, "name": "31e7d3f1dde850c33da4df6bdf58eafa", "fusion_lon": 0.0}, {"lat": 38.899566666666665, "fusion_lat": 0.0, "type": "electric_bike", "bike_id": "140c63f628d859ba48e48d3433d97779", "is_reserved": 0, "rental_uris": {"ios": "https://dc.lft.to/lastmile_qr_scan", "android": "https://dc.lft.to/lastmile_qr_scan"}, "is_disabled": 0, "lon": -76.98554316666667, "name": "140c63f628d859ba48e48d3433d97779", "fusion_lon": 0.0}, {"lat": 38.8992035, "fusion_lat": 0.0, "type": "electric_scooter", "bike_id": "dc28c4a5849ded8ba8b054d17738ab59", "is_reserved": 0, "rental_uris": {"ios": "https://dc.lft.to/lastmile_qr_scan", "android": "https://dc.lft.to/lastmile_qr_scan"}, "is_disabled": 0, "lon": -76.950666, "name": "dc28c4a5849ded8ba8b054d17738ab59", "fusion_lon": 0.0}, {"lat": 38.916384, "fusion_lat": 0.0, "type": "electric_scooter", "bike_id": "af40c23e6ff8591ade8fa1ecfb683df8", "is_reserved": 0, "rental_uris": {"ios": "https://dc.lft.to/lastmile_qr_scan", "android": "https://dc.lft.to/lastmile_qr_scan"}, "is_disabled": 0, "lon": -77.039745, "name": "af40c23e6ff8591ade8fa1ecfb683df8", "fusion_lon": 0.0}, {"lat": 38.86237466666667, "fusion_lat": 0.0, "type": "electric_scooter", "bike_id": "b77a259ebd484c7c852e4116eee184e0", "is_reserved": 0, "rental_uris": {"ios": "https://dc.lft.to/lastmile_qr_scan", "android": "https://dc.lft.to/lastmile_qr_scan"}, "is_disabled": 0, "lon": -76.99517283333333, "name": "b77a259ebd484c7c852e4116eee184e0", "fusion_lon": 0.0}, {"lat": 38.85893383333333, "fusion_lat": 0.0, "type": "electric_scooter", "bike_id": "51646f328b0b82f3ee77494f7868579a", "is_reserved": 0, "rental_uris": {"ios": "https://dc.lft.to/lastmile_qr_scan", "android": "https://dc.lft.to/lastmile_qr_scan"}, "is_disabled": 0, "lon": -76.99729516666666, "name": "51646f328b0b82f3ee77494f7868579a", "fusion_lon": 0.0}, {"lat": 38.92939283333333, "fusion_lat": 0.0, "type": "electric_scooter", "bike_id": "738cabcbe07a279bde988979950c84da", "is_reserved": 0, "rental_uris": {"ios": "https://dc.lft.to/lastmile_qr_scan", "android": "https://dc.lft.to/lastmile_qr_scan"}, "is_disabled": 0, "lon": -77.01988033333333, "name": "738cabcbe07a279bde988979950c84da", "fusion_lon": 0.0}, {"lat": 38.916824166666665, "fusion_lat": 0.0, "type": "electric_scooter", "bike_id": "cd593bbee9ca7c9214ea5c6c362297ce", "is_reserved": 0, "rental_uris": {"ios": "https://dc.lft.to/lastmile_qr_scan", "android": "https://dc.lft.to/lastmile_qr_scan"}, "is_disabled": 0, "lon": -77.02967366666667, "name": "cd593bbee9ca7c9214ea5c6c362297ce", "fusion_lon": 0.0}, {"lat": 38.92562483333333, "fusion_lat": 0.0, "type": "electric_scooter", "bike_id": "75d8e440f758f0edc15b4a24332ccda2", "is_reserved": 0, "rental_uris": {"ios": "https://dc.lft.to/lastmile_qr_scan", "android": "https://dc.lft.to/lastmile_qr_scan"}, "is_disabled": 0, "lon": -77.04377066666666, "name": "75d8e440f758f0edc15b4a24332ccda2", "fusion_lon": 0.0}, {"lat": 38.926094666666664, "fusion_lat": 0.0, "type": "electric_scooter", "bike_id": "bea7b211c1374e90b2b4df7b70033b42", "is_reserved": 0, "rental_uris": {"ios": "https://dc.lft.to/lastmile_qr_scan", "android": "https://dc.lft.to/lastmile_qr_scan"}, "is_disabled": 0, "lon": -77.02408466666667, "name": "bea7b211c1374e90b2b4df7b70033b42", "fusion_lon": 0.0}, {"lat": 38.92320933333333, "fusion_lat": 0.0, "type": "electric_scooter", "bike_id": "9298b272ff86e8414c498b6ae523e4e9", "is_reserved": 0, "rental_uris": {"ios": "https://dc.lft.to/lastmile_qr_scan", "android": "https://dc.lft.to/lastmile_qr_scan"}, "is_disabled": 0, "lon": -77.02135866666667, "name": "9298b272ff86e8414c498b6ae523e4e9", "fusion_lon": 0.0}, {"lat": 38.90034166666667, "fusion_lat": 0.0, "type": "electric_scooter", "bike_id": "6b6911ab59d7e8927525781ca76771bf", "is_reserved": 0, "rental_uris": {"ios": "https://dc.lft.to/lastmile_qr_scan", "android": "https://dc.lft.to/lastmile_qr_scan"}, "is_disabled": 0, "lon": -77.00026666666666, "name": "6b6911ab59d7e8927525781ca76771bf", "fusion_lon": 0.0}, {"lat": 38.90424616666667, "fusion_lat": 0.0, "type": "electric_scooter", "bike_id": "58098e2877839ac6259a0f50a1e9a521", "is_reserved": 0, "rental_uris": {"ios": "https://dc.lft.to/lastmile_qr_scan", "android": "https://dc.lft.to/lastmile_qr_scan"}, "is_disabled": 0, "lon": -77.0435735, "name": "58098e2877839ac6259a0f50a1e9a521", "fusion_lon": 0.0}, {"lat": 38.92550266666667, "fusion_lat": 0.0, "type": "electric_scooter", "bike_id": "079b4b638f15e492ef939548513f5f00", "is_reserved": 0, "rental_uris": {"ios": "https://dc.lft.to/lastmile_qr_scan", "android": "https://dc.lft.to/lastmile_qr_scan"}, "is_disabled": 0, "lon": -76.97225883333333, "name": "079b4b638f15e492ef939548513f5f00", "fusion_lon": 0.0}, {"lat": 38.89170466666667, "fusion_lat": 0.0, "type": "electric_bike", "bike_id": "77603caf2a0f2d3f8af1b2f4cd0b46a9", "is_reserved": 0, "rental_uris": {"ios": "https://dc.lft.to/lastmile_qr_scan", "android": "https://dc.lft.to/lastmile_qr_scan"}, "is_disabled": 0, "lon": -77.019731, "name": "77603caf2a0f2d3f8af1b2f4cd0b46a9", "fusion_lon": 0.0}, {"lat": 38.903692, "fusion_lat": 0.0, "type": "electric_scooter", "bike_id": "282e00ab2bdb024d2a349a6efd9df4ff", "is_reserved": 0, "rental_uris": {"ios": "https://dc.lft.to/lastmile_qr_scan", "android": "https://dc.lft.to/lastmile_qr_scan"}, "is_disabled": 0, "lon": -77.044923, "name": "282e00ab2bdb024d2a349a6efd9df4ff", "fusion_lon": 0.0}, {"lat": 38.88689933333333, "fusion_lat": 0.0, "type": "electric_scooter", "bike_id": "6f375528b78884ebb33a1e96072fbaf8", "is_reserved": 0, "rental_uris": {"ios": "https://dc.lft.to/lastmile_qr_scan", "android": "https://dc.lft.to/lastmile_qr_scan"}, "is_disabled": 0, "lon": -76.9763915, "name": "6f375528b78884ebb33a1e96072fbaf8", "fusion_lon": 0.0}, {"lat": 38.86692816666667, "fusion_lat": 0.0, "type": "electric_scooter", "bike_id": "6826610811570d1dcd1b3835cc5124cf", "is_reserved": 0, "rental_uris": {"ios": "https://dc.lft.to/lastmile_qr_scan", "android": "https://dc.lft.to/lastmile_qr_scan"}, "is_disabled": 0, "lon": -76.98091066666667, "name": "6826610811570d1dcd1b3835cc5124cf", "fusion_lon": 0.0}, {"lat": 38.909818333333334, "fusion_lat": 0.0, "type": "electric_scooter", "bike_id": "2ffc6bf112ee5cf99b0e0fa9d8cbacb0", "is_reserved": 0, "rental_uris": {"ios": "https://dc.lft.to/lastmile_qr_scan", "android": "https://dc.lft.to/lastmile_qr_scan"}, "is_disabled": 0, "lon": -77.033337, "name": "2ffc6bf112ee5cf99b0e0fa9d8cbacb0", "fusion_lon": 0.0}, {"lat": 38.918394, "fusion_lat": 0.0, "type": "electric_scooter", "bike_id": "ace8f9e18a12dda65af878b9c2746c93", "is_reserved": 0, "rental_uris": {"ios": "https://dc.lft.to/lastmile_qr_scan", "android": "https://dc.lft.to/lastmile_qr_scan"}, "is_disabled": 0, "lon": -77.027, "name": "ace8f9e18a12dda65af878b9c2746c93", "fusion_lon": 0.0}, {"lat": 38.906555833333336, "fusion_lat": 0.0, "type": "electric_scooter", "bike_id": "cb4e55eaff0d4c27bd821e85b8497251", "is_reserved": 0, "rental_uris": {"ios": "https://dc.lft.to/lastmile_qr_scan", "android": "https://dc.lft.to/lastmile_qr_scan"}, "is_disabled": 0, "lon": -77.04889433333334, "name": "cb4e55eaff0d4c27bd821e85b8497251", "fusion_lon": 0.0}, {"lat": 38.921216333333334, "fusion_lat": 0.0, "type": "electric_scooter", "bike_id": "40438851f4a4dd7f8ceb170ba6fc0707", "is_reserved": 0, "rental_uris": {"ios": "https://dc.lft.to/lastmile_qr_scan", "android": "https://dc.lft.to/lastmile_qr_scan"}, "is_disabled": 0, "lon": -77.01213433333334, "name": "40438851f4a4dd7f8ceb170ba6fc0707", "fusion_lon": 0.0}, {"lat": 39.014783, "fusion_lat": 0.0, "type": "electric_bike", "bike_id": "574347383191d31bb7136acf088be9f5", "is_reserved": 0, "rental_uris": {"ios": "https://dc.lft.to/lastmile_qr_scan", "android": "https://dc.lft.to/lastmile_qr_scan"}, "is_disabled": 0, "lon": -77.05498283333333, "name": "574347383191d31bb7136acf088be9f5", "fusion_lon": 0.0}, {"lat": 38.903749833333336, "fusion_lat": 0.0, "type": "electric_scooter", "bike_id": "d7148de3c0bbb9171201469d70bbd83c", "is_reserved": 0, "rental_uris": {"ios": "https://dc.lft.to/lastmile_qr_scan", "android": "https://dc.lft.to/lastmile_qr_scan"}, "is_disabled": 0, "lon": -77.0407205, "name": "d7148de3c0bbb9171201469d70bbd83c", "fusion_lon": 0.0}, {"lat": 38.87387, "fusion_lat": 0.0, "type": "electric_scooter", "bike_id": "be4a533fe2e65cf8de55f806da56bc5d", "is_reserved": 0, "rental_uris": {"ios": "https://dc.lft.to/lastmile_qr_scan", "android": "https://dc.lft.to/lastmile_qr_scan"}, "is_disabled": 0, "lon": -77.00030016666666, "name": "be4a533fe2e65cf8de55f806da56bc5d", "fusion_lon": 0.0}, {"lat": 38.92876416666667, "fusion_lat": 0.0, "type": "electric_scooter", "bike_id": "0104a8b284054ace5d6587d88886de80", "is_reserved": 0, "rental_uris": {"ios": "https://dc.lft.to/lastmile_qr_scan", "android": "https://dc.lft.to/lastmile_qr_scan"}, "is_disabled": 0, "lon": -77.01232133333333, "name": "0104a8b284054ace5d6587d88886de80", "fusion_lon": 0.0}, {"lat": 38.92055766666667, "fusion_lat": 0.0, "type": "electric_scooter", "bike_id": "3261bab560a60d0e4fd2960294534ff2", "is_reserved": 0, "rental_uris": {"ios": "https://dc.lft.to/lastmile_qr_scan", "android": "https://dc.lft.to/lastmile_qr_scan"}, "is_disabled": 0, "lon": -77.02396833333333, "name": "3261bab560a60d0e4fd2960294534ff2", "fusion_lon": 0.0}, {"lat": 38.9027085, "fusion_lat": 0.0, "type": "electric_scooter", "bike_id": "4357b557fec7dcebbb26255b3b91e7bc", "is_reserved": 0, "rental_uris": {"ios": "https://dc.lft.to/lastmile_qr_scan", "android": "https://dc.lft.to/lastmile_qr_scan"}, "is_disabled": 0, "lon": -77.03405783333334, "name": "4357b557fec7dcebbb26255b3b91e7bc", "fusion_lon": 0.0}, {"lat": 38.91719066666667, "fusion_lat": 0.0, "type": "electric_scooter", "bike_id": "c8fdce6e6e64b5a2fa7a45b5392b582c", "is_reserved": 0, "rental_uris": {"ios": "https://dc.lft.to/lastmile_qr_scan", "android": "https://dc.lft.to/lastmile_qr_scan"}, "is_disabled": 0, "lon": -77.02973616666667, "name": "c8fdce6e6e64b5a2fa7a45b5392b582c", "fusion_lon": 0.0}, {"lat": 38.9125405, "fusion_lat": 0.0, "type": "electric_scooter", "bike_id": "43e208a4ee93247b14a3b03652b9f222", "is_reserved": 0, "rental_uris": {"ios": "https://dc.lft.to/lastmile_qr_scan", "android": "https://dc.lft.to/lastmile_qr_scan"}, "is_disabled": 0, "lon": -77.007986, "name": "43e208a4ee93247b14a3b03652b9f222", "fusion_lon": 0.0}, {"lat": 38.885621666666665, "fusion_lat": 0.0, "type": "electric_scooter", "bike_id": "db75417f91317844ef03febcacdbd5cc", "is_reserved": 0, "rental_uris": {"ios": "https://dc.lft.to/lastmile_qr_scan", "android": "https://dc.lft.to/lastmile_qr_scan"}, "is_disabled": 0, "lon": -77.020056, "name": "db75417f91317844ef03febcacdbd5cc", "fusion_lon": 0.0}, {"lat": 38.896359333333336, "fusion_lat": 0.0, "type": "electric_scooter", "bike_id": "0eafb9b1c30ef6fe8015a7e0edb70b01", "is_reserved": 0, "rental_uris": {"ios": "https://dc.lft.to/lastmile_qr_scan", "android": "https://dc.lft.to/lastmile_qr_scan"}, "is_disabled": 0, "lon": -77.02855033333333, "name": "0eafb9b1c30ef6fe8015a7e0edb70b01", "fusion_lon": 0.0}, {"lat": 38.88814033333333, "fusion_lat": 0.0, "type": "electric_scooter", "bike_id": "60adea353aef3191f8fb78125678efb6", "is_reserved": 0, "rental_uris": {"ios": "https://dc.lft.to/lastmile_qr_scan", "android": "https://dc.lft.to/lastmile_qr_scan"}, "is_disabled": 0, "lon": -76.93342816666667, "name": "60adea353aef3191f8fb78125678efb6", "fusion_lon": 0.0}, {"lat": 38.907645333333335, "fusion_lat": 0.0, "type": "electric_scooter", "bike_id": "47615223e7db1d70821b247b268b81f3", "is_reserved": 0, "rental_uris": {"ios": "https://dc.lft.to/lastmile_qr_scan", "android": "https://dc.lft.to/lastmile_qr_scan"}, "is_disabled": 0, "lon": -77.032075, "name": "47615223e7db1d70821b247b268b81f3", "fusion_lon": 0.0}, {"lat": 38.897296, "fusion_lat": 0.0, "type": "electric_scooter", "bike_id": "11536eba443aa95a01ee685b4a074738", "is_reserved": 0, "rental_uris": {"ios": "https://dc.lft.to/lastmile_qr_scan", "android": "https://dc.lft.to/lastmile_qr_scan"}, "is_disabled": 0, "lon": -77.0428675, "name": "11536eba443aa95a01ee685b4a074738", "fusion_lon": 0.0}, {"lat": 38.91041333333333, "fusion_lat": 0.0, "type": "electric_scooter", "bike_id": "a2a83cfc3d6e3ee0d1f81c3ccf809594", "is_reserved": 0, "rental_uris": {"ios": "https://dc.lft.to/lastmile_qr_scan", "android": "https://dc.lft.to/lastmile_qr_scan"}, "is_disabled": 0, "lon": -77.016213, "name": "a2a83cfc3d6e3ee0d1f81c3ccf809594", "fusion_lon": 0.0}, {"lat": 38.922123166666665, "fusion_lat": 0.0, "type": "electric_bike", "bike_id": "0a9aafb97fbec884b22089368e01f7da", "is_reserved": 0, "rental_uris": {"ios": "https://dc.lft.to/lastmile_qr_scan", "android": "https://dc.lft.to/lastmile_qr_scan"}, "is_disabled": 0, "lon": -76.98796866666666, "name": "0a9aafb97fbec884b22089368e01f7da", "fusion_lon": 0.0}, {"lat": 38.908418, "fusion_lat": 0.0, "type": "electric_scooter", "bike_id": "e51fcd58d76dbb2bb8369f8812966384", "is_reserved": 0, "rental_uris": {"ios": "https://dc.lft.to/lastmile_qr_scan", "android": "https://dc.lft.to/lastmile_qr_scan"}, "is_disabled": 0, "lon": -77.040055, "name": "e51fcd58d76dbb2bb8369f8812966384", "fusion_lon": 0.0}, {"lat": 38.920359166666664, "fusion_lat": 0.0, "type": "electric_scooter", "bike_id": "d5375912db41ac79617a2ec4d58d4a9a", "is_reserved": 0, "rental_uris": {"ios": "https://dc.lft.to/lastmile_qr_scan", "android": "https://dc.lft.to/lastmile_qr_scan"}, "is_disabled": 0, "lon": -77.0122165, "name": "d5375912db41ac79617a2ec4d58d4a9a", "fusion_lon": 0.0}, {"lat": 38.878419, "fusion_lat": 0.0, "type": "electric_scooter", "bike_id": "13639f8e9683cac04ad9e3245be7ba39", "is_reserved": 0, "rental_uris": {"ios": "https://dc.lft.to/lastmile_qr_scan", "android": "https://dc.lft.to/lastmile_qr_scan"}, "is_disabled": 0, "lon": -77.01967716666667, "name": "13639f8e9683cac04ad9e3245be7ba39", "fusion_lon": 0.0}, {"lat": 38.90120066666667, "fusion_lat": 0.0, "type": "electric_scooter", "bike_id": "aef83cb2bf3c464e1daad8799f8a73b6", "is_reserved": 0, "rental_uris": {"ios": "https://dc.lft.to/lastmile_qr_scan", "android": "https://dc.lft.to/lastmile_qr_scan"}, "is_disabled": 0, "lon": -77.0175285, "name": "aef83cb2bf3c464e1daad8799f8a73b6", "fusion_lon": 0.0}, {"lat": 38.8609185, "fusion_lat": 0.0, "type": "electric_bike", "bike_id": "08857fde697c4f8adc54704791a76252", "is_reserved": 0, "rental_uris": {"ios": "https://dc.lft.to/lastmile_qr_scan", "android": "https://dc.lft.to/lastmile_qr_scan"}, "is_disabled": 0, "lon": -77.09586766666666, "name": "08857fde697c4f8adc54704791a76252", "fusion_lon": 0.0}, {"lat": 38.90371666666667, "fusion_lat": 0.0, "type": "electric_scooter", "bike_id": "0339a27ccbc3553542f1ff3b54cd4e19", "is_reserved": 0, "rental_uris": {"ios": "https://dc.lft.to/lastmile_qr_scan", "android": "https://dc.lft.to/lastmile_qr_scan"}, "is_disabled": 0, "lon": -77.0465855, "name": "0339a27ccbc3553542f1ff3b54cd4e19", "fusion_lon": 0.0}, {"lat": 38.874145166666665, "fusion_lat": 0.0, "type": "electric_scooter", "bike_id": "8cd1231aa570d4fd0643939be8c49120", "is_reserved": 0, "rental_uris": {"ios": "https://dc.lft.to/lastmile_qr_scan", "android": "https://dc.lft.to/lastmile_qr_scan"}, "is_disabled": 0, "lon": -76.97114616666667, "name": "8cd1231aa570d4fd0643939be8c49120", "fusion_lon": 0.0}, {"lat": 38.924970333333334, "fusion_lat": 0.0, "type": "electric_scooter", "bike_id": "95463a2b9be5ba194fc2c6da2d505a43", "is_reserved": 0, "rental_uris": {"ios": "https://dc.lft.to/lastmile_qr_scan", "android": "https://dc.lft.to/lastmile_qr_scan"}, "is_disabled": 0, "lon": -77.0218175, "name": "95463a2b9be5ba194fc2c6da2d505a43", "fusion_lon": 0.0}, {"lat": 38.865036833333335, "fusion_lat": 0.0, "type": "electric_scooter", "bike_id": "23d068c95fbb441fcb5940795a7fd88f", "is_reserved": 0, "rental_uris": {"ios": "https://dc.lft.to/lastmile_qr_scan", "android": "https://dc.lft.to/lastmile_qr_scan"}, "is_disabled": 0, "lon": -76.99004283333333, "name": "23d068c95fbb441fcb5940795a7fd88f", "fusion_lon": 0.0}, {"lat": 38.89376016666667, "fusion_lat": 0.0, "type": "electric_scooter", "bike_id": "11eddf8ff0de817e0dbe409f3477f8d6", "is_reserved": 0, "rental_uris": {"ios": "https://dc.lft.to/lastmile_qr_scan", "android": "https://dc.lft.to/lastmile_qr_scan"}, "is_disabled": 0, "lon": -77.0200755, "name": "11eddf8ff0de817e0dbe409f3477f8d6", "fusion_lon": 0.0}, {"lat": 38.8824565, "fusion_lat": 0.0, "type": "electric_bike", "bike_id": "7182e521dad3b460e64b460fccf2268e", "is_reserved": 0, "rental_uris": {"ios": "https://dc.lft.to/lastmile_qr_scan", "android": "https://dc.lft.to/lastmile_qr_scan"}, "is_disabled": 0, "lon": -76.962551, "name": "7182e521dad3b460e64b460fccf2268e", "fusion_lon": 0.0}, {"lat": 38.905941166666665, "fusion_lat": 0.0, "type": "electric_scooter", "bike_id": "a88ca373b04832c6dcdca2aee0dda4d6", "is_reserved": 0, "rental_uris": {"ios": "https://dc.lft.to/lastmile_qr_scan", "android": "https://dc.lft.to/lastmile_qr_scan"}, "is_disabled": 0, "lon": -77.02200516666667, "name": "a88ca373b04832c6dcdca2aee0dda4d6", "fusion_lon": 0.0}, {"lat": 38.90827983333333, "fusion_lat": 0.0, "type": "electric_scooter", "bike_id": "d3e05e89e8f6761a26f839a4475ab196", "is_reserved": 0, "rental_uris": {"ios": "https://dc.lft.to/lastmile_qr_scan", "android": "https://dc.lft.to/lastmile_qr_scan"}, "is_disabled": 0, "lon": -76.93448566666666, "name": "d3e05e89e8f6761a26f839a4475ab196", "fusion_lon": 0.0}, {"lat": 38.907841166666664, "fusion_lat": 0.0, "type": "electric_scooter", "bike_id": "9ffff37c9339b1b1bfa4caeac84e34fe", "is_reserved": 0, "rental_uris": {"ios": "https://dc.lft.to/lastmile_qr_scan", "android": "https://dc.lft.to/lastmile_qr_scan"}, "is_disabled": 0, "lon": -77.03199266666667, "name": "9ffff37c9339b1b1bfa4caeac84e34fe", "fusion_lon": 0.0}, {"lat": 38.920693166666666, "fusion_lat": 0.0, "type": "electric_scooter", "bike_id": "ce2325c09a287eaf254c776f2a6b8d83", "is_reserved": 0, "rental_uris": {"ios": "https://dc.lft.to/lastmile_qr_scan", "android": "https://dc.lft.to/lastmile_qr_scan"}, "is_disabled": 0, "lon": -77.04214816666666, "name": "ce2325c09a287eaf254c776f2a6b8d83", "fusion_lon": 0.0}, {"lat": 38.90095766666666, "fusion_lat": 0.0, "type": "electric_scooter", "bike_id": "c7274b8c9cd0813e57f4608b1bd2fef0", "is_reserved": 0, "rental_uris": {"ios": "https://dc.lft.to/lastmile_qr_scan", "android": "https://dc.lft.to/lastmile_qr_scan"}, "is_disabled": 0, "lon": -76.97644633333333, "name": "c7274b8c9cd0813e57f4608b1bd2fef0", "fusion_lon": 0.0}, {"lat": 38.921474, "fusion_lat": 0.0, "type": "electric_scooter", "bike_id": "f2639917ac2d9f70bf03784a11073db4", "is_reserved": 0, "rental_uris": {"ios": "https://dc.lft.to/lastmile_qr_scan", "android": "https://dc.lft.to/lastmile_qr_scan"}, "is_disabled": 0, "lon": -77.01821916666667, "name": "f2639917ac2d9f70bf03784a11073db4", "fusion_lon": 0.0}, {"lat": 38.890413333333335, "fusion_lat": 0.0, "type": "electric_scooter", "bike_id": "30b33c203346016452fb11255a11f4d3", "is_reserved": 0, "rental_uris": {"ios": "https://dc.lft.to/lastmile_qr_scan", "android": "https://dc.lft.to/lastmile_qr_scan"}, "is_disabled": 0, "lon": -76.95142866666667, "name": "30b33c203346016452fb11255a11f4d3", "fusion_lon": 0.0}, {"lat": 38.91274266666667, "fusion_lat": 0.0, "type": "electric_scooter", "bike_id": "d5cf60fdd70f60cae6ad03c813f0d2be", "is_reserved": 0, "rental_uris": {"ios": "https://dc.lft.to/lastmile_qr_scan", "android": "https://dc.lft.to/lastmile_qr_scan"}, "is_disabled": 0, "lon": -77.02689183333334, "name": "d5cf60fdd70f60cae6ad03c813f0d2be", "fusion_lon": 0.0}, {"lat": 38.900346, "fusion_lat": 0.0, "type": "electric_scooter", "bike_id": "1e981e7a4248d300dfe795451522c319", "is_reserved": 0, "rental_uris": {"ios": "https://dc.lft.to/lastmile_qr_scan", "android": "https://dc.lft.to/lastmile_qr_scan"}, "is_disabled": 0, "lon": -77.0240095, "name": "1e981e7a4248d300dfe795451522c319", "fusion_lon": 0.0}, {"lat": 38.902688, "fusion_lat": 0.0, "type": "electric_scooter", "bike_id": "879cb6dabbbeaf2c3ae84641d2650fde", "is_reserved": 0, "rental_uris": {"ios": "https://dc.lft.to/lastmile_qr_scan", "android": "https://dc.lft.to/lastmile_qr_scan"}, "is_disabled": 0, "lon": -77.03959816666666, "name": "879cb6dabbbeaf2c3ae84641d2650fde", "fusion_lon": 0.0}, {"lat": 38.90984566666667, "fusion_lat": 0.0, "type": "electric_scooter", "bike_id": "fb724d198392ea9281aa77c7c2f94942", "is_reserved": 0, "rental_uris": {"ios": "https://dc.lft.to/lastmile_qr_scan", "android": "https://dc.lft.to/lastmile_qr_scan"}, "is_disabled": 0, "lon": -77.03188816666666, "name": "fb724d198392ea9281aa77c7c2f94942", "fusion_lon": 0.0}, {"lat": 38.90868283333333, "fusion_lat": 0.0, "type": "electric_bike", "bike_id": "e5d144591231b3dc0f10a28ae1ead342", "is_reserved": 0, "rental_uris": {"ios": "https://dc.lft.to/lastmile_qr_scan", "android": "https://dc.lft.to/lastmile_qr_scan"}, "is_disabled": 0, "lon": -76.99138666666667, "name": "e5d144591231b3dc0f10a28ae1ead342", "fusion_lon": 0.0}, {"lat": 38.89173533333334, "fusion_lat": 0.0, "type": "electric_scooter", "bike_id": "df6ac2192ca5e8db62e7d7c7cffd341b", "is_reserved": 0, "rental_uris": {"ios": "https://dc.lft.to/lastmile_qr_scan", "android": "https://dc.lft.to/lastmile_qr_scan"}, "is_disabled": 0, "lon": -77.01554016666667, "name": "df6ac2192ca5e8db62e7d7c7cffd341b", "fusion_lon": 0.0}, {"lat": 38.89902933333333, "fusion_lat": 0.0, "type": "electric_scooter", "bike_id": "90547824d9a00d2ce208aa4d939e2add", "is_reserved": 0, "rental_uris": {"ios": "https://dc.lft.to/lastmile_qr_scan", "android": "https://dc.lft.to/lastmile_qr_scan"}, "is_disabled": 0, "lon": -77.033486, "name": "90547824d9a00d2ce208aa4d939e2add", "fusion_lon": 0.0}, {"lat": 38.936726166666666, "fusion_lat": 0.0, "type": "electric_scooter", "bike_id": "0dd48fbca3c51abf75205c84d5f1c598", "is_reserved": 0, "rental_uris": {"ios": "https://dc.lft.to/lastmile_qr_scan", "android": "https://dc.lft.to/lastmile_qr_scan"}, "is_disabled": 0, "lon": -77.035874, "name": "0dd48fbca3c51abf75205c84d5f1c598", "fusion_lon": 0.0}, {"lat": 38.935628, "fusion_lat": 0.0, "type": "electric_scooter", "bike_id": "5ca6568add1ebc8c3a7852fe4488e601", "is_reserved": 0, "rental_uris": {"ios": "https://dc.lft.to/lastmile_qr_scan", "android": "https://dc.lft.to/lastmile_qr_scan"}, "is_disabled": 0, "lon": -77.05839083333333, "name": "5ca6568add1ebc8c3a7852fe4488e601", "fusion_lon": 0.0}, {"lat": 38.872958833333335, "fusion_lat": 0.0, "type": "electric_bike", "bike_id": "9e8d3e176a7b7fa563c042cd478f9a39", "is_reserved": 0, "rental_uris": {"ios": "https://dc.lft.to/lastmile_qr_scan", "android": "https://dc.lft.to/lastmile_qr_scan"}, "is_disabled": 0, "lon": -77.13925316666666, "name": "9e8d3e176a7b7fa563c042cd478f9a39", "fusion_lon": 0.0}, {"lat": 38.9127675, "fusion_lat": 0.0, "type": "electric_scooter", "bike_id": "93731135a87c5efc6e3f814472ea4ca9", "is_reserved": 0, "rental_uris": {"ios": "https://dc.lft.to/lastmile_qr_scan", "android": "https://dc.lft.to/lastmile_qr_scan"}, "is_disabled": 0, "lon": -77.02593233333333, "name": "93731135a87c5efc6e3f814472ea4ca9", "fusion_lon": 0.0}, {"lat": 38.89736716666667, "fusion_lat": 0.0, "type": "electric_scooter", "bike_id": "b0ceadd99cecba55993feb8cb630e01b", "is_reserved": 0, "rental_uris": {"ios": "https://dc.lft.to/lastmile_qr_scan", "android": "https://dc.lft.to/lastmile_qr_scan"}, "is_disabled": 0, "lon": -77.0440685, "name": "b0ceadd99cecba55993feb8cb630e01b", "fusion_lon": 0.0}, {"lat": 38.91051783333333, "fusion_lat": 0.0, "type": "electric_scooter", "bike_id": "25a596661abbfc252a8897f916485e4f", "is_reserved": 0, "rental_uris": {"ios": "https://dc.lft.to/lastmile_qr_scan", "android": "https://dc.lft.to/lastmile_qr_scan"}, "is_disabled": 0, "lon": -77.04493533333333, "name": "25a596661abbfc252a8897f916485e4f", "fusion_lon": 0.0}, {"lat": 38.92933216666667, "fusion_lat": 0.0, "type": "electric_scooter", "bike_id": "eaee7ce8c00175e72c613a72faba57db", "is_reserved": 0, "rental_uris": {"ios": "https://dc.lft.to/lastmile_qr_scan", "android": "https://dc.lft.to/lastmile_qr_scan"}, "is_disabled": 0, "lon": -77.0205025, "name": "eaee7ce8c00175e72c613a72faba57db", "fusion_lon": 0.0}, {"lat": 38.90274433333333, "fusion_lat": 0.0, "type": "electric_scooter", "bike_id": "6f43dc480779718e614bd15fd5fd2e75", "is_reserved": 0, "rental_uris": {"ios": "https://dc.lft.to/lastmile_qr_scan", "android": "https://dc.lft.to/lastmile_qr_scan"}, "is_disabled": 0, "lon": -77.0396585, "name": "6f43dc480779718e614bd15fd5fd2e75", "fusion_lon": 0.0}, {"lat": 38.91773416666667, "fusion_lat": 0.0, "type": "electric_scooter", "bike_id": "764adc0bc3f091e30192e5882cb2e2d3", "is_reserved": 0, "rental_uris": {"ios": "https://dc.lft.to/lastmile_qr_scan", "android": "https://dc.lft.to/lastmile_qr_scan"}, "is_disabled": 0, "lon": -77.03642616666667, "name": "764adc0bc3f091e30192e5882cb2e2d3", "fusion_lon": 0.0}, {"lat": 38.93617583333333, "fusion_lat": 0.0, "type": "electric_scooter", "bike_id": "8717ada81849773f9f9a1c35db3b3c42", "is_reserved": 0, "rental_uris": {"ios": "https://dc.lft.to/lastmile_qr_scan", "android": "https://dc.lft.to/lastmile_qr_scan"}, "is_disabled": 0, "lon": -77.06753883333333, "name": "8717ada81849773f9f9a1c35db3b3c42", "fusion_lon": 0.0}, {"lat": 38.928776, "fusion_lat": 0.0, "type": "electric_scooter", "bike_id": "bf827621c9b8cf63e215bbe8f9efaf7c", "is_reserved": 0, "rental_uris": {"ios": "https://dc.lft.to/lastmile_qr_scan", "android": "https://dc.lft.to/lastmile_qr_scan"}, "is_disabled": 0, "lon": -77.03344016666667, "name": "bf827621c9b8cf63e215bbe8f9efaf7c", "fusion_lon": 0.0}, {"lat": 38.90521616666667, "fusion_lat": 0.0, "type": "electric_scooter", "bike_id": "b58b87298ad5dcb5b34ee85da66911f1", "is_reserved": 0, "rental_uris": {"ios": "https://dc.lft.to/lastmile_qr_scan", "android": "https://dc.lft.to/lastmile_qr_scan"}, "is_disabled": 0, "lon": -77.066057, "name": "b58b87298ad5dcb5b34ee85da66911f1", "fusion_lon": 0.0}, {"lat": 38.874952, "fusion_lat": 0.0, "type": "electric_scooter", "bike_id": "b702fd10316ba45e950613393ca04fad", "is_reserved": 0, "rental_uris": {"ios": "https://dc.lft.to/lastmile_qr_scan", "android": "https://dc.lft.to/lastmile_qr_scan"}, "is_disabled": 0, "lon": -76.99975433333333, "name": "b702fd10316ba45e950613393ca04fad", "fusion_lon": 0.0}, {"lat": 38.878689666666666, "fusion_lat": 0.0, "type": "electric_scooter", "bike_id": "61541b906d977a9d298749f7fdc4e526", "is_reserved": 0, "rental_uris": {"ios": "https://dc.lft.to/lastmile_qr_scan", "android": "https://dc.lft.to/lastmile_qr_scan"}, "is_disabled": 0, "lon": -77.008206, "name": "61541b906d977a9d298749f7fdc4e526", "fusion_lon": 0.0}, {"lat": 38.89729083333334, "fusion_lat": 0.0, "type": "electric_scooter", "bike_id": "3f9a891e8559d3d285d224f35f524f66", "is_reserved": 0, "rental_uris": {"ios": "https://dc.lft.to/lastmile_qr_scan", "android": "https://dc.lft.to/lastmile_qr_scan"}, "is_disabled": 0, "lon": -77.0098075, "name": "3f9a891e8559d3d285d224f35f524f66", "fusion_lon": 0.0}, {"lat": 38.89008583333333, "fusion_lat": 0.0, "type": "electric_scooter", "bike_id": "2a737ad0cb11d25867f942daca4afeeb", "is_reserved": 0, "rental_uris": {"ios": "https://dc.lft.to/lastmile_qr_scan", "android": "https://dc.lft.to/lastmile_qr_scan"}, "is_disabled": 0, "lon": -77.03322316666667, "name": "2a737ad0cb11d25867f942daca4afeeb", "fusion_lon": 0.0}, {"lat": 38.9093785, "fusion_lat": 0.0, "type": "electric_scooter", "bike_id": "26cf4dd1dbfd2a0357c98823aeb6ee3c", "is_reserved": 0, "rental_uris": {"ios": "https://dc.lft.to/lastmile_qr_scan", "android": "https://dc.lft.to/lastmile_qr_scan"}, "is_disabled": 0, "lon": -77.02699583333333, "name": "26cf4dd1dbfd2a0357c98823aeb6ee3c", "fusion_lon": 0.0}, {"lat": 38.896102166666665, "fusion_lat": 0.0, "type": "electric_scooter", "bike_id": "39853a0efd05aaf732158a3e59a8f2b0", "is_reserved": 0, "rental_uris": {"ios": "https://dc.lft.to/lastmile_qr_scan", "android": "https://dc.lft.to/lastmile_qr_scan"}, "is_disabled": 0, "lon": -77.050547, "name": "39853a0efd05aaf732158a3e59a8f2b0", "fusion_lon": 0.0}, {"lat": 38.897739333333334, "fusion_lat": 0.0, "type": "electric_scooter", "bike_id": "c86588ae41e34d874ee3630ffa0d1ea9", "is_reserved": 0, "rental_uris": {"ios": "https://dc.lft.to/lastmile_qr_scan", "android": "https://dc.lft.to/lastmile_qr_scan"}, "is_disabled": 0, "lon": -77.05463016666667, "name": "c86588ae41e34d874ee3630ffa0d1ea9", "fusion_lon": 0.0}, {"lat": 38.90255366666667, "fusion_lat": 0.0, "type": "electric_scooter", "bike_id": "6ef8bcff4635cab3862c8a3ee3a5a935", "is_reserved": 0, "rental_uris": {"ios": "https://dc.lft.to/lastmile_qr_scan", "android": "https://dc.lft.to/lastmile_qr_scan"}, "is_disabled": 0, "lon": -77.04356366666667, "name": "6ef8bcff4635cab3862c8a3ee3a5a935", "fusion_lon": 0.0}, {"lat": 38.9223915, "fusion_lat": 0.0, "type": "electric_scooter", "bike_id": "357bb5c6326d9b68a35f528e1fb00dec", "is_reserved": 0, "rental_uris": {"ios": "https://dc.lft.to/lastmile_qr_scan", "android": "https://dc.lft.to/lastmile_qr_scan"}, "is_disabled": 0, "lon": -77.03350083333333, "name": "357bb5c6326d9b68a35f528e1fb00dec", "fusion_lon": 0.0}, {"lat": 38.988573833333334, "fusion_lat": 0.0, "type": "electric_bike", "bike_id": "ee0366059ca031a836b89669d519b89f", "is_reserved": 0, "rental_uris": {"ios": "https://dc.lft.to/lastmile_qr_scan", "android": "https://dc.lft.to/lastmile_qr_scan"}, "is_disabled": 0, "lon": -77.095612, "name": "ee0366059ca031a836b89669d519b89f", "fusion_lon": 0.0}, {"lat": 38.88224433333333, "fusion_lat": 0.0, "type": "electric_bike", "bike_id": "fa8fb3969333c6728e118da36238d0ee", "is_reserved": 0, "rental_uris": {"ios": "https://dc.lft.to/lastmile_qr_scan", "android": "https://dc.lft.to/lastmile_qr_scan"}, "is_disabled": 0, "lon": -77.11724116666667, "name": "fa8fb3969333c6728e118da36238d0ee", "fusion_lon": 0.0}, {"lat": 38.9262145, "fusion_lat": 0.0, "type": "electric_scooter", "bike_id": "1474b99fbd4b8aac4f2614b3b1a1ff05", "is_reserved": 0, "rental_uris": {"ios": "https://dc.lft.to/lastmile_qr_scan", "android": "https://dc.lft.to/lastmile_qr_scan"}, "is_disabled": 0, "lon": -77.04329033333333, "name": "1474b99fbd4b8aac4f2614b3b1a1ff05", "fusion_lon": 0.0}, {"lat": 38.866864, "fusion_lat": 0.0, "type": "electric_scooter", "bike_id": "fbdb7ee80207c9e90504ae9601c3c7a2", "is_reserved": 0, "rental_uris": {"ios": "https://dc.lft.to/lastmile_qr_scan", "android": "https://dc.lft.to/lastmile_qr_scan"}, "is_disabled": 0, "lon": -76.98570216666667, "name": "fbdb7ee80207c9e90504ae9601c3c7a2", "fusion_lon": 0.0}, {"lat": 38.907852166666665, "fusion_lat": 0.0, "type": "electric_bike", "bike_id": "b90aae9daa324105220e6d5b4ce29a1b", "is_reserved": 0, "rental_uris": {"ios": "https://dc.lft.to/lastmile_qr_scan", "android": "https://dc.lft.to/lastmile_qr_scan"}, "is_disabled": 0, "lon": -77.063781, "name": "b90aae9daa324105220e6d5b4ce29a1b", "fusion_lon": 0.0}, {"lat": 38.89503583333333, "fusion_lat": 0.0, "type": "electric_scooter", "bike_id": "128e1d6bd40bf88654bbead2e16b2b3d", "is_reserved": 0, "rental_uris": {"ios": "https://dc.lft.to/lastmile_qr_scan", "android": "https://dc.lft.to/lastmile_qr_scan"}, "is_disabled": 0, "lon": -76.9347485, "name": "128e1d6bd40bf88654bbead2e16b2b3d", "fusion_lon": 0.0}, {"lat": 38.91110966666667, "fusion_lat": 0.0, "type": "electric_scooter", "bike_id": "793103cf8a8593f1124a5cbf7636378e", "is_reserved": 0, "rental_uris": {"ios": "https://dc.lft.to/lastmile_qr_scan", "android": "https://dc.lft.to/lastmile_qr_scan"}, "is_disabled": 0, "lon": -77.038318, "name": "793103cf8a8593f1124a5cbf7636378e", "fusion_lon": 0.0}, {"lat": 38.90574066666667, "fusion_lat": 0.0, "type": "electric_scooter", "bike_id": "752fdc602913e5655ae59827bd7b7cd0", "is_reserved": 0, "rental_uris": {"ios": "https://dc.lft.to/lastmile_qr_scan", "android": "https://dc.lft.to/lastmile_qr_scan"}, "is_disabled": 0, "lon": -77.03433983333333, "name": "752fdc602913e5655ae59827bd7b7cd0", "fusion_lon": 0.0}, {"lat": 38.9140445, "fusion_lat": 0.0, "type": "electric_scooter", "bike_id": "5e4a1a3180fdbcbb793f831e164c54a3", "is_reserved": 0, "rental_uris": {"ios": "https://dc.lft.to/lastmile_qr_scan", "android": "https://dc.lft.to/lastmile_qr_scan"}, "is_disabled": 0, "lon": -77.026624, "name": "5e4a1a3180fdbcbb793f831e164c54a3", "fusion_lon": 0.0}, {"lat": 38.900664, "fusion_lat": 0.0, "type": "electric_scooter", "bike_id": "bcdf1369860d22ae48b0f09d091f2b7e", "is_reserved": 0, "rental_uris": {"ios": "https://dc.lft.to/lastmile_qr_scan", "android": "https://dc.lft.to/lastmile_qr_scan"}, "is_disabled": 0, "lon": -76.92744333333333, "name": "bcdf1369860d22ae48b0f09d091f2b7e", "fusion_lon": 0.0}, {"lat": 38.90737283333333, "fusion_lat": 0.0, "type": "electric_scooter", "bike_id": "c6a2cc728ef99d01a5ac19bbc7b7e070", "is_reserved": 0, "rental_uris": {"ios": "https://dc.lft.to/lastmile_qr_scan", "android": "https://dc.lft.to/lastmile_qr_scan"}, "is_disabled": 0, "lon": -77.00763416666666, "name": "c6a2cc728ef99d01a5ac19bbc7b7e070", "fusion_lon": 0.0}, {"lat": 38.95472083333333, "fusion_lat": 0.0, "type": "electric_scooter", "bike_id": "d4b121e41be645eaa96272ec18f82d92", "is_reserved": 0, "rental_uris": {"ios": "https://dc.lft.to/lastmile_qr_scan", "android": "https://dc.lft.to/lastmile_qr_scan"}, "is_disabled": 0, "lon": -77.02235033333334, "name": "d4b121e41be645eaa96272ec18f82d92", "fusion_lon": 0.0}, {"lat": 38.931754833333336, "fusion_lat": 0.0, "type": "electric_scooter", "bike_id": "de2474a2166f4e99e4ad802c2d7dc002", "is_reserved": 0, "rental_uris": {"ios": "https://dc.lft.to/lastmile_qr_scan", "android": "https://dc.lft.to/lastmile_qr_scan"}, "is_disabled": 0, "lon": -77.03655383333333, "name": "de2474a2166f4e99e4ad802c2d7dc002", "fusion_lon": 0.0}, {"lat": 38.9082325, "fusion_lat": 0.0, "type": "electric_scooter", "bike_id": "53302eaf2109c32769847a14eb449d79", "is_reserved": 0, "rental_uris": {"ios": "https://dc.lft.to/lastmile_qr_scan", "android": "https://dc.lft.to/lastmile_qr_scan"}, "is_disabled": 0, "lon": -77.03941333333333, "name": "53302eaf2109c32769847a14eb449d79", "fusion_lon": 0.0}, {"lat": 38.88716066666667, "fusion_lat": 0.0, "type": "electric_scooter", "bike_id": "e6d70eb91da56a4c0609d03d2058b612", "is_reserved": 0, "rental_uris": {"ios": "https://dc.lft.to/lastmile_qr_scan", "android": "https://dc.lft.to/lastmile_qr_scan"}, "is_disabled": 0, "lon": -77.00361833333334, "name": "e6d70eb91da56a4c0609d03d2058b612", "fusion_lon": 0.0}, {"lat": 38.9216155, "fusion_lat": 0.0, "type": "electric_scooter", "bike_id": "924fdd94c443af6a2f3d3350f1de3c62", "is_reserved": 0, "rental_uris": {"ios": "https://dc.lft.to/lastmile_qr_scan", "android": "https://dc.lft.to/lastmile_qr_scan"}, "is_disabled": 0, "lon": -77.0338255, "name": "924fdd94c443af6a2f3d3350f1de3c62", "fusion_lon": 0.0}, {"lat": 38.866989, "fusion_lat": 0.0, "type": "electric_scooter", "bike_id": "ba86630c2b4b177ed6d8a70f8d9d7025", "is_reserved": 0, "rental_uris": {"ios": "https://dc.lft.to/lastmile_qr_scan", "android": "https://dc.lft.to/lastmile_qr_scan"}, "is_disabled": 0, "lon": -76.9871645, "name": "ba86630c2b4b177ed6d8a70f8d9d7025", "fusion_lon": 0.0}, {"lat": 38.920660166666664, "fusion_lat": 0.0, "type": "electric_scooter", "bike_id": "48a769881a52a414a85676185e588e2c", "is_reserved": 0, "rental_uris": {"ios": "https://dc.lft.to/lastmile_qr_scan", "android": "https://dc.lft.to/lastmile_qr_scan"}, "is_disabled": 0, "lon": -77.03214033333333, "name": "48a769881a52a414a85676185e588e2c", "fusion_lon": 0.0}, {"lat": 38.89959, "fusion_lat": 0.0, "type": "electric_scooter", "bike_id": "23319c43fdefb05c10fda15dabf94243", "is_reserved": 0, "rental_uris": {"ios": "https://dc.lft.to/lastmile_qr_scan", "android": "https://dc.lft.to/lastmile_qr_scan"}, "is_disabled": 0, "lon": -77.0162425, "name": "23319c43fdefb05c10fda15dabf94243", "fusion_lon": 0.0}, {"lat": 38.9480905, "fusion_lat": 0.0, "type": "electric_scooter", "bike_id": "38dab2d60147ac854e6502d1d33731fd", "is_reserved": 0, "rental_uris": {"ios": "https://dc.lft.to/lastmile_qr_scan", "android": "https://dc.lft.to/lastmile_qr_scan"}, "is_disabled": 0, "lon": -77.08014333333334, "name": "38dab2d60147ac854e6502d1d33731fd", "fusion_lon": 0.0}, {"lat": 38.878274, "fusion_lat": 0.0, "type": "electric_scooter", "bike_id": "efa720b8a49840509846d22712e6fb24", "is_reserved": 0, "rental_uris": {"ios": "https://dc.lft.to/lastmile_qr_scan", "android": "https://dc.lft.to/lastmile_qr_scan"}, "is_disabled": 0, "lon": -76.96311983333334, "name": "efa720b8a49840509846d22712e6fb24", "fusion_lon": 0.0}, {"lat": 38.9408725, "fusion_lat": 0.0, "type": "electric_scooter", "bike_id": "b58e3b6a0777763b17b6f7d913c4c62a", "is_reserved": 0, "rental_uris": {"ios": "https://dc.lft.to/lastmile_qr_scan", "android": "https://dc.lft.to/lastmile_qr_scan"}, "is_disabled": 0, "lon": -77.0272115, "name": "b58e3b6a0777763b17b6f7d913c4c62a", "fusion_lon": 0.0}, {"lat": 38.9148095, "fusion_lat": 0.0, "type": "electric_scooter", "bike_id": "de31d20ede36e2a5db59bb1bec490959", "is_reserved": 0, "rental_uris": {"ios": "https://dc.lft.to/lastmile_qr_scan", "android": "https://dc.lft.to/lastmile_qr_scan"}, "is_disabled": 0, "lon": -76.98414466666667, "name": "de31d20ede36e2a5db59bb1bec490959", "fusion_lon": 0.0}, {"lat": 39.0527925, "fusion_lat": 0.0, "type": "electric_bike", "bike_id": "336c888cfb80393004e02238632b459a", "is_reserved": 0, "rental_uris": {"ios": "https://dc.lft.to/lastmile_qr_scan", "android": "https://dc.lft.to/lastmile_qr_scan"}, "is_disabled": 0, "lon": -77.08071833333334, "name": "336c888cfb80393004e02238632b459a", "fusion_lon": 0.0}, {"lat": 38.862146, "fusion_lat": 0.0, "type": "electric_scooter", "bike_id": "80ce91da889a917634ddbdeea19e0b39", "is_reserved": 0, "rental_uris": {"ios": "https://dc.lft.to/lastmile_qr_scan", "android": "https://dc.lft.to/lastmile_qr_scan"}, "is_disabled": 0, "lon": -76.99482133333333, "name": "80ce91da889a917634ddbdeea19e0b39", "fusion_lon": 0.0}, {"lat": 38.911059333333334, "fusion_lat": 0.0, "type": "electric_scooter", "bike_id": "f9de825619b75625567f46097633eb56", "is_reserved": 0, "rental_uris": {"ios": "https://dc.lft.to/lastmile_qr_scan", "android": "https://dc.lft.to/lastmile_qr_scan"}, "is_disabled": 0, "lon": -77.00372333333334, "name": "f9de825619b75625567f46097633eb56", "fusion_lon": 0.0}, {"lat": 38.87497583333333, "fusion_lat": 0.0, "type": "electric_scooter", "bike_id": "23c57b7c38f3e7a795cef6e840e3faa6", "is_reserved": 0, "rental_uris": {"ios": "https://dc.lft.to/lastmile_qr_scan", "android": "https://dc.lft.to/lastmile_qr_scan"}, "is_disabled": 0, "lon": -76.99975483333333, "name": "23c57b7c38f3e7a795cef6e840e3faa6", "fusion_lon": 0.0}, {"lat": 38.901477666666665, "fusion_lat": 0.0, "type": "electric_scooter", "bike_id": "27fc3cdd6f802f2858dc316a4623da63", "is_reserved": 0, "rental_uris": {"ios": "https://dc.lft.to/lastmile_qr_scan", "android": "https://dc.lft.to/lastmile_qr_scan"}, "is_disabled": 0, "lon": -77.04140083333333, "name": "27fc3cdd6f802f2858dc316a4623da63", "fusion_lon": 0.0}, {"lat": 38.91933483333333, "fusion_lat": 0.0, "type": "electric_scooter", "bike_id": "0c30e369cdb6cb6e48a4fb3cb1401b75", "is_reserved": 0, "rental_uris": {"ios": "https://dc.lft.to/lastmile_qr_scan", "android": "https://dc.lft.to/lastmile_qr_scan"}, "is_disabled": 0, "lon": -77.0022645, "name": "0c30e369cdb6cb6e48a4fb3cb1401b75", "fusion_lon": 0.0}, {"lat": 38.87104766666667, "fusion_lat": 0.0, "type": "electric_scooter", "bike_id": "e3d2da9e9b8337f9fe3f88e53ff7d329", "is_reserved": 0, "rental_uris": {"ios": "https://dc.lft.to/lastmile_qr_scan", "android": "https://dc.lft.to/lastmile_qr_scan"}, "is_disabled": 0, "lon": -76.96571316666666, "name": "e3d2da9e9b8337f9fe3f88e53ff7d329", "fusion_lon": 0.0}, {"lat": 38.916271333333334, "fusion_lat": 0.0, "type": "electric_scooter", "bike_id": "5efc3b92afaf9c82ea086434b6ae0de4", "is_reserved": 0, "rental_uris": {"ios": "https://dc.lft.to/lastmile_qr_scan", "android": "https://dc.lft.to/lastmile_qr_scan"}, "is_disabled": 0, "lon": -77.03856166666667, "name": "5efc3b92afaf9c82ea086434b6ae0de4", "fusion_lon": 0.0}, {"lat": 38.923139666666664, "fusion_lat": 0.0, "type": "electric_scooter", "bike_id": "89b918538827552776ba6fe0364b21e7", "is_reserved": 0, "rental_uris": {"ios": "https://dc.lft.to/lastmile_qr_scan", "android": "https://dc.lft.to/lastmile_qr_scan"}, "is_disabled": 0, "lon": -77.03910633333334, "name": "89b918538827552776ba6fe0364b21e7", "fusion_lon": 0.0}, {"lat": 38.912665, "fusion_lat": 0.0, "type": "electric_scooter", "bike_id": "8eea4a3cddf68e758ddf7defc0a54184", "is_reserved": 0, "rental_uris": {"ios": "https://dc.lft.to/lastmile_qr_scan", "android": "https://dc.lft.to/lastmile_qr_scan"}, "is_disabled": 0, "lon": -77.039022, "name": "8eea4a3cddf68e758ddf7defc0a54184", "fusion_lon": 0.0}, {"lat": 38.922474666666666, "fusion_lat": 0.0, "type": "electric_scooter", "bike_id": "6e153d0590e5353b1e8473ff539e9348", "is_reserved": 0, "rental_uris": {"ios": "https://dc.lft.to/lastmile_qr_scan", "android": "https://dc.lft.to/lastmile_qr_scan"}, "is_disabled": 0, "lon": -77.038867, "name": "6e153d0590e5353b1e8473ff539e9348", "fusion_lon": 0.0}, {"lat": 38.921061333333334, "fusion_lat": 0.0, "type": "electric_scooter", "bike_id": "c0c9cdc477210e0c33853b9897cccc55", "is_reserved": 0, "rental_uris": {"ios": "https://dc.lft.to/lastmile_qr_scan", "android": "https://dc.lft.to/lastmile_qr_scan"}, "is_disabled": 0, "lon": -77.0304795, "name": "c0c9cdc477210e0c33853b9897cccc55", "fusion_lon": 0.0}, {"lat": 38.91365966666667, "fusion_lat": 0.0, "type": "electric_scooter", "bike_id": "afdfd8e0d1de81baa43da2c5e1962928", "is_reserved": 0, "rental_uris": {"ios": "https://dc.lft.to/lastmile_qr_scan", "android": "https://dc.lft.to/lastmile_qr_scan"}, "is_disabled": 0, "lon": -77.04493766666667, "name": "afdfd8e0d1de81baa43da2c5e1962928", "fusion_lon": 0.0}, {"lat": 38.9033385, "fusion_lat": 0.0, "type": "electric_scooter", "bike_id": "0ae398fde2cff5d037021bcaa9cbfdb9", "is_reserved": 0, "rental_uris": {"ios": "https://dc.lft.to/lastmile_qr_scan", "android": "https://dc.lft.to/lastmile_qr_scan"}, "is_disabled": 0, "lon": -76.97588933333333, "name": "0ae398fde2cff5d037021bcaa9cbfdb9", "fusion_lon": 0.0}, {"lat": 38.90680916666667, "fusion_lat": 0.0, "type": "electric_scooter", "bike_id": "f550837f41d83d10157ebd90fa80feac", "is_reserved": 0, "rental_uris": {"ios": "https://dc.lft.to/lastmile_qr_scan", "android": "https://dc.lft.to/lastmile_qr_scan"}, "is_disabled": 0, "lon": -77.07178783333333, "name": "f550837f41d83d10157ebd90fa80feac", "fusion_lon": 0.0}, {"lat": 38.928925166666666, "fusion_lat": 0.0, "type": "electric_scooter", "bike_id": "02b05653ea1839ca6d592ee383558c74", "is_reserved": 0, "rental_uris": {"ios": "https://dc.lft.to/lastmile_qr_scan", "android": "https://dc.lft.to/lastmile_qr_scan"}, "is_disabled": 0, "lon": -77.0275865, "name": "02b05653ea1839ca6d592ee383558c74", "fusion_lon": 0.0}, {"lat": 38.920159, "fusion_lat": 0.0, "type": "electric_scooter", "bike_id": "849e5600dd1794d127cc541ed39ac7b6", "is_reserved": 0, "rental_uris": {"ios": "https://dc.lft.to/lastmile_qr_scan", "android": "https://dc.lft.to/lastmile_qr_scan"}, "is_disabled": 0, "lon": -77.04185466666667, "name": "849e5600dd1794d127cc541ed39ac7b6", "fusion_lon": 0.0}, {"lat": 38.870748166666665, "fusion_lat": 0.0, "type": "electric_scooter", "bike_id": "78ec46556598a33dd3a5b34293e546c0", "is_reserved": 0, "rental_uris": {"ios": "https://dc.lft.to/lastmile_qr_scan", "android": "https://dc.lft.to/lastmile_qr_scan"}, "is_disabled": 0, "lon": -76.98909983333333, "name": "78ec46556598a33dd3a5b34293e546c0", "fusion_lon": 0.0}, {"lat": 38.89235566666667, "fusion_lat": 0.0, "type": "electric_scooter", "bike_id": "337fec35ae828036492fcc88a202fcf4", "is_reserved": 0, "rental_uris": {"ios": "https://dc.lft.to/lastmile_qr_scan", "android": "https://dc.lft.to/lastmile_qr_scan"}, "is_disabled": 0, "lon": -77.02512933333334, "name": "337fec35ae828036492fcc88a202fcf4", "fusion_lon": 0.0}, {"lat": 38.91430316666667, "fusion_lat": 0.0, "type": "electric_scooter", "bike_id": "1151bb0060dc96139e88899946ff5d09", "is_reserved": 0, "rental_uris": {"ios": "https://dc.lft.to/lastmile_qr_scan", "android": "https://dc.lft.to/lastmile_qr_scan"}, "is_disabled": 0, "lon": -77.04492283333333, "name": "1151bb0060dc96139e88899946ff5d09", "fusion_lon": 0.0}, {"lat": 38.920354833333334, "fusion_lat": 0.0, "type": "electric_scooter", "bike_id": "4d975aae2bddf3ec820ca75e4e28b730", "is_reserved": 0, "rental_uris": {"ios": "https://dc.lft.to/lastmile_qr_scan", "android": "https://dc.lft.to/lastmile_qr_scan"}, "is_disabled": 0, "lon": -77.02586716666667, "name": "4d975aae2bddf3ec820ca75e4e28b730", "fusion_lon": 0.0}, {"lat": 38.92308466666667, "fusion_lat": 0.0, "type": "electric_scooter", "bike_id": "a35eba42fa635fa75a8cf64e19bbbe01", "is_reserved": 0, "rental_uris": {"ios": "https://dc.lft.to/lastmile_qr_scan", "android": "https://dc.lft.to/lastmile_qr_scan"}, "is_disabled": 0, "lon": -77.03117233333333, "name": "a35eba42fa635fa75a8cf64e19bbbe01", "fusion_lon": 0.0}, {"lat": 38.917692833333334, "fusion_lat": 0.0, "type": "electric_scooter", "bike_id": "92582e87c78638d853a4c0f570f6fc6c", "is_reserved": 0, "rental_uris": {"ios": "https://dc.lft.to/lastmile_qr_scan", "android": "https://dc.lft.to/lastmile_qr_scan"}, "is_disabled": 0, "lon": -77.04061783333333, "name": "92582e87c78638d853a4c0f570f6fc6c", "fusion_lon": 0.0}, {"lat": 38.90382816666666, "fusion_lat": 0.0, "type": "electric_bike", "bike_id": "92399399b06572353278b05183e92cb4", "is_reserved": 0, "rental_uris": {"ios": "https://dc.lft.to/lastmile_qr_scan", "android": "https://dc.lft.to/lastmile_qr_scan"}, "is_disabled": 0, "lon": -77.03859266666667, "name": "92399399b06572353278b05183e92cb4", "fusion_lon": 0.0}, {"lat": 38.89672983333333, "fusion_lat": 0.0, "type": "electric_scooter", "bike_id": "e0846c5a23375c0d2ab8bd8523d901e4", "is_reserved": 0, "rental_uris": {"ios": "https://dc.lft.to/lastmile_qr_scan", "android": "https://dc.lft.to/lastmile_qr_scan"}, "is_disabled": 0, "lon": -76.9881835, "name": "e0846c5a23375c0d2ab8bd8523d901e4", "fusion_lon": 0.0}, {"lat": 38.9003955, "fusion_lat": 0.0, "type": "electric_scooter", "bike_id": "fc9060e208ef0e9998d4c1321a3956f9", "is_reserved": 0, "rental_uris": {"ios": "https://dc.lft.to/lastmile_qr_scan", "android": "https://dc.lft.to/lastmile_qr_scan"}, "is_disabled": 0, "lon": -77.00101283333333, "name": "fc9060e208ef0e9998d4c1321a3956f9", "fusion_lon": 0.0}, {"lat": 38.897602, "fusion_lat": 0.0, "type": "electric_scooter", "bike_id": "7dffb5bc16c77b690533b6683219d82d", "is_reserved": 0, "rental_uris": {"ios": "https://dc.lft.to/lastmile_qr_scan", "android": "https://dc.lft.to/lastmile_qr_scan"}, "is_disabled": 0, "lon": -77.00902183333334, "name": "7dffb5bc16c77b690533b6683219d82d", "fusion_lon": 0.0}, {"lat": 38.905007499999996, "fusion_lat": 0.0, "type": "electric_scooter", "bike_id": "a91b074eee8993478bc0e84fb222ee1f", "is_reserved": 0, "rental_uris": {"ios": "https://dc.lft.to/lastmile_qr_scan", "android": "https://dc.lft.to/lastmile_qr_scan"}, "is_disabled": 0, "lon": -77.0533825, "name": "a91b074eee8993478bc0e84fb222ee1f", "fusion_lon": 0.0}, {"lat": 38.912699833333335, "fusion_lat": 0.0, "type": "electric_scooter", "bike_id": "1103fc6820a30e3a8a114874d3048403", "is_reserved": 0, "rental_uris": {"ios": "https://dc.lft.to/lastmile_qr_scan", "android": "https://dc.lft.to/lastmile_qr_scan"}, "is_disabled": 0, "lon": -77.02517166666667, "name": "1103fc6820a30e3a8a114874d3048403", "fusion_lon": 0.0}, {"lat": 38.93183233333333, "fusion_lat": 0.0, "type": "electric_scooter", "bike_id": "69f8aebe3e14ce21046c83308c70e688", "is_reserved": 0, "rental_uris": {"ios": "https://dc.lft.to/lastmile_qr_scan", "android": "https://dc.lft.to/lastmile_qr_scan"}, "is_disabled": 0, "lon": -77.038823, "name": "69f8aebe3e14ce21046c83308c70e688", "fusion_lon": 0.0}, {"lat": 38.90256016666667, "fusion_lat": 0.0, "type": "electric_scooter", "bike_id": "14377c7aa093281d5377030af1db1b98", "is_reserved": 0, "rental_uris": {"ios": "https://dc.lft.to/lastmile_qr_scan", "android": "https://dc.lft.to/lastmile_qr_scan"}, "is_disabled": 0, "lon": -77.0397255, "name": "14377c7aa093281d5377030af1db1b98", "fusion_lon": 0.0}, {"lat": 38.86375433333333, "fusion_lat": 0.0, "type": "electric_scooter", "bike_id": "496c3f83e7db96e0569db0abb4859422", "is_reserved": 0, "rental_uris": {"ios": "https://dc.lft.to/lastmile_qr_scan", "android": "https://dc.lft.to/lastmile_qr_scan"}, "is_disabled": 0, "lon": -76.99060633333333, "name": "496c3f83e7db96e0569db0abb4859422", "fusion_lon": 0.0}, {"lat": 38.9192185, "fusion_lat": 0.0, "type": "electric_scooter", "bike_id": "07f454fa3649eb73163ad2579ff5fdf3", "is_reserved": 0, "rental_uris": {"ios": "https://dc.lft.to/lastmile_qr_scan", "android": "https://dc.lft.to/lastmile_qr_scan"}, "is_disabled": 0, "lon": -77.04244316666667, "name": "07f454fa3649eb73163ad2579ff5fdf3", "fusion_lon": 0.0}, {"lat": 38.8837305, "fusion_lat": 0.0, "type": "electric_scooter", "bike_id": "73d4a124e5a901ebe3904abe207a70f4", "is_reserved": 0, "rental_uris": {"ios": "https://dc.lft.to/lastmile_qr_scan", "android": "https://dc.lft.to/lastmile_qr_scan"}, "is_disabled": 0, "lon": -76.99523566666667, "name": "73d4a124e5a901ebe3904abe207a70f4", "fusion_lon": 0.0}, {"lat": 38.891974833333336, "fusion_lat": 0.0, "type": "electric_scooter", "bike_id": "0a1a9b9b0bd6497807e772772249d23f", "is_reserved": 0, "rental_uris": {"ios": "https://dc.lft.to/lastmile_qr_scan", "android": "https://dc.lft.to/lastmile_qr_scan"}, "is_disabled": 0, "lon": -77.00295733333333, "name": "0a1a9b9b0bd6497807e772772249d23f", "fusion_lon": 0.0}, {"lat": 38.913172, "fusion_lat": 0.0, "type": "electric_bike", "bike_id": "1122d5fec83309fd8a75901300b0da1d", "is_reserved": 0, "rental_uris": {"ios": "https://dc.lft.to/lastmile_qr_scan", "android": "https://dc.lft.to/lastmile_qr_scan"}, "is_disabled": 0, "lon": -77.223079, "name": "1122d5fec83309fd8a75901300b0da1d", "fusion_lon": 0.0}, {"lat": 38.90848033333333, "fusion_lat": 0.0, "type": "electric_scooter", "bike_id": "1e967ecd08c89ef2295817ce6f611033", "is_reserved": 0, "rental_uris": {"ios": "https://dc.lft.to/lastmile_qr_scan", "android": "https://dc.lft.to/lastmile_qr_scan"}, "is_disabled": 0, "lon": -76.99798866666667, "name": "1e967ecd08c89ef2295817ce6f611033", "fusion_lon": 0.0}, {"lat": 38.86688683333333, "fusion_lat": 0.0, "type": "electric_scooter", "bike_id": "43c33e4aa346e4dd994d576fd9538129", "is_reserved": 0, "rental_uris": {"ios": "https://dc.lft.to/lastmile_qr_scan", "android": "https://dc.lft.to/lastmile_qr_scan"}, "is_disabled": 0, "lon": -76.98565183333334, "name": "43c33e4aa346e4dd994d576fd9538129", "fusion_lon": 0.0}, {"lat": 38.921106333333334, "fusion_lat": 0.0, "type": "electric_scooter", "bike_id": "d7209120a3d26c7eaa57aa1112fe4889", "is_reserved": 0, "rental_uris": {"ios": "https://dc.lft.to/lastmile_qr_scan", "android": "https://dc.lft.to/lastmile_qr_scan"}, "is_disabled": 0, "lon": -77.0304375, "name": "d7209120a3d26c7eaa57aa1112fe4889", "fusion_lon": 0.0}, {"lat": 38.884106, "fusion_lat": 0.0, "type": "electric_scooter", "bike_id": "8452d994242e35c3dd03cd73cb834a6a", "is_reserved": 0, "rental_uris": {"ios": "https://dc.lft.to/lastmile_qr_scan", "android": "https://dc.lft.to/lastmile_qr_scan"}, "is_disabled": 0, "lon": -77.01770933333333, "name": "8452d994242e35c3dd03cd73cb834a6a", "fusion_lon": 0.0}, {"lat": 38.910845, "fusion_lat": 0.0, "type": "electric_scooter", "bike_id": "286b0a1045b6eb5df0fe9a45ec28e6d4", "is_reserved": 0, "rental_uris": {"ios": "https://dc.lft.to/lastmile_qr_scan", "android": "https://dc.lft.to/lastmile_qr_scan"}, "is_disabled": 0, "lon": -77.07410466666667, "name": "286b0a1045b6eb5df0fe9a45ec28e6d4", "fusion_lon": 0.0}, {"lat": 38.89712983333333, "fusion_lat": 0.0, "type": "electric_scooter", "bike_id": "1633dc67d8193c12551c97d37019fb4c", "is_reserved": 0, "rental_uris": {"ios": "https://dc.lft.to/lastmile_qr_scan", "android": "https://dc.lft.to/lastmile_qr_scan"}, "is_disabled": 0, "lon": -77.02497283333334, "name": "1633dc67d8193c12551c97d37019fb4c", "fusion_lon": 0.0}, {"lat": 38.90858383333333, "fusion_lat": 0.0, "type": "electric_scooter", "bike_id": "29e5ae853f86f80e6915018d4132d64b", "is_reserved": 0, "rental_uris": {"ios": "https://dc.lft.to/lastmile_qr_scan", "android": "https://dc.lft.to/lastmile_qr_scan"}, "is_disabled": 0, "lon": -77.01016616666666, "name": "29e5ae853f86f80e6915018d4132d64b", "fusion_lon": 0.0}, {"lat": 38.842879333333336, "fusion_lat": 0.0, "type": "electric_bike", "bike_id": "07d8e9ffa9ec4f279e3bc8f0e51aa4e3", "is_reserved": 0, "rental_uris": {"ios": "https://dc.lft.to/lastmile_qr_scan", "android": "https://dc.lft.to/lastmile_qr_scan"}, "is_disabled": 0, "lon": -76.98842266666666, "name": "07d8e9ffa9ec4f279e3bc8f0e51aa4e3", "fusion_lon": 0.0}, {"lat": 38.908336, "fusion_lat": 0.0, "type": "electric_scooter", "bike_id": "09c33a581b6ce3e16031602471f5ef12", "is_reserved": 0, "rental_uris": {"ios": "https://dc.lft.to/lastmile_qr_scan", "android": "https://dc.lft.to/lastmile_qr_scan"}, "is_disabled": 0, "lon": -77.04329966666667, "name": "09c33a581b6ce3e16031602471f5ef12", "fusion_lon": 0.0}, {"lat": 38.87765366666667, "fusion_lat": 0.0, "type": "electric_bike", "bike_id": "5921c963f3fe39a768e7af924c6eaab1", "is_reserved": 0, "rental_uris": {"ios": "https://dc.lft.to/lastmile_qr_scan", "android": "https://dc.lft.to/lastmile_qr_scan"}, "is_disabled": 0, "lon": -77.01049566666667, "name": "5921c963f3fe39a768e7af924c6eaab1", "fusion_lon": 0.0}, {"lat": 38.898452166666665, "fusion_lat": 0.0, "type": "electric_scooter", "bike_id": "bc6da5698bf91ea9ff6e68ad74d9f882", "is_reserved": 0, "rental_uris": {"ios": "https://dc.lft.to/lastmile_qr_scan", "android": "https://dc.lft.to/lastmile_qr_scan"}, "is_disabled": 0, "lon": -77.03951133333334, "name": "bc6da5698bf91ea9ff6e68ad74d9f882", "fusion_lon": 0.0}, {"lat": 38.90729066666667, "fusion_lat": 0.0, "type": "electric_scooter", "bike_id": "2027d5f7cf28d61ec8da07e8b3d926ca", "is_reserved": 0, "rental_uris": {"ios": "https://dc.lft.to/lastmile_qr_scan", "android": "https://dc.lft.to/lastmile_qr_scan"}, "is_disabled": 0, "lon": -77.025421, "name": "2027d5f7cf28d61ec8da07e8b3d926ca", "fusion_lon": 0.0}, {"lat": 38.90504816666667, "fusion_lat": 0.0, "type": "electric_scooter", "bike_id": "672f627460c2a2d563d72a9ee57d2b7a", "is_reserved": 0, "rental_uris": {"ios": "https://dc.lft.to/lastmile_qr_scan", "android": "https://dc.lft.to/lastmile_qr_scan"}, "is_disabled": 0, "lon": -77.06114683333334, "name": "672f627460c2a2d563d72a9ee57d2b7a", "fusion_lon": 0.0}, {"lat": 38.97882966666667, "fusion_lat": 0.0, "type": "electric_bike", "bike_id": "712a87e41a8bad361498ae55e3244c91", "is_reserved": 0, "rental_uris": {"ios": "https://dc.lft.to/lastmile_qr_scan", "android": "https://dc.lft.to/lastmile_qr_scan"}, "is_disabled": 0, "lon": -77.06032533333334, "name": "712a87e41a8bad361498ae55e3244c91", "fusion_lon": 0.0}, {"lat": 38.913279333333335, "fusion_lat": 0.0, "type": "electric_scooter", "bike_id": "3c46ef7390e2ccebccf89b8ec9f8e1ed", "is_reserved": 0, "rental_uris": {"ios": "https://dc.lft.to/lastmile_qr_scan", "android": "https://dc.lft.to/lastmile_qr_scan"}, "is_disabled": 0, "lon": -77.03193016666667, "name": "3c46ef7390e2ccebccf89b8ec9f8e1ed", "fusion_lon": 0.0}, {"lat": 38.914946, "fusion_lat": 0.0, "type": "electric_scooter", "bike_id": "ae5c6a76f0f57647dcecb414622225aa", "is_reserved": 0, "rental_uris": {"ios": "https://dc.lft.to/lastmile_qr_scan", "android": "https://dc.lft.to/lastmile_qr_scan"}, "is_disabled": 0, "lon": -77.0186215, "name": "ae5c6a76f0f57647dcecb414622225aa", "fusion_lon": 0.0}, {"lat": 38.906935833333335, "fusion_lat": 0.0, "type": "electric_scooter", "bike_id": "b43a139dbe19de0aff6789bfc61655ec", "is_reserved": 0, "rental_uris": {"ios": "https://dc.lft.to/lastmile_qr_scan", "android": "https://dc.lft.to/lastmile_qr_scan"}, "is_disabled": 0, "lon": -77.02598116666667, "name": "b43a139dbe19de0aff6789bfc61655ec", "fusion_lon": 0.0}, {"lat": 38.912448833333336, "fusion_lat": 0.0, "type": "electric_scooter", "bike_id": "9166ac469a2afb2fac3ebb5272c37b01", "is_reserved": 0, "rental_uris": {"ios": "https://dc.lft.to/lastmile_qr_scan", "android": "https://dc.lft.to/lastmile_qr_scan"}, "is_disabled": 0, "lon": -77.0341385, "name": "9166ac469a2afb2fac3ebb5272c37b01", "fusion_lon": 0.0}, {"lat": 38.909768166666666, "fusion_lat": 0.0, "type": "electric_scooter", "bike_id": "88fa91692f48794ce9732ff69d55dfeb", "is_reserved": 0, "rental_uris": {"ios": "https://dc.lft.to/lastmile_qr_scan", "android": "https://dc.lft.to/lastmile_qr_scan"}, "is_disabled": 0, "lon": -77.0344025, "name": "88fa91692f48794ce9732ff69d55dfeb", "fusion_lon": 0.0}, {"lat": 38.87574266666667, "fusion_lat": 0.0, "type": "electric_scooter", "bike_id": "273775d2281eef1278c7e63194264b09", "is_reserved": 0, "rental_uris": {"ios": "https://dc.lft.to/lastmile_qr_scan", "android": "https://dc.lft.to/lastmile_qr_scan"}, "is_disabled": 0, "lon": -77.00609883333334, "name": "273775d2281eef1278c7e63194264b09", "fusion_lon": 0.0}, {"lat": 38.88778883333333, "fusion_lat": 0.0, "type": "electric_scooter", "bike_id": "ac2cd79227245c19ebccb0e48bb971e8", "is_reserved": 0, "rental_uris": {"ios": "https://dc.lft.to/lastmile_qr_scan", "android": "https://dc.lft.to/lastmile_qr_scan"}, "is_disabled": 0, "lon": -76.95531566666666, "name": "ac2cd79227245c19ebccb0e48bb971e8", "fusion_lon": 0.0}, {"lat": 38.92327516666667, "fusion_lat": 0.0, "type": "electric_scooter", "bike_id": "933637fd91bce8ff68a1927e6147eba6", "is_reserved": 0, "rental_uris": {"ios": "https://dc.lft.to/lastmile_qr_scan", "android": "https://dc.lft.to/lastmile_qr_scan"}, "is_disabled": 0, "lon": -77.038921, "name": "933637fd91bce8ff68a1927e6147eba6", "fusion_lon": 0.0}, {"lat": 38.928848, "fusion_lat": 0.0, "type": "electric_scooter", "bike_id": "15af9c91adbbd357ba02cee048799eef", "is_reserved": 0, "rental_uris": {"ios": "https://dc.lft.to/lastmile_qr_scan", "android": "https://dc.lft.to/lastmile_qr_scan"}, "is_disabled": 0, "lon": -77.0323145, "name": "15af9c91adbbd357ba02cee048799eef", "fusion_lon": 0.0}, {"lat": 38.893884, "fusion_lat": 0.0, "type": "electric_scooter", "bike_id": "ccc93fb9e5693de0d0ebe3d69a098ac4", "is_reserved": 0, "rental_uris": {"ios": "https://dc.lft.to/lastmile_qr_scan", "android": "https://dc.lft.to/lastmile_qr_scan"}, "is_disabled": 0, "lon": -77.03191433333333, "name": "ccc93fb9e5693de0d0ebe3d69a098ac4", "fusion_lon": 0.0}, {"lat": 38.89462916666667, "fusion_lat": 0.0, "type": "electric_scooter", "bike_id": "639f598fe9d096c0d85f68f82773a44a", "is_reserved": 0, "rental_uris": {"ios": "https://dc.lft.to/lastmile_qr_scan", "android": "https://dc.lft.to/lastmile_qr_scan"}, "is_disabled": 0, "lon": -77.02794783333333, "name": "639f598fe9d096c0d85f68f82773a44a", "fusion_lon": 0.0}, {"lat": 38.8925955, "fusion_lat": 0.0, "type": "electric_scooter", "bike_id": "d490ce18246636e64bbe8f5874c92631", "is_reserved": 0, "rental_uris": {"ios": "https://dc.lft.to/lastmile_qr_scan", "android": "https://dc.lft.to/lastmile_qr_scan"}, "is_disabled": 0, "lon": -77.00346116666667, "name": "d490ce18246636e64bbe8f5874c92631", "fusion_lon": 0.0}, {"lat": 38.902706, "fusion_lat": 0.0, "type": "electric_bike", "bike_id": "cf86c535a087ea5936040bb71724be7b", "is_reserved": 0, "rental_uris": {"ios": "https://dc.lft.to/lastmile_qr_scan", "android": "https://dc.lft.to/lastmile_qr_scan"}, "is_disabled": 0, "lon": -77.01727383333333, "name": "cf86c535a087ea5936040bb71724be7b", "fusion_lon": 0.0}, {"lat": 38.832057, "fusion_lat": 0.0, "type": "electric_scooter", "bike_id": "71a9794dd31ba864e5ff89432e67e267", "is_reserved": 0, "rental_uris": {"ios": "https://dc.lft.to/lastmile_qr_scan", "android": "https://dc.lft.to/lastmile_qr_scan"}, "is_disabled": 0, "lon": -77.00795633333334, "name": "71a9794dd31ba864e5ff89432e67e267", "fusion_lon": 0.0}, {"lat": 38.9168615, "fusion_lat": 0.0, "type": "electric_scooter", "bike_id": "800832494684967340d1a39537297207", "is_reserved": 0, "rental_uris": {"ios": "https://dc.lft.to/lastmile_qr_scan", "android": "https://dc.lft.to/lastmile_qr_scan"}, "is_disabled": 0, "lon": -77.02524483333333, "name": "800832494684967340d1a39537297207", "fusion_lon": 0.0}, {"lat": 38.9053505, "fusion_lat": 0.0, "type": "electric_scooter", "bike_id": "a3e42d22bfab62b221acf0a4b92e92f6", "is_reserved": 0, "rental_uris": {"ios": "https://dc.lft.to/lastmile_qr_scan", "android": "https://dc.lft.to/lastmile_qr_scan"}, "is_disabled": 0, "lon": -76.98106, "name": "a3e42d22bfab62b221acf0a4b92e92f6", "fusion_lon": 0.0}, {"lat": 38.860586166666664, "fusion_lat": 0.0, "type": "electric_scooter", "bike_id": "aba311044774bbccab64dc89cad67e27", "is_reserved": 0, "rental_uris": {"ios": "https://dc.lft.to/lastmile_qr_scan", "android": "https://dc.lft.to/lastmile_qr_scan"}, "is_disabled": 0, "lon": -76.98424616666667, "name": "aba311044774bbccab64dc89cad67e27", "fusion_lon": 0.0}, {"lat": 38.8995865, "fusion_lat": 0.0, "type": "electric_scooter", "bike_id": "515f5b05154c95667a9165835b4ba481", "is_reserved": 0, "rental_uris": {"ios": "https://dc.lft.to/lastmile_qr_scan", "android": "https://dc.lft.to/lastmile_qr_scan"}, "is_disabled": 0, "lon": -77.01623716666667, "name": "515f5b05154c95667a9165835b4ba481", "fusion_lon": 0.0}, {"lat": 38.89357316666667, "fusion_lat": 0.0, "type": "electric_scooter", "bike_id": "6de9933330293d509c9262a20543c786", "is_reserved": 0, "rental_uris": {"ios": "https://dc.lft.to/lastmile_qr_scan", "android": "https://dc.lft.to/lastmile_qr_scan"}, "is_disabled": 0, "lon": -77.00332966666667, "name": "6de9933330293d509c9262a20543c786", "fusion_lon": 0.0}, {"lat": 38.876402, "fusion_lat": 0.0, "type": "electric_scooter", "bike_id": "33b4a4522eb768c857e2603806bccd7b", "is_reserved": 0, "rental_uris": {"ios": "https://dc.lft.to/lastmile_qr_scan", "android": "https://dc.lft.to/lastmile_qr_scan"}, "is_disabled": 0, "lon": -77.00455183333334, "name": "33b4a4522eb768c857e2603806bccd7b", "fusion_lon": 0.0}, {"lat": 38.90942316666667, "fusion_lat": 0.0, "type": "electric_scooter", "bike_id": "8b4382e32cdd0c65f936b88d2557a558", "is_reserved": 0, "rental_uris": {"ios": "https://dc.lft.to/lastmile_qr_scan", "android": "https://dc.lft.to/lastmile_qr_scan"}, "is_disabled": 0, "lon": -77.042492, "name": "8b4382e32cdd0c65f936b88d2557a558", "fusion_lon": 0.0}, {"lat": 38.922322333333334, "fusion_lat": 0.0, "type": "electric_scooter", "bike_id": "745ee52e20f6ea915fdc0c5d657aacfa", "is_reserved": 0, "rental_uris": {"ios": "https://dc.lft.to/lastmile_qr_scan", "android": "https://dc.lft.to/lastmile_qr_scan"}, "is_disabled": 0, "lon": -77.029748, "name": "745ee52e20f6ea915fdc0c5d657aacfa", "fusion_lon": 0.0}, {"lat": 38.90729816666666, "fusion_lat": 0.0, "type": "electric_scooter", "bike_id": "3f88cce4b9879ddd0d402996430c9290", "is_reserved": 0, "rental_uris": {"ios": "https://dc.lft.to/lastmile_qr_scan", "android": "https://dc.lft.to/lastmile_qr_scan"}, "is_disabled": 0, "lon": -77.01134083333334, "name": "3f88cce4b9879ddd0d402996430c9290", "fusion_lon": 0.0}, {"lat": 38.8891245, "fusion_lat": 0.0, "type": "electric_scooter", "bike_id": "e82ecc22c328e5e9024ce3dab9c34d3d", "is_reserved": 0, "rental_uris": {"ios": "https://dc.lft.to/lastmile_qr_scan", "android": "https://dc.lft.to/lastmile_qr_scan"}, "is_disabled": 0, "lon": -77.052196, "name": "e82ecc22c328e5e9024ce3dab9c34d3d", "fusion_lon": 0.0}, {"lat": 38.8685975, "fusion_lat": 0.0, "type": "electric_bike", "bike_id": "383a0dd0f6f06507ad4f52c22edc94b5", "is_reserved": 0, "rental_uris": {"ios": "https://dc.lft.to/lastmile_qr_scan", "android": "https://dc.lft.to/lastmile_qr_scan"}, "is_disabled": 0, "lon": -76.95836533333333, "name": "383a0dd0f6f06507ad4f52c22edc94b5", "fusion_lon": 0.0}, {"lat": 38.908627833333334, "fusion_lat": 0.0, "type": "electric_scooter", "bike_id": "246f19881122e905a8bbb6a01cc8b70b", "is_reserved": 0, "rental_uris": {"ios": "https://dc.lft.to/lastmile_qr_scan", "android": "https://dc.lft.to/lastmile_qr_scan"}, "is_disabled": 0, "lon": -77.02414, "name": "246f19881122e905a8bbb6a01cc8b70b", "fusion_lon": 0.0}, {"lat": 38.8966715, "fusion_lat": 0.0, "type": "electric_scooter", "bike_id": "1a99f7957b1ddb3bd92a87f8c24baff3", "is_reserved": 0, "rental_uris": {"ios": "https://dc.lft.to/lastmile_qr_scan", "android": "https://dc.lft.to/lastmile_qr_scan"}, "is_disabled": 0, "lon": -77.02617483333333, "name": "1a99f7957b1ddb3bd92a87f8c24baff3", "fusion_lon": 0.0}, {"lat": 38.903143, "fusion_lat": 0.0, "type": "electric_scooter", "bike_id": "27c3df21790721609e1b63e2bcdc51bf", "is_reserved": 0, "rental_uris": {"ios": "https://dc.lft.to/lastmile_qr_scan", "android": "https://dc.lft.to/lastmile_qr_scan"}, "is_disabled": 0, "lon": -76.97800766666667, "name": "27c3df21790721609e1b63e2bcdc51bf", "fusion_lon": 0.0}, {"lat": 38.908695333333334, "fusion_lat": 0.0, "type": "electric_scooter", "bike_id": "0cbe57daed7529581d49cdbef4364817", "is_reserved": 0, "rental_uris": {"ios": "https://dc.lft.to/lastmile_qr_scan", "android": "https://dc.lft.to/lastmile_qr_scan"}, "is_disabled": 0, "lon": -77.04769533333334, "name": "0cbe57daed7529581d49cdbef4364817", "fusion_lon": 0.0}, {"lat": 38.913360833333336, "fusion_lat": 0.0, "type": "electric_scooter", "bike_id": "a8609f1055fc0c1c718053dc80b8a591", "is_reserved": 0, "rental_uris": {"ios": "https://dc.lft.to/lastmile_qr_scan", "android": "https://dc.lft.to/lastmile_qr_scan"}, "is_disabled": 0, "lon": -77.04237183333333, "name": "a8609f1055fc0c1c718053dc80b8a591", "fusion_lon": 0.0}, {"lat": 38.90606433333333, "fusion_lat": 0.0, "type": "electric_scooter", "bike_id": "429b17579c2b0aea8dd463302e9020d7", "is_reserved": 0, "rental_uris": {"ios": "https://dc.lft.to/lastmile_qr_scan", "android": "https://dc.lft.to/lastmile_qr_scan"}, "is_disabled": 0, "lon": -76.99271366666666, "name": "429b17579c2b0aea8dd463302e9020d7", "fusion_lon": 0.0}, {"lat": 38.945123833333334, "fusion_lat": 0.0, "type": "electric_scooter", "bike_id": "8227b0d38cd8d9e8becf8b346e8b16d5", "is_reserved": 0, "rental_uris": {"ios": "https://dc.lft.to/lastmile_qr_scan", "android": "https://dc.lft.to/lastmile_qr_scan"}, "is_disabled": 0, "lon": -77.03317666666666, "name": "8227b0d38cd8d9e8becf8b346e8b16d5", "fusion_lon": 0.0}, {"lat": 38.93099016666667, "fusion_lat": 0.0, "type": "electric_scooter", "bike_id": "d9ca50f5765ddc23783b3f1be41e14a1", "is_reserved": 0, "rental_uris": {"ios": "https://dc.lft.to/lastmile_qr_scan", "android": "https://dc.lft.to/lastmile_qr_scan"}, "is_disabled": 0, "lon": -77.02476333333334, "name": "d9ca50f5765ddc23783b3f1be41e14a1", "fusion_lon": 0.0}, {"lat": 38.90033, "fusion_lat": 0.0, "type": "electric_bike", "bike_id": "70208db9c9f57574720c9fe3ff2866fa", "is_reserved": 0, "rental_uris": {"ios": "https://dc.lft.to/lastmile_qr_scan", "android": "https://dc.lft.to/lastmile_qr_scan"}, "is_disabled": 0, "lon": -76.9722805, "name": "70208db9c9f57574720c9fe3ff2866fa", "fusion_lon": 0.0}, {"lat": 38.858919, "fusion_lat": 0.0, "type": "electric_bike", "bike_id": "358207baf0d5c7fce671ebc8076f0129", "is_reserved": 0, "rental_uris": {"ios": "https://dc.lft.to/lastmile_qr_scan", "android": "https://dc.lft.to/lastmile_qr_scan"}, "is_disabled": 0, "lon": -77.11859833333334, "name": "358207baf0d5c7fce671ebc8076f0129", "fusion_lon": 0.0}, {"lat": 38.884558166666665, "fusion_lat": 0.0, "type": "electric_scooter", "bike_id": "636e904967cb65a13088787799948c0e", "is_reserved": 0, "rental_uris": {"ios": "https://dc.lft.to/lastmile_qr_scan", "android": "https://dc.lft.to/lastmile_qr_scan"}, "is_disabled": 0, "lon": -76.95745816666667, "name": "636e904967cb65a13088787799948c0e", "fusion_lon": 0.0}, {"lat": 38.926799833333334, "fusion_lat": 0.0, "type": "electric_scooter", "bike_id": "14fc8d42f88b4085b7fcba087c2d1841", "is_reserved": 0, "rental_uris": {"ios": "https://dc.lft.to/lastmile_qr_scan", "android": "https://dc.lft.to/lastmile_qr_scan"}, "is_disabled": 0, "lon": -77.043572, "name": "14fc8d42f88b4085b7fcba087c2d1841", "fusion_lon": 0.0}, {"lat": 38.89619033333334, "fusion_lat": 0.0, "type": "electric_scooter", "bike_id": "7d244a5f606d2b26c59b2d02ccd59c4a", "is_reserved": 0, "rental_uris": {"ios": "https://dc.lft.to/lastmile_qr_scan", "android": "https://dc.lft.to/lastmile_qr_scan"}, "is_disabled": 0, "lon": -76.98165533333334, "name": "7d244a5f606d2b26c59b2d02ccd59c4a", "fusion_lon": 0.0}, {"lat": 38.900846, "fusion_lat": 0.0, "type": "electric_scooter", "bike_id": "a89811fe84d99cf0fd58acd341dbba05", "is_reserved": 0, "rental_uris": {"ios": "https://dc.lft.to/lastmile_qr_scan", "android": "https://dc.lft.to/lastmile_qr_scan"}, "is_disabled": 0, "lon": -77.050692, "name": "a89811fe84d99cf0fd58acd341dbba05", "fusion_lon": 0.0}, {"lat": 38.90783166666667, "fusion_lat": 0.0, "type": "electric_scooter", "bike_id": "e68a5f6803d359d3275f0a0c5c4377eb", "is_reserved": 0, "rental_uris": {"ios": "https://dc.lft.to/lastmile_qr_scan", "android": "https://dc.lft.to/lastmile_qr_scan"}, "is_disabled": 0, "lon": -77.0382655, "name": "e68a5f6803d359d3275f0a0c5c4377eb", "fusion_lon": 0.0},