{"data": {"bikes": [{"name": "40cff703be33099eb6fd63ef509146e2", "is_reserved": 0, "is_disabled": 0, "lon": -77.17849283333334, "rental_uris": {"android": "https://dc.lft.to/lastmile_qr_scan", "ios": "https://dc.lft.to/lastmile_qr_scan"}, "fusion_lon": 0.0, "lat": 39.089058333333334, "type": "electric_bike", "fusion_lat": 0.0, "bike_id": "40cff703be33099eb6fd63ef509146e2"}, {"name": "c8b6c1d4de9f8e27ba0a38016484cc78", "is_reserved": 0, "is_disabled": 0, "lon": -76.9985105, "rental_uris": {"android": "https://dc.lft.to/lastmile_qr_scan", "ios": "https://dc.lft.to/lastmile_qr_scan"}, "fusion_lon": 0.0, "lat": 38.908923, "type": "electric_scooter", "fusion_lat": 0.0, "bike_id": "c8b6c1d4de9f8e27ba0a38016484cc78"}, {"name": "821c9fcf591357af8bc0290888319692", "is_reserved": 0, "is_disabled": 0, "lon": -77.03296916666666, "rental_uris": {"android": "https://dc.lft.to/lastmile_qr_scan", "ios": "https://dc.lft.to/lastmile_qr_scan"}, "fusion_lon": 0.0, "lat": 38.90965583333333, "type": "electric_scooter", "fusion_lat": 0.0, "bike_id": "821c9fcf591357af8bc0290888319692"}, {"name": "7dd72565ef90253e9b5c0333a00b9779", "is_reserved": 0, "is_disabled": 0, "lon": -76.98642, "rental_uris": {"android": "https://dc.lft.to/lastmile_qr_scan", "ios": "https://dc.lft.to/lastmile_qr_scan"}, "fusion_lon": 0.0, "lat": 38.901432666666665, "type": "electric_scooter", "fusion_lat": 0.0, "bike_id": "7dd72565ef90253e9b5c0333a00b9779"}, {"name": "42b6322be5ccd6f3f18f318cbe1e6a17", "is_reserved": 0, "is_disabled": 0, "lon": -77.03453633333334, "rental_uris": {"android": "https://dc.lft.to/lastmile_qr_scan", "ios": "https://dc.lft.to/lastmile_qr_scan"}, "fusion_lon": 0.0, "lat": 38.90328916666667, "type": "electric_scooter", "fusion_lat": 0.0, "bike_id": "42b6322be5ccd6f3f18f318cbe1e6a17"}, {"name": "1723ca13c6d41a78e7e56c3ef65bd024", "is_reserved": 0, "is_disabled": 0, "lon": -77.08211866666667, "rental_uris": {"android": "https://dc.lft.to/lastmile_qr_scan", "ios": "https://dc.lft.to/lastmile_qr_scan"}, "fusion_lon": 0.0, "lat": 38.935576833333336, "type": "electric_scooter", "fusion_lat": 0.0, "bike_id": "1723ca13c6d41a78e7e56c3ef65bd024"}, {"name": "8003d5582b680fa7e200d2f05a7a249f", "is_reserved": 0, "is_disabled": 0, "lon": -77.02612883333333, "rental_uris": {"android": "https://dc.lft.to/lastmile_qr_scan", "ios": "https://dc.lft.to/lastmile_qr_scan"}, "fusion_lon": 0.0, "lat": 38.900087166666665, "type": "electric_scooter", "fusion_lat": 0.0, "bike_id": "8003d5582b680fa7e200d2f05a7a249f"}, {"name": "44f16f085fd79d605e29a4aa594ccc30", "is_reserved": 0, "is_disabled": 0, "lon": -77.03837983333334, "rental_uris": {"android": "https://dc.lft.to/lastmile_qr_scan", "ios": "https://dc.lft.to/lastmile_qr_scan"}, "fusion_lon": 0.0, "lat": 38.912101, "type": "electric_scooter", "fusion_lat": 0.0, "bike_id": "44f16f085fd79d605e29a4aa594ccc30"}, {"name": "3febe936f2dc1c953c63ad158309e7db", "is_reserved": 0, "is_disabled": 0, "lon": -77.027072, "rental_uris": {"android": "https://dc.lft.to/lastmile_qr_scan", "ios": "https://dc.lft.to/lastmile_qr_scan"}, "fusion_lon": 0.0, "lat": 38.90670766666667, "type": "electric_scooter", "fusion_lat": 0.0, "bike_id": "3febe936f2dc1c953c63ad158309e7db"}, {"name": "cd65b24216cf99eb0401398edac933cc", "is_reserved": 0, "is_disabled": 0, "lon": -77.04305483333333, "rental_uris": {"android": "https://dc.lft.to/lastmile_qr_scan", "ios": "https://dc.lft.to/lastmile_qr_scan"}, "fusion_lon": 0.0, "lat": 39.054484, "type": "electric_bike", "fusion_lat": 0.0, "bike_id": "cd65b24216cf99eb0401398edac933cc"}, {"name": "129f31dbeab3ab529bdc3e7b4dbb47c8", "is_reserved": 0, "is_disabled": 0, "lon": -77.0423095, "rental_uris": {"android": "https://dc.lft.to/lastmile_qr_scan", "ios": "https://dc.lft.to/lastmile_qr_scan"}, "fusion_lon": 0.0, "lat": 38.92176166666667, "type": "electric_scooter", "fusion_lat": 0.0, "bike_id": "129f31dbeab3ab529bdc3e7b4dbb47c8"}, {"name": "e3880e89df9cdbf6171a8e27e9eb76c0", "is_reserved": 0, "is_disabled": 0, "lon": -76.99512466666667, "rental_uris": {"android": "https://dc.lft.to/lastmile_qr_scan", "ios": "https://dc.lft.to/lastmile_qr_scan"}, "fusion_lon": 0.0, "lat": 38.895523, "type": "electric_scooter", "fusion_lat": 0.0, "bike_id": "e3880e89df9cdbf6171a8e27e9eb76c0"}, {"name": "63fe2a95620d6e82cfdc5f1069a94784", "is_reserved": 0, "is_disabled": 0, "lon": -77.04242133333334, "rental_uris": {"android": "https://dc.lft.to/lastmile_qr_scan", "ios": "https://dc.lft.to/lastmile_qr_scan"}, "fusion_lon": 0.0, "lat": 38.92251866666667, "type": "electric_scooter", "fusion_lat": 0.0, "bike_id": "63fe2a95620d6e82cfdc5f1069a94784"}, {"name": "334a003ac3a3119b98f4d941a10019c1", "is_reserved": 0, "is_disabled": 0, "lon": -77.03911516666666, "rental_uris": {"android": "https://dc.lft.to/lastmile_qr_scan", "ios": "https://dc.lft.to/lastmile_qr_scan"}, "fusion_lon": 0.0, "lat": 38.923178666666665, "type": "electric_scooter", "fusion_lat": 0.0, "bike_id": "334a003ac3a3119b98f4d941a10019c1"}, {"name": "75ee2c19145b1e994a6296177272350c", "is_reserved": 0, "is_disabled": 0, "lon": -76.9912625, "rental_uris": {"android": "https://dc.lft.to/lastmile_qr_scan", "ios": "https://dc.lft.to/lastmile_qr_scan"}, "fusion_lon": 0.0, "lat": 38.933924166666664, "type": "electric_scooter", "fusion_lat": 0.0, "bike_id": "75ee2c19145b1e994a6296177272350c"}, {"name": "a7f97136d73b970d8c98bc689273cd07", "is_reserved": 0, "is_disabled": 0, "lon": -77.016706, "rental_uris": {"android": "https://dc.lft.to/lastmile_qr_scan", "ios": "https://dc.lft.to/lastmile_qr_scan"}, "fusion_lon": 0.0, "lat": 38.88119016666667, "type": "electric_scooter", "fusion_lat": 0.0, "bike_id": "a7f97136d73b970d8c98bc689273cd07"}, {"name": "44fdf9e0edac3876f1abf1ba9eff89e4", "is_reserved": 0, "is_disabled": 0, "lon": -76.93187916666666, "rental_uris": {"android": "https://dc.lft.to/lastmile_qr_scan", "ios": "https://dc.lft.to/lastmile_qr_scan"}, "fusion_lon": 0.0, "lat": 38.89854666666667, "type": "electric_bike", "fusion_lat": 0.0, "bike_id": "44fdf9e0edac3876f1abf1ba9eff89e4"}, {"name": "b090886925b2f8702839320aad4fd28e", "is_reserved": 0, "is_disabled": 0, "lon": -77.00283133333333, "rental_uris": {"android": "https://dc.lft.to/lastmile_qr_scan", "ios": "https://dc.lft.to/lastmile_qr_scan"}, "fusion_lon": 0.0, "lat": 38.9392355, "type": "electric_scooter", "fusion_lat": 0.0, "bike_id": "b090886925b2f8702839320aad4fd28e"}, {"name": "bf2a4811879d933c32df4f3ce0279da8", "is_reserved": 0, "is_disabled": 0, "lon": -77.04707433333333, "rental_uris": {"android": "https://dc.lft.to/lastmile_qr_scan", "ios": "https://dc.lft.to/lastmile_qr_scan"}, "fusion_lon": 0.0, "lat": 38.91267416666667, "type": "electric_scooter", "fusion_lat": 0.0, "bike_id": "bf2a4811879d933c32df4f3ce0279da8"}, {"name": "0b370c8f74a8ad6db8a852b5df0ded6d", "is_reserved": 0, "is_disabled": 0, "lon": -76.98843266666667, "rental_uris": {"android": "https://dc.lft.to/lastmile_qr_scan", "ios": "https://dc.lft.to/lastmile_qr_scan"}, "fusion_lon": 0.0, "lat": 38.90202516666667, "type": "electric_scooter", "fusion_lat": 0.0, "bike_id": "0b370c8f74a8ad6db8a852b5df0ded6d"}, {"name": "c8e109eedf6d4829f2d85786cca89e76", "is_reserved": 0, "is_disabled": 0, "lon": -77.0269595, "rental_uris": {"android": "https://dc.lft.to/lastmile_qr_scan", "ios": "https://dc.lft.to/lastmile_qr_scan"}, "fusion_lon": 0.0, "lat": 38.908458833333334, "type": "electric_scooter", "fusion_lat": 0.0, "bike_id": "c8e109eedf6d4829f2d85786cca89e76"}, {"name": "78a46f45303aee3b3b49a3431e6bc7e3", "is_reserved": 0, "is_disabled": 0, "lon": -76.93743066666667, "rental_uris": {"android": "https://dc.lft.to/lastmile_qr_scan", "ios": "https://dc.lft.to/lastmile_qr_scan"}, "fusion_lon": 0.0, "lat": 38.8901505, "type": "electric_scooter", "fusion_lat": 0.0, "bike_id": "78a46f45303aee3b3b49a3431e6bc7e3"}, {"name": "beb5d936da970df49a2e23646f7db832", "is_reserved": 0, "is_disabled": 0, "lon": -76.99041116666666, "rental_uris": {"android": "https://dc.lft.to/lastmile_qr_scan", "ios": "https://dc.lft.to/lastmile_qr_scan"}, "fusion_lon": 0.0, "lat": 38.90279183333333, "type": "electric_scooter", "fusion_lat": 0.0, "bike_id": "beb5d936da970df49a2e23646f7db832"}, {"name": "b3eec1874558418da2aeccdc2cd41bfe", "is_reserved": 0, "is_disabled": 0, "lon": -76.97370216666667, "rental_uris": {"android": "https://dc.lft.to/lastmile_qr_scan", "ios": "https://dc.lft.to/lastmile_qr_scan"}, "fusion_lon": 0.0, "lat": 38.865694500000004, "type": "electric_scooter", "fusion_lat": 0.0, "bike_id": "b3eec1874558418da2aeccdc2cd41bfe"}, {"name": "92a16556979ff2c0d99133425bf5e08c", "is_reserved": 0, "is_disabled": 0, "lon": -76.9987305, "rental_uris": {"android": "https://dc.lft.to/lastmile_qr_scan", "ios": "https://dc.lft.to/lastmile_qr_scan"}, "fusion_lon": 0.0, "lat": 38.9205205, "type": "electric_scooter", "fusion_lat": 0.0, "bike_id": "92a16556979ff2c0d99133425bf5e08c"}, {"name": "af8273aa9fc727b207984674b98adeec", "is_reserved": 0, "is_disabled": 0, "lon": -77.0424015, "rental_uris": {"android": "https://dc.lft.to/lastmile_qr_scan", "ios": "https://dc.lft.to/lastmile_qr_scan"}, "fusion_lon": 0.0, "lat": 38.9178605, "type": "electric_scooter", "fusion_lat": 0.0, "bike_id": "af8273aa9fc727b207984674b98adeec"}, {"name": "b22786af39e71e06d8a5970b9f59628a", "is_reserved": 0, "is_disabled": 0, "lon": -77.022094, "rental_uris": {"android": "https://dc.lft.to/lastmile_qr_scan", "ios": "https://dc.lft.to/lastmile_qr_scan"}, "fusion_lon": 0.0, "lat": 38.90549933333333, "type": "electric_scooter", "fusion_lat": 0.0, "bike_id": "b22786af39e71e06d8a5970b9f59628a"}, {"name": "95f13f8f6a790c895b61168ea6a79647", "is_reserved": 0, "is_disabled": 0, "lon": -76.94888266666666, "rental_uris": {"android": "https://dc.lft.to/lastmile_qr_scan", "ios": "https://dc.lft.to/lastmile_qr_scan"}, "fusion_lon": 0.0, "lat": 38.895129833333336, "type": "electric_scooter", "fusion_lat": 0.0, "bike_id": "95f13f8f6a790c895b61168ea6a79647"}, {"name": "3481bf6ef6468a442fc494bfaff5ec01", "is_reserved": 0, "is_disabled": 0, "lon": -77.04182733333333, "rental_uris": {"android": "https://dc.lft.to/lastmile_qr_scan", "ios": "https://dc.lft.to/lastmile_qr_scan"}, "fusion_lon": 0.0, "lat": 38.91410283333333, "type": "electric_scooter", "fusion_lat": 0.0, "bike_id": "3481bf6ef6468a442fc494bfaff5ec01"}, {"name": "16279cebb15dfc455592f32ecd87387b", "is_reserved": 0, "is_disabled": 0, "lon": -77.0783125, "rental_uris": {"android": "https://dc.lft.to/lastmile_qr_scan", "ios": "https://dc.lft.to/lastmile_qr_scan"}, "fusion_lon": 0.0, "lat": 38.945679, "type": "electric_scooter", "fusion_lat": 0.0, "bike_id": "16279cebb15dfc455592f32ecd87387b"}, {"name": "dc7ada5ec26e7db69fb7dd1bd2efb1e1", "is_reserved": 0, "is_disabled": 0, "lon": -77.021545, "rental_uris": {"android": "https://dc.lft.to/lastmile_qr_scan", "ios": "https://dc.lft.to/lastmile_qr_scan"}, "fusion_lon": 0.0, "lat": 38.885035, "type": "electric_scooter", "fusion_lat": 0.0, "bike_id": "dc7ada5ec26e7db69fb7dd1bd2efb1e1"}, {"name": "5ac3636520a41e0ea1456dce9b102deb", "is_reserved": 0, "is_disabled": 0, "lon": -77.04166366666666, "rental_uris": {"android": "https://dc.lft.to/lastmile_qr_scan", "ios": "https://dc.lft.to/lastmile_qr_scan"}, "fusion_lon": 0.0, "lat": 38.91343333333333, "type": "electric_scooter", "fusion_lat": 0.0, "bike_id": "5ac3636520a41e0ea1456dce9b102deb"}, {"name": "75b85bc98806b106e60709e6f2e47e7a", "is_reserved": 0, "is_disabled": 0, "lon": -77.00230716666667, "rental_uris": {"android": "https://dc.lft.to/lastmile_qr_scan", "ios": "https://dc.lft.to/lastmile_qr_scan"}, "fusion_lon": 0.0, "lat": 38.8749415, "type": "electric_scooter", "fusion_lat": 0.0, "bike_id": "75b85bc98806b106e60709e6f2e47e7a"}, {"name": "1a7c8063eb72501827ea61b7fcfffa58", "is_reserved": 0, "is_disabled": 0, "lon": -77.0329085, "rental_uris": {"android": "https://dc.lft.to/lastmile_qr_scan", "ios": "https://dc.lft.to/lastmile_qr_scan"}, "fusion_lon": 0.0, "lat": 38.956496, "type": "electric_scooter", "fusion_lat": 0.0, "bike_id": "1a7c8063eb72501827ea61b7fcfffa58"}, {"name": "97ffbb6cee22a2330ca91778fc5a40dd", "is_reserved": 0, "is_disabled": 0, "lon": -77.0130585, "rental_uris": {"android": "https://dc.lft.to/lastmile_qr_scan", "ios": "https://dc.lft.to/lastmile_qr_scan"}, "fusion_lon": 0.0, "lat": 38.90740566666667, "type": "electric_scooter", "fusion_lat": 0.0, "bike_id": "97ffbb6cee22a2330ca91778fc5a40dd"}, {"name": "0494f1a3f2690413c6903241cea6fbf7", "is_reserved": 0, "is_disabled": 0, "lon": -77.03445383333333, "rental_uris": {"android": "https://dc.lft.to/lastmile_qr_scan", "ios": "https://dc.lft.to/lastmile_qr_scan"}, "fusion_lon": 0.0, "lat": 38.903080333333335, "type": "electric_scooter", "fusion_lat": 0.0, "bike_id": "0494f1a3f2690413c6903241cea6fbf7"}, {"name": "fd0d6014bc51be38760d49619ae5a4f3", "is_reserved": 0, "is_disabled": 0, "lon": -77.03227716666666, "rental_uris": {"android": "https://dc.lft.to/lastmile_qr_scan", "ios": "https://dc.lft.to/lastmile_qr_scan"}, "fusion_lon": 0.0, "lat": 38.918503, "type": "electric_scooter", "fusion_lat": 0.0, "bike_id": "fd0d6014bc51be38760d49619ae5a4f3"}, {"name": "9b3a2e9a32881ff282dc7ebccd6fcf1b", "is_reserved": 0, "is_disabled": 0, "lon": -76.99572533333334, "rental_uris": {"android": "https://dc.lft.to/lastmile_qr_scan", "ios": "https://dc.lft.to/lastmile_qr_scan"}, "fusion_lon": 0.0, "lat": 38.920298833333334, "type": "electric_scooter", "fusion_lat": 0.0, "bike_id": "9b3a2e9a32881ff282dc7ebccd6fcf1b"}, {"name": "bd87feee2902b8c29759655df791359c", "is_reserved": 0, "is_disabled": 0, "lon": -77.04984933333333, "rental_uris": {"android": "https://dc.lft.to/lastmile_qr_scan", "ios": "https://dc.lft.to/lastmile_qr_scan"}, "fusion_lon": 0.0, "lat": 38.896718, "type": "electric_scooter", "fusion_lat": 0.0, "bike_id": "bd87feee2902b8c29759655df791359c"}, {"name": "4105542669300c2ed04fe7b9e1af5263", "is_reserved": 0, "is_disabled": 0, "lon": -77.02353533333333, "rental_uris": {"android": "https://dc.lft.to/lastmile_qr_scan", "ios": "https://dc.lft.to/lastmile_qr_scan"}, "fusion_lon": 0.0, "lat": 38.892248333333335, "type": "electric_scooter", "fusion_lat": 0.0, "bike_id": "4105542669300c2ed04fe7b9e1af5263"}, {"name": "1ee1122929fa22de82713216ae9de910", "is_reserved": 0, "is_disabled": 0, "lon": -77.04150416666667, "rental_uris": {"android": "https://dc.lft.to/lastmile_qr_scan", "ios": "https://dc.lft.to/lastmile_qr_scan"}, "fusion_lon": 0.0, "lat": 38.9175485, "type": "electric_scooter", "fusion_lat": 0.0, "bike_id": "1ee1122929fa22de82713216ae9de910"}, {"name": "748529121326863ffcd3b48ebe4e9e67", "is_reserved": 0, "is_disabled": 0, "lon": -77.02519166666667, "rental_uris": {"android": "https://dc.lft.to/lastmile_qr_scan", "ios": "https://dc.lft.to/lastmile_qr_scan"}, "fusion_lon": 0.0, "lat": 38.901792666666665, "type": "electric_scooter", "fusion_lat": 0.0, "bike_id": "748529121326863ffcd3b48ebe4e9e67"}, {"name": "f7b71d49beece1e79edad767ad2956e3", "is_reserved": 0, "is_disabled": 0, "lon": -76.9463955, "rental_uris": {"android": "https://dc.lft.to/lastmile_qr_scan", "ios": "https://dc.lft.to/lastmile_qr_scan"}, "fusion_lon": 0.0, "lat": 38.89842516666667, "type": "electric_scooter", "fusion_lat": 0.0, "bike_id": "f7b71d49beece1e79edad767ad2956e3"}, {"name": "97350368c0995aa33dbbb85e1e5e74d9", "is_reserved": 0, "is_disabled": 0, "lon": -77.03215933333334, "rental_uris": {"android": "https://dc.lft.to/lastmile_qr_scan", "ios": "https://dc.lft.to/lastmile_qr_scan"}, "fusion_lon": 0.0, "lat": 38.892219833333336, "type": "electric_scooter", "fusion_lat": 0.0, "bike_id": "97350368c0995aa33dbbb85e1e5e74d9"}, {"name": "32d75477603038c73394b7018a45fdb7", "is_reserved": 0, "is_disabled": 0, "lon": -76.99483833333333, "rental_uris": {"android": "https://dc.lft.to/lastmile_qr_scan", "ios": "https://dc.lft.to/lastmile_qr_scan"}, "fusion_lon": 0.0, "lat": 38.87734066666667, "type": "electric_scooter", "fusion_lat": 0.0, "bike_id": "32d75477603038c73394b7018a45fdb7"}, {"name": "f6f0aca9145af21da106c950d740971a", "is_reserved": 0, "is_disabled": 0, "lon": -77.03213416666667, "rental_uris": {"android": "https://dc.lft.to/lastmile_qr_scan", "ios": "https://dc.lft.to/lastmile_qr_scan"}, "fusion_lon": 0.0, "lat": 38.921993666666665, "type": "electric_scooter", "fusion_lat": 0.0, "bike_id": "f6f0aca9145af21da106c950d740971a"}, {"name": "6a2626dd3c9a1504ef2ced86f51c67a6", "is_reserved": 0, "is_disabled": 0, "lon": -76.9898755, "rental_uris": {"android": "https://dc.lft.to/lastmile_qr_scan", "ios": "https://dc.lft.to/lastmile_qr_scan"}, "fusion_lon": 0.0, "lat": 38.86452766666667, "type": "electric_scooter", "fusion_lat": 0.0, "bike_id": "6a2626dd3c9a1504ef2ced86f51c67a6"}, {"name": "5480da47eb81cdc0be3edf7a142a1606", "is_reserved": 0, "is_disabled": 0, "lon": -76.98337566666666, "rental_uris": {"android": "https://dc.lft.to/lastmile_qr_scan", "ios": "https://dc.lft.to/lastmile_qr_scan"}, "fusion_lon": 0.0, "lat": 38.8625685, "type": "electric_scooter", "fusion_lat": 0.0, "bike_id": "5480da47eb81cdc0be3edf7a142a1606"}, {"name": "fe7c5cff4196d885fc162eb2e05f080d", "is_reserved": 0, "is_disabled": 0, "lon": -77.02870833333333, "rental_uris": {"android": "https://dc.lft.to/lastmile_qr_scan", "ios": "https://dc.lft.to/lastmile_qr_scan"}, "fusion_lon": 0.0, "lat": 38.9328355, "type": "electric_scooter", "fusion_lat": 0.0, "bike_id": "fe7c5cff4196d885fc162eb2e05f080d"}, {"name": "17e679c79231ca09cbbcc2b29d3f1f5a", "is_reserved": 0, "is_disabled": 0, "lon": -77.07793883333333, "rental_uris": {"android": "https://dc.lft.to/lastmile_qr_scan", "ios": "https://dc.lft.to/lastmile_qr_scan"}, "fusion_lon": 0.0, "lat": 38.84515066666667, "type": "electric_bike", "fusion_lat": 0.0, "bike_id": "17e679c79231ca09cbbcc2b29d3f1f5a"}, {"name": "3908ab1f0a8bc99212f541ae8678ce3f", "is_reserved": 0, "is_disabled": 0, "lon": -76.9428655, "rental_uris": {"android": "https://dc.lft.to/lastmile_qr_scan", "ios": "https://dc.lft.to/lastmile_qr_scan"}, "fusion_lon": 0.0, "lat": 38.883074, "type": "electric_scooter", "fusion_lat": 0.0, "bike_id": "3908ab1f0a8bc99212f541ae8678ce3f"}, {"name": "32ebdbddbd93607f436470b2522a3c80", "is_reserved": 0, "is_disabled": 0, "lon": -77.03291466666667, "rental_uris": {"android": "https://dc.lft.to/lastmile_qr_scan", "ios": "https://dc.lft.to/lastmile_qr_scan"}, "fusion_lon": 0.0, "lat": 38.930309333333334, "type": "electric_scooter", "fusion_lat": 0.0, "bike_id": "32ebdbddbd93607f436470b2522a3c80"}, {"name": "0c7fd6141d1c33247e293a85ee63ca67", "is_reserved": 0, "is_disabled": 0, "lon": -76.98760366666667, "rental_uris": {"android": "https://dc.lft.to/lastmile_qr_scan", "ios": "https://dc.lft.to/lastmile_qr_scan"}, "fusion_lon": 0.0, "lat": 38.9080825, "type": "electric_scooter", "fusion_lat": 0.0, "bike_id": "0c7fd6141d1c33247e293a85ee63ca67"}, {"name": "70ca6e92240856dde07df76a9323c406", "is_reserved": 0, "is_disabled": 0, "lon": -77.02382533333333, "rental_uris": {"android": "https://dc.lft.to/lastmile_qr_scan", "ios": "https://dc.lft.to/lastmile_qr_scan"}, "fusion_lon": 0.0, "lat": 38.93225233333333, "type": "electric_bike", "fusion_lat": 0.0, "bike_id": "70ca6e92240856dde07df76a9323c406"}, {"name": "7ec5fbb6288157efd31e33d0e310f9fc", "is_reserved": 0, "is_disabled": 0, "lon": -77.029138, "rental_uris": {"android": "https://dc.lft.to/lastmile_qr_scan", "ios": "https://dc.lft.to/lastmile_qr_scan"}, "fusion_lon": 0.0, "lat": 38.91724266666667, "type": "electric_scooter", "fusion_lat": 0.0, "bike_id": "7ec5fbb6288157efd31e33d0e310f9fc"}, {"name": "6841ffdb1bd7fcd420a0c367737b2912", "is_reserved": 0, "is_disabled": 0, "lon": -77.03658066666667, "rental_uris": {"android": "https://dc.lft.to/lastmile_qr_scan", "ios": "https://dc.lft.to/lastmile_qr_scan"}, "fusion_lon": 0.0, "lat": 38.9162795, "type": "electric_scooter", "fusion_lat": 0.0, "bike_id": "6841ffdb1bd7fcd420a0c367737b2912"}, {"name": "b37f23a6b29749b2c66de94057a05087", "is_reserved": 0, "is_disabled": 0, "lon": -77.02356466666667, "rental_uris": {"android": "https://dc.lft.to/lastmile_qr_scan", "ios": "https://dc.lft.to/lastmile_qr_scan"}, "fusion_lon": 0.0, "lat": 38.93323133333333, "type": "electric_scooter", "fusion_lat": 0.0, "bike_id": "b37f23a6b29749b2c66de94057a05087"}, {"name": "39135c5bd87275cdff2f565fc0af1f9c", "is_reserved": 0, "is_disabled": 0, "lon": -77.02663833333334, "rental_uris": {"android": "https://dc.lft.to/lastmile_qr_scan", "ios": "https://dc.lft.to/lastmile_qr_scan"}, "fusion_lon": 0.0, "lat": 38.97943016666667, "type": "electric_scooter", "fusion_lat": 0.0, "bike_id": "39135c5bd87275cdff2f565fc0af1f9c"}, {"name": "748f5ab464c3825dc573df615bb42243", "is_reserved": 0, "is_disabled": 0, "lon": -77.04579683333333, "rental_uris": {"android": "https://dc.lft.to/lastmile_qr_scan", "ios": "https://dc.lft.to/lastmile_qr_scan"}, "fusion_lon": 0.0, "lat": 38.92144733333333, "type": "electric_scooter", "fusion_lat": 0.0, "bike_id": "748f5ab464c3825dc573df615bb42243"}, {"name": "78cf0c7b644330c835e176d2d8758225", "is_reserved": 0, "is_disabled": 0, "lon": -77.02180816666667, "rental_uris": {"android": "https://dc.lft.to/lastmile_qr_scan", "ios": "https://dc.lft.to/lastmile_qr_scan"}, "fusion_lon": 0.0, "lat": 38.8923055, "type": "electric_scooter", "fusion_lat": 0.0, "bike_id": "78cf0c7b644330c835e176d2d8758225"}, {"name": "9a8201fdb499d9927413b1e8241a7a0d", "is_reserved": 0, "is_disabled": 0, "lon": -77.03448833333333, "rental_uris": {"android": "https://dc.lft.to/lastmile_qr_scan", "ios": "https://dc.lft.to/lastmile_qr_scan"}, "fusion_lon": 0.0, "lat": 38.90503483333333, "type": "electric_scooter", "fusion_lat": 0.0, "bike_id": "9a8201fdb499d9927413b1e8241a7a0d"}, {"name": "bfb4826ee6c5a18cf2eb182f33126508", "is_reserved": 0, "is_disabled": 0, "lon": -77.02182866666666, "rental_uris": {"android": "https://dc.lft.to/lastmile_qr_scan", "ios": "https://dc.lft.to/lastmile_qr_scan"}, "fusion_lon": 0.0, "lat": 38.89228816666667, "type": "electric_scooter", "fusion_lat": 0.0, "bike_id": "bfb4826ee6c5a18cf2eb182f33126508"}, {"name": "dea7b16812c2caec53d941d77a322232", "is_reserved": 0, "is_disabled": 0, "lon": -77.032611, "rental_uris": {"android": "https://dc.lft.to/lastmile_qr_scan", "ios": "https://dc.lft.to/lastmile_qr_scan"}, "fusion_lon": 0.0, "lat": 38.93214, "type": "electric_scooter", "fusion_lat": 0.0, "bike_id": "dea7b16812c2caec53d941d77a322232"}, {"name": "e0a5d0a98e322cf23e0db3cc8c852fd6", "is_reserved": 0, "is_disabled": 0, "lon": -77.02499366666666, "rental_uris": {"android": "https://dc.lft.to/lastmile_qr_scan", "ios": "https://dc.lft.to/lastmile_qr_scan"}, "fusion_lon": 0.0, "lat": 38.90738016666667, "type": "electric_scooter", "fusion_lat": 0.0, "bike_id": "e0a5d0a98e322cf23e0db3cc8c852fd6"}, {"name": "be502f32d9f03cf179feb29a8bd0efd9", "is_reserved": 0, "is_disabled": 0, "lon": -77.0231635, "rental_uris": {"android": "https://dc.lft.to/lastmile_qr_scan", "ios": "https://dc.lft.to/lastmile_qr_scan"}, "fusion_lon": 0.0, "lat": 38.902098, "type": "electric_scooter", "fusion_lat": 0.0, "bike_id": "be502f32d9f03cf179feb29a8bd0efd9"}, {"name": "adb6dde9dbd06ea3ca77cb10607bb8b5", "is_reserved": 0, "is_disabled": 0, "lon": -76.98831533333333, "rental_uris": {"android": "https://dc.lft.to/lastmile_qr_scan", "ios": "https://dc.lft.to/lastmile_qr_scan"}, "fusion_lon": 0.0, "lat": 38.98563266666667, "type": "electric_bike", "fusion_lat": 0.0, "bike_id": "adb6dde9dbd06ea3ca77cb10607bb8b5"}, {"name": "a895809914b1d3d9e467de9f64520613", "is_reserved": 0, "is_disabled": 0, "lon": -77.048333, "rental_uris": {"android": "https://dc.lft.to/lastmile_qr_scan", "ios": "https://dc.lft.to/lastmile_qr_scan"}, "fusion_lon": 0.0, "lat": 38.900651833333335, "type": "electric_scooter", "fusion_lat": 0.0, "bike_id": "a895809914b1d3d9e467de9f64520613"}, {"name": "b0644d678014a0a37d3de01b128f8ba0", "is_reserved": 0, "is_disabled": 0, "lon": -77.03490516666666, "rental_uris": {"android": "https://dc.lft.to/lastmile_qr_scan", "ios": "https://dc.lft.to/lastmile_qr_scan"}, "fusion_lon": 0.0, "lat": 38.916979166666664, "type": "electric_scooter", "fusion_lat": 0.0, "bike_id": "b0644d678014a0a37d3de01b128f8ba0"}, {"name": "cf4fabc3001e74babbf58b6fabbb2bb3", "is_reserved": 0, "is_disabled": 0, "lon": -77.03824283333333, "rental_uris": {"android": "https://dc.lft.to/lastmile_qr_scan", "ios": "https://dc.lft.to/lastmile_qr_scan"}, "fusion_lon": 0.0, "lat": 38.903908, "type": "electric_scooter", "fusion_lat": 0.0, "bike_id": "cf4fabc3001e74babbf58b6fabbb2bb3"}, {"name": "a3fb614d3bed1e67602caeae61a09325", "is_reserved": 0, "is_disabled": 0, "lon": -77.04076983333333, "rental_uris": {"android": "https://dc.lft.to/lastmile_qr_scan", "ios": "https://dc.lft.to/lastmile_qr_scan"}, "fusion_lon": 0.0, "lat": 38.911176833333336, "type": "electric_scooter", "fusion_lat": 0.0, "bike_id": "a3fb614d3bed1e67602caeae61a09325"}, {"name": "91a5fde6de9ef7896f73645e983896d9", "is_reserved": 0, "is_disabled": 0, "lon": -77.07315, "rental_uris": {"android": "https://dc.lft.to/lastmile_qr_scan", "ios": "https://dc.lft.to/lastmile_qr_scan"}, "fusion_lon": 0.0, "lat": 38.912035333333336, "type": "electric_scooter", "fusion_lat": 0.0, "bike_id": "91a5fde6de9ef7896f73645e983896d9"}, {"name": "60f328b8758c645ca5b1ddc6bc51ce6f", "is_reserved": 0, "is_disabled": 0, "lon": -77.0466925, "rental_uris": {"android": "https://dc.lft.to/lastmile_qr_scan", "ios": "https://dc.lft.to/lastmile_qr_scan"}, "fusion_lon": 0.0, "lat": 38.90433483333333, "type": "electric_scooter", "fusion_lat": 0.0, "bike_id": "60f328b8758c645ca5b1ddc6bc51ce6f"}, {"name": "45729266322fd154aebda279c2fcfbac", "is_reserved": 0, "is_disabled": 0, "lon": -77.02706833333333, "rental_uris": {"android": "https://dc.lft.to/lastmile_qr_scan", "ios": "https://dc.lft.to/lastmile_qr_scan"}, "fusion_lon": 0.0, "lat": 38.881493, "type": "electric_scooter", "fusion_lat": 0.0, "bike_id": "45729266322fd154aebda279c2fcfbac"}, {"name": "6bb679ad91294e2657b781ca7ddddec9", "is_reserved": 0, "is_disabled": 0, "lon": -77.19911566666667, "rental_uris": {"android": "https://dc.lft.to/lastmile_qr_scan", "ios": "https://dc.lft.to/lastmile_qr_scan"}, "fusion_lon": 0.0, "lat": 38.875307166666666, "type": "electric_bike", "fusion_lat": 0.0, "bike_id": "6bb679ad91294e2657b781ca7ddddec9"}, {"name": "612a7720f7e1a3e33eac2c74e23f943e", "is_reserved": 0, "is_disabled": 0, "lon": -77.14986416666666, "rental_uris": {"android": "https://dc.lft.to/lastmile_qr_scan", "ios": "https://dc.lft.to/lastmile_qr_scan"}, "fusion_lon": 0.0, "lat": 39.094644833333334, "type": "electric_bike", "fusion_lat": 0.0, "bike_id": "612a7720f7e1a3e33eac2c74e23f943e"}, {"name": "47c4e30b878de4ec7b43ec54b3988a48", "is_reserved": 0, "is_disabled": 0, "lon": -77.0903665, "rental_uris": {"android": "https://dc.lft.to/lastmile_qr_scan", "ios": "https://dc.lft.to/lastmile_qr_scan"}, "fusion_lon": 0.0, "lat": 38.84118333333333, "type": "electric_bike", "fusion_lat": 0.0, "bike_id": "47c4e30b878de4ec7b43ec54b3988a48"}, {"name": "5992928efa07798c8b31920959690c97", "is_reserved": 0, "is_disabled": 0, "lon": -77.018564, "rental_uris": {"android": "https://dc.lft.to/lastmile_qr_scan", "ios": "https://dc.lft.to/lastmile_qr_scan"}, "fusion_lon": 0.0, "lat": 38.90393866666667, "type": "electric_scooter", "fusion_lat": 0.0, "bike_id": "5992928efa07798c8b31920959690c97"}, {"name": "a674896f348b81ac4938cd606433b6e7", "is_reserved": 0, "is_disabled": 0, "lon": -77.03265166666667, "rental_uris": {"android": "https://dc.lft.to/lastmile_qr_scan", "ios": "https://dc.lft.to/lastmile_qr_scan"}, "fusion_lon": 0.0, "lat": 38.90234816666667, "type": "electric_bike", "fusion_lat": 0.0, "bike_id": "a674896f348b81ac4938cd606433b6e7"}, {"name": "48ed3a9132b585880daa0bac927b4e30", "is_reserved": 0, "is_disabled": 0, "lon": -76.94885016666667, "rental_uris": {"android": "https://dc.lft.to/lastmile_qr_scan", "ios": "https://dc.lft.to/lastmile_qr_scan"}, "fusion_lon": 0.0, "lat": 38.89514366666667, "type": "electric_scooter", "fusion_lat": 0.0, "bike_id": "48ed3a9132b585880daa0bac927b4e30"}, {"name": "15e1935c6b44eab8ba6696acdd166a20", "is_reserved": 0, "is_disabled": 0, "lon": -76.99223216666667, "rental_uris": {"android": "https://dc.lft.to/lastmile_qr_scan", "ios": "https://dc.lft.to/lastmile_qr_scan"}, "fusion_lon": 0.0, "lat": 38.8989465, "type": "electric_scooter", "fusion_lat": 0.0, "bike_id": "15e1935c6b44eab8ba6696acdd166a20"}, {"name": "c06bbd7abc29d7c44ddcc69ca88d2cfe", "is_reserved": 0, "is_disabled": 0, "lon": -77.0383435, "rental_uris": {"android": "https://dc.lft.to/lastmile_qr_scan", "ios": "https://dc.lft.to/lastmile_qr_scan"}, "fusion_lon": 0.0, "lat": 38.9099295, "type": "electric_scooter", "fusion_lat": 0.0, "bike_id": "c06bbd7abc29d7c44ddcc69ca88d2cfe"}, {"name": "954ea3732c99b6202958f7ddfef04db9", "is_reserved": 0, "is_disabled": 0, "lon": -76.9522695, "rental_uris": {"android": "https://dc.lft.to/lastmile_qr_scan", "ios": "https://dc.lft.to/lastmile_qr_scan"}, "fusion_lon": 0.0, "lat": 38.89236116666667, "type": "electric_bike", "fusion_lat": 0.0, "bike_id": "954ea3732c99b6202958f7ddfef04db9"}, {"name": "05a94015eefc1b4b7ad59eec70826f16", "is_reserved": 0, "is_disabled": 0, "lon": -77.02975433333333, "rental_uris": {"android": "https://dc.lft.to/lastmile_qr_scan", "ios": "https://dc.lft.to/lastmile_qr_scan"}, "fusion_lon": 0.0, "lat": 38.927505, "type": "electric_scooter", "fusion_lat": 0.0, "bike_id": "05a94015eefc1b4b7ad59eec70826f16"}, {"name": "faeaf6296eab48be268310586e3d370d", "is_reserved": 0, "is_disabled": 0, "lon": -77.03823433333334, "rental_uris": {"android": "https://dc.lft.to/lastmile_qr_scan", "ios": "https://dc.lft.to/lastmile_qr_scan"}, "fusion_lon": 0.0, "lat": 38.90350316666667, "type": "electric_scooter", "fusion_lat": 0.0, "bike_id": "faeaf6296eab48be268310586e3d370d"}, {"name": "2bf544d78fc92e3554dfbcff38093604", "is_reserved": 0, "is_disabled": 0, "lon": -76.99893666666667, "rental_uris": {"android": "https://dc.lft.to/lastmile_qr_scan", "ios": "https://dc.lft.to/lastmile_qr_scan"}, "fusion_lon": 0.0, "lat": 38.9075425, "type": "electric_scooter", "fusion_lat": 0.0, "bike_id": "2bf544d78fc92e3554dfbcff38093604"}, {"name": "fa2a0e3dc8a9a7250270c8e678199350", "is_reserved": 0, "is_disabled": 0, "lon": -77.0719115, "rental_uris": {"android": "https://dc.lft.to/lastmile_qr_scan", "ios": "https://dc.lft.to/lastmile_qr_scan"}, "fusion_lon": 0.0, "lat": 38.921038, "type": "electric_scooter", "fusion_lat": 0.0, "bike_id": "fa2a0e3dc8a9a7250270c8e678199350"}, {"name": "093709401ff3645bbd8dd9eda32a5300", "is_reserved": 0, "is_disabled": 0, "lon": -77.03847283333333, "rental_uris": {"android": "https://dc.lft.to/lastmile_qr_scan", "ios": "https://dc.lft.to/lastmile_qr_scan"}, "fusion_lon": 0.0, "lat": 38.91023116666667, "type": "electric_scooter", "fusion_lat": 0.0, "bike_id": "093709401ff3645bbd8dd9eda32a5300"}, {"name": "c3d6b22bbff5fbf60600dfdc51784b86", "is_reserved": 0, "is_disabled": 0, "lon": -76.9953415, "rental_uris": {"android": "https://dc.lft.to/lastmile_qr_scan", "ios": "https://dc.lft.to/lastmile_qr_scan"}, "fusion_lon": 0.0, "lat": 38.9002635, "type": "electric_scooter", "fusion_lat": 0.0, "bike_id": "c3d6b22bbff5fbf60600dfdc51784b86"}, {"name": "5e955ff8e1059c63624a8c21be17ae45", "is_reserved": 0, "is_disabled": 0, "lon": -77.0351985, "rental_uris": {"android": "https://dc.lft.to/lastmile_qr_scan", "ios": "https://dc.lft.to/lastmile_qr_scan"}, "fusion_lon": 0.0, "lat": 38.921612333333336, "type": "electric_scooter", "fusion_lat": 0.0, "bike_id": "5e955ff8e1059c63624a8c21be17ae45"}, {"name": "845cdda7d52588d103dd96730636f2c1", "is_reserved": 0, "is_disabled": 0, "lon": -77.03281516666667, "rental_uris": {"android": "https://dc.lft.to/lastmile_qr_scan", "ios": "https://dc.lft.to/lastmile_qr_scan"}, "fusion_lon": 0.0, "lat": 38.956529833333335, "type": "electric_scooter", "fusion_lat": 0.0, "bike_id": "845cdda7d52588d103dd96730636f2c1"}, {"name": "d45a786e42af1243c0a34ce0ce3e59f3", "is_reserved": 0, "is_disabled": 0, "lon": -77.12512516666666, "rental_uris": {"android": "https://dc.lft.to/lastmile_qr_scan", "ios": "https://dc.lft.to/lastmile_qr_scan"}, "fusion_lon": 0.0, "lat": 39.024265166666666, "type": "electric_bike", "fusion_lat": 0.0, "bike_id": "d45a786e42af1243c0a34ce0ce3e59f3"}, {"name": "e6809b52ffe705538a45d8e68124c22f", "is_reserved": 0, "is_disabled": 0, "lon": -77.03731133333334, "rental_uris": {"android": "https://dc.lft.to/lastmile_qr_scan", "ios": "https://dc.lft.to/lastmile_qr_scan"}, "fusion_lon": 0.0, "lat": 38.91123116666667, "type": "electric_scooter", "fusion_lat": 0.0, "bike_id": "e6809b52ffe705538a45d8e68124c22f"}, {"name": "b829add88ce0816d625e6332a1f2fc5b", "is_reserved": 0, "is_disabled": 0, "lon": -77.033484, "rental_uris": {"android": "https://dc.lft.to/lastmile_qr_scan", "ios": "https://dc.lft.to/lastmile_qr_scan"}, "fusion_lon": 0.0, "lat": 38.90256433333333, "type": "electric_scooter", "fusion_lat": 0.0, "bike_id": "b829add88ce0816d625e6332a1f2fc5b"}, {"name": "46d0367f35f854ec3b8856f03cd30d13", "is_reserved": 0, "is_disabled": 0, "lon": -77.062677, "rental_uris": {"android": "https://dc.lft.to/lastmile_qr_scan", "ios": "https://dc.lft.to/lastmile_qr_scan"}, "fusion_lon": 0.0, "lat": 38.90594866666667, "type": "electric_scooter", "fusion_lat": 0.0, "bike_id": "46d0367f35f854ec3b8856f03cd30d13"}, {"name": "89cea9c45c8cefc52b5c03a31d37d99e", "is_reserved": 0, "is_disabled": 0, "lon": -77.0593435, "rental_uris": {"android": "https://dc.lft.to/lastmile_qr_scan", "ios": "https://dc.lft.to/lastmile_qr_scan"}, "fusion_lon": 0.0, "lat": 38.90979983333333, "type": "electric_scooter", "fusion_lat": 0.0, "bike_id": "89cea9c45c8cefc52b5c03a31d37d99e"}, {"name": "d68bbbe71526193cb59d8f15f876c389", "is_reserved": 0, "is_disabled": 0, "lon": -77.04284983333334, "rental_uris": {"android": "https://dc.lft.to/lastmile_qr_scan", "ios": "https://dc.lft.to/lastmile_qr_scan"}, "fusion_lon": 0.0, "lat": 38.926527666666665, "type": "electric_scooter", "fusion_lat": 0.0, "bike_id": "d68bbbe71526193cb59d8f15f876c389"}, {"name": "ce7e91fc560b0ecb9b80820326a10e03", "is_reserved": 0, "is_disabled": 0, "lon": -76.93842466666666, "rental_uris": {"android": "https://dc.lft.to/lastmile_qr_scan", "ios": "https://dc.lft.to/lastmile_qr_scan"}, "fusion_lon": 0.0, "lat": 38.8901535, "type": "electric_scooter", "fusion_lat": 0.0, "bike_id": "ce7e91fc560b0ecb9b80820326a10e03"}, {"name": "cc8a45d27e24be77f0a4633068ab80c6", "is_reserved": 0, "is_disabled": 0, "lon": -76.98853516666667, "rental_uris": {"android": "https://dc.lft.to/lastmile_qr_scan", "ios": "https://dc.lft.to/lastmile_qr_scan"}, "fusion_lon": 0.0, "lat": 38.900199666666666, "type": "electric_bike", "fusion_lat": 0.0, "bike_id": "cc8a45d27e24be77f0a4633068ab80c6"}, {"name": "cb9625581bc7eda711d25713ef8800f3", "is_reserved": 0, "is_disabled": 0, "lon": -77.00213016666666, "rental_uris": {"android": "https://dc.lft.to/lastmile_qr_scan", "ios": "https://dc.lft.to/lastmile_qr_scan"}, "fusion_lon": 0.0, "lat": 38.900292, "type": "electric_scooter", "fusion_lat": 0.0, "bike_id": "cb9625581bc7eda711d25713ef8800f3"}, {"name": "0250f72fedaf3ea8ca388ca43dde5965", "is_reserved": 0, "is_disabled": 0, "lon": -77.04819883333333, "rental_uris": {"android": "https://dc.lft.to/lastmile_qr_scan", "ios": "https://dc.lft.to/lastmile_qr_scan"}, "fusion_lon": 0.0, "lat": 38.904613166666664, "type": "electric_scooter", "fusion_lat": 0.0, "bike_id": "0250f72fedaf3ea8ca388ca43dde5965"}, {"name": "9acea2568bfc8165a0758c6ea7e0fc01", "is_reserved": 0, "is_disabled": 0, "lon": -77.07143966666666, "rental_uris": {"android": "https://dc.lft.to/lastmile_qr_scan", "ios": "https://dc.lft.to/lastmile_qr_scan"}, "fusion_lon": 0.0, "lat": 38.938258833333336, "type": "electric_scooter", "fusion_lat": 0.0, "bike_id": "9acea2568bfc8165a0758c6ea7e0fc01"}, {"name": "a3ccb275d7c26b7cf5e3979c6838021e", "is_reserved": 0, "is_disabled": 0, "lon": -77.0417255, "rental_uris": {"android": "https://dc.lft.to/lastmile_qr_scan", "ios": "https://dc.lft.to/lastmile_qr_scan"}, "fusion_lon": 0.0, "lat": 38.91457116666667, "type": "electric_scooter", "fusion_lat": 0.0, "bike_id": "a3ccb275d7c26b7cf5e3979c6838021e"}, {"name": "66b592800bd7bfddaece27b5196ec27f", "is_reserved": 0, "is_disabled": 0, "lon": -77.03862833333334, "rental_uris": {"android": "https://dc.lft.to/lastmile_qr_scan", "ios": "https://dc.lft.to/lastmile_qr_scan"}, "fusion_lon": 0.0, "lat": 38.911195166666666, "type": "electric_scooter", "fusion_lat": 0.0, "bike_id": "66b592800bd7bfddaece27b5196ec27f"}, {"name": "8dc78fae603f79dfcd25cc714f8a8744", "is_reserved": 0, "is_disabled": 0, "lon": -77.0368785, "rental_uris": {"android": "https://dc.lft.to/lastmile_qr_scan", "ios": "https://dc.lft.to/lastmile_qr_scan"}, "fusion_lon": 0.0, "lat": 38.91680916666667, "type": "electric_scooter", "fusion_lat": 0.0, "bike_id": "8dc78fae603f79dfcd25cc714f8a8744"}, {"name": "b91c29fd1a7c6d2085242e24805e2945", "is_reserved": 0, "is_disabled": 0, "lon": -76.98359533333333, "rental_uris": {"android": "https://dc.lft.to/lastmile_qr_scan", "ios": "https://dc.lft.to/lastmile_qr_scan"}, "fusion_lon": 0.0, "lat": 38.86478316666667, "type": "electric_scooter", "fusion_lat": 0.0, "bike_id": "b91c29fd1a7c6d2085242e24805e2945"}, {"name": "73bbd865596c498c269855585db17333", "is_reserved": 0, "is_disabled": 0, "lon": -76.94631566666666, "rental_uris": {"android": "https://dc.lft.to/lastmile_qr_scan", "ios": "https://dc.lft.to/lastmile_qr_scan"}, "fusion_lon": 0.0, "lat": 38.898494666666664, "type": "electric_scooter", "fusion_lat": 0.0, "bike_id": "73bbd865596c498c269855585db17333"}, {"name": "d06ef8e2016a29d2f40897bc8852ca3a", "is_reserved": 0, "is_disabled": 0, "lon": -77.026098, "rental_uris": {"android": "https://dc.lft.to/lastmile_qr_scan", "ios": "https://dc.lft.to/lastmile_qr_scan"}, "fusion_lon": 0.0, "lat": 38.91430283333333, "type": "electric_scooter", "fusion_lat": 0.0, "bike_id": "d06ef8e2016a29d2f40897bc8852ca3a"}, {"name": "4de195b8d9388cbf3b9663edc8dba38d", "is_reserved": 0, "is_disabled": 0, "lon": -77.03548266666667, "rental_uris": {"android": "https://dc.lft.to/lastmile_qr_scan", "ios": "https://dc.lft.to/lastmile_qr_scan"}, "fusion_lon": 0.0, "lat": 38.9170295, "type": "electric_scooter", "fusion_lat": 0.0, "bike_id": "4de195b8d9388cbf3b9663edc8dba38d"}, {"name": "acd4ba44982c8b537580bbec92d95c6c", "is_reserved": 0, "is_disabled": 0, "lon": -77.0229385, "rental_uris": {"android": "https://dc.lft.to/lastmile_qr_scan", "ios": "https://dc.lft.to/lastmile_qr_scan"}, "fusion_lon": 0.0, "lat": 38.90145183333333, "type": "electric_scooter", "fusion_lat": 0.0, "bike_id": "acd4ba44982c8b537580bbec92d95c6c"}, {"name": "adce1bc5d06e63c11876b345598cc003", "is_reserved": 0, "is_disabled": 0, "lon": -76.96924, "rental_uris": {"android": "https://dc.lft.to/lastmile_qr_scan", "ios": "https://dc.lft.to/lastmile_qr_scan"}, "fusion_lon": 0.0, "lat": 38.93034766666667, "type": "electric_scooter", "fusion_lat": 0.0, "bike_id": "adce1bc5d06e63c11876b345598cc003"}, {"name": "01e264c37d43ad20d7b6c263432995cc", "is_reserved": 0, "is_disabled": 0, "lon": -77.02709916666667, "rental_uris": {"android": "https://dc.lft.to/lastmile_qr_scan", "ios": "https://dc.lft.to/lastmile_qr_scan"}, "fusion_lon": 0.0, "lat": 38.906653, "type": "electric_scooter", "fusion_lat": 0.0, "bike_id": "01e264c37d43ad20d7b6c263432995cc"}, {"name": "94adb0293da104aba34cfce887b6a4cb", "is_reserved": 0, "is_disabled": 0, "lon": -76.99443766666667, "rental_uris": {"android": "https://dc.lft.to/lastmile_qr_scan", "ios": "https://dc.lft.to/lastmile_qr_scan"}, "fusion_lon": 0.0, "lat": 38.90511333333333, "type": "electric_scooter", "fusion_lat": 0.0, "bike_id": "94adb0293da104aba34cfce887b6a4cb"}, {"name": "cce3a1a6647431a52535a35e1f35ed26", "is_reserved": 0, "is_disabled": 0, "lon": -76.95507733333334, "rental_uris": {"android": "https://dc.lft.to/lastmile_qr_scan", "ios": "https://dc.lft.to/lastmile_qr_scan"}, "fusion_lon": 0.0, "lat": 38.89056566666667, "type": "electric_scooter", "fusion_lat": 0.0, "bike_id": "cce3a1a6647431a52535a35e1f35ed26"}, {"name": "d9cbd9b65e63f491a426fbae6f588306", "is_reserved": 0, "is_disabled": 0, "lon": -77.03190216666667, "rental_uris": {"android": "https://dc.lft.to/lastmile_qr_scan", "ios": "https://dc.lft.to/lastmile_qr_scan"}, "fusion_lon": 0.0, "lat": 38.90801583333333, "type": "electric_scooter", "fusion_lat": 0.0, "bike_id": "d9cbd9b65e63f491a426fbae6f588306"}, {"name": "9e9f190c453e80949e0f9a1a6e6251d6", "is_reserved": 0, "is_disabled": 0, "lon": -77.02122016666667, "rental_uris": {"android": "https://dc.lft.to/lastmile_qr_scan", "ios": "https://dc.lft.to/lastmile_qr_scan"}, "fusion_lon": 0.0, "lat": 38.935739, "type": "electric_scooter", "fusion_lat": 0.0, "bike_id": "9e9f190c453e80949e0f9a1a6e6251d6"}, {"name": "3633ae2fd1e53adc2d40c893d3b99d37", "is_reserved": 0, "is_disabled": 0, "lon": -76.92918116666667, "rental_uris": {"android": "https://dc.lft.to/lastmile_qr_scan", "ios": "https://dc.lft.to/lastmile_qr_scan"}, "fusion_lon": 0.0, "lat": 38.980296833333334, "type": "electric_bike", "fusion_lat": 0.0, "bike_id": "3633ae2fd1e53adc2d40c893d3b99d37"}, {"name": "06aee0ab2be09ff74adf34e17bad13c5", "is_reserved": 0, "is_disabled": 0, "lon": -77.01951383333333, "rental_uris": {"android": "https://dc.lft.to/lastmile_qr_scan", "ios": "https://dc.lft.to/lastmile_qr_scan"}, "fusion_lon": 0.0, "lat": 38.92271733333333, "type": "electric_scooter", "fusion_lat": 0.0, "bike_id": "06aee0ab2be09ff74adf34e17bad13c5"}, {"name": "b9115a02d0a4c323a9b6c45f04be01ca", "is_reserved": 0, "is_disabled": 0, "lon": -76.92778883333334, "rental_uris": {"android": "https://dc.lft.to/lastmile_qr_scan", "ios": "https://dc.lft.to/lastmile_qr_scan"}, "fusion_lon": 0.0, "lat": 38.902732, "type": "electric_scooter", "fusion_lat": 0.0, "bike_id": "b9115a02d0a4c323a9b6c45f04be01ca"}, {"name": "898120706900787834a9880c521c6d0b", "is_reserved": 0, "is_disabled": 0, "lon": -77.05756466666666, "rental_uris": {"android": "https://dc.lft.to/lastmile_qr_scan", "ios": "https://dc.lft.to/lastmile_qr_scan"}, "fusion_lon": 0.0, "lat": 38.92507366666667, "type": "electric_scooter", "fusion_lat": 0.0, "bike_id": "898120706900787834a9880c521c6d0b"}, {"name": "30c18b067cdbb40e41895ddd1bbf32bd", "is_reserved": 0, "is_disabled": 0, "lon": -77.02492333333333, "rental_uris": {"android": "https://dc.lft.to/lastmile_qr_scan", "ios": "https://dc.lft.to/lastmile_qr_scan"}, "fusion_lon": 0.0, "lat": 38.94188583333333, "type": "electric_scooter", "fusion_lat": 0.0, "bike_id": "30c18b067cdbb40e41895ddd1bbf32bd"}, {"name": "c89397ae38c8fd8173a672287ef6ef6c", "is_reserved": 0, "is_disabled": 0, "lon": -77.00066116666666, "rental_uris": {"android": "https://dc.lft.to/lastmile_qr_scan", "ios": "https://dc.lft.to/lastmile_qr_scan"}, "fusion_lon": 0.0, "lat": 38.874414, "type": "electric_scooter", "fusion_lat": 0.0, "bike_id": "c89397ae38c8fd8173a672287ef6ef6c"}, {"name": "a5b3b1bc5dde36a7c7597b287f6e5bc8", "is_reserved": 0, "is_disabled": 0, "lon": -77.04542916666666, "rental_uris": {"android": "https://dc.lft.to/lastmile_qr_scan", "ios": "https://dc.lft.to/lastmile_qr_scan"}, "fusion_lon": 0.0, "lat": 38.9075425, "type": "electric_scooter", "fusion_lat": 0.0, "bike_id": "a5b3b1bc5dde36a7c7597b287f6e5bc8"}, {"name": "138d0085a67ec09ae62677dee09103df", "is_reserved": 0, "is_disabled": 0, "lon": -77.0028355, "rental_uris": {"android": "https://dc.lft.to/lastmile_qr_scan", "ios": "https://dc.lft.to/lastmile_qr_scan"}, "fusion_lon": 0.0, "lat": 38.909084166666666, "type": "electric_scooter", "fusion_lat": 0.0, "bike_id": "138d0085a67ec09ae62677dee09103df"}, {"name": "cbc192e61794debf08cda41ed2316287", "is_reserved": 0, "is_disabled": 0, "lon": -77.026389, "rental_uris": {"android": "https://dc.lft.to/lastmile_qr_scan", "ios": "https://dc.lft.to/lastmile_qr_scan"}, "fusion_lon": 0.0, "lat": 38.88115483333333, "type": "electric_scooter", "fusion_lat": 0.0, "bike_id": "cbc192e61794debf08cda41ed2316287"}, {"name": "9f4865dd6f38f5ae5a316e0093c95cba", "is_reserved": 0, "is_disabled": 0, "lon": -77.04626883333333, "rental_uris": {"android": "https://dc.lft.to/lastmile_qr_scan", "ios": "https://dc.lft.to/lastmile_qr_scan"}, "fusion_lon": 0.0, "lat": 38.897436, "type": "electric_scooter", "fusion_lat": 0.0, "bike_id": "9f4865dd6f38f5ae5a316e0093c95cba"}, {"name": "bee6427d5ecacf165c719c6ec62592dc", "is_reserved": 0, "is_disabled": 0, "lon": -77.0649605, "rental_uris": {"android": "https://dc.lft.to/lastmile_qr_scan", "ios": "https://dc.lft.to/lastmile_qr_scan"}, "fusion_lon": 0.0, "lat": 38.9052, "type": "electric_scooter", "fusion_lat": 0.0, "bike_id": "bee6427d5ecacf165c719c6ec62592dc"}, {"name": "625b638aeff3a60ab407fc4e7d93af9a", "is_reserved": 0, "is_disabled": 0, "lon": -77.04168466666667, "rental_uris": {"android": "https://dc.lft.to/lastmile_qr_scan", "ios": "https://dc.lft.to/lastmile_qr_scan"}, "fusion_lon": 0.0, "lat": 38.916494, "type": "electric_scooter", "fusion_lat": 0.0, "bike_id": "625b638aeff3a60ab407fc4e7d93af9a"}, {"name": "b7d415d085dd79dc3f8c2bc2b2f58ffe", "is_reserved": 0, "is_disabled": 0, "lon": -76.99478383333333, "rental_uris": {"android": "https://dc.lft.to/lastmile_qr_scan", "ios": "https://dc.lft.to/lastmile_qr_scan"}, "fusion_lon": 0.0, "lat": 38.88347516666666, "type": "electric_scooter", "fusion_lat": 0.0, "bike_id": "b7d415d085dd79dc3f8c2bc2b2f58ffe"}, {"name": "14facc093b4568224d798eea77b99261", "is_reserved": 0, "is_disabled": 0, "lon": -76.99605416666667, "rental_uris": {"android": "https://dc.lft.to/lastmile_qr_scan", "ios": "https://dc.lft.to/lastmile_qr_scan"}, "fusion_lon": 0.0, "lat": 38.926201666666664, "type": "electric_scooter", "fusion_lat": 0.0, "bike_id": "14facc093b4568224d798eea77b99261"}, {"name": "152c8c642f6f45ebf1826e9e2fe8d59a", "is_reserved": 0, "is_disabled": 0, "lon": -77.0647475, "rental_uris": {"android": "https://dc.lft.to/lastmile_qr_scan", "ios": "https://dc.lft.to/lastmile_qr_scan"}, "fusion_lon": 0.0, "lat": 38.97384616666667, "type": "electric_bike", "fusion_lat": 0.0, "bike_id": "152c8c642f6f45ebf1826e9e2fe8d59a"}, {"name": "66bfc702d7f460df923c489b00daaac7", "is_reserved": 0, "is_disabled": 0, "lon": -77.0103335, "rental_uris": {"android": "https://dc.lft.to/lastmile_qr_scan", "ios": "https://dc.lft.to/lastmile_qr_scan"}, "fusion_lon": 0.0, "lat": 38.871483833333336, "type": "electric_scooter", "fusion_lat": 0.0, "bike_id": "66bfc702d7f460df923c489b00daaac7"}, {"name": "ed8a1d830261ad51e131a9f3b56f60d9", "is_reserved": 0, "is_disabled": 0, "lon": -77.03355916666666, "rental_uris": {"android": "https://dc.lft.to/lastmile_qr_scan", "ios": "https://dc.lft.to/lastmile_qr_scan"}, "fusion_lon": 0.0, "lat": 38.90367166666667, "type": "electric_scooter", "fusion_lat": 0.0, "bike_id": "ed8a1d830261ad51e131a9f3b56f60d9"}, {"name": "027ff7f10ce8eceee8f4e38578701a68", "is_reserved": 0, "is_disabled": 0, "lon": -76.9893355, "rental_uris": {"android": "https://dc.lft.to/lastmile_qr_scan", "ios": "https://dc.lft.to/lastmile_qr_scan"}, "fusion_lon": 0.0, "lat": 38.92860616666667, "type": "electric_bike", "fusion_lat": 0.0, "bike_id": "027ff7f10ce8eceee8f4e38578701a68"}, {"name": "8696a80a68a0f17a6eba66b917204f29", "is_reserved": 0, "is_disabled": 0, "lon": -77.04322216666667, "rental_uris": {"android": "https://dc.lft.to/lastmile_qr_scan", "ios": "https://dc.lft.to/lastmile_qr_scan"}, "fusion_lon": 0.0, "lat": 38.892273833333334, "type": "electric_scooter", "fusion_lat": 0.0, "bike_id": "8696a80a68a0f17a6eba66b917204f29"}, {"name": "c5e650ea1fe997d6c88e0f5f55a5bcb9", "is_reserved": 0, "is_disabled": 0, "lon": -77.02591783333334, "rental_uris": {"android": "https://dc.lft.to/lastmile_qr_scan", "ios": "https://dc.lft.to/lastmile_qr_scan"}, "fusion_lon": 0.0, "lat": 38.982372, "type": "electric_bike", "fusion_lat": 0.0, "bike_id": "c5e650ea1fe997d6c88e0f5f55a5bcb9"}, {"name": "36d17d37d4bd1870795e334598ae23ef", "is_reserved": 0, "is_disabled": 0, "lon": -77.032207, "rental_uris": {"android": "https://dc.lft.to/lastmile_qr_scan", "ios": "https://dc.lft.to/lastmile_qr_scan"}, "fusion_lon": 0.0, "lat": 38.904304833333335, "type": "electric_scooter", "fusion_lat": 0.0, "bike_id": "36d17d37d4bd1870795e334598ae23ef"}, {"name": "82f27a40c4a048814967aa9416a26c7a", "is_reserved": 0, "is_disabled": 0, "lon": -77.01054466666666, "rental_uris": {"android": "https://dc.lft.to/lastmile_qr_scan", "ios": "https://dc.lft.to/lastmile_qr_scan"}, "fusion_lon": 0.0, "lat": 38.9298505, "type": "electric_scooter", "fusion_lat": 0.0, "bike_id": "82f27a40c4a048814967aa9416a26c7a"}, {"name": "dc44df04280af326c1acb837e0000fb3", "is_reserved": 0, "is_disabled": 0, "lon": -77.04670533333334, "rental_uris": {"android": "https://dc.lft.to/lastmile_qr_scan", "ios": "https://dc.lft.to/lastmile_qr_scan"}, "fusion_lon": 0.0, "lat": 38.907252166666666, "type": "electric_scooter", "fusion_lat": 0.0, "bike_id": "dc44df04280af326c1acb837e0000fb3"}, {"name": "8fede865ff6e1f7c08fe59ac4c607285", "is_reserved": 0, "is_disabled": 0, "lon": -77.0709615, "rental_uris": {"android": "https://dc.lft.to/lastmile_qr_scan", "ios": "https://dc.lft.to/lastmile_qr_scan"}, "fusion_lon": 0.0, "lat": 38.919730333333334, "type": "electric_scooter", "fusion_lat": 0.0, "bike_id": "8fede865ff6e1f7c08fe59ac4c607285"}, {"name": "072b925dbcb1ca312456193789a2102d", "is_reserved": 0, "is_disabled": 0, "lon": -77.05303133333334, "rental_uris": {"android": "https://dc.lft.to/lastmile_qr_scan", "ios": "https://dc.lft.to/lastmile_qr_scan"}, "fusion_lon": 0.0, "lat": 38.9067755, "type": "electric_scooter", "fusion_lat": 0.0, "bike_id": "072b925dbcb1ca312456193789a2102d"}, {"name": "2e12e905069ea2796fd25d043faa33b4", "is_reserved": 0, "is_disabled": 0, "lon": -77.01213033333333, "rental_uris": {"android": "https://dc.lft.to/lastmile_qr_scan", "ios": "https://dc.lft.to/lastmile_qr_scan"}, "fusion_lon": 0.0, "lat": 38.919471333333334, "type": "electric_scooter", "fusion_lat": 0.0, "bike_id": "2e12e905069ea2796fd25d043faa33b4"}, {"name": "6871e82f2db7b838b173d8f5af97314a", "is_reserved": 0, "is_disabled": 0, "lon": -77.0273455, "rental_uris": {"android": "https://dc.lft.to/lastmile_qr_scan", "ios": "https://dc.lft.to/lastmile_qr_scan"}, "fusion_lon": 0.0, "lat": 38.899449, "type": "electric_scooter", "fusion_lat": 0.0, "bike_id": "6871e82f2db7b838b173d8f5af97314a"}, {"name": "8472d0e2abc5083e727f64e2c4950e17", "is_reserved": 0, "is_disabled": 0, "lon": -77.0003255, "rental_uris": {"android": "https://dc.lft.to/lastmile_qr_scan", "ios": "https://dc.lft.to/lastmile_qr_scan"}, "fusion_lon": 0.0, "lat": 38.873835666666665, "type": "electric_scooter", "fusion_lat": 0.0, "bike_id": "8472d0e2abc5083e727f64e2c4950e17"}, {"name": "502dad99eb9fd28a2e2b67e68c3a5b38", "is_reserved": 0, "is_disabled": 0, "lon": -76.94622183333334, "rental_uris": {"android": "https://dc.lft.to/lastmile_qr_scan", "ios": "https://dc.lft.to/lastmile_qr_scan"}, "fusion_lon": 0.0, "lat": 38.832358, "type": "electric_bike", "fusion_lat": 0.0, "bike_id": "502dad99eb9fd28a2e2b67e68c3a5b38"}, {"name": "beee276768229da77076c6efab918085", "is_reserved": 0, "is_disabled": 0, "lon": -77.0378335, "rental_uris": {"android": "https://dc.lft.to/lastmile_qr_scan", "ios": "https://dc.lft.to/lastmile_qr_scan"}, "fusion_lon": 0.0, "lat": 38.933246833333335, "type": "electric_scooter", "fusion_lat": 0.0, "bike_id": "beee276768229da77076c6efab918085"}, {"name": "880828cb4aecb8d1021d9829b5930fd7", "is_reserved": 0, "is_disabled": 0, "lon": -77.05169583333333, "rental_uris": {"android": "https://dc.lft.to/lastmile_qr_scan", "ios": "https://dc.lft.to/lastmile_qr_scan"}, "fusion_lon": 0.0, "lat": 38.90579116666667, "type": "electric_scooter", "fusion_lat": 0.0, "bike_id": "880828cb4aecb8d1021d9829b5930fd7"}, {"name": "7e2cdfddb8bfa0e113098fe7f9b8b2f4", "is_reserved": 0, "is_disabled": 0, "lon": -77.0318655, "rental_uris": {"android": "https://dc.lft.to/lastmile_qr_scan", "ios": "https://dc.lft.to/lastmile_qr_scan"}, "fusion_lon": 0.0, "lat": 38.91929916666667, "type": "electric_scooter", "fusion_lat": 0.0, "bike_id": "7e2cdfddb8bfa0e113098fe7f9b8b2f4"}, {"name": "bea3634f07b3c44ff10ffee09ec651d1", "is_reserved": 0, "is_disabled": 0, "lon": -76.9903165, "rental_uris": {"android": "https://dc.lft.to/lastmile_qr_scan", "ios": "https://dc.lft.to/lastmile_qr_scan"}, "fusion_lon": 0.0, "lat": 38.92872666666667, "type": "electric_scooter", "fusion_lat": 0.0, "bike_id": "bea3634f07b3c44ff10ffee09ec651d1"}, {"name": "45f6898e12395e3e82a002a1e8bcc995", "is_reserved": 0, "is_disabled": 0, "lon": -76.98778033333333, "rental_uris": {"android": "https://dc.lft.to/lastmile_qr_scan", "ios": "https://dc.lft.to/lastmile_qr_scan"}, "fusion_lon": 0.0, "lat": 38.88314366666667, "type": "electric_scooter", "fusion_lat": 0.0, "bike_id": "45f6898e12395e3e82a002a1e8bcc995"}, {"name": "5958fc5f78fcff19f81eb1cadddaad3d", "is_reserved": 0, "is_disabled": 0, "lon": -77.02580783333333, "rental_uris": {"android": "https://dc.lft.to/lastmile_qr_scan", "ios": "https://dc.lft.to/lastmile_qr_scan"}, "fusion_lon": 0.0, "lat": 38.925111, "type": "electric_scooter", "fusion_lat": 0.0, "bike_id": "5958fc5f78fcff19f81eb1cadddaad3d"}, {"name": "4aaf54569c188bc2d20f6db4248a3543", "is_reserved": 0, "is_disabled": 0, "lon": -77.02885033333334, "rental_uris": {"android": "https://dc.lft.to/lastmile_qr_scan", "ios": "https://dc.lft.to/lastmile_qr_scan"}, "fusion_lon": 0.0, "lat": 38.91415466666667, "type": "electric_scooter", "fusion_lat": 0.0, "bike_id": "4aaf54569c188bc2d20f6db4248a3543"}, {"name": "7d54070ea7ddd70403c3ec2ba18fb027", "is_reserved": 0, "is_disabled": 0, "lon": -77.0199375, "rental_uris": {"android": "https://dc.lft.to/lastmile_qr_scan", "ios": "https://dc.lft.to/lastmile_qr_scan"}, "fusion_lon": 0.0, "lat": 38.96629133333333, "type": "electric_scooter", "fusion_lat": 0.0, "bike_id": "7d54070ea7ddd70403c3ec2ba18fb027"}, {"name": "30fce7113c7d768d894887d3a3498837", "is_reserved": 0, "is_disabled": 0, "lon": -77.01257316666667, "rental_uris": {"android": "https://dc.lft.to/lastmile_qr_scan", "ios": "https://dc.lft.to/lastmile_qr_scan"}, "fusion_lon": 0.0, "lat": 38.90849466666667, "type": "electric_scooter", "fusion_lat": 0.0, "bike_id": "30fce7113c7d768d894887d3a3498837"}, {"name": "a09ad5eae6163a6c9b7a5680b032fad8", "is_reserved": 0, "is_disabled": 0, "lon": -77.00402016666666, "rental_uris": {"android": "https://dc.lft.to/lastmile_qr_scan", "ios": "https://dc.lft.to/lastmile_qr_scan"}, "fusion_lon": 0.0, "lat": 38.91115333333333, "type": "electric_scooter", "fusion_lat": 0.0, "bike_id": "a09ad5eae6163a6c9b7a5680b032fad8"}, {"name": "1dd415ecd8cc245ad770f379ec6aadf0", "is_reserved": 0, "is_disabled": 0, "lon": -76.99167033333333, "rental_uris": {"android": "https://dc.lft.to/lastmile_qr_scan", "ios": "https://dc.lft.to/lastmile_qr_scan"}, "fusion_lon": 0.0, "lat": 38.87346733333333, "type": "electric_scooter", "fusion_lat": 0.0, "bike_id": "1dd415ecd8cc245ad770f379ec6aadf0"}, {"name": "d4c81bdad2df588180c82c1f68e22b59", "is_reserved": 0, "is_disabled": 0, "lon": -76.99836133333334, "rental_uris": {"android": "https://dc.lft.to/lastmile_qr_scan", "ios": "https://dc.lft.to/lastmile_qr_scan"}, "fusion_lon": 0.0, "lat": 38.839198, "type": "electric_bike", "fusion_lat": 0.0, "bike_id": "d4c81bdad2df588180c82c1f68e22b59"}, {"name": "cc0c5f6b898546cd419ff1110543ca0e", "is_reserved": 0, "is_disabled": 0, "lon": -77.0364085, "rental_uris": {"android": "https://dc.lft.to/lastmile_qr_scan", "ios": "https://dc.lft.to/lastmile_qr_scan"}, "fusion_lon": 0.0, "lat": 38.91223566666667, "type": "electric_scooter", "fusion_lat": 0.0, "bike_id": "cc0c5f6b898546cd419ff1110543ca0e"}, {"name": "e946118e410ea02d2a44e9f5ea9c6386", "is_reserved": 0, "is_disabled": 0, "lon": -77.01075533333334, "rental_uris": {"android": "https://dc.lft.to/lastmile_qr_scan", "ios": "https://dc.lft.to/lastmile_qr_scan"}, "fusion_lon": 0.0, "lat": 38.962652, "type": "electric_bike", "fusion_lat": 0.0, "bike_id": "e946118e410ea02d2a44e9f5ea9c6386"}, {"name": "9c9173aead9a02353167d9a49663da2b", "is_reserved": 0, "is_disabled": 0, "lon": -77.01460783333333, "rental_uris": {"android": "https://dc.lft.to/lastmile_qr_scan", "ios": "https://dc.lft.to/lastmile_qr_scan"}, "fusion_lon": 0.0, "lat": 38.910363333333336, "type": "electric_scooter", "fusion_lat": 0.0, "bike_id": "9c9173aead9a02353167d9a49663da2b"}, {"name": "3d4a24d1a7b4afbec6ff3f778569e5d7", "is_reserved": 0, "is_disabled": 0, "lon": -77.03801566666667, "rental_uris": {"android": "https://dc.lft.to/lastmile_qr_scan", "ios": "https://dc.lft.to/lastmile_qr_scan"}, "fusion_lon": 0.0, "lat": 38.92322883333333, "type": "electric_scooter", "fusion_lat": 0.0, "bike_id": "3d4a24d1a7b4afbec6ff3f778569e5d7"}, {"name": "1f344794516b7d9acab006e9ce3b0ba7", "is_reserved": 0, "is_disabled": 0, "lon": -77.015075, "rental_uris": {"android": "https://dc.lft.to/lastmile_qr_scan", "ios": "https://dc.lft.to/lastmile_qr_scan"}, "fusion_lon": 0.0, "lat": 38.884427, "type": "electric_scooter", "fusion_lat": 0.0, "bike_id": "1f344794516b7d9acab006e9ce3b0ba7"}, {"name": "023b82c9879723b48a404700653e0e5d", "is_reserved": 0, "is_disabled": 0, "lon": -77.03848366666666, "rental_uris": {"android": "https://dc.lft.to/lastmile_qr_scan", "ios": "https://dc.lft.to/lastmile_qr_scan"}, "fusion_lon": 0.0, "lat": 38.9133185, "type": "electric_scooter", "fusion_lat": 0.0, "bike_id": "023b82c9879723b48a404700653e0e5d"}, {"name": "01947856cf891ce91326c251c9c35796", "is_reserved": 0, "is_disabled": 0, "lon": -76.9650535, "rental_uris": {"android": "https://dc.lft.to/lastmile_qr_scan", "ios": "https://dc.lft.to/lastmile_qr_scan"}, "fusion_lon": 0.0, "lat": 38.876487, "type": "electric_scooter", "fusion_lat": 0.0, "bike_id": "01947856cf891ce91326c251c9c35796"}, {"name": "352b22525221837d59d268e74b5e355a", "is_reserved": 0, "is_disabled": 0, "lon": -77.0048725, "rental_uris": {"android": "https://dc.lft.to/lastmile_qr_scan", "ios": "https://dc.lft.to/lastmile_qr_scan"}, "fusion_lon": 0.0, "lat": 38.87556083333333, "type": "electric_scooter", "fusion_lat": 0.0, "bike_id": "352b22525221837d59d268e74b5e355a"}, {"name": "38c82f328de3adeb67c9f3efab693535", "is_reserved": 0, "is_disabled": 0, "lon": -76.98326933333334, "rental_uris": {"android": "https://dc.lft.to/lastmile_qr_scan", "ios": "https://dc.lft.to/lastmile_qr_scan"}, "fusion_lon": 0.0, "lat": 38.8617205, "type": "electric_scooter", "fusion_lat": 0.0, "bike_id": "38c82f328de3adeb67c9f3efab693535"}, {"name": "ae34a7351799a03f28dce0fb075e8efd", "is_reserved": 0, "is_disabled": 0, "lon": -77.15266833333334, "rental_uris": {"android": "https://dc.lft.to/lastmile_qr_scan", "ios": "https://dc.lft.to/lastmile_qr_scan"}, "fusion_lon": 0.0, "lat": 39.105685, "type": "electric_bike", "fusion_lat": 0.0, "bike_id": "ae34a7351799a03f28dce0fb075e8efd"}, {"name": "d73dac20176ee530cd588a812fdf7f8d", "is_reserved": 0, "is_disabled": 0, "lon": -77.03320516666666, "rental_uris": {"android": "https://dc.lft.to/lastmile_qr_scan", "ios": "https://dc.lft.to/lastmile_qr_scan"}, "fusion_lon": 0.0, "lat": 38.960205333333334, "type": "electric_scooter", "fusion_lat": 0.0, "bike_id": "d73dac20176ee530cd588a812fdf7f8d"}, {"name": "e2585427e5a5e3706dafbbd33b603892", "is_reserved": 0, "is_disabled": 0, "lon": -77.04714833333334, "rental_uris": {"android": "https://dc.lft.to/lastmile_qr_scan", "ios": "https://dc.lft.to/lastmile_qr_scan"}, "fusion_lon": 0.0, "lat": 38.899455333333336, "type": "electric_scooter", "fusion_lat": 0.0, "bike_id": "e2585427e5a5e3706dafbbd33b603892"}, {"name": "9aa81e25b583655b82f0d041f5905981", "is_reserved": 0, "is_disabled": 0, "lon": -76.96835033333333, "rental_uris": {"android": "https://dc.lft.to/lastmile_qr_scan", "ios": "https://dc.lft.to/lastmile_qr_scan"}, "fusion_lon": 0.0, "lat": 38.924468, "type": "electric_bike", "fusion_lat": 0.0, "bike_id": "9aa81e25b583655b82f0d041f5905981"}, {"name": "db1b2bc5946733d821997a8827293a00", "is_reserved": 0, "is_disabled": 0, "lon": -77.036367, "rental_uris": {"android": "https://dc.lft.to/lastmile_qr_scan", "ios": "https://dc.lft.to/lastmile_qr_scan"}, "fusion_lon": 0.0, "lat": 38.931708, "type": "electric_scooter", "fusion_lat": 0.0, "bike_id": "db1b2bc5946733d821997a8827293a00"}, {"name": "2c38aac3ff345e8e9a7cf3c94e322386", "is_reserved": 0, "is_disabled": 0, "lon": -76.94854383333333, "rental_uris": {"android": "https://dc.lft.to/lastmile_qr_scan", "ios": "https://dc.lft.to/lastmile_qr_scan"}, "fusion_lon": 0.0, "lat": 38.883056333333336, "type": "electric_scooter", "fusion_lat": 0.0, "bike_id": "2c38aac3ff345e8e9a7cf3c94e322386"}, {"name": "852c34e80e31545bcdbe6d079c53c78c", "is_reserved": 0, "is_disabled": 0, "lon": -76.98887116666667, "rental_uris": {"android": "https://dc.lft.to/lastmile_qr_scan", "ios": "https://dc.lft.to/lastmile_qr_scan"}, "fusion_lon": 0.0, "lat": 38.8667285, "type": "electric_scooter", "fusion_lat": 0.0, "bike_id": "852c34e80e31545bcdbe6d079c53c78c"}, {"name": "d4f2566dd3f3bcc450b9f35efca8927a", "is_reserved": 0, "is_disabled": 0, "lon": -77.00221766666667, "rental_uris": {"android": "https://dc.lft.to/lastmile_qr_scan", "ios": "https://dc.lft.to/lastmile_qr_scan"}, "fusion_lon": 0.0, "lat": 38.8876865, "type": "electric_scooter", "fusion_lat": 0.0, "bike_id": "d4f2566dd3f3bcc450b9f35efca8927a"}, {"name": "5b9a8f765048b5142e53bcfda1b30853", "is_reserved": 0, "is_disabled": 0, "lon": -77.0316, "rental_uris": {"android": "https://dc.lft.to/lastmile_qr_scan", "ios": "https://dc.lft.to/lastmile_qr_scan"}, "fusion_lon": 0.0, "lat": 38.92783983333333, "type": "electric_scooter", "fusion_lat": 0.0, "bike_id": "5b9a8f765048b5142e53bcfda1b30853"}, {"name": "d32b428297e765e8511fdabca007ae75", "is_reserved": 0, "is_disabled": 0, "lon": -77.0144165, "rental_uris": {"android": "https://dc.lft.to/lastmile_qr_scan", "ios": "https://dc.lft.to/lastmile_qr_scan"}, "fusion_lon": 0.0, "lat": 38.8778105, "type": "electric_scooter", "fusion_lat": 0.0, "bike_id": "d32b428297e765e8511fdabca007ae75"}, {"name": "319687e72355d3488e217c4769d52feb", "is_reserved": 0, "is_disabled": 0, "lon": -76.99024866666667, "rental_uris": {"android": "https://dc.lft.to/lastmile_qr_scan", "ios": "https://dc.lft.to/lastmile_qr_scan"}, "fusion_lon": 0.0, "lat": 38.860753, "type": "electric_scooter", "fusion_lat": 0.0, "bike_id": "319687e72355d3488e217c4769d52feb"}, {"name": "580a25b621526566ac1d36a2456795b2", "is_reserved": 0, "is_disabled": 0, "lon": -77.01175333333333, "rental_uris": {"android": "https://dc.lft.to/lastmile_qr_scan", "ios": "https://dc.lft.to/lastmile_qr_scan"}, "fusion_lon": 0.0, "lat": 38.900128333333335, "type": "electric_scooter", "fusion_lat": 0.0, "bike_id": "580a25b621526566ac1d36a2456795b2"}, {"name": "21d67cc4f361598a36869e37a898b877", "is_reserved": 0, "is_disabled": 0, "lon": -77.1432875, "rental_uris": {"android": "https://dc.lft.to/lastmile_qr_scan", "ios": "https://dc.lft.to/lastmile_qr_scan"}, "fusion_lon": 0.0, "lat": 39.05462166666667, "type": "electric_bike", "fusion_lat": 0.0, "bike_id": "21d67cc4f361598a36869e37a898b877"}, {"name": "065b37520f60f922a36f700c6325e29d", "is_reserved": 0, "is_disabled": 0, "lon": -77.00554383333333, "rental_uris": {"android": "https://dc.lft.to/lastmile_qr_scan", "ios": "https://dc.lft.to/lastmile_qr_scan"}, "fusion_lon": 0.0, "lat": 38.91186483333333, "type": "electric_scooter", "fusion_lat": 0.0, "bike_id": "065b37520f60f922a36f700c6325e29d"}, {"name": "6159e994f0f24453d491b1d4084dfa14", "is_reserved": 0, "is_disabled": 0, "lon": -77.0232175, "rental_uris": {"android": "https://dc.lft.to/lastmile_qr_scan", "ios": "https://dc.lft.to/lastmile_qr_scan"}, "fusion_lon": 0.0, "lat": 38.89991, "type": "electric_scooter", "fusion_lat": 0.0, "bike_id": "6159e994f0f24453d491b1d4084dfa14"}, {"name": "e657864cd412ddb4cfec53b7e673d09a", "is_reserved": 0, "is_disabled": 0, "lon": -77.06187733333333, "rental_uris": {"android": "https://dc.lft.to/lastmile_qr_scan", "ios": "https://dc.lft.to/lastmile_qr_scan"}, "fusion_lon": 0.0, "lat": 38.9301355, "type": "electric_scooter", "fusion_lat": 0.0, "bike_id": "e657864cd412ddb4cfec53b7e673d09a"}, {"name": "9e9db743dc2e373557f9f50ba1da529b", "is_reserved": 0, "is_disabled": 0, "lon": -77.02827916666666, "rental_uris": {"android": "https://dc.lft.to/lastmile_qr_scan", "ios": "https://dc.lft.to/lastmile_qr_scan"}, "fusion_lon": 0.0, "lat": 38.89936566666667, "type": "electric_scooter", "fusion_lat": 0.0, "bike_id": "9e9db743dc2e373557f9f50ba1da529b"}, {"name": "a2d7c7660f0d069cf7cd11aa0939df61", "is_reserved": 0, "is_disabled": 0, "lon": -77.0453435, "rental_uris": {"android": "https://dc.lft.to/lastmile_qr_scan", "ios": "https://dc.lft.to/lastmile_qr_scan"}, "fusion_lon": 0.0, "lat": 38.9023165, "type": "electric_scooter", "fusion_lat": 0.0, "bike_id": "a2d7c7660f0d069cf7cd11aa0939df61"}, {"name": "56fc39084574591d1b36d7efc12f4945", "is_reserved": 0, "is_disabled": 0, "lon": -77.3440285, "rental_uris": {"android": "https://dc.lft.to/lastmile_qr_scan", "ios": "https://dc.lft.to/lastmile_qr_scan"}, "fusion_lon": 0.0, "lat": 38.945904666666664, "type": "electric_bike", "fusion_lat": 0.0, "bike_id": "56fc39084574591d1b36d7efc12f4945"}, {"name": "84fadeb504930f9cd6e24be9dd1fe076", "is_reserved": 0, "is_disabled": 0, "lon": -77.03198016666667, "rental_uris": {"android": "https://dc.lft.to/lastmile_qr_scan", "ios": "https://dc.lft.to/lastmile_qr_scan"}, "fusion_lon": 0.0, "lat": 38.921215333333336, "type": "electric_scooter", "fusion_lat": 0.0, "bike_id": "84fadeb504930f9cd6e24be9dd1fe076"}, {"name": "e14870fcfdf4559ea6cb57800f10f1f2", "is_reserved": 0, "is_disabled": 0, "lon": -76.991955, "rental_uris": {"android": "https://dc.lft.to/lastmile_qr_scan", "ios": "https://dc.lft.to/lastmile_qr_scan"}, "fusion_lon": 0.0, "lat": 38.8953495, "type": "electric_scooter", "fusion_lat": 0.0, "bike_id": "e14870fcfdf4559ea6cb57800f10f1f2"}, {"name": "a55612c577ee7589d380446ce45f9890", "is_reserved": 0, "is_disabled": 0, "lon": -77.00765566666666, "rental_uris": {"android": "https://dc.lft.to/lastmile_qr_scan", "ios": "https://dc.lft.to/lastmile_qr_scan"}, "fusion_lon": 0.0, "lat": 38.900563166666664, "type": "electric_scooter", "fusion_lat": 0.0, "bike_id": "a55612c577ee7589d380446ce45f9890"}, {"name": "fb2450c97c0877c54f937c1e45716da9", "is_reserved": 0, "is_disabled": 0, "lon": -77.0110035, "rental_uris": {"android": "https://dc.lft.to/lastmile_qr_scan", "ios": "https://dc.lft.to/lastmile_qr_scan"}, "fusion_lon": 0.0, "lat": 38.90728583333333, "type": "electric_scooter", "fusion_lat": 0.0, "bike_id": "fb2450c97c0877c54f937c1e45716da9"}, {"name": "75f966d8ef4ec5bcfc82f437b43bdf74", "is_reserved": 0, "is_disabled": 0, "lon": -77.01558366666667, "rental_uris": {"android": "https://dc.lft.to/lastmile_qr_scan", "ios": "https://dc.lft.to/lastmile_qr_scan"}, "fusion_lon": 0.0, "lat": 38.9137215, "type": "electric_scooter", "fusion_lat": 0.0, "bike_id": "75f966d8ef4ec5bcfc82f437b43bdf74"}, {"name": "783d6b42fe3dfc0dcc86e79213672d3b", "is_reserved": 0, "is_disabled": 0, "lon": -77.03177933333333, "rental_uris": {"android": "https://dc.lft.to/lastmile_qr_scan", "ios": "https://dc.lft.to/lastmile_qr_scan"}, "fusion_lon": 0.0, "lat": 38.886608333333335, "type": "electric_scooter", "fusion_lat": 0.0, "bike_id": "783d6b42fe3dfc0dcc86e79213672d3b"}, {"name": "084e01c44db64911e22827fa1487a1b1", "is_reserved": 0, "is_disabled": 0, "lon": -77.0215415, "rental_uris": {"android": "https://dc.lft.to/lastmile_qr_scan", "ios": "https://dc.lft.to/lastmile_qr_scan"}, "fusion_lon": 0.0, "lat": 38.926036333333336, "type": "electric_scooter", "fusion_lat": 0.0, "bike_id": "084e01c44db64911e22827fa1487a1b1"}, {"name": "06487dbbd78ba8d147e8286c86a42cd8", "is_reserved": 0, "is_disabled": 0, "lon": -77.0471285, "rental_uris": {"android": "https://dc.lft.to/lastmile_qr_scan", "ios": "https://dc.lft.to/lastmile_qr_scan"}, "fusion_lon": 0.0, "lat": 38.917767833333336, "type": "electric_scooter", "fusion_lat": 0.0, "bike_id": "06487dbbd78ba8d147e8286c86a42cd8"}, {"name": "74f9d6f4e7e88a2279e24d39b5af7890", "is_reserved": 0, "is_disabled": 0, "lon": -77.03344666666666, "rental_uris": {"android": "https://dc.lft.to/lastmile_qr_scan", "ios": "https://dc.lft.to/lastmile_qr_scan"}, "fusion_lon": 0.0, "lat": 38.89829433333333, "type": "electric_scooter", "fusion_lat": 0.0, "bike_id": "74f9d6f4e7e88a2279e24d39b5af7890"}, {"name": "672a973f13b9c8dc446d6554ceba6f6f", "is_reserved": 0, "is_disabled": 0, "lon": -77.06279116666667, "rental_uris": {"android": "https://dc.lft.to/lastmile_qr_scan", "ios": "https://dc.lft.to/lastmile_qr_scan"}, "fusion_lon": 0.0, "lat": 38.9050025, "type": "electric_scooter", "fusion_lat": 0.0, "bike_id": "672a973f13b9c8dc446d6554ceba6f6f"}, {"name": "479e19c77b9fc7f796d340c0d58d8389", "is_reserved": 0, "is_disabled": 0, "lon": -77.00353783333334, "rental_uris": {"android": "https://dc.lft.to/lastmile_qr_scan", "ios": "https://dc.lft.to/lastmile_qr_scan"}, "fusion_lon": 0.0, "lat": 38.87761883333334, "type": "electric_scooter", "fusion_lat": 0.0, "bike_id": "479e19c77b9fc7f796d340c0d58d8389"}, {"name": "45433ee621ec022b77844eb18deb66fd", "is_reserved": 0, "is_disabled": 0, "lon": -77.04540566666667, "rental_uris": {"android": "https://dc.lft.to/lastmile_qr_scan", "ios": "https://dc.lft.to/lastmile_qr_scan"}, "fusion_lon": 0.0, "lat": 38.91796083333333, "type": "electric_scooter", "fusion_lat": 0.0, "bike_id": "45433ee621ec022b77844eb18deb66fd"}, {"name": "2fa9d2edf4b4726c814ac10d75f8dadb", "is_reserved": 0, "is_disabled": 0, "lon": -77.05791166666667, "rental_uris": {"android": "https://dc.lft.to/lastmile_qr_scan", "ios": "https://dc.lft.to/lastmile_qr_scan"}, "fusion_lon": 0.0, "lat": 38.90366383333333, "type": "electric_scooter", "fusion_lat": 0.0, "bike_id": "2fa9d2edf4b4726c814ac10d75f8dadb"}, {"name": "30c3b2564d2be375d8ffd4db9cb787ad", "is_reserved": 0, "is_disabled": 0, "lon": -77.132325, "rental_uris": {"android": "https://dc.lft.to/lastmile_qr_scan", "ios": "https://dc.lft.to/lastmile_qr_scan"}, "fusion_lon": 0.0, "lat": 38.86974716666667, "type": "electric_bike", "fusion_lat": 0.0, "bike_id": "30c3b2564d2be375d8ffd4db9cb787ad"}, {"name": "c744796c859a927363cccf5ba7135a96", "is_reserved": 0, "is_disabled": 0, "lon": -77.01031316666666, "rental_uris": {"android": "https://dc.lft.to/lastmile_qr_scan", "ios": "https://dc.lft.to/lastmile_qr_scan"}, "fusion_lon": 0.0, "lat": 38.90008366666667, "type": "electric_scooter", "fusion_lat": 0.0, "bike_id": "c744796c859a927363cccf5ba7135a96"}, {"name": "fbb0b211e3b9a425c6457ae6165180ce", "is_reserved": 0, "is_disabled": 0, "lon": -77.02531533333334, "rental_uris": {"android": "https://dc.lft.to/lastmile_qr_scan", "ios": "https://dc.lft.to/lastmile_qr_scan"}, "fusion_lon": 0.0, "lat": 38.901125666666665, "type": "electric_scooter", "fusion_lat": 0.0, "bike_id": "fbb0b211e3b9a425c6457ae6165180ce"}, {"name": "7410d2d9c25eeb9195a7441eed38ba1a", "is_reserved": 0, "is_disabled": 0, "lon": -77.00569116666667, "rental_uris": {"android": "https://dc.lft.to/lastmile_qr_scan", "ios": "https://dc.lft.to/lastmile_qr_scan"}, "fusion_lon": 0.0, "lat": 38.885035, "type": "electric_scooter", "fusion_lat": 0.0, "bike_id": "7410d2d9c25eeb9195a7441eed38ba1a"}, {"name": "b60c09100ddbab5799a9a5500c24dfa7", "is_reserved": 0, "is_disabled": 0, "lon": -77.00754983333333, "rental_uris": {"android": "https://dc.lft.to/lastmile_qr_scan", "ios": "https://dc.lft.to/lastmile_qr_scan"}, "fusion_lon": 0.0, "lat": 38.876479, "type": "electric_scooter", "fusion_lat": 0.0, "bike_id": "b60c09100ddbab5799a9a5500c24dfa7"}, {"name": "51eda49337e0dc66bede9d4bc5bc83bc", "is_reserved": 0, "is_disabled": 0, "lon": -76.99175383333333, "rental_uris": {"android": "https://dc.lft.to/lastmile_qr_scan", "ios": "https://dc.lft.to/lastmile_qr_scan"}, "fusion_lon": 0.0, "lat": 38.889769666666666, "type": "electric_bike", "fusion_lat": 0.0, "bike_id": "51eda49337e0dc66bede9d4bc5bc83bc"}, {"name": "827cc9ad4eb82b112f30942be9807c11", "is_reserved": 0, "is_disabled": 0, "lon": -77.02170566666666, "rental_uris": {"android": "https://dc.lft.to/lastmile_qr_scan", "ios": "https://dc.lft.to/lastmile_qr_scan"}, "fusion_lon": 0.0, "lat": 38.942968, "type": "electric_scooter", "fusion_lat": 0.0, "bike_id": "827cc9ad4eb82b112f30942be9807c11"}, {"name": "7b687f8d0a2d05b2e89e8e9ff26f6b10", "is_reserved": 0, "is_disabled": 0, "lon": -77.02423483333334, "rental_uris": {"android": "https://dc.lft.to/lastmile_qr_scan", "ios": "https://dc.lft.to/lastmile_qr_scan"}, "fusion_lon": 0.0, "lat": 38.91824166666667, "type": "electric_scooter", "fusion_lat": 0.0, "bike_id": "7b687f8d0a2d05b2e89e8e9ff26f6b10"}, {"name": "dafe0f81b3f06bc611e2346ee54ec88c", "is_reserved": 0, "is_disabled": 0, "lon": -77.0198065, "rental_uris": {"android": "https://dc.lft.to/lastmile_qr_scan", "ios": "https://dc.lft.to/lastmile_qr_scan"}, "fusion_lon": 0.0, "lat": 38.90236316666667, "type": "electric_scooter", "fusion_lat": 0.0, "bike_id": "dafe0f81b3f06bc611e2346ee54ec88c"}, {"name": "db04db32f70d75c8db21da9f5f48b759", "is_reserved": 0, "is_disabled": 0, "lon": -77.002148, "rental_uris": {"android": "https://dc.lft.to/lastmile_qr_scan", "ios": "https://dc.lft.to/lastmile_qr_scan"}, "fusion_lon": 0.0, "lat": 38.90027, "type": "electric_scooter", "fusion_lat": 0.0, "bike_id": "db04db32f70d75c8db21da9f5f48b759"}, {"name": "a0a9f21b41e9fc1ae91160ecd37832e3", "is_reserved": 0, "is_disabled": 0, "lon": -77.10131266666667, "rental_uris": {"android": "https://dc.lft.to/lastmile_qr_scan", "ios": "https://dc.lft.to/lastmile_qr_scan"}, "fusion_lon": 0.0, "lat": 38.85212583333333, "type": "electric_bike", "fusion_lat": 0.0, "bike_id": "a0a9f21b41e9fc1ae91160ecd37832e3"}, {"name": "50838f53e4891c92243989afe1739829", "is_reserved": 0, "is_disabled": 0, "lon": -77.023843, "rental_uris": {"android": "https://dc.lft.to/lastmile_qr_scan", "ios": "https://dc.lft.to/lastmile_qr_scan"}, "fusion_lon": 0.0, "lat": 38.933572, "type": "electric_scooter", "fusion_lat": 0.0, "bike_id": "50838f53e4891c92243989afe1739829"}, {"name": "b3682bdd05e9602642b1461a49c46833", "is_reserved": 0, "is_disabled": 0, "lon": -77.02970683333334, "rental_uris": {"android": "https://dc.lft.to/lastmile_qr_scan", "ios": "https://dc.lft.to/lastmile_qr_scan"}, "fusion_lon": 0.0, "lat": 38.916840666666666, "type": "electric_scooter", "fusion_lat": 0.0, "bike_id": "b3682bdd05e9602642b1461a49c46833"}, {"name": "dd59dc18b3b2992315cac42cdf8dfbe8", "is_reserved": 0, "is_disabled": 0, "lon": -77.03979383333333, "rental_uris": {"android": "https://dc.lft.to/lastmile_qr_scan", "ios": "https://dc.lft.to/lastmile_qr_scan"}, "fusion_lon": 0.0, "lat": 38.902706333333334, "type": "electric_scooter", "fusion_lat": 0.0, "bike_id": "dd59dc18b3b2992315cac42cdf8dfbe8"}, {"name": "445c0281971be7a0164bfde0166d037e", "is_reserved": 0, "is_disabled": 0, "lon": -77.03516133333333, "rental_uris": {"android": "https://dc.lft.to/lastmile_qr_scan", "ios": "https://dc.lft.to/lastmile_qr_scan"}, "fusion_lon": 0.0, "lat": 38.93283816666667, "type": "electric_scooter", "fusion_lat": 0.0, "bike_id": "445c0281971be7a0164bfde0166d037e"}, {"name": "51aa1508d688266933b0e0a7347740c3", "is_reserved": 0, "is_disabled": 0, "lon": -76.983809, "rental_uris": {"android": "https://dc.lft.to/lastmile_qr_scan", "ios": "https://dc.lft.to/lastmile_qr_scan"}, "fusion_lon": 0.0, "lat": 38.89898183333333, "type": "electric_bike", "fusion_lat": 0.0, "bike_id": "51aa1508d688266933b0e0a7347740c3"}, {"name": "229d04270775b46f6adc720646276b74", "is_reserved": 0, "is_disabled": 0, "lon": -76.994962, "rental_uris": {"android": "https://dc.lft.to/lastmile_qr_scan", "ios": "https://dc.lft.to/lastmile_qr_scan"}, "fusion_lon": 0.0, "lat": 38.862247833333335, "type": "electric_scooter", "fusion_lat": 0.0, "bike_id": "229d04270775b46f6adc720646276b74"}, {"name": "6f4413c817a71181b5f53e36b5f1f59d", "is_reserved": 0, "is_disabled": 0, "lon": -77.03800416666667, "rental_uris": {"android": "https://dc.lft.to/lastmile_qr_scan", "ios": "https://dc.lft.to/lastmile_qr_scan"}, "fusion_lon": 0.0, "lat": 38.910411833333335, "type": "electric_scooter", "fusion_lat": 0.0, "bike_id": "6f4413c817a71181b5f53e36b5f1f59d"}, {"name": "9719c4fcbb8e0ddd75ad6111ffa33eb2", "is_reserved": 0, "is_disabled": 0, "lon": -77.03340483333334, "rental_uris": {"android": "https://dc.lft.to/lastmile_qr_scan", "ios": "https://dc.lft.to/lastmile_qr_scan"}, "fusion_lon": 0.0, "lat": 38.89821533333333, "type": "electric_scooter", "fusion_lat": 0.0, "bike_id": "9719c4fcbb8e0ddd75ad6111ffa33eb2"}, {"name": "89317b1af4116f9150778cd48cb7c0ed", "is_reserved": 0, "is_disabled": 0, "lon": -77.0137885, "rental_uris": {"android": "https://dc.lft.to/lastmile_qr_scan", "ios": "https://dc.lft.to/lastmile_qr_scan"}, "fusion_lon": 0.0, "lat": 38.9286235, "type": "electric_scooter", "fusion_lat": 0.0, "bike_id": "89317b1af4116f9150778cd48cb7c0ed"}, {"name": "60b9e7bda84689886be805529ae974d1", "is_reserved": 0, "is_disabled": 0, "lon": -76.98323666666667, "rental_uris": {"android": "https://dc.lft.to/lastmile_qr_scan", "ios": "https://dc.lft.to/lastmile_qr_scan"}, "fusion_lon": 0.0, "lat": 38.9074915, "type": "electric_scooter", "fusion_lat": 0.0, "bike_id": "60b9e7bda84689886be805529ae974d1"}, {"name": "2007491591798fa89c5c505c7a4c69e3", "is_reserved": 0, "is_disabled": 0, "lon": -77.03311533333333, "rental_uris": {"android": "https://dc.lft.to/lastmile_qr_scan", "ios": "https://dc.lft.to/lastmile_qr_scan"}, "fusion_lon": 0.0, "lat": 38.89847133333333, "type": "electric_scooter", "fusion_lat": 0.0, "bike_id": "2007491591798fa89c5c505c7a4c69e3"}, {"name": "b1c79cf117c498846f2604512ad73375", "is_reserved": 0, "is_disabled": 0, "lon": -77.03839533333333, "rental_uris": {"android": "https://dc.lft.to/lastmile_qr_scan", "ios": "https://dc.lft.to/lastmile_qr_scan"}, "fusion_lon": 0.0, "lat": 38.91733116666666, "type": "electric_scooter", "fusion_lat": 0.0, "bike_id": "b1c79cf117c498846f2604512ad73375"}, {"name": "fb5472148d08b93176b6baa3a427261b", "is_reserved": 0, "is_disabled": 0, "lon": -77.0088995, "rental_uris": {"android": "https://dc.lft.to/lastmile_qr_scan", "ios": "https://dc.lft.to/lastmile_qr_scan"}, "fusion_lon": 0.0, "lat": 38.912887166666664, "type": "electric_scooter", "fusion_lat": 0.0, "bike_id": "fb5472148d08b93176b6baa3a427261b"}, {"name": "d9ac01d0416b2b7c2f8203bd3f0e94b3", "is_reserved": 0, "is_disabled": 0, "lon": -77.01984016666667, "rental_uris": {"android": "https://dc.lft.to/lastmile_qr_scan", "ios": "https://dc.lft.to/lastmile_qr_scan"}, "fusion_lon": 0.0, "lat": 38.90078416666667, "type": "electric_scooter", "fusion_lat": 0.0, "bike_id": "d9ac01d0416b2b7c2f8203bd3f0e94b3"}, {"name": "9f74c80f1f4ee3c52ceab798302067a0", "is_reserved": 0, "is_disabled": 0, "lon": -77.04660866666667, "rental_uris": {"android": "https://dc.lft.to/lastmile_qr_scan", "ios": "https://dc.lft.to/lastmile_qr_scan"}, "fusion_lon": 0.0, "lat": 38.892478833333335, "type": "electric_scooter", "fusion_lat": 0.0, "bike_id": "9f74c80f1f4ee3c52ceab798302067a0"}, {"name": "e420e7608aa02a9033afdde79a8f87d6", "is_reserved": 0, "is_disabled": 0, "lon": -77.01174816666666, "rental_uris": {"android": "https://dc.lft.to/lastmile_qr_scan", "ios": "https://dc.lft.to/lastmile_qr_scan"}, "fusion_lon": 0.0, "lat": 38.900097, "type": "electric_scooter", "fusion_lat": 0.0, "bike_id": "e420e7608aa02a9033afdde79a8f87d6"}, {"name": "a2ec984087b41ec9b34ccffbdc5033ee", "is_reserved": 0, "is_disabled": 0, "lon": -77.04192183333333, "rental_uris": {"android": "https://dc.lft.to/lastmile_qr_scan", "ios": "https://dc.lft.to/lastmile_qr_scan"}, "fusion_lon": 0.0, "lat": 38.89978583333333, "type": "electric_scooter", "fusion_lat": 0.0, "bike_id": "a2ec984087b41ec9b34ccffbdc5033ee"}, {"name": "d3151a00a8458a97a3ea76711c5784bf", "is_reserved": 0, "is_disabled": 0, "lon": -77.0220435, "rental_uris": {"android": "https://dc.lft.to/lastmile_qr_scan", "ios": "https://dc.lft.to/lastmile_qr_scan"}, "fusion_lon": 0.0, "lat": 38.887222333333334, "type": "electric_scooter", "fusion_lat": 0.0, "bike_id": "d3151a00a8458a97a3ea76711c5784bf"}, {"name": "201a171daca405ceaa4be57c963d5fac", "is_reserved": 0, "is_disabled": 0, "lon": -77.027868, "rental_uris": {"android": "https://dc.lft.to/lastmile_qr_scan", "ios": "https://dc.lft.to/lastmile_qr_scan"}, "fusion_lon": 0.0, "lat": 38.961349, "type": "electric_scooter", "fusion_lat": 0.0, "bike_id": "201a171daca405ceaa4be57c963d5fac"}, {"name": "2a00e3c5f888047be2ff9bf564127965", "is_reserved": 0, "is_disabled": 0, "lon": -77.01045466666666, "rental_uris": {"android": "https://dc.lft.to/lastmile_qr_scan", "ios": "https://dc.lft.to/lastmile_qr_scan"}, "fusion_lon": 0.0, "lat": 38.906744, "type": "electric_scooter", "fusion_lat": 0.0, "bike_id": "2a00e3c5f888047be2ff9bf564127965"}, {"name": "7afca35aeb7b4a12f285e297fd4695a7", "is_reserved": 0, "is_disabled": 0, "lon": -77.0417765, "rental_uris": {"android": "https://dc.lft.to/lastmile_qr_scan", "ios": "https://dc.lft.to/lastmile_qr_scan"}, "fusion_lon": 0.0, "lat": 38.91418183333333, "type": "electric_scooter", "fusion_lat": 0.0, "bike_id": "7afca35aeb7b4a12f285e297fd4695a7"}, {"name": "75a812646a3a961f6575f24fae577142", "is_reserved": 0, "is_disabled": 0, "lon": -77.02944383333333, "rental_uris": {"android": "https://dc.lft.to/lastmile_qr_scan", "ios": "https://dc.lft.to/lastmile_qr_scan"}, "fusion_lon": 0.0, "lat": 38.90242666666666, "type": "electric_scooter", "fusion_lat": 0.0, "bike_id": "75a812646a3a961f6575f24fae577142"}, {"name": "94725a17015bac6db2bb0805c19211e8", "is_reserved": 0, "is_disabled": 0, "lon": -76.93435083333334, "rental_uris": {"android": "https://dc.lft.to/lastmile_qr_scan", "ios": "https://dc.lft.to/lastmile_qr_scan"}, "fusion_lon": 0.0, "lat": 38.8996545, "type": "electric_scooter", "fusion_lat": 0.0, "bike_id": "94725a17015bac6db2bb0805c19211e8"}, {"name": "5514a02d2ba9bbf895df855605beb011", "is_reserved": 0, "is_disabled": 0, "lon": -76.948693, "rental_uris": {"android": "https://dc.lft.to/lastmile_qr_scan", "ios": "https://dc.lft.to/lastmile_qr_scan"}, "fusion_lon": 0.0, "lat": 38.895778666666665, "type": "electric_scooter", "fusion_lat": 0.0, "bike_id": "5514a02d2ba9bbf895df855605beb011"}, {"name": "aa2a9be4955ff3d25bb743140950d18a", "is_reserved": 0, "is_disabled": 0, "lon": -77.03225716666667, "rental_uris": {"android": "https://dc.lft.to/lastmile_qr_scan", "ios": "https://dc.lft.to/lastmile_qr_scan"}, "fusion_lon": 0.0, "lat": 38.907647833333336, "type": "electric_scooter", "fusion_lat": 0.0, "bike_id": "aa2a9be4955ff3d25bb743140950d18a"}, {"name": "914ff409a610498d5aad80de0b181a03", "is_reserved": 0, "is_disabled": 0, "lon": -77.02231066666667, "rental_uris": {"android": "https://dc.lft.to/lastmile_qr_scan", "ios": "https://dc.lft.to/lastmile_qr_scan"}, "fusion_lon": 0.0, "lat": 38.887683833333334, "type": "electric_scooter", "fusion_lat": 0.0, "bike_id": "914ff409a610498d5aad80de0b181a03"}, {"name": "c0b317944278b28313af2d30fb4da874", "is_reserved": 0, "is_disabled": 0, "lon": -77.052923, "rental_uris": {"android": "https://dc.lft.to/lastmile_qr_scan", "ios": "https://dc.lft.to/lastmile_qr_scan"}, "fusion_lon": 0.0, "lat": 38.92793733333333, "type": "electric_scooter", "fusion_lat": 0.0, "bike_id": "c0b317944278b28313af2d30fb4da874"}, {"name": "5db97af5bc78dd073b9438334aabc898", "is_reserved": 0, "is_disabled": 0, "lon": -76.99003066666667, "rental_uris": {"android": "https://dc.lft.to/lastmile_qr_scan", "ios": "https://dc.lft.to/lastmile_qr_scan"}, "fusion_lon": 0.0, "lat": 38.86508333333333, "type": "electric_scooter", "fusion_lat": 0.0, "bike_id": "5db97af5bc78dd073b9438334aabc898"}, {"name": "94f0d7b3ad00cafe32680450d7625959", "is_reserved": 0, "is_disabled": 0, "lon": -77.0487735, "rental_uris": {"android": "https://dc.lft.to/lastmile_qr_scan", "ios": "https://dc.lft.to/lastmile_qr_scan"}, "fusion_lon": 0.0, "lat": 38.909719333333335, "type": "electric_scooter", "fusion_lat": 0.0, "bike_id": "94f0d7b3ad00cafe32680450d7625959"}, {"name": "10cfdf2793b64e91aba942db26d8870e", "is_reserved": 0, "is_disabled": 0, "lon": -77.02866816666666, "rental_uris": {"android": "https://dc.lft.to/lastmile_qr_scan", "ios": "https://dc.lft.to/lastmile_qr_scan"}, "fusion_lon": 0.0, "lat": 38.922339666666666, "type": "electric_scooter", "fusion_lat": 0.0, "bike_id": "10cfdf2793b64e91aba942db26d8870e"}, {"name": "55f7fd779b53247fd7634184898bd42c", "is_reserved": 0, "is_disabled": 0, "lon": -77.03762216666667, "rental_uris": {"android": "https://dc.lft.to/lastmile_qr_scan", "ios": "https://dc.lft.to/lastmile_qr_scan"}, "fusion_lon": 0.0, "lat": 38.91688416666667, "type": "electric_scooter", "fusion_lat": 0.0, "bike_id": "55f7fd779b53247fd7634184898bd42c"}, {"name": "201e5e354d2b4b668095a0fdcb0070ab", "is_reserved": 0, "is_disabled": 0, "lon": -76.98460633333333, "rental_uris": {"android": "https://dc.lft.to/lastmile_qr_scan", "ios": "https://dc.lft.to/lastmile_qr_scan"}, "fusion_lon": 0.0, "lat": 38.8936775, "type": "electric_scooter", "fusion_lat": 0.0, "bike_id": "201e5e354d2b4b668095a0fdcb0070ab"}, {"name": "e715d5e61b984c879b76b7632a2e70f4", "is_reserved": 0, "is_disabled": 0, "lon": -77.02943816666667, "rental_uris": {"android": "https://dc.lft.to/lastmile_qr_scan", "ios": "https://dc.lft.to/lastmile_qr_scan"}, "fusion_lon": 0.0, "lat": 38.8982835, "type": "electric_scooter", "fusion_lat": 0.0, "bike_id": "e715d5e61b984c879b76b7632a2e70f4"}, {"name": "e3676236354df9723db273526ef2241c", "is_reserved": 0, "is_disabled": 0, "lon": -77.02981483333333, "rental_uris": {"android": "https://dc.lft.to/lastmile_qr_scan", "ios": "https://dc.lft.to/lastmile_qr_scan"}, "fusion_lon": 0.0, "lat": 38.9245845, "type": "electric_scooter", "fusion_lat": 0.0, "bike_id": "e3676236354df9723db273526ef2241c"}, {"name": "01d10f305b4d28bfb32391d4e69c236d", "is_reserved": 0, "is_disabled": 0, "lon": -77.03738883333334, "rental_uris": {"android": "https://dc.lft.to/lastmile_qr_scan", "ios": "https://dc.lft.to/lastmile_qr_scan"}, "fusion_lon": 0.0, "lat": 38.90239233333333, "type": "electric_scooter", "fusion_lat": 0.0, "bike_id": "01d10f305b4d28bfb32391d4e69c236d"}, {"name": "bb945955cf4f4a8339b74d4616465b66", "is_reserved": 0, "is_disabled": 0, "lon": -77.03371866666667, "rental_uris": {"android": "https://dc.lft.to/lastmile_qr_scan", "ios": "https://dc.lft.to/lastmile_qr_scan"}, "fusion_lon": 0.0, "lat": 38.909624666666666, "type": "electric_scooter", "fusion_lat": 0.0, "bike_id": "bb945955cf4f4a8339b74d4616465b66"}, {"name": "9116cf0748b814f3b472103a519a1746", "is_reserved": 0, "is_disabled": 0, "lon": -77.03630283333334, "rental_uris": {"android": "https://dc.lft.to/lastmile_qr_scan", "ios": "https://dc.lft.to/lastmile_qr_scan"}, "fusion_lon": 0.0, "lat": 38.90265216666667, "type": "electric_scooter", "fusion_lat": 0.0, "bike_id": "9116cf0748b814f3b472103a519a1746"}, {"name": "9048d825453b20864559b5929837975a", "is_reserved": 0, "is_disabled": 0, "lon": -77.02740166666666, "rental_uris": {"android": "https://dc.lft.to/lastmile_qr_scan", "ios": "https://dc.lft.to/lastmile_qr_scan"}, "fusion_lon": 0.0, "lat": 38.924132166666666, "type": "electric_scooter", "fusion_lat": 0.0, "bike_id": "9048d825453b20864559b5929837975a"}, {"name": "8e5a93047dc510d7b52c4768c5a2b928", "is_reserved": 0, "is_disabled": 0, "lon": -77.02506783333334, "rental_uris": {"android": "https://dc.lft.to/lastmile_qr_scan", "ios": "https://dc.lft.to/lastmile_qr_scan"}, "fusion_lon": 0.0, "lat": 38.924029833333336, "type": "electric_scooter", "fusion_lat": 0.0, "bike_id": "8e5a93047dc510d7b52c4768c5a2b928"}, {"name": "11ee4bb99c4f56952fea5a0c4e013a60", "is_reserved": 0, "is_disabled": 0, "lon": -76.99077883333334, "rental_uris": {"android": "https://dc.lft.to/lastmile_qr_scan", "ios": "https://dc.lft.to/lastmile_qr_scan"}, "fusion_lon": 0.0, "lat": 38.84286783333334, "type": "electric_scooter", "fusion_lat": 0.0, "bike_id": "11ee4bb99c4f56952fea5a0c4e013a60"}, {"name": "ef1fc212d810e4409025ed4d2e0220c2", "is_reserved": 0, "is_disabled": 0, "lon": -77.00451416666667, "rental_uris": {"android": "https://dc.lft.to/lastmile_qr_scan", "ios": "https://dc.lft.to/lastmile_qr_scan"}, "fusion_lon": 0.0, "lat": 38.911993833333334, "type": "electric_scooter", "fusion_lat": 0.0, "bike_id": "ef1fc212d810e4409025ed4d2e0220c2"}, {"name": "a0c614111ac5ae201d1142e654952fb4", "is_reserved": 0, "is_disabled": 0, "lon": -76.94773983333333, "rental_uris": {"android": "https://dc.lft.to/lastmile_qr_scan", "ios": "https://dc.lft.to/lastmile_qr_scan"}, "fusion_lon": 0.0, "lat": 38.896259, "type": "electric_bike", "fusion_lat": 0.0, "bike_id": "a0c614111ac5ae201d1142e654952fb4"}, {"name": "331a96cb8cc68a3c03eb57af7a4a86fd", "is_reserved": 0, "is_disabled": 0, "lon": -77.02037616666667, "rental_uris": {"android": "https://dc.lft.to/lastmile_qr_scan", "ios": "https://dc.lft.to/lastmile_qr_scan"}, "fusion_lon": 0.0, "lat": 38.8927405, "type": "electric_scooter", "fusion_lat": 0.0, "bike_id": "331a96cb8cc68a3c03eb57af7a4a86fd"}, {"name": "26538dca7ffde4276c325cb4e01d58fd", "is_reserved": 0, "is_disabled": 0, "lon": -77.0400855, "rental_uris": {"android": "https://dc.lft.to/lastmile_qr_scan", "ios": "https://dc.lft.to/lastmile_qr_scan"}, "fusion_lon": 0.0, "lat": 38.92419566666667, "type": "electric_scooter", "fusion_lat": 0.0, "bike_id": "26538dca7ffde4276c325cb4e01d58fd"}, {"name": "8a584813b58ff4da515091a9ae1365e0", "is_reserved": 0, "is_disabled": 0, "lon": -77.02151366666666, "rental_uris": {"android": "https://dc.lft.to/lastmile_qr_scan", "ios": "https://dc.lft.to/lastmile_qr_scan"}, "fusion_lon": 0.0, "lat": 38.87947333333334, "type": "electric_scooter", "fusion_lat": 0.0, "bike_id": "8a584813b58ff4da515091a9ae1365e0"}, {"name": "f856809038caf3701f2c26dfff545a2a", "is_reserved": 0, "is_disabled": 0, "lon": -77.018962, "rental_uris": {"android": "https://dc.lft.to/lastmile_qr_scan", "ios": "https://dc.lft.to/lastmile_qr_scan"}, "fusion_lon": 0.0, "lat": 38.93914566666667, "type": "electric_scooter", "fusion_lat": 0.0, "bike_id": "f856809038caf3701f2c26dfff545a2a"}, {"name": "76ba341d35d121f4e58404fda2088a59", "is_reserved": 0, "is_disabled": 0, "lon": -77.08524033333333, "rental_uris": {"android": "https://dc.lft.to/lastmile_qr_scan", "ios": "https://dc.lft.to/lastmile_qr_scan"}, "fusion_lon": 0.0, "lat": 38.856507666666666, "type": "electric_bike", "fusion_lat": 0.0, "bike_id": "76ba341d35d121f4e58404fda2088a59"}, {"name": "8b508ad2290939714d74d911f6f7a68d", "is_reserved": 0, "is_disabled": 0, "lon": -77.0484205, "rental_uris": {"android": "https://dc.lft.to/lastmile_qr_scan", "ios": "https://dc.lft.to/lastmile_qr_scan"}, "fusion_lon": 0.0, "lat": 38.91335466666666, "type": "electric_scooter", "fusion_lat": 0.0, "bike_id": "8b508ad2290939714d74d911f6f7a68d"}, {"name": "46c592559830045c7102cf5fdeec2dac", "is_reserved": 0, "is_disabled": 0, "lon": -77.0109775, "rental_uris": {"android": "https://dc.lft.to/lastmile_qr_scan", "ios": "https://dc.lft.to/lastmile_qr_scan"}, "fusion_lon": 0.0, "lat": 38.903592, "type": "electric_scooter", "fusion_lat": 0.0, "bike_id": "46c592559830045c7102cf5fdeec2dac"}, {"name": "97776d14178f601de605a3429f20d8df", "is_reserved": 0, "is_disabled": 0, "lon": -76.94840033333334, "rental_uris": {"android": "https://dc.lft.to/lastmile_qr_scan", "ios": "https://dc.lft.to/lastmile_qr_scan"}, "fusion_lon": 0.0, "lat": 38.894879833333334, "type": "electric_scooter", "fusion_lat": 0.0, "bike_id": "97776d14178f601de605a3429f20d8df"}, {"name": "fad6de5b82ea23074f7ba305ce9113db", "is_reserved": 0, "is_disabled": 0, "lon": -77.03217266666667, "rental_uris": {"android": "https://dc.lft.to/lastmile_qr_scan", "ios": "https://dc.lft.to/lastmile_qr_scan"}, "fusion_lon": 0.0, "lat": 38.9138525, "type": "electric_scooter", "fusion_lat": 0.0, "bike_id": "fad6de5b82ea23074f7ba305ce9113db"}, {"name": "407dfaabc0cf279d188bb8bbb73750ba", "is_reserved": 0, "is_disabled": 0, "lon": -77.0033415, "rental_uris": {"android": "https://dc.lft.to/lastmile_qr_scan", "ios": "https://dc.lft.to/lastmile_qr_scan"}, "fusion_lon": 0.0, "lat": 38.893554333333334, "type": "electric_scooter", "fusion_lat": 0.0, "bike_id": "407dfaabc0cf279d188bb8bbb73750ba"}, {"name": "b9fa25ae800fbae811faa31fd177f541", "is_reserved": 0, "is_disabled": 0, "lon": -77.0254535, "rental_uris": {"android": "https://dc.lft.to/lastmile_qr_scan", "ios": "https://dc.lft.to/lastmile_qr_scan"}, "fusion_lon": 0.0, "lat": 38.89223583333333, "type": "electric_scooter", "fusion_lat": 0.0, "bike_id": "b9fa25ae800fbae811faa31fd177f541"}, {"name": "9256deddd31e638f3392e465b993ad4e", "is_reserved": 0, "is_disabled": 0, "lon": -77.02730716666667, "rental_uris": {"android": "https://dc.lft.to/lastmile_qr_scan", "ios": "https://dc.lft.to/lastmile_qr_scan"}, "fusion_lon": 0.0, "lat": 38.9033415, "type": "electric_scooter", "fusion_lat": 0.0, "bike_id": "9256deddd31e638f3392e465b993ad4e"}, {"name": "c65b268213e4204f67fbaed7a5ae2f59", "is_reserved": 0, "is_disabled": 0, "lon": -77.06947116666667, "rental_uris": {"android": "https://dc.lft.to/lastmile_qr_scan", "ios": "https://dc.lft.to/lastmile_qr_scan"}, "fusion_lon": 0.0, "lat": 38.990491166666665, "type": "electric_bike", "fusion_lat": 0.0, "bike_id": "c65b268213e4204f67fbaed7a5ae2f59"}, {"name": "c095d82b739d20a8bb4ef7cf275d0e01", "is_reserved": 0, "is_disabled": 0, "lon": -77.00360883333333, "rental_uris": {"android": "https://dc.lft.to/lastmile_qr_scan", "ios": "https://dc.lft.to/lastmile_qr_scan"}, "fusion_lon": 0.0, "lat": 38.892132333333336, "type": "electric_scooter", "fusion_lat": 0.0, "bike_id": "c095d82b739d20a8bb4ef7cf275d0e01"}, {"name": "16be20328402f1a133d0e6a3bdfe6ae8", "is_reserved": 0, "is_disabled": 0, "lon": -77.04180383333333, "rental_uris": {"android": "https://dc.lft.to/lastmile_qr_scan", "ios": "https://dc.lft.to/lastmile_qr_scan"}, "fusion_lon": 0.0, "lat": 38.901308666666665, "type": "electric_scooter", "fusion_lat": 0.0, "bike_id": "16be20328402f1a133d0e6a3bdfe6ae8"}, {"name": "b1e28cfe083e0e4bbaba38cbb017f097", "is_reserved": 0, "is_disabled": 0, "lon": -77.04199, "rental_uris": {"android": "https://dc.lft.to/lastmile_qr_scan", "ios": "https://dc.lft.to/lastmile_qr_scan"}, "fusion_lon": 0.0, "lat": 38.89224266666667, "type": "electric_scooter", "fusion_lat": 0.0, "bike_id": "b1e28cfe083e0e4bbaba38cbb017f097"}, {"name": "632adcee07b50692bb4eb9aa43077618", "is_reserved": 0, "is_disabled": 0, "lon": -77.0168505, "rental_uris": {"android": "https://dc.lft.to/lastmile_qr_scan", "ios": "https://dc.lft.to/lastmile_qr_scan"}, "fusion_lon": 0.0, "lat": 38.883301333333335, "type": "electric_scooter", "fusion_lat": 0.0, "bike_id": "632adcee07b50692bb4eb9aa43077618"}, {"name": "55db91f45b155b10bcd5a01bdebed03b", "is_reserved": 0, "is_disabled": 0, "lon": -77.07080883333333, "rental_uris": {"android": "https://dc.lft.to/lastmile_qr_scan", "ios": "https://dc.lft.to/lastmile_qr_scan"}, "fusion_lon": 0.0, "lat": 38.93906333333334, "type": "electric_scooter", "fusion_lat": 0.0, "bike_id": "55db91f45b155b10bcd5a01bdebed03b"}, {"name": "875c7711856f0f47e62e310927f62998", "is_reserved": 0, "is_disabled": 0, "lon": -76.99505083333334, "rental_uris": {"android": "https://dc.lft.to/lastmile_qr_scan", "ios": "https://dc.lft.to/lastmile_qr_scan"}, "fusion_lon": 0.0, "lat": 38.885816, "type": "electric_scooter", "fusion_lat": 0.0, "bike_id": "875c7711856f0f47e62e310927f62998"}, {"name": "f16ec3da8f7db5cccd9839f5e8c1ba37", "is_reserved": 0, "is_disabled": 0, "lon": -76.99025833333333, "rental_uris": {"android": "https://dc.lft.to/lastmile_qr_scan", "ios": "https://dc.lft.to/lastmile_qr_scan"}, "fusion_lon": 0.0, "lat": 38.864091333333334, "type": "electric_scooter", "fusion_lat": 0.0, "bike_id": "f16ec3da8f7db5cccd9839f5e8c1ba37"}, {"name": "be92786cfaa6364d42841f1b43ffca7c", "is_reserved": 0, "is_disabled": 0, "lon": -77.0071305, "rental_uris": {"android": "https://dc.lft.to/lastmile_qr_scan", "ios": "https://dc.lft.to/lastmile_qr_scan"}, "fusion_lon": 0.0, "lat": 38.88491966666667, "type": "electric_scooter", "fusion_lat": 0.0, "bike_id": "be92786cfaa6364d42841f1b43ffca7c"}, {"name": "f3cf3a0f100580db0598b8502faf3276", "is_reserved": 0, "is_disabled": 0, "lon": -77.03848216666667, "rental_uris": {"android": "https://dc.lft.to/lastmile_qr_scan", "ios": "https://dc.lft.to/lastmile_qr_scan"}, "fusion_lon": 0.0, "lat": 38.9033275, "type": "electric_scooter", "fusion_lat": 0.0, "bike_id": "f3cf3a0f100580db0598b8502faf3276"}, {"name": "7eae6a730a675c4c58f0b2ec687415b1", "is_reserved": 0, "is_disabled": 0, "lon": -77.045084, "rental_uris": {"android": "https://dc.lft.to/lastmile_qr_scan", "ios": "https://dc.lft.to/lastmile_qr_scan"}, "fusion_lon": 0.0, "lat": 38.892261500000004, "type": "electric_scooter", "fusion_lat": 0.0, "bike_id": "7eae6a730a675c4c58f0b2ec687415b1"}, {"name": "45e1d91e250519ae9280f29f7a04ee3d", "is_reserved": 0, "is_disabled": 0, "lon": -77.00816866666666, "rental_uris": {"android": "https://dc.lft.to/lastmile_qr_scan", "ios": "https://dc.lft.to/lastmile_qr_scan"}, "fusion_lon": 0.0, "lat": 38.87642233333333, "type": "electric_scooter", "fusion_lat": 0.0, "bike_id": "45e1d91e250519ae9280f29f7a04ee3d"}, {"name": "51403e358848e9fc8aee32f057cd9340", "is_reserved": 0, "is_disabled": 0, "lon": -76.996036, "rental_uris": {"android": "https://dc.lft.to/lastmile_qr_scan", "ios": "https://dc.lft.to/lastmile_qr_scan"}, "fusion_lon": 0.0, "lat": 38.864679833333334, "type": "electric_scooter", "fusion_lat": 0.0, "bike_id": "51403e358848e9fc8aee32f057cd9340"}, {"name": "1222b2df7220ac636eb0053ca05edbec", "is_reserved": 0, "is_disabled": 0, "lon": -77.01388783333333, "rental_uris": {"android": "https://dc.lft.to/lastmile_qr_scan", "ios": "https://dc.lft.to/lastmile_qr_scan"}, "fusion_lon": 0.0, "lat": 38.880345166666665, "type": "electric_scooter", "fusion_lat": 0.0, "bike_id": "1222b2df7220ac636eb0053ca05edbec"}, {"name": "69d8053f0014b3da55f719a607b0103d", "is_reserved": 0, "is_disabled": 0, "lon": -77.02713183333333, "rental_uris": {"android": "https://dc.lft.to/lastmile_qr_scan", "ios": "https://dc.lft.to/lastmile_qr_scan"}, "fusion_lon": 0.0, "lat": 38.9175975, "type": "electric_scooter", "fusion_lat": 0.0, "bike_id": "69d8053f0014b3da55f719a607b0103d"}, {"name": "f058091e0ad89b4080f52a71b0b807b7", "is_reserved": 0, "is_disabled": 0, "lon": -76.987007, "rental_uris": {"android": "https://dc.lft.to/lastmile_qr_scan", "ios": "https://dc.lft.to/lastmile_qr_scan"}, "fusion_lon": 0.0, "lat": 38.907056833333336, "type": "electric_scooter", "fusion_lat": 0.0, "bike_id": "f058091e0ad89b4080f52a71b0b807b7"}, {"name": "fdce4c58e656bce50bfaaec6283cc87c", "is_reserved": 0, "is_disabled": 0, "lon": -77.037749, "rental_uris": {"android": "https://dc.lft.to/lastmile_qr_scan", "ios": "https://dc.lft.to/lastmile_qr_scan"}, "fusion_lon": 0.0, "lat": 38.91686833333333, "type": "electric_bike", "fusion_lat": 0.0, "bike_id": "fdce4c58e656bce50bfaaec6283cc87c"}, {"name": "4735caca0a64f93a5a9d8503b69e7402", "is_reserved": 0, "is_disabled": 0, "lon": -76.923362, "rental_uris": {"android": "https://dc.lft.to/lastmile_qr_scan", "ios": "https://dc.lft.to/lastmile_qr_scan"}, "fusion_lon": 0.0, "lat": 38.887947833333335, "type": "electric_bike", "fusion_lat": 0.0, "bike_id": "4735caca0a64f93a5a9d8503b69e7402"}, {"name": "4add1c9c3d82d56e2747bb7e319fd19b", "is_reserved": 0, "is_disabled": 0, "lon": -77.03187066666666, "rental_uris": {"android": "https://dc.lft.to/lastmile_qr_scan", "ios": "https://dc.lft.to/lastmile_qr_scan"}, "fusion_lon": 0.0, "lat": 38.9103085, "type": "electric_scooter", "fusion_lat": 0.0, "bike_id": "4add1c9c3d82d56e2747bb7e319fd19b"}, {"name": "326854573e5472fd321ae4abe9432a47", "is_reserved": 0, "is_disabled": 0, "lon": -77.0450115, "rental_uris": {"android": "https://dc.lft.to/lastmile_qr_scan", "ios": "https://dc.lft.to/lastmile_qr_scan"}, "fusion_lon": 0.0, "lat": 38.911120833333335, "type": "electric_scooter", "fusion_lat": 0.0, "bike_id": "326854573e5472fd321ae4abe9432a47"},