{"data": {"bikes": [{"is_reserved": 0, "type": "electric_scooter", "fusion_lat": 0.0, "is_disabled": 0, "rental_uris": {"ios": "https://dc.lft.to/lastmile_qr_scan", "android": "https://dc.lft.to/lastmile_qr_scan"}, "bike_id": "bec316ff466f30f33e7b2ffb6a0b719d", "lat": 38.915156333333336, "name": "bec316ff466f30f33e7b2ffb6a0b719d", "lon": -77.07275683333333, "fusion_lon": 0.0}, {"is_reserved": 0, "type": "electric_scooter", "fusion_lat": 0.0, "is_disabled": 0, "rental_uris": {"ios": "https://dc.lft.to/lastmile_qr_scan", "android": "https://dc.lft.to/lastmile_qr_scan"}, "bike_id": "1f6f0ea93aeb578ae269d8630300ec62", "lat": 38.923579333333336, "name": "1f6f0ea93aeb578ae269d8630300ec62", "lon": -77.04304783333333, "fusion_lon": 0.0}, {"is_reserved": 0, "type": "electric_scooter", "fusion_lat": 0.0, "is_disabled": 0, "rental_uris": {"ios": "https://dc.lft.to/lastmile_qr_scan", "android": "https://dc.lft.to/lastmile_qr_scan"}, "bike_id": "664e38dec85ac9f65447ffc252fe0df7", "lat": 38.902300333333336, "name": "664e38dec85ac9f65447ffc252fe0df7", "lon": -77.05124616666667, "fusion_lon": 0.0}, {"is_reserved": 0, "type": "electric_scooter", "fusion_lat": 0.0, "is_disabled": 0, "rental_uris": {"ios": "https://dc.lft.to/lastmile_qr_scan", "android": "https://dc.lft.to/lastmile_qr_scan"}, "bike_id": "e8834c93dd5c61f0b6947c2fc443dd00", "lat": 38.920944666666664, "name": "e8834c93dd5c61f0b6947c2fc443dd00", "lon": -77.03699433333334, "fusion_lon": 0.0}, {"is_reserved": 0, "type": "electric_scooter", "fusion_lat": 0.0, "is_disabled": 0, "rental_uris": {"ios": "https://dc.lft.to/lastmile_qr_scan", "android": "https://dc.lft.to/lastmile_qr_scan"}, "bike_id": "fbf3a17723e22721a27307f566a79b3d", "lat": 38.9241715, "name": "fbf3a17723e22721a27307f566a79b3d", "lon": -77.0203585, "fusion_lon": 0.0}, {"is_reserved": 0, "type": "electric_scooter", "fusion_lat": 0.0, "is_disabled": 0, "rental_uris": {"ios": "https://dc.lft.to/lastmile_qr_scan", "android": "https://dc.lft.to/lastmile_qr_scan"}, "bike_id": "554b5a9a957a7cd0013de08f8954c6ce", "lat": 38.920319666666664, "name": "554b5a9a957a7cd0013de08f8954c6ce", "lon": -77.04107516666667, "fusion_lon": 0.0}, {"is_reserved": 0, "type": "electric_scooter", "fusion_lat": 0.0, "is_disabled": 0, "rental_uris": {"ios": "https://dc.lft.to/lastmile_qr_scan", "android": "https://dc.lft.to/lastmile_qr_scan"}, "bike_id": "60e2c8671d93a186fa889b832680165f", "lat": 38.908420666666665, "name": "60e2c8671d93a186fa889b832680165f", "lon": -77.02691533333333, "fusion_lon": 0.0}, {"is_reserved": 0, "type": "electric_bike", "fusion_lat": 0.0, "is_disabled": 0, "rental_uris": {"ios": "https://dc.lft.to/lastmile_qr_scan", "android": "https://dc.lft.to/lastmile_qr_scan"}, "bike_id": "b9217c570b278cf4fa3e0c7daddd99b6", "lat": 38.8887705, "name": "b9217c570b278cf4fa3e0c7daddd99b6", "lon": -76.95699916666666, "fusion_lon": 0.0}, {"is_reserved": 0, "type": "electric_bike", "fusion_lat": 0.0, "is_disabled": 0, "rental_uris": {"ios": "https://dc.lft.to/lastmile_qr_scan", "android": "https://dc.lft.to/lastmile_qr_scan"}, "bike_id": "7327983a45e104e580998fa67a014ada", "lat": 38.879493833333335, "name": "7327983a45e104e580998fa67a014ada", "lon": -76.93192433333333, "fusion_lon": 0.0}, {"is_reserved": 0, "type": "electric_scooter", "fusion_lat": 0.0, "is_disabled": 0, "rental_uris": {"ios": "https://dc.lft.to/lastmile_qr_scan", "android": "https://dc.lft.to/lastmile_qr_scan"}, "bike_id": "b182e118c81751f4d60b4c24837a64d5", "lat": 38.915584833333334, "name": "b182e118c81751f4d60b4c24837a64d5", "lon": -77.03241716666666, "fusion_lon": 0.0}, {"is_reserved": 0, "type": "electric_scooter", "fusion_lat": 0.0, "is_disabled": 0, "rental_uris": {"ios": "https://dc.lft.to/lastmile_qr_scan", "android": "https://dc.lft.to/lastmile_qr_scan"}, "bike_id": "5bb617985780a83aa78a492f8fea1483", "lat": 38.90784766666667, "name": "5bb617985780a83aa78a492f8fea1483", "lon": -76.98328583333333, "fusion_lon": 0.0}, {"is_reserved": 0, "type": "electric_scooter", "fusion_lat": 0.0, "is_disabled": 0, "rental_uris": {"ios": "https://dc.lft.to/lastmile_qr_scan", "android": "https://dc.lft.to/lastmile_qr_scan"}, "bike_id": "0509d656ff0bb233d55f97024a848d4c", "lat": 38.92698383333333, "name": "0509d656ff0bb233d55f97024a848d4c", "lon": -77.02411, "fusion_lon": 0.0}, {"is_reserved": 0, "type": "electric_scooter", "fusion_lat": 0.0, "is_disabled": 0, "rental_uris": {"ios": "https://dc.lft.to/lastmile_qr_scan", "android": "https://dc.lft.to/lastmile_qr_scan"}, "bike_id": "044cdbea2bffb4ccc7d8b7446067f1a6", "lat": 38.947003, "name": "044cdbea2bffb4ccc7d8b7446067f1a6", "lon": -77.03283166666667, "fusion_lon": 0.0}, {"is_reserved": 0, "type": "electric_scooter", "fusion_lat": 0.0, "is_disabled": 0, "rental_uris": {"ios": "https://dc.lft.to/lastmile_qr_scan", "android": "https://dc.lft.to/lastmile_qr_scan"}, "bike_id": "7ad26eed7a0110f253b0482455207dce", "lat": 38.922437333333335, "name": "7ad26eed7a0110f253b0482455207dce", "lon": -77.01843966666667, "fusion_lon": 0.0}, {"is_reserved": 0, "type": "electric_scooter", "fusion_lat": 0.0, "is_disabled": 0, "rental_uris": {"ios": "https://dc.lft.to/lastmile_qr_scan", "android": "https://dc.lft.to/lastmile_qr_scan"}, "bike_id": "7f21aea5449162366f22cc428d011d88", "lat": 38.9241105, "name": "7f21aea5449162366f22cc428d011d88", "lon": -77.0204265, "fusion_lon": 0.0}, {"is_reserved": 0, "type": "electric_scooter", "fusion_lat": 0.0, "is_disabled": 0, "rental_uris": {"ios": "https://dc.lft.to/lastmile_qr_scan", "android": "https://dc.lft.to/lastmile_qr_scan"}, "bike_id": "08c273ddf2eebe0147039f2e043297b8", "lat": 38.924092333333334, "name": "08c273ddf2eebe0147039f2e043297b8", "lon": -77.020148, "fusion_lon": 0.0}, {"is_reserved": 0, "type": "electric_scooter", "fusion_lat": 0.0, "is_disabled": 0, "rental_uris": {"ios": "https://dc.lft.to/lastmile_qr_scan", "android": "https://dc.lft.to/lastmile_qr_scan"}, "bike_id": "1389ba7eba41c0d7da0a6eed620fb1fc", "lat": 38.892947166666666, "name": "1389ba7eba41c0d7da0a6eed620fb1fc", "lon": -77.01230283333334, "fusion_lon": 0.0}, {"is_reserved": 0, "type": "electric_scooter", "fusion_lat": 0.0, "is_disabled": 0, "rental_uris": {"ios": "https://dc.lft.to/lastmile_qr_scan", "android": "https://dc.lft.to/lastmile_qr_scan"}, "bike_id": "57cdb19bb734e75675d1aaad206b11c3", "lat": 38.91373266666667, "name": "57cdb19bb734e75675d1aaad206b11c3", "lon": -77.04485916666667, "fusion_lon": 0.0}, {"is_reserved": 0, "type": "electric_scooter", "fusion_lat": 0.0, "is_disabled": 0, "rental_uris": {"ios": "https://dc.lft.to/lastmile_qr_scan", "android": "https://dc.lft.to/lastmile_qr_scan"}, "bike_id": "da61cb548f9c22be0fa56633ca1e7a23", "lat": 38.88710716666667, "name": "da61cb548f9c22be0fa56633ca1e7a23", "lon": -76.98381883333333, "fusion_lon": 0.0}, {"is_reserved": 0, "type": "electric_scooter", "fusion_lat": 0.0, "is_disabled": 0, "rental_uris": {"ios": "https://dc.lft.to/lastmile_qr_scan", "android": "https://dc.lft.to/lastmile_qr_scan"}, "bike_id": "0b5beccd0e60f2323e24ca7d00e88d87", "lat": 38.93702483333333, "name": "0b5beccd0e60f2323e24ca7d00e88d87", "lon": -77.02398883333333, "fusion_lon": 0.0}, {"is_reserved": 0, "type": "electric_scooter", "fusion_lat": 0.0, "is_disabled": 0, "rental_uris": {"ios": "https://dc.lft.to/lastmile_qr_scan", "android": "https://dc.lft.to/lastmile_qr_scan"}, "bike_id": "ae876313069496873174a96e2aee5114", "lat": 38.9014105, "name": "ae876313069496873174a96e2aee5114", "lon": -77.040126, "fusion_lon": 0.0}, {"is_reserved": 0, "type": "electric_scooter", "fusion_lat": 0.0, "is_disabled": 0, "rental_uris": {"ios": "https://dc.lft.to/lastmile_qr_scan", "android": "https://dc.lft.to/lastmile_qr_scan"}, "bike_id": "77984b560f9a50101a2caba2e996f07f", "lat": 38.9198385, "name": "77984b560f9a50101a2caba2e996f07f", "lon": -77.02180533333333, "fusion_lon": 0.0}, {"is_reserved": 0, "type": "electric_scooter", "fusion_lat": 0.0, "is_disabled": 0, "rental_uris": {"ios": "https://dc.lft.to/lastmile_qr_scan", "android": "https://dc.lft.to/lastmile_qr_scan"}, "bike_id": "b3f1e7fe6a5cf69df77537e63cf68c05", "lat": 38.91522166666667, "name": "b3f1e7fe6a5cf69df77537e63cf68c05", "lon": -77.01224216666667, "fusion_lon": 0.0}, {"is_reserved": 0, "type": "electric_scooter", "fusion_lat": 0.0, "is_disabled": 0, "rental_uris": {"ios": "https://dc.lft.to/lastmile_qr_scan", "android": "https://dc.lft.to/lastmile_qr_scan"}, "bike_id": "77fd60f3f4ff145d8fdcf80c0986c246", "lat": 38.874227833333336, "name": "77fd60f3f4ff145d8fdcf80c0986c246", "lon": -76.97179016666666, "fusion_lon": 0.0}, {"is_reserved": 0, "type": "electric_scooter", "fusion_lat": 0.0, "is_disabled": 0, "rental_uris": {"ios": "https://dc.lft.to/lastmile_qr_scan", "android": "https://dc.lft.to/lastmile_qr_scan"}, "bike_id": "54ef06e4c994493dda22e6ea132fa3c4", "lat": 38.91343666666667, "name": "54ef06e4c994493dda22e6ea132fa3c4", "lon": -77.02757466666667, "fusion_lon": 0.0}, {"is_reserved": 0, "type": "electric_scooter", "fusion_lat": 0.0, "is_disabled": 0, "rental_uris": {"ios": "https://dc.lft.to/lastmile_qr_scan", "android": "https://dc.lft.to/lastmile_qr_scan"}, "bike_id": "b72eb470b41856561c31f2ebfcfbd07c", "lat": 38.91985233333333, "name": "b72eb470b41856561c31f2ebfcfbd07c", "lon": -77.03261866666666, "fusion_lon": 0.0}, {"is_reserved": 0, "type": "electric_scooter", "fusion_lat": 0.0, "is_disabled": 0, "rental_uris": {"ios": "https://dc.lft.to/lastmile_qr_scan", "android": "https://dc.lft.to/lastmile_qr_scan"}, "bike_id": "fb765df84c8bcbd4a13062d7fbf6bcff", "lat": 38.92464533333333, "name": "fb765df84c8bcbd4a13062d7fbf6bcff", "lon": -77.05232483333333, "fusion_lon": 0.0}, {"is_reserved": 0, "type": "electric_scooter", "fusion_lat": 0.0, "is_disabled": 0, "rental_uris": {"ios": "https://dc.lft.to/lastmile_qr_scan", "android": "https://dc.lft.to/lastmile_qr_scan"}, "bike_id": "4a581449a5c273da0c503f16ea0337ba", "lat": 38.90728083333333, "name": "4a581449a5c273da0c503f16ea0337ba", "lon": -77.0037305, "fusion_lon": 0.0}, {"is_reserved": 0, "type": "electric_scooter", "fusion_lat": 0.0, "is_disabled": 0, "rental_uris": {"ios": "https://dc.lft.to/lastmile_qr_scan", "android": "https://dc.lft.to/lastmile_qr_scan"}, "bike_id": "57c446c65b3587470129f2dfa5d820f2", "lat": 38.87940483333333, "name": "57c446c65b3587470129f2dfa5d820f2", "lon": -77.00999183333333, "fusion_lon": 0.0}, {"is_reserved": 0, "type": "electric_scooter", "fusion_lat": 0.0, "is_disabled": 0, "rental_uris": {"ios": "https://dc.lft.to/lastmile_qr_scan", "android": "https://dc.lft.to/lastmile_qr_scan"}, "bike_id": "05ace3228d68e15f24c4fe68896508be", "lat": 38.920390166666664, "name": "05ace3228d68e15f24c4fe68896508be", "lon": -77.01968983333333, "fusion_lon": 0.0}, {"is_reserved": 0, "type": "electric_bike", "fusion_lat": 0.0, "is_disabled": 0, "rental_uris": {"ios": "https://dc.lft.to/lastmile_qr_scan", "android": "https://dc.lft.to/lastmile_qr_scan"}, "bike_id": "1509287c0088b6f8200249430f5dd1ae", "lat": 38.804816, "name": "1509287c0088b6f8200249430f5dd1ae", "lon": -76.99107983333333, "fusion_lon": 0.0}, {"is_reserved": 0, "type": "electric_scooter", "fusion_lat": 0.0, "is_disabled": 0, "rental_uris": {"ios": "https://dc.lft.to/lastmile_qr_scan", "android": "https://dc.lft.to/lastmile_qr_scan"}, "bike_id": "b0263d3340602bc5e861b5142b95fa61", "lat": 38.901450833333335, "name": "b0263d3340602bc5e861b5142b95fa61", "lon": -77.01718716666667, "fusion_lon": 0.0}, {"is_reserved": 0, "type": "electric_scooter", "fusion_lat": 0.0, "is_disabled": 0, "rental_uris": {"ios": "https://dc.lft.to/lastmile_qr_scan", "android": "https://dc.lft.to/lastmile_qr_scan"}, "bike_id": "7c67bbc1bd5d5983eaeb7a2b38e46d4a", "lat": 38.910668333333334, "name": "7c67bbc1bd5d5983eaeb7a2b38e46d4a", "lon": -77.05389, "fusion_lon": 0.0}, {"is_reserved": 0, "type": "electric_scooter", "fusion_lat": 0.0, "is_disabled": 0, "rental_uris": {"ios": "https://dc.lft.to/lastmile_qr_scan", "android": "https://dc.lft.to/lastmile_qr_scan"}, "bike_id": "69ded44951be1c37bab3c391befc8e94", "lat": 38.89411416666667, "name": "69ded44951be1c37bab3c391befc8e94", "lon": -77.010812, "fusion_lon": 0.0}, {"is_reserved": 0, "type": "electric_bike", "fusion_lat": 0.0, "is_disabled": 0, "rental_uris": {"ios": "https://dc.lft.to/lastmile_qr_scan", "android": "https://dc.lft.to/lastmile_qr_scan"}, "bike_id": "ef15d2dd37b8e19edd16453c10b3352f", "lat": 38.92951583333333, "name": "ef15d2dd37b8e19edd16453c10b3352f", "lon": -76.9756695, "fusion_lon": 0.0}, {"is_reserved": 0, "type": "electric_bike", "fusion_lat": 0.0, "is_disabled": 0, "rental_uris": {"ios": "https://dc.lft.to/lastmile_qr_scan", "android": "https://dc.lft.to/lastmile_qr_scan"}, "bike_id": "038ee5118899ad0e51303ac66fa58715", "lat": 38.8726975, "name": "038ee5118899ad0e51303ac66fa58715", "lon": -76.9756035, "fusion_lon": 0.0}, {"is_reserved": 0, "type": "electric_scooter", "fusion_lat": 0.0, "is_disabled": 0, "rental_uris": {"ios": "https://dc.lft.to/lastmile_qr_scan", "android": "https://dc.lft.to/lastmile_qr_scan"}, "bike_id": "0ec881b2433443920233ec48c4984f28", "lat": 38.902419, "name": "0ec881b2433443920233ec48c4984f28", "lon": -77.00199633333334, "fusion_lon": 0.0}, {"is_reserved": 0, "type": "electric_scooter", "fusion_lat": 0.0, "is_disabled": 0, "rental_uris": {"ios": "https://dc.lft.to/lastmile_qr_scan", "android": "https://dc.lft.to/lastmile_qr_scan"}, "bike_id": "cf9f737144b79351c074147773f7e8ac", "lat": 38.90248533333333, "name": "cf9f737144b79351c074147773f7e8ac", "lon": -77.04572816666666, "fusion_lon": 0.0}, {"is_reserved": 0, "type": "electric_scooter", "fusion_lat": 0.0, "is_disabled": 0, "rental_uris": {"ios": "https://dc.lft.to/lastmile_qr_scan", "android": "https://dc.lft.to/lastmile_qr_scan"}, "bike_id": "d1b3443797b8087efbd777396473111e", "lat": 38.906718166666664, "name": "d1b3443797b8087efbd777396473111e", "lon": -77.02714783333333, "fusion_lon": 0.0}, {"is_reserved": 0, "type": "electric_scooter", "fusion_lat": 0.0, "is_disabled": 0, "rental_uris": {"ios": "https://dc.lft.to/lastmile_qr_scan", "android": "https://dc.lft.to/lastmile_qr_scan"}, "bike_id": "85b186bacfc31ac04b93ec45fb9732ce", "lat": 38.91721733333333, "name": "85b186bacfc31ac04b93ec45fb9732ce", "lon": -77.0920825, "fusion_lon": 0.0}, {"is_reserved": 0, "type": "electric_scooter", "fusion_lat": 0.0, "is_disabled": 0, "rental_uris": {"ios": "https://dc.lft.to/lastmile_qr_scan", "android": "https://dc.lft.to/lastmile_qr_scan"}, "bike_id": "86f5e853d139fb9a2714c8f5f45ae585", "lat": 38.8818945, "name": "86f5e853d139fb9a2714c8f5f45ae585", "lon": -77.02092733333333, "fusion_lon": 0.0}, {"is_reserved": 0, "type": "electric_bike", "fusion_lat": 0.0, "is_disabled": 0, "rental_uris": {"ios": "https://dc.lft.to/lastmile_qr_scan", "android": "https://dc.lft.to/lastmile_qr_scan"}, "bike_id": "90f1f81f9b32a3fb8a3f8c339eb9235c", "lat": 38.911086833333336, "name": "90f1f81f9b32a3fb8a3f8c339eb9235c", "lon": -77.04502766666667, "fusion_lon": 0.0}, {"is_reserved": 0, "type": "electric_scooter", "fusion_lat": 0.0, "is_disabled": 0, "rental_uris": {"ios": "https://dc.lft.to/lastmile_qr_scan", "android": "https://dc.lft.to/lastmile_qr_scan"}, "bike_id": "d6ceb11b7dfc1163981a309491871401", "lat": 38.898885, "name": "d6ceb11b7dfc1163981a309491871401", "lon": -77.04876516666667, "fusion_lon": 0.0}, {"is_reserved": 0, "type": "electric_scooter", "fusion_lat": 0.0, "is_disabled": 0, "rental_uris": {"ios": "https://dc.lft.to/lastmile_qr_scan", "android": "https://dc.lft.to/lastmile_qr_scan"}, "bike_id": "16e87a9a64f67e9d6feaa2219d1a2c71", "lat": 38.91040866666667, "name": "16e87a9a64f67e9d6feaa2219d1a2c71", "lon": -77.03286283333334, "fusion_lon": 0.0}, {"is_reserved": 0, "type": "electric_scooter", "fusion_lat": 0.0, "is_disabled": 0, "rental_uris": {"ios": "https://dc.lft.to/lastmile_qr_scan", "android": "https://dc.lft.to/lastmile_qr_scan"}, "bike_id": "634f00d3c0fdab9ba7a6931ce4b1c38a", "lat": 38.88576366666667, "name": "634f00d3c0fdab9ba7a6931ce4b1c38a", "lon": -77.00036683333333, "fusion_lon": 0.0}, {"is_reserved": 0, "type": "electric_scooter", "fusion_lat": 0.0, "is_disabled": 0, "rental_uris": {"ios": "https://dc.lft.to/lastmile_qr_scan", "android": "https://dc.lft.to/lastmile_qr_scan"}, "bike_id": "6db064bd0d3f7cd558750b174975dbb6", "lat": 38.91112233333333, "name": "6db064bd0d3f7cd558750b174975dbb6", "lon": -77.04104233333334, "fusion_lon": 0.0}, {"is_reserved": 0, "type": "electric_scooter", "fusion_lat": 0.0, "is_disabled": 0, "rental_uris": {"ios": "https://dc.lft.to/lastmile_qr_scan", "android": "https://dc.lft.to/lastmile_qr_scan"}, "bike_id": "2e7b2a6add7789e006610fac9811281c", "lat": 38.91057766666667, "name": "2e7b2a6add7789e006610fac9811281c", "lon": -77.02652683333334, "fusion_lon": 0.0}, {"is_reserved": 0, "type": "electric_scooter", "fusion_lat": 0.0, "is_disabled": 0, "rental_uris": {"ios": "https://dc.lft.to/lastmile_qr_scan", "android": "https://dc.lft.to/lastmile_qr_scan"}, "bike_id": "38ad5733f8199b2e11adffd59fb82cb7", "lat": 38.8948475, "name": "38ad5733f8199b2e11adffd59fb82cb7", "lon": -77.0550685, "fusion_lon": 0.0}, {"is_reserved": 0, "type": "electric_bike", "fusion_lat": 0.0, "is_disabled": 0, "rental_uris": {"ios": "https://dc.lft.to/lastmile_qr_scan", "android": "https://dc.lft.to/lastmile_qr_scan"}, "bike_id": "467329bb8bbe3e1ebae7207abc89452f", "lat": 38.94516133333333, "name": "467329bb8bbe3e1ebae7207abc89452f", "lon": -76.96804283333333, "fusion_lon": 0.0}, {"is_reserved": 0, "type": "electric_scooter", "fusion_lat": 0.0, "is_disabled": 0, "rental_uris": {"ios": "https://dc.lft.to/lastmile_qr_scan", "android": "https://dc.lft.to/lastmile_qr_scan"}, "bike_id": "754021b3bc1fe48774fb98baca6f1a3d", "lat": 38.900384, "name": "754021b3bc1fe48774fb98baca6f1a3d", "lon": -77.017395, "fusion_lon": 0.0}, {"is_reserved": 0, "type": "electric_scooter", "fusion_lat": 0.0, "is_disabled": 0, "rental_uris": {"ios": "https://dc.lft.to/lastmile_qr_scan", "android": "https://dc.lft.to/lastmile_qr_scan"}, "bike_id": "77f2e434e539505875981d4e6e2d8957", "lat": 38.89824683333333, "name": "77f2e434e539505875981d4e6e2d8957", "lon": -77.02988566666667, "fusion_lon": 0.0}, {"is_reserved": 0, "type": "electric_scooter", "fusion_lat": 0.0, "is_disabled": 0, "rental_uris": {"ios": "https://dc.lft.to/lastmile_qr_scan", "android": "https://dc.lft.to/lastmile_qr_scan"}, "bike_id": "e8ea12933841e681d159776bc9c7562b", "lat": 38.910106666666664, "name": "e8ea12933841e681d159776bc9c7562b", "lon": -76.993868, "fusion_lon": 0.0}, {"is_reserved": 0, "type": "electric_scooter", "fusion_lat": 0.0, "is_disabled": 0, "rental_uris": {"ios": "https://dc.lft.to/lastmile_qr_scan", "android": "https://dc.lft.to/lastmile_qr_scan"}, "bike_id": "5a164aa4ec5952aed27fa59c20ed16ba", "lat": 38.900972, "name": "5a164aa4ec5952aed27fa59c20ed16ba", "lon": -77.02699383333334, "fusion_lon": 0.0}, {"is_reserved": 0, "type": "electric_scooter", "fusion_lat": 0.0, "is_disabled": 0, "rental_uris": {"ios": "https://dc.lft.to/lastmile_qr_scan", "android": "https://dc.lft.to/lastmile_qr_scan"}, "bike_id": "f835a688ff61ce81b40d5070c43f0255", "lat": 38.90318116666667, "name": "f835a688ff61ce81b40d5070c43f0255", "lon": -77.02138283333333, "fusion_lon": 0.0}, {"is_reserved": 0, "type": "electric_scooter", "fusion_lat": 0.0, "is_disabled": 0, "rental_uris": {"ios": "https://dc.lft.to/lastmile_qr_scan", "android": "https://dc.lft.to/lastmile_qr_scan"}, "bike_id": "47149f9e5afe201a094ac42ab125f8e9", "lat": 38.899628166666666, "name": "47149f9e5afe201a094ac42ab125f8e9", "lon": -77.01513833333334, "fusion_lon": 0.0}, {"is_reserved": 0, "type": "electric_scooter", "fusion_lat": 0.0, "is_disabled": 0, "rental_uris": {"ios": "https://dc.lft.to/lastmile_qr_scan", "android": "https://dc.lft.to/lastmile_qr_scan"}, "bike_id": "17b480675ac0d91f3ead4b2e8431d5d4", "lat": 38.922117166666666, "name": "17b480675ac0d91f3ead4b2e8431d5d4", "lon": -77.01821833333334, "fusion_lon": 0.0}, {"is_reserved": 0, "type": "electric_scooter", "fusion_lat": 0.0, "is_disabled": 0, "rental_uris": {"ios": "https://dc.lft.to/lastmile_qr_scan", "android": "https://dc.lft.to/lastmile_qr_scan"}, "bike_id": "e84b24b6c7bf7eb15f6a2652d2a62562", "lat": 38.93751566666667, "name": "e84b24b6c7bf7eb15f6a2652d2a62562", "lon": -77.03262333333333, "fusion_lon": 0.0}, {"is_reserved": 0, "type": "electric_scooter", "fusion_lat": 0.0, "is_disabled": 0, "rental_uris": {"ios": "https://dc.lft.to/lastmile_qr_scan", "android": "https://dc.lft.to/lastmile_qr_scan"}, "bike_id": "3814f629efe099fb271557912b013976", "lat": 38.914527666666665, "name": "3814f629efe099fb271557912b013976", "lon": -77.02176183333333, "fusion_lon": 0.0}, {"is_reserved": 0, "type": "electric_scooter", "fusion_lat": 0.0, "is_disabled": 0, "rental_uris": {"ios": "https://dc.lft.to/lastmile_qr_scan", "android": "https://dc.lft.to/lastmile_qr_scan"}, "bike_id": "858e589c0bed406a62a9eba27f5fec35", "lat": 38.91410116666667, "name": "858e589c0bed406a62a9eba27f5fec35", "lon": -77.03145116666667, "fusion_lon": 0.0}, {"is_reserved": 0, "type": "electric_scooter", "fusion_lat": 0.0, "is_disabled": 0, "rental_uris": {"ios": "https://dc.lft.to/lastmile_qr_scan", "android": "https://dc.lft.to/lastmile_qr_scan"}, "bike_id": "d8c6b1bb7b3d268da1d06f66e47cf48a", "lat": 38.943157666666664, "name": "d8c6b1bb7b3d268da1d06f66e47cf48a", "lon": -77.01724933333334, "fusion_lon": 0.0}, {"is_reserved": 0, "type": "electric_scooter", "fusion_lat": 0.0, "is_disabled": 0, "rental_uris": {"ios": "https://dc.lft.to/lastmile_qr_scan", "android": "https://dc.lft.to/lastmile_qr_scan"}, "bike_id": "bc0c7995ea5c4c5901c510d903f38f54", "lat": 38.92273383333333, "name": "bc0c7995ea5c4c5901c510d903f38f54", "lon": -77.02966466666666, "fusion_lon": 0.0}, {"is_reserved": 0, "type": "electric_scooter", "fusion_lat": 0.0, "is_disabled": 0, "rental_uris": {"ios": "https://dc.lft.to/lastmile_qr_scan", "android": "https://dc.lft.to/lastmile_qr_scan"}, "bike_id": "273b10a0fdd5780515f84a7974c592ad", "lat": 38.91364766666667, "name": "273b10a0fdd5780515f84a7974c592ad", "lon": -77.04482066666667, "fusion_lon": 0.0}, {"is_reserved": 0, "type": "electric_scooter", "fusion_lat": 0.0, "is_disabled": 0, "rental_uris": {"ios": "https://dc.lft.to/lastmile_qr_scan", "android": "https://dc.lft.to/lastmile_qr_scan"}, "bike_id": "bf76578542ae97a6a8faa3b71f9f03b5", "lat": 38.920731333333336, "name": "bf76578542ae97a6a8faa3b71f9f03b5", "lon": -77.03160466666667, "fusion_lon": 0.0}, {"is_reserved": 0, "type": "electric_scooter", "fusion_lat": 0.0, "is_disabled": 0, "rental_uris": {"ios": "https://dc.lft.to/lastmile_qr_scan", "android": "https://dc.lft.to/lastmile_qr_scan"}, "bike_id": "6a46d45ea2193f67f4ff48b83ea9ab77", "lat": 38.91769983333333, "name": "6a46d45ea2193f67f4ff48b83ea9ab77", "lon": -77.04751333333333, "fusion_lon": 0.0}, {"is_reserved": 0, "type": "electric_scooter", "fusion_lat": 0.0, "is_disabled": 0, "rental_uris": {"ios": "https://dc.lft.to/lastmile_qr_scan", "android": "https://dc.lft.to/lastmile_qr_scan"}, "bike_id": "857d8567e93af68c399fc2abaa5c6e7f", "lat": 38.92067216666667, "name": "857d8567e93af68c399fc2abaa5c6e7f", "lon": -77.0327265, "fusion_lon": 0.0}, {"is_reserved": 0, "type": "electric_scooter", "fusion_lat": 0.0, "is_disabled": 0, "rental_uris": {"ios": "https://dc.lft.to/lastmile_qr_scan", "android": "https://dc.lft.to/lastmile_qr_scan"}, "bike_id": "45b02bc723ce45d00d994eb079f5fff0", "lat": 38.91951816666667, "name": "45b02bc723ce45d00d994eb079f5fff0", "lon": -77.0230685, "fusion_lon": 0.0}, {"is_reserved": 0, "type": "electric_scooter", "fusion_lat": 0.0, "is_disabled": 0, "rental_uris": {"ios": "https://dc.lft.to/lastmile_qr_scan", "android": "https://dc.lft.to/lastmile_qr_scan"}, "bike_id": "85920036044cda715bd93f5370145629", "lat": 38.91260366666667, "name": "85920036044cda715bd93f5370145629", "lon": -77.01439433333333, "fusion_lon": 0.0}, {"is_reserved": 0, "type": "electric_bike", "fusion_lat": 0.0, "is_disabled": 0, "rental_uris": {"ios": "https://dc.lft.to/lastmile_qr_scan", "android": "https://dc.lft.to/lastmile_qr_scan"}, "bike_id": "8147fb3a212d066fa3d52c8a2d04b6ed", "lat": 38.86829983333333, "name": "8147fb3a212d066fa3d52c8a2d04b6ed", "lon": -76.9801965, "fusion_lon": 0.0}, {"is_reserved": 0, "type": "electric_scooter", "fusion_lat": 0.0, "is_disabled": 0, "rental_uris": {"ios": "https://dc.lft.to/lastmile_qr_scan", "android": "https://dc.lft.to/lastmile_qr_scan"}, "bike_id": "b1f755c0e5e15558f4d8b4f5190675ca", "lat": 38.92414316666667, "name": "b1f755c0e5e15558f4d8b4f5190675ca", "lon": -77.03905216666666, "fusion_lon": 0.0}, {"is_reserved": 0, "type": "electric_scooter", "fusion_lat": 0.0, "is_disabled": 0, "rental_uris": {"ios": "https://dc.lft.to/lastmile_qr_scan", "android": "https://dc.lft.to/lastmile_qr_scan"}, "bike_id": "063784d1216726dfaccc6a36d5648e8a", "lat": 38.917698666666666, "name": "063784d1216726dfaccc6a36d5648e8a", "lon": -77.04061266666666, "fusion_lon": 0.0}, {"is_reserved": 0, "type": "electric_scooter", "fusion_lat": 0.0, "is_disabled": 0, "rental_uris": {"ios": "https://dc.lft.to/lastmile_qr_scan", "android": "https://dc.lft.to/lastmile_qr_scan"}, "bike_id": "3d08975591664a3e189be5ca1345cb54", "lat": 38.8995565, "name": "3d08975591664a3e189be5ca1345cb54", "lon": -77.016338, "fusion_lon": 0.0}, {"is_reserved": 0, "type": "electric_scooter", "fusion_lat": 0.0, "is_disabled": 0, "rental_uris": {"ios": "https://dc.lft.to/lastmile_qr_scan", "android": "https://dc.lft.to/lastmile_qr_scan"}, "bike_id": "c69def81d3e4981d2f3a65e945d22acd", "lat": 38.9324765, "name": "c69def81d3e4981d2f3a65e945d22acd", "lon": -76.99713083333333, "fusion_lon": 0.0}, {"is_reserved": 0, "type": "electric_scooter", "fusion_lat": 0.0, "is_disabled": 0, "rental_uris": {"ios": "https://dc.lft.to/lastmile_qr_scan", "android": "https://dc.lft.to/lastmile_qr_scan"}, "bike_id": "3980df1371bc4efce219543a57c81954", "lat": 38.951525833333335, "name": "3980df1371bc4efce219543a57c81954", "lon": -77.01866133333333, "fusion_lon": 0.0}, {"is_reserved": 0, "type": "electric_scooter", "fusion_lat": 0.0, "is_disabled": 0, "rental_uris": {"ios": "https://dc.lft.to/lastmile_qr_scan", "android": "https://dc.lft.to/lastmile_qr_scan"}, "bike_id": "4b83c8b327f7475897087d5560e9e628", "lat": 38.917157333333336, "name": "4b83c8b327f7475897087d5560e9e628", "lon": -77.03444783333333, "fusion_lon": 0.0}, {"is_reserved": 0, "type": "electric_scooter", "fusion_lat": 0.0, "is_disabled": 0, "rental_uris": {"ios": "https://dc.lft.to/lastmile_qr_scan", "android": "https://dc.lft.to/lastmile_qr_scan"}, "bike_id": "520821f113d84232c2dc38ac62a5c75c", "lat": 38.91319283333333, "name": "520821f113d84232c2dc38ac62a5c75c", "lon": -77.0318245, "fusion_lon": 0.0}, {"is_reserved": 0, "type": "electric_scooter", "fusion_lat": 0.0, "is_disabled": 0, "rental_uris": {"ios": "https://dc.lft.to/lastmile_qr_scan", "android": "https://dc.lft.to/lastmile_qr_scan"}, "bike_id": "ca29b869936c9b259b10374ca90351fb", "lat": 38.922815666666665, "name": "ca29b869936c9b259b10374ca90351fb", "lon": -77.07328266666667, "fusion_lon": 0.0}, {"is_reserved": 0, "type": "electric_scooter", "fusion_lat": 0.0, "is_disabled": 0, "rental_uris": {"ios": "https://dc.lft.to/lastmile_qr_scan", "android": "https://dc.lft.to/lastmile_qr_scan"}, "bike_id": "3e8cf1afd5d8c68fd27bb0efe1bd2f0a", "lat": 38.92874716666667, "name": "3e8cf1afd5d8c68fd27bb0efe1bd2f0a", "lon": -77.0399395, "fusion_lon": 0.0}, {"is_reserved": 0, "type": "electric_scooter", "fusion_lat": 0.0, "is_disabled": 0, "rental_uris": {"ios": "https://dc.lft.to/lastmile_qr_scan", "android": "https://dc.lft.to/lastmile_qr_scan"}, "bike_id": "e3144a9ad5d1cfe1adf917e820e08788", "lat": 38.903844166666666, "name": "e3144a9ad5d1cfe1adf917e820e08788", "lon": -77.0099565, "fusion_lon": 0.0}, {"is_reserved": 0, "type": "electric_scooter", "fusion_lat": 0.0, "is_disabled": 0, "rental_uris": {"ios": "https://dc.lft.to/lastmile_qr_scan", "android": "https://dc.lft.to/lastmile_qr_scan"}, "bike_id": "355a572ba9713426b441a7a5732db96b", "lat": 38.908265666666665, "name": "355a572ba9713426b441a7a5732db96b", "lon": -77.04484266666667, "fusion_lon": 0.0}, {"is_reserved": 0, "type": "electric_scooter", "fusion_lat": 0.0, "is_disabled": 0, "rental_uris": {"ios": "https://dc.lft.to/lastmile_qr_scan", "android": "https://dc.lft.to/lastmile_qr_scan"}, "bike_id": "5254c33044d842cba5c9e483ba807ad6", "lat": 38.893321, "name": "5254c33044d842cba5c9e483ba807ad6", "lon": -77.02002566666667, "fusion_lon": 0.0}, {"is_reserved": 0, "type": "electric_scooter", "fusion_lat": 0.0, "is_disabled": 0, "rental_uris": {"ios": "https://dc.lft.to/lastmile_qr_scan", "android": "https://dc.lft.to/lastmile_qr_scan"}, "bike_id": "6709694a9556c447b9bcfa2f58061033", "lat": 38.906772333333336, "name": "6709694a9556c447b9bcfa2f58061033", "lon": -77.041979, "fusion_lon": 0.0}, {"is_reserved": 0, "type": "electric_bike", "fusion_lat": 0.0, "is_disabled": 0, "rental_uris": {"ios": "https://dc.lft.to/lastmile_qr_scan", "android": "https://dc.lft.to/lastmile_qr_scan"}, "bike_id": "b0a525fd76f34f6f800299cfc558a8f0", "lat": 38.809757166666664, "name": "b0a525fd76f34f6f800299cfc558a8f0", "lon": -77.07664766666667, "fusion_lon": 0.0}, {"is_reserved": 0, "type": "electric_scooter", "fusion_lat": 0.0, "is_disabled": 0, "rental_uris": {"ios": "https://dc.lft.to/lastmile_qr_scan", "android": "https://dc.lft.to/lastmile_qr_scan"}, "bike_id": "3a50186492c54abd15e6a7405319c152", "lat": 38.8944695, "name": "3a50186492c54abd15e6a7405319c152", "lon": -76.98087333333334, "fusion_lon": 0.0}, {"is_reserved": 0, "type": "electric_scooter", "fusion_lat": 0.0, "is_disabled": 0, "rental_uris": {"ios": "https://dc.lft.to/lastmile_qr_scan", "android": "https://dc.lft.to/lastmile_qr_scan"}, "bike_id": "49a5b59302b927cc01889414557fabcc", "lat": 38.9155545, "name": "49a5b59302b927cc01889414557fabcc", "lon": -77.0204805, "fusion_lon": 0.0}, {"is_reserved": 0, "type": "electric_scooter", "fusion_lat": 0.0, "is_disabled": 0, "rental_uris": {"ios": "https://dc.lft.to/lastmile_qr_scan", "android": "https://dc.lft.to/lastmile_qr_scan"}, "bike_id": "d5fbbfccb54ddd65a5f64c2e82f9ce4f", "lat": 38.919151, "name": "d5fbbfccb54ddd65a5f64c2e82f9ce4f", "lon": -77.03362533333333, "fusion_lon": 0.0}, {"is_reserved": 0, "type": "electric_scooter", "fusion_lat": 0.0, "is_disabled": 0, "rental_uris": {"ios": "https://dc.lft.to/lastmile_qr_scan", "android": "https://dc.lft.to/lastmile_qr_scan"}, "bike_id": "0586b136fc74155a86507dd49770835d", "lat": 38.89819966666666, "name": "0586b136fc74155a86507dd49770835d", "lon": -77.01269166666667, "fusion_lon": 0.0}, {"is_reserved": 0, "type": "electric_scooter", "fusion_lat": 0.0, "is_disabled": 0, "rental_uris": {"ios": "https://dc.lft.to/lastmile_qr_scan", "android": "https://dc.lft.to/lastmile_qr_scan"}, "bike_id": "8179b1a917d2cb09390a4606fad07661", "lat": 38.896193, "name": "8179b1a917d2cb09390a4606fad07661", "lon": -77.02869533333333, "fusion_lon": 0.0}, {"is_reserved": 0, "type": "electric_scooter", "fusion_lat": 0.0, "is_disabled": 0, "rental_uris": {"ios": "https://dc.lft.to/lastmile_qr_scan", "android": "https://dc.lft.to/lastmile_qr_scan"}, "bike_id": "255c4a1065fc2f4269e00fc78584630c", "lat": 38.924664666666665, "name": "255c4a1065fc2f4269e00fc78584630c", "lon": -77.022422, "fusion_lon": 0.0}, {"is_reserved": 0, "type": "electric_scooter", "fusion_lat": 0.0, "is_disabled": 0, "rental_uris": {"ios": "https://dc.lft.to/lastmile_qr_scan", "android": "https://dc.lft.to/lastmile_qr_scan"}, "bike_id": "9a8375eac5e35be999b9d818d2910bdc", "lat": 38.93599583333334, "name": "9a8375eac5e35be999b9d818d2910bdc", "lon": -77.0375765, "fusion_lon": 0.0}, {"is_reserved": 0, "type": "electric_scooter", "fusion_lat": 0.0, "is_disabled": 0, "rental_uris": {"ios": "https://dc.lft.to/lastmile_qr_scan", "android": "https://dc.lft.to/lastmile_qr_scan"}, "bike_id": "ace95341461c5df889ba54206c21d753", "lat": 38.91833233333333, "name": "ace95341461c5df889ba54206c21d753", "lon": -77.03184783333333, "fusion_lon": 0.0}, {"is_reserved": 0, "type": "electric_scooter", "fusion_lat": 0.0, "is_disabled": 0, "rental_uris": {"ios": "https://dc.lft.to/lastmile_qr_scan", "android": "https://dc.lft.to/lastmile_qr_scan"}, "bike_id": "ec507ecd57d914995c0fda93ddd0c7ec", "lat": 38.916554833333336, "name": "ec507ecd57d914995c0fda93ddd0c7ec", "lon": -77.01025933333334, "fusion_lon": 0.0}, {"is_reserved": 0, "type": "electric_bike", "fusion_lat": 0.0, "is_disabled": 0, "rental_uris": {"ios": "https://dc.lft.to/lastmile_qr_scan", "android": "https://dc.lft.to/lastmile_qr_scan"}, "bike_id": "a558994e6d10ded5d9c423e848752d76", "lat": 38.93639566666667, "name": "a558994e6d10ded5d9c423e848752d76", "lon": -76.95453616666667, "fusion_lon": 0.0}, {"is_reserved": 0, "type": "electric_scooter", "fusion_lat": 0.0, "is_disabled": 0, "rental_uris": {"ios": "https://dc.lft.to/lastmile_qr_scan", "android": "https://dc.lft.to/lastmile_qr_scan"}, "bike_id": "daa7c00b0f55b348a3e338f3c7256d51", "lat": 38.90362433333333, "name": "daa7c00b0f55b348a3e338f3c7256d51", "lon": -77.06006266666667, "fusion_lon": 0.0}, {"is_reserved": 0, "type": "electric_scooter", "fusion_lat": 0.0, "is_disabled": 0, "rental_uris": {"ios": "https://dc.lft.to/lastmile_qr_scan", "android": "https://dc.lft.to/lastmile_qr_scan"}, "bike_id": "1bcaa03a2990d514f09fc9d0d994554e", "lat": 38.898235, "name": "1bcaa03a2990d514f09fc9d0d994554e", "lon": -76.93005066666667, "fusion_lon": 0.0}, {"is_reserved": 0, "type": "electric_scooter", "fusion_lat": 0.0, "is_disabled": 0, "rental_uris": {"ios": "https://dc.lft.to/lastmile_qr_scan", "android": "https://dc.lft.to/lastmile_qr_scan"}, "bike_id": "57e1b54eaff367d86359c63ae0e764e6", "lat": 38.94479916666667, "name": "57e1b54eaff367d86359c63ae0e764e6", "lon": -77.09507366666666, "fusion_lon": 0.0}, {"is_reserved": 0, "type": "electric_scooter", "fusion_lat": 0.0, "is_disabled": 0, "rental_uris": {"ios": "https://dc.lft.to/lastmile_qr_scan", "android": "https://dc.lft.to/lastmile_qr_scan"}, "bike_id": "c53792de2965f61ada85c6650ea9ce9b", "lat": 38.922147833333334, "name": "c53792de2965f61ada85c6650ea9ce9b", "lon": -77.04235466666667, "fusion_lon": 0.0}, {"is_reserved": 0, "type": "electric_scooter", "fusion_lat": 0.0, "is_disabled": 0, "rental_uris": {"ios": "https://dc.lft.to/lastmile_qr_scan", "android": "https://dc.lft.to/lastmile_qr_scan"}, "bike_id": "092a8951dbad9d87feae01a1ad785d9f", "lat": 38.903294833333334, "name": "092a8951dbad9d87feae01a1ad785d9f", "lon": -77.02625766666667, "fusion_lon": 0.0}, {"is_reserved": 0, "type": "electric_scooter", "fusion_lat": 0.0, "is_disabled": 0, "rental_uris": {"ios": "https://dc.lft.to/lastmile_qr_scan", "android": "https://dc.lft.to/lastmile_qr_scan"}, "bike_id": "509e43306b1d92f6de7c0f1cf2480523", "lat": 38.89735966666667, "name": "509e43306b1d92f6de7c0f1cf2480523", "lon": -77.044332, "fusion_lon": 0.0}, {"is_reserved": 0, "type": "electric_scooter", "fusion_lat": 0.0, "is_disabled": 0, "rental_uris": {"ios": "https://dc.lft.to/lastmile_qr_scan", "android": "https://dc.lft.to/lastmile_qr_scan"}, "bike_id": "d34a246b74e9aa397cd911c17811f55f", "lat": 38.935666, "name": "d34a246b74e9aa397cd911c17811f55f", "lon": -77.0285425, "fusion_lon": 0.0}, {"is_reserved": 0, "type": "electric_scooter", "fusion_lat": 0.0, "is_disabled": 0, "rental_uris": {"ios": "https://dc.lft.to/lastmile_qr_scan", "android": "https://dc.lft.to/lastmile_qr_scan"}, "bike_id": "66c48e67da4da733ffd44a90bcf05237", "lat": 38.905704, "name": "66c48e67da4da733ffd44a90bcf05237", "lon": -77.0611605, "fusion_lon": 0.0}, {"is_reserved": 0, "type": "electric_scooter", "fusion_lat": 0.0, "is_disabled": 0, "rental_uris": {"ios": "https://dc.lft.to/lastmile_qr_scan", "android": "https://dc.lft.to/lastmile_qr_scan"}, "bike_id": "7c44e805c82c6a2cd6066b4315c2f48d", "lat": 38.8985915, "name": "7c44e805c82c6a2cd6066b4315c2f48d", "lon": -76.94640716666666, "fusion_lon": 0.0}, {"is_reserved": 0, "type": "electric_bike", "fusion_lat": 0.0, "is_disabled": 0, "rental_uris": {"ios": "https://dc.lft.to/lastmile_qr_scan", "android": "https://dc.lft.to/lastmile_qr_scan"}, "bike_id": "e844d525480efe2c166aace14d0bbe05", "lat": 38.830672666666665, "name": "e844d525480efe2c166aace14d0bbe05", "lon": -77.04079566666667, "fusion_lon": 0.0}, {"is_reserved": 0, "type": "electric_scooter", "fusion_lat": 0.0, "is_disabled": 0, "rental_uris": {"ios": "https://dc.lft.to/lastmile_qr_scan", "android": "https://dc.lft.to/lastmile_qr_scan"}, "bike_id": "0b7fda6b4325b509f085c94dd94be329", "lat": 38.917753833333336, "name": "0b7fda6b4325b509f085c94dd94be329", "lon": -77.040395, "fusion_lon": 0.0}, {"is_reserved": 0, "type": "electric_scooter", "fusion_lat": 0.0, "is_disabled": 0, "rental_uris": {"ios": "https://dc.lft.to/lastmile_qr_scan", "android": "https://dc.lft.to/lastmile_qr_scan"}, "bike_id": "84034295c590b705b789ea31efea33ff", "lat": 38.87066766666667, "name": "84034295c590b705b789ea31efea33ff", "lon": -76.979396, "fusion_lon": 0.0}, {"is_reserved": 0, "type": "electric_scooter", "fusion_lat": 0.0, "is_disabled": 0, "rental_uris": {"ios": "https://dc.lft.to/lastmile_qr_scan", "android": "https://dc.lft.to/lastmile_qr_scan"}, "bike_id": "b8b6897d07c06b9df3813cafb9d618ac", "lat": 38.917119166666666, "name": "b8b6897d07c06b9df3813cafb9d618ac", "lon": -77.02764516666667, "fusion_lon": 0.0}, {"is_reserved": 0, "type": "electric_scooter", "fusion_lat": 0.0, "is_disabled": 0, "rental_uris": {"ios": "https://dc.lft.to/lastmile_qr_scan", "android": "https://dc.lft.to/lastmile_qr_scan"}, "bike_id": "79ebc0a21cb52d2b77205ba065b09d1e", "lat": 38.905722, "name": "79ebc0a21cb52d2b77205ba065b09d1e", "lon": -77.0241325, "fusion_lon": 0.0}, {"is_reserved": 0, "type": "electric_scooter", "fusion_lat": 0.0, "is_disabled": 0, "rental_uris": {"ios": "https://dc.lft.to/lastmile_qr_scan", "android": "https://dc.lft.to/lastmile_qr_scan"}, "bike_id": "35e5d187ce962921cbde498bd9f4a724", "lat": 38.91117033333333, "name": "35e5d187ce962921cbde498bd9f4a724", "lon": -77.03263866666667, "fusion_lon": 0.0}, {"is_reserved": 0, "type": "electric_scooter", "fusion_lat": 0.0, "is_disabled": 0, "rental_uris": {"ios": "https://dc.lft.to/lastmile_qr_scan", "android": "https://dc.lft.to/lastmile_qr_scan"}, "bike_id": "9793776f7bcbbca6c99cc61376a8c491", "lat": 38.90045816666667, "name": "9793776f7bcbbca6c99cc61376a8c491", "lon": -77.0339915, "fusion_lon": 0.0}, {"is_reserved": 0, "type": "electric_scooter", "fusion_lat": 0.0, "is_disabled": 0, "rental_uris": {"ios": "https://dc.lft.to/lastmile_qr_scan", "android": "https://dc.lft.to/lastmile_qr_scan"}, "bike_id": "abcc7d62ed536443bb56c51593f917e5", "lat": 38.877359166666665, "name": "abcc7d62ed536443bb56c51593f917e5", "lon": -77.00587333333333, "fusion_lon": 0.0}, {"is_reserved": 0, "type": "electric_bike", "fusion_lat": 0.0, "is_disabled": 0, "rental_uris": {"ios": "https://dc.lft.to/lastmile_qr_scan", "android": "https://dc.lft.to/lastmile_qr_scan"}, "bike_id": "3ae21ef375051cf408950056d06d48e1", "lat": 39.003774166666666, "name": "3ae21ef375051cf408950056d06d48e1", "lon": -77.0128525, "fusion_lon": 0.0}, {"is_reserved": 0, "type": "electric_scooter", "fusion_lat": 0.0, "is_disabled": 0, "rental_uris": {"ios": "https://dc.lft.to/lastmile_qr_scan", "android": "https://dc.lft.to/lastmile_qr_scan"}, "bike_id": "d11884e13a3d51e663533c0f2c8fb438", "lat": 38.892693666666666, "name": "d11884e13a3d51e663533c0f2c8fb438", "lon": -77.01490283333334, "fusion_lon": 0.0}, {"is_reserved": 0, "type": "electric_scooter", "fusion_lat": 0.0, "is_disabled": 0, "rental_uris": {"ios": "https://dc.lft.to/lastmile_qr_scan", "android": "https://dc.lft.to/lastmile_qr_scan"}, "bike_id": "d7f91260e9d91a6189d7f05043f32dbb", "lat": 38.92480716666667, "name": "d7f91260e9d91a6189d7f05043f32dbb", "lon": -77.0255395, "fusion_lon": 0.0}, {"is_reserved": 0, "type": "electric_scooter", "fusion_lat": 0.0, "is_disabled": 0, "rental_uris": {"ios": "https://dc.lft.to/lastmile_qr_scan", "android": "https://dc.lft.to/lastmile_qr_scan"}, "bike_id": "c2093c727080ec2486e34af568c06d58", "lat": 38.91495716666667, "name": "c2093c727080ec2486e34af568c06d58", "lon": -77.02187283333333, "fusion_lon": 0.0}, {"is_reserved": 0, "type": "electric_scooter", "fusion_lat": 0.0, "is_disabled": 0, "rental_uris": {"ios": "https://dc.lft.to/lastmile_qr_scan", "android": "https://dc.lft.to/lastmile_qr_scan"}, "bike_id": "3297155938a1610929a724fe30e71799", "lat": 38.9010495, "name": "3297155938a1610929a724fe30e71799", "lon": -77.0320565, "fusion_lon": 0.0}, {"is_reserved": 0, "type": "electric_scooter", "fusion_lat": 0.0, "is_disabled": 0, "rental_uris": {"ios": "https://dc.lft.to/lastmile_qr_scan", "android": "https://dc.lft.to/lastmile_qr_scan"}, "bike_id": "b7f55fcd83e45b5b38e1329457fa4e7e", "lat": 38.89945083333333, "name": "b7f55fcd83e45b5b38e1329457fa4e7e", "lon": -77.0232585, "fusion_lon": 0.0}, {"is_reserved": 0, "type": "electric_scooter", "fusion_lat": 0.0, "is_disabled": 0, "rental_uris": {"ios": "https://dc.lft.to/lastmile_qr_scan", "android": "https://dc.lft.to/lastmile_qr_scan"}, "bike_id": "3713dc0564b1b98e6438051109dc8802", "lat": 38.91981116666667, "name": "3713dc0564b1b98e6438051109dc8802", "lon": -77.0412355, "fusion_lon": 0.0}, {"is_reserved": 0, "type": "electric_scooter", "fusion_lat": 0.0, "is_disabled": 0, "rental_uris": {"ios": "https://dc.lft.to/lastmile_qr_scan", "android": "https://dc.lft.to/lastmile_qr_scan"}, "bike_id": "325b2b4aeb148297e6e4951e672b3359", "lat": 38.896595166666664, "name": "325b2b4aeb148297e6e4951e672b3359", "lon": -77.0433235, "fusion_lon": 0.0}, {"is_reserved": 0, "type": "electric_scooter", "fusion_lat": 0.0, "is_disabled": 0, "rental_uris": {"ios": "https://dc.lft.to/lastmile_qr_scan", "android": "https://dc.lft.to/lastmile_qr_scan"}, "bike_id": "29ca74fc1b0580952adebbe433dab8fa", "lat": 38.9206775, "name": "29ca74fc1b0580952adebbe433dab8fa", "lon": -77.04192216666667, "fusion_lon": 0.0}, {"is_reserved": 0, "type": "electric_scooter", "fusion_lat": 0.0, "is_disabled": 0, "rental_uris": {"ios": "https://dc.lft.to/lastmile_qr_scan", "android": "https://dc.lft.to/lastmile_qr_scan"}, "bike_id": "d07db8c83ef88ef7cef50c35dbe763d3", "lat": 38.892474666666665, "name": "d07db8c83ef88ef7cef50c35dbe763d3", "lon": -77.03352733333334, "fusion_lon": 0.0}, {"is_reserved": 0, "type": "electric_bike", "fusion_lat": 0.0, "is_disabled": 0, "rental_uris": {"ios": "https://dc.lft.to/lastmile_qr_scan", "android": "https://dc.lft.to/lastmile_qr_scan"}, "bike_id": "a3f5f24960a2fecd4beaa7153efc4a76", "lat": 38.835871166666664, "name": "a3f5f24960a2fecd4beaa7153efc4a76", "lon": -76.99019533333333, "fusion_lon": 0.0}, {"is_reserved": 0, "type": "electric_scooter", "fusion_lat": 0.0, "is_disabled": 0, "rental_uris": {"ios": "https://dc.lft.to/lastmile_qr_scan", "android": "https://dc.lft.to/lastmile_qr_scan"}, "bike_id": "d9e388d84ea11974368c4fa0c941dd4c", "lat": 38.921111333333336, "name": "d9e388d84ea11974368c4fa0c941dd4c", "lon": -77.04210816666667, "fusion_lon": 0.0}, {"is_reserved": 0, "type": "electric_scooter", "fusion_lat": 0.0, "is_disabled": 0, "rental_uris": {"ios": "https://dc.lft.to/lastmile_qr_scan", "android": "https://dc.lft.to/lastmile_qr_scan"}, "bike_id": "99466ecf7f4bd4b2a29f44323f868d0c", "lat": 38.91715633333333, "name": "99466ecf7f4bd4b2a29f44323f868d0c", "lon": -77.02902933333333, "fusion_lon": 0.0}, {"is_reserved": 0, "type": "electric_scooter", "fusion_lat": 0.0, "is_disabled": 0, "rental_uris": {"ios": "https://dc.lft.to/lastmile_qr_scan", "android": "https://dc.lft.to/lastmile_qr_scan"}, "bike_id": "ac0a6ec3e9a3977a218ac5f8d0deac1f", "lat": 38.90077383333333, "name": "ac0a6ec3e9a3977a218ac5f8d0deac1f", "lon": -77.0506985, "fusion_lon": 0.0}, {"is_reserved": 0, "type": "electric_scooter", "fusion_lat": 0.0, "is_disabled": 0, "rental_uris": {"ios": "https://dc.lft.to/lastmile_qr_scan", "android": "https://dc.lft.to/lastmile_qr_scan"}, "bike_id": "f1c50a734b4e79939436bcd2fa789774", "lat": 38.909280333333335, "name": "f1c50a734b4e79939436bcd2fa789774", "lon": -77.06225533333334, "fusion_lon": 0.0}, {"is_reserved": 0, "type": "electric_scooter", "fusion_lat": 0.0, "is_disabled": 0, "rental_uris": {"ios": "https://dc.lft.to/lastmile_qr_scan", "android": "https://dc.lft.to/lastmile_qr_scan"}, "bike_id": "31c6cc318945be8bbb50640fba67829c", "lat": 38.89938433333333, "name": "31c6cc318945be8bbb50640fba67829c", "lon": -77.053982, "fusion_lon": 0.0}, {"is_reserved": 0, "type": "electric_scooter", "fusion_lat": 0.0, "is_disabled": 0, "rental_uris": {"ios": "https://dc.lft.to/lastmile_qr_scan", "android": "https://dc.lft.to/lastmile_qr_scan"}, "bike_id": "61dfe42cc7069e762e486294b045f4f1", "lat": 38.91708766666667, "name": "61dfe42cc7069e762e486294b045f4f1", "lon": -77.02891166666667, "fusion_lon": 0.0}, {"is_reserved": 0, "type": "electric_scooter", "fusion_lat": 0.0, "is_disabled": 0, "rental_uris": {"ios": "https://dc.lft.to/lastmile_qr_scan", "android": "https://dc.lft.to/lastmile_qr_scan"}, "bike_id": "43bd9462d735d7c4223eb95efbdac9ff", "lat": 38.908671166666664, "name": "43bd9462d735d7c4223eb95efbdac9ff", "lon": -77.00201083333333, "fusion_lon": 0.0}, {"is_reserved": 0, "type": "electric_scooter", "fusion_lat": 0.0, "is_disabled": 0, "rental_uris": {"ios": "https://dc.lft.to/lastmile_qr_scan", "android": "https://dc.lft.to/lastmile_qr_scan"}, "bike_id": "35f9cc4d3ddc250ac9d44aa4f945f6d8", "lat": 38.93272733333333, "name": "35f9cc4d3ddc250ac9d44aa4f945f6d8", "lon": -77.02654816666667, "fusion_lon": 0.0}, {"is_reserved": 0, "type": "electric_scooter", "fusion_lat": 0.0, "is_disabled": 0, "rental_uris": {"ios": "https://dc.lft.to/lastmile_qr_scan", "android": "https://dc.lft.to/lastmile_qr_scan"}, "bike_id": "49073ee012b18a8e77ccd09e51f41fec", "lat": 38.9170345, "name": "49073ee012b18a8e77ccd09e51f41fec", "lon": -77.03143883333334, "fusion_lon": 0.0}, {"is_reserved": 0, "type": "electric_scooter", "fusion_lat": 0.0, "is_disabled": 0, "rental_uris": {"ios": "https://dc.lft.to/lastmile_qr_scan", "android": "https://dc.lft.to/lastmile_qr_scan"}, "bike_id": "5eb463eefa5add2389181966b66d573b", "lat": 38.919818166666666, "name": "5eb463eefa5add2389181966b66d573b", "lon": -77.023668, "fusion_lon": 0.0}, {"is_reserved": 0, "type": "electric_scooter", "fusion_lat": 0.0, "is_disabled": 0, "rental_uris": {"ios": "https://dc.lft.to/lastmile_qr_scan", "android": "https://dc.lft.to/lastmile_qr_scan"}, "bike_id": "235376be86e888b6b2564b8473bcf6c2", "lat": 38.899425666666666, "name": "235376be86e888b6b2564b8473bcf6c2", "lon": -77.014459, "fusion_lon": 0.0}, {"is_reserved": 0, "type": "electric_scooter", "fusion_lat": 0.0, "is_disabled": 0, "rental_uris": {"ios": "https://dc.lft.to/lastmile_qr_scan", "android": "https://dc.lft.to/lastmile_qr_scan"}, "bike_id": "ae9beda1ed830d339114a7cad6f97403", "lat": 38.897358, "name": "ae9beda1ed830d339114a7cad6f97403", "lon": -77.03212866666667, "fusion_lon": 0.0}, {"is_reserved": 0, "type": "electric_scooter", "fusion_lat": 0.0, "is_disabled": 0, "rental_uris": {"ios": "https://dc.lft.to/lastmile_qr_scan", "android": "https://dc.lft.to/lastmile_qr_scan"}, "bike_id": "a92529334dbdbac2d8fce65006267f0d", "lat": 38.90371016666667, "name": "a92529334dbdbac2d8fce65006267f0d", "lon": -77.01649283333333, "fusion_lon": 0.0}, {"is_reserved": 0, "type": "electric_bike", "fusion_lat": 0.0, "is_disabled": 0, "rental_uris": {"ios": "https://dc.lft.to/lastmile_qr_scan", "android": "https://dc.lft.to/lastmile_qr_scan"}, "bike_id": "703a0846d4dbe917092c4612d3eecb8e", "lat": 38.92801133333333, "name": "703a0846d4dbe917092c4612d3eecb8e", "lon": -77.2293775, "fusion_lon": 0.0}, {"is_reserved": 0, "type": "electric_scooter", "fusion_lat": 0.0, "is_disabled": 0, "rental_uris": {"ios": "https://dc.lft.to/lastmile_qr_scan", "android": "https://dc.lft.to/lastmile_qr_scan"}, "bike_id": "7153cf605a62be8f020092fac931be08", "lat": 38.85716383333333, "name": "7153cf605a62be8f020092fac931be08", "lon": -76.980977, "fusion_lon": 0.0}, {"is_reserved": 0, "type": "electric_scooter", "fusion_lat": 0.0, "is_disabled": 0, "rental_uris": {"ios": "https://dc.lft.to/lastmile_qr_scan", "android": "https://dc.lft.to/lastmile_qr_scan"}, "bike_id": "75e74f3db6f88159511778ce9f6c3dd5", "lat": 38.91991083333333, "name": "75e74f3db6f88159511778ce9f6c3dd5", "lon": -77.02201183333334, "fusion_lon": 0.0}, {"is_reserved": 0, "type": "electric_scooter", "fusion_lat": 0.0, "is_disabled": 0, "rental_uris": {"ios": "https://dc.lft.to/lastmile_qr_scan", "android": "https://dc.lft.to/lastmile_qr_scan"}, "bike_id": "96953963e7de3a564b6d7706ac1692bd", "lat": 38.96429066666666, "name": "96953963e7de3a564b6d7706ac1692bd", "lon": -77.074264, "fusion_lon": 0.0}, {"is_reserved": 0, "type": "electric_scooter", "fusion_lat": 0.0, "is_disabled": 0, "rental_uris": {"ios": "https://dc.lft.to/lastmile_qr_scan", "android": "https://dc.lft.to/lastmile_qr_scan"}, "bike_id": "827893947013aa244bd2c3241b39fe74", "lat": 38.922476, "name": "827893947013aa244bd2c3241b39fe74", "lon": -77.042539, "fusion_lon": 0.0}, {"is_reserved": 0, "type": "electric_scooter", "fusion_lat": 0.0, "is_disabled": 0, "rental_uris": {"ios": "https://dc.lft.to/lastmile_qr_scan", "android": "https://dc.lft.to/lastmile_qr_scan"}, "bike_id": "f439ff4436b2c35c8038d50386a95a60", "lat": 38.884914, "name": "f439ff4436b2c35c8038d50386a95a60", "lon": -77.04500166666666, "fusion_lon": 0.0}, {"is_reserved": 0, "type": "electric_scooter", "fusion_lat": 0.0, "is_disabled": 0, "rental_uris": {"ios": "https://dc.lft.to/lastmile_qr_scan", "android": "https://dc.lft.to/lastmile_qr_scan"}, "bike_id": "f42a77e6c215b804579395204997f6fa", "lat": 38.901396, "name": "f42a77e6c215b804579395204997f6fa", "lon": -77.0006835, "fusion_lon": 0.0}, {"is_reserved": 0, "type": "electric_scooter", "fusion_lat": 0.0, "is_disabled": 0, "rental_uris": {"ios": "https://dc.lft.to/lastmile_qr_scan", "android": "https://dc.lft.to/lastmile_qr_scan"}, "bike_id": "4b433b8fda3ab3310af68f6c47465259", "lat": 38.89226433333333, "name": "4b433b8fda3ab3310af68f6c47465259", "lon": -77.043573, "fusion_lon": 0.0}, {"is_reserved": 0, "type": "electric_scooter", "fusion_lat": 0.0, "is_disabled": 0, "rental_uris": {"ios": "https://dc.lft.to/lastmile_qr_scan", "android": "https://dc.lft.to/lastmile_qr_scan"}, "bike_id": "bafc65daba0f72d178c67dfbfa84e270", "lat": 38.92052733333333, "name": "bafc65daba0f72d178c67dfbfa84e270", "lon": -77.04188266666667, "fusion_lon": 0.0}, {"is_reserved": 0, "type": "electric_scooter", "fusion_lat": 0.0, "is_disabled": 0, "rental_uris": {"ios": "https://dc.lft.to/lastmile_qr_scan", "android": "https://dc.lft.to/lastmile_qr_scan"}, "bike_id": "85571965ef9467f92e0761efb7f0cdd9", "lat": 38.89880333333333, "name": "85571965ef9467f92e0761efb7f0cdd9", "lon": -76.93172466666667, "fusion_lon": 0.0}, {"is_reserved": 0, "type": "electric_scooter", "fusion_lat": 0.0, "is_disabled": 0, "rental_uris": {"ios": "https://dc.lft.to/lastmile_qr_scan", "android": "https://dc.lft.to/lastmile_qr_scan"}, "bike_id": "fc9e931516b516a61b8480c706bbc10a", "lat": 38.88545216666667, "name": "fc9e931516b516a61b8480c706bbc10a", "lon": -76.98538916666666, "fusion_lon": 0.0}, {"is_reserved": 0, "type": "electric_scooter", "fusion_lat": 0.0, "is_disabled": 0, "rental_uris": {"ios": "https://dc.lft.to/lastmile_qr_scan", "android": "https://dc.lft.to/lastmile_qr_scan"}, "bike_id": "a365f3ecc31d284c57d53103382b552e", "lat": 38.924314, "name": "a365f3ecc31d284c57d53103382b552e", "lon": -77.029777, "fusion_lon": 0.0}, {"is_reserved": 0, "type": "electric_scooter", "fusion_lat": 0.0, "is_disabled": 0, "rental_uris": {"ios": "https://dc.lft.to/lastmile_qr_scan", "android": "https://dc.lft.to/lastmile_qr_scan"}, "bike_id": "5717155fde724a338a0aa07b4f0d215b", "lat": 38.90033916666667, "name": "5717155fde724a338a0aa07b4f0d215b", "lon": -77.04327283333333, "fusion_lon": 0.0}, {"is_reserved": 0, "type": "electric_scooter", "fusion_lat": 0.0, "is_disabled": 0, "rental_uris": {"ios": "https://dc.lft.to/lastmile_qr_scan", "android": "https://dc.lft.to/lastmile_qr_scan"}, "bike_id": "c0b7eda93a7cd572894961976c6c90f4", "lat": 38.91694616666667, "name": "c0b7eda93a7cd572894961976c6c90f4", "lon": -77.052977, "fusion_lon": 0.0}, {"is_reserved": 0, "type": "electric_scooter", "fusion_lat": 0.0, "is_disabled": 0, "rental_uris": {"ios": "https://dc.lft.to/lastmile_qr_scan", "android": "https://dc.lft.to/lastmile_qr_scan"}, "bike_id": "5f28f85d7acdafd8fa46da6e57bfc570", "lat": 38.95017566666667, "name": "5f28f85d7acdafd8fa46da6e57bfc570", "lon": -77.01429366666666, "fusion_lon": 0.0}, {"is_reserved": 0, "type": "electric_scooter", "fusion_lat": 0.0, "is_disabled": 0, "rental_uris": {"ios": "https://dc.lft.to/lastmile_qr_scan", "android": "https://dc.lft.to/lastmile_qr_scan"}, "bike_id": "d03693c1a9cdd21a351c3a8c17793b89", "lat": 38.9319055, "name": "d03693c1a9cdd21a351c3a8c17793b89", "lon": -77.0283635, "fusion_lon": 0.0}, {"is_reserved": 0, "type": "electric_scooter", "fusion_lat": 0.0, "is_disabled": 0, "rental_uris": {"ios": "https://dc.lft.to/lastmile_qr_scan", "android": "https://dc.lft.to/lastmile_qr_scan"}, "bike_id": "64557141f61ad2ec5c2b5aa823019a3c", "lat": 38.882622166666664, "name": "64557141f61ad2ec5c2b5aa823019a3c", "lon": -76.9953, "fusion_lon": 0.0}, {"is_reserved": 0, "type": "electric_scooter", "fusion_lat": 0.0, "is_disabled": 0, "rental_uris": {"ios": "https://dc.lft.to/lastmile_qr_scan", "android": "https://dc.lft.to/lastmile_qr_scan"}, "bike_id": "4c13ef00e70d7663409fb28b87add979", "lat": 38.924778, "name": "4c13ef00e70d7663409fb28b87add979", "lon": -77.02553333333333, "fusion_lon": 0.0}, {"is_reserved": 0, "type": "electric_scooter", "fusion_lat": 0.0, "is_disabled": 0, "rental_uris": {"ios": "https://dc.lft.to/lastmile_qr_scan", "android": "https://dc.lft.to/lastmile_qr_scan"}, "bike_id": "c16bd451a44e1d653523d43c517d2114", "lat": 38.916984, "name": "c16bd451a44e1d653523d43c517d2114", "lon": -77.0304305, "fusion_lon": 0.0}, {"is_reserved": 0, "type": "electric_scooter", "fusion_lat": 0.0, "is_disabled": 0, "rental_uris": {"ios": "https://dc.lft.to/lastmile_qr_scan", "android": "https://dc.lft.to/lastmile_qr_scan"}, "bike_id": "6e8db5ea8c204289ee5cd38ffd479c46", "lat": 38.90464716666666, "name": "6e8db5ea8c204289ee5cd38ffd479c46", "lon": -77.01691833333334, "fusion_lon": 0.0}, {"is_reserved": 0, "type": "electric_scooter", "fusion_lat": 0.0, "is_disabled": 0, "rental_uris": {"ios": "https://dc.lft.to/lastmile_qr_scan", "android": "https://dc.lft.to/lastmile_qr_scan"}, "bike_id": "7612ed7a2a3fd954092d74234f268e7b", "lat": 38.90095, "name": "7612ed7a2a3fd954092d74234f268e7b", "lon": -77.05014883333334, "fusion_lon": 0.0}, {"is_reserved": 0, "type": "electric_scooter", "fusion_lat": 0.0, "is_disabled": 0, "rental_uris": {"ios": "https://dc.lft.to/lastmile_qr_scan", "android": "https://dc.lft.to/lastmile_qr_scan"}, "bike_id": "3b0cc7ce0d3de9d43296331b88d0ac0e", "lat": 38.921138166666665, "name": "3b0cc7ce0d3de9d43296331b88d0ac0e", "lon": -77.03921833333334, "fusion_lon": 0.0}, {"is_reserved": 0, "type": "electric_scooter", "fusion_lat": 0.0, "is_disabled": 0, "rental_uris": {"ios": "https://dc.lft.to/lastmile_qr_scan", "android": "https://dc.lft.to/lastmile_qr_scan"}, "bike_id": "a562a9822ca5f0138c803f5b8eaaf170", "lat": 38.90783966666667, "name": "a562a9822ca5f0138c803f5b8eaaf170", "lon": -77.03203916666666, "fusion_lon": 0.0}, {"is_reserved": 0, "type": "electric_scooter", "fusion_lat": 0.0, "is_disabled": 0, "rental_uris": {"ios": "https://dc.lft.to/lastmile_qr_scan", "android": "https://dc.lft.to/lastmile_qr_scan"}, "bike_id": "cb649140ab1909303725c29d5edee771", "lat": 38.896919833333335, "name": "cb649140ab1909303725c29d5edee771", "lon": -77.012035, "fusion_lon": 0.0}, {"is_reserved": 0, "type": "electric_scooter", "fusion_lat": 0.0, "is_disabled": 0, "rental_uris": {"ios": "https://dc.lft.to/lastmile_qr_scan", "android": "https://dc.lft.to/lastmile_qr_scan"}, "bike_id": "060c5545d5356941225e9b62b89e6474", "lat": 38.923697833333335, "name": "060c5545d5356941225e9b62b89e6474", "lon": -77.04310616666666, "fusion_lon": 0.0}, {"is_reserved": 0, "type": "electric_scooter", "fusion_lat": 0.0, "is_disabled": 0, "rental_uris": {"ios": "https://dc.lft.to/lastmile_qr_scan", "android": "https://dc.lft.to/lastmile_qr_scan"}, "bike_id": "4f83277f495b084c9ddcef87c49f550c", "lat": 38.910826666666665, "name": "4f83277f495b084c9ddcef87c49f550c", "lon": -77.04478566666667, "fusion_lon": 0.0}, {"is_reserved": 0, "type": "electric_scooter", "fusion_lat": 0.0, "is_disabled": 0, "rental_uris": {"ios": "https://dc.lft.to/lastmile_qr_scan", "android": "https://dc.lft.to/lastmile_qr_scan"}, "bike_id": "713e98aba1d2e5920d178cac637e16ff", "lat": 38.89850766666667, "name": "713e98aba1d2e5920d178cac637e16ff", "lon": -77.02390866666667, "fusion_lon": 0.0}, {"is_reserved": 0, "type": "electric_scooter", "fusion_lat": 0.0, "is_disabled": 0, "rental_uris": {"ios": "https://dc.lft.to/lastmile_qr_scan", "android": "https://dc.lft.to/lastmile_qr_scan"}, "bike_id": "eac9618250ae090ded2677c90217dced", "lat": 38.912594166666665, "name": "eac9618250ae090ded2677c90217dced", "lon": -77.04793383333333, "fusion_lon": 0.0}, {"is_reserved": 0, "type": "electric_scooter", "fusion_lat": 0.0, "is_disabled": 0, "rental_uris": {"ios": "https://dc.lft.to/lastmile_qr_scan", "android": "https://dc.lft.to/lastmile_qr_scan"}, "bike_id": "8edd397d2edb139bd8d2164b45e78486", "lat": 38.91628, "name": "8edd397d2edb139bd8d2164b45e78486", "lon": -77.021547, "fusion_lon": 0.0}, {"is_reserved": 0, "type": "electric_scooter", "fusion_lat": 0.0, "is_disabled": 0, "rental_uris": {"ios": "https://dc.lft.to/lastmile_qr_scan", "android": "https://dc.lft.to/lastmile_qr_scan"}, "bike_id": "15adc2877bb1b184407e04778f686aca", "lat": 38.911898, "name": "15adc2877bb1b184407e04778f686aca", "lon": -76.98731466666666, "fusion_lon": 0.0}, {"is_reserved": 0, "type": "electric_scooter", "fusion_lat": 0.0, "is_disabled": 0, "rental_uris": {"ios": "https://dc.lft.to/lastmile_qr_scan", "android": "https://dc.lft.to/lastmile_qr_scan"}, "bike_id": "8ba5070a570bc809e6ba3fe8ccc2fa83", "lat": 38.911877833333335, "name": "8ba5070a570bc809e6ba3fe8ccc2fa83", "lon": -77.0661245, "fusion_lon": 0.0}, {"is_reserved": 0, "type": "electric_bike", "fusion_lat": 0.0, "is_disabled": 0, "rental_uris": {"ios": "https://dc.lft.to/lastmile_qr_scan", "android": "https://dc.lft.to/lastmile_qr_scan"}, "bike_id": "99783a05e7122e7d26d61bca0f76ec31", "lat": 38.99882816666667, "name": "99783a05e7122e7d26d61bca0f76ec31", "lon": -76.910767, "fusion_lon": 0.0}, {"is_reserved": 0, "type": "electric_scooter", "fusion_lat": 0.0, "is_disabled": 0, "rental_uris": {"ios": "https://dc.lft.to/lastmile_qr_scan", "android": "https://dc.lft.to/lastmile_qr_scan"}, "bike_id": "2ef39ce782b9320cd63ffb1560e2a409", "lat": 38.920255, "name": "2ef39ce782b9320cd63ffb1560e2a409", "lon": -77.07147566666667, "fusion_lon": 0.0}, {"is_reserved": 0, "type": "electric_scooter", "fusion_lat": 0.0, "is_disabled": 0, "rental_uris": {"ios": "https://dc.lft.to/lastmile_qr_scan", "android": "https://dc.lft.to/lastmile_qr_scan"}, "bike_id": "66c2bb9b2bf14b46771af1a40e18c557", "lat": 38.915549166666665, "name": "66c2bb9b2bf14b46771af1a40e18c557", "lon": -77.0298715, "fusion_lon": 0.0}, {"is_reserved": 0, "type": "electric_scooter", "fusion_lat": 0.0, "is_disabled": 0, "rental_uris": {"ios": "https://dc.lft.to/lastmile_qr_scan", "android": "https://dc.lft.to/lastmile_qr_scan"}, "bike_id": "2115f4a9857964a1aacc1f350a70543c", "lat": 38.91818683333333, "name": "2115f4a9857964a1aacc1f350a70543c", "lon": -77.03256233333333, "fusion_lon": 0.0}, {"is_reserved": 0, "type": "electric_scooter", "fusion_lat": 0.0, "is_disabled": 0, "rental_uris": {"ios": "https://dc.lft.to/lastmile_qr_scan", "android": "https://dc.lft.to/lastmile_qr_scan"}, "bike_id": "cc77a65d640935d6d6ebe79c969e4807", "lat": 38.92905483333333, "name": "cc77a65d640935d6d6ebe79c969e4807", "lon": -77.02165816666667, "fusion_lon": 0.0}, {"is_reserved": 0, "type": "electric_bike", "fusion_lat": 0.0, "is_disabled": 0, "rental_uris": {"ios": "https://dc.lft.to/lastmile_qr_scan", "android": "https://dc.lft.to/lastmile_qr_scan"}, "bike_id": "026dacbd1d061fa64b7895498d1a952e", "lat": 38.80408633333333, "name": "026dacbd1d061fa64b7895498d1a952e", "lon": -77.1133405, "fusion_lon": 0.0}, {"is_reserved": 0, "type": "electric_scooter", "fusion_lat": 0.0, "is_disabled": 0, "rental_uris": {"ios": "https://dc.lft.to/lastmile_qr_scan", "android": "https://dc.lft.to/lastmile_qr_scan"}, "bike_id": "67fb83477421f3186d220808cbfc6698", "lat": 38.876279, "name": "67fb83477421f3186d220808cbfc6698", "lon": -77.00595333333334, "fusion_lon": 0.0}, {"is_reserved": 0, "type": "electric_scooter", "fusion_lat": 0.0, "is_disabled": 0, "rental_uris": {"ios": "https://dc.lft.to/lastmile_qr_scan", "android": "https://dc.lft.to/lastmile_qr_scan"}, "bike_id": "94cf138fe58a41ea0982e036de89b9d3", "lat": 38.931809, "name": "94cf138fe58a41ea0982e036de89b9d3", "lon": -77.02350666666666, "fusion_lon": 0.0}, {"is_reserved": 0, "type": "electric_bike", "fusion_lat": 0.0, "is_disabled": 0, "rental_uris": {"ios": "https://dc.lft.to/lastmile_qr_scan", "android": "https://dc.lft.to/lastmile_qr_scan"}, "bike_id": "9faa7f160cbcca7e44c1f4c9cf681521", "lat": 38.85597383333333, "name": "9faa7f160cbcca7e44c1f4c9cf681521", "lon": -76.972795, "fusion_lon": 0.0}, {"is_reserved": 0, "type": "electric_scooter", "fusion_lat": 0.0, "is_disabled": 0, "rental_uris": {"ios": "https://dc.lft.to/lastmile_qr_scan", "android": "https://dc.lft.to/lastmile_qr_scan"}, "bike_id": "5b7b6afd9b9b209db7890d5a23a8993c", "lat": 38.906932166666664, "name": "5b7b6afd9b9b209db7890d5a23a8993c", "lon": -77.01016033333333, "fusion_lon": 0.0}, {"is_reserved": 0, "type": "electric_scooter", "fusion_lat": 0.0, "is_disabled": 0, "rental_uris": {"ios": "https://dc.lft.to/lastmile_qr_scan", "android": "https://dc.lft.to/lastmile_qr_scan"}, "bike_id": "2db5f00f92d28e16cde8f749db79afe5", "lat": 38.9205045, "name": "2db5f00f92d28e16cde8f749db79afe5", "lon": -77.0293995, "fusion_lon": 0.0}, {"is_reserved": 0, "type": "electric_scooter", "fusion_lat": 0.0, "is_disabled": 0, "rental_uris": {"ios": "https://dc.lft.to/lastmile_qr_scan", "android": "https://dc.lft.to/lastmile_qr_scan"}, "bike_id": "46f5ab6f774fa3c28589b6f5011da493", "lat": 38.93391333333334, "name": "46f5ab6f774fa3c28589b6f5011da493", "lon": -77.0738545, "fusion_lon": 0.0}, {"is_reserved": 0, "type": "electric_scooter", "fusion_lat": 0.0, "is_disabled": 0, "rental_uris": {"ios": "https://dc.lft.to/lastmile_qr_scan", "android": "https://dc.lft.to/lastmile_qr_scan"}, "bike_id": "007460daea23123413092802bcb75168", "lat": 38.90659683333333, "name": "007460daea23123413092802bcb75168", "lon": -77.02392266666666, "fusion_lon": 0.0}, {"is_reserved": 0, "type": "electric_scooter", "fusion_lat": 0.0, "is_disabled": 0, "rental_uris": {"ios": "https://dc.lft.to/lastmile_qr_scan", "android": "https://dc.lft.to/lastmile_qr_scan"}, "bike_id": "e7549ee210a61922ea865e1364437912", "lat": 38.923585, "name": "e7549ee210a61922ea865e1364437912", "lon": -77.04023683333334, "fusion_lon": 0.0}, {"is_reserved": 0, "type": "electric_scooter", "fusion_lat": 0.0, "is_disabled": 0, "rental_uris": {"ios": "https://dc.lft.to/lastmile_qr_scan", "android": "https://dc.lft.to/lastmile_qr_scan"}, "bike_id": "d880de955620781abd9822c7c42ca23f", "lat": 38.9236265, "name": "d880de955620781abd9822c7c42ca23f", "lon": -77.02056466666667, "fusion_lon": 0.0}, {"is_reserved": 0, "type": "electric_scooter", "fusion_lat": 0.0, "is_disabled": 0, "rental_uris": {"ios": "https://dc.lft.to/lastmile_qr_scan", "android": "https://dc.lft.to/lastmile_qr_scan"}, "bike_id": "c34640042cfcb24349c7cd36ec7cd862", "lat": 38.93608716666667, "name": "c34640042cfcb24349c7cd36ec7cd862", "lon": -77.07301466666667, "fusion_lon": 0.0}, {"is_reserved": 0, "type": "electric_scooter", "fusion_lat": 0.0, "is_disabled": 0, "rental_uris": {"ios": "https://dc.lft.to/lastmile_qr_scan", "android": "https://dc.lft.to/lastmile_qr_scan"}, "bike_id": "986df9e372c6ccc07f6d422cfe44d5c9", "lat": 38.899444833333334, "name": "986df9e372c6ccc07f6d422cfe44d5c9", "lon": -77.01450766666666, "fusion_lon": 0.0}, {"is_reserved": 0, "type": "electric_scooter", "fusion_lat": 0.0, "is_disabled": 0, "rental_uris": {"ios": "https://dc.lft.to/lastmile_qr_scan", "android": "https://dc.lft.to/lastmile_qr_scan"}, "bike_id": "b0b10956e457c6c5adb6d7cd78ca354d", "lat": 38.92470983333333, "name": "b0b10956e457c6c5adb6d7cd78ca354d", "lon": -77.022112, "fusion_lon": 0.0}, {"is_reserved": 0, "type": "electric_scooter", "fusion_lat": 0.0, "is_disabled": 0, "rental_uris": {"ios": "https://dc.lft.to/lastmile_qr_scan", "android": "https://dc.lft.to/lastmile_qr_scan"}, "bike_id": "1678098a2933aa6d2ccf79946132a38d", "lat": 38.92461733333333, "name": "1678098a2933aa6d2ccf79946132a38d", "lon": -77.03966783333334, "fusion_lon": 0.0}, {"is_reserved": 0, "type": "electric_scooter", "fusion_lat": 0.0, "is_disabled": 0, "rental_uris": {"ios": "https://dc.lft.to/lastmile_qr_scan", "android": "https://dc.lft.to/lastmile_qr_scan"}, "bike_id": "c8dcd0a55ea9bf7e0e202a874c273234", "lat": 38.93714383333333, "name": "c8dcd0a55ea9bf7e0e202a874c273234", "lon": -77.03628866666666, "fusion_lon": 0.0}, {"is_reserved": 0, "type": "electric_scooter", "fusion_lat": 0.0, "is_disabled": 0, "rental_uris": {"ios": "https://dc.lft.to/lastmile_qr_scan", "android": "https://dc.lft.to/lastmile_qr_scan"}, "bike_id": "15c5b77ab4b3dee9c8778fd249098681", "lat": 38.89867433333333, "name": "15c5b77ab4b3dee9c8778fd249098681", "lon": -77.02381616666666, "fusion_lon": 0.0}, {"is_reserved": 0, "type": "electric_scooter", "fusion_lat": 0.0, "is_disabled": 0, "rental_uris": {"ios": "https://dc.lft.to/lastmile_qr_scan", "android": "https://dc.lft.to/lastmile_qr_scan"}, "bike_id": "8eff40fe76bb4acf5ac6ffb70e28fef4", "lat": 38.87830316666667, "name": "8eff40fe76bb4acf5ac6ffb70e28fef4", "lon": -77.00887866666666, "fusion_lon": 0.0}, {"is_reserved": 0, "type": "electric_scooter", "fusion_lat": 0.0, "is_disabled": 0, "rental_uris": {"ios": "https://dc.lft.to/lastmile_qr_scan", "android": "https://dc.lft.to/lastmile_qr_scan"}, "bike_id": "e368d1f479dce160cf6f4bda1d6a71ea", "lat": 38.90030316666667, "name": "e368d1f479dce160cf6f4bda1d6a71ea", "lon": -76.9919035, "fusion_lon": 0.0}, {"is_reserved": 0, "type": "electric_scooter", "fusion_lat": 0.0, "is_disabled": 0, "rental_uris": {"ios": "https://dc.lft.to/lastmile_qr_scan", "android": "https://dc.lft.to/lastmile_qr_scan"}, "bike_id": "10f290a9e0f536e7229532e5dab47d73", "lat": 38.90179066666666, "name": "10f290a9e0f536e7229532e5dab47d73", "lon": -76.92946733333333, "fusion_lon": 0.0}, {"is_reserved": 0, "type": "electric_scooter", "fusion_lat": 0.0, "is_disabled": 0, "rental_uris": {"ios": "https://dc.lft.to/lastmile_qr_scan", "android": "https://dc.lft.to/lastmile_qr_scan"}, "bike_id": "567801f8530ba3b3772f6ba1e2300afc", "lat": 38.903824666666665, "name": "567801f8530ba3b3772f6ba1e2300afc", "lon": -77.03829783333333, "fusion_lon": 0.0}, {"is_reserved": 0, "type": "electric_scooter", "fusion_lat": 0.0, "is_disabled": 0, "rental_uris": {"ios": "https://dc.lft.to/lastmile_qr_scan", "android": "https://dc.lft.to/lastmile_qr_scan"}, "bike_id": "daf634e437e50ee85e157683df502800", "lat": 38.896156500000004, "name": "daf634e437e50ee85e157683df502800", "lon": -77.01088816666666, "fusion_lon": 0.0}, {"is_reserved": 0, "type": "electric_scooter", "fusion_lat": 0.0, "is_disabled": 0, "rental_uris": {"ios": "https://dc.lft.to/lastmile_qr_scan", "android": "https://dc.lft.to/lastmile_qr_scan"}, "bike_id": "aef957e55203d54e3f47c1b69732b3cd", "lat": 38.88718516666667, "name": "aef957e55203d54e3f47c1b69732b3cd", "lon": -76.9960745, "fusion_lon": 0.0}, {"is_reserved": 0, "type": "electric_scooter", "fusion_lat": 0.0, "is_disabled": 0, "rental_uris": {"ios": "https://dc.lft.to/lastmile_qr_scan", "android": "https://dc.lft.to/lastmile_qr_scan"}, "bike_id": "4527dd0601b37b1ab0f5cc8ff1864270", "lat": 38.88268733333334, "name": "4527dd0601b37b1ab0f5cc8ff1864270", "lon": -76.99527683333334, "fusion_lon": 0.0}, {"is_reserved": 0, "type": "electric_scooter", "fusion_lat": 0.0, "is_disabled": 0, "rental_uris": {"ios": "https://dc.lft.to/lastmile_qr_scan", "android": "https://dc.lft.to/lastmile_qr_scan"}, "bike_id": "39fff3d7a3a28486965fbadddac8c627", "lat": 38.9287895, "name": "39fff3d7a3a28486965fbadddac8c627", "lon": -77.03346733333333, "fusion_lon": 0.0}, {"is_reserved": 0, "type": "electric_scooter", "fusion_lat": 0.0, "is_disabled": 0, "rental_uris": {"ios": "https://dc.lft.to/lastmile_qr_scan", "android": "https://dc.lft.to/lastmile_qr_scan"}, "bike_id": "b7a802652d670f800a0be421b876909d", "lat": 38.8971595, "name": "b7a802652d670f800a0be421b876909d", "lon": -77.01310683333334, "fusion_lon": 0.0}, {"is_reserved": 0, "type": "electric_scooter", "fusion_lat": 0.0, "is_disabled": 0, "rental_uris": {"ios": "https://dc.lft.to/lastmile_qr_scan", "android": "https://dc.lft.to/lastmile_qr_scan"}, "bike_id": "d03b2b5a3be668494c2b37b7622189c6", "lat": 38.931152166666664, "name": "d03b2b5a3be668494c2b37b7622189c6", "lon": -77.018502, "fusion_lon": 0.0}, {"is_reserved": 0, "type": "electric_scooter", "fusion_lat": 0.0, "is_disabled": 0, "rental_uris": {"ios": "https://dc.lft.to/lastmile_qr_scan", "android": "https://dc.lft.to/lastmile_qr_scan"}, "bike_id": "4f39a5434e52a9785cb3283de91186d4", "lat": 38.9011355, "name": "4f39a5434e52a9785cb3283de91186d4", "lon": -77.01761466666666, "fusion_lon": 0.0}, {"is_reserved": 0, "type": "electric_scooter", "fusion_lat": 0.0, "is_disabled": 0, "rental_uris": {"ios": "https://dc.lft.to/lastmile_qr_scan", "android": "https://dc.lft.to/lastmile_qr_scan"}, "bike_id": "c5e0c251a98583c3927b21f33550d11f", "lat": 38.91632716666667, "name": "c5e0c251a98583c3927b21f33550d11f", "lon": -77.033577, "fusion_lon": 0.0}, {"is_reserved": 0, "type": "electric_scooter", "fusion_lat": 0.0, "is_disabled": 0, "rental_uris": {"ios": "https://dc.lft.to/lastmile_qr_scan", "android": "https://dc.lft.to/lastmile_qr_scan"}, "bike_id": "6c2c422c0ac38d4ef4991ab7f0ec79ba", "lat": 38.9154235, "name": "6c2c422c0ac38d4ef4991ab7f0ec79ba", "lon": -77.0442365, "fusion_lon": 0.0}, {"is_reserved": 0, "type": "electric_scooter", "fusion_lat": 0.0, "is_disabled": 0, "rental_uris": {"ios": "https://dc.lft.to/lastmile_qr_scan", "android": "https://dc.lft.to/lastmile_qr_scan"}, "bike_id": "64a88cbf3d552125c0691ac6200ac66f", "lat": 38.9245345, "name": "64a88cbf3d552125c0691ac6200ac66f", "lon": -77.0203925, "fusion_lon": 0.0}, {"is_reserved": 0, "type": "electric_scooter", "fusion_lat": 0.0, "is_disabled": 0, "rental_uris": {"ios": "https://dc.lft.to/lastmile_qr_scan", "android": "https://dc.lft.to/lastmile_qr_scan"}, "bike_id": "ceb8470dff37b175c939dc2fe33c78ca", "lat": 38.93229783333334, "name": "ceb8470dff37b175c939dc2fe33c78ca", "lon": -77.02967516666666, "fusion_lon": 0.0}, {"is_reserved": 0, "type": "electric_bike", "fusion_lat": 0.0, "is_disabled": 0, "rental_uris": {"ios": "https://dc.lft.to/lastmile_qr_scan", "android": "https://dc.lft.to/lastmile_qr_scan"}, "bike_id": "339f3605dcbdfb7598a1547ae0bb962b", "lat": 38.819405833333334, "name": "339f3605dcbdfb7598a1547ae0bb962b", "lon": -77.00205633333333, "fusion_lon": 0.0}, {"is_reserved": 0, "type": "electric_scooter", "fusion_lat": 0.0, "is_disabled": 0, "rental_uris": {"ios": "https://dc.lft.to/lastmile_qr_scan", "android": "https://dc.lft.to/lastmile_qr_scan"}, "bike_id": "f876e1b879771296c5d85838207041a7", "lat": 38.899067, "name": "f876e1b879771296c5d85838207041a7", "lon": -77.00749266666666, "fusion_lon": 0.0}, {"is_reserved": 0, "type": "electric_bike", "fusion_lat": 0.0, "is_disabled": 0, "rental_uris": {"ios": "https://dc.lft.to/lastmile_qr_scan", "android": "https://dc.lft.to/lastmile_qr_scan"}, "bike_id": "cfeb29a99eee7839009c84a00e489ce0", "lat": 38.873903, "name": "cfeb29a99eee7839009c84a00e489ce0", "lon": -77.00581983333333, "fusion_lon": 0.0}, {"is_reserved": 0, "type": "electric_scooter", "fusion_lat": 0.0, "is_disabled": 0, "rental_uris": {"ios": "https://dc.lft.to/lastmile_qr_scan", "android": "https://dc.lft.to/lastmile_qr_scan"}, "bike_id": "6657b721764e42c8b9e0e310124964cb", "lat": 38.913134166666666, "name": "6657b721764e42c8b9e0e310124964cb", "lon": -77.02858866666666, "fusion_lon": 0.0}, {"is_reserved": 0, "type": "electric_scooter", "fusion_lat": 0.0, "is_disabled": 0, "rental_uris": {"ios": "https://dc.lft.to/lastmile_qr_scan", "android": "https://dc.lft.to/lastmile_qr_scan"}, "bike_id": "167782a51b1c8677935dfaec906921ee", "lat": 38.92711883333333, "name": "167782a51b1c8677935dfaec906921ee", "lon": -77.05992833333333, "fusion_lon": 0.0}, {"is_reserved": 0, "type": "electric_scooter", "fusion_lat": 0.0, "is_disabled": 0, "rental_uris": {"ios": "https://dc.lft.to/lastmile_qr_scan", "android": "https://dc.lft.to/lastmile_qr_scan"}, "bike_id": "ddc0bb67ad8c10dacaa4bc03330f23e7", "lat": 38.875186166666666, "name": "ddc0bb67ad8c10dacaa4bc03330f23e7", "lon": -77.00469316666667, "fusion_lon": 0.0}, {"is_reserved": 0, "type": "electric_bike", "fusion_lat": 0.0, "is_disabled": 0, "rental_uris": {"ios": "https://dc.lft.to/lastmile_qr_scan", "android": "https://dc.lft.to/lastmile_qr_scan"}, "bike_id": "57fa777927d3231d58fc303a90609dd2", "lat": 38.857823833333335, "name": "57fa777927d3231d58fc303a90609dd2", "lon": -76.987543, "fusion_lon": 0.0}, {"is_reserved": 0, "type": "electric_bike", "fusion_lat": 0.0, "is_disabled": 0, "rental_uris": {"ios": "https://dc.lft.to/lastmile_qr_scan", "android": "https://dc.lft.to/lastmile_qr_scan"}, "bike_id": "5cae4fd441e1b64c008381628dfd97c3", "lat": 39.026238166666666, "name": "5cae4fd441e1b64c008381628dfd97c3", "lon": -77.0388195, "fusion_lon": 0.0}, {"is_reserved": 0, "type": "electric_bike", "fusion_lat": 0.0, "is_disabled": 0, "rental_uris": {"ios": "https://dc.lft.to/lastmile_qr_scan", "android": "https://dc.lft.to/lastmile_qr_scan"}, "bike_id": "b9175555d20f0f79da750b535504152f", "lat": 38.956359666666664, "name": "b9175555d20f0f79da750b535504152f", "lon": -76.93870716666666, "fusion_lon": 0.0}, {"is_reserved": 0, "type": "electric_scooter", "fusion_lat": 0.0, "is_disabled": 0, "rental_uris": {"ios": "https://dc.lft.to/lastmile_qr_scan", "android": "https://dc.lft.to/lastmile_qr_scan"}, "bike_id": "ba80a72dbab78422b761fc899e082a7d", "lat": 38.922569, "name": "ba80a72dbab78422b761fc899e082a7d", "lon": -77.0425545, "fusion_lon": 0.0}, {"is_reserved": 0, "type": "electric_scooter", "fusion_lat": 0.0, "is_disabled": 0, "rental_uris": {"ios": "https://dc.lft.to/lastmile_qr_scan", "android": "https://dc.lft.to/lastmile_qr_scan"}, "bike_id": "00f8d001e21265744601b08433cbe820", "lat": 38.846463666666665, "name": "00f8d001e21265744601b08433cbe820", "lon": -77.00369116666667, "fusion_lon": 0.0}, {"is_reserved": 0, "type": "electric_scooter", "fusion_lat": 0.0, "is_disabled": 0, "rental_uris": {"ios": "https://dc.lft.to/lastmile_qr_scan", "android": "https://dc.lft.to/lastmile_qr_scan"}, "bike_id": "4d5e1b5082326c972ce009e83efd233b", "lat": 38.92335166666667, "name": "4d5e1b5082326c972ce009e83efd233b", "lon": -77.04460166666667, "fusion_lon": 0.0}, {"is_reserved": 0, "type": "electric_scooter", "fusion_lat": 0.0, "is_disabled": 0, "rental_uris": {"ios": "https://dc.lft.to/lastmile_qr_scan", "android": "https://dc.lft.to/lastmile_qr_scan"}, "bike_id": "37a5538924b7381ef2954924fdcd772f", "lat": 38.920534833333335, "name": "37a5538924b7381ef2954924fdcd772f", "lon": -77.04046816666667, "fusion_lon": 0.0}, {"is_reserved": 0, "type": "electric_scooter", "fusion_lat": 0.0, "is_disabled": 0, "rental_uris": {"ios": "https://dc.lft.to/lastmile_qr_scan", "android": "https://dc.lft.to/lastmile_qr_scan"}, "bike_id": "bf74ebb1ebc63830bf15a40dc45b1b26", "lat": 38.9068565, "name": "bf74ebb1ebc63830bf15a40dc45b1b26", "lon": -77.01013166666667, "fusion_lon": 0.0}, {"is_reserved": 0, "type": "electric_scooter", "fusion_lat": 0.0, "is_disabled": 0, "rental_uris": {"ios": "https://dc.lft.to/lastmile_qr_scan", "android": "https://dc.lft.to/lastmile_qr_scan"}, "bike_id": "8ae8d757eeb6d4b88a26bb97ee3b58e2", "lat": 38.89683216666667, "name": "8ae8d757eeb6d4b88a26bb97ee3b58e2", "lon": -77.03211416666667, "fusion_lon": 0.0}, {"is_reserved": 0, "type": "electric_scooter", "fusion_lat": 0.0, "is_disabled": 0, "rental_uris": {"ios": "https://dc.lft.to/lastmile_qr_scan", "android": "https://dc.lft.to/lastmile_qr_scan"}, "bike_id": "56a054487c29e35ebe4a0f54ae2163e6", "lat": 38.887134, "name": "56a054487c29e35ebe4a0f54ae2163e6", "lon": -76.98382983333333, "fusion_lon": 0.0}, {"is_reserved": 0, "type": "electric_scooter", "fusion_lat": 0.0, "is_disabled": 0, "rental_uris": {"ios": "https://dc.lft.to/lastmile_qr_scan", "android": "https://dc.lft.to/lastmile_qr_scan"}, "bike_id": "e6386b69ae46083f2dc25fdd82f99d56", "lat": 38.92550633333333, "name": "e6386b69ae46083f2dc25fdd82f99d56", "lon": -77.00324433333333, "fusion_lon": 0.0}, {"is_reserved": 0, "type": "electric_scooter", "fusion_lat": 0.0, "is_disabled": 0, "rental_uris": {"ios": "https://dc.lft.to/lastmile_qr_scan", "android": "https://dc.lft.to/lastmile_qr_scan"}, "bike_id": "18cbb08585322ddb9f9fbc6f65e1cf4b", "lat": 38.91555116666667, "name": "18cbb08585322ddb9f9fbc6f65e1cf4b", "lon": -77.03328833333333, "fusion_lon": 0.0}, {"is_reserved": 0, "type": "electric_scooter", "fusion_lat": 0.0, "is_disabled": 0, "rental_uris": {"ios": "https://dc.lft.to/lastmile_qr_scan", "android": "https://dc.lft.to/lastmile_qr_scan"}, "bike_id": "80a985b3dc9803c91a18c46bc4246508", "lat": 38.90780483333333, "name": "80a985b3dc9803c91a18c46bc4246508", "lon": -77.07246366666666, "fusion_lon": 0.0}, {"is_reserved": 0, "type": "electric_scooter", "fusion_lat": 0.0, "is_disabled": 0, "rental_uris": {"ios": "https://dc.lft.to/lastmile_qr_scan", "android": "https://dc.lft.to/lastmile_qr_scan"}, "bike_id": "1b4c460ed11cdba57bc6a4b5c1d860f7", "lat": 38.93006666666667, "name": "1b4c460ed11cdba57bc6a4b5c1d860f7", "lon": -77.037818, "fusion_lon": 0.0}, {"is_reserved": 0, "type": "electric_scooter", "fusion_lat": 0.0, "is_disabled": 0, "rental_uris": {"ios": "https://dc.lft.to/lastmile_qr_scan", "android": "https://dc.lft.to/lastmile_qr_scan"}, "bike_id": "1189ec7e84735e4b0f82d4707ce4a8d8", "lat": 38.90226116666667, "name": "1189ec7e84735e4b0f82d4707ce4a8d8", "lon": -77.04598083333333, "fusion_lon": 0.0}, {"is_reserved": 0, "type": "electric_scooter", "fusion_lat": 0.0, "is_disabled": 0, "rental_uris": {"ios": "https://dc.lft.to/lastmile_qr_scan", "android": "https://dc.lft.to/lastmile_qr_scan"}, "bike_id": "c189aa46af6a268a24cda875b2c6a73e", "lat": 38.91413883333333, "name": "c189aa46af6a268a24cda875b2c6a73e", "lon": -77.03992366666667, "fusion_lon": 0.0}, {"is_reserved": 0, "type": "electric_scooter", "fusion_lat": 0.0, "is_disabled": 0, "rental_uris": {"ios": "https://dc.lft.to/lastmile_qr_scan", "android": "https://dc.lft.to/lastmile_qr_scan"}, "bike_id": "67b52a255d89c36311ff4d4e6a6a5314", "lat": 38.90044483333333, "name": "67b52a255d89c36311ff4d4e6a6a5314", "lon": -77.01228983333333, "fusion_lon": 0.0}, {"is_reserved": 0, "type": "electric_scooter", "fusion_lat": 0.0, "is_disabled": 0, "rental_uris": {"ios": "https://dc.lft.to/lastmile_qr_scan", "android": "https://dc.lft.to/lastmile_qr_scan"}, "bike_id": "b95da1990b0345aa949f9dc2fc6ac608", "lat": 38.91373983333333, "name": "b95da1990b0345aa949f9dc2fc6ac608", "lon": -77.0384985, "fusion_lon": 0.0}, {"is_reserved": 0, "type": "electric_scooter", "fusion_lat": 0.0, "is_disabled": 0, "rental_uris": {"ios": "https://dc.lft.to/lastmile_qr_scan", "android": "https://dc.lft.to/lastmile_qr_scan"}, "bike_id": "8323eec2a3d6ce2f53576aea728e9c92", "lat": 38.912195833333335, "name": "8323eec2a3d6ce2f53576aea728e9c92", "lon": -77.03188583333333, "fusion_lon": 0.0}, {"is_reserved": 0, "type": "electric_scooter", "fusion_lat": 0.0, "is_disabled": 0, "rental_uris": {"ios": "https://dc.lft.to/lastmile_qr_scan", "android": "https://dc.lft.to/lastmile_qr_scan"}, "bike_id": "49970cd1cc4f022fb1a038eb900f8eff", "lat": 38.902395166666665, "name": "49970cd1cc4f022fb1a038eb900f8eff", "lon": -77.05173266666667, "fusion_lon": 0.0}, {"is_reserved": 0, "type": "electric_scooter", "fusion_lat": 0.0, "is_disabled": 0, "rental_uris": {"ios": "https://dc.lft.to/lastmile_qr_scan", "android": "https://dc.lft.to/lastmile_qr_scan"}, "bike_id": "a05bc50ce8699def286a9efaf025be65", "lat": 38.92068416666667, "name": "a05bc50ce8699def286a9efaf025be65", "lon": -77.04190033333333, "fusion_lon": 0.0}, {"is_reserved": 0, "type": "electric_scooter", "fusion_lat": 0.0, "is_disabled": 0, "rental_uris": {"ios": "https://dc.lft.to/lastmile_qr_scan", "android": "https://dc.lft.to/lastmile_qr_scan"}, "bike_id": "82d85cc6423b4ef5534bc6fc6ef81e1a", "lat": 38.92046533333333, "name": "82d85cc6423b4ef5534bc6fc6ef81e1a", "lon": -77.02222166666667, "fusion_lon": 0.0}, {"is_reserved": 0, "type": "electric_scooter", "fusion_lat": 0.0, "is_disabled": 0, "rental_uris": {"ios": "https://dc.lft.to/lastmile_qr_scan", "android": "https://dc.lft.to/lastmile_qr_scan"}, "bike_id": "0c5cf8fee6e30d962469a636d27f1084", "lat": 38.907522, "name": "0c5cf8fee6e30d962469a636d27f1084", "lon": -77.04555866666666, "fusion_lon": 0.0}, {"is_reserved": 0, "type": "electric_scooter", "fusion_lat": 0.0, "is_disabled": 0, "rental_uris": {"ios": "https://dc.lft.to/lastmile_qr_scan", "android": "https://dc.lft.to/lastmile_qr_scan"}, "bike_id": "3c4880861a5f4f727d04822ea8faa94f", "lat": 38.90485533333333, "name": "3c4880861a5f4f727d04822ea8faa94f", "lon": -76.94960983333333, "fusion_lon": 0.0}, {"is_reserved": 0, "type": "electric_scooter", "fusion_lat": 0.0, "is_disabled": 0, "rental_uris": {"ios": "https://dc.lft.to/lastmile_qr_scan", "android": "https://dc.lft.to/lastmile_qr_scan"}, "bike_id": "912c719b203c836cf5d05a11294f7b47", "lat": 38.8936145, "name": "912c719b203c836cf5d05a11294f7b47", "lon": -76.98563583333333, "fusion_lon": 0.0}, {"is_reserved": 0, "type": "electric_scooter", "fusion_lat": 0.0, "is_disabled": 0, "rental_uris": {"ios": "https://dc.lft.to/lastmile_qr_scan", "android": "https://dc.lft.to/lastmile_qr_scan"}, "bike_id": "46c3c61b6d0829cddedcaf7a0a4f57e9", "lat": 38.97366816666667, "name": "46c3c61b6d0829cddedcaf7a0a4f57e9", "lon": -77.01851333333333, "fusion_lon": 0.0}, {"is_reserved": 0, "type": "electric_scooter", "fusion_lat": 0.0, "is_disabled": 0, "rental_uris": {"ios": "https://dc.lft.to/lastmile_qr_scan", "android": "https://dc.lft.to/lastmile_qr_scan"}, "bike_id": "28a4e8facd3495411c7f6801c7c55c6f", "lat": 38.91119883333333, "name": "28a4e8facd3495411c7f6801c7c55c6f", "lon": -77.03220716666667, "fusion_lon": 0.0}, {"is_reserved": 0, "type": "electric_bike", "fusion_lat": 0.0, "is_disabled": 0, "rental_uris": {"ios": "https://dc.lft.to/lastmile_qr_scan", "android": "https://dc.lft.to/lastmile_qr_scan"}, "bike_id": "84b9b85ccfe969213684130651931f92", "lat": 38.95015083333333, "name": "84b9b85ccfe969213684130651931f92", "lon": -77.0142545, "fusion_lon": 0.0}, {"is_reserved": 0, "type": "electric_bike", "fusion_lat": 0.0, "is_disabled": 0, "rental_uris": {"ios": "https://dc.lft.to/lastmile_qr_scan", "android": "https://dc.lft.to/lastmile_qr_scan"}, "bike_id": "ef863064f4f19148caad057f443cfa21", "lat": 38.933895, "name": "ef863064f4f19148caad057f443cfa21", "lon": -77.02387366666666, "fusion_lon": 0.0}, {"is_reserved": 0, "type": "electric_scooter", "fusion_lat": 0.0, "is_disabled": 0, "rental_uris": {"ios": "https://dc.lft.to/lastmile_qr_scan", "android": "https://dc.lft.to/lastmile_qr_scan"}, "bike_id": "a91d3394bde8719855614418a99b0a60", "lat": 38.881565333333334, "name": "a91d3394bde8719855614418a99b0a60", "lon": -77.02754316666666, "fusion_lon": 0.0}, {"is_reserved": 0, "type": "electric_scooter", "fusion_lat": 0.0, "is_disabled": 0, "rental_uris": {"ios": "https://dc.lft.to/lastmile_qr_scan", "android": "https://dc.lft.to/lastmile_qr_scan"}, "bike_id": "6484f7e5feffe3a201eb8b794079b86d", "lat": 38.920488, "name": "6484f7e5feffe3a201eb8b794079b86d", "lon": -77.04184633333334, "fusion_lon": 0.0}, {"is_reserved": 0, "type": "electric_scooter", "fusion_lat": 0.0, "is_disabled": 0, "rental_uris": {"ios": "https://dc.lft.to/lastmile_qr_scan", "android": "https://dc.lft.to/lastmile_qr_scan"}, "bike_id": "bbbe890b8f3f1fa8cf850d7a05c57814", "lat": 38.90040883333333, "name": "bbbe890b8f3f1fa8cf850d7a05c57814", "lon": -77.01741333333334, "fusion_lon": 0.0}, {"is_reserved": 0, "type": "electric_scooter", "fusion_lat": 0.0, "is_disabled": 0, "rental_uris": {"ios": "https://dc.lft.to/lastmile_qr_scan", "android": "https://dc.lft.to/lastmile_qr_scan"}, "bike_id": "f30e4d9304c12e76840f35727e283afa", "lat": 38.92432083333333, "name": "f30e4d9304c12e76840f35727e283afa", "lon": -77.05213816666667, "fusion_lon": 0.0}, {"is_reserved": 0, "type": "electric_scooter", "fusion_lat": 0.0, "is_disabled": 0, "rental_uris": {"ios": "https://dc.lft.to/lastmile_qr_scan", "android": "https://dc.lft.to/lastmile_qr_scan"}, "bike_id": "27a6848a0975b081371bd7d993ac3f50", "lat": 38.903735166666664, "name": "27a6848a0975b081371bd7d993ac3f50", "lon": -77.03982616666667, "fusion_lon": 0.0}, {"is_reserved": 0, "type": "electric_scooter", "fusion_lat": 0.0, "is_disabled": 0, "rental_uris": {"ios": "https://dc.lft.to/lastmile_qr_scan", "android": "https://dc.lft.to/lastmile_qr_scan"}, "bike_id": "cfb7a97a62109f6dff4c2d67d0fd9502", "lat": 38.9357285, "name": "cfb7a97a62109f6dff4c2d67d0fd9502", "lon": -77.07333716666666, "fusion_lon": 0.0}, {"is_reserved": 0, "type": "electric_scooter", "fusion_lat": 0.0, "is_disabled": 0, "rental_uris": {"ios": "https://dc.lft.to/lastmile_qr_scan", "android": "https://dc.lft.to/lastmile_qr_scan"}, "bike_id": "c26965db39dffcc1d8b08c744a9b6f66", "lat": 38.90513933333333, "name": "c26965db39dffcc1d8b08c744a9b6f66", "lon": -77.01712366666666, "fusion_lon": 0.0}, {"is_reserved": 0, "type": "electric_scooter", "fusion_lat": 0.0, "is_disabled": 0, "rental_uris": {"ios": "https://dc.lft.to/lastmile_qr_scan", "android": "https://dc.lft.to/lastmile_qr_scan"}, "bike_id": "0b3657bd222333b85d5679bd0b695aa7", "lat": 38.88004766666667, "name": "0b3657bd222333b85d5679bd0b695aa7", "lon": -76.99832366666666, "fusion_lon": 0.0}, {"is_reserved": 0, "type": "electric_bike", "fusion_lat": 0.0, "is_disabled": 0, "rental_uris": {"ios": "https://dc.lft.to/lastmile_qr_scan", "android": "https://dc.lft.to/lastmile_qr_scan"}, "bike_id": "504ac23638d5f6138bd9861b8764e842", "lat": 39.006488, "name": "504ac23638d5f6138bd9861b8764e842", "lon": -76.90023216666667, "fusion_lon": 0.0}, {"is_reserved": 0, "type": "electric_scooter", "fusion_lat": 0.0, "is_disabled": 0, "rental_uris": {"ios": "https://dc.lft.to/lastmile_qr_scan", "android": "https://dc.lft.to/lastmile_qr_scan"}, "bike_id": "cf8876d407ccb97323c5c69bdf9ead2d", "lat": 38.88302616666667, "name": "cf8876d407ccb97323c5c69bdf9ead2d", "lon": -76.93483416666666, "fusion_lon": 0.0}, {"is_reserved": 0, "type": "electric_scooter", "fusion_lat": 0.0, "is_disabled": 0, "rental_uris": {"ios": "https://dc.lft.to/lastmile_qr_scan", "android": "https://dc.lft.to/lastmile_qr_scan"}, "bike_id": "aebf65d107a4ba9d2b07894fd676572d", "lat": 38.9242455, "name": "aebf65d107a4ba9d2b07894fd676572d", "lon": -77.04482266666666, "fusion_lon": 0.0}, {"is_reserved": 0, "type": "electric_bike", "fusion_lat": 0.0, "is_disabled": 0, "rental_uris": {"ios": "https://dc.lft.to/lastmile_qr_scan", "android": "https://dc.lft.to/lastmile_qr_scan"}, "bike_id": "c45fe279110b0327c34c1cb38e221142", "lat": 38.917114, "name": "c45fe279110b0327c34c1cb38e221142", "lon": -77.02719216666667, "fusion_lon": 0.0}, {"is_reserved": 0, "type": "electric_scooter", "fusion_lat": 0.0, "is_disabled": 0, "rental_uris": {"ios": "https://dc.lft.to/lastmile_qr_scan", "android": "https://dc.lft.to/lastmile_qr_scan"}, "bike_id": "504fc501f5965199ff1f3910604c217d", "lat": 38.924108333333336, "name": "504fc501f5965199ff1f3910604c217d", "lon": -77.02009516666666, "fusion_lon": 0.0}, {"is_reserved": 0, "type": "electric_scooter", "fusion_lat": 0.0, "is_disabled": 0, "rental_uris": {"ios": "https://dc.lft.to/lastmile_qr_scan", "android": "https://dc.lft.to/lastmile_qr_scan"}, "bike_id": "036439b579ba917f83431969e041aaf8", "lat": 38.908348, "name": "036439b579ba917f83431969e041aaf8", "lon": -76.93472916666667, "fusion_lon": 0.0}, {"is_reserved": 0, "type": "electric_scooter", "fusion_lat": 0.0, "is_disabled": 0, "rental_uris": {"ios": "https://dc.lft.to/lastmile_qr_scan", "android": "https://dc.lft.to/lastmile_qr_scan"}, "bike_id": "1740130a8f0f3bab3d741eeab68bd2ea", "lat": 38.910455166666665, "name": "1740130a8f0f3bab3d741eeab68bd2ea", "lon": -76.998066, "fusion_lon": 0.0}, {"is_reserved": 0, "type": "electric_scooter", "fusion_lat": 0.0, "is_disabled": 0, "rental_uris": {"ios": "https://dc.lft.to/lastmile_qr_scan", "android": "https://dc.lft.to/lastmile_qr_scan"}, "bike_id": "d694b4757f8516c16764d08e3c506e41", "lat": 38.8814055, "name": "d694b4757f8516c16764d08e3c506e41", "lon": -76.99506766666667, "fusion_lon": 0.0}, {"is_reserved": 0, "type": "electric_scooter", "fusion_lat": 0.0, "is_disabled": 0, "rental_uris": {"ios": "https://dc.lft.to/lastmile_qr_scan", "android": "https://dc.lft.to/lastmile_qr_scan"}, "bike_id": "b1606118c86f8395bb12895b500c0687", "lat": 38.92423483333334, "name": "b1606118c86f8395bb12895b500c0687", "lon": -77.01949316666666, "fusion_lon": 0.0}, {"is_reserved": 0, "type": "electric_bike", "fusion_lat": 0.0, "is_disabled": 0, "rental_uris": {"ios": "https://dc.lft.to/lastmile_qr_scan", "android": "https://dc.lft.to/lastmile_qr_scan"}, "bike_id": "165ea39965762991f2ed31faf2282dc7", "lat": 38.8524625, "name": "165ea39965762991f2ed31faf2282dc7", "lon": -77.11409066666667, "fusion_lon": 0.0}, {"is_reserved": 0, "type": "electric_scooter", "fusion_lat": 0.0, "is_disabled": 0, "rental_uris": {"ios": "https://dc.lft.to/lastmile_qr_scan", "android": "https://dc.lft.to/lastmile_qr_scan"}, "bike_id": "8f41d45acb98ad9e4d55162e51a0ee4a", "lat": 38.9032825, "name": "8f41d45acb98ad9e4d55162e51a0ee4a", "lon": -77.033157, "fusion_lon": 0.0}, {"is_reserved": 0, "type": "electric_scooter", "fusion_lat": 0.0, "is_disabled": 0, "rental_uris": {"ios": "https://dc.lft.to/lastmile_qr_scan", "android": "https://dc.lft.to/lastmile_qr_scan"}, "bike_id": "d85d52f651ea07838f179ec8400e38da", "lat": 38.8872355, "name": "d85d52f651ea07838f179ec8400e38da", "lon": -76.99610133333333, "fusion_lon": 0.0}, {"is_reserved": 0, "type": "electric_scooter", "fusion_lat": 0.0, "is_disabled": 0, "rental_uris": {"ios": "https://dc.lft.to/lastmile_qr_scan", "android": "https://dc.lft.to/lastmile_qr_scan"}, "bike_id": "63184ccc33e232bb28d387d69015e6f7", "lat": 38.87639766666667, "name": "63184ccc33e232bb28d387d69015e6f7", "lon": -77.00584116666667, "fusion_lon": 0.0}, {"is_reserved": 0, "type": "electric_scooter", "fusion_lat": 0.0, "is_disabled": 0, "rental_uris": {"ios": "https://dc.lft.to/lastmile_qr_scan", "android": "https://dc.lft.to/lastmile_qr_scan"}, "bike_id": "3d047ad77a56f9484f6ee39a5f9f8426", "lat": 38.91698183333333, "name": "3d047ad77a56f9484f6ee39a5f9f8426", "lon": -77.04047433333334, "fusion_lon": 0.0}, {"is_reserved": 0, "type": "electric_scooter", "fusion_lat": 0.0, "is_disabled": 0, "rental_uris": {"ios": "https://dc.lft.to/lastmile_qr_scan", "android": "https://dc.lft.to/lastmile_qr_scan"}, "bike_id": "a463af40b9b07619738b6e230cf947f4", "lat": 38.87649583333334, "name": "a463af40b9b07619738b6e230cf947f4", "lon": -77.00745183333333, "fusion_lon": 0.0}, {"is_reserved": 0, "type": "electric_scooter", "fusion_lat": 0.0, "is_disabled": 0, "rental_uris": {"ios": "https://dc.lft.to/lastmile_qr_scan", "android": "https://dc.lft.to/lastmile_qr_scan"}, "bike_id": "61bf7e7e57b977521c157a427834c22c", "lat": 38.9186535, "name": "61bf7e7e57b977521c157a427834c22c", "lon": -77.03562216666667, "fusion_lon": 0.0}, {"is_reserved": 0, "type": "electric_scooter", "fusion_lat": 0.0, "is_disabled": 0, "rental_uris": {"ios": "https://dc.lft.to/lastmile_qr_scan", "android": "https://dc.lft.to/lastmile_qr_scan"}, "bike_id": "aef5ecd9314400b4a71b94f9c80d5a8a", "lat": 38.900237833333335, "name": "aef5ecd9314400b4a71b94f9c80d5a8a", "lon": -76.98749033333333, "fusion_lon": 0.0}, {"is_reserved": 0, "type": "electric_scooter", "fusion_lat": 0.0, "is_disabled": 0, "rental_uris": {"ios": "https://dc.lft.to/lastmile_qr_scan", "android": "https://dc.lft.to/lastmile_qr_scan"}, "bike_id": "cf4332b413ff92c4ea6283b6c51330cc", "lat": 38.935889833333334, "name": "cf4332b413ff92c4ea6283b6c51330cc", "lon": -77.07432783333333, "fusion_lon": 0.0}, {"is_reserved": 0, "type": "electric_scooter", "fusion_lat": 0.0, "is_disabled": 0, "rental_uris": {"ios": "https://dc.lft.to/lastmile_qr_scan", "android": "https://dc.lft.to/lastmile_qr_scan"}, "bike_id": "b2c5faf2e311ff7231d7195d87fd69f1", "lat": 38.9280025, "name": "b2c5faf2e311ff7231d7195d87fd69f1", "lon": -77.0369695, "fusion_lon": 0.0}, {"is_reserved": 0, "type": "electric_scooter", "fusion_lat": 0.0, "is_disabled": 0, "rental_uris": {"ios": "https://dc.lft.to/lastmile_qr_scan", "android": "https://dc.lft.to/lastmile_qr_scan"}, "bike_id": "3b09935db048a3ae1a0be77090599276", "lat": 38.92052183333333, "name": "3b09935db048a3ae1a0be77090599276", "lon": -77.02937466666667, "fusion_lon": 0.0}, {"is_reserved": 0, "type": "electric_scooter", "fusion_lat": 0.0, "is_disabled": 0, "rental_uris": {"ios": "https://dc.lft.to/lastmile_qr_scan", "android": "https://dc.lft.to/lastmile_qr_scan"}, "bike_id": "7a3a942d1bdbd1ee694d91dfde45760a", "lat": 38.913704833333334, "name": "7a3a942d1bdbd1ee694d91dfde45760a", "lon": -77.0205715, "fusion_lon": 0.0}, {"is_reserved": 0, "type": "electric_scooter", "fusion_lat": 0.0, "is_disabled": 0, "rental_uris": {"ios": "https://dc.lft.to/lastmile_qr_scan", "android": "https://dc.lft.to/lastmile_qr_scan"}, "bike_id": "3309e4bc008872e3f8a8743f3b592030", "lat": 38.917371333333335, "name": "3309e4bc008872e3f8a8743f3b592030", "lon": -77.02118066666667, "fusion_lon": 0.0}, {"is_reserved": 0, "type": "electric_bike", "fusion_lat": 0.0, "is_disabled": 0, "rental_uris": {"ios": "https://dc.lft.to/lastmile_qr_scan", "android": "https://dc.lft.to/lastmile_qr_scan"}, "bike_id": "188bdbf8e4ab36ff8ee00ce5adde956e", "lat": 38.88049866666667, "name": "188bdbf8e4ab36ff8ee00ce5adde956e", "lon": -76.9984035, "fusion_lon": 0.0}, {"is_reserved": 0, "type": "electric_scooter", "fusion_lat": 0.0, "is_disabled": 0, "rental_uris": {"ios": "https://dc.lft.to/lastmile_qr_scan", "android": "https://dc.lft.to/lastmile_qr_scan"}, "bike_id": "493afa29ced3f3981e17ff34c4b9cb9f", "lat": 38.91483, "name": "493afa29ced3f3981e17ff34c4b9cb9f", "lon": -77.02170833333334, "fusion_lon": 0.0}, {"is_reserved": 0, "type": "electric_scooter", "fusion_lat": 0.0, "is_disabled": 0, "rental_uris": {"ios": "https://dc.lft.to/lastmile_qr_scan", "android": "https://dc.lft.to/lastmile_qr_scan"}, "bike_id": "51c884ffd0846fcf2d90db57f5525fd4", "lat": 38.89416466666667, "name": "51c884ffd0846fcf2d90db57f5525fd4", "lon": -77.010893, "fusion_lon": 0.0}, {"is_reserved": 0, "type": "electric_scooter", "fusion_lat": 0.0, "is_disabled": 0, "rental_uris": {"ios": "https://dc.lft.to/lastmile_qr_scan", "android": "https://dc.lft.to/lastmile_qr_scan"}, "bike_id": "bf38bc5a9e48edb401982c9ade86f134", "lat": 38.921904, "name": "bf38bc5a9e48edb401982c9ade86f134", "lon": -77.04260866666667, "fusion_lon": 0.0}, {"is_reserved": 0, "type": "electric_scooter", "fusion_lat": 0.0, "is_disabled": 0, "rental_uris": {"ios": "https://dc.lft.to/lastmile_qr_scan", "android": "https://dc.lft.to/lastmile_qr_scan"}, "bike_id": "7d05f75f63f3f2bc4f9da218a9cfd15b", "lat": 38.916743333333336, "name": "7d05f75f63f3f2bc4f9da218a9cfd15b", "lon": -77.03461483333334, "fusion_lon": 0.0}, {"is_reserved": 0, "type": "electric_scooter", "fusion_lat": 0.0, "is_disabled": 0, "rental_uris": {"ios": "https://dc.lft.to/lastmile_qr_scan", "android": "https://dc.lft.to/lastmile_qr_scan"}, "bike_id": "af44e24686c658fe1a8571cf800ae045", "lat": 38.9746515, "name": "af44e24686c658fe1a8571cf800ae045", "lon": -77.01403916666666, "fusion_lon": 0.0}, {"is_reserved": 0, "type": "electric_scooter", "fusion_lat": 0.0, "is_disabled": 0, "rental_uris": {"ios": "https://dc.lft.to/lastmile_qr_scan", "android": "https://dc.lft.to/lastmile_qr_scan"}, "bike_id": "edad537056743ff8cfb8d4c34b7ec472", "lat": 38.89652016666667, "name": "edad537056743ff8cfb8d4c34b7ec472", "lon": -77.02670233333333, "fusion_lon": 0.0}, {"is_reserved": 0, "type": "electric_scooter", "fusion_lat": 0.0, "is_disabled": 0, "rental_uris": {"ios": "https://dc.lft.to/lastmile_qr_scan", "android": "https://dc.lft.to/lastmile_qr_scan"}, "bike_id": "b16ca28f8ddd01f0252c3d312b65cd4b", "lat": 38.88772183333333, "name": "b16ca28f8ddd01f0252c3d312b65cd4b", "lon": -76.932628, "fusion_lon": 0.0}, {"is_reserved": 0, "type": "electric_scooter", "fusion_lat": 0.0, "is_disabled": 0, "rental_uris": {"ios": "https://dc.lft.to/lastmile_qr_scan", "android": "https://dc.lft.to/lastmile_qr_scan"}, "bike_id": "8a325ae77fbee529dbbf60b796420af3", "lat": 38.884374, "name": "8a325ae77fbee529dbbf60b796420af3", "lon": -77.03036966666667, "fusion_lon": 0.0}, {"is_reserved": 0, "type": "electric_scooter", "fusion_lat": 0.0, "is_disabled": 0, "rental_uris": {"ios": "https://dc.lft.to/lastmile_qr_scan", "android": "https://dc.lft.to/lastmile_qr_scan"}, "bike_id": "c70b217047efdbafec5c10b27eb38a2b", "lat": 38.9355545, "name": "c70b217047efdbafec5c10b27eb38a2b", "lon": -77.03257133333334, "fusion_lon": 0.0}, {"is_reserved": 0, "type": "electric_scooter", "fusion_lat": 0.0, "is_disabled": 0, "rental_uris": {"ios": "https://dc.lft.to/lastmile_qr_scan", "android": "https://dc.lft.to/lastmile_qr_scan"}, "bike_id": "f47690ce715ee54cf4290ea6b075f1b4", "lat": 38.95429983333333, "name": "f47690ce715ee54cf4290ea6b075f1b4", "lon": -77.0185085, "fusion_lon": 0.0}, {"is_reserved": 0, "type": "electric_scooter", "fusion_lat": 0.0, "is_disabled": 0, "rental_uris": {"ios": "https://dc.lft.to/lastmile_qr_scan", "android": "https://dc.lft.to/lastmile_qr_scan"}, "bike_id": "3b3adeff7283f50ba806e1b324620c4c", "lat": 38.89309933333333, "name": "3b3adeff7283f50ba806e1b324620c4c", "lon": -77.01499183333334, "fusion_lon": 0.0}, {"is_reserved": 0, "type": "electric_scooter", "fusion_lat": 0.0, "is_disabled": 0, "rental_uris": {"ios": "https://dc.lft.to/lastmile_qr_scan", "android": "https://dc.lft.to/lastmile_qr_scan"}, "bike_id": "e709c90055cae656ad235c8175065353", "lat": 38.92172433333333, "name": "e709c90055cae656ad235c8175065353", "lon": -77.04022066666667, "fusion_lon": 0.0}, {"is_reserved": 0, "type": "electric_bike", "fusion_lat": 0.0, "is_disabled": 0, "rental_uris": {"ios": "https://dc.lft.to/lastmile_qr_scan", "android": "https://dc.lft.to/lastmile_qr_scan"}, "bike_id": "59cf03f8bc485fc132b2825bb085314b", "lat": 38.98886666666667, "name": "59cf03f8bc485fc132b2825bb085314b", "lon": -76.98803566666666, "fusion_lon": 0.0}, {"is_reserved": 0, "type": "electric_scooter", "fusion_lat": 0.0, "is_disabled": 0, "rental_uris": {"ios": "https://dc.lft.to/lastmile_qr_scan", "android": "https://dc.lft.to/lastmile_qr_scan"}, "bike_id": "36161b024646a77938b08d8ae0314f74", "lat": 38.895556666666664, "name": "36161b024646a77938b08d8ae0314f74", "lon": -77.0091035, "fusion_lon": 0.0}, {"is_reserved": 0, "type": "electric_scooter", "fusion_lat": 0.0, "is_disabled": 0, "rental_uris": {"ios": "https://dc.lft.to/lastmile_qr_scan", "android": "https://dc.lft.to/lastmile_qr_scan"}, "bike_id": "6d084b6097d4ec5a14c7b7276be3f746", "lat": 38.93449666666667, "name": "6d084b6097d4ec5a14c7b7276be3f746", "lon": -77.02101533333334, "fusion_lon": 0.0}, {"is_reserved": 0, "type": "electric_scooter", "fusion_lat": 0.0, "is_disabled": 0, "rental_uris": {"ios": "https://dc.lft.to/lastmile_qr_scan", "android": "https://dc.lft.to/lastmile_qr_scan"},