{"data": {"bikes": [{"bike_id": "5903cc80086e6cecaa76610a219b4c0e", "type": "electric_scooter", "is_disabled": 0, "lat": 38.91156516666667, "rental_uris": {"ios": "https://dc.lft.to/lastmile_qr_scan", "android": "https://dc.lft.to/lastmile_qr_scan"}, "is_reserved": 0, "fusion_lon": 0.0, "fusion_lat": 0.0, "lon": -77.04422, "name": "5903cc80086e6cecaa76610a219b4c0e"}, {"bike_id": "41cbdc17bff18d49dd545873206da768", "type": "electric_scooter", "is_disabled": 0, "lat": 38.93213083333333, "rental_uris": {"ios": "https://dc.lft.to/lastmile_qr_scan", "android": "https://dc.lft.to/lastmile_qr_scan"}, "is_reserved": 0, "fusion_lon": 0.0, "fusion_lat": 0.0, "lon": -77.035109, "name": "41cbdc17bff18d49dd545873206da768"}, {"bike_id": "895b7bf076843ab260e208e6d6ccdbb4", "type": "electric_scooter", "is_disabled": 0, "lat": 38.923200333333334, "rental_uris": {"ios": "https://dc.lft.to/lastmile_qr_scan", "android": "https://dc.lft.to/lastmile_qr_scan"}, "is_reserved": 0, "fusion_lon": 0.0, "fusion_lat": 0.0, "lon": -77.02137516666667, "name": "895b7bf076843ab260e208e6d6ccdbb4"}, {"bike_id": "0ad40c9e7b675ff3942dc7e04c231642", "type": "electric_scooter", "is_disabled": 0, "lat": 38.905847, "rental_uris": {"ios": "https://dc.lft.to/lastmile_qr_scan", "android": "https://dc.lft.to/lastmile_qr_scan"}, "is_reserved": 0, "fusion_lon": 0.0, "fusion_lat": 0.0, "lon": -77.00477483333333, "name": "0ad40c9e7b675ff3942dc7e04c231642"}, {"bike_id": "b3e65dd43fdb9acf8771b442427a804f", "type": "electric_scooter", "is_disabled": 0, "lat": 38.90073966666667, "rental_uris": {"ios": "https://dc.lft.to/lastmile_qr_scan", "android": "https://dc.lft.to/lastmile_qr_scan"}, "is_reserved": 0, "fusion_lon": 0.0, "fusion_lat": 0.0, "lon": -77.04684733333333, "name": "b3e65dd43fdb9acf8771b442427a804f"}, {"bike_id": "2c02a88101956b5cb1be7da7336ba1ba", "type": "electric_scooter", "is_disabled": 0, "lat": 38.9499815, "rental_uris": {"ios": "https://dc.lft.to/lastmile_qr_scan", "android": "https://dc.lft.to/lastmile_qr_scan"}, "is_reserved": 0, "fusion_lon": 0.0, "fusion_lat": 0.0, "lon": -77.00871466666666, "name": "2c02a88101956b5cb1be7da7336ba1ba"}, {"bike_id": "6f2b5cd0d7f90b8e23d3163f05f67be0", "type": "electric_bike", "is_disabled": 0, "lat": 38.845244666666666, "rental_uris": {"ios": "https://dc.lft.to/lastmile_qr_scan", "android": "https://dc.lft.to/lastmile_qr_scan"}, "is_reserved": 0, "fusion_lon": 0.0, "fusion_lat": 0.0, "lon": -76.97395633333333, "name": "6f2b5cd0d7f90b8e23d3163f05f67be0"}, {"bike_id": "03feab8a1338261cb4815a9084217aad", "type": "electric_scooter", "is_disabled": 0, "lat": 38.92364533333333, "rental_uris": {"ios": "https://dc.lft.to/lastmile_qr_scan", "android": "https://dc.lft.to/lastmile_qr_scan"}, "is_reserved": 0, "fusion_lon": 0.0, "fusion_lat": 0.0, "lon": -77.05131183333333, "name": "03feab8a1338261cb4815a9084217aad"}, {"bike_id": "cb9fdedef0e5a22d1dd5b24ba2fd5b3d", "type": "electric_scooter", "is_disabled": 0, "lat": 38.93243866666667, "rental_uris": {"ios": "https://dc.lft.to/lastmile_qr_scan", "android": "https://dc.lft.to/lastmile_qr_scan"}, "is_reserved": 0, "fusion_lon": 0.0, "fusion_lat": 0.0, "lon": -77.03639433333333, "name": "cb9fdedef0e5a22d1dd5b24ba2fd5b3d"}, {"bike_id": "f11f7e1b368717b50cdbf90a78caac14", "type": "electric_scooter", "is_disabled": 0, "lat": 38.887635333333336, "rental_uris": {"ios": "https://dc.lft.to/lastmile_qr_scan", "android": "https://dc.lft.to/lastmile_qr_scan"}, "is_reserved": 0, "fusion_lon": 0.0, "fusion_lat": 0.0, "lon": -76.95602616666666, "name": "f11f7e1b368717b50cdbf90a78caac14"}, {"bike_id": "b98933d0dc1e41abb39c0b0e05f8b054", "type": "electric_scooter", "is_disabled": 0, "lat": 38.9127895, "rental_uris": {"ios": "https://dc.lft.to/lastmile_qr_scan", "android": "https://dc.lft.to/lastmile_qr_scan"}, "is_reserved": 0, "fusion_lon": 0.0, "fusion_lat": 0.0, "lon": -77.02718483333334, "name": "b98933d0dc1e41abb39c0b0e05f8b054"}, {"bike_id": "0d78e7c40ab7eb57423cbe68087b6f38", "type": "electric_scooter", "is_disabled": 0, "lat": 38.9215595, "rental_uris": {"ios": "https://dc.lft.to/lastmile_qr_scan", "android": "https://dc.lft.to/lastmile_qr_scan"}, "is_reserved": 0, "fusion_lon": 0.0, "fusion_lat": 0.0, "lon": -77.03380866666667, "name": "0d78e7c40ab7eb57423cbe68087b6f38"}, {"bike_id": "d97d81f0ff99e29a23faae2d1042a10c", "type": "electric_scooter", "is_disabled": 0, "lat": 38.916293833333334, "rental_uris": {"ios": "https://dc.lft.to/lastmile_qr_scan", "android": "https://dc.lft.to/lastmile_qr_scan"}, "is_reserved": 0, "fusion_lon": 0.0, "fusion_lat": 0.0, "lon": -77.0295665, "name": "d97d81f0ff99e29a23faae2d1042a10c"}, {"bike_id": "2f8d84f5d64b7cdeeb09da59f4ad88c5", "type": "electric_scooter", "is_disabled": 0, "lat": 38.88972616666667, "rental_uris": {"ios": "https://dc.lft.to/lastmile_qr_scan", "android": "https://dc.lft.to/lastmile_qr_scan"}, "is_reserved": 0, "fusion_lon": 0.0, "fusion_lat": 0.0, "lon": -76.98245883333334, "name": "2f8d84f5d64b7cdeeb09da59f4ad88c5"}, {"bike_id": "da0d04523c630f601597df51ec6ad9ca", "type": "electric_scooter", "is_disabled": 0, "lat": 38.902815333333336, "rental_uris": {"ios": "https://dc.lft.to/lastmile_qr_scan", "android": "https://dc.lft.to/lastmile_qr_scan"}, "is_reserved": 0, "fusion_lon": 0.0, "fusion_lat": 0.0, "lon": -77.00364633333334, "name": "da0d04523c630f601597df51ec6ad9ca"}, {"bike_id": "9111b0c3d737f2683f9d804936c9cba7", "type": "electric_scooter", "is_disabled": 0, "lat": 38.85894583333334, "rental_uris": {"ios": "https://dc.lft.to/lastmile_qr_scan", "android": "https://dc.lft.to/lastmile_qr_scan"}, "is_reserved": 0, "fusion_lon": 0.0, "fusion_lat": 0.0, "lon": -76.99724233333333, "name": "9111b0c3d737f2683f9d804936c9cba7"}, {"bike_id": "28fa5a05f670974047a78529aac41be4", "type": "electric_scooter", "is_disabled": 0, "lat": 38.91184416666667, "rental_uris": {"ios": "https://dc.lft.to/lastmile_qr_scan", "android": "https://dc.lft.to/lastmile_qr_scan"}, "is_reserved": 0, "fusion_lon": 0.0, "fusion_lat": 0.0, "lon": -77.0037975, "name": "28fa5a05f670974047a78529aac41be4"}, {"bike_id": "cc415c201d6e472e8bccd6fb2607a9e1", "type": "electric_scooter", "is_disabled": 0, "lat": 38.91850616666667, "rental_uris": {"ios": "https://dc.lft.to/lastmile_qr_scan", "android": "https://dc.lft.to/lastmile_qr_scan"}, "is_reserved": 0, "fusion_lon": 0.0, "fusion_lat": 0.0, "lon": -77.03880416666667, "name": "cc415c201d6e472e8bccd6fb2607a9e1"}, {"bike_id": "a6ae27e8640a5e3d2f2fd7a627cd7abd", "type": "electric_scooter", "is_disabled": 0, "lat": 38.9162695, "rental_uris": {"ios": "https://dc.lft.to/lastmile_qr_scan", "android": "https://dc.lft.to/lastmile_qr_scan"}, "is_reserved": 0, "fusion_lon": 0.0, "fusion_lat": 0.0, "lon": -77.03976466666667, "name": "a6ae27e8640a5e3d2f2fd7a627cd7abd"}, {"bike_id": "08fcb7e4dc8b635b2b2e86ef7c6824d2", "type": "electric_bike", "is_disabled": 0, "lat": 38.863354, "rental_uris": {"ios": "https://dc.lft.to/lastmile_qr_scan", "android": "https://dc.lft.to/lastmile_qr_scan"}, "is_reserved": 0, "fusion_lon": 0.0, "fusion_lat": 0.0, "lon": -76.98723533333333, "name": "08fcb7e4dc8b635b2b2e86ef7c6824d2"}, {"bike_id": "c5a46b8470e264e4f5bd7c1c1a456e36", "type": "electric_scooter", "is_disabled": 0, "lat": 38.9223885, "rental_uris": {"ios": "https://dc.lft.to/lastmile_qr_scan", "android": "https://dc.lft.to/lastmile_qr_scan"}, "is_reserved": 0, "fusion_lon": 0.0, "fusion_lat": 0.0, "lon": -77.02950716666666, "name": "c5a46b8470e264e4f5bd7c1c1a456e36"}, {"bike_id": "05ee688308791788f74bf565ef45bdf2", "type": "electric_scooter", "is_disabled": 0, "lat": 38.89987933333333, "rental_uris": {"ios": "https://dc.lft.to/lastmile_qr_scan", "android": "https://dc.lft.to/lastmile_qr_scan"}, "is_reserved": 0, "fusion_lon": 0.0, "fusion_lat": 0.0, "lon": -76.95000916666666, "name": "05ee688308791788f74bf565ef45bdf2"}, {"bike_id": "c24887ce692b738d35833f866ba2934a", "type": "electric_scooter", "is_disabled": 0, "lat": 38.9317475, "rental_uris": {"ios": "https://dc.lft.to/lastmile_qr_scan", "android": "https://dc.lft.to/lastmile_qr_scan"}, "is_reserved": 0, "fusion_lon": 0.0, "fusion_lat": 0.0, "lon": -77.02819216666667, "name": "c24887ce692b738d35833f866ba2934a"}, {"bike_id": "5528d391a4288faf525024e3e5fb3658", "type": "electric_scooter", "is_disabled": 0, "lat": 38.93765666666667, "rental_uris": {"ios": "https://dc.lft.to/lastmile_qr_scan", "android": "https://dc.lft.to/lastmile_qr_scan"}, "is_reserved": 0, "fusion_lon": 0.0, "fusion_lat": 0.0, "lon": -77.01968283333333, "name": "5528d391a4288faf525024e3e5fb3658"}, {"bike_id": "4091d3935c1638dd3c27641ea130c5c3", "type": "electric_scooter", "is_disabled": 0, "lat": 38.89341483333333, "rental_uris": {"ios": "https://dc.lft.to/lastmile_qr_scan", "android": "https://dc.lft.to/lastmile_qr_scan"}, "is_reserved": 0, "fusion_lon": 0.0, "fusion_lat": 0.0, "lon": -76.99381033333333, "name": "4091d3935c1638dd3c27641ea130c5c3"}, {"bike_id": "336a94afd52545b6be0cf8d645dd6c2b", "type": "electric_scooter", "is_disabled": 0, "lat": 38.928655666666664, "rental_uris": {"ios": "https://dc.lft.to/lastmile_qr_scan", "android": "https://dc.lft.to/lastmile_qr_scan"}, "is_reserved": 0, "fusion_lon": 0.0, "fusion_lat": 0.0, "lon": -77.02177216666666, "name": "336a94afd52545b6be0cf8d645dd6c2b"}, {"bike_id": "579af7aa7ea88ea1e5579c6c05ddae90", "type": "electric_scooter", "is_disabled": 0, "lat": 38.8767855, "rental_uris": {"ios": "https://dc.lft.to/lastmile_qr_scan", "android": "https://dc.lft.to/lastmile_qr_scan"}, "is_reserved": 0, "fusion_lon": 0.0, "fusion_lat": 0.0, "lon": -77.01999033333334, "name": "579af7aa7ea88ea1e5579c6c05ddae90"}, {"bike_id": "08b81dc31df9a3b28b01c604db11078e", "type": "electric_bike", "is_disabled": 0, "lat": 38.9355435, "rental_uris": {"ios": "https://dc.lft.to/lastmile_qr_scan", "android": "https://dc.lft.to/lastmile_qr_scan"}, "is_reserved": 0, "fusion_lon": 0.0, "fusion_lat": 0.0, "lon": -77.03701716666667, "name": "08b81dc31df9a3b28b01c604db11078e"}, {"bike_id": "027e2b8643b8a826ca614448da00fc87", "type": "electric_scooter", "is_disabled": 0, "lat": 38.92323233333333, "rental_uris": {"ios": "https://dc.lft.to/lastmile_qr_scan", "android": "https://dc.lft.to/lastmile_qr_scan"}, "is_reserved": 0, "fusion_lon": 0.0, "fusion_lat": 0.0, "lon": -77.00895516666667, "name": "027e2b8643b8a826ca614448da00fc87"}, {"bike_id": "415cf97f9b5abb1b1ae82d83efe0bdb3", "type": "electric_scooter", "is_disabled": 0, "lat": 38.901739, "rental_uris": {"ios": "https://dc.lft.to/lastmile_qr_scan", "android": "https://dc.lft.to/lastmile_qr_scan"}, "is_reserved": 0, "fusion_lon": 0.0, "fusion_lat": 0.0, "lon": -77.0388085, "name": "415cf97f9b5abb1b1ae82d83efe0bdb3"}, {"bike_id": "862c6d048a2d5ae8c3efe78196c47131", "type": "electric_scooter", "is_disabled": 0, "lat": 38.904940333333336, "rental_uris": {"ios": "https://dc.lft.to/lastmile_qr_scan", "android": "https://dc.lft.to/lastmile_qr_scan"}, "is_reserved": 0, "fusion_lon": 0.0, "fusion_lat": 0.0, "lon": -77.060161, "name": "862c6d048a2d5ae8c3efe78196c47131"}, {"bike_id": "9c2f13b335ef3412c5a17589b5363c1d", "type": "electric_bike", "is_disabled": 0, "lat": 38.854367333333336, "rental_uris": {"ios": "https://dc.lft.to/lastmile_qr_scan", "android": "https://dc.lft.to/lastmile_qr_scan"}, "is_reserved": 0, "fusion_lon": 0.0, "fusion_lat": 0.0, "lon": -77.08308383333333, "name": "9c2f13b335ef3412c5a17589b5363c1d"}, {"bike_id": "cca5a34db6d99bdcf53a403b30880855", "type": "electric_scooter", "is_disabled": 0, "lat": 38.95274166666667, "rental_uris": {"ios": "https://dc.lft.to/lastmile_qr_scan", "android": "https://dc.lft.to/lastmile_qr_scan"}, "is_reserved": 0, "fusion_lon": 0.0, "fusion_lat": 0.0, "lon": -77.06869483333334, "name": "cca5a34db6d99bdcf53a403b30880855"}, {"bike_id": "3500bb90f5ba24179e4ca909eb1246c0", "type": "electric_scooter", "is_disabled": 0, "lat": 38.936300833333334, "rental_uris": {"ios": "https://dc.lft.to/lastmile_qr_scan", "android": "https://dc.lft.to/lastmile_qr_scan"}, "is_reserved": 0, "fusion_lon": 0.0, "fusion_lat": 0.0, "lon": -77.03649016666667, "name": "3500bb90f5ba24179e4ca909eb1246c0"}, {"bike_id": "87687b2c01000d8b90ef9f4ce3464556", "type": "electric_scooter", "is_disabled": 0, "lat": 38.92337166666667, "rental_uris": {"ios": "https://dc.lft.to/lastmile_qr_scan", "android": "https://dc.lft.to/lastmile_qr_scan"}, "is_reserved": 0, "fusion_lon": 0.0, "fusion_lat": 0.0, "lon": -77.0505195, "name": "87687b2c01000d8b90ef9f4ce3464556"}, {"bike_id": "b05cf4614a3490bb78033bbc1d81c13d", "type": "electric_scooter", "is_disabled": 0, "lat": 38.91835316666667, "rental_uris": {"ios": "https://dc.lft.to/lastmile_qr_scan", "android": "https://dc.lft.to/lastmile_qr_scan"}, "is_reserved": 0, "fusion_lon": 0.0, "fusion_lat": 0.0, "lon": -77.03199916666667, "name": "b05cf4614a3490bb78033bbc1d81c13d"}, {"bike_id": "f87f6887cd720b89ffa3c8508e076f91", "type": "electric_scooter", "is_disabled": 0, "lat": 38.9055055, "rental_uris": {"ios": "https://dc.lft.to/lastmile_qr_scan", "android": "https://dc.lft.to/lastmile_qr_scan"}, "is_reserved": 0, "fusion_lon": 0.0, "fusion_lat": 0.0, "lon": -77.03438816666667, "name": "f87f6887cd720b89ffa3c8508e076f91"}, {"bike_id": "f8ea6140728facfea771936b3a5f36e1", "type": "electric_scooter", "is_disabled": 0, "lat": 38.9248295, "rental_uris": {"ios": "https://dc.lft.to/lastmile_qr_scan", "android": "https://dc.lft.to/lastmile_qr_scan"}, "is_reserved": 0, "fusion_lon": 0.0, "fusion_lat": 0.0, "lon": -77.02717316666667, "name": "f8ea6140728facfea771936b3a5f36e1"}, {"bike_id": "bb49d13fc907bb3e710b25f6f929eb6f", "type": "electric_scooter", "is_disabled": 0, "lat": 38.8706755, "rental_uris": {"ios": "https://dc.lft.to/lastmile_qr_scan", "android": "https://dc.lft.to/lastmile_qr_scan"}, "is_reserved": 0, "fusion_lon": 0.0, "fusion_lat": 0.0, "lon": -76.98132416666667, "name": "bb49d13fc907bb3e710b25f6f929eb6f"}, {"bike_id": "d03f551982bd502043b98676823f6cef", "type": "electric_scooter", "is_disabled": 0, "lat": 38.92147516666667, "rental_uris": {"ios": "https://dc.lft.to/lastmile_qr_scan", "android": "https://dc.lft.to/lastmile_qr_scan"}, "is_reserved": 0, "fusion_lon": 0.0, "fusion_lat": 0.0, "lon": -77.038628, "name": "d03f551982bd502043b98676823f6cef"}, {"bike_id": "aab8150f3333f4259e8180e507fbabcc", "type": "electric_bike", "is_disabled": 0, "lat": 38.90204133333334, "rental_uris": {"ios": "https://dc.lft.to/lastmile_qr_scan", "android": "https://dc.lft.to/lastmile_qr_scan"}, "is_reserved": 0, "fusion_lon": 0.0, "fusion_lat": 0.0, "lon": -76.97409, "name": "aab8150f3333f4259e8180e507fbabcc"}, {"bike_id": "3987360ab20369fb729a872bd3483963", "type": "electric_scooter", "is_disabled": 0, "lat": 38.933201, "rental_uris": {"ios": "https://dc.lft.to/lastmile_qr_scan", "android": "https://dc.lft.to/lastmile_qr_scan"}, "is_reserved": 0, "fusion_lon": 0.0, "fusion_lat": 0.0, "lon": -77.07231883333333, "name": "3987360ab20369fb729a872bd3483963"}, {"bike_id": "6d6bb1d588f76f58f3fea87e25dd0ce6", "type": "electric_scooter", "is_disabled": 0, "lat": 38.927131333333335, "rental_uris": {"ios": "https://dc.lft.to/lastmile_qr_scan", "android": "https://dc.lft.to/lastmile_qr_scan"}, "is_reserved": 0, "fusion_lon": 0.0, "fusion_lat": 0.0, "lon": -77.02722316666667, "name": "6d6bb1d588f76f58f3fea87e25dd0ce6"}, {"bike_id": "44132516113cdb84ebc93d5d65f487c5", "type": "electric_bike", "is_disabled": 0, "lat": 39.05500833333333, "rental_uris": {"ios": "https://dc.lft.to/lastmile_qr_scan", "android": "https://dc.lft.to/lastmile_qr_scan"}, "is_reserved": 0, "fusion_lon": 0.0, "fusion_lat": 0.0, "lon": -77.04649666666667, "name": "44132516113cdb84ebc93d5d65f487c5"}, {"bike_id": "b28468d64d63290f5eded1d52b8e916e", "type": "electric_scooter", "is_disabled": 0, "lat": 38.933973333333334, "rental_uris": {"ios": "https://dc.lft.to/lastmile_qr_scan", "android": "https://dc.lft.to/lastmile_qr_scan"}, "is_reserved": 0, "fusion_lon": 0.0, "fusion_lat": 0.0, "lon": -77.03986033333334, "name": "b28468d64d63290f5eded1d52b8e916e"}, {"bike_id": "a449f27dbd05446228ee0ef99d73bac3", "type": "electric_scooter", "is_disabled": 0, "lat": 38.939523666666666, "rental_uris": {"ios": "https://dc.lft.to/lastmile_qr_scan", "android": "https://dc.lft.to/lastmile_qr_scan"}, "is_reserved": 0, "fusion_lon": 0.0, "fusion_lat": 0.0, "lon": -77.03662616666666, "name": "a449f27dbd05446228ee0ef99d73bac3"}, {"bike_id": "639425a79ac1a0149ade7c1b4bc7b39f", "type": "electric_scooter", "is_disabled": 0, "lat": 38.92613466666667, "rental_uris": {"ios": "https://dc.lft.to/lastmile_qr_scan", "android": "https://dc.lft.to/lastmile_qr_scan"}, "is_reserved": 0, "fusion_lon": 0.0, "fusion_lat": 0.0, "lon": -77.02161183333334, "name": "639425a79ac1a0149ade7c1b4bc7b39f"}, {"bike_id": "23ed5773cc4b73d1b4f03c3d9fcb594a", "type": "electric_bike", "is_disabled": 0, "lat": 38.92966, "rental_uris": {"ios": "https://dc.lft.to/lastmile_qr_scan", "android": "https://dc.lft.to/lastmile_qr_scan"}, "is_reserved": 0, "fusion_lon": 0.0, "fusion_lat": 0.0, "lon": -77.1856175, "name": "23ed5773cc4b73d1b4f03c3d9fcb594a"}, {"bike_id": "99e30edb53644ad978fe8ad6b9d9437a", "type": "electric_scooter", "is_disabled": 0, "lat": 38.912140666666666, "rental_uris": {"ios": "https://dc.lft.to/lastmile_qr_scan", "android": "https://dc.lft.to/lastmile_qr_scan"}, "is_reserved": 0, "fusion_lon": 0.0, "fusion_lat": 0.0, "lon": -77.03845683333333, "name": "99e30edb53644ad978fe8ad6b9d9437a"}, {"bike_id": "9003b0cc2798e3b4185a6d0db87608cf", "type": "electric_scooter", "is_disabled": 0, "lat": 38.893698, "rental_uris": {"ios": "https://dc.lft.to/lastmile_qr_scan", "android": "https://dc.lft.to/lastmile_qr_scan"}, "is_reserved": 0, "fusion_lon": 0.0, "fusion_lat": 0.0, "lon": -76.98558466666667, "name": "9003b0cc2798e3b4185a6d0db87608cf"}, {"bike_id": "ac0a45ef50f0e47d4b8bcf475a9d3b38", "type": "electric_scooter", "is_disabled": 0, "lat": 38.90263816666667, "rental_uris": {"ios": "https://dc.lft.to/lastmile_qr_scan", "android": "https://dc.lft.to/lastmile_qr_scan"}, "is_reserved": 0, "fusion_lon": 0.0, "fusion_lat": 0.0, "lon": -77.0338545, "name": "ac0a45ef50f0e47d4b8bcf475a9d3b38"}, {"bike_id": "0b1fcbb7713eee4f0abe3dea322c751c", "type": "electric_scooter", "is_disabled": 0, "lat": 38.902756333333336, "rental_uris": {"ios": "https://dc.lft.to/lastmile_qr_scan", "android": "https://dc.lft.to/lastmile_qr_scan"}, "is_reserved": 0, "fusion_lon": 0.0, "fusion_lat": 0.0, "lon": -77.05799583333334, "name": "0b1fcbb7713eee4f0abe3dea322c751c"}, {"bike_id": "da907dd062486a44534c2edf80c0959f", "type": "electric_bike", "is_disabled": 0, "lat": 38.96317233333333, "rental_uris": {"ios": "https://dc.lft.to/lastmile_qr_scan", "android": "https://dc.lft.to/lastmile_qr_scan"}, "is_reserved": 0, "fusion_lon": 0.0, "fusion_lat": 0.0, "lon": -76.97362833333334, "name": "da907dd062486a44534c2edf80c0959f"}, {"bike_id": "aa1e37890a10ebf482afe6e31ee30c84", "type": "electric_scooter", "is_disabled": 0, "lat": 38.9050185, "rental_uris": {"ios": "https://dc.lft.to/lastmile_qr_scan", "android": "https://dc.lft.to/lastmile_qr_scan"}, "is_reserved": 0, "fusion_lon": 0.0, "fusion_lat": 0.0, "lon": -77.06016533333333, "name": "aa1e37890a10ebf482afe6e31ee30c84"}, {"bike_id": "fac0342c94436bffe76376a1551631e7", "type": "electric_scooter", "is_disabled": 0, "lat": 38.920974, "rental_uris": {"ios": "https://dc.lft.to/lastmile_qr_scan", "android": "https://dc.lft.to/lastmile_qr_scan"}, "is_reserved": 0, "fusion_lon": 0.0, "fusion_lat": 0.0, "lon": -77.02498283333334, "name": "fac0342c94436bffe76376a1551631e7"}, {"bike_id": "690fe499e3eb478d7d156f9127b9e6a1", "type": "electric_scooter", "is_disabled": 0, "lat": 38.866776333333334, "rental_uris": {"ios": "https://dc.lft.to/lastmile_qr_scan", "android": "https://dc.lft.to/lastmile_qr_scan"}, "is_reserved": 0, "fusion_lon": 0.0, "fusion_lat": 0.0, "lon": -76.98538383333333, "name": "690fe499e3eb478d7d156f9127b9e6a1"}, {"bike_id": "ae25765f56aa31daabc38a9d8743d06c", "type": "electric_scooter", "is_disabled": 0, "lat": 38.90199666666667, "rental_uris": {"ios": "https://dc.lft.to/lastmile_qr_scan", "android": "https://dc.lft.to/lastmile_qr_scan"}, "is_reserved": 0, "fusion_lon": 0.0, "fusion_lat": 0.0, "lon": -77.023737, "name": "ae25765f56aa31daabc38a9d8743d06c"}, {"bike_id": "1585f08d441a6937248557db5dd462ba", "type": "electric_scooter", "is_disabled": 0, "lat": 38.897123666666666, "rental_uris": {"ios": "https://dc.lft.to/lastmile_qr_scan", "android": "https://dc.lft.to/lastmile_qr_scan"}, "is_reserved": 0, "fusion_lon": 0.0, "fusion_lat": 0.0, "lon": -77.00854016666666, "name": "1585f08d441a6937248557db5dd462ba"}, {"bike_id": "07bce657c9dae88b96d149af027d428d", "type": "electric_scooter", "is_disabled": 0, "lat": 38.9234135, "rental_uris": {"ios": "https://dc.lft.to/lastmile_qr_scan", "android": "https://dc.lft.to/lastmile_qr_scan"}, "is_reserved": 0, "fusion_lon": 0.0, "fusion_lat": 0.0, "lon": -77.041745, "name": "07bce657c9dae88b96d149af027d428d"}, {"bike_id": "906b8bb0de33ea2d6f3a1f8b0ad99d86", "type": "electric_scooter", "is_disabled": 0, "lat": 38.917800166666666, "rental_uris": {"ios": "https://dc.lft.to/lastmile_qr_scan", "android": "https://dc.lft.to/lastmile_qr_scan"}, "is_reserved": 0, "fusion_lon": 0.0, "fusion_lat": 0.0, "lon": -77.023127, "name": "906b8bb0de33ea2d6f3a1f8b0ad99d86"}, {"bike_id": "22cf658ebeee618e707dc85e4ec760d1", "type": "electric_scooter", "is_disabled": 0, "lat": 38.89923483333333, "rental_uris": {"ios": "https://dc.lft.to/lastmile_qr_scan", "android": "https://dc.lft.to/lastmile_qr_scan"}, "is_reserved": 0, "fusion_lon": 0.0, "fusion_lat": 0.0, "lon": -77.0536815, "name": "22cf658ebeee618e707dc85e4ec760d1"}, {"bike_id": "7fb24bde17eb925fe83493eeb50e3636", "type": "electric_bike", "is_disabled": 0, "lat": 38.963067833333334, "rental_uris": {"ios": "https://dc.lft.to/lastmile_qr_scan", "android": "https://dc.lft.to/lastmile_qr_scan"}, "is_reserved": 0, "fusion_lon": 0.0, "fusion_lat": 0.0, "lon": -77.01104033333333, "name": "7fb24bde17eb925fe83493eeb50e3636"}, {"bike_id": "6e85dc730f1410b6c093686d6f58803e", "type": "electric_scooter", "is_disabled": 0, "lat": 38.90099383333333, "rental_uris": {"ios": "https://dc.lft.to/lastmile_qr_scan", "android": "https://dc.lft.to/lastmile_qr_scan"}, "is_reserved": 0, "fusion_lon": 0.0, "fusion_lat": 0.0, "lon": -77.0179675, "name": "6e85dc730f1410b6c093686d6f58803e"}, {"bike_id": "bb42f21f561595abda99a464856b528a", "type": "electric_scooter", "is_disabled": 0, "lat": 38.905317833333335, "rental_uris": {"ios": "https://dc.lft.to/lastmile_qr_scan", "android": "https://dc.lft.to/lastmile_qr_scan"}, "is_reserved": 0, "fusion_lon": 0.0, "fusion_lat": 0.0, "lon": -77.06136683333334, "name": "bb42f21f561595abda99a464856b528a"}, {"bike_id": "bddfa952bf36afe6b7e60feb5a45ccdd", "type": "electric_scooter", "is_disabled": 0, "lat": 38.8650255, "rental_uris": {"ios": "https://dc.lft.to/lastmile_qr_scan", "android": "https://dc.lft.to/lastmile_qr_scan"}, "is_reserved": 0, "fusion_lon": 0.0, "fusion_lat": 0.0, "lon": -76.99000583333333, "name": "bddfa952bf36afe6b7e60feb5a45ccdd"}, {"bike_id": "3452664be4411bb37471a4339a783f46", "type": "electric_scooter", "is_disabled": 0, "lat": 38.910507, "rental_uris": {"ios": "https://dc.lft.to/lastmile_qr_scan", "android": "https://dc.lft.to/lastmile_qr_scan"}, "is_reserved": 0, "fusion_lon": 0.0, "fusion_lat": 0.0, "lon": -77.02179966666667, "name": "3452664be4411bb37471a4339a783f46"}, {"bike_id": "3a8cfb89e4c3adad3a98e984330e5c08", "type": "electric_scooter", "is_disabled": 0, "lat": 38.91560583333333, "rental_uris": {"ios": "https://dc.lft.to/lastmile_qr_scan", "android": "https://dc.lft.to/lastmile_qr_scan"}, "is_reserved": 0, "fusion_lon": 0.0, "fusion_lat": 0.0, "lon": -77.03139133333333, "name": "3a8cfb89e4c3adad3a98e984330e5c08"}, {"bike_id": "1b30d9fcf1f52415ff3a32cb1887e685", "type": "electric_scooter", "is_disabled": 0, "lat": 38.8898535, "rental_uris": {"ios": "https://dc.lft.to/lastmile_qr_scan", "android": "https://dc.lft.to/lastmile_qr_scan"}, "is_reserved": 0, "fusion_lon": 0.0, "fusion_lat": 0.0, "lon": -77.00036183333333, "name": "1b30d9fcf1f52415ff3a32cb1887e685"}, {"bike_id": "5511c1cdbd67ddb4a5b78dd4815836e8", "type": "electric_bike", "is_disabled": 0, "lat": 38.8535285, "rental_uris": {"ios": "https://dc.lft.to/lastmile_qr_scan", "android": "https://dc.lft.to/lastmile_qr_scan"}, "is_reserved": 0, "fusion_lon": 0.0, "fusion_lat": 0.0, "lon": -77.08683483333333, "name": "5511c1cdbd67ddb4a5b78dd4815836e8"}, {"bike_id": "df401fb9e25a0bf00a51b793036c785b", "type": "electric_bike", "is_disabled": 0, "lat": 38.965067166666664, "rental_uris": {"ios": "https://dc.lft.to/lastmile_qr_scan", "android": "https://dc.lft.to/lastmile_qr_scan"}, "is_reserved": 0, "fusion_lon": 0.0, "fusion_lat": 0.0, "lon": -77.028215, "name": "df401fb9e25a0bf00a51b793036c785b"}, {"bike_id": "0fbd30341f287101b0ed4e9b395438e4", "type": "electric_scooter", "is_disabled": 0, "lat": 38.919152833333335, "rental_uris": {"ios": "https://dc.lft.to/lastmile_qr_scan", "android": "https://dc.lft.to/lastmile_qr_scan"}, "is_reserved": 0, "fusion_lon": 0.0, "fusion_lat": 0.0, "lon": -77.0342065, "name": "0fbd30341f287101b0ed4e9b395438e4"}, {"bike_id": "4c30ba759f190db856f9027ed2677aa5", "type": "electric_scooter", "is_disabled": 0, "lat": 38.8986765, "rental_uris": {"ios": "https://dc.lft.to/lastmile_qr_scan", "android": "https://dc.lft.to/lastmile_qr_scan"}, "is_reserved": 0, "fusion_lon": 0.0, "fusion_lat": 0.0, "lon": -76.946612, "name": "4c30ba759f190db856f9027ed2677aa5"}, {"bike_id": "6d27623d559445e603d32a98ef6c8c90", "type": "electric_scooter", "is_disabled": 0, "lat": 38.905816, "rental_uris": {"ios": "https://dc.lft.to/lastmile_qr_scan", "android": "https://dc.lft.to/lastmile_qr_scan"}, "is_reserved": 0, "fusion_lon": 0.0, "fusion_lat": 0.0, "lon": -77.0200265, "name": "6d27623d559445e603d32a98ef6c8c90"}, {"bike_id": "fc370ffd2bcd3dd4243ac6df9e2467fe", "type": "electric_scooter", "is_disabled": 0, "lat": 38.863736833333334, "rental_uris": {"ios": "https://dc.lft.to/lastmile_qr_scan", "android": "https://dc.lft.to/lastmile_qr_scan"}, "is_reserved": 0, "fusion_lon": 0.0, "fusion_lat": 0.0, "lon": -76.99060716666666, "name": "fc370ffd2bcd3dd4243ac6df9e2467fe"}, {"bike_id": "87d86b634fd5775fc32ae49798e46e35", "type": "electric_scooter", "is_disabled": 0, "lat": 38.908474166666664, "rental_uris": {"ios": "https://dc.lft.to/lastmile_qr_scan", "android": "https://dc.lft.to/lastmile_qr_scan"}, "is_reserved": 0, "fusion_lon": 0.0, "fusion_lat": 0.0, "lon": -76.9979705, "name": "87d86b634fd5775fc32ae49798e46e35"}, {"bike_id": "e16eedfba39fde9eb16746aba65dcfa1", "type": "electric_scooter", "is_disabled": 0, "lat": 38.864177166666664, "rental_uris": {"ios": "https://dc.lft.to/lastmile_qr_scan", "android": "https://dc.lft.to/lastmile_qr_scan"}, "is_reserved": 0, "fusion_lon": 0.0, "fusion_lat": 0.0, "lon": -76.98049466666667, "name": "e16eedfba39fde9eb16746aba65dcfa1"}, {"bike_id": "faea0452a8c88416a9bd824461caf822", "type": "electric_scooter", "is_disabled": 0, "lat": 38.919261166666665, "rental_uris": {"ios": "https://dc.lft.to/lastmile_qr_scan", "android": "https://dc.lft.to/lastmile_qr_scan"}, "is_reserved": 0, "fusion_lon": 0.0, "fusion_lat": 0.0, "lon": -77.0425115, "name": "faea0452a8c88416a9bd824461caf822"}, {"bike_id": "d016a85bc6b98dd364027ec73906e8b5", "type": "electric_scooter", "is_disabled": 0, "lat": 38.883768, "rental_uris": {"ios": "https://dc.lft.to/lastmile_qr_scan", "android": "https://dc.lft.to/lastmile_qr_scan"}, "is_reserved": 0, "fusion_lon": 0.0, "fusion_lat": 0.0, "lon": -77.02647283333333, "name": "d016a85bc6b98dd364027ec73906e8b5"}, {"bike_id": "c67c12783fa14acae4d520372f660ef5", "type": "electric_scooter", "is_disabled": 0, "lat": 38.90504166666667, "rental_uris": {"ios": "https://dc.lft.to/lastmile_qr_scan", "android": "https://dc.lft.to/lastmile_qr_scan"}, "is_reserved": 0, "fusion_lon": 0.0, "fusion_lat": 0.0, "lon": -77.05138816666667, "name": "c67c12783fa14acae4d520372f660ef5"}, {"bike_id": "975ae314c4cefd2a669dfe5a35a076ab", "type": "electric_scooter", "is_disabled": 0, "lat": 38.86686616666667, "rental_uris": {"ios": "https://dc.lft.to/lastmile_qr_scan", "android": "https://dc.lft.to/lastmile_qr_scan"}, "is_reserved": 0, "fusion_lon": 0.0, "fusion_lat": 0.0, "lon": -76.98551516666667, "name": "975ae314c4cefd2a669dfe5a35a076ab"}, {"bike_id": "e1ac7d0dda0e4cb39ce23180df5096a8", "type": "electric_scooter", "is_disabled": 0, "lat": 38.9202515, "rental_uris": {"ios": "https://dc.lft.to/lastmile_qr_scan", "android": "https://dc.lft.to/lastmile_qr_scan"}, "is_reserved": 0, "fusion_lon": 0.0, "fusion_lat": 0.0, "lon": -77.0312845, "name": "e1ac7d0dda0e4cb39ce23180df5096a8"}, {"bike_id": "242a044a54090b38998508bf756a6326", "type": "electric_scooter", "is_disabled": 0, "lat": 38.90279233333333, "rental_uris": {"ios": "https://dc.lft.to/lastmile_qr_scan", "android": "https://dc.lft.to/lastmile_qr_scan"}, "is_reserved": 0, "fusion_lon": 0.0, "fusion_lat": 0.0, "lon": -77.03955466666666, "name": "242a044a54090b38998508bf756a6326"}, {"bike_id": "3423ca970696b00212b1950612f763ec", "type": "electric_scooter", "is_disabled": 0, "lat": 38.9429135, "rental_uris": {"ios": "https://dc.lft.to/lastmile_qr_scan", "android": "https://dc.lft.to/lastmile_qr_scan"}, "is_reserved": 0, "fusion_lon": 0.0, "fusion_lat": 0.0, "lon": -77.00489283333333, "name": "3423ca970696b00212b1950612f763ec"}, {"bike_id": "bfae2e95f7a340053ce8263eaf87ec09", "type": "electric_bike", "is_disabled": 0, "lat": 38.8133125, "rental_uris": {"ios": "https://dc.lft.to/lastmile_qr_scan", "android": "https://dc.lft.to/lastmile_qr_scan"}, "is_reserved": 0, "fusion_lon": 0.0, "fusion_lat": 0.0, "lon": -77.05093266666667, "name": "bfae2e95f7a340053ce8263eaf87ec09"}, {"bike_id": "8ece9a3f207ce43da9d20cb3a2d30fa9", "type": "electric_bike", "is_disabled": 0, "lat": 38.87479, "rental_uris": {"ios": "https://dc.lft.to/lastmile_qr_scan", "android": "https://dc.lft.to/lastmile_qr_scan"}, "is_reserved": 0, "fusion_lon": 0.0, "fusion_lat": 0.0, "lon": -76.96526816666666, "name": "8ece9a3f207ce43da9d20cb3a2d30fa9"}, {"bike_id": "4ab9727a84d680649d49014ad8e1301e", "type": "electric_scooter", "is_disabled": 0, "lat": 38.9101375, "rental_uris": {"ios": "https://dc.lft.to/lastmile_qr_scan", "android": "https://dc.lft.to/lastmile_qr_scan"}, "is_reserved": 0, "fusion_lon": 0.0, "fusion_lat": 0.0, "lon": -77.05266566666667, "name": "4ab9727a84d680649d49014ad8e1301e"}, {"bike_id": "7a28a0232801ddc42a748f72bd24835a", "type": "electric_scooter", "is_disabled": 0, "lat": 38.9160065, "rental_uris": {"ios": "https://dc.lft.to/lastmile_qr_scan", "android": "https://dc.lft.to/lastmile_qr_scan"}, "is_reserved": 0, "fusion_lon": 0.0, "fusion_lat": 0.0, "lon": -77.01545316666666, "name": "7a28a0232801ddc42a748f72bd24835a"}, {"bike_id": "3d9e7a10e8c7bef3f1e1ee746a7290a1", "type": "electric_scooter", "is_disabled": 0, "lat": 38.905192166666666, "rental_uris": {"ios": "https://dc.lft.to/lastmile_qr_scan", "android": "https://dc.lft.to/lastmile_qr_scan"}, "is_reserved": 0, "fusion_lon": 0.0, "fusion_lat": 0.0, "lon": -77.026339, "name": "3d9e7a10e8c7bef3f1e1ee746a7290a1"}, {"bike_id": "c8c3dd8be466656a71c79f294a4eb690", "type": "electric_scooter", "is_disabled": 0, "lat": 38.9319165, "rental_uris": {"ios": "https://dc.lft.to/lastmile_qr_scan", "android": "https://dc.lft.to/lastmile_qr_scan"}, "is_reserved": 0, "fusion_lon": 0.0, "fusion_lat": 0.0, "lon": -77.020209, "name": "c8c3dd8be466656a71c79f294a4eb690"}, {"bike_id": "588b6c7f74d4a3c4929cc0a2b30930b8", "type": "electric_scooter", "is_disabled": 0, "lat": 38.9085605, "rental_uris": {"ios": "https://dc.lft.to/lastmile_qr_scan", "android": "https://dc.lft.to/lastmile_qr_scan"}, "is_reserved": 0, "fusion_lon": 0.0, "fusion_lat": 0.0, "lon": -77.001271, "name": "588b6c7f74d4a3c4929cc0a2b30930b8"}, {"bike_id": "4fa814aa238a5e890936d30ac0071885", "type": "electric_scooter", "is_disabled": 0, "lat": 38.89323133333333, "rental_uris": {"ios": "https://dc.lft.to/lastmile_qr_scan", "android": "https://dc.lft.to/lastmile_qr_scan"}, "is_reserved": 0, "fusion_lon": 0.0, "fusion_lat": 0.0, "lon": -77.0488085, "name": "4fa814aa238a5e890936d30ac0071885"}, {"bike_id": "220aff7ae3ec9631fead0af1ef4c14e6", "type": "electric_scooter", "is_disabled": 0, "lat": 38.8734935, "rental_uris": {"ios": "https://dc.lft.to/lastmile_qr_scan", "android": "https://dc.lft.to/lastmile_qr_scan"}, "is_reserved": 0, "fusion_lon": 0.0, "fusion_lat": 0.0, "lon": -77.00059266666666, "name": "220aff7ae3ec9631fead0af1ef4c14e6"}, {"bike_id": "f780e8c91a89863dbd70b4eb892c4c93", "type": "electric_scooter", "is_disabled": 0, "lat": 38.9039415, "rental_uris": {"ios": "https://dc.lft.to/lastmile_qr_scan", "android": "https://dc.lft.to/lastmile_qr_scan"}, "is_reserved": 0, "fusion_lon": 0.0, "fusion_lat": 0.0, "lon": -77.06511416666666, "name": "f780e8c91a89863dbd70b4eb892c4c93"}, {"bike_id": "c2779c7bcd08c79da3daf1e72dabac94", "type": "electric_scooter", "is_disabled": 0, "lat": 38.89346966666667, "rental_uris": {"ios": "https://dc.lft.to/lastmile_qr_scan", "android": "https://dc.lft.to/lastmile_qr_scan"}, "is_reserved": 0, "fusion_lon": 0.0, "fusion_lat": 0.0, "lon": -76.98089883333333, "name": "c2779c7bcd08c79da3daf1e72dabac94"}, {"bike_id": "5c0c871798b2d3d5a8432ad7d32d050e", "type": "electric_scooter", "is_disabled": 0, "lat": 38.91711316666667, "rental_uris": {"ios": "https://dc.lft.to/lastmile_qr_scan", "android": "https://dc.lft.to/lastmile_qr_scan"}, "is_reserved": 0, "fusion_lon": 0.0, "fusion_lat": 0.0, "lon": -77.03460083333333, "name": "5c0c871798b2d3d5a8432ad7d32d050e"}, {"bike_id": "5c8bb44d82fdf665c582fd04d9ea1588", "type": "electric_scooter", "is_disabled": 0, "lat": 38.877332333333335, "rental_uris": {"ios": "https://dc.lft.to/lastmile_qr_scan", "android": "https://dc.lft.to/lastmile_qr_scan"}, "is_reserved": 0, "fusion_lon": 0.0, "fusion_lat": 0.0, "lon": -77.0197075, "name": "5c8bb44d82fdf665c582fd04d9ea1588"}, {"bike_id": "0514fc4e551bcc340164327d0a6bdb81", "type": "electric_scooter", "is_disabled": 0, "lat": 38.92900483333333, "rental_uris": {"ios": "https://dc.lft.to/lastmile_qr_scan", "android": "https://dc.lft.to/lastmile_qr_scan"}, "is_reserved": 0, "fusion_lon": 0.0, "fusion_lat": 0.0, "lon": -77.05458316666666, "name": "0514fc4e551bcc340164327d0a6bdb81"}, {"bike_id": "ea4ca647e39d5e80db9dca320bba3fba", "type": "electric_scooter", "is_disabled": 0, "lat": 38.879145, "rental_uris": {"ios": "https://dc.lft.to/lastmile_qr_scan", "android": "https://dc.lft.to/lastmile_qr_scan"}, "is_reserved": 0, "fusion_lon": 0.0, "fusion_lat": 0.0, "lon": -77.0088545, "name": "ea4ca647e39d5e80db9dca320bba3fba"}, {"bike_id": "60a1533c00ddb62432545e4b19d016a0", "type": "electric_scooter", "is_disabled": 0, "lat": 38.9237565, "rental_uris": {"ios": "https://dc.lft.to/lastmile_qr_scan", "android": "https://dc.lft.to/lastmile_qr_scan"}, "is_reserved": 0, "fusion_lon": 0.0, "fusion_lat": 0.0, "lon": -77.01913633333334, "name": "60a1533c00ddb62432545e4b19d016a0"}, {"bike_id": "a51cd6d3d10da70341b8986e6eaf5734", "type": "electric_bike", "is_disabled": 0, "lat": 38.97395066666667, "rental_uris": {"ios": "https://dc.lft.to/lastmile_qr_scan", "android": "https://dc.lft.to/lastmile_qr_scan"}, "is_reserved": 0, "fusion_lon": 0.0, "fusion_lat": 0.0, "lon": -77.06455183333334, "name": "a51cd6d3d10da70341b8986e6eaf5734"}, {"bike_id": "8aa76eed695b060408776044b6106491", "type": "electric_scooter", "is_disabled": 0, "lat": 38.9375255, "rental_uris": {"ios": "https://dc.lft.to/lastmile_qr_scan", "android": "https://dc.lft.to/lastmile_qr_scan"}, "is_reserved": 0, "fusion_lon": 0.0, "fusion_lat": 0.0, "lon": -77.02477266666666, "name": "8aa76eed695b060408776044b6106491"}, {"bike_id": "9ebaecdff5618e0ecf6d31ecb639f604", "type": "electric_scooter", "is_disabled": 0, "lat": 38.9312985, "rental_uris": {"ios": "https://dc.lft.to/lastmile_qr_scan", "android": "https://dc.lft.to/lastmile_qr_scan"}, "is_reserved": 0, "fusion_lon": 0.0, "fusion_lat": 0.0, "lon": -77.02804483333334, "name": "9ebaecdff5618e0ecf6d31ecb639f604"}, {"bike_id": "ce76e85ffd087abc1647ac7ffe928b36", "type": "electric_scooter", "is_disabled": 0, "lat": 38.901205, "rental_uris": {"ios": "https://dc.lft.to/lastmile_qr_scan", "android": "https://dc.lft.to/lastmile_qr_scan"}, "is_reserved": 0, "fusion_lon": 0.0, "fusion_lat": 0.0, "lon": -76.92954433333334, "name": "ce76e85ffd087abc1647ac7ffe928b36"}, {"bike_id": "44df456dbfca72afe371b7a18df67843", "type": "electric_scooter", "is_disabled": 0, "lat": 38.9027765, "rental_uris": {"ios": "https://dc.lft.to/lastmile_qr_scan", "android": "https://dc.lft.to/lastmile_qr_scan"}, "is_reserved": 0, "fusion_lon": 0.0, "fusion_lat": 0.0, "lon": -77.00349933333334, "name": "44df456dbfca72afe371b7a18df67843"}, {"bike_id": "3d7b03f0494034e62630c32b982732d0", "type": "electric_scooter", "is_disabled": 0, "lat": 38.95625366666667, "rental_uris": {"ios": "https://dc.lft.to/lastmile_qr_scan", "android": "https://dc.lft.to/lastmile_qr_scan"}, "is_reserved": 0, "fusion_lon": 0.0, "fusion_lat": 0.0, "lon": -77.0361455, "name": "3d7b03f0494034e62630c32b982732d0"}, {"bike_id": "b6aaa2483b1954f50b71174c598cb038", "type": "electric_scooter", "is_disabled": 0, "lat": 38.924545333333334, "rental_uris": {"ios": "https://dc.lft.to/lastmile_qr_scan", "android": "https://dc.lft.to/lastmile_qr_scan"}, "is_reserved": 0, "fusion_lon": 0.0, "fusion_lat": 0.0, "lon": -77.024091, "name": "b6aaa2483b1954f50b71174c598cb038"}, {"bike_id": "c7a2c99c8b24a1a8b99c56b1ff32d7e2", "type": "electric_scooter", "is_disabled": 0, "lat": 38.923292833333335, "rental_uris": {"ios": "https://dc.lft.to/lastmile_qr_scan", "android": "https://dc.lft.to/lastmile_qr_scan"}, "is_reserved": 0, "fusion_lon": 0.0, "fusion_lat": 0.0, "lon": -77.03780233333333, "name": "c7a2c99c8b24a1a8b99c56b1ff32d7e2"}, {"bike_id": "fd912885a9ed7f487da014e0629c54b4", "type": "electric_scooter", "is_disabled": 0, "lat": 38.873328, "rental_uris": {"ios": "https://dc.lft.to/lastmile_qr_scan", "android": "https://dc.lft.to/lastmile_qr_scan"}, "is_reserved": 0, "fusion_lon": 0.0, "fusion_lat": 0.0, "lon": -76.96784, "name": "fd912885a9ed7f487da014e0629c54b4"}, {"bike_id": "26806ed0da1cf8c9b0243a10c2657118", "type": "electric_scooter", "is_disabled": 0, "lat": 38.892189333333334, "rental_uris": {"ios": "https://dc.lft.to/lastmile_qr_scan", "android": "https://dc.lft.to/lastmile_qr_scan"}, "is_reserved": 0, "fusion_lon": 0.0, "fusion_lat": 0.0, "lon": -77.025838, "name": "26806ed0da1cf8c9b0243a10c2657118"}, {"bike_id": "6a22ebc0bc51e139b03a12ac20034f7a", "type": "electric_scooter", "is_disabled": 0, "lat": 38.91331183333333, "rental_uris": {"ios": "https://dc.lft.to/lastmile_qr_scan", "android": "https://dc.lft.to/lastmile_qr_scan"}, "is_reserved": 0, "fusion_lon": 0.0, "fusion_lat": 0.0, "lon": -77.047307, "name": "6a22ebc0bc51e139b03a12ac20034f7a"}, {"bike_id": "1c45812407b2ae1536e6abb969cedb55", "type": "electric_scooter", "is_disabled": 0, "lat": 38.925537, "rental_uris": {"ios": "https://dc.lft.to/lastmile_qr_scan", "android": "https://dc.lft.to/lastmile_qr_scan"}, "is_reserved": 0, "fusion_lon": 0.0, "fusion_lat": 0.0, "lon": -77.04380883333333, "name": "1c45812407b2ae1536e6abb969cedb55"}, {"bike_id": "acff877d4ffe1142e8ef6e208de9ce77", "type": "electric_scooter", "is_disabled": 0, "lat": 38.912702333333336, "rental_uris": {"ios": "https://dc.lft.to/lastmile_qr_scan", "android": "https://dc.lft.to/lastmile_qr_scan"}, "is_reserved": 0, "fusion_lon": 0.0, "fusion_lat": 0.0, "lon": -77.0383205, "name": "acff877d4ffe1142e8ef6e208de9ce77"}, {"bike_id": "498fc9eccab0cc4241bcf18b7e22d90c", "type": "electric_scooter", "is_disabled": 0, "lat": 38.924073, "rental_uris": {"ios": "https://dc.lft.to/lastmile_qr_scan", "android": "https://dc.lft.to/lastmile_qr_scan"}, "is_reserved": 0, "fusion_lon": 0.0, "fusion_lat": 0.0, "lon": -77.02017383333333, "name": "498fc9eccab0cc4241bcf18b7e22d90c"}, {"bike_id": "27556f59af6ab88a874873be4799cd6c", "type": "electric_scooter", "is_disabled": 0, "lat": 38.90649833333333, "rental_uris": {"ios": "https://dc.lft.to/lastmile_qr_scan", "android": "https://dc.lft.to/lastmile_qr_scan"}, "is_reserved": 0, "fusion_lon": 0.0, "fusion_lat": 0.0, "lon": -77.053295, "name": "27556f59af6ab88a874873be4799cd6c"}, {"bike_id": "792ac7c94fecf819cac75b0debfcdabd", "type": "electric_scooter", "is_disabled": 0, "lat": 38.927956, "rental_uris": {"ios": "https://dc.lft.to/lastmile_qr_scan", "android": "https://dc.lft.to/lastmile_qr_scan"}, "is_reserved": 0, "fusion_lon": 0.0, "fusion_lat": 0.0, "lon": -77.026039, "name": "792ac7c94fecf819cac75b0debfcdabd"}, {"bike_id": "6d71e0f48c19429abb6c01cd6d02cc13", "type": "electric_scooter", "is_disabled": 0, "lat": 38.944647, "rental_uris": {"ios": "https://dc.lft.to/lastmile_qr_scan", "android": "https://dc.lft.to/lastmile_qr_scan"}, "is_reserved": 0, "fusion_lon": 0.0, "fusion_lat": 0.0, "lon": -77.00658666666666, "name": "6d71e0f48c19429abb6c01cd6d02cc13"}, {"bike_id": "ee271d74570e64cb7f634ffa142ddd51", "type": "electric_scooter", "is_disabled": 0, "lat": 38.9361035, "rental_uris": {"ios": "https://dc.lft.to/lastmile_qr_scan", "android": "https://dc.lft.to/lastmile_qr_scan"}, "is_reserved": 0, "fusion_lon": 0.0, "fusion_lat": 0.0, "lon": -77.05860933333334, "name": "ee271d74570e64cb7f634ffa142ddd51"}, {"bike_id": "e2c32e33defe63dc0d660fcb56847180", "type": "electric_scooter", "is_disabled": 0, "lat": 38.87738916666667, "rental_uris": {"ios": "https://dc.lft.to/lastmile_qr_scan", "android": "https://dc.lft.to/lastmile_qr_scan"}, "is_reserved": 0, "fusion_lon": 0.0, "fusion_lat": 0.0, "lon": -77.01762616666667, "name": "e2c32e33defe63dc0d660fcb56847180"}, {"bike_id": "26ee61ed33a3c6c841956f8563ab14ef", "type": "electric_scooter", "is_disabled": 0, "lat": 38.92604633333333, "rental_uris": {"ios": "https://dc.lft.to/lastmile_qr_scan", "android": "https://dc.lft.to/lastmile_qr_scan"}, "is_reserved": 0, "fusion_lon": 0.0, "fusion_lat": 0.0, "lon": -77.02414233333333, "name": "26ee61ed33a3c6c841956f8563ab14ef"}, {"bike_id": "7bcafaa6e844290f5c805b629b7b7f72", "type": "electric_scooter", "is_disabled": 0, "lat": 38.90552916666667, "rental_uris": {"ios": "https://dc.lft.to/lastmile_qr_scan", "android": "https://dc.lft.to/lastmile_qr_scan"}, "is_reserved": 0, "fusion_lon": 0.0, "fusion_lat": 0.0, "lon": -77.03429666666666, "name": "7bcafaa6e844290f5c805b629b7b7f72"}, {"bike_id": "42b2f4a8b306e2a19802c5814c34e1a8", "type": "electric_scooter", "is_disabled": 0, "lat": 38.92261366666666, "rental_uris": {"ios": "https://dc.lft.to/lastmile_qr_scan", "android": "https://dc.lft.to/lastmile_qr_scan"}, "is_reserved": 0, "fusion_lon": 0.0, "fusion_lat": 0.0, "lon": -77.04295883333333, "name": "42b2f4a8b306e2a19802c5814c34e1a8"}, {"bike_id": "67cf4b8abfde9108ea53a76daca7c9b0", "type": "electric_scooter", "is_disabled": 0, "lat": 38.92409383333333, "rental_uris": {"ios": "https://dc.lft.to/lastmile_qr_scan", "android": "https://dc.lft.to/lastmile_qr_scan"}, "is_reserved": 0, "fusion_lon": 0.0, "fusion_lat": 0.0, "lon": -77.02746466666666, "name": "67cf4b8abfde9108ea53a76daca7c9b0"}, {"bike_id": "f50f81c03874b228aef3100b42f5e540", "type": "electric_scooter", "is_disabled": 0, "lat": 38.9160675, "rental_uris": {"ios": "https://dc.lft.to/lastmile_qr_scan", "android": "https://dc.lft.to/lastmile_qr_scan"}, "is_reserved": 0, "fusion_lon": 0.0, "fusion_lat": 0.0, "lon": -77.02955333333334, "name": "f50f81c03874b228aef3100b42f5e540"}, {"bike_id": "b06e1aa1c9cc60a6c29a4c5c044d4e28", "type": "electric_scooter", "is_disabled": 0, "lat": 38.97370933333333, "rental_uris": {"ios": "https://dc.lft.to/lastmile_qr_scan", "android": "https://dc.lft.to/lastmile_qr_scan"}, "is_reserved": 0, "fusion_lon": 0.0, "fusion_lat": 0.0, "lon": -77.01854366666667, "name": "b06e1aa1c9cc60a6c29a4c5c044d4e28"}, {"bike_id": "7e67c8871b7e71aa76b8bfbf18980142", "type": "electric_scooter", "is_disabled": 0, "lat": 38.90996333333333, "rental_uris": {"ios": "https://dc.lft.to/lastmile_qr_scan", "android": "https://dc.lft.to/lastmile_qr_scan"}, "is_reserved": 0, "fusion_lon": 0.0, "fusion_lat": 0.0, "lon": -77.040095, "name": "7e67c8871b7e71aa76b8bfbf18980142"}, {"bike_id": "f10e422896cb3b7d4990ea46c9162ef6", "type": "electric_scooter", "is_disabled": 0, "lat": 38.92116566666667, "rental_uris": {"ios": "https://dc.lft.to/lastmile_qr_scan", "android": "https://dc.lft.to/lastmile_qr_scan"}, "is_reserved": 0, "fusion_lon": 0.0, "fusion_lat": 0.0, "lon": -77.03663616666667, "name": "f10e422896cb3b7d4990ea46c9162ef6"}, {"bike_id": "b23adbd89fe10583bf634d2e36a6ddc9", "type": "electric_scooter", "is_disabled": 0, "lat": 38.928118, "rental_uris": {"ios": "https://dc.lft.to/lastmile_qr_scan", "android": "https://dc.lft.to/lastmile_qr_scan"}, "is_reserved": 0, "fusion_lon": 0.0, "fusion_lat": 0.0, "lon": -77.028098, "name": "b23adbd89fe10583bf634d2e36a6ddc9"}, {"bike_id": "a9a57418eb69f6b3adea6dd7b6d3d11b", "type": "electric_bike", "is_disabled": 0, "lat": 38.884047833333334, "rental_uris": {"ios": "https://dc.lft.to/lastmile_qr_scan", "android": "https://dc.lft.to/lastmile_qr_scan"}, "is_reserved": 0, "fusion_lon": 0.0, "fusion_lat": 0.0, "lon": -76.96062733333333, "name": "a9a57418eb69f6b3adea6dd7b6d3d11b"}, {"bike_id": "adeedc6634957b31679108a2f3d1bfe9", "type": "electric_scooter", "is_disabled": 0, "lat": 38.9343125, "rental_uris": {"ios": "https://dc.lft.to/lastmile_qr_scan", "android": "https://dc.lft.to/lastmile_qr_scan"}, "is_reserved": 0, "fusion_lon": 0.0, "fusion_lat": 0.0, "lon": -77.04541016666667, "name": "adeedc6634957b31679108a2f3d1bfe9"}, {"bike_id": "8b8a2f9c371fd6d5d5f6a9003cc27209", "type": "electric_scooter", "is_disabled": 0, "lat": 38.956308166666666, "rental_uris": {"ios": "https://dc.lft.to/lastmile_qr_scan", "android": "https://dc.lft.to/lastmile_qr_scan"}, "is_reserved": 0, "fusion_lon": 0.0, "fusion_lat": 0.0, "lon": -77.027819, "name": "8b8a2f9c371fd6d5d5f6a9003cc27209"}, {"bike_id": "3fb814c22a81cca2572f644e7b385f67", "type": "electric_scooter", "is_disabled": 0, "lat": 38.915645, "rental_uris": {"ios": "https://dc.lft.to/lastmile_qr_scan", "android": "https://dc.lft.to/lastmile_qr_scan"}, "is_reserved": 0, "fusion_lon": 0.0, "fusion_lat": 0.0, "lon": -77.03863633333333, "name": "3fb814c22a81cca2572f644e7b385f67"}, {"bike_id": "4d6b5f8b4fff20053bd350db23fc1276", "type": "electric_scooter", "is_disabled": 0, "lat": 38.9097805, "rental_uris": {"ios": "https://dc.lft.to/lastmile_qr_scan", "android": "https://dc.lft.to/lastmile_qr_scan"}, "is_reserved": 0, "fusion_lon": 0.0, "fusion_lat": 0.0, "lon": -77.0318195, "name": "4d6b5f8b4fff20053bd350db23fc1276"}, {"bike_id": "be8da981900c597bcd3c5692dbb1c341", "type": "electric_scooter", "is_disabled": 0, "lat": 38.958571166666665, "rental_uris": {"ios": "https://dc.lft.to/lastmile_qr_scan", "android": "https://dc.lft.to/lastmile_qr_scan"}, "is_reserved": 0, "fusion_lon": 0.0, "fusion_lat": 0.0, "lon": -77.02797933333333, "name": "be8da981900c597bcd3c5692dbb1c341"}, {"bike_id": "528e2c4a8c80b0e8381b8d5470e8ca60", "type": "electric_scooter", "is_disabled": 0, "lat": 38.89934816666667, "rental_uris": {"ios": "https://dc.lft.to/lastmile_qr_scan", "android": "https://dc.lft.to/lastmile_qr_scan"}, "is_reserved": 0, "fusion_lon": 0.0, "fusion_lat": 0.0, "lon": -77.003538, "name": "528e2c4a8c80b0e8381b8d5470e8ca60"}, {"bike_id": "bc83c1034521cb3bc5f1f7808544ef52", "type": "electric_scooter", "is_disabled": 0, "lat": 38.91696483333333, "rental_uris": {"ios": "https://dc.lft.to/lastmile_qr_scan", "android": "https://dc.lft.to/lastmile_qr_scan"}, "is_reserved": 0, "fusion_lon": 0.0, "fusion_lat": 0.0, "lon": -77.01052566666667, "name": "bc83c1034521cb3bc5f1f7808544ef52"}, {"bike_id": "91714f782acdb235cbe79ba44a4f2e5d", "type": "electric_scooter", "is_disabled": 0, "lat": 38.9405145, "rental_uris": {"ios": "https://dc.lft.to/lastmile_qr_scan", "android": "https://dc.lft.to/lastmile_qr_scan"}, "is_reserved": 0, "fusion_lon": 0.0, "fusion_lat": 0.0, "lon": -77.02976783333334, "name": "91714f782acdb235cbe79ba44a4f2e5d"}, {"bike_id": "4ed0938da51843d0f5f181a53f80d33e", "type": "electric_scooter", "is_disabled": 0, "lat": 38.928643666666666, "rental_uris": {"ios": "https://dc.lft.to/lastmile_qr_scan", "android": "https://dc.lft.to/lastmile_qr_scan"}, "is_reserved": 0, "fusion_lon": 0.0, "fusion_lat": 0.0, "lon": -77.0371855, "name": "4ed0938da51843d0f5f181a53f80d33e"}, {"bike_id": "d7fb8595505af1c50c55eb788ff1d330", "type": "electric_scooter", "is_disabled": 0, "lat": 38.902117, "rental_uris": {"ios": "https://dc.lft.to/lastmile_qr_scan", "android": "https://dc.lft.to/lastmile_qr_scan"}, "is_reserved": 0, "fusion_lon": 0.0, "fusion_lat": 0.0, "lon": -77.05133266666667, "name": "d7fb8595505af1c50c55eb788ff1d330"}, {"bike_id": "eb90ef7014bbaa2394f261a1d31efb16", "type": "electric_scooter", "is_disabled": 0, "lat": 38.91898066666667, "rental_uris": {"ios": "https://dc.lft.to/lastmile_qr_scan", "android": "https://dc.lft.to/lastmile_qr_scan"}, "is_reserved": 0, "fusion_lon": 0.0, "fusion_lat": 0.0, "lon": -77.00315866666666, "name": "eb90ef7014bbaa2394f261a1d31efb16"}, {"bike_id": "1b2a9b72262c303c1e1b541f2365798b", "type": "electric_scooter", "is_disabled": 0, "lat": 38.92220966666667, "rental_uris": {"ios": "https://dc.lft.to/lastmile_qr_scan", "android": "https://dc.lft.to/lastmile_qr_scan"}, "is_reserved": 0, "fusion_lon": 0.0, "fusion_lat": 0.0, "lon": -77.0266605, "name": "1b2a9b72262c303c1e1b541f2365798b"}, {"bike_id": "63979cb9f3d2982f9563fabd179ccc7d", "type": "electric_scooter", "is_disabled": 0, "lat": 38.90271366666666, "rental_uris": {"ios": "https://dc.lft.to/lastmile_qr_scan", "android": "https://dc.lft.to/lastmile_qr_scan"}, "is_reserved": 0, "fusion_lon": 0.0, "fusion_lat": 0.0, "lon": -77.0032895, "name": "63979cb9f3d2982f9563fabd179ccc7d"}, {"bike_id": "7e6714bf454cffb083f7a397fc4a119a", "type": "electric_scooter", "is_disabled": 0, "lat": 38.91885033333333, "rental_uris": {"ios": "https://dc.lft.to/lastmile_qr_scan", "android": "https://dc.lft.to/lastmile_qr_scan"}, "is_reserved": 0, "fusion_lon": 0.0, "fusion_lat": 0.0, "lon": -77.03487883333334, "name": "7e6714bf454cffb083f7a397fc4a119a"}, {"bike_id": "3bc2d0d611d6c856b67f753ad97ccaa9", "type": "electric_scooter", "is_disabled": 0, "lat": 38.92231533333333, "rental_uris": {"ios": "https://dc.lft.to/lastmile_qr_scan", "android": "https://dc.lft.to/lastmile_qr_scan"}, "is_reserved": 0, "fusion_lon": 0.0, "fusion_lat": 0.0, "lon": -77.04422116666667, "name": "3bc2d0d611d6c856b67f753ad97ccaa9"}, {"bike_id": "961a8feb5e1c2463a9ecebd41f379fec", "type": "electric_scooter", "is_disabled": 0, "lat": 38.89961516666666, "rental_uris": {"ios": "https://dc.lft.to/lastmile_qr_scan", "android": "https://dc.lft.to/lastmile_qr_scan"}, "is_reserved": 0, "fusion_lon": 0.0, "fusion_lat": 0.0, "lon": -77.02383683333333, "name": "961a8feb5e1c2463a9ecebd41f379fec"}, {"bike_id": "627131543de7627cd0d26d318c6e1144", "type": "electric_scooter", "is_disabled": 0, "lat": 38.86514016666667, "rental_uris": {"ios": "https://dc.lft.to/lastmile_qr_scan", "android": "https://dc.lft.to/lastmile_qr_scan"}, "is_reserved": 0, "fusion_lon": 0.0, "fusion_lat": 0.0, "lon": -76.990176, "name": "627131543de7627cd0d26d318c6e1144"}, {"bike_id": "3615f45e4baeba0cd3036f69a9600434", "type": "electric_scooter", "is_disabled": 0, "lat": 38.907889, "rental_uris": {"ios": "https://dc.lft.to/lastmile_qr_scan", "android": "https://dc.lft.to/lastmile_qr_scan"}, "is_reserved": 0, "fusion_lon": 0.0, "fusion_lat": 0.0, "lon": -77.01005166666667, "name": "3615f45e4baeba0cd3036f69a9600434"}, {"bike_id": "e13c0b174432df697014e9af068f0937", "type": "electric_scooter", "is_disabled": 0, "lat": 38.9236285, "rental_uris": {"ios": "https://dc.lft.to/lastmile_qr_scan", "android": "https://dc.lft.to/lastmile_qr_scan"}, "is_reserved": 0, "fusion_lon": 0.0, "fusion_lat": 0.0, "lon": -77.05128266666667, "name": "e13c0b174432df697014e9af068f0937"}, {"bike_id": "272f92714a0249799e25e4836da850b0", "type": "electric_bike", "is_disabled": 0, "lat": 38.85538066666667, "rental_uris": {"ios": "https://dc.lft.to/lastmile_qr_scan", "android": "https://dc.lft.to/lastmile_qr_scan"}, "is_reserved": 0, "fusion_lon": 0.0, "fusion_lat": 0.0, "lon": -77.12015733333334, "name": "272f92714a0249799e25e4836da850b0"}, {"bike_id": "5ea5e285bc8b0db9da68216a8f1d2383", "type": "electric_scooter", "is_disabled": 0, "lat": 38.913985333333336, "rental_uris": {"ios": "https://dc.lft.to/lastmile_qr_scan", "android": "https://dc.lft.to/lastmile_qr_scan"}, "is_reserved": 0, "fusion_lon": 0.0, "fusion_lat": 0.0, "lon": -76.98194983333333, "name": "5ea5e285bc8b0db9da68216a8f1d2383"}, {"bike_id": "cd786c311bdbdfb1a11fb2a478ddcc1e", "type": "electric_scooter", "is_disabled": 0, "lat": 38.906840833333334, "rental_uris": {"ios": "https://dc.lft.to/lastmile_qr_scan", "android": "https://dc.lft.to/lastmile_qr_scan"}, "is_reserved": 0, "fusion_lon": 0.0, "fusion_lat": 0.0, "lon": -77.026974, "name": "cd786c311bdbdfb1a11fb2a478ddcc1e"}, {"bike_id": "3387bdd78e47387cdba5129980b74fc0", "type": "electric_bike", "is_disabled": 0, "lat": 38.993262333333334, "rental_uris": {"ios": "https://dc.lft.to/lastmile_qr_scan", "android": "https://dc.lft.to/lastmile_qr_scan"}, "is_reserved": 0, "fusion_lon": 0.0, "fusion_lat": 0.0, "lon": -76.94617483333333, "name": "3387bdd78e47387cdba5129980b74fc0"}, {"bike_id": "e8a447626d6786c75d7527b048710a41", "type": "electric_scooter", "is_disabled": 0, "lat": 38.909509, "rental_uris": {"ios": "https://dc.lft.to/lastmile_qr_scan", "android": "https://dc.lft.to/lastmile_qr_scan"}, "is_reserved": 0, "fusion_lon": 0.0, "fusion_lat": 0.0, "lon": -77.03936816666666, "name": "e8a447626d6786c75d7527b048710a41"}, {"bike_id": "ad6aabd521f9f59351f6512648199ec9", "type": "electric_scooter", "is_disabled": 0, "lat": 38.92567716666667, "rental_uris": {"ios": "https://dc.lft.to/lastmile_qr_scan", "android": "https://dc.lft.to/lastmile_qr_scan"}, "is_reserved": 0, "fusion_lon": 0.0, "fusion_lat": 0.0, "lon": -77.05267033333334, "name": "ad6aabd521f9f59351f6512648199ec9"}, {"bike_id": "9bb9ae850525760cfc8cf3bd57054b15", "type": "electric_scooter", "is_disabled": 0, "lat": 38.90957183333333, "rental_uris": {"ios": "https://dc.lft.to/lastmile_qr_scan", "android": "https://dc.lft.to/lastmile_qr_scan"}, "is_reserved": 0, "fusion_lon": 0.0, "fusion_lat": 0.0, "lon": -77.04881266666666, "name": "9bb9ae850525760cfc8cf3bd57054b15"}, {"bike_id": "b1ff6783263bac62ad71dacc3799c87a", "type": "electric_bike", "is_disabled": 0, "lat": 38.85485583333333, "rental_uris": {"ios": "https://dc.lft.to/lastmile_qr_scan", "android": "https://dc.lft.to/lastmile_qr_scan"}, "is_reserved": 0, "fusion_lon": 0.0, "fusion_lat": 0.0, "lon": -77.1160355, "name": "b1ff6783263bac62ad71dacc3799c87a"}, {"bike_id": "cbd5e9788407eac5999ce46ba30d73a8", "type": "electric_scooter", "is_disabled": 0, "lat": 38.920015166666666, "rental_uris": {"ios": "https://dc.lft.to/lastmile_qr_scan", "android": "https://dc.lft.to/lastmile_qr_scan"}, "is_reserved": 0, "fusion_lon": 0.0, "fusion_lat": 0.0, "lon": -77.02388533333334, "name": "cbd5e9788407eac5999ce46ba30d73a8"}, {"bike_id": "b9d15c11373be50fe0ffdd6ed75c231c", "type": "electric_scooter", "is_disabled": 0, "lat": 38.91862033333334, "rental_uris": {"ios": "https://dc.lft.to/lastmile_qr_scan", "android": "https://dc.lft.to/lastmile_qr_scan"}, "is_reserved": 0, "fusion_lon": 0.0, "fusion_lat": 0.0, "lon": -77.07038216666666, "name": "b9d15c11373be50fe0ffdd6ed75c231c"}, {"bike_id": "17d687ab6391083c5d25b34cdf178a0f", "type": "electric_scooter", "is_disabled": 0, "lat": 38.895338333333335, "rental_uris": {"ios": "https://dc.lft.to/lastmile_qr_scan", "android": "https://dc.lft.to/lastmile_qr_scan"}, "is_reserved": 0, "fusion_lon": 0.0, "fusion_lat": 0.0, "lon": -76.9948095, "name": "17d687ab6391083c5d25b34cdf178a0f"}, {"bike_id": "a7adddfbe1ce467e05b5728ef8334255", "type": "electric_scooter", "is_disabled": 0, "lat": 38.900443833333334, "rental_uris": {"ios": "https://dc.lft.to/lastmile_qr_scan", "android": "https://dc.lft.to/lastmile_qr_scan"}, "is_reserved": 0, "fusion_lon": 0.0, "fusion_lat": 0.0, "lon": -77.034088, "name": "a7adddfbe1ce467e05b5728ef8334255"}, {"bike_id": "0b6d202ca285f49396c94fdafef41fb1", "type": "electric_bike", "is_disabled": 0, "lat": 38.920239, "rental_uris": {"ios": "https://dc.lft.to/lastmile_qr_scan", "android": "https://dc.lft.to/lastmile_qr_scan"}, "is_reserved": 0, "fusion_lon": 0.0, "fusion_lat": 0.0, "lon": -77.0183265, "name": "0b6d202ca285f49396c94fdafef41fb1"}, {"bike_id": "dd403e62696e3827bb490cc06525aa4c", "type": "electric_scooter", "is_disabled": 0, "lat": 38.89115566666667, "rental_uris": {"ios": "https://dc.lft.to/lastmile_qr_scan", "android": "https://dc.lft.to/lastmile_qr_scan"}, "is_reserved": 0, "fusion_lon": 0.0, "fusion_lat": 0.0, "lon": -76.9915865, "name": "dd403e62696e3827bb490cc06525aa4c"}, {"bike_id": "22c9380a4d50787c3fcc3587da72f87c", "type": "electric_scooter", "is_disabled": 0, "lat": 38.9009735, "rental_uris": {"ios": "https://dc.lft.to/lastmile_qr_scan", "android": "https://dc.lft.to/lastmile_qr_scan"}, "is_reserved": 0, "fusion_lon": 0.0, "fusion_lat": 0.0, "lon": -77.03836766666667, "name": "22c9380a4d50787c3fcc3587da72f87c"}, {"bike_id": "6783e9160bec056f14e20a6a4ef41130", "type": "electric_scooter", "is_disabled": 0, "lat": 38.9068665, "rental_uris": {"ios": "https://dc.lft.to/lastmile_qr_scan", "android": "https://dc.lft.to/lastmile_qr_scan"}, "is_reserved": 0, "fusion_lon": 0.0, "fusion_lat": 0.0, "lon": -77.02696466666667, "name": "6783e9160bec056f14e20a6a4ef41130"}, {"bike_id": "d080a02f0c64729bd1aea5cfa7fcb747", "type": "electric_scooter", "is_disabled": 0, "lat": 38.914769, "rental_uris": {"ios": "https://dc.lft.to/lastmile_qr_scan", "android": "https://dc.lft.to/lastmile_qr_scan"}, "is_reserved": 0, "fusion_lon": 0.0, "fusion_lat": 0.0, "lon": -77.00284516666666, "name": "d080a02f0c64729bd1aea5cfa7fcb747"}, {"bike_id": "0ad28eaf0099fc6f33d1993c58f4e6bf", "type": "electric_scooter", "is_disabled": 0, "lat": 38.939523, "rental_uris": {"ios": "https://dc.lft.to/lastmile_qr_scan", "android": "https://dc.lft.to/lastmile_qr_scan"}, "is_reserved": 0, "fusion_lon": 0.0, "fusion_lat": 0.0, "lon": -77.0725525, "name": "0ad28eaf0099fc6f33d1993c58f4e6bf"}, {"bike_id": "8e963a9f867524c1c7d8025ad765e2e1", "type": "electric_scooter", "is_disabled": 0, "lat": 38.930195499999996, "rental_uris": {"ios": "https://dc.lft.to/lastmile_qr_scan", "android": "https://dc.lft.to/lastmile_qr_scan"}, "is_reserved": 0, "fusion_lon": 0.0, "fusion_lat": 0.0, "lon": -77.0663195, "name": "8e963a9f867524c1c7d8025ad765e2e1"}, {"bike_id": "9a16ca9bdc12c84277d052b302d73edf", "type": "electric_scooter", "is_disabled": 0, "lat": 38.90370683333333, "rental_uris": {"ios": "https://dc.lft.to/lastmile_qr_scan", "android": "https://dc.lft.to/lastmile_qr_scan"}, "is_reserved": 0, "fusion_lon": 0.0, "fusion_lat": 0.0, "lon": -77.01635283333333, "name": "9a16ca9bdc12c84277d052b302d73edf"}, {"bike_id": "72618539bd30f5f902fb8d0964af6b83", "type": "electric_scooter", "is_disabled": 0, "lat": 38.918939, "rental_uris": {"ios": "https://dc.lft.to/lastmile_qr_scan", "android": "https://dc.lft.to/lastmile_qr_scan"}, "is_reserved": 0, "fusion_lon": 0.0, "fusion_lat": 0.0, "lon": -77.04618633333334, "name": "72618539bd30f5f902fb8d0964af6b83"}, {"bike_id": "2b9f164d49bbe5828cf7c018cbd4e3ce", "type": "electric_scooter", "is_disabled": 0, "lat": 38.9074005, "rental_uris": {"ios": "https://dc.lft.to/lastmile_qr_scan", "android": "https://dc.lft.to/lastmile_qr_scan"}, "is_reserved": 0, "fusion_lon": 0.0, "fusion_lat": 0.0, "lon": -77.00057766666667, "name": "2b9f164d49bbe5828cf7c018cbd4e3ce"}, {"bike_id": "864675982daf141154c5e399d9635a70", "type": "electric_scooter", "is_disabled": 0, "lat": 38.8992365, "rental_uris": {"ios": "https://dc.lft.to/lastmile_qr_scan", "android": "https://dc.lft.to/lastmile_qr_scan"}, "is_reserved": 0, "fusion_lon": 0.0, "fusion_lat": 0.0, "lon": -77.05367766666667, "name": "864675982daf141154c5e399d9635a70"}, {"bike_id": "1234d07e18ba0295938a27b2625fcdfe", "type": "electric_scooter", "is_disabled": 0, "lat": 38.87936216666667, "rental_uris": {"ios": "https://dc.lft.to/lastmile_qr_scan", "android": "https://dc.lft.to/lastmile_qr_scan"}, "is_reserved": 0, "fusion_lon": 0.0, "fusion_lat": 0.0, "lon": -77.01539866666667, "name": "1234d07e18ba0295938a27b2625fcdfe"}, {"bike_id": "643bddcf9b27576b961c5a77c09a4506", "type": "electric_scooter", "is_disabled": 0, "lat": 38.9019485, "rental_uris": {"ios": "https://dc.lft.to/lastmile_qr_scan", "android": "https://dc.lft.to/lastmile_qr_scan"}, "is_reserved": 0, "fusion_lon": 0.0, "fusion_lat": 0.0, "lon": -76.98837016666667, "name": "643bddcf9b27576b961c5a77c09a4506"}, {"bike_id": "70db31dc867a810c48b9e21e17c53480", "type": "electric_scooter", "is_disabled": 0, "lat": 38.9000875, "rental_uris": {"ios": "https://dc.lft.to/lastmile_qr_scan", "android": "https://dc.lft.to/lastmile_qr_scan"}, "is_reserved": 0, "fusion_lon": 0.0, "fusion_lat": 0.0, "lon": -77.01268116666667, "name": "70db31dc867a810c48b9e21e17c53480"}, {"bike_id": "d0878eb483dcbca5f1867586e839a032", "type": "electric_scooter", "is_disabled": 0, "lat": 38.9234145, "rental_uris": {"ios": "https://dc.lft.to/lastmile_qr_scan", "android": "https://dc.lft.to/lastmile_qr_scan"}, "is_reserved": 0, "fusion_lon": 0.0, "fusion_lat": 0.0, "lon": -77.05427433333334, "name": "d0878eb483dcbca5f1867586e839a032"}, {"bike_id": "4ed08eac0c1041953a43a8d0cb05d1f3", "type": "electric_scooter", "is_disabled": 0, "lat": 38.940722, "rental_uris": {"ios": "https://dc.lft.to/lastmile_qr_scan", "android": "https://dc.lft.to/lastmile_qr_scan"}, "is_reserved": 0, "fusion_lon": 0.0, "fusion_lat": 0.0, "lon": -77.05253933333333, "name": "4ed08eac0c1041953a43a8d0cb05d1f3"}, {"bike_id": "2a963f0d1c88df4fa4d48a6128a686ce", "type": "electric_scooter", "is_disabled": 0, "lat": 38.90418916666667, "rental_uris": {"ios": "https://dc.lft.to/lastmile_qr_scan", "android": "https://dc.lft.to/lastmile_qr_scan"}, "is_reserved": 0, "fusion_lon": 0.0, "fusion_lat": 0.0, "lon": -77.02872416666666, "name": "2a963f0d1c88df4fa4d48a6128a686ce"}, {"bike_id": "6f4ec29929e26e2476cfc6ec5c0fa129", "type": "electric_scooter", "is_disabled": 0, "lat": 38.9136045, "rental_uris": {"ios": "https://dc.lft.to/lastmile_qr_scan", "android": "https://dc.lft.to/lastmile_qr_scan"}, "is_reserved": 0, "fusion_lon": 0.0, "fusion_lat": 0.0, "lon": -77.045586, "name": "6f4ec29929e26e2476cfc6ec5c0fa129"}, {"bike_id": "02d3f032bf0c639f26cd19528649b9c0", "type": "electric_scooter", "is_disabled": 0, "lat": 38.9098015, "rental_uris": {"ios": "https://dc.lft.to/lastmile_qr_scan", "android": "https://dc.lft.to/lastmile_qr_scan"}, "is_reserved": 0, "fusion_lon": 0.0, "fusion_lat": 0.0, "lon": -77.03183566666667, "name": "02d3f032bf0c639f26cd19528649b9c0"}, {"bike_id": "023d18df44c675a455697700a24003c9", "type": "electric_scooter", "is_disabled": 0, "lat": 38.89234966666667, "rental_uris": {"ios": "https://dc.lft.to/lastmile_qr_scan", "android": "https://dc.lft.to/lastmile_qr_scan"}, "is_reserved": 0, "fusion_lon": 0.0, "fusion_lat": 0.0, "lon": -77.02384766666667, "name": "023d18df44c675a455697700a24003c9"}, {"bike_id": "bd3ba0cda860086993eada7dca359dc8", "type": "electric_scooter", "is_disabled": 0, "lat": 38.91106833333333, "rental_uris": {"ios": "https://dc.lft.to/lastmile_qr_scan", "android": "https://dc.lft.to/lastmile_qr_scan"}, "is_reserved": 0, "fusion_lon": 0.0, "fusion_lat": 0.0, "lon": -77.0383385, "name": "bd3ba0cda860086993eada7dca359dc8"}, {"bike_id": "40dc44dd08004f973ebf7ab2f773bc27", "type": "electric_scooter", "is_disabled": 0, "lat": 38.926025833333334, "rental_uris": {"ios": "https://dc.lft.to/lastmile_qr_scan", "android": "https://dc.lft.to/lastmile_qr_scan"}, "is_reserved": 0, "fusion_lon": 0.0, "fusion_lat": 0.0, "lon": -77.021535, "name": "40dc44dd08004f973ebf7ab2f773bc27"}, {"bike_id": "282639b3cfa6c0ab39bd777a7a230abd", "type": "electric_scooter", "is_disabled": 0, "lat": 38.93513633333333, "rental_uris": {"ios": "https://dc.lft.to/lastmile_qr_scan", "android": "https://dc.lft.to/lastmile_qr_scan"}, "is_reserved": 0, "fusion_lon": 0.0, "fusion_lat": 0.0, "lon": -77.033012, "name": "282639b3cfa6c0ab39bd777a7a230abd"}, {"bike_id": "6005622b8ade0de3e2d5e438eecf24e1", "type": "electric_scooter", "is_disabled": 0, "lat": 38.9329155, "rental_uris": {"ios": "https://dc.lft.to/lastmile_qr_scan", "android": "https://dc.lft.to/lastmile_qr_scan"}, "is_reserved": 0, "fusion_lon": 0.0, "fusion_lat": 0.0, "lon": -77.041231, "name": "6005622b8ade0de3e2d5e438eecf24e1"}, {"bike_id": "57516662c4c03bf6ab113647332002e8", "type": "electric_bike", "is_disabled": 0, "lat": 38.85786516666667, "rental_uris": {"ios": "https://dc.lft.to/lastmile_qr_scan", "android": "https://dc.lft.to/lastmile_qr_scan"}, "is_reserved": 0, "fusion_lon": 0.0, "fusion_lat": 0.0, "lon": -77.12017233333333, "name": "57516662c4c03bf6ab113647332002e8"}, {"bike_id": "7d9d87b6f9f515eff2612b433693aec4", "type": "electric_scooter", "is_disabled": 0, "lat": 38.90204583333333, "rental_uris": {"ios": "https://dc.lft.to/lastmile_qr_scan", "android": "https://dc.lft.to/lastmile_qr_scan"}, "is_reserved": 0, "fusion_lon": 0.0, "fusion_lat": 0.0, "lon": -77.02372083333333, "name": "7d9d87b6f9f515eff2612b433693aec4"}, {"bike_id": "003f80deee1b1b9d23a4cbceac2d1af3", "type": "electric_scooter", "is_disabled": 0, "lat": 38.8954125, "rental_uris": {"ios": "https://dc.lft.to/lastmile_qr_scan", "android": "https://dc.lft.to/lastmile_qr_scan"}, "is_reserved": 0, "fusion_lon": 0.0, "fusion_lat": 0.0, "lon": -76.92948883333334, "name": "003f80deee1b1b9d23a4cbceac2d1af3"}, {"bike_id": "b8ca12f517c57736006bb88422fc63e6", "type": "electric_scooter", "is_disabled": 0, "lat": 38.90564233333333, "rental_uris": {"ios": "https://dc.lft.to/lastmile_qr_scan", "android": "https://dc.lft.to/lastmile_qr_scan"}, "is_reserved": 0, "fusion_lon": 0.0, "fusion_lat": 0.0, "lon": -76.98143, "name": "b8ca12f517c57736006bb88422fc63e6"}, {"bike_id": "96b7f27661da7fade6ae60d4b959a1c6", "type": "electric_scooter", "is_disabled": 0, "lat": 38.926740333333335, "rental_uris": {"ios": "https://dc.lft.to/lastmile_qr_scan", "android": "https://dc.lft.to/lastmile_qr_scan"}, "is_reserved": 0, "fusion_lon": 0.0, "fusion_lat": 0.0, "lon": -77.0435275, "name": "96b7f27661da7fade6ae60d4b959a1c6"}, {"bike_id": "13ff4693db9b322bc9f65439ea4358c8", "type": "electric_scooter", "is_disabled": 0, "lat": 38.884108, "rental_uris": {"ios": "https://dc.lft.to/lastmile_qr_scan", "android": "https://dc.lft.to/lastmile_qr_scan"}, "is_reserved": 0, "fusion_lon": 0.0, "fusion_lat": 0.0, "lon": -77.031834, "name": "13ff4693db9b322bc9f65439ea4358c8"}, {"bike_id": "bd1ded6e337d1c07bace08e6b089b313", "type": "electric_scooter", "is_disabled": 0, "lat": 38.91134133333333, "rental_uris": {"ios": "https://dc.lft.to/lastmile_qr_scan", "android": "https://dc.lft.to/lastmile_qr_scan"}, "is_reserved": 0, "fusion_lon": 0.0, "fusion_lat": 0.0, "lon": -77.06534133333334, "name": "bd1ded6e337d1c07bace08e6b089b313"}, {"bike_id": "ab30a964f936e4632081bf473bed5249", "type": "electric_scooter", "is_disabled": 0, "lat": 38.9224145, "rental_uris": {"ios": "https://dc.lft.to/lastmile_qr_scan", "android": "https://dc.lft.to/lastmile_qr_scan"}, "is_reserved": 0, "fusion_lon": 0.0, "fusion_lat": 0.0, "lon": -77.07474916666666, "name": "ab30a964f936e4632081bf473bed5249"}, {"bike_id": "23006c7913693bbda763e4aa254d455c", "type": "electric_scooter", "is_disabled": 0, "lat": 38.93673916666667, "rental_uris": {"ios": "https://dc.lft.to/lastmile_qr_scan", "android": "https://dc.lft.to/lastmile_qr_scan"}, "is_reserved": 0, "fusion_lon": 0.0, "fusion_lat": 0.0, "lon": -77.036229, "name": "23006c7913693bbda763e4aa254d455c"}, {"bike_id": "a9fa2288ea714ef6979508407a0a47fd", "type": "electric_scooter", "is_disabled": 0, "lat": 38.914018666666664, "rental_uris": {"ios": "https://dc.lft.to/lastmile_qr_scan", "android": "https://dc.lft.to/lastmile_qr_scan"}, "is_reserved": 0, "fusion_lon": 0.0, "fusion_lat": 0.0, "lon": -77.020985, "name": "a9fa2288ea714ef6979508407a0a47fd"}, {"bike_id": "2353a94a49ef5fb5e4f41c61f2347614", "type": "electric_scooter", "is_disabled": 0, "lat": 38.906821, "rental_uris": {"ios": "https://dc.lft.to/lastmile_qr_scan", "android": "https://dc.lft.to/lastmile_qr_scan"}, "is_reserved": 0, "fusion_lon": 0.0, "fusion_lat": 0.0, "lon": -77.06337733333334, "name": "2353a94a49ef5fb5e4f41c61f2347614"}, {"bike_id": "11ccfaf835bd6fd9bad8790d43e64bb3", "type": "electric_scooter", "is_disabled": 0, "lat": 38.90364916666667, "rental_uris": {"ios": "https://dc.lft.to/lastmile_qr_scan", "android": "https://dc.lft.to/lastmile_qr_scan"}, "is_reserved": 0, "fusion_lon": 0.0, "fusion_lat": 0.0, "lon": -77.0074075, "name": "11ccfaf835bd6fd9bad8790d43e64bb3"}, {"bike_id": "0c50fb0ef6578f25534516102baf4f97", "type": "electric_scooter", "is_disabled": 0, "lat": 38.93869566666667, "rental_uris": {"ios": "https://dc.lft.to/lastmile_qr_scan", "android": "https://dc.lft.to/lastmile_qr_scan"}, "is_reserved": 0, "fusion_lon": 0.0, "fusion_lat": 0.0, "lon": -77.02451116666667, "name": "0c50fb0ef6578f25534516102baf4f97"}, {"bike_id": "29ad28f1e76fbb0a257b4c67d771595e", "type": "electric_scooter", "is_disabled": 0, "lat": 38.8826465, "rental_uris": {"ios": "https://dc.lft.to/lastmile_qr_scan", "android": "https://dc.lft.to/lastmile_qr_scan"}, "is_reserved": 0, "fusion_lon": 0.0, "fusion_lat": 0.0, "lon": -76.99251383333333, "name": "29ad28f1e76fbb0a257b4c67d771595e"}, {"bike_id": "22db7db7e000a19d1be9dc7ff5b70fd3", "type": "electric_scooter", "is_disabled": 0, "lat": 38.92081983333333, "rental_uris": {"ios": "https://dc.lft.to/lastmile_qr_scan", "android": "https://dc.lft.to/lastmile_qr_scan"}, "is_reserved": 0, "fusion_lon": 0.0, "fusion_lat": 0.0, "lon": -77.02401083333334, "name": "22db7db7e000a19d1be9dc7ff5b70fd3"}, {"bike_id": "c25c31a9642e0e8d956517026e20c012", "type": "electric_scooter", "is_disabled": 0, "lat": 38.92751766666667, "rental_uris": {"ios": "https://dc.lft.to/lastmile_qr_scan", "android": "https://dc.lft.to/lastmile_qr_scan"}, "is_reserved": 0, "fusion_lon": 0.0, "fusion_lat": 0.0, "lon": -77.02297483333334, "name": "c25c31a9642e0e8d956517026e20c012"}, {"bike_id": "528d1868f55d9597e5196292c384b22c", "type": "electric_scooter", "is_disabled": 0, "lat": 38.916277666666666, "rental_uris": {"ios": "https://dc.lft.to/lastmile_qr_scan", "android": "https://dc.lft.to/lastmile_qr_scan"}, "is_reserved": 0, "fusion_lon": 0.0, "fusion_lat": 0.0, "lon": -77.03986233333333, "name": "528d1868f55d9597e5196292c384b22c"}, {"bike_id": "0dca95822e3493b21fc050ece5bd0381", "type": "electric_scooter", "is_disabled": 0, "lat": 38.902076666666666, "rental_uris": {"ios": "https://dc.lft.to/lastmile_qr_scan", "android": "https://dc.lft.to/lastmile_qr_scan"}, "is_reserved": 0, "fusion_lon": 0.0, "fusion_lat": 0.0, "lon": -77.02378716666666, "name": "0dca95822e3493b21fc050ece5bd0381"}, {"bike_id": "029c824e990e422ba95bc5d474e168d3", "type": "electric_scooter", "is_disabled": 0, "lat": 38.91917766666667, "rental_uris": {"ios": "https://dc.lft.to/lastmile_qr_scan", "android": "https://dc.lft.to/lastmile_qr_scan"}, "is_reserved": 0, "fusion_lon": 0.0, "fusion_lat": 0.0, "lon": -77.034258, "name": "029c824e990e422ba95bc5d474e168d3"}, {"bike_id": "10d1210899858fdfd4e82af33b4c902c", "type": "electric_scooter", "is_disabled": 0, "lat": 38.90957, "rental_uris": {"ios": "https://dc.lft.to/lastmile_qr_scan", "android": "https://dc.lft.to/lastmile_qr_scan"}, "is_reserved": 0, "fusion_lon": 0.0, "fusion_lat": 0.0, "lon": -77.02273183333334, "name": "10d1210899858fdfd4e82af33b4c902c"}, {"bike_id": "10432ef9a531813789b0024b845479c9", "type": "electric_scooter", "is_disabled": 0, "lat": 38.90825866666667, "rental_uris": {"ios": "https://dc.lft.to/lastmile_qr_scan", "android": "https://dc.lft.to/lastmile_qr_scan"}, "is_reserved": 0, "fusion_lon": 0.0, "fusion_lat": 0.0, "lon": -77.02406766666667, "name": "10432ef9a531813789b0024b845479c9"}, {"bike_id": "e6f031abb7b57767438f866aa4f1926d", "type": "electric_scooter", "is_disabled": 0, "lat": 38.916804666666664, "rental_uris": {"ios": "https://dc.lft.to/lastmile_qr_scan", "android": "https://dc.lft.to/lastmile_qr_scan"}, "is_reserved": 0, "fusion_lon": 0.0, "fusion_lat": 0.0, "lon": -77.03192866666667, "name": "e6f031abb7b57767438f866aa4f1926d"}, {"bike_id": "28301d43ba5c2c97acf67b68f1231580", "type": "electric_scooter", "is_disabled": 0, "lat": 38.903862333333336, "rental_uris": {"ios": "https://dc.lft.to/lastmile_qr_scan", "android": "https://dc.lft.to/lastmile_qr_scan"}, "is_reserved": 0, "fusion_lon": 0.0, "fusion_lat": 0.0, "lon": -77.023965, "name": "28301d43ba5c2c97acf67b68f1231580"}, {"bike_id": "2fbf70a10c02628eb00afb3dd5102015", "type": "electric_scooter", "is_disabled": 0, "lat": 38.926537333333336, "rental_uris": {"ios": "https://dc.lft.to/lastmile_qr_scan", "android": "https://dc.lft.to/lastmile_qr_scan"}, "is_reserved": 0, "fusion_lon": 0.0, "fusion_lat": 0.0, "lon": -77.03729866666667, "name": "2fbf70a10c02628eb00afb3dd5102015"}, {"bike_id": "64b94df460753a1e5c5892c62c38827a", "type": "electric_scooter", "is_disabled": 0, "lat": 38.89011933333333, "rental_uris": {"ios": "https://dc.lft.to/lastmile_qr_scan", "android": "https://dc.lft.to/lastmile_qr_scan"}, "is_reserved": 0, "fusion_lon": 0.0, "fusion_lat": 0.0, "lon": -77.0332505, "name": "64b94df460753a1e5c5892c62c38827a"}, {"bike_id": "c184ece70308f54a72652ece7296856a", "type": "electric_scooter", "is_disabled": 0, "lat": 38.915609833333335, "rental_uris": {"ios": "https://dc.lft.to/lastmile_qr_scan", "android": "https://dc.lft.to/lastmile_qr_scan"}, "is_reserved": 0, "fusion_lon": 0.0, "fusion_lat": 0.0, "lon": -77.04512366666667, "name": "c184ece70308f54a72652ece7296856a"}, {"bike_id": "a9616799577ad264c9995326b1c8830b", "type": "electric_bike", "is_disabled": 0, "lat": 38.928627666666664, "rental_uris": {"ios": "https://dc.lft.to/lastmile_qr_scan", "android": "https://dc.lft.to/lastmile_qr_scan"}, "is_reserved": 0, "fusion_lon": 0.0, "fusion_lat": 0.0, "lon": -76.989357, "name": "a9616799577ad264c9995326b1c8830b"}, {"bike_id": "318cfb4a8d302b51a57e3186b33af65e", "type": "electric_scooter", "is_disabled": 0, "lat": 38.933609833333335, "rental_uris": {"ios": "https://dc.lft.to/lastmile_qr_scan", "android": "https://dc.lft.to/lastmile_qr_scan"}, "is_reserved": 0, "fusion_lon": 0.0, "fusion_lat": 0.0, "lon": -77.08856666666667, "name": "318cfb4a8d302b51a57e3186b33af65e"}, {"bike_id": "8ce0992a3429996304992b8ff42cfead", "type": "electric_scooter", "is_disabled": 0, "lat": 38.9058665, "rental_uris": {"ios": "https://dc.lft.to/lastmile_qr_scan", "android": "https://dc.lft.to/lastmile_qr_scan"}, "is_reserved": 0, "fusion_lon": 0.0, "fusion_lat": 0.0, "lon": -77.05138666666667, "name": "8ce0992a3429996304992b8ff42cfead"}, {"bike_id": "ff6d7900886eb0728a1c6c181fa24ed4", "type": "electric_scooter", "is_disabled": 0, "lat": 38.923670666666666, "rental_uris": {"ios": "https://dc.lft.to/lastmile_qr_scan", "android": "https://dc.lft.to/lastmile_qr_scan"}, "is_reserved": 0, "fusion_lon": 0.0, "fusion_lat": 0.0, "lon": -77.01936183333333, "name": "ff6d7900886eb0728a1c6c181fa24ed4"}, {"bike_id": "ffac1f68f6e1a2bf9a99dfd0f79a06ab", "type": "electric_bike", "is_disabled": 0, "lat": 38.876692166666665, "rental_uris": {"ios": "https://dc.lft.to/lastmile_qr_scan", "android": "https://dc.lft.to/lastmile_qr_scan"}, "is_reserved": 0, "fusion_lon": 0.0, "fusion_lat": 0.0, "lon": -77.0143315, "name": "ffac1f68f6e1a2bf9a99dfd0f79a06ab"}, {"bike_id": "14214dbdf8cc4ea64c8ff772ea21697e", "type": "electric_scooter", "is_disabled": 0, "lat": 38.92087716666666, "rental_uris": {"ios": "https://dc.lft.to/lastmile_qr_scan", "android": "https://dc.lft.to/lastmile_qr_scan"}, "is_reserved": 0, "fusion_lon": 0.0, "fusion_lat": 0.0, "lon": -77.0164875, "name": "14214dbdf8cc4ea64c8ff772ea21697e"}, {"bike_id": "d07c42c4f2ffdaa675552d5c4f7bd983", "type": "electric_scooter", "is_disabled": 0, "lat": 38.8995305, "rental_uris": {"ios": "https://dc.lft.to/lastmile_qr_scan", "android": "https://dc.lft.to/lastmile_qr_scan"}, "is_reserved": 0, "fusion_lon": 0.0, "fusion_lat": 0.0, "lon": -77.02371083333334, "name": "d07c42c4f2ffdaa675552d5c4f7bd983"}, {"bike_id": "cc80274ed0dae570dabbc70d7a94e6a0", "type": "electric_scooter", "is_disabled": 0, "lat": 38.91026333333333, "rental_uris": {"ios": "https://dc.lft.to/lastmile_qr_scan", "android": "https://dc.lft.to/lastmile_qr_scan"}, "is_reserved": 0, "fusion_lon": 0.0, "fusion_lat": 0.0, "lon": -77.00759116666667, "name": "cc80274ed0dae570dabbc70d7a94e6a0"}, {"bike_id": "aca7b2d5e243fd08beb907dbedb291ce", "type": "electric_scooter", "is_disabled": 0, "lat": 38.93315066666667, "rental_uris": {"ios": "https://dc.lft.to/lastmile_qr_scan", "android": "https://dc.lft.to/lastmile_qr_scan"}, "is_reserved": 0, "fusion_lon": 0.0, "fusion_lat": 0.0, "lon": -77.02749166666666, "name": "aca7b2d5e243fd08beb907dbedb291ce"}, {"bike_id": "964e96452e1d89b536ef58b5c9e93006", "type": "electric_bike", "is_disabled": 0, "lat": 38.93104683333333, "rental_uris": {"ios": "https://dc.lft.to/lastmile_qr_scan", "android": "https://dc.lft.to/lastmile_qr_scan"}, "is_reserved": 0, "fusion_lon": 0.0, "fusion_lat": 0.0, "lon": -77.01844783333334, "name": "964e96452e1d89b536ef58b5c9e93006"}, {"bike_id": "db9479db330a82e6a3d1b2504d818d02", "type": "electric_scooter", "is_disabled": 0, "lat": 38.92230833333333, "rental_uris": {"ios": "https://dc.lft.to/lastmile_qr_scan", "android": "https://dc.lft.to/lastmile_qr_scan"}, "is_reserved": 0, "fusion_lon": 0.0, "fusion_lat": 0.0, "lon": -76.9753215, "name": "db9479db330a82e6a3d1b2504d818d02"}, {"bike_id": "4ac8f86058d8a5e5792641b228e7a79e", "type": "electric_scooter", "is_disabled": 0, "lat": 38.9095985, "rental_uris": {"ios": "https://dc.lft.to/lastmile_qr_scan", "android": "https://dc.lft.to/lastmile_qr_scan"}, "is_reserved": 0, "fusion_lon": 0.0, "fusion_lat": 0.0, "lon": -77.03952033333333, "name": "4ac8f86058d8a5e5792641b228e7a79e"}, {"bike_id": "57fe48ca8f84b3ab6dfce8aca2a7da95", "type": "electric_scooter", "is_disabled": 0, "lat": 38.899776333333335, "rental_uris": {"ios": "https://dc.lft.to/lastmile_qr_scan", "android": "https://dc.lft.to/lastmile_qr_scan"}, "is_reserved": 0, "fusion_lon": 0.0, "fusion_lat": 0.0, "lon": -77.02064633333333, "name": "57fe48ca8f84b3ab6dfce8aca2a7da95"}, {"bike_id": "b456e3c81369d54530147b310edbad8f", "type": "electric_scooter", "is_disabled": 0, "lat": 38.91957216666667, "rental_uris": {"ios": "https://dc.lft.to/lastmile_qr_scan", "android": "https://dc.lft.to/lastmile_qr_scan"}, "is_reserved": 0, "fusion_lon": 0.0, "fusion_lat": 0.0, "lon": -77.04236816666666, "name": "b456e3c81369d54530147b310edbad8f"}, {"bike_id": "d4df53dfdaa7c61b1563e7559531a851", "type": "electric_scooter", "is_disabled": 0, "lat": 38.876596166666666, "rental_uris": {"ios": "https://dc.lft.to/lastmile_qr_scan", "android": "https://dc.lft.to/lastmile_qr_scan"}, "is_reserved": 0, "fusion_lon": 0.0, "fusion_lat": 0.0, "lon": -76.9964395, "name": "d4df53dfdaa7c61b1563e7559531a851"}, {"bike_id": "62f32893f9c6cf131678dac3373c3426", "type": "electric_scooter", "is_disabled": 0, "lat": 38.90573166666667, "rental_uris": {"ios": "https://dc.lft.to/lastmile_qr_scan", "android": "https://dc.lft.to/lastmile_qr_scan"}, "is_reserved": 0, "fusion_lon": 0.0, "fusion_lat": 0.0, "lon": -76.97630916666667, "name": "62f32893f9c6cf131678dac3373c3426"}, {"bike_id": "7b6133620ce19896973ec3510dc6f57e", "type": "electric_scooter", "is_disabled": 0, "lat": 38.92859133333333, "rental_uris": {"ios": "https://dc.lft.to/lastmile_qr_scan", "android": "https://dc.lft.to/lastmile_qr_scan"}, "is_reserved": 0, "fusion_lon": 0.0, "fusion_lat": 0.0, "lon": -77.05441866666666, "name": "7b6133620ce19896973ec3510dc6f57e"}, {"bike_id": "cd957d6b92ae5bf4748b80fc5536ad22", "type": "electric_scooter", "is_disabled": 0, "lat": 38.92071216666667, "rental_uris": {"ios": "https://dc.lft.to/lastmile_qr_scan", "android": "https://dc.lft.to/lastmile_qr_scan"}, "is_reserved": 0, "fusion_lon": 0.0, "fusion_lat": 0.0, "lon": -77.03206633333333, "name": "cd957d6b92ae5bf4748b80fc5536ad22"}, {"bike_id": "9657f93c7f5d0b66c10bb2dbc5326a2a", "type": "electric_scooter", "is_disabled": 0, "lat": 38.90929233333333, "rental_uris": {"ios": "https://dc.lft.to/lastmile_qr_scan", "android": "https://dc.lft.to/lastmile_qr_scan"}, "is_reserved": 0, "fusion_lon": 0.0, "fusion_lat": 0.0, "lon": -77.04497233333333, "name": "9657f93c7f5d0b66c10bb2dbc5326a2a"}, {"bike_id": "33d1be107b137de6afd05313f19d8147", "type": "electric_bike", "is_disabled": 0, "lat": 38.90834066666667, "rental_uris": {"ios": "https://dc.lft.to/lastmile_qr_scan", "android": "https://dc.lft.to/lastmile_qr_scan"}, "is_reserved": 0, "fusion_lon": 0.0, "fusion_lat": 0.0, "lon": -76.93313333333333, "name": "33d1be107b137de6afd05313f19d8147"}, {"bike_id": "a28102ce3a5ee6596f9b7826e2852479", "type": "electric_scooter", "is_disabled": 0, "lat": 38.9024225, "rental_uris": {"ios": "https://dc.lft.to/lastmile_qr_scan", "android": "https://dc.lft.to/lastmile_qr_scan"}, "is_reserved": 0, "fusion_lon": 0.0, "fusion_lat": 0.0, "lon": -77.018558, "name": "a28102ce3a5ee6596f9b7826e2852479"}, {"bike_id": "ef36b8f66c4f63199f0f8e8c0f11e772", "type": "electric_scooter", "is_disabled": 0, "lat": 38.91698483333333, "rental_uris": {"ios": "https://dc.lft.to/lastmile_qr_scan", "android": "https://dc.lft.to/lastmile_qr_scan"}, "is_reserved": 0, "fusion_lon": 0.0, "fusion_lat": 0.0, "lon": -77.03165383333334, "name": "ef36b8f66c4f63199f0f8e8c0f11e772"}, {"bike_id": "4945046c851cc16d8cda8f96ef785106", "type": "electric_scooter", "is_disabled": 0, "lat": 38.911207166666664, "rental_uris": {"ios": "https://dc.lft.to/lastmile_qr_scan", "android": "https://dc.lft.to/lastmile_qr_scan"}, "is_reserved": 0, "fusion_lon": 0.0, "fusion_lat": 0.0, "lon": -77.03837966666667, "name": "4945046c851cc16d8cda8f96ef785106"}, {"bike_id": "e70f1a63f11a103ea0d6e67d90e28761", "type": "electric_scooter", "is_disabled": 0, "lat": 38.907344333333334, "rental_uris": {"ios": "https://dc.lft.to/lastmile_qr_scan", "android": "https://dc.lft.to/lastmile_qr_scan"}, "is_reserved": 0, "fusion_lon": 0.0, "fusion_lat": 0.0, "lon": -77.029454, "name": "e70f1a63f11a103ea0d6e67d90e28761"}, {"bike_id": "b89fbf186c9d61b6e85ed2150ec91d4f", "type": "electric_scooter", "is_disabled": 0, "lat": 38.8709385, "rental_uris": {"ios": "https://dc.lft.to/lastmile_qr_scan", "android": "https://dc.lft.to/lastmile_qr_scan"}, "is_reserved": 0, "fusion_lon": 0.0, "fusion_lat": 0.0, "lon": -77.012032, "name": "b89fbf186c9d61b6e85ed2150ec91d4f"}, {"bike_id": "b724a6d03c4d5e97f3d710b00966f606", "type": "electric_scooter", "is_disabled": 0, "lat": 38.90320883333333, "rental_uris": {"ios": "https://dc.lft.to/lastmile_qr_scan", "android": "https://dc.lft.to/lastmile_qr_scan"}, "is_reserved": 0, "fusion_lon": 0.0, "fusion_lat": 0.0, "lon": -76.99425183333334, "name": "b724a6d03c4d5e97f3d710b00966f606"}, {"bike_id": "0ee585236d26c739184d8740395edd14", "type": "electric_scooter", "is_disabled": 0, "lat": 38.88405, "rental_uris": {"ios": "https://dc.lft.to/lastmile_qr_scan", "android": "https://dc.lft.to/lastmile_qr_scan"}, "is_reserved": 0, "fusion_lon": 0.0, "fusion_lat": 0.0, "lon": -76.95400233333334, "name": "0ee585236d26c739184d8740395edd14"}, {"bike_id": "28e6897dab3e043d034f68d8f72d7fe3", "type": "electric_scooter", "is_disabled": 0, "lat": 38.92272483333333, "rental_uris": {"ios": "https://dc.lft.to/lastmile_qr_scan", "android": "https://dc.lft.to/lastmile_qr_scan"}, "is_reserved": 0, "fusion_lon": 0.0, "fusion_lat": 0.0, "lon": -77.0328195, "name": "28e6897dab3e043d034f68d8f72d7fe3"}, {"bike_id": "cf87ea1308a41077b0c0bdcb7c3c8e4d", "type": "electric_scooter", "is_disabled": 0, "lat": 38.87829933333333, "rental_uris": {"ios": "https://dc.lft.to/lastmile_qr_scan", "android": "https://dc.lft.to/lastmile_qr_scan"}, "is_reserved": 0, "fusion_lon": 0.0, "fusion_lat": 0.0, "lon": -76.963074, "name": "cf87ea1308a41077b0c0bdcb7c3c8e4d"}, {"bike_id": "185de83dabf763c2071474fc290d8c4f", "type": "electric_scooter", "is_disabled": 0, "lat": 38.866990333333334, "rental_uris": {"ios": "https://dc.lft.to/lastmile_qr_scan", "android": "https://dc.lft.to/lastmile_qr_scan"}, "is_reserved": 0, "fusion_lon": 0.0, "fusion_lat": 0.0, "lon": -76.9871805, "name": "185de83dabf763c2071474fc290d8c4f"}, {"bike_id": "0581edab1f68c11d6403597ed386f348", "type": "electric_scooter", "is_disabled": 0, "lat": 38.870916333333334, "rental_uris": {"ios": "https://dc.lft.to/lastmile_qr_scan", "android": "https://dc.lft.to/lastmile_qr_scan"}, "is_reserved": 0, "fusion_lon": 0.0, "fusion_lat": 0.0, "lon": -76.96580316666666, "name": "0581edab1f68c11d6403597ed386f348"}, {"bike_id": "13e7f143f97c5fbfd100c39a17e57e01", "type": "electric_scooter", "is_disabled": 0, "lat": 38.94085316666666, "rental_uris": {"ios": "https://dc.lft.to/lastmile_qr_scan", "android": "https://dc.lft.to/lastmile_qr_scan"}, "is_reserved": 0, "fusion_lon": 0.0, "fusion_lat": 0.0, "lon": -77.0271995, "name": "13e7f143f97c5fbfd100c39a17e57e01"}, {"bike_id": "40e96cafa105c407fcce727f22ef98d7", "type": "electric_scooter", "is_disabled": 0, "lat": 38.91534733333334, "rental_uris": {"ios": "https://dc.lft.to/lastmile_qr_scan", "android": "https://dc.lft.to/lastmile_qr_scan"}, "is_reserved": 0, "fusion_lon": 0.0, "fusion_lat": 0.0, "lon": -76.98359433333333, "name": "40e96cafa105c407fcce727f22ef98d7"}, {"bike_id": "62527359af6e7bebc24f8fe0daa5061c", "type": "electric_scooter", "is_disabled": 0, "lat": 38.91461016666667, "rental_uris": {"ios": "https://dc.lft.to/lastmile_qr_scan", "android": "https://dc.lft.to/lastmile_qr_scan"}, "is_reserved": 0, "fusion_lon": 0.0, "fusion_lat": 0.0, "lon": -76.98406083333333, "name": "62527359af6e7bebc24f8fe0daa5061c"}, {"bike_id": "ece29c0f569272bd97a692b187f7c061", "type": "electric_scooter", "is_disabled": 0, "lat": 38.918207833333334, "rental_uris": {"ios": "https://dc.lft.to/lastmile_qr_scan", "android": "https://dc.lft.to/lastmile_qr_scan"}, "is_reserved": 0, "fusion_lon": 0.0, "fusion_lat": 0.0, "lon": -77.0493815, "name": "ece29c0f569272bd97a692b187f7c061"}, {"bike_id": "17885be8892708434a1b80c2834290dc", "type": "electric_scooter", "is_disabled": 0, "lat": 38.91701316666666, "rental_uris": {"ios": "https://dc.lft.to/lastmile_qr_scan", "android": "https://dc.lft.to/lastmile_qr_scan"}, "is_reserved": 0, "fusion_lon": 0.0, "fusion_lat": 0.0, "lon": -77.0065565, "name": "17885be8892708434a1b80c2834290dc"}, {"bike_id": "4e797873d284d6dee7078429b77375ec", "type": "electric_scooter", "is_disabled": 0, "lat": 38.90019316666667, "rental_uris": {"ios": "https://dc.lft.to/lastmile_qr_scan", "android": "https://dc.lft.to/lastmile_qr_scan"}, "is_reserved": 0, "fusion_lon": 0.0, "fusion_lat": 0.0, "lon": -77.04156816666666, "name": "4e797873d284d6dee7078429b77375ec"}, {"bike_id": "129d6cdd3cd6bf6c3e3c30d34f3bd000", "type": "electric_bike", "is_disabled": 0, "lat": 39.05283433333334, "rental_uris": {"ios": "https://dc.lft.to/lastmile_qr_scan", "android": "https://dc.lft.to/lastmile_qr_scan"}, "is_reserved": 0, "fusion_lon": 0.0, "fusion_lat": 0.0, "lon": -77.08069616666667, "name": "129d6cdd3cd6bf6c3e3c30d34f3bd000"}, {"bike_id": "51fd7c1a8eaec5f7b49bc427caf272a4", "type": "electric_scooter", "is_disabled": 0, "lat": 38.92850683333333, "rental_uris": {"ios": "https://dc.lft.to/lastmile_qr_scan", "android": "https://dc.lft.to/lastmile_qr_scan"}, "is_reserved": 0, "fusion_lon": 0.0, "fusion_lat": 0.0, "lon": -77.01382783333334, "name": "51fd7c1a8eaec5f7b49bc427caf272a4"}, {"bike_id": "9f35e7fcc579de3aff3ea49935681ca4", "type": "electric_scooter", "is_disabled": 0, "lat": 38.9104835, "rental_uris": {"ios": "https://dc.lft.to/lastmile_qr_scan", "android": "https://dc.lft.to/lastmile_qr_scan"}, "is_reserved": 0, "fusion_lon": 0.0, "fusion_lat": 0.0, "lon": -77.026822, "name": "9f35e7fcc579de3aff3ea49935681ca4"}, {"bike_id": "16c9e26352af6c03559a32875d2fa62a", "type": "electric_scooter", "is_disabled": 0, "lat": 38.90123466666667, "rental_uris": {"ios": "https://dc.lft.to/lastmile_qr_scan", "android": "https://dc.lft.to/lastmile_qr_scan"}, "is_reserved": 0, "fusion_lon": 0.0, "fusion_lat": 0.0, "lon": -77.04986816666667, "name": "16c9e26352af6c03559a32875d2fa62a"}, {"bike_id": "a288f1e03c7a5ad8731c022d122ad3f6", "type": "electric_scooter", "is_disabled": 0, "lat": 38.918126, "rental_uris": {"ios": "https://dc.lft.to/lastmile_qr_scan", "android": "https://dc.lft.to/lastmile_qr_scan"}, "is_reserved": 0, "fusion_lon": 0.0, "fusion_lat": 0.0, "lon": -77.010215, "name": "a288f1e03c7a5ad8731c022d122ad3f6"}, {"bike_id": "6a3f21a836e2b26eea6c6d5829d8cf3e", "type": "electric_scooter", "is_disabled": 0, "lat": 38.9275295, "rental_uris": {"ios": "https://dc.lft.to/lastmile_qr_scan", "android": "https://dc.lft.to/lastmile_qr_scan"}, "is_reserved": 0, "fusion_lon": 0.0, "fusion_lat": 0.0, "lon": -77.03267083333333, "name": "6a3f21a836e2b26eea6c6d5829d8cf3e"}, {"bike_id": "7999815b1a836f4ba724f0d7d4f0ccb4", "type": "electric_scooter", "is_disabled": 0, "lat": 38.862373, "rental_uris": {"ios": "https://dc.lft.to/lastmile_qr_scan", "android": "https://dc.lft.to/lastmile_qr_scan"}, "is_reserved": 0, "fusion_lon": 0.0, "fusion_lat": 0.0, "lon": -76.99516183333333, "name": "7999815b1a836f4ba724f0d7d4f0ccb4"}, {"bike_id": "320af2ad1418d7acd5b7cb8bee662570", "type": "electric_scooter", "is_disabled": 0, "lat": 38.9075115, "rental_uris": {"ios": "https://dc.lft.to/lastmile_qr_scan", "android": "https://dc.lft.to/lastmile_qr_scan"}, "is_reserved": 0, "fusion_lon": 0.0, "fusion_lat": 0.0, "lon": -77.031595, "name": "320af2ad1418d7acd5b7cb8bee662570"}, {"bike_id": "a35ab14ca8e9b05b870d449edc692118", "type": "electric_scooter", "is_disabled": 0, "lat": 38.88029366666667, "rental_uris": {"ios": "https://dc.lft.to/lastmile_qr_scan", "android": "https://dc.lft.to/lastmile_qr_scan"}, "is_reserved": 0, "fusion_lon": 0.0, "fusion_lat": 0.0, "lon": -77.025129, "name": "a35ab14ca8e9b05b870d449edc692118"}, {"bike_id": "b13d53ba12a629a54225b45a9a682c4b", "type": "electric_scooter", "is_disabled": 0, "lat": 38.893248666666665, "rental_uris": {"ios": "https://dc.lft.to/lastmile_qr_scan", "android": "https://dc.lft.to/lastmile_qr_scan"}, "is_reserved": 0, "fusion_lon": 0.0, "fusion_lat": 0.0, "lon": -77.04879216666667, "name": "b13d53ba12a629a54225b45a9a682c4b"}, {"bike_id": "231b9dff81d0f5c2559cc2dd75d4469e", "type": "electric_scooter", "is_disabled": 0, "lat": 38.90471016666667, "rental_uris": {"ios": "https://dc.lft.to/lastmile_qr_scan", "android": "https://dc.lft.to/lastmile_qr_scan"}, "is_reserved": 0, "fusion_lon": 0.0, "fusion_lat": 0.0, "lon": -77.03553633333334, "name": "231b9dff81d0f5c2559cc2dd75d4469e"}, {"bike_id": "a2876da662e130f3197a7f9a3ce68b3d", "type": "electric_bike", "is_disabled": 0, "lat": 38.7998, "rental_uris": {"ios": "https://dc.lft.to/lastmile_qr_scan", "android": "https://dc.lft.to/lastmile_qr_scan"}, "is_reserved": 0, "fusion_lon": 0.0, "fusion_lat": 0.0, "lon": -77.12975533333334, "name": "a2876da662e130f3197a7f9a3ce68b3d"}, {"bike_id": "29a68f8e781fa71fd5fefdaa0ec388a6", "type": "electric_scooter", "is_disabled": 0, "lat": 38.9223765, "rental_uris": {"ios": "https://dc.lft.to/lastmile_qr_scan", "android": "https://dc.lft.to/lastmile_qr_scan"}, "is_reserved": 0, "fusion_lon": 0.0, "fusion_lat": 0.0, "lon": -77.02953333333333, "name": "29a68f8e781fa71fd5fefdaa0ec388a6"}, {"bike_id": "9206adc3f1d4d4afe90b787234ecdc5a", "type": "electric_scooter", "is_disabled": 0, "lat": 38.91574583333333, "rental_uris": {"ios": "https://dc.lft.to/lastmile_qr_scan", "android": "https://dc.lft.to/lastmile_qr_scan"}, "is_reserved": 0, "fusion_lon": 0.0, "fusion_lat": 0.0, "lon": -77.03468733333334, "name": "9206adc3f1d4d4afe90b787234ecdc5a"}, {"bike_id": "a37e64ecd9d89bdcc3e2046007881218", "type": "electric_scooter", "is_disabled": 0, "lat": 38.87846733333333, "rental_uris": {"ios": "https://dc.lft.to/lastmile_qr_scan", "android": "https://dc.lft.to/lastmile_qr_scan"}, "is_reserved": 0, "fusion_lon": 0.0, "fusion_lat": 0.0, "lon": -77.0059475, "name": "a37e64ecd9d89bdcc3e2046007881218"}, {"bike_id": "2e767659b6a8ee34ace393f82037a6b8", "type": "electric_scooter", "is_disabled": 0, "lat": 38.89089333333333, "rental_uris": {"ios": "https://dc.lft.to/lastmile_qr_scan", "android": "https://dc.lft.to/lastmile_qr_scan"}, "is_reserved": 0, "fusion_lon": 0.0, "fusion_lat": 0.0, "lon": -77.00259833333334, "name": "2e767659b6a8ee34ace393f82037a6b8"}, {"bike_id": "db0937fac45735bec6eac251c3313b15", "type": "electric_scooter", "is_disabled": 0, "lat": 38.919148666666665, "rental_uris": {"ios": "https://dc.lft.to/lastmile_qr_scan", "android": "https://dc.lft.to/lastmile_qr_scan"}, "is_reserved": 0, "fusion_lon": 0.0, "fusion_lat": 0.0, "lon": -77.03107416666667, "name": "db0937fac45735bec6eac251c3313b15"}, {"bike_id": "ee18be90ccd09c7f5dba57881e1b3457", "type": "electric_scooter", "is_disabled": 0, "lat": 38.94214366666667, "rental_uris": {"ios": "https://dc.lft.to/lastmile_qr_scan", "android": "https://dc.lft.to/lastmile_qr_scan"}, "is_reserved": 0, "fusion_lon": 0.0, "fusion_lat": 0.0, "lon": -77.0257785, "name": "ee18be90ccd09c7f5dba57881e1b3457"}, {"bike_id": "242b8803fd7346d7849500bc7461e233", "type": "electric_scooter", "is_disabled": 0, "lat": 38.8764615, "rental_uris": {"ios": "https://dc.lft.to/lastmile_qr_scan", "android": "https://dc.lft.to/lastmile_qr_scan"}, "is_reserved": 0, "fusion_lon": 0.0, "fusion_lat": 0.0, "lon": -77.004354, "name": "242b8803fd7346d7849500bc7461e233"}, {"bike_id": "c962569e73a447d5619cdb62ad2ebcff", "type": "electric_scooter", "is_disabled": 0, "lat": 38.903465, "rental_uris": {"ios": "https://dc.lft.to/lastmile_qr_scan", "android": "https://dc.lft.to/lastmile_qr_scan"}, "is_reserved": 0, "fusion_lon": 0.0, "fusion_lat": 0.0, "lon": -77.05372883333334, "name": "c962569e73a447d5619cdb62ad2ebcff"}, {"bike_id": "8fac73888175ab69882f08f4fe5f6086", "type": "electric_scooter", "is_disabled": 0, "lat": 38.92609783333333, "rental_uris": {"ios": "https://dc.lft.to/lastmile_qr_scan", "android": "https://dc.lft.to/lastmile_qr_scan"}, "is_reserved": 0, "fusion_lon": 0.0, "fusion_lat": 0.0, "lon": -77.02659283333334, "name": "8fac73888175ab69882f08f4fe5f6086"}, {"bike_id": "88d6e66a501460b400252d83f3d9a611", "type": "electric_scooter", "is_disabled": 0, "lat": 38.905809, "rental_uris": {"ios": "https://dc.lft.to/lastmile_qr_scan", "android": "https://dc.lft.to/lastmile_qr_scan"}, "is_reserved": 0, "fusion_lon": 0.0, "fusion_lat": 0.0, "lon": -77.0260705, "name": "88d6e66a501460b400252d83f3d9a611"}, {"bike_id": "ea0dd1149572d7122c6db9b90afbacde", "type": "electric_scooter", "is_disabled": 0, "lat": 38.91276916666666, "rental_uris": {"ios": "https://dc.lft.to/lastmile_qr_scan", "android": "https://dc.lft.to/lastmile_qr_scan"}, "is_reserved": 0, "fusion_lon": 0.0, "fusion_lat": 0.0, "lon": -77.022465, "name": "ea0dd1149572d7122c6db9b90afbacde"}, {"bike_id": "df8055eeff134b652d8801e2157bb7bf", "type": "electric_scooter", "is_disabled": 0, "lat": 38.9155665, "rental_uris": {"ios": "https://dc.lft.to/lastmile_qr_scan", "android": "https://dc.lft.to/lastmile_qr_scan"}, "is_reserved": 0, "fusion_lon": 0.0, "fusion_lat": 0.0, "lon": -77.03870366666666, "name": "df8055eeff134b652d8801e2157bb7bf"}, {"bike_id": "31ec7fc9af5f57eebe54a47bebaeb084", "type": "electric_scooter", "is_disabled": 0, "lat": 38.92153366666667, "rental_uris": {"ios": "https://dc.lft.to/lastmile_qr_scan", "android": "https://dc.lft.to/lastmile_qr_scan"}, "is_reserved": 0, "fusion_lon": 0.0, "fusion_lat": 0.0, "lon": -77.034402, "name": "31ec7fc9af5f57eebe54a47bebaeb084"}, {"bike_id": "823be82724b64fcf63459623445afeaa", "type": "electric_scooter", "is_disabled": 0, "lat": 38.905118333333334, "rental_uris": {"ios": "https://dc.lft.to/lastmile_qr_scan", "android": "https://dc.lft.to/lastmile_qr_scan"}, "is_reserved": 0, "fusion_lon": 0.0, "fusion_lat": 0.0, "lon": -77.068777, "name": "823be82724b64fcf63459623445afeaa"}, {"bike_id": "beb753d3ae4533507f383c97dbfeadff", "type": "electric_scooter", "is_disabled": 0, "lat": 38.92579583333333, "rental_uris": {"ios": "https://dc.lft.to/lastmile_qr_scan", "android": "https://dc.lft.to/lastmile_qr_scan"}, "is_reserved": 0, "fusion_lon": 0.0, "fusion_lat": 0.0, "lon": -77.02759883333333, "name": "beb753d3ae4533507f383c97dbfeadff"}, {"bike_id": "a567ff4fc3af67a5504bd866f8503c72", "type": "electric_scooter", "is_disabled": 0, "lat": 38.916996833333336, "rental_uris": {"ios": "https://dc.lft.to/lastmile_qr_scan", "android": "https://dc.lft.to/lastmile_qr_scan"}, "is_reserved": 0, "fusion_lon": 0.0, "fusion_lat": 0.0, "lon": -77.0079895, "name": "a567ff4fc3af67a5504bd866f8503c72"}, {"bike_id": "d1833a6595b4b8f7440277b7289391fb", "type": "electric_scooter", "is_disabled": 0, "lat": 38.922507833333334, "rental_uris": {"ios": "https://dc.lft.to/lastmile_qr_scan", "android": "https://dc.lft.to/lastmile_qr_scan"}, "is_reserved": 0, "fusion_lon": 0.0, "fusion_lat": 0.0, "lon": -77.0325725, "name": "d1833a6595b4b8f7440277b7289391fb"}, {"bike_id": "981d298487c16b89e19c91dfd173dd3d", "type": "electric_scooter", "is_disabled": 0, "lat": 38.912882833333335, "rental_uris": {"ios": "https://dc.lft.to/lastmile_qr_scan", "android": "https://dc.lft.to/lastmile_qr_scan"}, "is_reserved": 0, "fusion_lon": 0.0, "fusion_lat": 0.0, "lon": -77.03853583333333, "name": "981d298487c16b89e19c91dfd173dd3d"}, {"bike_id": "cbe9344a24ec97282ce73da1bc9def81", "type": "electric_scooter", "is_disabled": 0, "lat": 38.92657033333333, "rental_uris": {"ios": "https://dc.lft.to/lastmile_qr_scan", "android": "https://dc.lft.to/lastmile_qr_scan"}, "is_reserved": 0, "fusion_lon": 0.0, "fusion_lat": 0.0, "lon": -77.03730033333333, "name": "cbe9344a24ec97282ce73da1bc9def81"}, {"bike_id": "257ab8e5f3c2822b3e1ae3fd8e7fb1b6", "type": "electric_scooter", "is_disabled": 0, "lat": 38.92857166666667, "rental_uris": {"ios": "https://dc.lft.to/lastmile_qr_scan", "android": "https://dc.lft.to/lastmile_qr_scan"}, "is_reserved": 0, "fusion_lon": 0.0, "fusion_lat": 0.0, "lon": -77.03221033333334, "name": "257ab8e5f3c2822b3e1ae3fd8e7fb1b6"}, {"bike_id": "1999a7f26b4b804a36c78f358a24d1fb", "type": "electric_scooter", "is_disabled": 0, "lat": 38.914143, "rental_uris": {"ios": "https://dc.lft.to/lastmile_qr_scan", "android": "https://dc.lft.to/lastmile_qr_scan"}, "is_reserved": 0, "fusion_lon": 0.0, "fusion_lat": 0.0, "lon": -77.02254783333333, "name": "1999a7f26b4b804a36c78f358a24d1fb"}, {"bike_id": "a5cefb62153508c74b3890305652ac89", "type": "electric_scooter", "is_disabled": 0, "lat": 38.906612, "rental_uris": {"ios": "https://dc.lft.to/lastmile_qr_scan", "android": "https://dc.lft.to/lastmile_qr_scan"}, "is_reserved": 0, "fusion_lon": 0.0, "fusion_lat": 0.0, "lon": -77.02967516666666, "name": "a5cefb62153508c74b3890305652ac89"}, {"bike_id": "c9c7e9830e0cce61d13185673b114564", "type": "electric_scooter", "is_disabled": 0, "lat": 38.92381, "rental_uris": {"ios": "https://dc.lft.to/lastmile_qr_scan", "android": "https://dc.lft.to/lastmile_qr_scan"}, "is_reserved": 0, "fusion_lon": 0.0, "fusion_lat": 0.0, "lon": -77.03631516666667, "name": "c9c7e9830e0cce61d13185673b114564"}, {"bike_id": "d2011ca5c2c1f0a9d65ff03fec90af19", "type": "electric_scooter", "is_disabled": 0, "lat": 38.906675166666666, "rental_uris": {"ios": "https://dc.lft.to/lastmile_qr_scan", "android": "https://dc.lft.to/lastmile_qr_scan"}, "is_reserved": 0, "fusion_lon": 0.0, "fusion_lat": 0.0, "lon": -77.02706633333334, "name": "d2011ca5c2c1f0a9d65ff03fec90af19"},