{"data": {"bikes": [{"is_disabled": 0, "rental_uris": {"android": "https://dc.lft.to/lastmile_qr_scan", "ios": "https://dc.lft.to/lastmile_qr_scan"}, "is_reserved": 0, "name": "9132659aebbc684f2bcd569df10ab589", "lon": -77.02804566666667, "type": "electric_scooter", "bike_id": "9132659aebbc684f2bcd569df10ab589", "fusion_lon": 0.0, "lat": 38.907402833333336, "fusion_lat": 0.0}, {"is_disabled": 0, "rental_uris": {"android": "https://dc.lft.to/lastmile_qr_scan", "ios": "https://dc.lft.to/lastmile_qr_scan"}, "is_reserved": 0, "name": "e4c982559af87ec97c4193627dc163ba", "lon": -76.9861775, "type": "electric_scooter", "bike_id": "e4c982559af87ec97c4193627dc163ba", "fusion_lon": 0.0, "lat": 38.9034785, "fusion_lat": 0.0}, {"is_disabled": 0, "rental_uris": {"android": "https://dc.lft.to/lastmile_qr_scan", "ios": "https://dc.lft.to/lastmile_qr_scan"}, "is_reserved": 0, "name": "95ed7e8565cf1da9f7a8c04d7031b255", "lon": -77.04342366666667, "type": "electric_scooter", "bike_id": "95ed7e8565cf1da9f7a8c04d7031b255", "fusion_lon": 0.0, "lat": 38.92169366666667, "fusion_lat": 0.0}, {"is_disabled": 0, "rental_uris": {"android": "https://dc.lft.to/lastmile_qr_scan", "ios": "https://dc.lft.to/lastmile_qr_scan"}, "is_reserved": 0, "name": "e890ccc81027648711aa0a6705927f86", "lon": -76.99488216666667, "type": "electric_scooter", "bike_id": "e890ccc81027648711aa0a6705927f86", "fusion_lon": 0.0, "lat": 38.862381166666665, "fusion_lat": 0.0}, {"is_disabled": 0, "rental_uris": {"android": "https://dc.lft.to/lastmile_qr_scan", "ios": "https://dc.lft.to/lastmile_qr_scan"}, "is_reserved": 0, "name": "8d7a58ab0bdfd08d028623eb2ebe615e", "lon": -77.04681466666666, "type": "electric_scooter", "bike_id": "8d7a58ab0bdfd08d028623eb2ebe615e", "fusion_lon": 0.0, "lat": 38.897337666666665, "fusion_lat": 0.0}, {"is_disabled": 0, "rental_uris": {"android": "https://dc.lft.to/lastmile_qr_scan", "ios": "https://dc.lft.to/lastmile_qr_scan"}, "is_reserved": 0, "name": "46e2969fd7fa9fc41cc490526b462fd5", "lon": -77.06902083333334, "type": "electric_scooter", "bike_id": "46e2969fd7fa9fc41cc490526b462fd5", "fusion_lon": 0.0, "lat": 38.9078725, "fusion_lat": 0.0}, {"is_disabled": 0, "rental_uris": {"android": "https://dc.lft.to/lastmile_qr_scan", "ios": "https://dc.lft.to/lastmile_qr_scan"}, "is_reserved": 0, "name": "de999c72f8ce9785b06c7e88067c7a97", "lon": -77.127378, "type": "electric_bike", "bike_id": "de999c72f8ce9785b06c7e88067c7a97", "fusion_lon": 0.0, "lat": 38.88826316666667, "fusion_lat": 0.0}, {"is_disabled": 0, "rental_uris": {"android": "https://dc.lft.to/lastmile_qr_scan", "ios": "https://dc.lft.to/lastmile_qr_scan"}, "is_reserved": 0, "name": "6846f7d100ff9e9018f94c647d43eae5", "lon": -77.0218805, "type": "electric_scooter", "bike_id": "6846f7d100ff9e9018f94c647d43eae5", "fusion_lon": 0.0, "lat": 38.907007666666665, "fusion_lat": 0.0}, {"is_disabled": 0, "rental_uris": {"android": "https://dc.lft.to/lastmile_qr_scan", "ios": "https://dc.lft.to/lastmile_qr_scan"}, "is_reserved": 0, "name": "24d073e5fff00d925b4c841b06da33d5", "lon": -77.03170783333333, "type": "electric_scooter", "bike_id": "24d073e5fff00d925b4c841b06da33d5", "fusion_lon": 0.0, "lat": 38.8918775, "fusion_lat": 0.0}, {"is_disabled": 0, "rental_uris": {"android": "https://dc.lft.to/lastmile_qr_scan", "ios": "https://dc.lft.to/lastmile_qr_scan"}, "is_reserved": 0, "name": "5f35ed5b60470d250c445b29ed0311f9", "lon": -77.0386605, "type": "electric_scooter", "bike_id": "5f35ed5b60470d250c445b29ed0311f9", "fusion_lon": 0.0, "lat": 38.915546166666665, "fusion_lat": 0.0}, {"is_disabled": 0, "rental_uris": {"android": "https://dc.lft.to/lastmile_qr_scan", "ios": "https://dc.lft.to/lastmile_qr_scan"}, "is_reserved": 0, "name": "116697bd246405cab15dc224aa24d461", "lon": -77.02782, "type": "electric_scooter", "bike_id": "116697bd246405cab15dc224aa24d461", "fusion_lon": 0.0, "lat": 38.91016483333333, "fusion_lat": 0.0}, {"is_disabled": 0, "rental_uris": {"android": "https://dc.lft.to/lastmile_qr_scan", "ios": "https://dc.lft.to/lastmile_qr_scan"}, "is_reserved": 0, "name": "a9fd22288aebcff03d8329c637f53b0f", "lon": -77.02553883333333, "type": "electric_scooter", "bike_id": "a9fd22288aebcff03d8329c637f53b0f", "fusion_lon": 0.0, "lat": 38.904224166666665, "fusion_lat": 0.0}, {"is_disabled": 0, "rental_uris": {"android": "https://dc.lft.to/lastmile_qr_scan", "ios": "https://dc.lft.to/lastmile_qr_scan"}, "is_reserved": 0, "name": "8d1c6da27afe9302f9ffcb4b58ba5825", "lon": -77.02205733333334, "type": "electric_scooter", "bike_id": "8d1c6da27afe9302f9ffcb4b58ba5825", "fusion_lon": 0.0, "lat": 38.91421716666667, "fusion_lat": 0.0}, {"is_disabled": 0, "rental_uris": {"android": "https://dc.lft.to/lastmile_qr_scan", "ios": "https://dc.lft.to/lastmile_qr_scan"}, "is_reserved": 0, "name": "d1c9190ec0a1754dc66d2dad3f3d4848", "lon": -77.03463816666667, "type": "electric_scooter", "bike_id": "d1c9190ec0a1754dc66d2dad3f3d4848", "fusion_lon": 0.0, "lat": 38.9215705, "fusion_lat": 0.0}, {"is_disabled": 0, "rental_uris": {"android": "https://dc.lft.to/lastmile_qr_scan", "ios": "https://dc.lft.to/lastmile_qr_scan"}, "is_reserved": 0, "name": "5211cf4925523a5431bc3fe83493aae0", "lon": -77.02178866666667, "type": "electric_scooter", "bike_id": "5211cf4925523a5431bc3fe83493aae0", "fusion_lon": 0.0, "lat": 38.895098, "fusion_lat": 0.0}, {"is_disabled": 0, "rental_uris": {"android": "https://dc.lft.to/lastmile_qr_scan", "ios": "https://dc.lft.to/lastmile_qr_scan"}, "is_reserved": 0, "name": "ca805a4db5d123e0bfe8d1ef894ff754", "lon": -76.986089, "type": "electric_scooter", "bike_id": "ca805a4db5d123e0bfe8d1ef894ff754", "fusion_lon": 0.0, "lat": 38.88287783333333, "fusion_lat": 0.0}, {"is_disabled": 0, "rental_uris": {"android": "https://dc.lft.to/lastmile_qr_scan", "ios": "https://dc.lft.to/lastmile_qr_scan"}, "is_reserved": 0, "name": "de258cc7b01535bef72822115099faf8", "lon": -77.02161383333333, "type": "electric_scooter", "bike_id": "de258cc7b01535bef72822115099faf8", "fusion_lon": 0.0, "lat": 38.92615266666667, "fusion_lat": 0.0}, {"is_disabled": 0, "rental_uris": {"android": "https://dc.lft.to/lastmile_qr_scan", "ios": "https://dc.lft.to/lastmile_qr_scan"}, "is_reserved": 0, "name": "163a2073dc7ac7d03768a7af912acb4e", "lon": -76.97442916666667, "type": "electric_scooter", "bike_id": "163a2073dc7ac7d03768a7af912acb4e", "fusion_lon": 0.0, "lat": 38.86506083333333, "fusion_lat": 0.0}, {"is_disabled": 0, "rental_uris": {"android": "https://dc.lft.to/lastmile_qr_scan", "ios": "https://dc.lft.to/lastmile_qr_scan"}, "is_reserved": 0, "name": "ca588d6d1dced6849e1fba95ebd09fdf", "lon": -77.0545555, "type": "electric_scooter", "bike_id": "ca588d6d1dced6849e1fba95ebd09fdf", "fusion_lon": 0.0, "lat": 38.935418166666665, "fusion_lat": 0.0}, {"is_disabled": 0, "rental_uris": {"android": "https://dc.lft.to/lastmile_qr_scan", "ios": "https://dc.lft.to/lastmile_qr_scan"}, "is_reserved": 0, "name": "b37da956ea3c5de1ef0084fa657ff8fb", "lon": -77.0675915, "type": "electric_scooter", "bike_id": "b37da956ea3c5de1ef0084fa657ff8fb", "fusion_lon": 0.0, "lat": 38.94976183333333, "fusion_lat": 0.0}, {"is_disabled": 0, "rental_uris": {"android": "https://dc.lft.to/lastmile_qr_scan", "ios": "https://dc.lft.to/lastmile_qr_scan"}, "is_reserved": 0, "name": "d83ee4a3b564d99c8af26cf4dfa3702f", "lon": -77.02222183333333, "type": "electric_scooter", "bike_id": "d83ee4a3b564d99c8af26cf4dfa3702f", "fusion_lon": 0.0, "lat": 38.915631, "fusion_lat": 0.0}, {"is_disabled": 0, "rental_uris": {"android": "https://dc.lft.to/lastmile_qr_scan", "ios": "https://dc.lft.to/lastmile_qr_scan"}, "is_reserved": 0, "name": "fdf9805d302f3eecc36a60c18baed60a", "lon": -77.02882583333333, "type": "electric_bike", "bike_id": "fdf9805d302f3eecc36a60c18baed60a", "fusion_lon": 0.0, "lat": 38.9988615, "fusion_lat": 0.0}, {"is_disabled": 0, "rental_uris": {"android": "https://dc.lft.to/lastmile_qr_scan", "ios": "https://dc.lft.to/lastmile_qr_scan"}, "is_reserved": 0, "name": "a7e81a326157a34e6d37448965d8f1fc", "lon": -77.04003683333333, "type": "electric_bike", "bike_id": "a7e81a326157a34e6d37448965d8f1fc", "fusion_lon": 0.0, "lat": 38.9012465, "fusion_lat": 0.0}, {"is_disabled": 0, "rental_uris": {"android": "https://dc.lft.to/lastmile_qr_scan", "ios": "https://dc.lft.to/lastmile_qr_scan"}, "is_reserved": 0, "name": "eb038b9b2bcbb06c25c72293303debc4", "lon": -77.04729283333333, "type": "electric_scooter", "bike_id": "eb038b9b2bcbb06c25c72293303debc4", "fusion_lon": 0.0, "lat": 38.898484, "fusion_lat": 0.0}, {"is_disabled": 0, "rental_uris": {"android": "https://dc.lft.to/lastmile_qr_scan", "ios": "https://dc.lft.to/lastmile_qr_scan"}, "is_reserved": 0, "name": "0998b6dadb8c4c8c08c1d092b9d2a57a", "lon": -77.02161066666666, "type": "electric_scooter", "bike_id": "0998b6dadb8c4c8c08c1d092b9d2a57a", "fusion_lon": 0.0, "lat": 38.92605416666667, "fusion_lat": 0.0}, {"is_disabled": 0, "rental_uris": {"android": "https://dc.lft.to/lastmile_qr_scan", "ios": "https://dc.lft.to/lastmile_qr_scan"}, "is_reserved": 0, "name": "a97fdb0eceeacfcb8503eefe11887e65", "lon": -76.9721755, "type": "electric_bike", "bike_id": "a97fdb0eceeacfcb8503eefe11887e65", "fusion_lon": 0.0, "lat": 38.8447745, "fusion_lat": 0.0}, {"is_disabled": 0, "rental_uris": {"android": "https://dc.lft.to/lastmile_qr_scan", "ios": "https://dc.lft.to/lastmile_qr_scan"}, "is_reserved": 0, "name": "afaa5c6d0e610b5952dfb07d25230eb4", "lon": -77.0416495, "type": "electric_scooter", "bike_id": "afaa5c6d0e610b5952dfb07d25230eb4", "fusion_lon": 0.0, "lat": 38.913114666666665, "fusion_lat": 0.0}, {"is_disabled": 0, "rental_uris": {"android": "https://dc.lft.to/lastmile_qr_scan", "ios": "https://dc.lft.to/lastmile_qr_scan"}, "is_reserved": 0, "name": "ca75132f01376e7d062c971d3d6fa8e0", "lon": -77.02687383333334, "type": "electric_scooter", "bike_id": "ca75132f01376e7d062c971d3d6fa8e0", "fusion_lon": 0.0, "lat": 38.9087135, "fusion_lat": 0.0}, {"is_disabled": 0, "rental_uris": {"android": "https://dc.lft.to/lastmile_qr_scan", "ios": "https://dc.lft.to/lastmile_qr_scan"}, "is_reserved": 0, "name": "bf59aaeca546d6373aa9f8a545136a68", "lon": -77.02289716666667, "type": "electric_scooter", "bike_id": "bf59aaeca546d6373aa9f8a545136a68", "fusion_lon": 0.0, "lat": 38.9108035, "fusion_lat": 0.0}, {"is_disabled": 0, "rental_uris": {"android": "https://dc.lft.to/lastmile_qr_scan", "ios": "https://dc.lft.to/lastmile_qr_scan"}, "is_reserved": 0, "name": "24caf326e8114225374048d67d1b7618", "lon": -77.023157, "type": "electric_scooter", "bike_id": "24caf326e8114225374048d67d1b7618", "fusion_lon": 0.0, "lat": 38.917713666666664, "fusion_lat": 0.0}, {"is_disabled": 0, "rental_uris": {"android": "https://dc.lft.to/lastmile_qr_scan", "ios": "https://dc.lft.to/lastmile_qr_scan"}, "is_reserved": 0, "name": "113507123da9535fbd31e03fc8525e70", "lon": -77.02312283333333, "type": "electric_scooter", "bike_id": "113507123da9535fbd31e03fc8525e70", "fusion_lon": 0.0, "lat": 38.878828666666664, "fusion_lat": 0.0}, {"is_disabled": 0, "rental_uris": {"android": "https://dc.lft.to/lastmile_qr_scan", "ios": "https://dc.lft.to/lastmile_qr_scan"}, "is_reserved": 0, "name": "09a4cd2eb83f734bd4025bae611f20df", "lon": -77.01387166666666, "type": "electric_scooter", "bike_id": "09a4cd2eb83f734bd4025bae611f20df", "fusion_lon": 0.0, "lat": 38.910069, "fusion_lat": 0.0}, {"is_disabled": 0, "rental_uris": {"android": "https://dc.lft.to/lastmile_qr_scan", "ios": "https://dc.lft.to/lastmile_qr_scan"}, "is_reserved": 0, "name": "e360b809c72d57bfdcaf397d9b3c19e0", "lon": -77.00090416666667, "type": "electric_scooter", "bike_id": "e360b809c72d57bfdcaf397d9b3c19e0", "fusion_lon": 0.0, "lat": 38.89405883333333, "fusion_lat": 0.0}, {"is_disabled": 0, "rental_uris": {"android": "https://dc.lft.to/lastmile_qr_scan", "ios": "https://dc.lft.to/lastmile_qr_scan"}, "is_reserved": 0, "name": "90895c042afb4e79d206be0b631efa55", "lon": -77.021556, "type": "electric_scooter", "bike_id": "90895c042afb4e79d206be0b631efa55", "fusion_lon": 0.0, "lat": 38.92601583333333, "fusion_lat": 0.0}, {"is_disabled": 0, "rental_uris": {"android": "https://dc.lft.to/lastmile_qr_scan", "ios": "https://dc.lft.to/lastmile_qr_scan"}, "is_reserved": 0, "name": "225b1e85f5ddabb594e702a99e8feeba", "lon": -77.03374616666666, "type": "electric_scooter", "bike_id": "225b1e85f5ddabb594e702a99e8feeba", "fusion_lon": 0.0, "lat": 38.917139666666664, "fusion_lat": 0.0}, {"is_disabled": 0, "rental_uris": {"android": "https://dc.lft.to/lastmile_qr_scan", "ios": "https://dc.lft.to/lastmile_qr_scan"}, "is_reserved": 0, "name": "f9aab2f70dc54f744c54f28d4b9183a3", "lon": -77.00514483333333, "type": "electric_scooter", "bike_id": "f9aab2f70dc54f744c54f28d4b9183a3", "fusion_lon": 0.0, "lat": 38.84880366666667, "fusion_lat": 0.0}, {"is_disabled": 0, "rental_uris": {"android": "https://dc.lft.to/lastmile_qr_scan", "ios": "https://dc.lft.to/lastmile_qr_scan"}, "is_reserved": 0, "name": "6411dd88ca7c04288e60053c076f7695", "lon": -77.03956783333334, "type": "electric_scooter", "bike_id": "6411dd88ca7c04288e60053c076f7695", "fusion_lon": 0.0, "lat": 38.8986055, "fusion_lat": 0.0}, {"is_disabled": 0, "rental_uris": {"android": "https://dc.lft.to/lastmile_qr_scan", "ios": "https://dc.lft.to/lastmile_qr_scan"}, "is_reserved": 0, "name": "9e759987c3e4ee33d082f33324393f88", "lon": -77.07242916666667, "type": "electric_scooter", "bike_id": "9e759987c3e4ee33d082f33324393f88", "fusion_lon": 0.0, "lat": 38.907835, "fusion_lat": 0.0}, {"is_disabled": 0, "rental_uris": {"android": "https://dc.lft.to/lastmile_qr_scan", "ios": "https://dc.lft.to/lastmile_qr_scan"}, "is_reserved": 0, "name": "b7d123085facc2e93062a62f65668cc1", "lon": -77.02806583333333, "type": "electric_scooter", "bike_id": "b7d123085facc2e93062a62f65668cc1", "fusion_lon": 0.0, "lat": 38.930805666666664, "fusion_lat": 0.0}, {"is_disabled": 0, "rental_uris": {"android": "https://dc.lft.to/lastmile_qr_scan", "ios": "https://dc.lft.to/lastmile_qr_scan"}, "is_reserved": 0, "name": "7dd7d18ef6f73c3eb0d050028b9a16ff", "lon": -77.05105616666667, "type": "electric_scooter", "bike_id": "7dd7d18ef6f73c3eb0d050028b9a16ff", "fusion_lon": 0.0, "lat": 38.923669, "fusion_lat": 0.0}, {"is_disabled": 0, "rental_uris": {"android": "https://dc.lft.to/lastmile_qr_scan", "ios": "https://dc.lft.to/lastmile_qr_scan"}, "is_reserved": 0, "name": "6f4f0d4428d84c32bba87fa1420798dd", "lon": -77.05138833333334, "type": "electric_scooter", "bike_id": "6f4f0d4428d84c32bba87fa1420798dd", "fusion_lon": 0.0, "lat": 38.90596733333334, "fusion_lat": 0.0}, {"is_disabled": 0, "rental_uris": {"android": "https://dc.lft.to/lastmile_qr_scan", "ios": "https://dc.lft.to/lastmile_qr_scan"}, "is_reserved": 0, "name": "f7fdd0499bd1bb106363fc26ccaaace0", "lon": -76.952096, "type": "electric_scooter", "bike_id": "f7fdd0499bd1bb106363fc26ccaaace0", "fusion_lon": 0.0, "lat": 38.892492, "fusion_lat": 0.0}, {"is_disabled": 0, "rental_uris": {"android": "https://dc.lft.to/lastmile_qr_scan", "ios": "https://dc.lft.to/lastmile_qr_scan"}, "is_reserved": 0, "name": "2805c51b4edb516d261ad336d9d3b3cc", "lon": -77.04344983333333, "type": "electric_scooter", "bike_id": "2805c51b4edb516d261ad336d9d3b3cc", "fusion_lon": 0.0, "lat": 38.8981945, "fusion_lat": 0.0}, {"is_disabled": 0, "rental_uris": {"android": "https://dc.lft.to/lastmile_qr_scan", "ios": "https://dc.lft.to/lastmile_qr_scan"}, "is_reserved": 0, "name": "e3ae81638054c516b0367da5baf2825d", "lon": -77.0033425, "type": "electric_scooter", "bike_id": "e3ae81638054c516b0367da5baf2825d", "fusion_lon": 0.0, "lat": 38.89350833333334, "fusion_lat": 0.0}, {"is_disabled": 0, "rental_uris": {"android": "https://dc.lft.to/lastmile_qr_scan", "ios": "https://dc.lft.to/lastmile_qr_scan"}, "is_reserved": 0, "name": "0e44bdfcc0e04a36c066921833e092a3", "lon": -77.03664616666667, "type": "electric_scooter", "bike_id": "0e44bdfcc0e04a36c066921833e092a3", "fusion_lon": 0.0, "lat": 38.9226, "fusion_lat": 0.0}, {"is_disabled": 0, "rental_uris": {"android": "https://dc.lft.to/lastmile_qr_scan", "ios": "https://dc.lft.to/lastmile_qr_scan"}, "is_reserved": 0, "name": "c3d9bc1f63ae96c337078e8b1dc8ba5c", "lon": -77.00327783333333, "type": "electric_scooter", "bike_id": "c3d9bc1f63ae96c337078e8b1dc8ba5c", "fusion_lon": 0.0, "lat": 38.904681, "fusion_lat": 0.0}, {"is_disabled": 0, "rental_uris": {"android": "https://dc.lft.to/lastmile_qr_scan", "ios": "https://dc.lft.to/lastmile_qr_scan"}, "is_reserved": 0, "name": "38ff59e1635be1c5e605e620e8904778", "lon": -77.04349133333334, "type": "electric_scooter", "bike_id": "38ff59e1635be1c5e605e620e8904778", "fusion_lon": 0.0, "lat": 38.906272, "fusion_lat": 0.0}, {"is_disabled": 0, "rental_uris": {"android": "https://dc.lft.to/lastmile_qr_scan", "ios": "https://dc.lft.to/lastmile_qr_scan"}, "is_reserved": 0, "name": "1d7ce3a7d264eb500e2f11e6bb8a2ab6", "lon": -77.0346525, "type": "electric_scooter", "bike_id": "1d7ce3a7d264eb500e2f11e6bb8a2ab6", "fusion_lon": 0.0, "lat": 38.921615833333334, "fusion_lat": 0.0}, {"is_disabled": 0, "rental_uris": {"android": "https://dc.lft.to/lastmile_qr_scan", "ios": "https://dc.lft.to/lastmile_qr_scan"}, "is_reserved": 0, "name": "d576bdf04a3297c7b1ed594bbbdc7ddb", "lon": -77.04334033333333, "type": "electric_scooter", "bike_id": "d576bdf04a3297c7b1ed594bbbdc7ddb", "fusion_lon": 0.0, "lat": 38.91107866666667, "fusion_lat": 0.0}, {"is_disabled": 0, "rental_uris": {"android": "https://dc.lft.to/lastmile_qr_scan", "ios": "https://dc.lft.to/lastmile_qr_scan"}, "is_reserved": 0, "name": "c94a2ea191bdb5c6567326bd69f08e34", "lon": -77.02976783333334, "type": "electric_scooter", "bike_id": "c94a2ea191bdb5c6567326bd69f08e34", "fusion_lon": 0.0, "lat": 38.89773, "fusion_lat": 0.0}, {"is_disabled": 0, "rental_uris": {"android": "https://dc.lft.to/lastmile_qr_scan", "ios": "https://dc.lft.to/lastmile_qr_scan"}, "is_reserved": 0, "name": "8e9979fd3680bb919239484f148995ce", "lon": -77.0162955, "type": "electric_scooter", "bike_id": "8e9979fd3680bb919239484f148995ce", "fusion_lon": 0.0, "lat": 38.89864266666667, "fusion_lat": 0.0}, {"is_disabled": 0, "rental_uris": {"android": "https://dc.lft.to/lastmile_qr_scan", "ios": "https://dc.lft.to/lastmile_qr_scan"}, "is_reserved": 0, "name": "f2101833c78619a58758f35fd6ea6900", "lon": -77.04487433333334, "type": "electric_scooter", "bike_id": "f2101833c78619a58758f35fd6ea6900", "fusion_lon": 0.0, "lat": 38.906682, "fusion_lat": 0.0}, {"is_disabled": 0, "rental_uris": {"android": "https://dc.lft.to/lastmile_qr_scan", "ios": "https://dc.lft.to/lastmile_qr_scan"}, "is_reserved": 0, "name": "a3b365c681e959b55d994b3e1a7ac6b8", "lon": -77.35311816666666, "type": "electric_bike", "bike_id": "a3b365c681e959b55d994b3e1a7ac6b8", "fusion_lon": 0.0, "lat": 38.950058, "fusion_lat": 0.0}, {"is_disabled": 0, "rental_uris": {"android": "https://dc.lft.to/lastmile_qr_scan", "ios": "https://dc.lft.to/lastmile_qr_scan"}, "is_reserved": 0, "name": "d9ecd4e93e047b0884643d953e129975", "lon": -77.02465083333334, "type": "electric_scooter", "bike_id": "d9ecd4e93e047b0884643d953e129975", "fusion_lon": 0.0, "lat": 38.939120833333334, "fusion_lat": 0.0}, {"is_disabled": 0, "rental_uris": {"android": "https://dc.lft.to/lastmile_qr_scan", "ios": "https://dc.lft.to/lastmile_qr_scan"}, "is_reserved": 0, "name": "37ec5ea5b170b1789a81baaa49d39807", "lon": -76.9375445, "type": "electric_scooter", "bike_id": "37ec5ea5b170b1789a81baaa49d39807", "fusion_lon": 0.0, "lat": 38.890347, "fusion_lat": 0.0}, {"is_disabled": 0, "rental_uris": {"android": "https://dc.lft.to/lastmile_qr_scan", "ios": "https://dc.lft.to/lastmile_qr_scan"}, "is_reserved": 0, "name": "eac63b4fb016e226ac856b234f330d58", "lon": -77.0282145, "type": "electric_scooter", "bike_id": "eac63b4fb016e226ac856b234f330d58", "fusion_lon": 0.0, "lat": 38.8980065, "fusion_lat": 0.0}, {"is_disabled": 0, "rental_uris": {"android": "https://dc.lft.to/lastmile_qr_scan", "ios": "https://dc.lft.to/lastmile_qr_scan"}, "is_reserved": 0, "name": "7279006cb9dd27a3da10106f76945b39", "lon": -77.02962, "type": "electric_scooter", "bike_id": "7279006cb9dd27a3da10106f76945b39", "fusion_lon": 0.0, "lat": 38.917057666666665, "fusion_lat": 0.0}, {"is_disabled": 0, "rental_uris": {"android": "https://dc.lft.to/lastmile_qr_scan", "ios": "https://dc.lft.to/lastmile_qr_scan"}, "is_reserved": 0, "name": "16dda28a1b02f6bf218fb2c1b2051cb8", "lon": -77.031463, "type": "electric_scooter", "bike_id": "16dda28a1b02f6bf218fb2c1b2051cb8", "fusion_lon": 0.0, "lat": 38.90971166666667, "fusion_lat": 0.0}, {"is_disabled": 0, "rental_uris": {"android": "https://dc.lft.to/lastmile_qr_scan", "ios": "https://dc.lft.to/lastmile_qr_scan"}, "is_reserved": 0, "name": "53b7c77e3d589bbd6dea6eedd5131f0d", "lon": -77.005844, "type": "electric_bike", "bike_id": "53b7c77e3d589bbd6dea6eedd5131f0d", "fusion_lon": 0.0, "lat": 38.836933333333334, "fusion_lat": 0.0}, {"is_disabled": 0, "rental_uris": {"android": "https://dc.lft.to/lastmile_qr_scan", "ios": "https://dc.lft.to/lastmile_qr_scan"}, "is_reserved": 0, "name": "679b9ec511a00530f704ce60951579b6", "lon": -77.025321, "type": "electric_scooter", "bike_id": "679b9ec511a00530f704ce60951579b6", "fusion_lon": 0.0, "lat": 38.975734333333335, "fusion_lat": 0.0}, {"is_disabled": 0, "rental_uris": {"android": "https://dc.lft.to/lastmile_qr_scan", "ios": "https://dc.lft.to/lastmile_qr_scan"}, "is_reserved": 0, "name": "927df329a6f9b246d1528f2076e4948f", "lon": -76.961761, "type": "electric_bike", "bike_id": "927df329a6f9b246d1528f2076e4948f", "fusion_lon": 0.0, "lat": 38.918617166666664, "fusion_lat": 0.0}, {"is_disabled": 0, "rental_uris": {"android": "https://dc.lft.to/lastmile_qr_scan", "ios": "https://dc.lft.to/lastmile_qr_scan"}, "is_reserved": 0, "name": "f54f36b7065514c0087518c91c721c79", "lon": -77.0382945, "type": "electric_scooter", "bike_id": "f54f36b7065514c0087518c91c721c79", "fusion_lon": 0.0, "lat": 38.911118333333334, "fusion_lat": 0.0}, {"is_disabled": 0, "rental_uris": {"android": "https://dc.lft.to/lastmile_qr_scan", "ios": "https://dc.lft.to/lastmile_qr_scan"}, "is_reserved": 0, "name": "c3cfdd5c713ed5a727d65e9656c281df", "lon": -76.9338225, "type": "electric_scooter", "bike_id": "c3cfdd5c713ed5a727d65e9656c281df", "fusion_lon": 0.0, "lat": 38.899128, "fusion_lat": 0.0}, {"is_disabled": 0, "rental_uris": {"android": "https://dc.lft.to/lastmile_qr_scan", "ios": "https://dc.lft.to/lastmile_qr_scan"}, "is_reserved": 0, "name": "48d2a1ba426df073e6544378595c6538", "lon": -77.0635245, "type": "electric_scooter", "bike_id": "48d2a1ba426df073e6544378595c6538", "fusion_lon": 0.0, "lat": 38.94442216666667, "fusion_lat": 0.0}, {"is_disabled": 0, "rental_uris": {"android": "https://dc.lft.to/lastmile_qr_scan", "ios": "https://dc.lft.to/lastmile_qr_scan"}, "is_reserved": 0, "name": "369662c730cbec73b13f771b0d35ec86", "lon": -77.0117555, "type": "electric_scooter", "bike_id": "369662c730cbec73b13f771b0d35ec86", "fusion_lon": 0.0, "lat": 38.870840666666666, "fusion_lat": 0.0}, {"is_disabled": 0, "rental_uris": {"android": "https://dc.lft.to/lastmile_qr_scan", "ios": "https://dc.lft.to/lastmile_qr_scan"}, "is_reserved": 0, "name": "93d9ff8a0aa8477ab9a1a5da085b9176", "lon": -77.02485033333333, "type": "electric_scooter", "bike_id": "93d9ff8a0aa8477ab9a1a5da085b9176", "fusion_lon": 0.0, "lat": 38.9024325, "fusion_lat": 0.0}, {"is_disabled": 0, "rental_uris": {"android": "https://dc.lft.to/lastmile_qr_scan", "ios": "https://dc.lft.to/lastmile_qr_scan"}, "is_reserved": 0, "name": "1d1426710cd93f22fa17a6a238d3c16a", "lon": -77.001945, "type": "electric_scooter", "bike_id": "1d1426710cd93f22fa17a6a238d3c16a", "fusion_lon": 0.0, "lat": 38.9163675, "fusion_lat": 0.0}, {"is_disabled": 0, "rental_uris": {"android": "https://dc.lft.to/lastmile_qr_scan", "ios": "https://dc.lft.to/lastmile_qr_scan"}, "is_reserved": 0, "name": "d8af6cfccd169fe99a9ff5bec0993083", "lon": -77.03590566666666, "type": "electric_scooter", "bike_id": "d8af6cfccd169fe99a9ff5bec0993083", "fusion_lon": 0.0, "lat": 38.9077115, "fusion_lat": 0.0}, {"is_disabled": 0, "rental_uris": {"android": "https://dc.lft.to/lastmile_qr_scan", "ios": "https://dc.lft.to/lastmile_qr_scan"}, "is_reserved": 0, "name": "fca94c6b3099c86070a6ef81c4b8c756", "lon": -77.03090683333333, "type": "electric_scooter", "bike_id": "fca94c6b3099c86070a6ef81c4b8c756", "fusion_lon": 0.0, "lat": 38.93540683333333, "fusion_lat": 0.0}, {"is_disabled": 0, "rental_uris": {"android": "https://dc.lft.to/lastmile_qr_scan", "ios": "https://dc.lft.to/lastmile_qr_scan"}, "is_reserved": 0, "name": "f49f451d67cff08bf6b647783181de4c", "lon": -76.929384, "type": "electric_bike", "bike_id": "f49f451d67cff08bf6b647783181de4c", "fusion_lon": 0.0, "lat": 38.90291166666667, "fusion_lat": 0.0}, {"is_disabled": 0, "rental_uris": {"android": "https://dc.lft.to/lastmile_qr_scan", "ios": "https://dc.lft.to/lastmile_qr_scan"}, "is_reserved": 0, "name": "d35be2eae16b4a7abc9c384fb673d95b", "lon": -77.02222816666666, "type": "electric_scooter", "bike_id": "d35be2eae16b4a7abc9c384fb673d95b", "fusion_lon": 0.0, "lat": 38.912684, "fusion_lat": 0.0}, {"is_disabled": 0, "rental_uris": {"android": "https://dc.lft.to/lastmile_qr_scan", "ios": "https://dc.lft.to/lastmile_qr_scan"}, "is_reserved": 0, "name": "a3537d9943d032dca3fdb045ed96633b", "lon": -77.0265025, "type": "electric_scooter", "bike_id": "a3537d9943d032dca3fdb045ed96633b", "fusion_lon": 0.0, "lat": 38.897569, "fusion_lat": 0.0}, {"is_disabled": 0, "rental_uris": {"android": "https://dc.lft.to/lastmile_qr_scan", "ios": "https://dc.lft.to/lastmile_qr_scan"}, "is_reserved": 0, "name": "fa0bf4f98074beed3f6537105b88f976", "lon": -77.0141815, "type": "electric_scooter", "bike_id": "fa0bf4f98074beed3f6537105b88f976", "fusion_lon": 0.0, "lat": 38.8994675, "fusion_lat": 0.0}, {"is_disabled": 0, "rental_uris": {"android": "https://dc.lft.to/lastmile_qr_scan", "ios": "https://dc.lft.to/lastmile_qr_scan"}, "is_reserved": 0, "name": "03b6986b848ca5230a8384d3318b63e1", "lon": -77.03205966666667, "type": "electric_scooter", "bike_id": "03b6986b848ca5230a8384d3318b63e1", "fusion_lon": 0.0, "lat": 38.917913, "fusion_lat": 0.0}, {"is_disabled": 0, "rental_uris": {"android": "https://dc.lft.to/lastmile_qr_scan", "ios": "https://dc.lft.to/lastmile_qr_scan"}, "is_reserved": 0, "name": "2a33b1c5ae7e1a8cbeadec3533eba289", "lon": -77.02157183333334, "type": "electric_scooter", "bike_id": "2a33b1c5ae7e1a8cbeadec3533eba289", "fusion_lon": 0.0, "lat": 38.92604266666667, "fusion_lat": 0.0}, {"is_disabled": 0, "rental_uris": {"android": "https://dc.lft.to/lastmile_qr_scan", "ios": "https://dc.lft.to/lastmile_qr_scan"}, "is_reserved": 0, "name": "4625c928c7f1f9079769deaee3a7232e", "lon": -77.03633183333334, "type": "electric_scooter", "bike_id": "4625c928c7f1f9079769deaee3a7232e", "fusion_lon": 0.0, "lat": 38.91817833333333, "fusion_lat": 0.0}, {"is_disabled": 0, "rental_uris": {"android": "https://dc.lft.to/lastmile_qr_scan", "ios": "https://dc.lft.to/lastmile_qr_scan"}, "is_reserved": 0, "name": "206b367d949bbae33a30904c226e7226", "lon": -77.01789416666666, "type": "electric_scooter", "bike_id": "206b367d949bbae33a30904c226e7226", "fusion_lon": 0.0, "lat": 38.9411885, "fusion_lat": 0.0}, {"is_disabled": 0, "rental_uris": {"android": "https://dc.lft.to/lastmile_qr_scan", "ios": "https://dc.lft.to/lastmile_qr_scan"}, "is_reserved": 0, "name": "c6260f425c7325ad641fc1b6edaed26f", "lon": -77.03389, "type": "electric_scooter", "bike_id": "c6260f425c7325ad641fc1b6edaed26f", "fusion_lon": 0.0, "lat": 38.90212, "fusion_lat": 0.0}, {"is_disabled": 0, "rental_uris": {"android": "https://dc.lft.to/lastmile_qr_scan", "ios": "https://dc.lft.to/lastmile_qr_scan"}, "is_reserved": 0, "name": "934ad954c8e721369191a31bcf30d2f1", "lon": -77.03825633333334, "type": "electric_scooter", "bike_id": "934ad954c8e721369191a31bcf30d2f1", "fusion_lon": 0.0, "lat": 38.91494633333333, "fusion_lat": 0.0}, {"is_disabled": 0, "rental_uris": {"android": "https://dc.lft.to/lastmile_qr_scan", "ios": "https://dc.lft.to/lastmile_qr_scan"}, "is_reserved": 0, "name": "07637953c7ca06877addc764516698e1", "lon": -77.10029083333333, "type": "electric_bike", "bike_id": "07637953c7ca06877addc764516698e1", "fusion_lon": 0.0, "lat": 38.9906265, "fusion_lat": 0.0}, {"is_disabled": 0, "rental_uris": {"android": "https://dc.lft.to/lastmile_qr_scan", "ios": "https://dc.lft.to/lastmile_qr_scan"}, "is_reserved": 0, "name": "698118d3d5152e6c637e5e15d41e3523", "lon": -77.03524016666667, "type": "electric_scooter", "bike_id": "698118d3d5152e6c637e5e15d41e3523", "fusion_lon": 0.0, "lat": 38.921607333333334, "fusion_lat": 0.0}, {"is_disabled": 0, "rental_uris": {"android": "https://dc.lft.to/lastmile_qr_scan", "ios": "https://dc.lft.to/lastmile_qr_scan"}, "is_reserved": 0, "name": "c3c3820428ed98c4668f738ff25cf523", "lon": -77.02298133333333, "type": "electric_scooter", "bike_id": "c3c3820428ed98c4668f738ff25cf523", "fusion_lon": 0.0, "lat": 38.91707266666667, "fusion_lat": 0.0}, {"is_disabled": 0, "rental_uris": {"android": "https://dc.lft.to/lastmile_qr_scan", "ios": "https://dc.lft.to/lastmile_qr_scan"}, "is_reserved": 0, "name": "2062e7b29279d395a13b88745a443b1d", "lon": -77.02931983333333, "type": "electric_scooter", "bike_id": "2062e7b29279d395a13b88745a443b1d", "fusion_lon": 0.0, "lat": 38.91416366666667, "fusion_lat": 0.0}, {"is_disabled": 0, "rental_uris": {"android": "https://dc.lft.to/lastmile_qr_scan", "ios": "https://dc.lft.to/lastmile_qr_scan"}, "is_reserved": 0, "name": "9aa3f83fc4ab763cb81b8dca8bbb5ca6", "lon": -76.87495133333333, "type": "electric_bike", "bike_id": "9aa3f83fc4ab763cb81b8dca8bbb5ca6", "fusion_lon": 0.0, "lat": 38.99086883333333, "fusion_lat": 0.0}, {"is_disabled": 0, "rental_uris": {"android": "https://dc.lft.to/lastmile_qr_scan", "ios": "https://dc.lft.to/lastmile_qr_scan"}, "is_reserved": 0, "name": "c9953ffb392beb687ecc825e61252b71", "lon": -77.001984, "type": "electric_scooter", "bike_id": "c9953ffb392beb687ecc825e61252b71", "fusion_lon": 0.0, "lat": 38.886801166666665, "fusion_lat": 0.0}, {"is_disabled": 0, "rental_uris": {"android": "https://dc.lft.to/lastmile_qr_scan", "ios": "https://dc.lft.to/lastmile_qr_scan"}, "is_reserved": 0, "name": "8b9f47449922ee4fcfe33ca00e7ee8a1", "lon": -77.02523933333333, "type": "electric_scooter", "bike_id": "8b9f47449922ee4fcfe33ca00e7ee8a1", "fusion_lon": 0.0, "lat": 38.880401, "fusion_lat": 0.0}, {"is_disabled": 0, "rental_uris": {"android": "https://dc.lft.to/lastmile_qr_scan", "ios": "https://dc.lft.to/lastmile_qr_scan"}, "is_reserved": 0, "name": "6db7f513183f386e4014c4c2b5c347d7", "lon": -77.04870066666666, "type": "electric_scooter", "bike_id": "6db7f513183f386e4014c4c2b5c347d7", "fusion_lon": 0.0, "lat": 38.91022616666667, "fusion_lat": 0.0}, {"is_disabled": 0, "rental_uris": {"android": "https://dc.lft.to/lastmile_qr_scan", "ios": "https://dc.lft.to/lastmile_qr_scan"}, "is_reserved": 0, "name": "671941d81f1bb2535bb784c107187788", "lon": -77.0141795, "type": "electric_scooter", "bike_id": "671941d81f1bb2535bb784c107187788", "fusion_lon": 0.0, "lat": 38.927925333333334, "fusion_lat": 0.0}, {"is_disabled": 0, "rental_uris": {"android": "https://dc.lft.to/lastmile_qr_scan", "ios": "https://dc.lft.to/lastmile_qr_scan"}, "is_reserved": 0, "name": "68908ad526f442f35c8172927efe7876", "lon": -77.0080015, "type": "electric_scooter", "bike_id": "68908ad526f442f35c8172927efe7876", "fusion_lon": 0.0, "lat": 38.8971935, "fusion_lat": 0.0}, {"is_disabled": 0, "rental_uris": {"android": "https://dc.lft.to/lastmile_qr_scan", "ios": "https://dc.lft.to/lastmile_qr_scan"}, "is_reserved": 0, "name": "35436865708d9a388991023e31cb4e21", "lon": -77.02804616666667, "type": "electric_scooter", "bike_id": "35436865708d9a388991023e31cb4e21", "fusion_lon": 0.0, "lat": 38.962160833333336, "fusion_lat": 0.0}, {"is_disabled": 0, "rental_uris": {"android": "https://dc.lft.to/lastmile_qr_scan", "ios": "https://dc.lft.to/lastmile_qr_scan"}, "is_reserved": 0, "name": "6ea1f9857392fc2311260624b80833da", "lon": -77.04902933333334, "type": "electric_bike", "bike_id": "6ea1f9857392fc2311260624b80833da", "fusion_lon": 0.0, "lat": 38.87492016666667, "fusion_lat": 0.0}, {"is_disabled": 0, "rental_uris": {"android": "https://dc.lft.to/lastmile_qr_scan", "ios": "https://dc.lft.to/lastmile_qr_scan"}, "is_reserved": 0, "name": "1482ffb458193656845c4c47d0d11e94", "lon": -77.0550525, "type": "electric_scooter", "bike_id": "1482ffb458193656845c4c47d0d11e94", "fusion_lon": 0.0, "lat": 38.929798, "fusion_lat": 0.0}, {"is_disabled": 0, "rental_uris": {"android": "https://dc.lft.to/lastmile_qr_scan", "ios": "https://dc.lft.to/lastmile_qr_scan"}, "is_reserved": 0, "name": "e387290e81bd677ca4167a9fe779a6a7", "lon": -77.019507, "type": "electric_scooter", "bike_id": "e387290e81bd677ca4167a9fe779a6a7", "fusion_lon": 0.0, "lat": 38.922546833333335, "fusion_lat": 0.0}, {"is_disabled": 0, "rental_uris": {"android": "https://dc.lft.to/lastmile_qr_scan", "ios": "https://dc.lft.to/lastmile_qr_scan"}, "is_reserved": 0, "name": "814b7dc31b29ee0a067c3b50f5489ba8", "lon": -77.03844533333333, "type": "electric_scooter", "bike_id": "814b7dc31b29ee0a067c3b50f5489ba8", "fusion_lon": 0.0, "lat": 38.9032705, "fusion_lat": 0.0}, {"is_disabled": 0, "rental_uris": {"android": "https://dc.lft.to/lastmile_qr_scan", "ios": "https://dc.lft.to/lastmile_qr_scan"}, "is_reserved": 0, "name": "6266e9537f3973736213263033563e94", "lon": -76.97510883333334, "type": "electric_bike", "bike_id": "6266e9537f3973736213263033563e94", "fusion_lon": 0.0, "lat": 38.90314033333333, "fusion_lat": 0.0}, {"is_disabled": 0, "rental_uris": {"android": "https://dc.lft.to/lastmile_qr_scan", "ios": "https://dc.lft.to/lastmile_qr_scan"}, "is_reserved": 0, "name": "d172d8a0dae653d5e5d7ffe1a5707d4c", "lon": -77.00862283333333, "type": "electric_scooter", "bike_id": "d172d8a0dae653d5e5d7ffe1a5707d4c", "fusion_lon": 0.0, "lat": 38.90626283333334, "fusion_lat": 0.0}, {"is_disabled": 0, "rental_uris": {"android": "https://dc.lft.to/lastmile_qr_scan", "ios": "https://dc.lft.to/lastmile_qr_scan"}, "is_reserved": 0, "name": "39639f5aa6416f64002788f5d1fd65f5", "lon": -77.02293633333333, "type": "electric_scooter", "bike_id": "39639f5aa6416f64002788f5d1fd65f5", "fusion_lon": 0.0, "lat": 38.91605833333333, "fusion_lat": 0.0}, {"is_disabled": 0, "rental_uris": {"android": "https://dc.lft.to/lastmile_qr_scan", "ios": "https://dc.lft.to/lastmile_qr_scan"}, "is_reserved": 0, "name": "19e37677de9cac4a21d098f066feb6d0", "lon": -77.01226183333333, "type": "electric_scooter", "bike_id": "19e37677de9cac4a21d098f066feb6d0", "fusion_lon": 0.0, "lat": 38.885829666666666, "fusion_lat": 0.0}, {"is_disabled": 0, "rental_uris": {"android": "https://dc.lft.to/lastmile_qr_scan", "ios": "https://dc.lft.to/lastmile_qr_scan"}, "is_reserved": 0, "name": "00c55388409300a8d265d49a7fde205f", "lon": -77.033024, "type": "electric_scooter", "bike_id": "00c55388409300a8d265d49a7fde205f", "fusion_lon": 0.0, "lat": 38.89845316666667, "fusion_lat": 0.0}, {"is_disabled": 0, "rental_uris": {"android": "https://dc.lft.to/lastmile_qr_scan", "ios": "https://dc.lft.to/lastmile_qr_scan"}, "is_reserved": 0, "name": "5e24e2075ad9b9198607e7b8d35d04f7", "lon": -76.97879516666667, "type": "electric_scooter", "bike_id": "5e24e2075ad9b9198607e7b8d35d04f7", "fusion_lon": 0.0, "lat": 38.927307, "fusion_lat": 0.0}, {"is_disabled": 0, "rental_uris": {"android": "https://dc.lft.to/lastmile_qr_scan", "ios": "https://dc.lft.to/lastmile_qr_scan"}, "is_reserved": 0, "name": "fbd27836239ce262451860216d795054", "lon": -77.03764733333334, "type": "electric_scooter", "bike_id": "fbd27836239ce262451860216d795054", "fusion_lon": 0.0, "lat": 38.91688466666667, "fusion_lat": 0.0}, {"is_disabled": 0, "rental_uris": {"android": "https://dc.lft.to/lastmile_qr_scan", "ios": "https://dc.lft.to/lastmile_qr_scan"}, "is_reserved": 0, "name": "fecb432bf7c14d6154d315bde9a10197", "lon": -76.94827366666667, "type": "electric_scooter", "bike_id": "fecb432bf7c14d6154d315bde9a10197", "fusion_lon": 0.0, "lat": 38.885164, "fusion_lat": 0.0}, {"is_disabled": 0, "rental_uris": {"android": "https://dc.lft.to/lastmile_qr_scan", "ios": "https://dc.lft.to/lastmile_qr_scan"}, "is_reserved": 0, "name": "ee7655db1fe2d57135002c2b11f7551f", "lon": -77.04564666666667, "type": "electric_scooter", "bike_id": "ee7655db1fe2d57135002c2b11f7551f", "fusion_lon": 0.0, "lat": 38.917781166666664, "fusion_lat": 0.0}, {"is_disabled": 0, "rental_uris": {"android": "https://dc.lft.to/lastmile_qr_scan", "ios": "https://dc.lft.to/lastmile_qr_scan"}, "is_reserved": 0, "name": "5605ee6cf579ed61773404a4e867ad4c", "lon": -77.05439266666667, "type": "electric_scooter", "bike_id": "5605ee6cf579ed61773404a4e867ad4c", "fusion_lon": 0.0, "lat": 38.896026, "fusion_lat": 0.0}, {"is_disabled": 0, "rental_uris": {"android": "https://dc.lft.to/lastmile_qr_scan", "ios": "https://dc.lft.to/lastmile_qr_scan"}, "is_reserved": 0, "name": "ca65c9fe1b732f9915388acea804372e", "lon": -77.02343983333333, "type": "electric_scooter", "bike_id": "ca65c9fe1b732f9915388acea804372e", "fusion_lon": 0.0, "lat": 38.91602666666667, "fusion_lat": 0.0}, {"is_disabled": 0, "rental_uris": {"android": "https://dc.lft.to/lastmile_qr_scan", "ios": "https://dc.lft.to/lastmile_qr_scan"}, "is_reserved": 0, "name": "34c5ed991b0301a333aa993113d16880", "lon": -77.04641033333333, "type": "electric_scooter", "bike_id": "34c5ed991b0301a333aa993113d16880", "fusion_lon": 0.0, "lat": 38.9054315, "fusion_lat": 0.0}, {"is_disabled": 0, "rental_uris": {"android": "https://dc.lft.to/lastmile_qr_scan", "ios": "https://dc.lft.to/lastmile_qr_scan"}, "is_reserved": 0, "name": "15e29569c93afd8672f9c509276694e6", "lon": -77.0434295, "type": "electric_scooter", "bike_id": "15e29569c93afd8672f9c509276694e6", "fusion_lon": 0.0, "lat": 38.89837216666667, "fusion_lat": 0.0}, {"is_disabled": 0, "rental_uris": {"android": "https://dc.lft.to/lastmile_qr_scan", "ios": "https://dc.lft.to/lastmile_qr_scan"}, "is_reserved": 0, "name": "fbc3140546314ffcd5cf66e7bfcf0c45", "lon": -76.9852245, "type": "electric_scooter", "bike_id": "fbc3140546314ffcd5cf66e7bfcf0c45", "fusion_lon": 0.0, "lat": 38.86006616666667, "fusion_lat": 0.0}, {"is_disabled": 0, "rental_uris": {"android": "https://dc.lft.to/lastmile_qr_scan", "ios": "https://dc.lft.to/lastmile_qr_scan"}, "is_reserved": 0, "name": "b96f83b42c88a879e8c03384d6bfb908", "lon": -77.059303, "type": "electric_scooter", "bike_id": "b96f83b42c88a879e8c03384d6bfb908", "fusion_lon": 0.0, "lat": 38.93670016666667, "fusion_lat": 0.0}, {"is_disabled": 0, "rental_uris": {"android": "https://dc.lft.to/lastmile_qr_scan", "ios": "https://dc.lft.to/lastmile_qr_scan"}, "is_reserved": 0, "name": "c24a5d50e5e2b03b8371f965e94f2309", "lon": -77.04282183333333, "type": "electric_scooter", "bike_id": "c24a5d50e5e2b03b8371f965e94f2309", "fusion_lon": 0.0, "lat": 38.911071166666666, "fusion_lat": 0.0}, {"is_disabled": 0, "rental_uris": {"android": "https://dc.lft.to/lastmile_qr_scan", "ios": "https://dc.lft.to/lastmile_qr_scan"}, "is_reserved": 0, "name": "41837e6ab90cd079329d1e31c38ae60d", "lon": -77.02836183333334, "type": "electric_scooter", "bike_id": "41837e6ab90cd079329d1e31c38ae60d", "fusion_lon": 0.0, "lat": 38.89523, "fusion_lat": 0.0}, {"is_disabled": 0, "rental_uris": {"android": "https://dc.lft.to/lastmile_qr_scan", "ios": "https://dc.lft.to/lastmile_qr_scan"}, "is_reserved": 0, "name": "8422924dfe747b0d5b18ab949a78bc84", "lon": -77.03059783333333, "type": "electric_scooter", "bike_id": "8422924dfe747b0d5b18ab949a78bc84", "fusion_lon": 0.0, "lat": 38.909723166666666, "fusion_lat": 0.0}, {"is_disabled": 0, "rental_uris": {"android": "https://dc.lft.to/lastmile_qr_scan", "ios": "https://dc.lft.to/lastmile_qr_scan"}, "is_reserved": 0, "name": "354d27ae87567a170a625c1094c52825", "lon": -77.0509515, "type": "electric_scooter", "bike_id": "354d27ae87567a170a625c1094c52825", "fusion_lon": 0.0, "lat": 38.923413833333335, "fusion_lat": 0.0}, {"is_disabled": 0, "rental_uris": {"android": "https://dc.lft.to/lastmile_qr_scan", "ios": "https://dc.lft.to/lastmile_qr_scan"}, "is_reserved": 0, "name": "a01342cdfe9514eae38260790872498e", "lon": -76.9809265, "type": "electric_scooter", "bike_id": "a01342cdfe9514eae38260790872498e", "fusion_lon": 0.0, "lat": 38.8571985, "fusion_lat": 0.0}, {"is_disabled": 0, "rental_uris": {"android": "https://dc.lft.to/lastmile_qr_scan", "ios": "https://dc.lft.to/lastmile_qr_scan"}, "is_reserved": 0, "name": "976e723c9ef3e3c2ee78d254bf7c0c97", "lon": -77.18296, "type": "electric_bike", "bike_id": "976e723c9ef3e3c2ee78d254bf7c0c97", "fusion_lon": 0.0, "lat": 38.88344433333333, "fusion_lat": 0.0}, {"is_disabled": 0, "rental_uris": {"android": "https://dc.lft.to/lastmile_qr_scan", "ios": "https://dc.lft.to/lastmile_qr_scan"}, "is_reserved": 0, "name": "c53a6fdf7846982a8c884e9b23f5a14d", "lon": -77.01584333333334, "type": "electric_bike", "bike_id": "c53a6fdf7846982a8c884e9b23f5a14d", "fusion_lon": 0.0, "lat": 39.0463605, "fusion_lat": 0.0}, {"is_disabled": 0, "rental_uris": {"android": "https://dc.lft.to/lastmile_qr_scan", "ios": "https://dc.lft.to/lastmile_qr_scan"}, "is_reserved": 0, "name": "a05f70962144f12305ad97e22477b38e", "lon": -77.04545633333333, "type": "electric_scooter", "bike_id": "a05f70962144f12305ad97e22477b38e", "fusion_lon": 0.0, "lat": 38.901424166666665, "fusion_lat": 0.0}, {"is_disabled": 0, "rental_uris": {"android": "https://dc.lft.to/lastmile_qr_scan", "ios": "https://dc.lft.to/lastmile_qr_scan"}, "is_reserved": 0, "name": "5ddaf7f5310f742df39023cf1f78e017", "lon": -76.9691975, "type": "electric_scooter", "bike_id": "5ddaf7f5310f742df39023cf1f78e017", "fusion_lon": 0.0, "lat": 38.855269666666665, "fusion_lat": 0.0}, {"is_disabled": 0, "rental_uris": {"android": "https://dc.lft.to/lastmile_qr_scan", "ios": "https://dc.lft.to/lastmile_qr_scan"}, "is_reserved": 0, "name": "3f3297624cb0e4a22786a9ff8f87f5c5", "lon": -77.03298966666667, "type": "electric_scooter", "bike_id": "3f3297624cb0e4a22786a9ff8f87f5c5", "fusion_lon": 0.0, "lat": 38.928901, "fusion_lat": 0.0}, {"is_disabled": 0, "rental_uris": {"android": "https://dc.lft.to/lastmile_qr_scan", "ios": "https://dc.lft.to/lastmile_qr_scan"}, "is_reserved": 0, "name": "e6cd62d629e56cdd5e18349727c0f126", "lon": -76.9311585, "type": "electric_scooter", "bike_id": "e6cd62d629e56cdd5e18349727c0f126", "fusion_lon": 0.0, "lat": 38.880146, "fusion_lat": 0.0}, {"is_disabled": 0, "rental_uris": {"android": "https://dc.lft.to/lastmile_qr_scan", "ios": "https://dc.lft.to/lastmile_qr_scan"}, "is_reserved": 0, "name": "ce6667f2d5075a73ff2fddec559d6c2a", "lon": -77.02463933333334, "type": "electric_scooter", "bike_id": "ce6667f2d5075a73ff2fddec559d6c2a", "fusion_lon": 0.0, "lat": 38.9391565, "fusion_lat": 0.0}, {"is_disabled": 0, "rental_uris": {"android": "https://dc.lft.to/lastmile_qr_scan", "ios": "https://dc.lft.to/lastmile_qr_scan"}, "is_reserved": 0, "name": "6d58ec557df238f860df7fab99f79b7c", "lon": -77.03259783333333, "type": "electric_scooter", "bike_id": "6d58ec557df238f860df7fab99f79b7c", "fusion_lon": 0.0, "lat": 38.936936, "fusion_lat": 0.0}, {"is_disabled": 0, "rental_uris": {"android": "https://dc.lft.to/lastmile_qr_scan", "ios": "https://dc.lft.to/lastmile_qr_scan"}, "is_reserved": 0, "name": "bd703fcd9c9520408d716f781ed54838", "lon": -77.03291783333333, "type": "electric_scooter", "bike_id": "bd703fcd9c9520408d716f781ed54838", "fusion_lon": 0.0, "lat": 38.908446, "fusion_lat": 0.0}, {"is_disabled": 0, "rental_uris": {"android": "https://dc.lft.to/lastmile_qr_scan", "ios": "https://dc.lft.to/lastmile_qr_scan"}, "is_reserved": 0, "name": "d6bab34b6e9f43ce1fb03556192116a8", "lon": -77.007052, "type": "electric_scooter", "bike_id": "d6bab34b6e9f43ce1fb03556192116a8", "fusion_lon": 0.0, "lat": 38.90530116666667, "fusion_lat": 0.0}, {"is_disabled": 0, "rental_uris": {"android": "https://dc.lft.to/lastmile_qr_scan", "ios": "https://dc.lft.to/lastmile_qr_scan"}, "is_reserved": 0, "name": "481941e9e6a97deefcd550d3a6304828", "lon": -77.027897, "type": "electric_scooter", "bike_id": "481941e9e6a97deefcd550d3a6304828", "fusion_lon": 0.0, "lat": 38.96127116666667, "fusion_lat": 0.0}, {"is_disabled": 0, "rental_uris": {"android": "https://dc.lft.to/lastmile_qr_scan", "ios": "https://dc.lft.to/lastmile_qr_scan"}, "is_reserved": 0, "name": "6bdfb3d86212ef5317ff9be63b5d00ce", "lon": -76.995683, "type": "electric_scooter", "bike_id": "6bdfb3d86212ef5317ff9be63b5d00ce", "fusion_lon": 0.0, "lat": 38.9202595, "fusion_lat": 0.0}, {"is_disabled": 0, "rental_uris": {"android": "https://dc.lft.to/lastmile_qr_scan", "ios": "https://dc.lft.to/lastmile_qr_scan"}, "is_reserved": 0, "name": "87f0a862dbf71958237644d4d6c3404d", "lon": -77.02849816666667, "type": "electric_scooter", "bike_id": "87f0a862dbf71958237644d4d6c3404d", "fusion_lon": 0.0, "lat": 38.9025565, "fusion_lat": 0.0}, {"is_disabled": 0, "rental_uris": {"android": "https://dc.lft.to/lastmile_qr_scan", "ios": "https://dc.lft.to/lastmile_qr_scan"}, "is_reserved": 0, "name": "9f87ab92e4516dfadda655dca6f66919", "lon": -77.02215633333333, "type": "electric_scooter", "bike_id": "9f87ab92e4516dfadda655dca6f66919", "fusion_lon": 0.0, "lat": 38.91419116666667, "fusion_lat": 0.0}, {"is_disabled": 0, "rental_uris": {"android": "https://dc.lft.to/lastmile_qr_scan", "ios": "https://dc.lft.to/lastmile_qr_scan"}, "is_reserved": 0, "name": "1aa3eed773c5cab6b8aa1814f097697b", "lon": -77.01465766666666, "type": "electric_scooter", "bike_id": "1aa3eed773c5cab6b8aa1814f097697b", "fusion_lon": 0.0, "lat": 38.926648, "fusion_lat": 0.0}, {"is_disabled": 0, "rental_uris": {"android": "https://dc.lft.to/lastmile_qr_scan", "ios": "https://dc.lft.to/lastmile_qr_scan"}, "is_reserved": 0, "name": "b257e6df8e0ddd1993b1b3e6d0030b51", "lon": -77.044539, "type": "electric_scooter", "bike_id": "b257e6df8e0ddd1993b1b3e6d0030b51", "fusion_lon": 0.0, "lat": 38.91406966666667, "fusion_lat": 0.0}, {"is_disabled": 0, "rental_uris": {"android": "https://dc.lft.to/lastmile_qr_scan", "ios": "https://dc.lft.to/lastmile_qr_scan"}, "is_reserved": 0, "name": "3530015cb5a6f72d1fa60c8e71d14011", "lon": -77.0197795, "type": "electric_scooter", "bike_id": "3530015cb5a6f72d1fa60c8e71d14011", "fusion_lon": 0.0, "lat": 38.89513866666667, "fusion_lat": 0.0}, {"is_disabled": 0, "rental_uris": {"android": "https://dc.lft.to/lastmile_qr_scan", "ios": "https://dc.lft.to/lastmile_qr_scan"}, "is_reserved": 0, "name": "377c12ca8a25cd8591e10c4cc00693d8", "lon": -77.03859216666666, "type": "electric_scooter", "bike_id": "377c12ca8a25cd8591e10c4cc00693d8", "fusion_lon": 0.0, "lat": 38.90371066666667, "fusion_lat": 0.0}, {"is_disabled": 0, "rental_uris": {"android": "https://dc.lft.to/lastmile_qr_scan", "ios": "https://dc.lft.to/lastmile_qr_scan"}, "is_reserved": 0, "name": "a05a17dcbb1ea9731cc2fb1b5e783d6b", "lon": -76.9488735, "type": "electric_scooter", "bike_id": "a05a17dcbb1ea9731cc2fb1b5e783d6b", "fusion_lon": 0.0, "lat": 38.895114166666666, "fusion_lat": 0.0}, {"is_disabled": 0, "rental_uris": {"android": "https://dc.lft.to/lastmile_qr_scan", "ios": "https://dc.lft.to/lastmile_qr_scan"}, "is_reserved": 0, "name": "6dd1cbdae248043e35f67f3be9413472", "lon": -77.02667766666667, "type": "electric_scooter", "bike_id": "6dd1cbdae248043e35f67f3be9413472", "fusion_lon": 0.0, "lat": 38.924769833333336, "fusion_lat": 0.0}, {"is_disabled": 0, "rental_uris": {"android": "https://dc.lft.to/lastmile_qr_scan", "ios": "https://dc.lft.to/lastmile_qr_scan"}, "is_reserved": 0, "name": "d438c5ef3042e482f2eb77ab2c17d505", "lon": -77.02936233333334, "type": "electric_scooter", "bike_id": "d438c5ef3042e482f2eb77ab2c17d505", "fusion_lon": 0.0, "lat": 38.896139833333336, "fusion_lat": 0.0}, {"is_disabled": 0, "rental_uris": {"android": "https://dc.lft.to/lastmile_qr_scan", "ios": "https://dc.lft.to/lastmile_qr_scan"}, "is_reserved": 0, "name": "d98a1274bcf4db48c893cf1f336ed87a", "lon": -77.0418115, "type": "electric_scooter", "bike_id": "d98a1274bcf4db48c893cf1f336ed87a", "fusion_lon": 0.0, "lat": 38.915538166666664, "fusion_lat": 0.0}, {"is_disabled": 0, "rental_uris": {"android": "https://dc.lft.to/lastmile_qr_scan", "ios": "https://dc.lft.to/lastmile_qr_scan"}, "is_reserved": 0, "name": "6adb16247b7511a1d9a627a3aee52a38", "lon": -77.06757166666667, "type": "electric_scooter", "bike_id": "6adb16247b7511a1d9a627a3aee52a38", "fusion_lon": 0.0, "lat": 38.905023, "fusion_lat": 0.0}, {"is_disabled": 0, "rental_uris": {"android": "https://dc.lft.to/lastmile_qr_scan", "ios": "https://dc.lft.to/lastmile_qr_scan"}, "is_reserved": 0, "name": "37a259e8ce1a3c2a15215d269028e529", "lon": -76.98994683333333, "type": "electric_scooter", "bike_id": "37a259e8ce1a3c2a15215d269028e529", "fusion_lon": 0.0, "lat": 38.86433916666667, "fusion_lat": 0.0}, {"is_disabled": 0, "rental_uris": {"android": "https://dc.lft.to/lastmile_qr_scan", "ios": "https://dc.lft.to/lastmile_qr_scan"}, "is_reserved": 0, "name": "a47eaed20c7c1ab5d1fedd9e2c8f9950", "lon": -77.041912, "type": "electric_scooter", "bike_id": "a47eaed20c7c1ab5d1fedd9e2c8f9950", "fusion_lon": 0.0, "lat": 38.9261865, "fusion_lat": 0.0}, {"is_disabled": 0, "rental_uris": {"android": "https://dc.lft.to/lastmile_qr_scan", "ios": "https://dc.lft.to/lastmile_qr_scan"}, "is_reserved": 0, "name": "e1086707870c10d1290a011cc3d25062", "lon": -77.0505035, "type": "electric_scooter", "bike_id": "e1086707870c10d1290a011cc3d25062", "fusion_lon": 0.0, "lat": 38.916684333333336, "fusion_lat": 0.0}, {"is_disabled": 0, "rental_uris": {"android": "https://dc.lft.to/lastmile_qr_scan", "ios": "https://dc.lft.to/lastmile_qr_scan"}, "is_reserved": 0, "name": "5abae6bf00ffc5b91880b8aa1dceedfe", "lon": -77.033057, "type": "electric_scooter", "bike_id": "5abae6bf00ffc5b91880b8aa1dceedfe", "fusion_lon": 0.0, "lat": 38.918166, "fusion_lat": 0.0}, {"is_disabled": 0, "rental_uris": {"android": "https://dc.lft.to/lastmile_qr_scan", "ios": "https://dc.lft.to/lastmile_qr_scan"}, "is_reserved": 0, "name": "1a8c27e86cff2a06d22267af39fba44a", "lon": -77.04114933333334, "type": "electric_scooter", "bike_id": "1a8c27e86cff2a06d22267af39fba44a", "fusion_lon": 0.0, "lat": 38.89930566666666, "fusion_lat": 0.0}, {"is_disabled": 0, "rental_uris": {"android": "https://dc.lft.to/lastmile_qr_scan", "ios": "https://dc.lft.to/lastmile_qr_scan"}, "is_reserved": 0, "name": "a8a21203bc209bb42bca8182bf5fe311", "lon": -76.9463575, "type": "electric_scooter", "bike_id": "a8a21203bc209bb42bca8182bf5fe311", "fusion_lon": 0.0, "lat": 38.898434333333334, "fusion_lat": 0.0}, {"is_disabled": 0, "rental_uris": {"android": "https://dc.lft.to/lastmile_qr_scan", "ios": "https://dc.lft.to/lastmile_qr_scan"}, "is_reserved": 0, "name": "710d23df5017158eb43df016eb9d83cb", "lon": -77.02695566666667, "type": "electric_scooter", "bike_id": "710d23df5017158eb43df016eb9d83cb", "fusion_lon": 0.0, "lat": 38.93637833333333, "fusion_lat": 0.0}, {"is_disabled": 0, "rental_uris": {"android": "https://dc.lft.to/lastmile_qr_scan", "ios": "https://dc.lft.to/lastmile_qr_scan"}, "is_reserved": 0, "name": "b7c9b5dcefde110fb253108b9e35e64f", "lon": -77.04998566666667, "type": "electric_scooter", "bike_id": "b7c9b5dcefde110fb253108b9e35e64f", "fusion_lon": 0.0, "lat": 38.897278166666666, "fusion_lat": 0.0}, {"is_disabled": 0, "rental_uris": {"android": "https://dc.lft.to/lastmile_qr_scan", "ios": "https://dc.lft.to/lastmile_qr_scan"}, "is_reserved": 0, "name": "3bffb9a22bc3db1a346f5fa5540ec93d", "lon": -77.04410883333334, "type": "electric_scooter", "bike_id": "3bffb9a22bc3db1a346f5fa5540ec93d", "fusion_lon": 0.0, "lat": 38.894158166666664, "fusion_lat": 0.0}, {"is_disabled": 0, "rental_uris": {"android": "https://dc.lft.to/lastmile_qr_scan", "ios": "https://dc.lft.to/lastmile_qr_scan"}, "is_reserved": 0, "name": "7f55eb292cc796d8f58a66a64ce6a013", "lon": -77.043631, "type": "electric_scooter", "bike_id": "7f55eb292cc796d8f58a66a64ce6a013", "fusion_lon": 0.0, "lat": 38.90483066666667, "fusion_lat": 0.0}, {"is_disabled": 0, "rental_uris": {"android": "https://dc.lft.to/lastmile_qr_scan", "ios": "https://dc.lft.to/lastmile_qr_scan"}, "is_reserved": 0, "name": "c5d2bb87cd158c8e20fe771ac7db1e51", "lon": -77.03174033333333, "type": "electric_scooter", "bike_id": "c5d2bb87cd158c8e20fe771ac7db1e51", "fusion_lon": 0.0, "lat": 38.89367633333333, "fusion_lat": 0.0}, {"is_disabled": 0, "rental_uris": {"android": "https://dc.lft.to/lastmile_qr_scan", "ios": "https://dc.lft.to/lastmile_qr_scan"}, "is_reserved": 0, "name": "105a868bcaa10786e649e96e379343fc", "lon": -77.046888, "type": "electric_scooter", "bike_id": "105a868bcaa10786e649e96e379343fc", "fusion_lon": 0.0, "lat": 38.905971, "fusion_lat": 0.0}, {"is_disabled": 0, "rental_uris": {"android": "https://dc.lft.to/lastmile_qr_scan", "ios": "https://dc.lft.to/lastmile_qr_scan"}, "is_reserved": 0, "name": "e2d79f31336350dc144e6469c96f3bb7", "lon": -77.0499555, "type": "electric_bike", "bike_id": "e2d79f31336350dc144e6469c96f3bb7", "fusion_lon": 0.0, "lat": 38.90136783333333, "fusion_lat": 0.0}, {"is_disabled": 0, "rental_uris": {"android": "https://dc.lft.to/lastmile_qr_scan", "ios": "https://dc.lft.to/lastmile_qr_scan"}, "is_reserved": 0, "name": "aa2b7a1a8d4e165866b72ab07c3a5e5b", "lon": -77.0382985, "type": "electric_scooter", "bike_id": "aa2b7a1a8d4e165866b72ab07c3a5e5b", "fusion_lon": 0.0, "lat": 38.911143, "fusion_lat": 0.0}, {"is_disabled": 0, "rental_uris": {"android": "https://dc.lft.to/lastmile_qr_scan", "ios": "https://dc.lft.to/lastmile_qr_scan"}, "is_reserved": 0, "name": "476f6aa55e5e6829428ae674a51af059", "lon": -77.0384735, "type": "electric_scooter", "bike_id": "476f6aa55e5e6829428ae674a51af059", "fusion_lon": 0.0, "lat": 38.921693, "fusion_lat": 0.0}, {"is_disabled": 0, "rental_uris": {"android": "https://dc.lft.to/lastmile_qr_scan", "ios": "https://dc.lft.to/lastmile_qr_scan"}, "is_reserved": 0, "name": "6aae81ef4d49bc58bcb6ef8f56f5ce82", "lon": -77.041833, "type": "electric_scooter", "bike_id": "6aae81ef4d49bc58bcb6ef8f56f5ce82", "fusion_lon": 0.0, "lat": 38.91407433333333, "fusion_lat": 0.0}, {"is_disabled": 0, "rental_uris": {"android": "https://dc.lft.to/lastmile_qr_scan", "ios": "https://dc.lft.to/lastmile_qr_scan"}, "is_reserved": 0, "name": "d7b03a1c4845be6cc48b7404e1e1ec67", "lon": -77.0241495, "type": "electric_scooter", "bike_id": "d7b03a1c4845be6cc48b7404e1e1ec67", "fusion_lon": 0.0, "lat": 38.91258466666667, "fusion_lat": 0.0}, {"is_disabled": 0, "rental_uris": {"android": "https://dc.lft.to/lastmile_qr_scan", "ios": "https://dc.lft.to/lastmile_qr_scan"}, "is_reserved": 0, "name": "74504ba1008a953ef56a53733eb364cf", "lon": -77.02826566666667, "type": "electric_bike", "bike_id": "74504ba1008a953ef56a53733eb364cf", "fusion_lon": 0.0, "lat": 38.99381233333333, "fusion_lat": 0.0}, {"is_disabled": 0, "rental_uris": {"android": "https://dc.lft.to/lastmile_qr_scan", "ios": "https://dc.lft.to/lastmile_qr_scan"}, "is_reserved": 0, "name": "c7b5c4d247fc1bd544dc983e8b58cf5d", "lon": -77.04354666666667, "type": "electric_scooter", "bike_id": "c7b5c4d247fc1bd544dc983e8b58cf5d", "fusion_lon": 0.0, "lat": 38.9083555, "fusion_lat": 0.0}, {"is_disabled": 0, "rental_uris": {"android": "https://dc.lft.to/lastmile_qr_scan", "ios": "https://dc.lft.to/lastmile_qr_scan"}, "is_reserved": 0, "name": "63d613e1819238076784794c00562af5", "lon": -76.996243, "type": "electric_scooter", "bike_id": "63d613e1819238076784794c00562af5", "fusion_lon": 0.0, "lat": 38.900361833333335, "fusion_lat": 0.0}, {"is_disabled": 0, "rental_uris": {"android": "https://dc.lft.to/lastmile_qr_scan", "ios": "https://dc.lft.to/lastmile_qr_scan"}, "is_reserved": 0, "name": "7fd9d85097db4d12e3ba19fe607fc7a0", "lon": -77.0618115, "type": "electric_scooter", "bike_id": "7fd9d85097db4d12e3ba19fe607fc7a0", "fusion_lon": 0.0, "lat": 38.906851, "fusion_lat": 0.0}, {"is_disabled": 0, "rental_uris": {"android": "https://dc.lft.to/lastmile_qr_scan", "ios": "https://dc.lft.to/lastmile_qr_scan"}, "is_reserved": 0, "name": "3fc00212a203f87b0e02bac8a37187e3", "lon": -76.98711766666666, "type": "electric_scooter", "bike_id": "3fc00212a203f87b0e02bac8a37187e3", "fusion_lon": 0.0, "lat": 38.86700166666667, "fusion_lat": 0.0}, {"is_disabled": 0, "rental_uris": {"android": "https://dc.lft.to/lastmile_qr_scan", "ios": "https://dc.lft.to/lastmile_qr_scan"}, "is_reserved": 0, "name": "681fc0899b85c99da6a376248a3082f3", "lon": -77.00333933333333, "type": "electric_scooter", "bike_id": "681fc0899b85c99da6a376248a3082f3", "fusion_lon": 0.0, "lat": 38.89363316666667, "fusion_lat": 0.0}, {"is_disabled": 0, "rental_uris": {"android": "https://dc.lft.to/lastmile_qr_scan", "ios": "https://dc.lft.to/lastmile_qr_scan"}, "is_reserved": 0, "name": "3807954e5ff57d733aaa096872e81350", "lon": -77.04388016666667, "type": "electric_scooter", "bike_id": "3807954e5ff57d733aaa096872e81350", "fusion_lon": 0.0, "lat": 38.922778, "fusion_lat": 0.0}, {"is_disabled": 0, "rental_uris": {"android": "https://dc.lft.to/lastmile_qr_scan", "ios": "https://dc.lft.to/lastmile_qr_scan"}, "is_reserved": 0, "name": "d5fb71fa3a8c87983f18214fc41706f1", "lon": -77.02263766666667, "type": "electric_scooter", "bike_id": "d5fb71fa3a8c87983f18214fc41706f1", "fusion_lon": 0.0, "lat": 38.927403166666664, "fusion_lat": 0.0}, {"is_disabled": 0, "rental_uris": {"android": "https://dc.lft.to/lastmile_qr_scan", "ios": "https://dc.lft.to/lastmile_qr_scan"}, "is_reserved": 0, "name": "888b1398002700931eefbbabe5c63385", "lon": -77.00226383333333, "type": "electric_bike", "bike_id": "888b1398002700931eefbbabe5c63385", "fusion_lon": 0.0, "lat": 38.957501, "fusion_lat": 0.0}, {"is_disabled": 0, "rental_uris": {"android": "https://dc.lft.to/lastmile_qr_scan", "ios": "https://dc.lft.to/lastmile_qr_scan"}, "is_reserved": 0, "name": "41da920f8b2d81b5201107c34e862653", "lon": -77.0415765, "type": "electric_scooter", "bike_id": "41da920f8b2d81b5201107c34e862653", "fusion_lon": 0.0, "lat": 38.910369333333335, "fusion_lat": 0.0}, {"is_disabled": 0, "rental_uris": {"android": "https://dc.lft.to/lastmile_qr_scan", "ios": "https://dc.lft.to/lastmile_qr_scan"}, "is_reserved": 0, "name": "774da75147c1ff9401e63485bf3120dd", "lon": -77.04337133333334, "type": "electric_scooter", "bike_id": "774da75147c1ff9401e63485bf3120dd", "fusion_lon": 0.0, "lat": 38.9169505, "fusion_lat": 0.0}, {"is_disabled": 0, "rental_uris": {"android": "https://dc.lft.to/lastmile_qr_scan", "ios": "https://dc.lft.to/lastmile_qr_scan"}, "is_reserved": 0, "name": "347b8d319eea7aa8bc6c22c207f2bd34", "lon": -77.04892416666667, "type": "electric_scooter", "bike_id": "347b8d319eea7aa8bc6c22c207f2bd34", "fusion_lon": 0.0, "lat": 38.89250083333334, "fusion_lat": 0.0}, {"is_disabled": 0, "rental_uris": {"android": "https://dc.lft.to/lastmile_qr_scan", "ios": "https://dc.lft.to/lastmile_qr_scan"}, "is_reserved": 0, "name": "1919eff28201a6f1a002847e591f3a08", "lon": -76.9841635, "type": "electric_bike", "bike_id": "1919eff28201a6f1a002847e591f3a08", "fusion_lon": 0.0, "lat": 38.855148666666665, "fusion_lat": 0.0}, {"is_disabled": 0, "rental_uris": {"android": "https://dc.lft.to/lastmile_qr_scan", "ios": "https://dc.lft.to/lastmile_qr_scan"}, "is_reserved": 0, "name": "b1fff5e9ad7842628161c2e0f89e3dfc", "lon": -76.98662433333334, "type": "electric_scooter", "bike_id": "b1fff5e9ad7842628161c2e0f89e3dfc", "fusion_lon": 0.0, "lat": 38.90148666666666, "fusion_lat": 0.0}, {"is_disabled": 0, "rental_uris": {"android": "https://dc.lft.to/lastmile_qr_scan", "ios": "https://dc.lft.to/lastmile_qr_scan"}, "is_reserved": 0, "name": "e09cc0e28eca57aee60b211ec5f545df", "lon": -77.0058795, "type": "electric_scooter", "bike_id": "e09cc0e28eca57aee60b211ec5f545df", "fusion_lon": 0.0, "lat": 38.911846, "fusion_lat": 0.0}, {"is_disabled": 0, "rental_uris": {"android": "https://dc.lft.to/lastmile_qr_scan", "ios": "https://dc.lft.to/lastmile_qr_scan"}, "is_reserved": 0, "name": "fbbccd5b91d62aa2957f51bc0413875b", "lon": -77.03633733333334, "type": "electric_scooter", "bike_id": "fbbccd5b91d62aa2957f51bc0413875b", "fusion_lon": 0.0, "lat": 38.91303666666667, "fusion_lat": 0.0}, {"is_disabled": 0, "rental_uris": {"android": "https://dc.lft.to/lastmile_qr_scan", "ios": "https://dc.lft.to/lastmile_qr_scan"}, "is_reserved": 0, "name": "8fdcb2935ba6c85bed968dca485d502a", "lon": -77.020161, "type": "electric_scooter", "bike_id": "8fdcb2935ba6c85bed968dca485d502a", "fusion_lon": 0.0, "lat": 38.892694166666665, "fusion_lat": 0.0}, {"is_disabled": 0, "rental_uris": {"android": "https://dc.lft.to/lastmile_qr_scan", "ios": "https://dc.lft.to/lastmile_qr_scan"}, "is_reserved": 0, "name": "8e13526ff17fc24dc38f3313325b854c", "lon": -77.04414616666666, "type": "electric_scooter", "bike_id": "8e13526ff17fc24dc38f3313325b854c", "fusion_lon": 0.0, "lat": 38.91772916666667, "fusion_lat": 0.0}, {"is_disabled": 0, "rental_uris": {"android": "https://dc.lft.to/lastmile_qr_scan", "ios": "https://dc.lft.to/lastmile_qr_scan"}, "is_reserved": 0, "name": "7b7ec3647ae4474137d790f74af9c42f", "lon": -77.01954933333333, "type": "electric_scooter", "bike_id": "7b7ec3647ae4474137d790f74af9c42f", "fusion_lon": 0.0, "lat": 38.9226285, "fusion_lat": 0.0}, {"is_disabled": 0, "rental_uris": {"android": "https://dc.lft.to/lastmile_qr_scan", "ios": "https://dc.lft.to/lastmile_qr_scan"}, "is_reserved": 0, "name": "661e29806a39b0ddee382af8735d5a23", "lon": -77.03498766666667, "type": "electric_scooter", "bike_id": "661e29806a39b0ddee382af8735d5a23", "fusion_lon": 0.0, "lat": 38.9169295, "fusion_lat": 0.0}, {"is_disabled": 0, "rental_uris": {"android": "https://dc.lft.to/lastmile_qr_scan", "ios": "https://dc.lft.to/lastmile_qr_scan"}, "is_reserved": 0, "name": "30592f4c3189ab924a6c5ecb0ca05177", "lon": -77.10685783333334, "type": "electric_bike", "bike_id": "30592f4c3189ab924a6c5ecb0ca05177", "fusion_lon": 0.0, "lat": 38.93581483333333, "fusion_lat": 0.0}, {"is_disabled": 0, "rental_uris": {"android": "https://dc.lft.to/lastmile_qr_scan", "ios": "https://dc.lft.to/lastmile_qr_scan"}, "is_reserved": 0, "name": "ab482efa39e7c0407ddc5212c1c77d3a", "lon": -76.98367166666667, "type": "electric_scooter", "bike_id": "ab482efa39e7c0407ddc5212c1c77d3a", "fusion_lon": 0.0, "lat": 38.895307833333334, "fusion_lat": 0.0}, {"is_disabled": 0, "rental_uris": {"android": "https://dc.lft.to/lastmile_qr_scan", "ios": "https://dc.lft.to/lastmile_qr_scan"}, "is_reserved": 0, "name": "6a070db26bac1d4e489d02549bb77116", "lon": -76.98762366666666, "type": "electric_bike", "bike_id": "6a070db26bac1d4e489d02549bb77116", "fusion_lon": 0.0, "lat": 38.85787533333333, "fusion_lat": 0.0}, {"is_disabled": 0, "rental_uris": {"android": "https://dc.lft.to/lastmile_qr_scan", "ios": "https://dc.lft.to/lastmile_qr_scan"}, "is_reserved": 0, "name": "9481a968739cf26bfa834717dee3f8f2", "lon": -77.03101383333333, "type": "electric_scooter", "bike_id": "9481a968739cf26bfa834717dee3f8f2", "fusion_lon": 0.0, "lat": 38.925707333333335, "fusion_lat": 0.0}, {"is_disabled": 0, "rental_uris": {"android": "https://dc.lft.to/lastmile_qr_scan", "ios": "https://dc.lft.to/lastmile_qr_scan"}, "is_reserved": 0, "name": "8d033ef78bb6bc4e7a17b03befb37233", "lon": -77.00614066666667, "type": "electric_scooter", "bike_id": "8d033ef78bb6bc4e7a17b03befb37233", "fusion_lon": 0.0, "lat": 38.905819666666666, "fusion_lat": 0.0}, {"is_disabled": 0, "rental_uris": {"android": "https://dc.lft.to/lastmile_qr_scan", "ios": "https://dc.lft.to/lastmile_qr_scan"}, "is_reserved": 0, "name": "7b13d4d15753d106ce2a62b79c24d4b6", "lon": -77.00211383333334, "type": "electric_scooter", "bike_id": "7b13d4d15753d106ce2a62b79c24d4b6", "fusion_lon": 0.0, "lat": 38.89084416666667, "fusion_lat": 0.0}, {"is_disabled": 0, "rental_uris": {"android": "https://dc.lft.to/lastmile_qr_scan", "ios": "https://dc.lft.to/lastmile_qr_scan"}, "is_reserved": 0, "name": "80b606f754c7c9b794dc378200df4d22", "lon": -77.05060483333334, "type": "electric_scooter", "bike_id": "80b606f754c7c9b794dc378200df4d22", "fusion_lon": 0.0, "lat": 38.9008525, "fusion_lat": 0.0}, {"is_disabled": 0, "rental_uris": {"android": "https://dc.lft.to/lastmile_qr_scan", "ios": "https://dc.lft.to/lastmile_qr_scan"}, "is_reserved": 0, "name": "f2e9603c56c8dff3d86bbadb392c12a9", "lon": -77.03317516666667, "type": "electric_scooter", "bike_id": "f2e9603c56c8dff3d86bbadb392c12a9", "fusion_lon": 0.0, "lat": 38.91414183333333, "fusion_lat": 0.0}, {"is_disabled": 0, "rental_uris": {"android": "https://dc.lft.to/lastmile_qr_scan", "ios": "https://dc.lft.to/lastmile_qr_scan"}, "is_reserved": 0, "name": "c6dceae9abb99a3073e9a7138e190533", "lon": -77.0149695, "type": "electric_scooter", "bike_id": "c6dceae9abb99a3073e9a7138e190533", "fusion_lon": 0.0, "lat": 38.95648216666667, "fusion_lat": 0.0}, {"is_disabled": 0, "rental_uris": {"android": "https://dc.lft.to/lastmile_qr_scan", "ios": "https://dc.lft.to/lastmile_qr_scan"}, "is_reserved": 0, "name": "f170d515994aff61db843629299e4089", "lon": -77.03203333333333, "type": "electric_scooter", "bike_id": "f170d515994aff61db843629299e4089", "fusion_lon": 0.0, "lat": 38.939750833333335, "fusion_lat": 0.0}, {"is_disabled": 0, "rental_uris": {"android": "https://dc.lft.to/lastmile_qr_scan", "ios": "https://dc.lft.to/lastmile_qr_scan"}, "is_reserved": 0, "name": "0df669e70e5186a457018936351ea0b7", "lon": -77.01748616666667, "type": "electric_scooter", "bike_id": "0df669e70e5186a457018936351ea0b7", "fusion_lon": 0.0, "lat": 38.90260416666667, "fusion_lat": 0.0}, {"is_disabled": 0, "rental_uris": {"android": "https://dc.lft.to/lastmile_qr_scan", "ios": "https://dc.lft.to/lastmile_qr_scan"}, "is_reserved": 0, "name": "9f3c305269ce7e299aa78195f8dbad56", "lon": -77.00335033333333, "type": "electric_scooter", "bike_id": "9f3c305269ce7e299aa78195f8dbad56", "fusion_lon": 0.0, "lat": 38.89359433333333, "fusion_lat": 0.0}, {"is_disabled": 0, "rental_uris": {"android": "https://dc.lft.to/lastmile_qr_scan", "ios": "https://dc.lft.to/lastmile_qr_scan"}, "is_reserved": 0, "name": "eced0c5ed920981211eeb2b1e6fb7bd5", "lon": -77.01394916666666, "type": "electric_scooter", "bike_id": "eced0c5ed920981211eeb2b1e6fb7bd5", "fusion_lon": 0.0, "lat": 38.880296666666666, "fusion_lat": 0.0}, {"is_disabled": 0, "rental_uris": {"android": "https://dc.lft.to/lastmile_qr_scan", "ios": "https://dc.lft.to/lastmile_qr_scan"}, "is_reserved": 0, "name": "f2b8bae0b17c5acfc5b9b5159db1a592", "lon": -77.041967, "type": "electric_scooter", "bike_id": "f2b8bae0b17c5acfc5b9b5159db1a592", "fusion_lon": 0.0, "lat": 38.91678066666667, "fusion_lat": 0.0}, {"is_disabled": 0, "rental_uris": {"android": "https://dc.lft.to/lastmile_qr_scan", "ios": "https://dc.lft.to/lastmile_qr_scan"}, "is_reserved": 0, "name": "2f1bd791cc628d66228c4d9b2a576ab8", "lon": -77.03380683333333, "type": "electric_scooter", "bike_id": "2f1bd791cc628d66228c4d9b2a576ab8", "fusion_lon": 0.0, "lat": 38.902766666666665, "fusion_lat": 0.0}, {"is_disabled": 0, "rental_uris": {"android": "https://dc.lft.to/lastmile_qr_scan", "ios": "https://dc.lft.to/lastmile_qr_scan"}, "is_reserved": 0, "name": "5484aa6191e21962a27eb665bf9d3562", "lon": -76.98462566666667, "type": "electric_scooter", "bike_id": "5484aa6191e21962a27eb665bf9d3562", "fusion_lon": 0.0, "lat": 38.893688833333336, "fusion_lat": 0.0}, {"is_disabled": 0, "rental_uris": {"android": "https://dc.lft.to/lastmile_qr_scan", "ios": "https://dc.lft.to/lastmile_qr_scan"}, "is_reserved": 0, "name": "b55f77c689000a4634e359beb3c3a1ef", "lon": -77.012014, "type": "electric_scooter", "bike_id": "b55f77c689000a4634e359beb3c3a1ef", "fusion_lon": 0.0, "lat": 38.92741683333333, "fusion_lat": 0.0}, {"is_disabled": 0, "rental_uris": {"android": "https://dc.lft.to/lastmile_qr_scan", "ios": "https://dc.lft.to/lastmile_qr_scan"}, "is_reserved": 0, "name": "9cd3dffdf3e64ef42881bbd8a65a799e", "lon": -76.985527, "type": "electric_scooter", "bike_id": "9cd3dffdf3e64ef42881bbd8a65a799e", "fusion_lon": 0.0, "lat": 38.904165166666665, "fusion_lat": 0.0}, {"is_disabled": 0, "rental_uris": {"android": "https://dc.lft.to/lastmile_qr_scan", "ios": "https://dc.lft.to/lastmile_qr_scan"}, "is_reserved": 0, "name": "99cfdf350cfac18b48048d9a6f4aeb22", "lon": -77.02911616666667, "type": "electric_scooter", "bike_id": "99cfdf350cfac18b48048d9a6f4aeb22", "fusion_lon": 0.0, "lat": 38.9396905, "fusion_lat": 0.0}, {"is_disabled": 0, "rental_uris": {"android": "https://dc.lft.to/lastmile_qr_scan", "ios": "https://dc.lft.to/lastmile_qr_scan"}, "is_reserved": 0, "name": "78b02256a527464fbbd04e9d488126d4", "lon": -77.032448, "type": "electric_scooter", "bike_id": "78b02256a527464fbbd04e9d488126d4", "fusion_lon": 0.0, "lat": 38.909721, "fusion_lat": 0.0}, {"is_disabled": 0, "rental_uris": {"android": "https://dc.lft.to/lastmile_qr_scan", "ios": "https://dc.lft.to/lastmile_qr_scan"}, "is_reserved": 0, "name": "8f07ba1c9adc7433c34f6f59959fa716", "lon": -77.02314533333333, "type": "electric_scooter", "bike_id": "8f07ba1c9adc7433c34f6f59959fa716", "fusion_lon": 0.0, "lat": 38.9177555, "fusion_lat": 0.0}, {"is_disabled": 0, "rental_uris": {"android": "https://dc.lft.to/lastmile_qr_scan", "ios": "https://dc.lft.to/lastmile_qr_scan"}, "is_reserved": 0, "name": "16abacda895bdf5c43ce0d6901e93507", "lon": -76.93556916666667, "type": "electric_scooter", "bike_id": "16abacda895bdf5c43ce0d6901e93507", "fusion_lon": 0.0, "lat": 38.90157033333333, "fusion_lat": 0.0}, {"is_disabled": 0, "rental_uris": {"android": "https://dc.lft.to/lastmile_qr_scan", "ios": "https://dc.lft.to/lastmile_qr_scan"}, "is_reserved": 0, "name": "bea949af58758f0e4e283e99ee060582", "lon": -77.04344016666667, "type": "electric_scooter", "bike_id": "bea949af58758f0e4e283e99ee060582", "fusion_lon": 0.0, "lat": 38.91054333333334, "fusion_lat": 0.0}, {"is_disabled": 0, "rental_uris": {"android": "https://dc.lft.to/lastmile_qr_scan", "ios": "https://dc.lft.to/lastmile_qr_scan"}, "is_reserved": 0, "name": "9d4d4d35c38b36d01d42fff57d8c4de7", "lon": -77.05785216666666, "type": "electric_scooter", "bike_id": "9d4d4d35c38b36d01d42fff57d8c4de7", "fusion_lon": 0.0, "lat": 38.9050775, "fusion_lat": 0.0}, {"is_disabled": 0, "rental_uris": {"android": "https://dc.lft.to/lastmile_qr_scan", "ios": "https://dc.lft.to/lastmile_qr_scan"}, "is_reserved": 0, "name": "51899662aac375676de71cc0bbde34a2", "lon": -77.03783116666666, "type": "electric_scooter", "bike_id": "51899662aac375676de71cc0bbde34a2", "fusion_lon": 0.0, "lat": 38.930233333333334, "fusion_lat": 0.0}, {"is_disabled": 0, "rental_uris": {"android": "https://dc.lft.to/lastmile_qr_scan", "ios": "https://dc.lft.to/lastmile_qr_scan"}, "is_reserved": 0, "name": "999144b3ee7910c9e742345fb8ab4083", "lon": -77.0258565, "type": "electric_scooter", "bike_id": "999144b3ee7910c9e742345fb8ab4083", "fusion_lon": 0.0, "lat": 38.92036733333333, "fusion_lat": 0.0}, {"is_disabled": 0, "rental_uris": {"android": "https://dc.lft.to/lastmile_qr_scan", "ios": "https://dc.lft.to/lastmile_qr_scan"}, "is_reserved": 0, "name": "c1e40757bb87fc1be020f850fd864583", "lon": -77.02914533333333, "type": "electric_scooter", "bike_id": "c1e40757bb87fc1be020f850fd864583", "fusion_lon": 0.0, "lat": 38.92482433333333, "fusion_lat": 0.0}, {"is_disabled": 0, "rental_uris": {"android": "https://dc.lft.to/lastmile_qr_scan", "ios": "https://dc.lft.to/lastmile_qr_scan"}, "is_reserved": 0, "name": "0e1007132a627fd42ff9aedbcdd2024f", "lon": -76.95194833333333, "type": "electric_bike", "bike_id": "0e1007132a627fd42ff9aedbcdd2024f", "fusion_lon": 0.0, "lat": 38.90686933333333, "fusion_lat": 0.0}, {"is_disabled": 0, "rental_uris": {"android": "https://dc.lft.to/lastmile_qr_scan", "ios": "https://dc.lft.to/lastmile_qr_scan"}, "is_reserved": 0, "name": "5ffb9b76a4b01d0540df77866fadc451", "lon": -76.98772566666666, "type": "electric_scooter", "bike_id": "5ffb9b76a4b01d0540df77866fadc451", "fusion_lon": 0.0, "lat": 38.8445715, "fusion_lat": 0.0}, {"is_disabled": 0, "rental_uris": {"android": "https://dc.lft.to/lastmile_qr_scan", "ios": "https://dc.lft.to/lastmile_qr_scan"}, "is_reserved": 0, "name": "bf5b309393e7f09ac7ac4305618f14f7", "lon": -77.05139066666666, "type": "electric_scooter", "bike_id": "bf5b309393e7f09ac7ac4305618f14f7", "fusion_lon": 0.0, "lat": 38.90668016666667, "fusion_lat": 0.0}, {"is_disabled": 0, "rental_uris": {"android": "https://dc.lft.to/lastmile_qr_scan", "ios": "https://dc.lft.to/lastmile_qr_scan"}, "is_reserved": 0, "name": "7f1f8ff8886e4ee215739c6a37eae6d6", "lon": -77.03212833333333, "type": "electric_scooter", "bike_id": "7f1f8ff8886e4ee215739c6a37eae6d6", "fusion_lon": 0.0, "lat": 38.92583366666667, "fusion_lat": 0.0}, {"is_disabled": 0, "rental_uris": {"android": "https://dc.lft.to/lastmile_qr_scan", "ios": "https://dc.lft.to/lastmile_qr_scan"}, "is_reserved": 0, "name": "613d0bad23376ec87f77c6ba8998df37", "lon": -77.022765, "type": "electric_scooter", "bike_id": "613d0bad23376ec87f77c6ba8998df37", "fusion_lon": 0.0, "lat": 38.91265166666667, "fusion_lat": 0.0}, {"is_disabled": 0, "rental_uris": {"android": "https://dc.lft.to/lastmile_qr_scan", "ios": "https://dc.lft.to/lastmile_qr_scan"}, "is_reserved": 0, "name": "2d45972b2687cc7aa8b37747e79aeed1", "lon": -77.04865816666667, "type": "electric_scooter", "bike_id": "2d45972b2687cc7aa8b37747e79aeed1", "fusion_lon": 0.0, "lat": 38.89226083333333, "fusion_lat": 0.0}, {"is_disabled": 0, "rental_uris": {"android": "https://dc.lft.to/lastmile_qr_scan", "ios": "https://dc.lft.to/lastmile_qr_scan"}, "is_reserved": 0, "name": "3482fc956373f599a8fd008d47a8f898", "lon": -77.04132816666667, "type": "electric_scooter", "bike_id": "3482fc956373f599a8fd008d47a8f898", "fusion_lon": 0.0, "lat": 38.89946033333333, "fusion_lat": 0.0}, {"is_disabled": 0, "rental_uris": {"android": "https://dc.lft.to/lastmile_qr_scan", "ios": "https://dc.lft.to/lastmile_qr_scan"}, "is_reserved": 0, "name": "22aef630497f135ac02a5679c556b39f", "lon": -77.0222335, "type": "electric_scooter", "bike_id": "22aef630497f135ac02a5679c556b39f", "fusion_lon": 0.0, "lat": 38.93555966666667, "fusion_lat": 0.0}, {"is_disabled": 0, "rental_uris": {"android": "https://dc.lft.to/lastmile_qr_scan", "ios": "https://dc.lft.to/lastmile_qr_scan"}, "is_reserved": 0, "name": "93e86223c1822f3a7a5e2f66cc1a3878", "lon": -77.03843666666667, "type": "electric_scooter", "bike_id": "93e86223c1822f3a7a5e2f66cc1a3878", "fusion_lon": 0.0, "lat": 38.906747833333334, "fusion_lat": 0.0}, {"is_disabled": 0, "rental_uris": {"android": "https://dc.lft.to/lastmile_qr_scan", "ios": "https://dc.lft.to/lastmile_qr_scan"}, "is_reserved": 0, "name": "57b74b4f71dddda803bc9baa0e01cbd8", "lon": -76.90757333333333, "type": "electric_bike", "bike_id": "57b74b4f71dddda803bc9baa0e01cbd8", "fusion_lon": 0.0, "lat": 38.92438516666667, "fusion_lat": 0.0}, {"is_disabled": 0, "rental_uris": {"android": "https://dc.lft.to/lastmile_qr_scan", "ios": "https://dc.lft.to/lastmile_qr_scan"}, "is_reserved": 0, "name": "5c6ab56fdada036820810ca91791d0ad", "lon": -77.046913, "type": "electric_scooter", "bike_id": "5c6ab56fdada036820810ca91791d0ad", "fusion_lon": 0.0, "lat": 38.915935, "fusion_lat": 0.0}, {"is_disabled": 0, "rental_uris": {"android": "https://dc.lft.to/lastmile_qr_scan", "ios": "https://dc.lft.to/lastmile_qr_scan"}, "is_reserved": 0, "name": "b3554c84e0597c6ac5a20189ea869eb3", "lon": -77.02482116666667, "type": "electric_scooter", "bike_id": "b3554c84e0597c6ac5a20189ea869eb3", "fusion_lon": 0.0, "lat": 38.93882833333333, "fusion_lat": 0.0}, {"is_disabled": 0, "rental_uris": {"android": "https://dc.lft.to/lastmile_qr_scan", "ios": "https://dc.lft.to/lastmile_qr_scan"}, "is_reserved": 0, "name": "7fb563b22a7d6814e585db0730df1b31", "lon": -77.0316305, "type": "electric_scooter", "bike_id": "7fb563b22a7d6814e585db0730df1b31", "fusion_lon": 0.0, "lat": 38.920167166666666, "fusion_lat": 0.0}, {"is_disabled": 0, "rental_uris": {"android": "https://dc.lft.to/lastmile_qr_scan", "ios": "https://dc.lft.to/lastmile_qr_scan"}, "is_reserved": 0, "name": "987b3509b63bfe0a88d9650df0f4db07", "lon": -77.05108066666666, "type": "electric_scooter", "bike_id": "987b3509b63bfe0a88d9650df0f4db07", "fusion_lon": 0.0, "lat": 38.92366366666667, "fusion_lat": 0.0}, {"is_disabled": 0, "rental_uris": {"android": "https://dc.lft.to/lastmile_qr_scan", "ios": "https://dc.lft.to/lastmile_qr_scan"}, "is_reserved": 0, "name": "212a4c7ed3c538d4473764c5dc5f93e9", "lon": -77.024003, "type": "electric_scooter", "bike_id": "212a4c7ed3c538d4473764c5dc5f93e9", "fusion_lon": 0.0, "lat": 38.894798, "fusion_lat": 0.0}, {"is_disabled": 0, "rental_uris": {"android": "https://dc.lft.to/lastmile_qr_scan", "ios": "https://dc.lft.to/lastmile_qr_scan"}, "is_reserved": 0, "name": "d2c4659998cee89ff931732c0bee4ca6", "lon": -77.03246, "type": "electric_scooter", "bike_id": "d2c4659998cee89ff931732c0bee4ca6", "fusion_lon": 0.0, "lat": 38.91487, "fusion_lat": 0.0}, {"is_disabled": 0, "rental_uris": {"android": "https://dc.lft.to/lastmile_qr_scan", "ios": "https://dc.lft.to/lastmile_qr_scan"}, "is_reserved": 0, "name": "7393ddbac3c1679cecb460c4b1a45bbe", "lon": -76.98029166666667, "type": "electric_bike", "bike_id": "7393ddbac3c1679cecb460c4b1a45bbe", "fusion_lon": 0.0, "lat": 38.8874895, "fusion_lat": 0.0}, {"is_disabled": 0, "rental_uris": {"android": "https://dc.lft.to/lastmile_qr_scan", "ios": "https://dc.lft.to/lastmile_qr_scan"}, "is_reserved": 0, "name": "42f0b0c6a3027ba72007e6d62be0617d", "lon": -77.03386516666667, "type": "electric_scooter", "bike_id": "42f0b0c6a3027ba72007e6d62be0617d", "fusion_lon": 0.0, "lat": 38.93240566666667, "fusion_lat": 0.0}, {"is_disabled": 0, "rental_uris": {"android": "https://dc.lft.to/lastmile_qr_scan", "ios": "https://dc.lft.to/lastmile_qr_scan"}, "is_reserved": 0, "name": "f4ab858787099864803b76fc6c7857f0", "lon": -77.009109, "type": "electric_scooter", "bike_id": "f4ab858787099864803b76fc6c7857f0", "fusion_lon": 0.0, "lat": 38.89551183333333, "fusion_lat": 0.0}, {"is_disabled": 0, "rental_uris": {"android": "https://dc.lft.to/lastmile_qr_scan", "ios": "https://dc.lft.to/lastmile_qr_scan"}, "is_reserved": 0, "name": "405d05294b61162a6f2287666d57edad", "lon": -77.03452233333333, "type": "electric_scooter", "bike_id": "405d05294b61162a6f2287666d57edad", "fusion_lon": 0.0, "lat": 38.917586, "fusion_lat": 0.0}, {"is_disabled": 0, "rental_uris": {"android": "https://dc.lft.to/lastmile_qr_scan", "ios": "https://dc.lft.to/lastmile_qr_scan"}, "is_reserved": 0, "name": "7004d6c43c88dca024e6bda982f4a15a", "lon": -76.94896483333333, "type": "electric_scooter", "bike_id": "7004d6c43c88dca024e6bda982f4a15a", "fusion_lon": 0.0, "lat": 38.8953235, "fusion_lat": 0.0}, {"is_disabled": 0, "rental_uris": {"android": "https://dc.lft.to/lastmile_qr_scan", "ios": "https://dc.lft.to/lastmile_qr_scan"}, "is_reserved": 0, "name": "d3a480e5c489f1440845fab1059d2860", "lon": -76.9865705, "type": "electric_scooter", "bike_id": "d3a480e5c489f1440845fab1059d2860", "fusion_lon": 0.0, "lat": 38.8580615, "fusion_lat": 0.0}, {"is_disabled": 0, "rental_uris": {"android": "https://dc.lft.to/lastmile_qr_scan", "ios": "https://dc.lft.to/lastmile_qr_scan"}, "is_reserved": 0, "name": "c1654d56ce3b5909ae945ca91db3cf08", "lon": -77.03178416666667, "type": "electric_scooter", "bike_id": "c1654d56ce3b5909ae945ca91db3cf08", "fusion_lon": 0.0, "lat": 38.88331683333333, "fusion_lat": 0.0}, {"is_disabled": 0, "rental_uris": {"android": "https://dc.lft.to/lastmile_qr_scan", "ios": "https://dc.lft.to/lastmile_qr_scan"}, "is_reserved": 0, "name": "0f7d62b28b62704e3cb38fc433cc2f73", "lon": -77.0309325, "type": "electric_scooter", "bike_id": "0f7d62b28b62704e3cb38fc433cc2f73", "fusion_lon": 0.0, "lat": 38.90960183333333, "fusion_lat": 0.0}, {"is_disabled": 0, "rental_uris": {"android": "https://dc.lft.to/lastmile_qr_scan", "ios": "https://dc.lft.to/lastmile_qr_scan"}, "is_reserved": 0, "name": "0138535b23b4fdc405d5cc73f281b8af", "lon": -77.025924, "type": "electric_scooter", "bike_id": "0138535b23b4fdc405d5cc73f281b8af", "fusion_lon": 0.0, "lat": 38.94204916666666, "fusion_lat": 0.0}, {"is_disabled": 0, "rental_uris": {"android": "https://dc.lft.to/lastmile_qr_scan", "ios": "https://dc.lft.to/lastmile_qr_scan"}, "is_reserved": 0, "name": "a0efb3a273d12dfcd41ec356f51d6f95", "lon": -77.034748, "type": "electric_scooter", "bike_id": "a0efb3a273d12dfcd41ec356f51d6f95", "fusion_lon": 0.0, "lat": 38.9171575, "fusion_lat": 0.0}, {"is_disabled": 0, "rental_uris": {"android": "https://dc.lft.to/lastmile_qr_scan", "ios": "https://dc.lft.to/lastmile_qr_scan"}, "is_reserved": 0, "name": "b7e826f6306411c2897ee7fd7674920b", "lon": -77.0435005, "type": "electric_scooter", "bike_id": "b7e826f6306411c2897ee7fd7674920b", "fusion_lon": 0.0, "lat": 38.90338966666667, "fusion_lat": 0.0}, {"is_disabled": 0, "rental_uris": {"android": "https://dc.lft.to/lastmile_qr_scan", "ios": "https://dc.lft.to/lastmile_qr_scan"}, "is_reserved": 0, "name": "fa5f48ea6e05416d17a0eb4fa13df4f5", "lon": -77.0430495, "type": "electric_scooter", "bike_id": "fa5f48ea6e05416d17a0eb4fa13df4f5", "fusion_lon": 0.0, "lat": 38.91105433333333, "fusion_lat": 0.0}, {"is_disabled": 0, "rental_uris": {"android": "https://dc.lft.to/lastmile_qr_scan", "ios": "https://dc.lft.to/lastmile_qr_scan"}, "is_reserved": 0, "name": "99bc494c78780a86013c12d868f55141", "lon": -77.034426, "type": "electric_scooter", "bike_id": "99bc494c78780a86013c12d868f55141", "fusion_lon": 0.0, "lat": 38.9042675, "fusion_lat": 0.0}, {"is_disabled": 0, "rental_uris": {"android": "https://dc.lft.to/lastmile_qr_scan", "ios": "https://dc.lft.to/lastmile_qr_scan"}, "is_reserved": 0, "name": "fa4ecc8886a7a5878da5596850b7d4ed", "lon": -77.04015183333334, "type": "electric_scooter", "bike_id": "fa4ecc8886a7a5878da5596850b7d4ed", "fusion_lon": 0.0, "lat": 38.9103565, "fusion_lat": 0.0}, {"is_disabled": 0, "rental_uris": {"android": "https://dc.lft.to/lastmile_qr_scan", "ios": "https://dc.lft.to/lastmile_qr_scan"}, "is_reserved": 0, "name": "834987bbe24ab0c354d057065a328e14", "lon": -77.03429883333334, "type": "electric_scooter", "bike_id": "834987bbe24ab0c354d057065a328e14", "fusion_lon": 0.0, "lat": 38.902758166666665, "fusion_lat": 0.0}, {"is_disabled": 0, "rental_uris": {"android": "https://dc.lft.to/lastmile_qr_scan", "ios": "https://dc.lft.to/lastmile_qr_scan"}, "is_reserved": 0, "name": "1af5325b0f8cda61a84084bc79e0f942", "lon": -77.023893, "type": "electric_scooter", "bike_id": "1af5325b0f8cda61a84084bc79e0f942", "fusion_lon": 0.0, "lat": 38.905824833333334, "fusion_lat": 0.0}, {"is_disabled": 0, "rental_uris": {"android": "https://dc.lft.to/lastmile_qr_scan", "ios": "https://dc.lft.to/lastmile_qr_scan"}, "is_reserved": 0, "name": "18602905f448c7bbf931443f82ab9fbc", "lon": -77.0057995, "type": "electric_scooter", "bike_id": "18602905f448c7bbf931443f82ab9fbc", "fusion_lon": 0.0, "lat": 38.875501, "fusion_lat": 0.0}, {"is_disabled": 0, "rental_uris": {"android": "https://dc.lft.to/lastmile_qr_scan", "ios": "https://dc.lft.to/lastmile_qr_scan"}, "is_reserved": 0, "name": "11786b25dee35542cde080d87f9de0dd", "lon": -77.03236283333334, "type": "electric_scooter", "bike_id": "11786b25dee35542cde080d87f9de0dd", "fusion_lon": 0.0, "lat": 38.912699333333336, "fusion_lat": 0.0}, {"is_disabled": 0, "rental_uris": {"android": "https://dc.lft.to/lastmile_qr_scan", "ios": "https://dc.lft.to/lastmile_qr_scan"}, "is_reserved": 0, "name": "2269df3f76388e4b46d4a4473c6fba3f", "lon": -77.04560516666666, "type": "electric_scooter", "bike_id": "2269df3f76388e4b46d4a4473c6fba3f", "fusion_lon": 0.0, "lat": 38.90720683333333, "fusion_lat": 0.0}, {"is_disabled": 0, "rental_uris": {"android": "https://dc.lft.to/lastmile_qr_scan", "ios": "https://dc.lft.to/lastmile_qr_scan"}, "is_reserved": 0, "name": "66b69996a072315fda4ce196d8471046", "lon": -76.999027, "type": "electric_scooter", "bike_id": "66b69996a072315fda4ce196d8471046", "fusion_lon": 0.0, "lat": 38.9565195, "fusion_lat": 0.0}, {"is_disabled": 0, "rental_uris": {"android": "https://dc.lft.to/lastmile_qr_scan", "ios": "https://dc.lft.to/lastmile_qr_scan"}, "is_reserved": 0, "name": "5c025f6fb9d7f13b890dd3b18b42f34e", "lon": -77.02393466666666, "type": "electric_scooter", "bike_id": "5c025f6fb9d7f13b890dd3b18b42f34e", "fusion_lon": 0.0, "lat": 38.907068, "fusion_lat": 0.0}, {"is_disabled": 0, "rental_uris": {"android": "https://dc.lft.to/lastmile_qr_scan", "ios": "https://dc.lft.to/lastmile_qr_scan"}, "is_reserved": 0, "name": "4aa7b161cfc5226cbe3651e1ae3b4b99", "lon": -77.0318985, "type": "electric_scooter", "bike_id": "4aa7b161cfc5226cbe3651e1ae3b4b99", "fusion_lon": 0.0, "lat": 38.92121066666667, "fusion_lat": 0.0}, {"is_disabled": 0, "rental_uris": {"android": "https://dc.lft.to/lastmile_qr_scan", "ios": "https://dc.lft.to/lastmile_qr_scan"}, "is_reserved": 0, "name": "02eb26020ccfca27785126bd71342fcf", "lon": -77.03869283333333, "type": "electric_scooter", "bike_id": "02eb26020ccfca27785126bd71342fcf", "fusion_lon": 0.0, "lat": 38.915530833333335, "fusion_lat": 0.0}, {"is_disabled": 0, "rental_uris": {"android": "https://dc.lft.to/lastmile_qr_scan", "ios": "https://dc.lft.to/lastmile_qr_scan"}, "is_reserved": 0, "name": "120267b02c31e0f72caa5ee20078a173", "lon": -76.986568, "type": "electric_scooter", "bike_id": "120267b02c31e0f72caa5ee20078a173", "fusion_lon": 0.0, "lat": 38.913108666666666, "fusion_lat": 0.0}, {"is_disabled": 0, "rental_uris": {"android": "https://dc.lft.to/lastmile_qr_scan", "ios": "https://dc.lft.to/lastmile_qr_scan"}, "is_reserved": 0, "name": "b58c75e84465fadfae5ad93714e198e1", "lon": -76.9875015, "type": "electric_bike", "bike_id": "b58c75e84465fadfae5ad93714e198e1", "fusion_lon": 0.0, "lat": 38.9882785, "fusion_lat": 0.0}, {"is_disabled": 0, "rental_uris": {"android": "https://dc.lft.to/lastmile_qr_scan", "ios": "https://dc.lft.to/lastmile_qr_scan"}, "is_reserved": 0, "name": "ef12acb3aed1ec82b07cf5d9ce65eb28", "lon": -76.92889533333333, "type": "electric_bike", "bike_id": "ef12acb3aed1ec82b07cf5d9ce65eb28", "fusion_lon": 0.0, "lat": 38.978443666666664, "fusion_lat": 0.0}, {"is_disabled": 0, "rental_uris": {"android": "https://dc.lft.to/lastmile_qr_scan", "ios": "https://dc.lft.to/lastmile_qr_scan"}, "is_reserved": 0, "name": "3dfdc261854726bc8e4920f407a95646", "lon": -77.03720683333333, "type": "electric_scooter", "bike_id": "3dfdc261854726bc8e4920f407a95646", "fusion_lon": 0.0, "lat": 38.91103716666667, "fusion_lat": 0.0}, {"is_disabled": 0, "rental_uris": {"android": "https://dc.lft.to/lastmile_qr_scan", "ios": "https://dc.lft.to/lastmile_qr_scan"}, "is_reserved": 0, "name": "f5704152df1b0d63cdb72432fd399d29", "lon": -76.98082683333334, "type": "electric_scooter", "bike_id": "f5704152df1b0d63cdb72432fd399d29", "fusion_lon": 0.0, "lat": 38.901669166666665, "fusion_lat": 0.0}, {"is_disabled": 0, "rental_uris": {"android": "https://dc.lft.to/lastmile_qr_scan", "ios": "https://dc.lft.to/lastmile_qr_scan"}, "is_reserved": 0, "name": "e340d39db6c31288e1ba816f60acef4b", "lon": -77.0355375, "type": "electric_scooter", "bike_id": "e340d39db6c31288e1ba816f60acef4b", "fusion_lon": 0.0, "lat": 38.90467916666667, "fusion_lat": 0.0}, {"is_disabled": 0, "rental_uris": {"android": "https://dc.lft.to/lastmile_qr_scan", "ios": "https://dc.lft.to/lastmile_qr_scan"}, "is_reserved": 0, "name": "7cb221fcd188897a5ca66921ed3db919", "lon": -77.04999433333333, "type": "electric_scooter", "bike_id": "7cb221fcd188897a5ca66921ed3db919", "fusion_lon": 0.0, "lat": 38.915748, "fusion_lat": 0.0}, {"is_disabled": 0, "rental_uris": {"android": "https://dc.lft.to/lastmile_qr_scan", "ios": "https://dc.lft.to/lastmile_qr_scan"}, "is_reserved": 0, "name": "f317f22de32417c0565548e5f48f3729", "lon": -77.03853166666667, "type": "electric_scooter", "bike_id": "f317f22de32417c0565548e5f48f3729", "fusion_lon": 0.0, "lat": 38.9066345, "fusion_lat": 0.0}, {"is_disabled": 0, "rental_uris": {"android": "https://dc.lft.to/lastmile_qr_scan", "ios": "https://dc.lft.to/lastmile_qr_scan"}, "is_reserved": 0, "name": "1ea8f0b9b04450bc0995f3b0d1b6530e", "lon": -77.03154116666667, "type": "electric_scooter", "bike_id": "1ea8f0b9b04450bc0995f3b0d1b6530e", "fusion_lon": 0.0, "lat": 38.92815616666667, "fusion_lat": 0.0}, {"is_disabled": 0, "rental_uris": {"android": "https://dc.lft.to/lastmile_qr_scan", "ios": "https://dc.lft.to/lastmile_qr_scan"}, "is_reserved": 0, "name": "496ba17409d57fe78245aed19c12f6ca", "lon": -77.01756233333333, "type": "electric_scooter", "bike_id": "496ba17409d57fe78245aed19c12f6ca", "fusion_lon": 0.0, "lat": 38.91356716666667, "fusion_lat": 0.0}, {"is_disabled": 0, "rental_uris": {"android": "https://dc.lft.to/lastmile_qr_scan", "ios": "https://dc.lft.to/lastmile_qr_scan"}, "is_reserved": 0, "name": "70ffb50d72061cb6d10fcbebc86c4389", "lon": -77.03640566666667, "type": "electric_scooter", "bike_id": "70ffb50d72061cb6d10fcbebc86c4389", "fusion_lon": 0.0, "lat": 38.93151066666667, "fusion_lat": 0.0}, {"is_disabled": 0, "rental_uris": {"android": "https://dc.lft.to/lastmile_qr_scan", "ios": "https://dc.lft.to/lastmile_qr_scan"}, "is_reserved": 0, "name": "404ca52df5fbc1b2aaf60344236f38cb", "lon": -76.99634433333334, "type": "electric_scooter", "bike_id": "404ca52df5fbc1b2aaf60344236f38cb", "fusion_lon": 0.0, "lat": 38.84619083333333, "fusion_lat": 0.0}, {"is_disabled": 0, "rental_uris": {"android": "https://dc.lft.to/lastmile_qr_scan", "ios": "https://dc.lft.to/lastmile_qr_scan"}, "is_reserved": 0, "name": "ec0cfc07f5cc8f78a4367542cc51c2fc", "lon": -77.012126, "type": "electric_scooter", "bike_id": "ec0cfc07f5cc8f78a4367542cc51c2fc", "fusion_lon": 0.0, "lat": 38.895345666666664, "fusion_lat": 0.0}, {"is_disabled": 0, "rental_uris": {"android": "https://dc.lft.to/lastmile_qr_scan", "ios": "https://dc.lft.to/lastmile_qr_scan"}, "is_reserved": 0, "name": "cb750b735eacb49f1b761c48b6f94a75", "lon": -76.93357033333334, "type": "electric_scooter", "bike_id": "cb750b735eacb49f1b761c48b6f94a75", "fusion_lon": 0.0, "lat": 38.88797566666667, "fusion_lat": 0.0}, {"is_disabled": 0, "rental_uris": {"android": "https://dc.lft.to/lastmile_qr_scan", "ios": "https://dc.lft.to/lastmile_qr_scan"}, "is_reserved": 0, "name": "c417f0799ead9dadc155f235a36a4207", "lon": -77.0499375, "type": "electric_scooter", "bike_id": "c417f0799ead9dadc155f235a36a4207", "fusion_lon": 0.0, "lat": 38.901557333333336, "fusion_lat": 0.0}, {"is_disabled": 0, "rental_uris": {"android": "https://dc.lft.to/lastmile_qr_scan", "ios": "https://dc.lft.to/lastmile_qr_scan"}, "is_reserved": 0, "name": "9d2897ce5082efdbdf255fd6c799899b", "lon": -77.04056733333333, "type": "electric_scooter", "bike_id": "9d2897ce5082efdbdf255fd6c799899b", "fusion_lon": 0.0, "lat": 38.9086935, "fusion_lat": 0.0}, {"is_disabled": 0, "rental_uris": {"android": "https://dc.lft.to/lastmile_qr_scan", "ios": "https://dc.lft.to/lastmile_qr_scan"}, "is_reserved": 0, "name": "ff7757a30c0435a8f6e743dabc1170a9", "lon": -77.00533933333334, "type": "electric_scooter", "bike_id": "ff7757a30c0435a8f6e743dabc1170a9", "fusion_lon": 0.0, "lat": 38.87473266666667, "fusion_lat": 0.0}, {"is_disabled": 0, "rental_uris": {"android": "https://dc.lft.to/lastmile_qr_scan", "ios": "https://dc.lft.to/lastmile_qr_scan"}, "is_reserved": 0, "name": "c734a94b8b7ce2d9ed7b648de2224976", "lon": -77.02168333333333, "type": "electric_scooter", "bike_id": "c734a94b8b7ce2d9ed7b648de2224976", "fusion_lon": 0.0, "lat": 38.92610333333333, "fusion_lat": 0.0}, {"is_disabled": 0, "rental_uris": {"android": "https://dc.lft.to/lastmile_qr_scan", "ios": "https://dc.lft.to/lastmile_qr_scan"}, "is_reserved": 0, "name": "3acbb2c692c42c7437728956979c0719", "lon": -77.03847683333333, "type": "electric_scooter", "bike_id": "3acbb2c692c42c7437728956979c0719", "fusion_lon": 0.0, "lat": 38.902809833333336, "fusion_lat": 0.0}, {"is_disabled": 0, "rental_uris": {"android": "https://dc.lft.to/lastmile_qr_scan", "ios": "https://dc.lft.to/lastmile_qr_scan"}, "is_reserved": 0, "name": "a3ca1ffe03731ed4522b83413db20531", "lon": -77.02308616666667, "type": "electric_scooter", "bike_id": "a3ca1ffe03731ed4522b83413db20531", "fusion_lon": 0.0, "lat": 38.908887, "fusion_lat": 0.0}, {"is_disabled": 0, "rental_uris": {"android": "https://dc.lft.to/lastmile_qr_scan", "ios": "https://dc.lft.to/lastmile_qr_scan"}, "is_reserved": 0, "name": "6295228217db3d5e099f1979ac55ab98", "lon": -77.05789933333334, "type": "electric_scooter", "bike_id": "6295228217db3d5e099f1979ac55ab98", "fusion_lon": 0.0, "lat": 38.90509683333333, "fusion_lat": 0.0}, {"is_disabled": 0, "rental_uris": {"android": "https://dc.lft.to/lastmile_qr_scan", "ios": "https://dc.lft.to/lastmile_qr_scan"}, "is_reserved": 0, "name": "ca0fba7db693080e7bafa76f285a4e52", "lon": -77.042922, "type": "electric_scooter", "bike_id": "ca0fba7db693080e7bafa76f285a4e52", "fusion_lon": 0.0, "lat": 38.9134285, "fusion_lat": 0.0}, {"is_disabled": 0, "rental_uris": {"android": "https://dc.lft.to/lastmile_qr_scan", "ios": "https://dc.lft.to/lastmile_qr_scan"}, "is_reserved": 0, "name": "083b85a5ab4c780d93502b7a7ef75595", "lon": -77.04034733333333, "type": "electric_scooter", "bike_id": "083b85a5ab4c780d93502b7a7ef75595", "fusion_lon": 0.0, "lat": 38.90570533333333, "fusion_lat": 0.0}, {"is_disabled": 0, "rental_uris": {"android": "https://dc.lft.to/lastmile_qr_scan", "ios": "https://dc.lft.to/lastmile_qr_scan"}, "is_reserved": 0, "name": "61f83f722d3375e797d5fccf2a0b71ca", "lon": -77.04241483333334, "type": "electric_scooter", "bike_id": "61f83f722d3375e797d5fccf2a0b71ca", "fusion_lon": 0.0, "lat": 38.919278, "fusion_lat": 0.0}, {"is_disabled": 0, "rental_uris": {"android": "https://dc.lft.to/lastmile_qr_scan", "ios": "https://dc.lft.to/lastmile_qr_scan"}, "is_reserved": 0, "name": "16555beef29b908db4d87b5af4c6e6ed", "lon": -77.01441133333333, "type": "electric_scooter", "bike_id": "16555beef29b908db4d87b5af4c6e6ed", "fusion_lon": 0.0, "lat": 38.87980816666666, "fusion_lat": 0.0}, {"is_disabled": 0, "rental_uris": {"android": "https://dc.lft.to/lastmile_qr_scan", "ios": "https://dc.lft.to/lastmile_qr_scan"}, "is_reserved": 0, "name": "f4e9ab615874dc7830929cc2d6f831a9", "lon": -76.99646316666667, "type": "electric_scooter", "bike_id": "f4e9ab615874dc7830929cc2d6f831a9", "fusion_lon": 0.0, "lat": 38.88721283333334, "fusion_lat": 0.0}, {"is_disabled": 0, "rental_uris": {"android": "https://dc.lft.to/lastmile_qr_scan", "ios": "https://dc.lft.to/lastmile_qr_scan"}, "is_reserved": 0, "name": "bd555500c545e2763b4ae077ff790b9b", "lon": -77.01869766666667, "type": "electric_scooter", "bike_id": "bd555500c545e2763b4ae077ff790b9b", "fusion_lon": 0.0, "lat": 38.930597166666665, "fusion_lat": 0.0}, {"is_disabled": 0, "rental_uris": {"android": "https://dc.lft.to/lastmile_qr_scan", "ios": "https://dc.lft.to/lastmile_qr_scan"}, "is_reserved": 0, "name": "158a9349bf8e48e91e493827ae1ced53", "lon": -77.00796183333334, "type": "electric_scooter", "bike_id": "158a9349bf8e48e91e493827ae1ced53", "fusion_lon": 0.0, "lat": 38.89715433333333, "fusion_lat": 0.0}, {"is_disabled": 0, "rental_uris": {"android": "https://dc.lft.to/lastmile_qr_scan", "ios": "https://dc.lft.to/lastmile_qr_scan"}, "is_reserved": 0, "name": "3d8b3a3b4803f4ef966bc315a9806bd4", "lon": -77.03146533333333, "type": "electric_scooter", "bike_id": "3d8b3a3b4803f4ef966bc315a9806bd4", "fusion_lon": 0.0, "lat": 38.903688333333335, "fusion_lat": 0.0}, {"is_disabled": 0, "rental_uris": {"android": "https://dc.lft.to/lastmile_qr_scan", "ios": "https://dc.lft.to/lastmile_qr_scan"}, "is_reserved": 0, "name": "60f2b0defc8541827ecd32afea400201", "lon": -77.03284316666667, "type": "electric_scooter", "bike_id": "60f2b0defc8541827ecd32afea400201", "fusion_lon": 0.0, "lat": 38.90461233333333, "fusion_lat": 0.0}, {"is_disabled": 0, "rental_uris": {"android": "https://dc.lft.to/lastmile_qr_scan", "ios": "https://dc.lft.to/lastmile_qr_scan"}, "is_reserved": 0, "name": "5cfee1cdadaf4017db206f7cc9406fd8", "lon": -77.07289183333333, "type": "electric_scooter", "bike_id": "5cfee1cdadaf4017db206f7cc9406fd8", "fusion_lon": 0.0, "lat": 38.93195683333333, "fusion_lat": 0.0}, {"is_disabled": 0, "rental_uris": {"android": "https://dc.lft.to/lastmile_qr_scan", "ios": "https://dc.lft.to/lastmile_qr_scan"}, "is_reserved": 0, "name": "b33be29ebd3d6efa3e43abe3c13e02ab", "lon": -77.047506, "type": "electric_scooter", "bike_id": "b33be29ebd3d6efa3e43abe3c13e02ab", "fusion_lon": 0.0, "lat": 38.905217666666665, "fusion_lat": 0.0}, {"is_disabled": 0, "rental_uris": {"android": "https://dc.lft.to/lastmile_qr_scan", "ios": "https://dc.lft.to/lastmile_qr_scan"}, "is_reserved": 0, "name": "fe21ec23e4f50f4283d0126c81660980", "lon": -77.02405633333333, "type": "electric_scooter", "bike_id": "fe21ec23e4f50f4283d0126c81660980", "fusion_lon": 0.0, "lat": 38.91568133333333, "fusion_lat": 0.0}, {"is_disabled": 0, "rental_uris": {"android": "https://dc.lft.to/lastmile_qr_scan", "ios": "https://dc.lft.to/lastmile_qr_scan"}, "is_reserved": 0, "name": "c91d625fd7b8629652e39a75e3951acf", "lon": -77.051056, "type": "electric_scooter", "bike_id": "c91d625fd7b8629652e39a75e3951acf", "fusion_lon": 0.0, "lat": 38.923627833333335, "fusion_lat": 0.0}, {"is_disabled": 0, "rental_uris": {"android": "https://dc.lft.to/lastmile_qr_scan", "ios": "https://dc.lft.to/lastmile_qr_scan"}, "is_reserved": 0, "name": "1e49d0a4add81f5eea705ec023b1cdd8", "lon": -77.00294983333333, "type": "electric_scooter", "bike_id": "1e49d0a4add81f5eea705ec023b1cdd8", "fusion_lon": 0.0, "lat": 38.89196, "fusion_lat": 0.0}, {"is_disabled": 0, "rental_uris": {"android": "https://dc.lft.to/lastmile_qr_scan", "ios": "https://dc.lft.to/lastmile_qr_scan"}, "is_reserved": 0, "name": "efa3f45e0a294ffbf8f702f73fd7e19e", "lon": -77.01109966666667, "type": "electric_scooter", "bike_id": "efa3f45e0a294ffbf8f702f73fd7e19e", "fusion_lon": 0.0, "lat": 38.907829, "fusion_lat": 0.0}, {"is_disabled": 0, "rental_uris": {"android": "https://dc.lft.to/lastmile_qr_scan", "ios": "https://dc.lft.to/lastmile_qr_scan"}, "is_reserved": 0, "name": "5f58348f44eb159fc6ba75a80ad0763a", "lon": -77.02994166666667, "type": "electric_scooter", "bike_id": "5f58348f44eb159fc6ba75a80ad0763a", "fusion_lon": 0.0, "lat": 38.92471183333333, "fusion_lat": 0.0}, {"is_disabled": 0, "rental_uris": {"android": "https://dc.lft.to/lastmile_qr_scan", "ios": "https://dc.lft.to/lastmile_qr_scan"}, "is_reserved": 0, "name": "b387590f53f14704cc2656ce74592f2b", "lon": -77.02788983333333, "type": "electric_scooter", "bike_id": "b387590f53f14704cc2656ce74592f2b", "fusion_lon": 0.0, "lat": 38.89625733333333, "fusion_lat": 0.0}, {"is_disabled": 0, "rental_uris": {"android": "https://dc.lft.to/lastmile_qr_scan", "ios": "https://dc.lft.to/lastmile_qr_scan"}, "is_reserved": 0, "name": "e6732cc17f075f6e74268cc9ef8b5b51", "lon": -77.0028325, "type": "electric_scooter", "bike_id": "e6732cc17f075f6e74268cc9ef8b5b51", "fusion_lon": 0.0, "lat": 38.9055485, "fusion_lat": 0.0}, {"is_disabled": 0, "rental_uris": {"android": "https://dc.lft.to/lastmile_qr_scan", "ios": "https://dc.lft.to/lastmile_qr_scan"}, "is_reserved": 0, "name": "a90eb4f5f0c1d568e0d3ad256acafd17", "lon": -76.97320666666667, "type": "electric_scooter", "bike_id": "a90eb4f5f0c1d568e0d3ad256acafd17", "fusion_lon": 0.0, "lat": 38.919931166666665, "fusion_lat": 0.0}, {"is_disabled": 0, "rental_uris": {"android": "https://dc.lft.to/lastmile_qr_scan", "ios": "https://dc.lft.to/lastmile_qr_scan"}, "is_reserved": 0, "name": "7a943233753c1612b069370d87e5fb84", "lon": -77.05853866666666, "type": "electric_scooter", "bike_id": "7a943233753c1612b069370d87e5fb84", "fusion_lon": 0.0, "lat": 38.93696933333333, "fusion_lat": 0.0}, {"is_disabled": 0, "rental_uris": {"android": "https://dc.lft.to/lastmile_qr_scan", "ios": "https://dc.lft.to/lastmile_qr_scan"}, "is_reserved": 0, "name": "0b6138da54d743b75258fd9ec799faaa", "lon": -77.02986483333333, "type": "electric_scooter", "bike_id": "0b6138da54d743b75258fd9ec799faaa", "fusion_lon": 0.0, "lat": 38.924739833333334, "fusion_lat": 0.0}, {"is_disabled": 0, "rental_uris": {"android": "https://dc.lft.to/lastmile_qr_scan", "ios": "https://dc.lft.to/lastmile_qr_scan"},