{"data": {"bikes": [{"rental_uris": {"android": "https://dc.lft.to/lastmile_qr_scan", "ios": "https://dc.lft.to/lastmile_qr_scan"}, "lon": -77.02177316666666, "name": "12f78d6ab0f65f451b25d6a31f5e66a6", "lat": 38.8961495, "is_reserved": 0, "fusion_lat": 0.0, "bike_id": "12f78d6ab0f65f451b25d6a31f5e66a6", "type": "electric_scooter", "is_disabled": 0, "fusion_lon": 0.0}, {"rental_uris": {"android": "https://dc.lft.to/lastmile_qr_scan", "ios": "https://dc.lft.to/lastmile_qr_scan"}, "lon": -77.03407816666666, "name": "70b8617c6f41d950f560bb47c84f27c9", "lat": 38.90961466666667, "is_reserved": 0, "fusion_lat": 0.0, "bike_id": "70b8617c6f41d950f560bb47c84f27c9", "type": "electric_scooter", "is_disabled": 0, "fusion_lon": 0.0}, {"rental_uris": {"android": "https://dc.lft.to/lastmile_qr_scan", "ios": "https://dc.lft.to/lastmile_qr_scan"}, "lon": -77.04952583333333, "name": "dcd0ec5fee7df8f1dabad25b67341161", "lat": 38.90544333333333, "is_reserved": 0, "fusion_lat": 0.0, "bike_id": "dcd0ec5fee7df8f1dabad25b67341161", "type": "electric_scooter", "is_disabled": 0, "fusion_lon": 0.0}, {"rental_uris": {"android": "https://dc.lft.to/lastmile_qr_scan", "ios": "https://dc.lft.to/lastmile_qr_scan"}, "lon": -77.003696, "name": "190a05f00526f50047026564e21ae7a0", "lat": 38.876346833333336, "is_reserved": 0, "fusion_lat": 0.0, "bike_id": "190a05f00526f50047026564e21ae7a0", "type": "electric_scooter", "is_disabled": 0, "fusion_lon": 0.0}, {"rental_uris": {"android": "https://dc.lft.to/lastmile_qr_scan", "ios": "https://dc.lft.to/lastmile_qr_scan"}, "lon": -76.96708, "name": "89df7539657ecd70c4d83ca74b721df7", "lat": 38.860385666666666, "is_reserved": 0, "fusion_lat": 0.0, "bike_id": "89df7539657ecd70c4d83ca74b721df7", "type": "electric_scooter", "is_disabled": 0, "fusion_lon": 0.0}, {"rental_uris": {"android": "https://dc.lft.to/lastmile_qr_scan", "ios": "https://dc.lft.to/lastmile_qr_scan"}, "lon": -77.00708516666667, "name": "6dcd96da0f8538fed567a61e8ce782d3", "lat": 38.88487333333333, "is_reserved": 0, "fusion_lat": 0.0, "bike_id": "6dcd96da0f8538fed567a61e8ce782d3", "type": "electric_scooter", "is_disabled": 0, "fusion_lon": 0.0}, {"rental_uris": {"android": "https://dc.lft.to/lastmile_qr_scan", "ios": "https://dc.lft.to/lastmile_qr_scan"}, "lon": -77.09718516666666, "name": "aaa422454871c18322e5aa15e750ebb3", "lat": 38.95102833333333, "is_reserved": 0, "fusion_lat": 0.0, "bike_id": "aaa422454871c18322e5aa15e750ebb3", "type": "electric_scooter", "is_disabled": 0, "fusion_lon": 0.0}, {"rental_uris": {"android": "https://dc.lft.to/lastmile_qr_scan", "ios": "https://dc.lft.to/lastmile_qr_scan"}, "lon": -76.99704433333333, "name": "33e7388299a3f3f55e08a3a3da3281a4", "lat": 38.8850315, "is_reserved": 0, "fusion_lat": 0.0, "bike_id": "33e7388299a3f3f55e08a3a3da3281a4", "type": "electric_bike", "is_disabled": 0, "fusion_lon": 0.0}, {"rental_uris": {"android": "https://dc.lft.to/lastmile_qr_scan", "ios": "https://dc.lft.to/lastmile_qr_scan"}, "lon": -77.0297215, "name": "d525c146f306b62419a5eb2759565662", "lat": 38.9168625, "is_reserved": 0, "fusion_lat": 0.0, "bike_id": "d525c146f306b62419a5eb2759565662", "type": "electric_scooter", "is_disabled": 0, "fusion_lon": 0.0}, {"rental_uris": {"android": "https://dc.lft.to/lastmile_qr_scan", "ios": "https://dc.lft.to/lastmile_qr_scan"}, "lon": -77.05596366666667, "name": "43a877b9c1b7d9159664c48dc30c2438", "lat": 38.93701983333333, "is_reserved": 0, "fusion_lat": 0.0, "bike_id": "43a877b9c1b7d9159664c48dc30c2438", "type": "electric_scooter", "is_disabled": 0, "fusion_lon": 0.0}, {"rental_uris": {"android": "https://dc.lft.to/lastmile_qr_scan", "ios": "https://dc.lft.to/lastmile_qr_scan"}, "lon": -77.02370616666667, "name": "1ccd42f4cde8464c4726c874839360e1", "lat": 38.906877333333334, "is_reserved": 0, "fusion_lat": 0.0, "bike_id": "1ccd42f4cde8464c4726c874839360e1", "type": "electric_scooter", "is_disabled": 0, "fusion_lon": 0.0}, {"rental_uris": {"android": "https://dc.lft.to/lastmile_qr_scan", "ios": "https://dc.lft.to/lastmile_qr_scan"}, "lon": -77.00401016666666, "name": "cfe5610b88374da128d917e836c33ef6", "lat": 38.8769695, "is_reserved": 0, "fusion_lat": 0.0, "bike_id": "cfe5610b88374da128d917e836c33ef6", "type": "electric_scooter", "is_disabled": 0, "fusion_lon": 0.0}, {"rental_uris": {"android": "https://dc.lft.to/lastmile_qr_scan", "ios": "https://dc.lft.to/lastmile_qr_scan"}, "lon": -77.028122, "name": "52cd783842e48ef03734754db6366aa7", "lat": 38.90916516666667, "is_reserved": 0, "fusion_lat": 0.0, "bike_id": "52cd783842e48ef03734754db6366aa7", "type": "electric_scooter", "is_disabled": 0, "fusion_lon": 0.0}, {"rental_uris": {"android": "https://dc.lft.to/lastmile_qr_scan", "ios": "https://dc.lft.to/lastmile_qr_scan"}, "lon": -77.03258516666666, "name": "2b455fe2dad80986319222867d4630b3", "lat": 38.93211683333333, "is_reserved": 0, "fusion_lat": 0.0, "bike_id": "2b455fe2dad80986319222867d4630b3", "type": "electric_scooter", "is_disabled": 0, "fusion_lon": 0.0}, {"rental_uris": {"android": "https://dc.lft.to/lastmile_qr_scan", "ios": "https://dc.lft.to/lastmile_qr_scan"}, "lon": -77.02361116666667, "name": "8b872a7c1387eb7eb880f229f93e1907", "lat": 38.9020525, "is_reserved": 0, "fusion_lat": 0.0, "bike_id": "8b872a7c1387eb7eb880f229f93e1907", "type": "electric_scooter", "is_disabled": 0, "fusion_lon": 0.0}, {"rental_uris": {"android": "https://dc.lft.to/lastmile_qr_scan", "ios": "https://dc.lft.to/lastmile_qr_scan"}, "lon": -77.015651, "name": "ad3c9a28d79bca1e55b220f2494e8b45", "lat": 38.899958833333336, "is_reserved": 0, "fusion_lat": 0.0, "bike_id": "ad3c9a28d79bca1e55b220f2494e8b45", "type": "electric_scooter", "is_disabled": 0, "fusion_lon": 0.0}, {"rental_uris": {"android": "https://dc.lft.to/lastmile_qr_scan", "ios": "https://dc.lft.to/lastmile_qr_scan"}, "lon": -76.98192983333334, "name": "967c4dd3e28efdb4b49d9a22d370a5b1", "lat": 38.9850505, "is_reserved": 0, "fusion_lat": 0.0, "bike_id": "967c4dd3e28efdb4b49d9a22d370a5b1", "type": "electric_bike", "is_disabled": 0, "fusion_lon": 0.0}, {"rental_uris": {"android": "https://dc.lft.to/lastmile_qr_scan", "ios": "https://dc.lft.to/lastmile_qr_scan"}, "lon": -77.03189283333333, "name": "e289577de982c92943292f842ebbe030", "lat": 38.903752, "is_reserved": 0, "fusion_lat": 0.0, "bike_id": "e289577de982c92943292f842ebbe030", "type": "electric_scooter", "is_disabled": 0, "fusion_lon": 0.0}, {"rental_uris": {"android": "https://dc.lft.to/lastmile_qr_scan", "ios": "https://dc.lft.to/lastmile_qr_scan"}, "lon": -77.02302766666666, "name": "b21e45d3e4c5b38fdd4d52ca1830fe49", "lat": 38.918425666666664, "is_reserved": 0, "fusion_lat": 0.0, "bike_id": "b21e45d3e4c5b38fdd4d52ca1830fe49", "type": "electric_scooter", "is_disabled": 0, "fusion_lon": 0.0}, {"rental_uris": {"android": "https://dc.lft.to/lastmile_qr_scan", "ios": "https://dc.lft.to/lastmile_qr_scan"}, "lon": -77.03566733333334, "name": "e8645f9e5d272d28f796125935a30a48", "lat": 38.90134716666667, "is_reserved": 0, "fusion_lat": 0.0, "bike_id": "e8645f9e5d272d28f796125935a30a48", "type": "electric_scooter", "is_disabled": 0, "fusion_lon": 0.0}, {"rental_uris": {"android": "https://dc.lft.to/lastmile_qr_scan", "ios": "https://dc.lft.to/lastmile_qr_scan"}, "lon": -77.02185116666666, "name": "4eb847abba507f16766deea90b34d53b", "lat": 38.909657333333335, "is_reserved": 0, "fusion_lat": 0.0, "bike_id": "4eb847abba507f16766deea90b34d53b", "type": "electric_scooter", "is_disabled": 0, "fusion_lon": 0.0}, {"rental_uris": {"android": "https://dc.lft.to/lastmile_qr_scan", "ios": "https://dc.lft.to/lastmile_qr_scan"}, "lon": -77.08020466666666, "name": "f550609649c2b0bfe376c4a3da9143b4", "lat": 38.94787866666667, "is_reserved": 0, "fusion_lat": 0.0, "bike_id": "f550609649c2b0bfe376c4a3da9143b4", "type": "electric_scooter", "is_disabled": 0, "fusion_lon": 0.0}, {"rental_uris": {"android": "https://dc.lft.to/lastmile_qr_scan", "ios": "https://dc.lft.to/lastmile_qr_scan"}, "lon": -77.0473985, "name": "8f95697115d9808e6337445f2f2bff9e", "lat": 38.8973325, "is_reserved": 0, "fusion_lat": 0.0, "bike_id": "8f95697115d9808e6337445f2f2bff9e", "type": "electric_scooter", "is_disabled": 0, "fusion_lon": 0.0}, {"rental_uris": {"android": "https://dc.lft.to/lastmile_qr_scan", "ios": "https://dc.lft.to/lastmile_qr_scan"}, "lon": -77.0404295, "name": "6dd8026b04ef8997f31f6355bab6e2bf", "lat": 38.900301166666665, "is_reserved": 0, "fusion_lat": 0.0, "bike_id": "6dd8026b04ef8997f31f6355bab6e2bf", "type": "electric_scooter", "is_disabled": 0, "fusion_lon": 0.0}, {"rental_uris": {"android": "https://dc.lft.to/lastmile_qr_scan", "ios": "https://dc.lft.to/lastmile_qr_scan"}, "lon": -77.0388085, "name": "52eb2760ec21bcf93db21ad7ca88128c", "lat": 38.91844733333333, "is_reserved": 0, "fusion_lat": 0.0, "bike_id": "52eb2760ec21bcf93db21ad7ca88128c", "type": "electric_scooter", "is_disabled": 0, "fusion_lon": 0.0}, {"rental_uris": {"android": "https://dc.lft.to/lastmile_qr_scan", "ios": "https://dc.lft.to/lastmile_qr_scan"}, "lon": -77.02204916666666, "name": "4a739247a125b4b155d188fe707bc387", "lat": 38.89229616666667, "is_reserved": 0, "fusion_lat": 0.0, "bike_id": "4a739247a125b4b155d188fe707bc387", "type": "electric_scooter", "is_disabled": 0, "fusion_lon": 0.0}, {"rental_uris": {"android": "https://dc.lft.to/lastmile_qr_scan", "ios": "https://dc.lft.to/lastmile_qr_scan"}, "lon": -77.02403016666666, "name": "bcb1aa71743e5f6f7059dc9b2f1615bd", "lat": 38.94181316666667, "is_reserved": 0, "fusion_lat": 0.0, "bike_id": "bcb1aa71743e5f6f7059dc9b2f1615bd", "type": "electric_scooter", "is_disabled": 0, "fusion_lon": 0.0}, {"rental_uris": {"android": "https://dc.lft.to/lastmile_qr_scan", "ios": "https://dc.lft.to/lastmile_qr_scan"}, "lon": -77.02170766666667, "name": "29a0f8b4cb913587f4397557f0380077", "lat": 38.89710983333333, "is_reserved": 0, "fusion_lat": 0.0, "bike_id": "29a0f8b4cb913587f4397557f0380077", "type": "electric_scooter", "is_disabled": 0, "fusion_lon": 0.0}, {"rental_uris": {"android": "https://dc.lft.to/lastmile_qr_scan", "ios": "https://dc.lft.to/lastmile_qr_scan"}, "lon": -77.03892633333334, "name": "6ca3a080c07e5dfbc0704774e03f0695", "lat": 38.93270033333334, "is_reserved": 0, "fusion_lat": 0.0, "bike_id": "6ca3a080c07e5dfbc0704774e03f0695", "type": "electric_scooter", "is_disabled": 0, "fusion_lon": 0.0}, {"rental_uris": {"android": "https://dc.lft.to/lastmile_qr_scan", "ios": "https://dc.lft.to/lastmile_qr_scan"}, "lon": -77.07260816666667, "name": "d85474e144c93ac50b0086d9531bdd7e", "lat": 38.90898116666666, "is_reserved": 0, "fusion_lat": 0.0, "bike_id": "d85474e144c93ac50b0086d9531bdd7e", "type": "electric_scooter", "is_disabled": 0, "fusion_lon": 0.0}, {"rental_uris": {"android": "https://dc.lft.to/lastmile_qr_scan", "ios": "https://dc.lft.to/lastmile_qr_scan"}, "lon": -77.02191033333334, "name": "d61ad56847b515a22748f565559f6fac", "lat": 38.930688833333335, "is_reserved": 0, "fusion_lat": 0.0, "bike_id": "d61ad56847b515a22748f565559f6fac", "type": "electric_scooter", "is_disabled": 0, "fusion_lon": 0.0}, {"rental_uris": {"android": "https://dc.lft.to/lastmile_qr_scan", "ios": "https://dc.lft.to/lastmile_qr_scan"}, "lon": -77.01191966666667, "name": "1871e4743980a146a93ff8567e97e41a", "lat": 38.91566383333333, "is_reserved": 0, "fusion_lat": 0.0, "bike_id": "1871e4743980a146a93ff8567e97e41a", "type": "electric_scooter", "is_disabled": 0, "fusion_lon": 0.0}, {"rental_uris": {"android": "https://dc.lft.to/lastmile_qr_scan", "ios": "https://dc.lft.to/lastmile_qr_scan"}, "lon": -77.03845366666667, "name": "cdecd41f92639e0adb846edffe66b1b9", "lat": 38.90275166666667, "is_reserved": 0, "fusion_lat": 0.0, "bike_id": "cdecd41f92639e0adb846edffe66b1b9", "type": "electric_scooter", "is_disabled": 0, "fusion_lon": 0.0}, {"rental_uris": {"android": "https://dc.lft.to/lastmile_qr_scan", "ios": "https://dc.lft.to/lastmile_qr_scan"}, "lon": -76.9470165, "name": "49d9141b1170707402d8ed5929ac592e", "lat": 38.897294, "is_reserved": 0, "fusion_lat": 0.0, "bike_id": "49d9141b1170707402d8ed5929ac592e", "type": "electric_scooter", "is_disabled": 0, "fusion_lon": 0.0}, {"rental_uris": {"android": "https://dc.lft.to/lastmile_qr_scan", "ios": "https://dc.lft.to/lastmile_qr_scan"}, "lon": -77.11731366666666, "name": "ca0b7d26a0284143202fb95b3fa37f20", "lat": 39.05099533333333, "is_reserved": 0, "fusion_lat": 0.0, "bike_id": "ca0b7d26a0284143202fb95b3fa37f20", "type": "electric_bike", "is_disabled": 0, "fusion_lon": 0.0}, {"rental_uris": {"android": "https://dc.lft.to/lastmile_qr_scan", "ios": "https://dc.lft.to/lastmile_qr_scan"}, "lon": -77.04005066666667, "name": "f4e34ff60cfe1ea42db26eb70db1cf3d", "lat": 38.933543666666665, "is_reserved": 0, "fusion_lat": 0.0, "bike_id": "f4e34ff60cfe1ea42db26eb70db1cf3d", "type": "electric_bike", "is_disabled": 0, "fusion_lon": 0.0}, {"rental_uris": {"android": "https://dc.lft.to/lastmile_qr_scan", "ios": "https://dc.lft.to/lastmile_qr_scan"}, "lon": -77.03503433333333, "name": "09a157e5c08e444c76e21bf379a93fc7", "lat": 38.928701833333335, "is_reserved": 0, "fusion_lat": 0.0, "bike_id": "09a157e5c08e444c76e21bf379a93fc7", "type": "electric_scooter", "is_disabled": 0, "fusion_lon": 0.0}, {"rental_uris": {"android": "https://dc.lft.to/lastmile_qr_scan", "ios": "https://dc.lft.to/lastmile_qr_scan"}, "lon": -76.96054016666666, "name": "9a2aa8bcc9dbdb7d33e834ce67d4f6e5", "lat": 38.883964, "is_reserved": 0, "fusion_lat": 0.0, "bike_id": "9a2aa8bcc9dbdb7d33e834ce67d4f6e5", "type": "electric_bike", "is_disabled": 0, "fusion_lon": 0.0}, {"rental_uris": {"android": "https://dc.lft.to/lastmile_qr_scan", "ios": "https://dc.lft.to/lastmile_qr_scan"}, "lon": -77.0366405, "name": "5de0f5e7f58b656bff20312a96a78f10", "lat": 38.922427166666665, "is_reserved": 0, "fusion_lat": 0.0, "bike_id": "5de0f5e7f58b656bff20312a96a78f10", "type": "electric_scooter", "is_disabled": 0, "fusion_lon": 0.0}, {"rental_uris": {"android": "https://dc.lft.to/lastmile_qr_scan", "ios": "https://dc.lft.to/lastmile_qr_scan"}, "lon": -76.99231766666666, "name": "4896d0fbdead4dc89a829218a9a2dbdc", "lat": 38.9079895, "is_reserved": 0, "fusion_lat": 0.0, "bike_id": "4896d0fbdead4dc89a829218a9a2dbdc", "type": "electric_scooter", "is_disabled": 0, "fusion_lon": 0.0}, {"rental_uris": {"android": "https://dc.lft.to/lastmile_qr_scan", "ios": "https://dc.lft.to/lastmile_qr_scan"}, "lon": -77.0499375, "name": "03eb7704dbd857dc33580952f3b7c374", "lat": 38.901382166666664, "is_reserved": 0, "fusion_lat": 0.0, "bike_id": "03eb7704dbd857dc33580952f3b7c374", "type": "electric_scooter", "is_disabled": 0, "fusion_lon": 0.0}, {"rental_uris": {"android": "https://dc.lft.to/lastmile_qr_scan", "ios": "https://dc.lft.to/lastmile_qr_scan"}, "lon": -77.0074785, "name": "8858c6f23d5563d2717a9b711ef3389b", "lat": 38.8983005, "is_reserved": 0, "fusion_lat": 0.0, "bike_id": "8858c6f23d5563d2717a9b711ef3389b", "type": "electric_scooter", "is_disabled": 0, "fusion_lon": 0.0}, {"rental_uris": {"android": "https://dc.lft.to/lastmile_qr_scan", "ios": "https://dc.lft.to/lastmile_qr_scan"}, "lon": -76.99038883333333, "name": "61b48cb6301077ef317b347a012afe8f", "lat": 38.86391116666667, "is_reserved": 0, "fusion_lat": 0.0, "bike_id": "61b48cb6301077ef317b347a012afe8f", "type": "electric_scooter", "is_disabled": 0, "fusion_lon": 0.0}, {"rental_uris": {"android": "https://dc.lft.to/lastmile_qr_scan", "ios": "https://dc.lft.to/lastmile_qr_scan"}, "lon": -77.02189016666667, "name": "3551aa29b46f86f8d32c31c556b5b200", "lat": 38.899030833333335, "is_reserved": 0, "fusion_lat": 0.0, "bike_id": "3551aa29b46f86f8d32c31c556b5b200", "type": "electric_scooter", "is_disabled": 0, "fusion_lon": 0.0}, {"rental_uris": {"android": "https://dc.lft.to/lastmile_qr_scan", "ios": "https://dc.lft.to/lastmile_qr_scan"}, "lon": -77.03837883333334, "name": "db380a5cb22af42063e8e565097b5a5b", "lat": 38.90860766666667, "is_reserved": 0, "fusion_lat": 0.0, "bike_id": "db380a5cb22af42063e8e565097b5a5b", "type": "electric_scooter", "is_disabled": 0, "fusion_lon": 0.0}, {"rental_uris": {"android": "https://dc.lft.to/lastmile_qr_scan", "ios": "https://dc.lft.to/lastmile_qr_scan"}, "lon": -77.04196333333333, "name": "81889e7eee3f68652cbd226811e0e620", "lat": 38.919604, "is_reserved": 0, "fusion_lat": 0.0, "bike_id": "81889e7eee3f68652cbd226811e0e620", "type": "electric_scooter", "is_disabled": 0, "fusion_lon": 0.0}, {"rental_uris": {"android": "https://dc.lft.to/lastmile_qr_scan", "ios": "https://dc.lft.to/lastmile_qr_scan"}, "lon": -76.98198266666667, "name": "170b83746ec74ef92ab836c5e9969cbe", "lat": 38.865962833333334, "is_reserved": 0, "fusion_lat": 0.0, "bike_id": "170b83746ec74ef92ab836c5e9969cbe", "type": "electric_scooter", "is_disabled": 0, "fusion_lon": 0.0}, {"rental_uris": {"android": "https://dc.lft.to/lastmile_qr_scan", "ios": "https://dc.lft.to/lastmile_qr_scan"}, "lon": -77.03340566666667, "name": "3bc27274136bca37e6dd9e59fa3cba23", "lat": 38.9155565, "is_reserved": 0, "fusion_lat": 0.0, "bike_id": "3bc27274136bca37e6dd9e59fa3cba23", "type": "electric_scooter", "is_disabled": 0, "fusion_lon": 0.0}, {"rental_uris": {"android": "https://dc.lft.to/lastmile_qr_scan", "ios": "https://dc.lft.to/lastmile_qr_scan"}, "lon": -77.04340483333333, "name": "d6be1d92cbd10fdb7755997585f47497", "lat": 38.897287666666664, "is_reserved": 0, "fusion_lat": 0.0, "bike_id": "d6be1d92cbd10fdb7755997585f47497", "type": "electric_scooter", "is_disabled": 0, "fusion_lon": 0.0}, {"rental_uris": {"android": "https://dc.lft.to/lastmile_qr_scan", "ios": "https://dc.lft.to/lastmile_qr_scan"}, "lon": -77.01893433333333, "name": "2f21aafc473b96bd286a9ef961e0602e", "lat": 38.90500183333333, "is_reserved": 0, "fusion_lat": 0.0, "bike_id": "2f21aafc473b96bd286a9ef961e0602e", "type": "electric_bike", "is_disabled": 0, "fusion_lon": 0.0}, {"rental_uris": {"android": "https://dc.lft.to/lastmile_qr_scan", "ios": "https://dc.lft.to/lastmile_qr_scan"}, "lon": -77.01355783333334, "name": "96c0883dfd9e18f0d2374dc12e432d45", "lat": 38.916253166666664, "is_reserved": 0, "fusion_lat": 0.0, "bike_id": "96c0883dfd9e18f0d2374dc12e432d45", "type": "electric_scooter", "is_disabled": 0, "fusion_lon": 0.0}, {"rental_uris": {"android": "https://dc.lft.to/lastmile_qr_scan", "ios": "https://dc.lft.to/lastmile_qr_scan"}, "lon": -77.04018, "name": "c787ad44b18b25141345eeb00bcf6a13", "lat": 38.923861333333335, "is_reserved": 0, "fusion_lat": 0.0, "bike_id": "c787ad44b18b25141345eeb00bcf6a13", "type": "electric_bike", "is_disabled": 0, "fusion_lon": 0.0}, {"rental_uris": {"android": "https://dc.lft.to/lastmile_qr_scan", "ios": "https://dc.lft.to/lastmile_qr_scan"}, "lon": -77.07370783333333, "name": "e24505fbf2cea70f9ee31103f171b2ac", "lat": 38.9618815, "is_reserved": 0, "fusion_lat": 0.0, "bike_id": "e24505fbf2cea70f9ee31103f171b2ac", "type": "electric_bike", "is_disabled": 0, "fusion_lon": 0.0}, {"rental_uris": {"android": "https://dc.lft.to/lastmile_qr_scan", "ios": "https://dc.lft.to/lastmile_qr_scan"}, "lon": -77.045135, "name": "af18db3a741706c8e206966fc451411d", "lat": 38.8922135, "is_reserved": 0, "fusion_lat": 0.0, "bike_id": "af18db3a741706c8e206966fc451411d", "type": "electric_scooter", "is_disabled": 0, "fusion_lon": 0.0}, {"rental_uris": {"android": "https://dc.lft.to/lastmile_qr_scan", "ios": "https://dc.lft.to/lastmile_qr_scan"}, "lon": -77.04351616666666, "name": "3a929edaab9bd3e79b49a67db267023d", "lat": 38.904180333333336, "is_reserved": 0, "fusion_lat": 0.0, "bike_id": "3a929edaab9bd3e79b49a67db267023d", "type": "electric_scooter", "is_disabled": 0, "fusion_lon": 0.0}, {"rental_uris": {"android": "https://dc.lft.to/lastmile_qr_scan", "ios": "https://dc.lft.to/lastmile_qr_scan"}, "lon": -76.99980883333333, "name": "4a75d7928aebe4949d0d1132f4226671", "lat": 38.8750675, "is_reserved": 0, "fusion_lat": 0.0, "bike_id": "4a75d7928aebe4949d0d1132f4226671", "type": "electric_scooter", "is_disabled": 0, "fusion_lon": 0.0}, {"rental_uris": {"android": "https://dc.lft.to/lastmile_qr_scan", "ios": "https://dc.lft.to/lastmile_qr_scan"}, "lon": -77.03265816666666, "name": "ecb27af5d42b2e45e6d45bcae44d865e", "lat": 38.93979783333333, "is_reserved": 0, "fusion_lat": 0.0, "bike_id": "ecb27af5d42b2e45e6d45bcae44d865e", "type": "electric_scooter", "is_disabled": 0, "fusion_lon": 0.0}, {"rental_uris": {"android": "https://dc.lft.to/lastmile_qr_scan", "ios": "https://dc.lft.to/lastmile_qr_scan"}, "lon": -77.02708583333333, "name": "c505202454eca750e6395e06ea78d621", "lat": 38.928817333333335, "is_reserved": 0, "fusion_lat": 0.0, "bike_id": "c505202454eca750e6395e06ea78d621", "type": "electric_scooter", "is_disabled": 0, "fusion_lon": 0.0}, {"rental_uris": {"android": "https://dc.lft.to/lastmile_qr_scan", "ios": "https://dc.lft.to/lastmile_qr_scan"}, "lon": -77.02607933333333, "name": "c2de725af8afcad016faee17ec1a7c1c", "lat": 38.9285365, "is_reserved": 0, "fusion_lat": 0.0, "bike_id": "c2de725af8afcad016faee17ec1a7c1c", "type": "electric_bike", "is_disabled": 0, "fusion_lon": 0.0}, {"rental_uris": {"android": "https://dc.lft.to/lastmile_qr_scan", "ios": "https://dc.lft.to/lastmile_qr_scan"}, "lon": -77.166043, "name": "78be63d15d1bf15264098b65e8d457a8", "lat": 39.119743, "is_reserved": 0, "fusion_lat": 0.0, "bike_id": "78be63d15d1bf15264098b65e8d457a8", "type": "electric_bike", "is_disabled": 0, "fusion_lon": 0.0}, {"rental_uris": {"android": "https://dc.lft.to/lastmile_qr_scan", "ios": "https://dc.lft.to/lastmile_qr_scan"}, "lon": -77.0372625, "name": "b9277bb118cc4b8fe57a4ab4e04b9fd5", "lat": 38.90238733333333, "is_reserved": 0, "fusion_lat": 0.0, "bike_id": "b9277bb118cc4b8fe57a4ab4e04b9fd5", "type": "electric_scooter", "is_disabled": 0, "fusion_lon": 0.0}, {"rental_uris": {"android": "https://dc.lft.to/lastmile_qr_scan", "ios": "https://dc.lft.to/lastmile_qr_scan"}, "lon": -76.983337, "name": "44536dd86b69cb0b4dbfa9303396d928", "lat": 38.86566666666667, "is_reserved": 0, "fusion_lat": 0.0, "bike_id": "44536dd86b69cb0b4dbfa9303396d928", "type": "electric_scooter", "is_disabled": 0, "fusion_lon": 0.0}, {"rental_uris": {"android": "https://dc.lft.to/lastmile_qr_scan", "ios": "https://dc.lft.to/lastmile_qr_scan"}, "lon": -77.052012, "name": "94716291848125f250756c269890bcfa", "lat": 38.9246115, "is_reserved": 0, "fusion_lat": 0.0, "bike_id": "94716291848125f250756c269890bcfa", "type": "electric_scooter", "is_disabled": 0, "fusion_lon": 0.0}, {"rental_uris": {"android": "https://dc.lft.to/lastmile_qr_scan", "ios": "https://dc.lft.to/lastmile_qr_scan"}, "lon": -77.02815566666666, "name": "dd8f261caad0041743c30654a2c57919", "lat": 38.92579, "is_reserved": 0, "fusion_lat": 0.0, "bike_id": "dd8f261caad0041743c30654a2c57919", "type": "electric_scooter", "is_disabled": 0, "fusion_lon": 0.0}, {"rental_uris": {"android": "https://dc.lft.to/lastmile_qr_scan", "ios": "https://dc.lft.to/lastmile_qr_scan"}, "lon": -77.02717, "name": "18e939c3280f8d357132ff923235874a", "lat": 38.881295, "is_reserved": 0, "fusion_lat": 0.0, "bike_id": "18e939c3280f8d357132ff923235874a", "type": "electric_scooter", "is_disabled": 0, "fusion_lon": 0.0}, {"rental_uris": {"android": "https://dc.lft.to/lastmile_qr_scan", "ios": "https://dc.lft.to/lastmile_qr_scan"}, "lon": -77.038201, "name": "d4a636a0151af811b3f510c4e7cdf244", "lat": 38.9084795, "is_reserved": 0, "fusion_lat": 0.0, "bike_id": "d4a636a0151af811b3f510c4e7cdf244", "type": "electric_scooter", "is_disabled": 0, "fusion_lon": 0.0}, {"rental_uris": {"android": "https://dc.lft.to/lastmile_qr_scan", "ios": "https://dc.lft.to/lastmile_qr_scan"}, "lon": -77.0241365, "name": "9376631de4dbd7a0c76b2810815a95c9", "lat": 38.91177366666667, "is_reserved": 0, "fusion_lat": 0.0, "bike_id": "9376631de4dbd7a0c76b2810815a95c9", "type": "electric_scooter", "is_disabled": 0, "fusion_lon": 0.0}, {"rental_uris": {"android": "https://dc.lft.to/lastmile_qr_scan", "ios": "https://dc.lft.to/lastmile_qr_scan"}, "lon": -77.01376833333333, "name": "e6389380b22e2d6dae56d383280a3dfb", "lat": 38.95231716666667, "is_reserved": 0, "fusion_lat": 0.0, "bike_id": "e6389380b22e2d6dae56d383280a3dfb", "type": "electric_scooter", "is_disabled": 0, "fusion_lon": 0.0}, {"rental_uris": {"android": "https://dc.lft.to/lastmile_qr_scan", "ios": "https://dc.lft.to/lastmile_qr_scan"}, "lon": -77.00710516666666, "name": "e444618310c9cd8b681971648f8613ce", "lat": 38.88488866666667, "is_reserved": 0, "fusion_lat": 0.0, "bike_id": "e444618310c9cd8b681971648f8613ce", "type": "electric_scooter", "is_disabled": 0, "fusion_lon": 0.0}, {"rental_uris": {"android": "https://dc.lft.to/lastmile_qr_scan", "ios": "https://dc.lft.to/lastmile_qr_scan"}, "lon": -76.98276666666666, "name": "adec5db8299a998377e3293ec94ba750", "lat": 38.86762216666666, "is_reserved": 0, "fusion_lat": 0.0, "bike_id": "adec5db8299a998377e3293ec94ba750", "type": "electric_scooter", "is_disabled": 0, "fusion_lon": 0.0}, {"rental_uris": {"android": "https://dc.lft.to/lastmile_qr_scan", "ios": "https://dc.lft.to/lastmile_qr_scan"}, "lon": -77.01221466666667, "name": "95f9a13833f7b05b669f041ab4359fc7", "lat": 38.9260015, "is_reserved": 0, "fusion_lat": 0.0, "bike_id": "95f9a13833f7b05b669f041ab4359fc7", "type": "electric_scooter", "is_disabled": 0, "fusion_lon": 0.0}, {"rental_uris": {"android": "https://dc.lft.to/lastmile_qr_scan", "ios": "https://dc.lft.to/lastmile_qr_scan"}, "lon": -77.06001483333333, "name": "f640f474e24a97487cd50d54ffa01399", "lat": 38.936414666666664, "is_reserved": 0, "fusion_lat": 0.0, "bike_id": "f640f474e24a97487cd50d54ffa01399", "type": "electric_scooter", "is_disabled": 0, "fusion_lon": 0.0}, {"rental_uris": {"android": "https://dc.lft.to/lastmile_qr_scan", "ios": "https://dc.lft.to/lastmile_qr_scan"}, "lon": -77.0182405, "name": "aa3c7235922115dcc78bb6e109fbaeb2", "lat": 38.92240266666667, "is_reserved": 0, "fusion_lat": 0.0, "bike_id": "aa3c7235922115dcc78bb6e109fbaeb2", "type": "electric_scooter", "is_disabled": 0, "fusion_lon": 0.0}, {"rental_uris": {"android": "https://dc.lft.to/lastmile_qr_scan", "ios": "https://dc.lft.to/lastmile_qr_scan"}, "lon": -76.98360866666667, "name": "7fc2591207a503d7a902ee9449a16077", "lat": 38.88288583333333, "is_reserved": 0, "fusion_lat": 0.0, "bike_id": "7fc2591207a503d7a902ee9449a16077", "type": "electric_scooter", "is_disabled": 0, "fusion_lon": 0.0}, {"rental_uris": {"android": "https://dc.lft.to/lastmile_qr_scan", "ios": "https://dc.lft.to/lastmile_qr_scan"}, "lon": -77.013489, "name": "540c176a56950db8c928b8f534d961aa", "lat": 38.91849116666667, "is_reserved": 0, "fusion_lat": 0.0, "bike_id": "540c176a56950db8c928b8f534d961aa", "type": "electric_scooter", "is_disabled": 0, "fusion_lon": 0.0}, {"rental_uris": {"android": "https://dc.lft.to/lastmile_qr_scan", "ios": "https://dc.lft.to/lastmile_qr_scan"}, "lon": -77.0140885, "name": "b0dcccc8500159af3211cbabd74d5a15", "lat": 38.8960315, "is_reserved": 0, "fusion_lat": 0.0, "bike_id": "b0dcccc8500159af3211cbabd74d5a15", "type": "electric_scooter", "is_disabled": 0, "fusion_lon": 0.0}, {"rental_uris": {"android": "https://dc.lft.to/lastmile_qr_scan", "ios": "https://dc.lft.to/lastmile_qr_scan"}, "lon": -77.0155495, "name": "0f2dc26e5fec07f7b46d5f3385cb09f7", "lat": 38.9267725, "is_reserved": 0, "fusion_lat": 0.0, "bike_id": "0f2dc26e5fec07f7b46d5f3385cb09f7", "type": "electric_scooter", "is_disabled": 0, "fusion_lon": 0.0}, {"rental_uris": {"android": "https://dc.lft.to/lastmile_qr_scan", "ios": "https://dc.lft.to/lastmile_qr_scan"}, "lon": -77.02697283333333, "name": "d25b9d09677127a35f0e9f6ce4304c7b", "lat": 38.926329333333335, "is_reserved": 0, "fusion_lat": 0.0, "bike_id": "d25b9d09677127a35f0e9f6ce4304c7b", "type": "electric_scooter", "is_disabled": 0, "fusion_lon": 0.0}, {"rental_uris": {"android": "https://dc.lft.to/lastmile_qr_scan", "ios": "https://dc.lft.to/lastmile_qr_scan"}, "lon": -77.03251966666667, "name": "62ee41555ce03f659f5805971a6e209d", "lat": 38.911036833333334, "is_reserved": 0, "fusion_lat": 0.0, "bike_id": "62ee41555ce03f659f5805971a6e209d", "type": "electric_scooter", "is_disabled": 0, "fusion_lon": 0.0}, {"rental_uris": {"android": "https://dc.lft.to/lastmile_qr_scan", "ios": "https://dc.lft.to/lastmile_qr_scan"}, "lon": -77.00031883333334, "name": "0e64416189c54223db7a10989590da9c", "lat": 38.874346, "is_reserved": 0, "fusion_lat": 0.0, "bike_id": "0e64416189c54223db7a10989590da9c", "type": "electric_scooter", "is_disabled": 0, "fusion_lon": 0.0}, {"rental_uris": {"android": "https://dc.lft.to/lastmile_qr_scan", "ios": "https://dc.lft.to/lastmile_qr_scan"}, "lon": -76.9655185, "name": "3a3d47263e6aebaa14474c6890cd3af5", "lat": 38.9184245, "is_reserved": 0, "fusion_lat": 0.0, "bike_id": "3a3d47263e6aebaa14474c6890cd3af5", "type": "electric_scooter", "is_disabled": 0, "fusion_lon": 0.0}, {"rental_uris": {"android": "https://dc.lft.to/lastmile_qr_scan", "ios": "https://dc.lft.to/lastmile_qr_scan"}, "lon": -77.01290416666667, "name": "43307fa23693eb809ea5d4eeeb94d3a8", "lat": 39.00389083333334, "is_reserved": 0, "fusion_lat": 0.0, "bike_id": "43307fa23693eb809ea5d4eeeb94d3a8", "type": "electric_bike", "is_disabled": 0, "fusion_lon": 0.0}, {"rental_uris": {"android": "https://dc.lft.to/lastmile_qr_scan", "ios": "https://dc.lft.to/lastmile_qr_scan"}, "lon": -77.021908, "name": "0a517f6484901a61895c884689f35db3", "lat": 38.9145015, "is_reserved": 0, "fusion_lat": 0.0, "bike_id": "0a517f6484901a61895c884689f35db3", "type": "electric_scooter", "is_disabled": 0, "fusion_lon": 0.0}, {"rental_uris": {"android": "https://dc.lft.to/lastmile_qr_scan", "ios": "https://dc.lft.to/lastmile_qr_scan"}, "lon": -77.00887516666667, "name": "ef4b9f960b33670106d7a4d44669affd", "lat": 38.88497666666667, "is_reserved": 0, "fusion_lat": 0.0, "bike_id": "ef4b9f960b33670106d7a4d44669affd", "type": "electric_scooter", "is_disabled": 0, "fusion_lon": 0.0}, {"rental_uris": {"android": "https://dc.lft.to/lastmile_qr_scan", "ios": "https://dc.lft.to/lastmile_qr_scan"}, "lon": -77.0246455, "name": "2ffd74df8303690a8d82530b04fa910a", "lat": 38.9084935, "is_reserved": 0, "fusion_lat": 0.0, "bike_id": "2ffd74df8303690a8d82530b04fa910a", "type": "electric_scooter", "is_disabled": 0, "fusion_lon": 0.0}, {"rental_uris": {"android": "https://dc.lft.to/lastmile_qr_scan", "ios": "https://dc.lft.to/lastmile_qr_scan"}, "lon": -77.00800133333334, "name": "e4cb860c825098b57c8701cd95463a20", "lat": 38.912712, "is_reserved": 0, "fusion_lat": 0.0, "bike_id": "e4cb860c825098b57c8701cd95463a20", "type": "electric_scooter", "is_disabled": 0, "fusion_lon": 0.0}, {"rental_uris": {"android": "https://dc.lft.to/lastmile_qr_scan", "ios": "https://dc.lft.to/lastmile_qr_scan"}, "lon": -77.03705933333333, "name": "afbf103701f336af0f8118a258b6f89b", "lat": 38.93567433333333, "is_reserved": 0, "fusion_lat": 0.0, "bike_id": "afbf103701f336af0f8118a258b6f89b", "type": "electric_bike", "is_disabled": 0, "fusion_lon": 0.0}, {"rental_uris": {"android": "https://dc.lft.to/lastmile_qr_scan", "ios": "https://dc.lft.to/lastmile_qr_scan"}, "lon": -76.9257825, "name": "f04ccd0aabac7d68f96c8981c46eabee", "lat": 38.893579833333334, "is_reserved": 0, "fusion_lat": 0.0, "bike_id": "f04ccd0aabac7d68f96c8981c46eabee", "type": "electric_scooter", "is_disabled": 0, "fusion_lon": 0.0}, {"rental_uris": {"android": "https://dc.lft.to/lastmile_qr_scan", "ios": "https://dc.lft.to/lastmile_qr_scan"}, "lon": -76.98559783333333, "name": "eb773b14aa4832dfc7ca19146ba86a11", "lat": 38.88659216666667, "is_reserved": 0, "fusion_lat": 0.0, "bike_id": "eb773b14aa4832dfc7ca19146ba86a11", "type": "electric_scooter", "is_disabled": 0, "fusion_lon": 0.0}, {"rental_uris": {"android": "https://dc.lft.to/lastmile_qr_scan", "ios": "https://dc.lft.to/lastmile_qr_scan"}, "lon": -77.12930633333333, "name": "37a8a2ecfb96be92c34126c586fc25a3", "lat": 38.86512783333333, "is_reserved": 0, "fusion_lat": 0.0, "bike_id": "37a8a2ecfb96be92c34126c586fc25a3", "type": "electric_bike", "is_disabled": 0, "fusion_lon": 0.0}, {"rental_uris": {"android": "https://dc.lft.to/lastmile_qr_scan", "ios": "https://dc.lft.to/lastmile_qr_scan"}, "lon": -77.02794316666666, "name": "401805352b9d20ea080e46b744d98fd1", "lat": 38.96047983333333, "is_reserved": 0, "fusion_lat": 0.0, "bike_id": "401805352b9d20ea080e46b744d98fd1", "type": "electric_scooter", "is_disabled": 0, "fusion_lon": 0.0}, {"rental_uris": {"android": "https://dc.lft.to/lastmile_qr_scan", "ios": "https://dc.lft.to/lastmile_qr_scan"}, "lon": -77.00174966666667, "name": "f41095962881178fa905169dde4cf458", "lat": 38.907316, "is_reserved": 0, "fusion_lat": 0.0, "bike_id": "f41095962881178fa905169dde4cf458", "type": "electric_scooter", "is_disabled": 0, "fusion_lon": 0.0}, {"rental_uris": {"android": "https://dc.lft.to/lastmile_qr_scan", "ios": "https://dc.lft.to/lastmile_qr_scan"}, "lon": -77.03712833333333, "name": "7fd32ea0b32f23a205df056df36a913b", "lat": 38.92634266666666, "is_reserved": 0, "fusion_lat": 0.0, "bike_id": "7fd32ea0b32f23a205df056df36a913b", "type": "electric_scooter", "is_disabled": 0, "fusion_lon": 0.0}, {"rental_uris": {"android": "https://dc.lft.to/lastmile_qr_scan", "ios": "https://dc.lft.to/lastmile_qr_scan"}, "lon": -77.03065283333333, "name": "d58093022bbe6d32af2530b7979e47ed", "lat": 38.924832333333335, "is_reserved": 0, "fusion_lat": 0.0, "bike_id": "d58093022bbe6d32af2530b7979e47ed", "type": "electric_scooter", "is_disabled": 0, "fusion_lon": 0.0}, {"rental_uris": {"android": "https://dc.lft.to/lastmile_qr_scan", "ios": "https://dc.lft.to/lastmile_qr_scan"}, "lon": -77.0635325, "name": "37c09c429f8f263a962f6d368b00a28f", "lat": 38.944521, "is_reserved": 0, "fusion_lat": 0.0, "bike_id": "37c09c429f8f263a962f6d368b00a28f", "type": "electric_scooter", "is_disabled": 0, "fusion_lon": 0.0}, {"rental_uris": {"android": "https://dc.lft.to/lastmile_qr_scan", "ios": "https://dc.lft.to/lastmile_qr_scan"}, "lon": -77.04834216666667, "name": "63358d01e73dd3d206e74ad0b94d6dce", "lat": 38.9148865, "is_reserved": 0, "fusion_lat": 0.0, "bike_id": "63358d01e73dd3d206e74ad0b94d6dce", "type": "electric_scooter", "is_disabled": 0, "fusion_lon": 0.0}, {"rental_uris": {"android": "https://dc.lft.to/lastmile_qr_scan", "ios": "https://dc.lft.to/lastmile_qr_scan"}, "lon": -77.04837766666667, "name": "959f457ae859a744539cf272b0e93cdc", "lat": 38.912591166666665, "is_reserved": 0, "fusion_lat": 0.0, "bike_id": "959f457ae859a744539cf272b0e93cdc", "type": "electric_scooter", "is_disabled": 0, "fusion_lon": 0.0}, {"rental_uris": {"android": "https://dc.lft.to/lastmile_qr_scan", "ios": "https://dc.lft.to/lastmile_qr_scan"}, "lon": -77.06605, "name": "5d0cc09e9bae6f30da5e39fac8bafbc9", "lat": 38.905217666666665, "is_reserved": 0, "fusion_lat": 0.0, "bike_id": "5d0cc09e9bae6f30da5e39fac8bafbc9", "type": "electric_scooter", "is_disabled": 0, "fusion_lon": 0.0}, {"rental_uris": {"android": "https://dc.lft.to/lastmile_qr_scan", "ios": "https://dc.lft.to/lastmile_qr_scan"}, "lon": -77.05117783333333, "name": "9f98cec3c59ae718b36b527c6d5694c0", "lat": 38.924964333333335, "is_reserved": 0, "fusion_lat": 0.0, "bike_id": "9f98cec3c59ae718b36b527c6d5694c0", "type": "electric_scooter", "is_disabled": 0, "fusion_lon": 0.0}, {"rental_uris": {"android": "https://dc.lft.to/lastmile_qr_scan", "ios": "https://dc.lft.to/lastmile_qr_scan"}, "lon": -77.0118005, "name": "cf8283e99540a9c46d1e3dcdd40dc99c", "lat": 38.915782, "is_reserved": 0, "fusion_lat": 0.0, "bike_id": "cf8283e99540a9c46d1e3dcdd40dc99c", "type": "electric_scooter", "is_disabled": 0, "fusion_lon": 0.0}, {"rental_uris": {"android": "https://dc.lft.to/lastmile_qr_scan", "ios": "https://dc.lft.to/lastmile_qr_scan"}, "lon": -77.0326485, "name": "425bcdf89b15ca58aadfeddddd244c02", "lat": 38.9325685, "is_reserved": 0, "fusion_lat": 0.0, "bike_id": "425bcdf89b15ca58aadfeddddd244c02", "type": "electric_scooter", "is_disabled": 0, "fusion_lon": 0.0}, {"rental_uris": {"android": "https://dc.lft.to/lastmile_qr_scan", "ios": "https://dc.lft.to/lastmile_qr_scan"}, "lon": -76.98844283333334, "name": "25e483700721fa6e7a1733cc5bf33b17", "lat": 38.892588833333335, "is_reserved": 0, "fusion_lat": 0.0, "bike_id": "25e483700721fa6e7a1733cc5bf33b17", "type": "electric_scooter", "is_disabled": 0, "fusion_lon": 0.0}, {"rental_uris": {"android": "https://dc.lft.to/lastmile_qr_scan", "ios": "https://dc.lft.to/lastmile_qr_scan"}, "lon": -76.99950749999999, "name": "c515b95ed1c4af8c3a2f1ca2a280cb7a", "lat": 38.87411066666667, "is_reserved": 0, "fusion_lat": 0.0, "bike_id": "c515b95ed1c4af8c3a2f1ca2a280cb7a", "type": "electric_scooter", "is_disabled": 0, "fusion_lon": 0.0}, {"rental_uris": {"android": "https://dc.lft.to/lastmile_qr_scan", "ios": "https://dc.lft.to/lastmile_qr_scan"}, "lon": -77.00753983333334, "name": "6224082e6bfd70214f95f67f096958d1", "lat": 38.907298, "is_reserved": 0, "fusion_lat": 0.0, "bike_id": "6224082e6bfd70214f95f67f096958d1", "type": "electric_scooter", "is_disabled": 0, "fusion_lon": 0.0}, {"rental_uris": {"android": "https://dc.lft.to/lastmile_qr_scan", "ios": "https://dc.lft.to/lastmile_qr_scan"}, "lon": -77.00131883333333, "name": "e3c6896d19ba70fd6005c17efd789427", "lat": 38.878852, "is_reserved": 0, "fusion_lat": 0.0, "bike_id": "e3c6896d19ba70fd6005c17efd789427", "type": "electric_scooter", "is_disabled": 0, "fusion_lon": 0.0}, {"rental_uris": {"android": "https://dc.lft.to/lastmile_qr_scan", "ios": "https://dc.lft.to/lastmile_qr_scan"}, "lon": -77.02081116666666, "name": "587da201c7fcdc5a548f5bc58db911a9", "lat": 38.91000716666667, "is_reserved": 0, "fusion_lat": 0.0, "bike_id": "587da201c7fcdc5a548f5bc58db911a9", "type": "electric_scooter", "is_disabled": 0, "fusion_lon": 0.0}, {"rental_uris": {"android": "https://dc.lft.to/lastmile_qr_scan", "ios": "https://dc.lft.to/lastmile_qr_scan"}, "lon": -77.03232516666667, "name": "07ab9eddffc328bc7ceb574a189c8785", "lat": 38.9227925, "is_reserved": 0, "fusion_lat": 0.0, "bike_id": "07ab9eddffc328bc7ceb574a189c8785", "type": "electric_scooter", "is_disabled": 0, "fusion_lon": 0.0}, {"rental_uris": {"android": "https://dc.lft.to/lastmile_qr_scan", "ios": "https://dc.lft.to/lastmile_qr_scan"}, "lon": -76.98599166666666, "name": "f90ad010f2133da163b9ba9d1121f3c1", "lat": 38.86011283333333, "is_reserved": 0, "fusion_lat": 0.0, "bike_id": "f90ad010f2133da163b9ba9d1121f3c1", "type": "electric_scooter", "is_disabled": 0, "fusion_lon": 0.0}, {"rental_uris": {"android": "https://dc.lft.to/lastmile_qr_scan", "ios": "https://dc.lft.to/lastmile_qr_scan"}, "lon": -77.0450945, "name": "8569224c2bdddc0f9a9d6ac06be8f98f", "lat": 38.9078095, "is_reserved": 0, "fusion_lat": 0.0, "bike_id": "8569224c2bdddc0f9a9d6ac06be8f98f", "type": "electric_scooter", "is_disabled": 0, "fusion_lon": 0.0}, {"rental_uris": {"android": "https://dc.lft.to/lastmile_qr_scan", "ios": "https://dc.lft.to/lastmile_qr_scan"}, "lon": -77.05046966666667, "name": "f269391822875c3071fa5a37bd75aeca", "lat": 38.9017635, "is_reserved": 0, "fusion_lat": 0.0, "bike_id": "f269391822875c3071fa5a37bd75aeca", "type": "electric_scooter", "is_disabled": 0, "fusion_lon": 0.0}, {"rental_uris": {"android": "https://dc.lft.to/lastmile_qr_scan", "ios": "https://dc.lft.to/lastmile_qr_scan"}, "lon": -76.99900616666666, "name": "04a6da8a5d643c51405edef08dff4075", "lat": 38.942743166666666, "is_reserved": 0, "fusion_lat": 0.0, "bike_id": "04a6da8a5d643c51405edef08dff4075", "type": "electric_bike", "is_disabled": 0, "fusion_lon": 0.0}, {"rental_uris": {"android": "https://dc.lft.to/lastmile_qr_scan", "ios": "https://dc.lft.to/lastmile_qr_scan"}, "lon": -77.08596, "name": "59f400c0e3853e02050cffd52fc8c0bd", "lat": 38.908660166666664, "is_reserved": 0, "fusion_lat": 0.0, "bike_id": "59f400c0e3853e02050cffd52fc8c0bd", "type": "electric_scooter", "is_disabled": 0, "fusion_lon": 0.0}, {"rental_uris": {"android": "https://dc.lft.to/lastmile_qr_scan", "ios": "https://dc.lft.to/lastmile_qr_scan"}, "lon": -76.93339266666666, "name": "2c8d4c44aa7124710ed9ec2dc9685568", "lat": 38.908669, "is_reserved": 0, "fusion_lat": 0.0, "bike_id": "2c8d4c44aa7124710ed9ec2dc9685568", "type": "electric_scooter", "is_disabled": 0, "fusion_lon": 0.0}, {"rental_uris": {"android": "https://dc.lft.to/lastmile_qr_scan", "ios": "https://dc.lft.to/lastmile_qr_scan"}, "lon": -77.07184816666667, "name": "8645b827baf1b33aab7807471dfe7dde", "lat": 38.906773333333334, "is_reserved": 0, "fusion_lat": 0.0, "bike_id": "8645b827baf1b33aab7807471dfe7dde", "type": "electric_scooter", "is_disabled": 0, "fusion_lon": 0.0}, {"rental_uris": {"android": "https://dc.lft.to/lastmile_qr_scan", "ios": "https://dc.lft.to/lastmile_qr_scan"}, "lon": -77.0238105, "name": "d8fd968810078d27052059e5bf8a5875", "lat": 38.89225916666667, "is_reserved": 0, "fusion_lat": 0.0, "bike_id": "d8fd968810078d27052059e5bf8a5875", "type": "electric_scooter", "is_disabled": 0, "fusion_lon": 0.0}, {"rental_uris": {"android": "https://dc.lft.to/lastmile_qr_scan", "ios": "https://dc.lft.to/lastmile_qr_scan"}, "lon": -77.03191316666667, "name": "9539808d821aa74e2d33c5441cff23b7", "lat": 38.9307115, "is_reserved": 0, "fusion_lat": 0.0, "bike_id": "9539808d821aa74e2d33c5441cff23b7", "type": "electric_scooter", "is_disabled": 0, "fusion_lon": 0.0}, {"rental_uris": {"android": "https://dc.lft.to/lastmile_qr_scan", "ios": "https://dc.lft.to/lastmile_qr_scan"}, "lon": -77.05410283333333, "name": "6249325aabf5714eb1aecc3d7fa254cf", "lat": 38.90131133333333, "is_reserved": 0, "fusion_lat": 0.0, "bike_id": "6249325aabf5714eb1aecc3d7fa254cf", "type": "electric_scooter", "is_disabled": 0, "fusion_lon": 0.0}, {"rental_uris": {"android": "https://dc.lft.to/lastmile_qr_scan", "ios": "https://dc.lft.to/lastmile_qr_scan"}, "lon": -77.02042416666667, "name": "de1e0d80ebefbbec5bafa0e063da3cfd", "lat": 38.936435833333334, "is_reserved": 0, "fusion_lat": 0.0, "bike_id": "de1e0d80ebefbbec5bafa0e063da3cfd", "type": "electric_scooter", "is_disabled": 0, "fusion_lon": 0.0}, {"rental_uris": {"android": "https://dc.lft.to/lastmile_qr_scan", "ios": "https://dc.lft.to/lastmile_qr_scan"}, "lon": -77.03371466666667, "name": "91078c10ed3010aea3d3a11679816549", "lat": 38.92437483333333, "is_reserved": 0, "fusion_lat": 0.0, "bike_id": "91078c10ed3010aea3d3a11679816549", "type": "electric_scooter", "is_disabled": 0, "fusion_lon": 0.0}, {"rental_uris": {"android": "https://dc.lft.to/lastmile_qr_scan", "ios": "https://dc.lft.to/lastmile_qr_scan"}, "lon": -77.0224485, "name": "a87fbf6baa2fbb069161a6615fd0916f", "lat": 38.92271733333333, "is_reserved": 0, "fusion_lat": 0.0, "bike_id": "a87fbf6baa2fbb069161a6615fd0916f", "type": "electric_scooter", "is_disabled": 0, "fusion_lon": 0.0}, {"rental_uris": {"android": "https://dc.lft.to/lastmile_qr_scan", "ios": "https://dc.lft.to/lastmile_qr_scan"}, "lon": -76.93403383333333, "name": "67472dd83046c219e151d0a19a20eec0", "lat": 38.898936666666664, "is_reserved": 0, "fusion_lat": 0.0, "bike_id": "67472dd83046c219e151d0a19a20eec0", "type": "electric_scooter", "is_disabled": 0, "fusion_lon": 0.0}, {"rental_uris": {"android": "https://dc.lft.to/lastmile_qr_scan", "ios": "https://dc.lft.to/lastmile_qr_scan"}, "lon": -77.07699183333334, "name": "5c845e3fed07ba1aef4fe643e93aa32c", "lat": 38.99421816666667, "is_reserved": 0, "fusion_lat": 0.0, "bike_id": "5c845e3fed07ba1aef4fe643e93aa32c", "type": "electric_bike", "is_disabled": 0, "fusion_lon": 0.0}, {"rental_uris": {"android": "https://dc.lft.to/lastmile_qr_scan", "ios": "https://dc.lft.to/lastmile_qr_scan"}, "lon": -77.01139866666666, "name": "bf9bfdce64c0205f01b114e866c85269", "lat": 38.90645416666667, "is_reserved": 0, "fusion_lat": 0.0, "bike_id": "bf9bfdce64c0205f01b114e866c85269", "type": "electric_scooter", "is_disabled": 0, "fusion_lon": 0.0}, {"rental_uris": {"android": "https://dc.lft.to/lastmile_qr_scan", "ios": "https://dc.lft.to/lastmile_qr_scan"}, "lon": -76.98695683333334, "name": "e6e1b05d51258ab5b568f6fbae600f31", "lat": 38.90013116666667, "is_reserved": 0, "fusion_lat": 0.0, "bike_id": "e6e1b05d51258ab5b568f6fbae600f31", "type": "electric_scooter", "is_disabled": 0, "fusion_lon": 0.0}, {"rental_uris": {"android": "https://dc.lft.to/lastmile_qr_scan", "ios": "https://dc.lft.to/lastmile_qr_scan"}, "lon": -77.03154866666667, "name": "cd79266db4d5d0eafc156c68c5eb2bb9", "lat": 38.91701666666667, "is_reserved": 0, "fusion_lat": 0.0, "bike_id": "cd79266db4d5d0eafc156c68c5eb2bb9", "type": "electric_scooter", "is_disabled": 0, "fusion_lon": 0.0}, {"rental_uris": {"android": "https://dc.lft.to/lastmile_qr_scan", "ios": "https://dc.lft.to/lastmile_qr_scan"}, "lon": -77.00186366666667, "name": "95a070c13f4837267c690734b812cd9c", "lat": 38.822190166666665, "is_reserved": 0, "fusion_lat": 0.0, "bike_id": "95a070c13f4837267c690734b812cd9c", "type": "electric_scooter", "is_disabled": 0, "fusion_lon": 0.0}, {"rental_uris": {"android": "https://dc.lft.to/lastmile_qr_scan", "ios": "https://dc.lft.to/lastmile_qr_scan"}, "lon": -77.02023583333333, "name": "1fd01e08c16b66f33e492d4d40899b69", "lat": 38.88478766666667, "is_reserved": 0, "fusion_lat": 0.0, "bike_id": "1fd01e08c16b66f33e492d4d40899b69", "type": "electric_scooter", "is_disabled": 0, "fusion_lon": 0.0}, {"rental_uris": {"android": "https://dc.lft.to/lastmile_qr_scan", "ios": "https://dc.lft.to/lastmile_qr_scan"}, "lon": -77.05701333333333, "name": "2cac9740cc5d8375345025d6663aa9a0", "lat": 38.933173333333336, "is_reserved": 0, "fusion_lat": 0.0, "bike_id": "2cac9740cc5d8375345025d6663aa9a0", "type": "electric_scooter", "is_disabled": 0, "fusion_lon": 0.0}, {"rental_uris": {"android": "https://dc.lft.to/lastmile_qr_scan", "ios": "https://dc.lft.to/lastmile_qr_scan"}, "lon": -77.029693, "name": "c8e3b80e493f1bc577561f6f7f22aca4", "lat": 38.91725783333333, "is_reserved": 0, "fusion_lat": 0.0, "bike_id": "c8e3b80e493f1bc577561f6f7f22aca4", "type": "electric_scooter", "is_disabled": 0, "fusion_lon": 0.0}, {"rental_uris": {"android": "https://dc.lft.to/lastmile_qr_scan", "ios": "https://dc.lft.to/lastmile_qr_scan"}, "lon": -77.02415566666667, "name": "8a174420511dd25aa0e108b9fa221429", "lat": 38.930944333333336, "is_reserved": 0, "fusion_lat": 0.0, "bike_id": "8a174420511dd25aa0e108b9fa221429", "type": "electric_scooter", "is_disabled": 0, "fusion_lon": 0.0}, {"rental_uris": {"android": "https://dc.lft.to/lastmile_qr_scan", "ios": "https://dc.lft.to/lastmile_qr_scan"}, "lon": -77.21125733333334, "name": "d7e0f44096c71af5fcef8aac9afab045", "lat": 38.874937333333335, "is_reserved": 0, "fusion_lat": 0.0, "bike_id": "d7e0f44096c71af5fcef8aac9afab045", "type": "electric_bike", "is_disabled": 0, "fusion_lon": 0.0}, {"rental_uris": {"android": "https://dc.lft.to/lastmile_qr_scan", "ios": "https://dc.lft.to/lastmile_qr_scan"}, "lon": -76.90731, "name": "467dcda45daf65dab0af4f95a4d27b1d", "lat": 38.896128, "is_reserved": 0, "fusion_lat": 0.0, "bike_id": "467dcda45daf65dab0af4f95a4d27b1d", "type": "electric_bike", "is_disabled": 0, "fusion_lon": 0.0}, {"rental_uris": {"android": "https://dc.lft.to/lastmile_qr_scan", "ios": "https://dc.lft.to/lastmile_qr_scan"}, "lon": -77.01465633333333, "name": "814dc3913970ba466a941e19fad48655", "lat": 38.9175595, "is_reserved": 0, "fusion_lat": 0.0, "bike_id": "814dc3913970ba466a941e19fad48655", "type": "electric_scooter", "is_disabled": 0, "fusion_lon": 0.0}, {"rental_uris": {"android": "https://dc.lft.to/lastmile_qr_scan", "ios": "https://dc.lft.to/lastmile_qr_scan"}, "lon": -77.03347666666667, "name": "450a3bec208ebfe3bdb0e5ac9b79ef25", "lat": 38.897389833333335, "is_reserved": 0, "fusion_lat": 0.0, "bike_id": "450a3bec208ebfe3bdb0e5ac9b79ef25", "type": "electric_scooter", "is_disabled": 0, "fusion_lon": 0.0}, {"rental_uris": {"android": "https://dc.lft.to/lastmile_qr_scan", "ios": "https://dc.lft.to/lastmile_qr_scan"}, "lon": -77.0021185, "name": "d88c1fdbb2a5ec301e5a0bfd79390217", "lat": 38.914589166666666, "is_reserved": 0, "fusion_lat": 0.0, "bike_id": "d88c1fdbb2a5ec301e5a0bfd79390217", "type": "electric_scooter", "is_disabled": 0, "fusion_lon": 0.0}, {"rental_uris": {"android": "https://dc.lft.to/lastmile_qr_scan", "ios": "https://dc.lft.to/lastmile_qr_scan"}, "lon": -77.0258795, "name": "d9ddf0024e3252868333ad79473e4c84", "lat": 38.91413883333333, "is_reserved": 0, "fusion_lat": 0.0, "bike_id": "d9ddf0024e3252868333ad79473e4c84", "type": "electric_scooter", "is_disabled": 0, "fusion_lon": 0.0}, {"rental_uris": {"android": "https://dc.lft.to/lastmile_qr_scan", "ios": "https://dc.lft.to/lastmile_qr_scan"}, "lon": -77.066582, "name": "3c7b6c83467b8db83a24e641a7f65666", "lat": 38.95078183333333, "is_reserved": 0, "fusion_lat": 0.0, "bike_id": "3c7b6c83467b8db83a24e641a7f65666", "type": "electric_bike", "is_disabled": 0, "fusion_lon": 0.0}, {"rental_uris": {"android": "https://dc.lft.to/lastmile_qr_scan", "ios": "https://dc.lft.to/lastmile_qr_scan"}, "lon": -77.1160555, "name": "7473ed072718103443fb3a891bd7ca3d", "lat": 38.8548935, "is_reserved": 0, "fusion_lat": 0.0, "bike_id": "7473ed072718103443fb3a891bd7ca3d", "type": "electric_bike", "is_disabled": 0, "fusion_lon": 0.0}, {"rental_uris": {"android": "https://dc.lft.to/lastmile_qr_scan", "ios": "https://dc.lft.to/lastmile_qr_scan"}, "lon": -77.04638133333333, "name": "8d4cfbd2e4e61db85f897b04e888ea37", "lat": 38.9190725, "is_reserved": 0, "fusion_lat": 0.0, "bike_id": "8d4cfbd2e4e61db85f897b04e888ea37", "type": "electric_scooter", "is_disabled": 0, "fusion_lon": 0.0}, {"rental_uris": {"android": "https://dc.lft.to/lastmile_qr_scan", "ios": "https://dc.lft.to/lastmile_qr_scan"}, "lon": -76.99051033333333, "name": "b71d29a6add21630a0d1533edf172a44", "lat": 38.898180333333336, "is_reserved": 0, "fusion_lat": 0.0, "bike_id": "b71d29a6add21630a0d1533edf172a44", "type": "electric_bike", "is_disabled": 0, "fusion_lon": 0.0}, {"rental_uris": {"android": "https://dc.lft.to/lastmile_qr_scan", "ios": "https://dc.lft.to/lastmile_qr_scan"}, "lon": -77.05759966666666, "name": "51b543c6ed1089c0094c0907ba994e94", "lat": 38.925042, "is_reserved": 0, "fusion_lat": 0.0, "bike_id": "51b543c6ed1089c0094c0907ba994e94", "type": "electric_scooter", "is_disabled": 0, "fusion_lon": 0.0}, {"rental_uris": {"android": "https://dc.lft.to/lastmile_qr_scan", "ios": "https://dc.lft.to/lastmile_qr_scan"}, "lon": -77.02284233333333, "name": "3bcf7c5db92fc2cbd9112df88442a695", "lat": 38.91770116666667, "is_reserved": 0, "fusion_lat": 0.0, "bike_id": "3bcf7c5db92fc2cbd9112df88442a695", "type": "electric_scooter", "is_disabled": 0, "fusion_lon": 0.0}, {"rental_uris": {"android": "https://dc.lft.to/lastmile_qr_scan", "ios": "https://dc.lft.to/lastmile_qr_scan"}, "lon": -77.06120366666667, "name": "4672fae8f28101a8855de18cf6c9abdf", "lat": 38.90197416666667, "is_reserved": 0, "fusion_lat": 0.0, "bike_id": "4672fae8f28101a8855de18cf6c9abdf", "type": "electric_scooter", "is_disabled": 0, "fusion_lon": 0.0}, {"rental_uris": {"android": "https://dc.lft.to/lastmile_qr_scan", "ios": "https://dc.lft.to/lastmile_qr_scan"}, "lon": -77.0212055, "name": "b8b798a54fe144de1f5078549e156489", "lat": 38.9226925, "is_reserved": 0, "fusion_lat": 0.0, "bike_id": "b8b798a54fe144de1f5078549e156489", "type": "electric_scooter", "is_disabled": 0, "fusion_lon": 0.0}, {"rental_uris": {"android": "https://dc.lft.to/lastmile_qr_scan", "ios": "https://dc.lft.to/lastmile_qr_scan"}, "lon": -77.006676, "name": "4b64d4d66a670a8c564e9e145501acde", "lat": 38.94506466666667, "is_reserved": 0, "fusion_lat": 0.0, "bike_id": "4b64d4d66a670a8c564e9e145501acde", "type": "electric_bike", "is_disabled": 0, "fusion_lon": 0.0}, {"rental_uris": {"android": "https://dc.lft.to/lastmile_qr_scan", "ios": "https://dc.lft.to/lastmile_qr_scan"}, "lon": -77.00328116666667, "name": "241791e6dc3967c5d72bff5149dd8efa", "lat": 38.897251, "is_reserved": 0, "fusion_lat": 0.0, "bike_id": "241791e6dc3967c5d72bff5149dd8efa", "type": "electric_scooter", "is_disabled": 0, "fusion_lon": 0.0}, {"rental_uris": {"android": "https://dc.lft.to/lastmile_qr_scan", "ios": "https://dc.lft.to/lastmile_qr_scan"}, "lon": -77.0723185, "name": "487a6e8de38106fbfe5c5be8c0ddf34a", "lat": 38.93189683333333, "is_reserved": 0, "fusion_lat": 0.0, "bike_id": "487a6e8de38106fbfe5c5be8c0ddf34a", "type": "electric_scooter", "is_disabled": 0, "fusion_lon": 0.0}, {"rental_uris": {"android": "https://dc.lft.to/lastmile_qr_scan", "ios": "https://dc.lft.to/lastmile_qr_scan"}, "lon": -77.07329033333333, "name": "753ec9ff995cf513ed423a20911f9bd4", "lat": 38.92564133333333, "is_reserved": 0, "fusion_lat": 0.0, "bike_id": "753ec9ff995cf513ed423a20911f9bd4", "type": "electric_scooter", "is_disabled": 0, "fusion_lon": 0.0}, {"rental_uris": {"android": "https://dc.lft.to/lastmile_qr_scan", "ios": "https://dc.lft.to/lastmile_qr_scan"}, "lon": -77.02793483333333, "name": "e3f67f4af40c1caf057a85775cacc645", "lat": 38.929734833333335, "is_reserved": 0, "fusion_lat": 0.0, "bike_id": "e3f67f4af40c1caf057a85775cacc645", "type": "electric_scooter", "is_disabled": 0, "fusion_lon": 0.0}, {"rental_uris": {"android": "https://dc.lft.to/lastmile_qr_scan", "ios": "https://dc.lft.to/lastmile_qr_scan"}, "lon": -77.03070266666667, "name": "42edba8ad3240b39ccb2f7cd62abf730", "lat": 38.92250166666667, "is_reserved": 0, "fusion_lat": 0.0, "bike_id": "42edba8ad3240b39ccb2f7cd62abf730", "type": "electric_scooter", "is_disabled": 0, "fusion_lon": 0.0}, {"rental_uris": {"android": "https://dc.lft.to/lastmile_qr_scan", "ios": "https://dc.lft.to/lastmile_qr_scan"}, "lon": -77.06401666666666, "name": "9746a7dd3040ad3053f3bf3601a18f99", "lat": 38.944147, "is_reserved": 0, "fusion_lat": 0.0, "bike_id": "9746a7dd3040ad3053f3bf3601a18f99", "type": "electric_scooter", "is_disabled": 0, "fusion_lon": 0.0}, {"rental_uris": {"android": "https://dc.lft.to/lastmile_qr_scan", "ios": "https://dc.lft.to/lastmile_qr_scan"}, "lon": -77.02692033333334, "name": "5efed26e8963b91cf331d95be5e79a0e", "lat": 38.90664833333334, "is_reserved": 0, "fusion_lat": 0.0, "bike_id": "5efed26e8963b91cf331d95be5e79a0e", "type": "electric_scooter", "is_disabled": 0, "fusion_lon": 0.0}, {"rental_uris": {"android": "https://dc.lft.to/lastmile_qr_scan", "ios": "https://dc.lft.to/lastmile_qr_scan"}, "lon": -77.00550666666666, "name": "41e98a50983f808e1360a8703143eb92", "lat": 38.90645883333333, "is_reserved": 0, "fusion_lat": 0.0, "bike_id": "41e98a50983f808e1360a8703143eb92", "type": "electric_scooter", "is_disabled": 0, "fusion_lon": 0.0}, {"rental_uris": {"android": "https://dc.lft.to/lastmile_qr_scan", "ios": "https://dc.lft.to/lastmile_qr_scan"}, "lon": -77.01208633333333, "name": "3a262185cdf02c7ce72f7626461dbac3", "lat": 38.8932855, "is_reserved": 0, "fusion_lat": 0.0, "bike_id": "3a262185cdf02c7ce72f7626461dbac3", "type": "electric_scooter", "is_disabled": 0, "fusion_lon": 0.0}, {"rental_uris": {"android": "https://dc.lft.to/lastmile_qr_scan", "ios": "https://dc.lft.to/lastmile_qr_scan"}, "lon": -77.0289735, "name": "178629150a780292aa81142cb0934fd2", "lat": 38.9013975, "is_reserved": 0, "fusion_lat": 0.0, "bike_id": "178629150a780292aa81142cb0934fd2", "type": "electric_scooter", "is_disabled": 0, "fusion_lon": 0.0}, {"rental_uris": {"android": "https://dc.lft.to/lastmile_qr_scan", "ios": "https://dc.lft.to/lastmile_qr_scan"}, "lon": -77.048551, "name": "b352a388c2d3b5656379390cf57dfb76", "lat": 38.913293833333334, "is_reserved": 0, "fusion_lat": 0.0, "bike_id": "b352a388c2d3b5656379390cf57dfb76", "type": "electric_scooter", "is_disabled": 0, "fusion_lon": 0.0}, {"rental_uris": {"android": "https://dc.lft.to/lastmile_qr_scan", "ios": "https://dc.lft.to/lastmile_qr_scan"}, "lon": -77.02086366666667, "name": "5c48f29f17c8e12f41d451d0040b2e41", "lat": 38.93011416666667, "is_reserved": 0, "fusion_lat": 0.0, "bike_id": "5c48f29f17c8e12f41d451d0040b2e41", "type": "electric_scooter", "is_disabled": 0, "fusion_lon": 0.0}, {"rental_uris": {"android": "https://dc.lft.to/lastmile_qr_scan", "ios": "https://dc.lft.to/lastmile_qr_scan"}, "lon": -77.02001966666667, "name": "1510eb28edc3aa23c68abb650c963225", "lat": 38.8924725, "is_reserved": 0, "fusion_lat": 0.0, "bike_id": "1510eb28edc3aa23c68abb650c963225", "type": "electric_scooter", "is_disabled": 0, "fusion_lon": 0.0}, {"rental_uris": {"android": "https://dc.lft.to/lastmile_qr_scan", "ios": "https://dc.lft.to/lastmile_qr_scan"}, "lon": -77.0461215, "name": "6de72a172df25cde7f7153fa455a7e86", "lat": 38.9065855, "is_reserved": 0, "fusion_lat": 0.0, "bike_id": "6de72a172df25cde7f7153fa455a7e86", "type": "electric_scooter", "is_disabled": 0, "fusion_lon": 0.0}, {"rental_uris": {"android": "https://dc.lft.to/lastmile_qr_scan", "ios": "https://dc.lft.to/lastmile_qr_scan"}, "lon": -77.00118216666667, "name": "6b53a04e15ebc208cbb2b40457b0b851", "lat": 38.8737075, "is_reserved": 0, "fusion_lat": 0.0, "bike_id": "6b53a04e15ebc208cbb2b40457b0b851", "type": "electric_scooter", "is_disabled": 0, "fusion_lon": 0.0}, {"rental_uris": {"android": "https://dc.lft.to/lastmile_qr_scan", "ios": "https://dc.lft.to/lastmile_qr_scan"}, "lon": -76.9799915, "name": "4fe50803d3d9b6559a00b2b4a945bea6", "lat": 38.906787, "is_reserved": 0, "fusion_lat": 0.0, "bike_id": "4fe50803d3d9b6559a00b2b4a945bea6", "type": "electric_scooter", "is_disabled": 0, "fusion_lon": 0.0}, {"rental_uris": {"android": "https://dc.lft.to/lastmile_qr_scan", "ios": "https://dc.lft.to/lastmile_qr_scan"}, "lon": -77.00194866666666, "name": "977e2910dd756f37e6ef32f960c225e3", "lat": 38.966128499999996, "is_reserved": 0, "fusion_lat": 0.0, "bike_id": "977e2910dd756f37e6ef32f960c225e3", "type": "electric_scooter", "is_disabled": 0, "fusion_lon": 0.0}, {"rental_uris": {"android": "https://dc.lft.to/lastmile_qr_scan", "ios": "https://dc.lft.to/lastmile_qr_scan"}, "lon": -77.01749066666666, "name": "d412353b483cdafd5f2c8718092df91d", "lat": 38.88299683333334, "is_reserved": 0, "fusion_lat": 0.0, "bike_id": "d412353b483cdafd5f2c8718092df91d", "type": "electric_scooter", "is_disabled": 0, "fusion_lon": 0.0}, {"rental_uris": {"android": "https://dc.lft.to/lastmile_qr_scan", "ios": "https://dc.lft.to/lastmile_qr_scan"}, "lon": -76.94527016666666, "name": "f0d4e3844b24311c7a6eb37777b0dc14", "lat": 38.8675145, "is_reserved": 0, "fusion_lat": 0.0, "bike_id": "f0d4e3844b24311c7a6eb37777b0dc14", "type": "electric_bike", "is_disabled": 0, "fusion_lon": 0.0}, {"rental_uris": {"android": "https://dc.lft.to/lastmile_qr_scan", "ios": "https://dc.lft.to/lastmile_qr_scan"}, "lon": -77.04215233333333, "name": "f246dcec674f05f811af1ece00aaef9d", "lat": 38.921303333333334, "is_reserved": 0, "fusion_lat": 0.0, "bike_id": "f246dcec674f05f811af1ece00aaef9d", "type": "electric_scooter", "is_disabled": 0, "fusion_lon": 0.0}, {"rental_uris": {"android": "https://dc.lft.to/lastmile_qr_scan", "ios": "https://dc.lft.to/lastmile_qr_scan"}, "lon": -76.98384883333334, "name": "5b40f1735255389befb4f9c6b5007581", "lat": 38.9150085, "is_reserved": 0, "fusion_lat": 0.0, "bike_id": "5b40f1735255389befb4f9c6b5007581", "type": "electric_scooter", "is_disabled": 0, "fusion_lon": 0.0}, {"rental_uris": {"android": "https://dc.lft.to/lastmile_qr_scan", "ios": "https://dc.lft.to/lastmile_qr_scan"}, "lon": -77.017393, "name": "f44adb21ed08e5f78d063c96e4b8f799", "lat": 38.9399255, "is_reserved": 0, "fusion_lat": 0.0, "bike_id": "f44adb21ed08e5f78d063c96e4b8f799", "type": "electric_scooter", "is_disabled": 0, "fusion_lon": 0.0}, {"rental_uris": {"android": "https://dc.lft.to/lastmile_qr_scan", "ios": "https://dc.lft.to/lastmile_qr_scan"}, "lon": -76.95666816666666, "name": "0a843ea9d623865496d3b2461d3c6d1e", "lat": 38.88492016666667, "is_reserved": 0, "fusion_lat": 0.0, "bike_id": "0a843ea9d623865496d3b2461d3c6d1e", "type": "electric_bike", "is_disabled": 0, "fusion_lon": 0.0}, {"rental_uris": {"android": "https://dc.lft.to/lastmile_qr_scan", "ios": "https://dc.lft.to/lastmile_qr_scan"}, "lon": -77.044282, "name": "efe972ae9ca4af1ec09b448c16b4feab", "lat": 38.894017, "is_reserved": 0, "fusion_lat": 0.0, "bike_id": "efe972ae9ca4af1ec09b448c16b4feab", "type": "electric_scooter", "is_disabled": 0, "fusion_lon": 0.0}, {"rental_uris": {"android": "https://dc.lft.to/lastmile_qr_scan", "ios": "https://dc.lft.to/lastmile_qr_scan"}, "lon": -77.022379, "name": "ef242b65b48c81a20fa78e013e7efb29", "lat": 38.9221655, "is_reserved": 0, "fusion_lat": 0.0, "bike_id": "ef242b65b48c81a20fa78e013e7efb29", "type": "electric_scooter", "is_disabled": 0, "fusion_lon": 0.0}, {"rental_uris": {"android": "https://dc.lft.to/lastmile_qr_scan", "ios": "https://dc.lft.to/lastmile_qr_scan"}, "lon": -77.01407483333334, "name": "e072c9a4cef51f3d594f0582f5436a66", "lat": 38.913991333333335, "is_reserved": 0, "fusion_lat": 0.0, "bike_id": "e072c9a4cef51f3d594f0582f5436a66", "type": "electric_scooter", "is_disabled": 0, "fusion_lon": 0.0}, {"rental_uris": {"android": "https://dc.lft.to/lastmile_qr_scan", "ios": "https://dc.lft.to/lastmile_qr_scan"}, "lon": -77.03220866666666, "name": "845c2e354b9cc81c6dc039e6fdece4e5", "lat": 38.93617533333333, "is_reserved": 0, "fusion_lat": 0.0, "bike_id": "845c2e354b9cc81c6dc039e6fdece4e5", "type": "electric_scooter", "is_disabled": 0, "fusion_lon": 0.0}, {"rental_uris": {"android": "https://dc.lft.to/lastmile_qr_scan", "ios": "https://dc.lft.to/lastmile_qr_scan"}, "lon": -77.025181, "name": "49d2f4351667af5782e1c82eb9d0a3fd", "lat": 38.921348333333334, "is_reserved": 0, "fusion_lat": 0.0, "bike_id": "49d2f4351667af5782e1c82eb9d0a3fd", "type": "electric_scooter", "is_disabled": 0, "fusion_lon": 0.0}, {"rental_uris": {"android": "https://dc.lft.to/lastmile_qr_scan", "ios": "https://dc.lft.to/lastmile_qr_scan"}, "lon": -77.00756166666666, "name": "6427be129142d2722e16cf9e6d3b6c44", "lat": 38.92691416666667, "is_reserved": 0, "fusion_lat": 0.0, "bike_id": "6427be129142d2722e16cf9e6d3b6c44", "type": "electric_scooter", "is_disabled": 0, "fusion_lon": 0.0}, {"rental_uris": {"android": "https://dc.lft.to/lastmile_qr_scan", "ios": "https://dc.lft.to/lastmile_qr_scan"}, "lon": -77.0531455, "name": "bcb3ece03380fa31b7f8905169015200", "lat": 38.902977166666666, "is_reserved": 0, "fusion_lat": 0.0, "bike_id": "bcb3ece03380fa31b7f8905169015200", "type": "electric_scooter", "is_disabled": 0, "fusion_lon": 0.0}, {"rental_uris": {"android": "https://dc.lft.to/lastmile_qr_scan", "ios": "https://dc.lft.to/lastmile_qr_scan"}, "lon": -77.02439066666666, "name": "988a53c6f521444b603394b7f0211d40", "lat": 38.937880666666665, "is_reserved": 0, "fusion_lat": 0.0, "bike_id": "988a53c6f521444b603394b7f0211d40", "type": "electric_scooter", "is_disabled": 0, "fusion_lon": 0.0}, {"rental_uris": {"android": "https://dc.lft.to/lastmile_qr_scan", "ios": "https://dc.lft.to/lastmile_qr_scan"}, "lon": -77.01618083333334, "name": "b96d76a11feb63e13f2998e33a96bb8a", "lat": 38.9011915, "is_reserved": 0, "fusion_lat": 0.0, "bike_id": "b96d76a11feb63e13f2998e33a96bb8a", "type": "electric_scooter", "is_disabled": 0, "fusion_lon": 0.0}, {"rental_uris": {"android": "https://dc.lft.to/lastmile_qr_scan", "ios": "https://dc.lft.to/lastmile_qr_scan"}, "lon": -77.04709866666667, "name": "7f8d544772607f3c031c843b03794350", "lat": 38.91269116666667, "is_reserved": 0, "fusion_lat": 0.0, "bike_id": "7f8d544772607f3c031c843b03794350", "type": "electric_scooter", "is_disabled": 0, "fusion_lon": 0.0}, {"rental_uris": {"android": "https://dc.lft.to/lastmile_qr_scan", "ios": "https://dc.lft.to/lastmile_qr_scan"}, "lon": -77.00251616666667, "name": "ca5737f7b0defa04e4f3abffe8d41aae", "lat": 38.91194016666667, "is_reserved": 0, "fusion_lat": 0.0, "bike_id": "ca5737f7b0defa04e4f3abffe8d41aae", "type": "electric_scooter", "is_disabled": 0, "fusion_lon": 0.0}, {"rental_uris": {"android": "https://dc.lft.to/lastmile_qr_scan", "ios": "https://dc.lft.to/lastmile_qr_scan"}, "lon": -77.02216916666667, "name": "16c349c1c231516d4e836f856c995c49", "lat": 38.9261185, "is_reserved": 0, "fusion_lat": 0.0, "bike_id": "16c349c1c231516d4e836f856c995c49", "type": "electric_scooter", "is_disabled": 0, "fusion_lon": 0.0}, {"rental_uris": {"android": "https://dc.lft.to/lastmile_qr_scan", "ios": "https://dc.lft.to/lastmile_qr_scan"}, "lon": -77.01543216666667, "name": "fb6251153dae5a9b83ab7c39639e210e", "lat": 38.8916695, "is_reserved": 0, "fusion_lat": 0.0, "bike_id": "fb6251153dae5a9b83ab7c39639e210e", "type": "electric_scooter", "is_disabled": 0, "fusion_lon": 0.0}, {"rental_uris": {"android": "https://dc.lft.to/lastmile_qr_scan", "ios": "https://dc.lft.to/lastmile_qr_scan"}, "lon": -77.033369, "name": "04859695410f1f4e1de443a3ae7d383a", "lat": 38.91404966666666, "is_reserved": 0, "fusion_lat": 0.0, "bike_id": "04859695410f1f4e1de443a3ae7d383a", "type": "electric_scooter", "is_disabled": 0, "fusion_lon": 0.0}, {"rental_uris": {"android": "https://dc.lft.to/lastmile_qr_scan", "ios": "https://dc.lft.to/lastmile_qr_scan"}, "lon": -77.041364, "name": "dcc9812c93333c5beafcc33a0b09c95b", "lat": 38.922581, "is_reserved": 0, "fusion_lat": 0.0, "bike_id": "dcc9812c93333c5beafcc33a0b09c95b", "type": "electric_scooter", "is_disabled": 0, "fusion_lon": 0.0}, {"rental_uris": {"android": "https://dc.lft.to/lastmile_qr_scan", "ios": "https://dc.lft.to/lastmile_qr_scan"}, "lon": -77.03345683333333, "name": "4628f70d5a4d68ade87d834415f19b8b", "lat": 38.9170035, "is_reserved": 0, "fusion_lat": 0.0, "bike_id": "4628f70d5a4d68ade87d834415f19b8b", "type": "electric_scooter", "is_disabled": 0, "fusion_lon": 0.0}, {"rental_uris": {"android": "https://dc.lft.to/lastmile_qr_scan", "ios": "https://dc.lft.to/lastmile_qr_scan"}, "lon": -76.98697283333334, "name": "8f9972033751b906ef53263578b354ce", "lat": 38.86720316666667, "is_reserved": 0, "fusion_lat": 0.0, "bike_id": "8f9972033751b906ef53263578b354ce", "type": "electric_scooter", "is_disabled": 0, "fusion_lon": 0.0}, {"rental_uris": {"android": "https://dc.lft.to/lastmile_qr_scan", "ios": "https://dc.lft.to/lastmile_qr_scan"}, "lon": -77.0071185, "name": "6a9187be88fae2cb8c06f0fa24c85d7b", "lat": 38.88491416666667, "is_reserved": 0, "fusion_lat": 0.0, "bike_id": "6a9187be88fae2cb8c06f0fa24c85d7b", "type": "electric_scooter", "is_disabled": 0, "fusion_lon": 0.0}, {"rental_uris": {"android": "https://dc.lft.to/lastmile_qr_scan", "ios": "https://dc.lft.to/lastmile_qr_scan"}, "lon": -77.02480316666667, "name": "ff8d537f1541f0fe73b5f5b1bfd46c63", "lat": 38.938861, "is_reserved": 0, "fusion_lat": 0.0, "bike_id": "ff8d537f1541f0fe73b5f5b1bfd46c63", "type": "electric_scooter", "is_disabled": 0, "fusion_lon": 0.0}, {"rental_uris": {"android": "https://dc.lft.to/lastmile_qr_scan", "ios": "https://dc.lft.to/lastmile_qr_scan"}, "lon": -77.03354766666666, "name": "2738622980a44710b50814450d83c30d", "lat": 38.92235683333333, "is_reserved": 0, "fusion_lat": 0.0, "bike_id": "2738622980a44710b50814450d83c30d", "type": "electric_scooter", "is_disabled": 0, "fusion_lon": 0.0}, {"rental_uris": {"android": "https://dc.lft.to/lastmile_qr_scan", "ios": "https://dc.lft.to/lastmile_qr_scan"}, "lon": -77.0204115, "name": "c5ed06ab2477e7bc2812988e1ec93cd8", "lat": 38.941357333333336, "is_reserved": 0, "fusion_lat": 0.0, "bike_id": "c5ed06ab2477e7bc2812988e1ec93cd8", "type": "electric_bike", "is_disabled": 0, "fusion_lon": 0.0}, {"rental_uris": {"android": "https://dc.lft.to/lastmile_qr_scan", "ios": "https://dc.lft.to/lastmile_qr_scan"}, "lon": -77.037838, "name": "35f48997dd19841d92c9f31ef555e74e", "lat": 38.93593933333333, "is_reserved": 0, "fusion_lat": 0.0, "bike_id": "35f48997dd19841d92c9f31ef555e74e", "type": "electric_scooter", "is_disabled": 0, "fusion_lon": 0.0}, {"rental_uris": {"android": "https://dc.lft.to/lastmile_qr_scan", "ios": "https://dc.lft.to/lastmile_qr_scan"}, "lon": -76.96910633333333, "name": "288424e9ca68f03900f83728331b16a6", "lat": 38.84609016666667, "is_reserved": 0, "fusion_lat": 0.0, "bike_id": "288424e9ca68f03900f83728331b16a6", "type": "electric_bike", "is_disabled": 0, "fusion_lon": 0.0}, {"rental_uris": {"android": "https://dc.lft.to/lastmile_qr_scan", "ios": "https://dc.lft.to/lastmile_qr_scan"}, "lon": -77.03635316666667, "name": "1c69c5bf5b302885b87c6d3e6a42de1d", "lat": 38.930715666666664, "is_reserved": 0, "fusion_lat": 0.0, "bike_id": "1c69c5bf5b302885b87c6d3e6a42de1d", "type": "electric_scooter", "is_disabled": 0, "fusion_lon": 0.0}, {"rental_uris": {"android": "https://dc.lft.to/lastmile_qr_scan", "ios": "https://dc.lft.to/lastmile_qr_scan"}, "lon": -77.02305266666667, "name": "8e99ae4f132fe31c3223ed9e0a3e17ca", "lat": 38.91223083333333, "is_reserved": 0, "fusion_lat": 0.0, "bike_id": "8e99ae4f132fe31c3223ed9e0a3e17ca", "type": "electric_scooter", "is_disabled": 0, "fusion_lon": 0.0}, {"rental_uris": {"android": "https://dc.lft.to/lastmile_qr_scan", "ios": "https://dc.lft.to/lastmile_qr_scan"}, "lon": -76.98720166666666, "name": "21b4f1ee05f47fe3da644c2c67cd4441", "lat": 38.855939166666666, "is_reserved": 0, "fusion_lat": 0.0, "bike_id": "21b4f1ee05f47fe3da644c2c67cd4441", "type": "electric_scooter", "is_disabled": 0, "fusion_lon": 0.0}, {"rental_uris": {"android": "https://dc.lft.to/lastmile_qr_scan", "ios": "https://dc.lft.to/lastmile_qr_scan"}, "lon": -77.00607066666667, "name": "66102946c4c92926e3505c03d0f4cae1", "lat": 38.8756315, "is_reserved": 0, "fusion_lat": 0.0, "bike_id": "66102946c4c92926e3505c03d0f4cae1", "type": "electric_scooter", "is_disabled": 0, "fusion_lon": 0.0}, {"rental_uris": {"android": "https://dc.lft.to/lastmile_qr_scan", "ios": "https://dc.lft.to/lastmile_qr_scan"}, "lon": -77.0349765, "name": "71c9575f80fabdc35bfd697336a7b4a1", "lat": 38.921512, "is_reserved": 0, "fusion_lat": 0.0, "bike_id": "71c9575f80fabdc35bfd697336a7b4a1", "type": "electric_scooter", "is_disabled": 0, "fusion_lon": 0.0}, {"rental_uris": {"android": "https://dc.lft.to/lastmile_qr_scan", "ios": "https://dc.lft.to/lastmile_qr_scan"}, "lon": -77.01753433333333, "name": "835142a7429447bcac57ef9bfe1a37b8", "lat": 38.902515, "is_reserved": 0, "fusion_lat": 0.0, "bike_id": "835142a7429447bcac57ef9bfe1a37b8", "type": "electric_scooter", "is_disabled": 0, "fusion_lon": 0.0}, {"rental_uris": {"android": "https://dc.lft.to/lastmile_qr_scan", "ios": "https://dc.lft.to/lastmile_qr_scan"}, "lon": -77.03287883333333, "name": "425685609c1cae49f62b0ddb82e4a28e", "lat": 38.920496166666666, "is_reserved": 0, "fusion_lat": 0.0, "bike_id": "425685609c1cae49f62b0ddb82e4a28e", "type": "electric_scooter", "is_disabled": 0, "fusion_lon": 0.0}, {"rental_uris": {"android": "https://dc.lft.to/lastmile_qr_scan", "ios": "https://dc.lft.to/lastmile_qr_scan"}, "lon": -77.022741, "name": "dd17392bfdc3fbb60f408d62d1eb8397", "lat": 38.92719783333333, "is_reserved": 0, "fusion_lat": 0.0, "bike_id": "dd17392bfdc3fbb60f408d62d1eb8397", "type": "electric_scooter", "is_disabled": 0, "fusion_lon": 0.0}, {"rental_uris": {"android": "https://dc.lft.to/lastmile_qr_scan", "ios": "https://dc.lft.to/lastmile_qr_scan"}, "lon": -77.02953566666666, "name": "a3ad63b5c398e94b240a8b0913035da4", "lat": 38.908710666666664, "is_reserved": 0, "fusion_lat": 0.0, "bike_id": "a3ad63b5c398e94b240a8b0913035da4", "type": "electric_scooter", "is_disabled": 0, "fusion_lon": 0.0}, {"rental_uris": {"android": "https://dc.lft.to/lastmile_qr_scan", "ios": "https://dc.lft.to/lastmile_qr_scan"}, "lon": -77.01373983333333, "name": "ec81fc9fa8ebe9c2d8ccb9158ec57f50", "lat": 38.887023666666664, "is_reserved": 0, "fusion_lat": 0.0, "bike_id": "ec81fc9fa8ebe9c2d8ccb9158ec57f50", "type": "electric_scooter", "is_disabled": 0, "fusion_lon": 0.0}, {"rental_uris": {"android": "https://dc.lft.to/lastmile_qr_scan", "ios": "https://dc.lft.to/lastmile_qr_scan"}, "lon": -77.02376183333334, "name": "f1e79879c82a5e79f8d52ee8e5cad220", "lat": 38.9073365, "is_reserved": 0, "fusion_lat": 0.0, "bike_id": "f1e79879c82a5e79f8d52ee8e5cad220", "type": "electric_scooter", "is_disabled": 0, "fusion_lon": 0.0}, {"rental_uris": {"android": "https://dc.lft.to/lastmile_qr_scan", "ios": "https://dc.lft.to/lastmile_qr_scan"}, "lon": -76.93967383333333, "name": "c20ecdbb8a465e87b0278ddbc94435fb", "lat": 38.8934455, "is_reserved": 0, "fusion_lat": 0.0, "bike_id": "c20ecdbb8a465e87b0278ddbc94435fb", "type": "electric_scooter", "is_disabled": 0, "fusion_lon": 0.0}, {"rental_uris": {"android": "https://dc.lft.to/lastmile_qr_scan", "ios": "https://dc.lft.to/lastmile_qr_scan"}, "lon": -77.0215725, "name": "e9b4822927287771dc03ff4fc9a78b31", "lat": 38.89908616666666, "is_reserved": 0, "fusion_lat": 0.0, "bike_id": "e9b4822927287771dc03ff4fc9a78b31", "type": "electric_scooter", "is_disabled": 0, "fusion_lon": 0.0}, {"rental_uris": {"android": "https://dc.lft.to/lastmile_qr_scan", "ios": "https://dc.lft.to/lastmile_qr_scan"}, "lon": -76.91802783333333, "name": "19f514979dfe310c383750ef32dd4c4b", "lat": 38.99998816666667, "is_reserved": 0, "fusion_lat": 0.0, "bike_id": "19f514979dfe310c383750ef32dd4c4b", "type": "electric_bike", "is_disabled": 0, "fusion_lon": 0.0}, {"rental_uris": {"android": "https://dc.lft.to/lastmile_qr_scan", "ios": "https://dc.lft.to/lastmile_qr_scan"}, "lon": -77.0069025, "name": "f13675392d79872f6167485d42cd44a6", "lat": 38.917399833333334, "is_reserved": 0, "fusion_lat": 0.0, "bike_id": "f13675392d79872f6167485d42cd44a6", "type": "electric_scooter", "is_disabled": 0, "fusion_lon": 0.0}, {"rental_uris": {"android": "https://dc.lft.to/lastmile_qr_scan", "ios": "https://dc.lft.to/lastmile_qr_scan"}, "lon": -77.005168, "name": "c6e043cfa404f43e7ac4b1293dfe6298", "lat": 38.874690666666666, "is_reserved": 0, "fusion_lat": 0.0, "bike_id": "c6e043cfa404f43e7ac4b1293dfe6298", "type": "electric_scooter", "is_disabled": 0, "fusion_lon": 0.0}, {"rental_uris": {"android": "https://dc.lft.to/lastmile_qr_scan", "ios": "https://dc.lft.to/lastmile_qr_scan"}, "lon": -77.02047466666667, "name": "55c7afdf16061d95a6f9173338fde856", "lat": 38.91558533333333, "is_reserved": 0, "fusion_lat": 0.0, "bike_id": "55c7afdf16061d95a6f9173338fde856", "type": "electric_scooter", "is_disabled": 0, "fusion_lon": 0.0}, {"rental_uris": {"android": "https://dc.lft.to/lastmile_qr_scan", "ios": "https://dc.lft.to/lastmile_qr_scan"}, "lon": -77.038724, "name": "5ba231672eee70a3c9dac3d9e54c8b5e", "lat": 38.932656, "is_reserved": 0, "fusion_lat": 0.0, "bike_id": "5ba231672eee70a3c9dac3d9e54c8b5e", "type": "electric_scooter", "is_disabled": 0, "fusion_lon": 0.0}, {"rental_uris": {"android": "https://dc.lft.to/lastmile_qr_scan", "ios": "https://dc.lft.to/lastmile_qr_scan"}, "lon": -77.064054, "name": "457a8793259396cac334b68c72354565", "lat": 38.94441716666667, "is_reserved": 0, "fusion_lat": 0.0, "bike_id": "457a8793259396cac334b68c72354565", "type": "electric_scooter", "is_disabled": 0, "fusion_lon": 0.0}, {"rental_uris": {"android": "https://dc.lft.to/lastmile_qr_scan", "ios": "https://dc.lft.to/lastmile_qr_scan"}, "lon": -77.01790083333333, "name": "561d1ba492a9aec60c67e5d818365b25", "lat": 38.92029866666667, "is_reserved": 0, "fusion_lat": 0.0, "bike_id": "561d1ba492a9aec60c67e5d818365b25", "type": "electric_scooter", "is_disabled": 0, "fusion_lon": 0.0}, {"rental_uris": {"android": "https://dc.lft.to/lastmile_qr_scan", "ios": "https://dc.lft.to/lastmile_qr_scan"}, "lon": -77.0150735, "name": "74286e01b5103e7d07f46a0f4a0a3a89", "lat": 38.91325333333333, "is_reserved": 0, "fusion_lat": 0.0, "bike_id": "74286e01b5103e7d07f46a0f4a0a3a89", "type": "electric_scooter", "is_disabled": 0, "fusion_lon": 0.0}, {"rental_uris": {"android": "https://dc.lft.to/lastmile_qr_scan", "ios": "https://dc.lft.to/lastmile_qr_scan"}, "lon": -77.020744, "name": "f667f0935c76daff02a2673b69e2cf63", "lat": 38.894871, "is_reserved": 0, "fusion_lat": 0.0, "bike_id": "f667f0935c76daff02a2673b69e2cf63", "type": "electric_scooter", "is_disabled": 0, "fusion_lon": 0.0}, {"rental_uris": {"android": "https://dc.lft.to/lastmile_qr_scan", "ios": "https://dc.lft.to/lastmile_qr_scan"}, "lon": -77.00681633333333, "name": "7a159483bb1654f500bb99b64447bb35", "lat": 38.8717395, "is_reserved": 0, "fusion_lat": 0.0, "bike_id": "7a159483bb1654f500bb99b64447bb35", "type": "electric_scooter", "is_disabled": 0, "fusion_lon": 0.0}, {"rental_uris": {"android": "https://dc.lft.to/lastmile_qr_scan", "ios": "https://dc.lft.to/lastmile_qr_scan"}, "lon": -77.02217416666667, "name": "53bfcd5b63a4f76ba27054a70f9d7d5f", "lat": 38.95526383333333, "is_reserved": 0, "fusion_lat": 0.0, "bike_id": "53bfcd5b63a4f76ba27054a70f9d7d5f", "type": "electric_bike", "is_disabled": 0, "fusion_lon": 0.0}, {"rental_uris": {"android": "https://dc.lft.to/lastmile_qr_scan", "ios": "https://dc.lft.to/lastmile_qr_scan"}, "lon": -77.03406866666667, "name": "924232f3c64fb0edba8e4428a1055191", "lat": 38.9226955, "is_reserved": 0, "fusion_lat": 0.0, "bike_id": "924232f3c64fb0edba8e4428a1055191", "type": "electric_scooter", "is_disabled": 0, "fusion_lon": 0.0}, {"rental_uris": {"android": "https://dc.lft.to/lastmile_qr_scan", "ios": "https://dc.lft.to/lastmile_qr_scan"}, "lon": -77.02380033333333, "name": "3bbd7ad9b73a06694aa2079a4fb3d5b7", "lat": 38.9291275, "is_reserved": 0, "fusion_lat": 0.0, "bike_id": "3bbd7ad9b73a06694aa2079a4fb3d5b7", "type": "electric_bike", "is_disabled": 0, "fusion_lon": 0.0}, {"rental_uris": {"android": "https://dc.lft.to/lastmile_qr_scan", "ios": "https://dc.lft.to/lastmile_qr_scan"}, "lon": -77.04211216666667, "name": "bc8d89ef9542d2bd84bf03b7dd34f4b0", "lat": 38.924409833333335, "is_reserved": 0, "fusion_lat": 0.0, "bike_id": "bc8d89ef9542d2bd84bf03b7dd34f4b0", "type": "electric_scooter", "is_disabled": 0, "fusion_lon": 0.0}, {"rental_uris": {"android": "https://dc.lft.to/lastmile_qr_scan", "ios": "https://dc.lft.to/lastmile_qr_scan"}, "lon": -77.04325316666667, "name": "8ecd731f151e0fe104499e03e12ea579", "lat": 38.92249533333333, "is_reserved": 0, "fusion_lat": 0.0, "bike_id": "8ecd731f151e0fe104499e03e12ea579", "type": "electric_scooter", "is_disabled": 0, "fusion_lon": 0.0}, {"rental_uris": {"android": "https://dc.lft.to/lastmile_qr_scan", "ios": "https://dc.lft.to/lastmile_qr_scan"}, "lon": -77.01246516666667, "name": "3a31c10e63352fd9222925e7c0393fe6", "lat": 38.915739, "is_reserved": 0, "fusion_lat": 0.0, "bike_id": "3a31c10e63352fd9222925e7c0393fe6", "type": "electric_scooter", "is_disabled": 0, "fusion_lon": 0.0}, {"rental_uris": {"android": "https://dc.lft.to/lastmile_qr_scan", "ios": "https://dc.lft.to/lastmile_qr_scan"}, "lon": -77.02383466666667, "name": "40e0b3bbe0b78170fccc167bc3d205f0", "lat": 38.8922965, "is_reserved": 0, "fusion_lat": 0.0, "bike_id": "40e0b3bbe0b78170fccc167bc3d205f0", "type": "electric_scooter", "is_disabled": 0, "fusion_lon": 0.0}, {"rental_uris": {"android": "https://dc.lft.to/lastmile_qr_scan", "ios": "https://dc.lft.to/lastmile_qr_scan"}, "lon": -77.01290833333333, "name": "4a0c1954fc3cf1da9f28eccfd144bbc5", "lat": 38.918135, "is_reserved": 0, "fusion_lat": 0.0, "bike_id": "4a0c1954fc3cf1da9f28eccfd144bbc5", "type": "electric_scooter", "is_disabled": 0, "fusion_lon": 0.0}, {"rental_uris": {"android": "https://dc.lft.to/lastmile_qr_scan", "ios": "https://dc.lft.to/lastmile_qr_scan"}, "lon": -77.00917483333333, "name": "79b433914a59c5386d795e15af11886a", "lat": 38.968229666666666, "is_reserved": 0, "fusion_lat": 0.0, "bike_id": "79b433914a59c5386d795e15af11886a", "type": "electric_scooter", "is_disabled": 0, "fusion_lon": 0.0}, {"rental_uris": {"android": "https://dc.lft.to/lastmile_qr_scan", "ios": "https://dc.lft.to/lastmile_qr_scan"}, "lon": -76.99999333333334, "name": "d4519b5c9d934b35a9b119d81964767f", "lat": 38.92388783333333, "is_reserved": 0, "fusion_lat": 0.0, "bike_id": "d4519b5c9d934b35a9b119d81964767f", "type": "electric_bike", "is_disabled": 0, "fusion_lon": 0.0}, {"rental_uris": {"android": "https://dc.lft.to/lastmile_qr_scan", "ios": "https://dc.lft.to/lastmile_qr_scan"}, "lon": -77.04336616666667, "name": "91ef666ec430e2d2c2a12ad659687732", "lat": 38.9142595, "is_reserved": 0, "fusion_lat": 0.0, "bike_id": "91ef666ec430e2d2c2a12ad659687732", "type": "electric_scooter", "is_disabled": 0, "fusion_lon": 0.0}, {"rental_uris": {"android": "https://dc.lft.to/lastmile_qr_scan", "ios": "https://dc.lft.to/lastmile_qr_scan"}, "lon": -77.01611833333334, "name": "acc22787a8d23009e87ed484cf169ffe", "lat": 38.899636666666666, "is_reserved": 0, "fusion_lat": 0.0, "bike_id": "acc22787a8d23009e87ed484cf169ffe", "type": "electric_scooter", "is_disabled": 0, "fusion_lon": 0.0}, {"rental_uris": {"android": "https://dc.lft.to/lastmile_qr_scan", "ios": "https://dc.lft.to/lastmile_qr_scan"}, "lon": -77.03392666666667, "name": "6de66fad05a7fcabe0ed3a6f91897149", "lat": 38.93871683333333, "is_reserved": 0, "fusion_lat": 0.0, "bike_id": "6de66fad05a7fcabe0ed3a6f91897149", "type": "electric_bike", "is_disabled": 0, "fusion_lon": 0.0}, {"rental_uris": {"android": "https://dc.lft.to/lastmile_qr_scan", "ios": "https://dc.lft.to/lastmile_qr_scan"}, "lon": -77.02357116666667, "name": "ed5fc76a059a212dd620cc4e5d472779", "lat": 38.9021485, "is_reserved": 0, "fusion_lat": 0.0, "bike_id": "ed5fc76a059a212dd620cc4e5d472779", "type": "electric_scooter", "is_disabled": 0, "fusion_lon": 0.0}, {"rental_uris": {"android": "https://dc.lft.to/lastmile_qr_scan", "ios": "https://dc.lft.to/lastmile_qr_scan"}, "lon": -77.04619, "name": "b8a7cc549baa86eabd601dcdbf35a241", "lat": 38.906664, "is_reserved": 0, "fusion_lat": 0.0, "bike_id": "b8a7cc549baa86eabd601dcdbf35a241", "type": "electric_scooter", "is_disabled": 0, "fusion_lon": 0.0}, {"rental_uris": {"android": "https://dc.lft.to/lastmile_qr_scan", "ios": "https://dc.lft.to/lastmile_qr_scan"}, "lon": -77.0317755, "name": "d0e7222c4094c9c270f5e5980dd688cd", "lat": 38.919392333333334, "is_reserved": 0, "fusion_lat": 0.0, "bike_id": "d0e7222c4094c9c270f5e5980dd688cd", "type": "electric_scooter", "is_disabled": 0, "fusion_lon": 0.0}, {"rental_uris": {"android": "https://dc.lft.to/lastmile_qr_scan", "ios": "https://dc.lft.to/lastmile_qr_scan"}, "lon": -77.0279235, "name": "bcca038e269f03cb59654ef09cf19681", "lat": 38.960476666666665, "is_reserved": 0, "fusion_lat": 0.0, "bike_id": "bcca038e269f03cb59654ef09cf19681", "type": "electric_scooter", "is_disabled": 0, "fusion_lon": 0.0}, {"rental_uris": {"android": "https://dc.lft.to/lastmile_qr_scan", "ios": "https://dc.lft.to/lastmile_qr_scan"}, "lon": -77.02827783333333, "name": "ae3acdb7ad216111669a529b4fe1e29b", "lat": 38.88733533333333, "is_reserved": 0, "fusion_lat": 0.0, "bike_id": "ae3acdb7ad216111669a529b4fe1e29b", "type": "electric_scooter", "is_disabled": 0, "fusion_lon": 0.0}, {"rental_uris": {"android": "https://dc.lft.to/lastmile_qr_scan", "ios": "https://dc.lft.to/lastmile_qr_scan"}, "lon": -77.01626533333334, "name": "adf8a14e4223492d3af5f6d47e874981", "lat": 38.901021666666665, "is_reserved": 0, "fusion_lat": 0.0, "bike_id": "adf8a14e4223492d3af5f6d47e874981", "type": "electric_scooter", "is_disabled": 0, "fusion_lon": 0.0}, {"rental_uris": {"android": "https://dc.lft.to/lastmile_qr_scan", "ios": "https://dc.lft.to/lastmile_qr_scan"}, "lon": -77.02191516666667, "name": "ff9b913fd83d8dbcc2cfbbe1af868b32", "lat": 38.91135633333333, "is_reserved": 0, "fusion_lat": 0.0, "bike_id": "ff9b913fd83d8dbcc2cfbbe1af868b32", "type": "electric_scooter", "is_disabled": 0, "fusion_lon": 0.0}, {"rental_uris": {"android": "https://dc.lft.to/lastmile_qr_scan", "ios": "https://dc.lft.to/lastmile_qr_scan"}, "lon": -77.02698066666666, "name": "3a350bef21d8346afbc736c515bd675c", "lat": 38.93637983333333, "is_reserved": 0, "fusion_lat": 0.0, "bike_id": "3a350bef21d8346afbc736c515bd675c", "type": "electric_scooter", "is_disabled": 0, "fusion_lon": 0.0}, {"rental_uris": {"android": "https://dc.lft.to/lastmile_qr_scan", "ios": "https://dc.lft.to/lastmile_qr_scan"}, "lon": -77.01598833333334, "name": "9f973d35eab17f2d692950d1f666bcb8", "lat": 38.89967216666667, "is_reserved": 0, "fusion_lat": 0.0, "bike_id": "9f973d35eab17f2d692950d1f666bcb8", "type": "electric_scooter", "is_disabled": 0, "fusion_lon": 0.0}, {"rental_uris": {"android": "https://dc.lft.to/lastmile_qr_scan", "ios": "https://dc.lft.to/lastmile_qr_scan"}, "lon": -77.03625766666667, "name": "ba4826be834ef338278a8310a761ae83", "lat": 38.9367855, "is_reserved": 0, "fusion_lat": 0.0, "bike_id": "ba4826be834ef338278a8310a761ae83", "type": "electric_scooter", "is_disabled": 0, "fusion_lon": 0.0}, {"rental_uris": {"android": "https://dc.lft.to/lastmile_qr_scan", "ios": "https://dc.lft.to/lastmile_qr_scan"}, "lon": -77.035766, "name": "74a190eb86ffdfb10131ce31a74708cc", "lat": 38.90152766666667, "is_reserved": 0, "fusion_lat": 0.0, "bike_id": "74a190eb86ffdfb10131ce31a74708cc", "type": "electric_scooter", "is_disabled": 0, "fusion_lon": 0.0}, {"rental_uris": {"android": "https://dc.lft.to/lastmile_qr_scan", "ios": "https://dc.lft.to/lastmile_qr_scan"}, "lon": -77.02087666666667, "name": "241e69fb9285ca9529959bffce02c6c2", "lat": 38.90207266666667, "is_reserved": 0, "fusion_lat": 0.0, "bike_id": "241e69fb9285ca9529959bffce02c6c2", "type": "electric_scooter", "is_disabled": 0, "fusion_lon": 0.0}, {"rental_uris": {"android": "https://dc.lft.to/lastmile_qr_scan", "ios": "https://dc.lft.to/lastmile_qr_scan"}, "lon": -77.054665, "name": "e6ae7e84d0eebbb98c214fcbbe677448", "lat": 38.908652333333336, "is_reserved": 0, "fusion_lat": 0.0, "bike_id": "e6ae7e84d0eebbb98c214fcbbe677448", "type": "electric_scooter", "is_disabled": 0, "fusion_lon": 0.0}, {"rental_uris": {"android": "https://dc.lft.to/lastmile_qr_scan", "ios": "https://dc.lft.to/lastmile_qr_scan"}, "lon": -77.00406633333333, "name": "f822f73ab3881cd8fa7249fc0e11ee87", "lat": 38.877083, "is_reserved": 0, "fusion_lat": 0.0, "bike_id": "f822f73ab3881cd8fa7249fc0e11ee87", "type": "electric_scooter", "is_disabled": 0, "fusion_lon": 0.0}, {"rental_uris": {"android": "https://dc.lft.to/lastmile_qr_scan", "ios": "https://dc.lft.to/lastmile_qr_scan"}, "lon": -77.00916516666666, "name": "7c98ab0e835d3f24dec4f2633fbc4b75", "lat": 38.89634366666667, "is_reserved": 0, "fusion_lat": 0.0, "bike_id": "7c98ab0e835d3f24dec4f2633fbc4b75", "type": "electric_scooter", "is_disabled": 0, "fusion_lon": 0.0}, {"rental_uris": {"android": "https://dc.lft.to/lastmile_qr_scan", "ios": "https://dc.lft.to/lastmile_qr_scan"}, "lon": -77.00538616666667, "name": "b56a44c015c0685b63255074704608f5", "lat": 38.9126335, "is_reserved": 0, "fusion_lat": 0.0, "bike_id": "b56a44c015c0685b63255074704608f5", "type": "electric_scooter", "is_disabled": 0, "fusion_lon": 0.0}, {"rental_uris": {"android": "https://dc.lft.to/lastmile_qr_scan", "ios": "https://dc.lft.to/lastmile_qr_scan"}, "lon": -77.09160533333333, "name": "f1c0c0198d77819290d01e0e132a7f08", "lat": 38.93961216666667, "is_reserved": 0, "fusion_lat": 0.0, "bike_id": "f1c0c0198d77819290d01e0e132a7f08", "type": "electric_scooter", "is_disabled": 0, "fusion_lon": 0.0}, {"rental_uris": {"android": "https://dc.lft.to/lastmile_qr_scan", "ios": "https://dc.lft.to/lastmile_qr_scan"}, "lon": -77.03572766666667, "name": "ef9065fddb5117844c407d7cb6d35730", "lat": 38.90967766666667, "is_reserved": 0, "fusion_lat": 0.0, "bike_id": "ef9065fddb5117844c407d7cb6d35730", "type": "electric_scooter", "is_disabled": 0, "fusion_lon": 0.0}, {"rental_uris": {"android": "https://dc.lft.to/lastmile_qr_scan", "ios": "https://dc.lft.to/lastmile_qr_scan"}, "lon": -77.05159616666667, "name": "4aaf0353c60470dd07c7dcb7ae743ef3", "lat": 38.897517, "is_reserved": 0, "fusion_lat": 0.0, "bike_id": "4aaf0353c60470dd07c7dcb7ae743ef3", "type": "electric_scooter", "is_disabled": 0, "fusion_lon": 0.0}, {"rental_uris": {"android": "https://dc.lft.to/lastmile_qr_scan", "ios": "https://dc.lft.to/lastmile_qr_scan"}, "lon": -76.9797135, "name": "dda121b8b00d0df10fd2cbb31af3df2e", "lat": 38.89740533333333, "is_reserved": 0, "fusion_lat": 0.0, "bike_id": "dda121b8b00d0df10fd2cbb31af3df2e", "type": "electric_scooter", "is_disabled": 0, "fusion_lon": 0.0}, {"rental_uris": {"android": "https://dc.lft.to/lastmile_qr_scan", "ios": "https://dc.lft.to/lastmile_qr_scan"}, "lon": -76.98572416666667, "name": "e85305bd100eb9dddd45bceb9cbd8508", "lat": 38.866835333333334, "is_reserved": 0, "fusion_lat": 0.0, "bike_id": "e85305bd100eb9dddd45bceb9cbd8508", "type": "electric_scooter", "is_disabled": 0, "fusion_lon": 0.0}, {"rental_uris": {"android": "https://dc.lft.to/lastmile_qr_scan", "ios": "https://dc.lft.to/lastmile_qr_scan"}, "lon": -77.0451275, "name": "1526d8455cc8d2be439078982e7bd919", "lat": 38.892223333333334, "is_reserved": 0, "fusion_lat": 0.0, "bike_id": "1526d8455cc8d2be439078982e7bd919", "type": "electric_scooter", "is_disabled": 0, "fusion_lon": 0.0}, {"rental_uris": {"android": "https://dc.lft.to/lastmile_qr_scan", "ios": "https://dc.lft.to/lastmile_qr_scan"}, "lon": -77.0327905, "name": "c4cb4772bd555ef278c333739bb63009", "lat": 38.94090633333333, "is_reserved": 0, "fusion_lat": 0.0, "bike_id": "c4cb4772bd555ef278c333739bb63009", "type": "electric_scooter", "is_disabled": 0, "fusion_lon": 0.0}, {"rental_uris": {"android": "https://dc.lft.to/lastmile_qr_scan", "ios": "https://dc.lft.to/lastmile_qr_scan"}, "lon": -77.02487983333333, "name": "38425d169f33d753faf6e7467350a9a9", "lat": 38.9389055, "is_reserved": 0, "fusion_lat": 0.0, "bike_id": "38425d169f33d753faf6e7467350a9a9", "type": "electric_scooter", "is_disabled": 0, "fusion_lon": 0.0}, {"rental_uris": {"android": "https://dc.lft.to/lastmile_qr_scan", "ios": "https://dc.lft.to/lastmile_qr_scan"}, "lon": -77.00115166666667, "name": "13fb83b6e3dd288296f103b90e0fcdf4", "lat": 38.900141166666664, "is_reserved": 0, "fusion_lat": 0.0, "bike_id": "13fb83b6e3dd288296f103b90e0fcdf4", "type": "electric_scooter", "is_disabled": 0, "fusion_lon": 0.0}, {"rental_uris": {"android": "https://dc.lft.to/lastmile_qr_scan", "ios": "https://dc.lft.to/lastmile_qr_scan"}, "lon": -77.031648, "name": "b7277bf8943ff6bb7b241c601399f183", "lat": 38.8983635, "is_reserved": 0, "fusion_lat": 0.0, "bike_id": "b7277bf8943ff6bb7b241c601399f183", "type": "electric_scooter", "is_disabled": 0, "fusion_lon": 0.0}, {"rental_uris": {"android": "https://dc.lft.to/lastmile_qr_scan", "ios": "https://dc.lft.to/lastmile_qr_scan"}, "lon": -76.97538083333333, "name": "fdbaa59218bc8c258694b153adb1ef23", "lat": 38.90327666666666, "is_reserved": 0, "fusion_lat": 0.0, "bike_id": "fdbaa59218bc8c258694b153adb1ef23", "type": "electric_scooter", "is_disabled": 0, "fusion_lon": 0.0}, {"rental_uris": {"android": "https://dc.lft.to/lastmile_qr_scan", "ios": "https://dc.lft.to/lastmile_qr_scan"}, "lon": -76.98244716666666, "name": "6956b5ab9456350065f53c96bc443c06", "lat": 38.899852333333335, "is_reserved": 0, "fusion_lat": 0.0, "bike_id": "6956b5ab9456350065f53c96bc443c06", "type": "electric_scooter", "is_disabled": 0, "fusion_lon": 0.0}, {"rental_uris": {"android": "https://dc.lft.to/lastmile_qr_scan", "ios": "https://dc.lft.to/lastmile_qr_scan"}, "lon": -77.0640265, "name": "839ffb161b369da6a8270195f2a36caf", "lat": 38.843478833333336, "is_reserved": 0, "fusion_lat": 0.0, "bike_id": "839ffb161b369da6a8270195f2a36caf", "type": "electric_bike", "is_disabled": 0, "fusion_lon": 0.0}, {"rental_uris": {"android": "https://dc.lft.to/lastmile_qr_scan", "ios": "https://dc.lft.to/lastmile_qr_scan"}, "lon": -77.0113935, "name": "df97a63f981051d8c91be2e3319fa3c2", "lat": 38.9002885, "is_reserved": 0, "fusion_lat": 0.0, "bike_id": "df97a63f981051d8c91be2e3319fa3c2", "type": "electric_scooter", "is_disabled": 0, "fusion_lon": 0.0}, {"rental_uris": {"android": "https://dc.lft.to/lastmile_qr_scan", "ios": "https://dc.lft.to/lastmile_qr_scan"}, "lon": -77.0682525, "name": "4d18e466ecdf6aad68ba2ff47ca3a1af", "lat": 38.91802766666667, "is_reserved": 0, "fusion_lat": 0.0, "bike_id": "4d18e466ecdf6aad68ba2ff47ca3a1af", "type": "electric_scooter", "is_disabled": 0, "fusion_lon": 0.0}, {"rental_uris": {"android": "https://dc.lft.to/lastmile_qr_scan", "ios": "https://dc.lft.to/lastmile_qr_scan"}, "lon": -77.0248785, "name": "7f468de4d709d7a37198251f277bdbe3", "lat": 38.941851, "is_reserved": 0, "fusion_lat": 0.0, "bike_id": "7f468de4d709d7a37198251f277bdbe3", "type": "electric_scooter", "is_disabled": 0, "fusion_lon": 0.0}, {"rental_uris": {"android": "https://dc.lft.to/lastmile_qr_scan", "ios": "https://dc.lft.to/lastmile_qr_scan"}, "lon": -76.990313, "name": "25a8bf0b2f233e4ca50657b4d78740c6", "lat": 38.938790166666664, "is_reserved": 0, "fusion_lat": 0.0, "bike_id": "25a8bf0b2f233e4ca50657b4d78740c6", "type": "electric_bike", "is_disabled": 0, "fusion_lon": 0.0}, {"rental_uris": {"android": "https://dc.lft.to/lastmile_qr_scan", "ios": "https://dc.lft.to/lastmile_qr_scan"}, "lon": -77.02280216666666, "name": "0f29ea53d2c505a72c4662a75e07056f", "lat": 38.916534166666665, "is_reserved": 0, "fusion_lat": 0.0, "bike_id": "0f29ea53d2c505a72c4662a75e07056f", "type": "electric_scooter", "is_disabled": 0, "fusion_lon": 0.0}, {"rental_uris": {"android": "https://dc.lft.to/lastmile_qr_scan", "ios": "https://dc.lft.to/lastmile_qr_scan"}, "lon": -77.02477266666666, "name": "d5e3f2abef4c2cf366eef61e3cc208f3", "lat": 38.918175166666664, "is_reserved": 0, "fusion_lat": 0.0, "bike_id": "d5e3f2abef4c2cf366eef61e3cc208f3", "type": "electric_scooter", "is_disabled": 0, "fusion_lon": 0.0}, {"rental_uris": {"android": "https://dc.lft.to/lastmile_qr_scan", "ios": "https://dc.lft.to/lastmile_qr_scan"}, "lon": -77.03261983333333, "name": "24f2fcffa26595376b72f532be50ad18", "lat": 38.93568166666667, "is_reserved": 0, "fusion_lat": 0.0, "bike_id": "24f2fcffa26595376b72f532be50ad18", "type": "electric_scooter", "is_disabled": 0, "fusion_lon": 0.0}, {"rental_uris": {"android": "https://dc.lft.to/lastmile_qr_scan", "ios": "https://dc.lft.to/lastmile_qr_scan"}, "lon": -77.04996216666666, "name": "c0e9f95ce326aaa3747be32bab52eb45", "lat": 38.816958166666666, "is_reserved": 0, "fusion_lat": 0.0, "bike_id": "c0e9f95ce326aaa3747be32bab52eb45", "type": "electric_bike", "is_disabled": 0, "fusion_lon": 0.0}, {"rental_uris": {"android": "https://dc.lft.to/lastmile_qr_scan", "ios": "https://dc.lft.to/lastmile_qr_scan"}, "lon": -77.04042183333334, "name": "478874f93212b8b36982c567f1a63ffe", "lat": 38.924623833333335, "is_reserved": 0, "fusion_lat": 0.0, "bike_id": "478874f93212b8b36982c567f1a63ffe", "type": "electric_scooter", "is_disabled": 0, "fusion_lon": 0.0}, {"rental_uris": {"android": "https://dc.lft.to/lastmile_qr_scan", "ios": "https://dc.lft.to/lastmile_qr_scan"}, "lon": -77.13305333333334, "name": "914e7c57f293c6cb788268307c7a14c6", "lat": 38.88721316666667, "is_reserved": 0, "fusion_lat": 0.0, "bike_id": "914e7c57f293c6cb788268307c7a14c6", "type": "electric_bike", "is_disabled": 0, "fusion_lon": 0.0}, {"rental_uris": {"android": "https://dc.lft.to/lastmile_qr_scan", "ios": "https://dc.lft.to/lastmile_qr_scan"}, "lon": -76.928851, "name": "0184c5ba37c871154b822b5f6ca211bb", "lat": 38.883689333333336, "is_reserved": 0, "fusion_lat": 0.0, "bike_id": "0184c5ba37c871154b822b5f6ca211bb", "type": "electric_scooter", "is_disabled": 0, "fusion_lon": 0.0}, {"rental_uris": {"android": "https://dc.lft.to/lastmile_qr_scan", "ios": "https://dc.lft.to/lastmile_qr_scan"}, "lon": -77.0226185, "name": "b4b1f14edd50a32494f9d1c697657ea5", "lat": 38.9273635, "is_reserved": 0, "fusion_lat": 0.0, "bike_id": "b4b1f14edd50a32494f9d1c697657ea5", "type": "electric_scooter", "is_disabled": 0, "fusion_lon": 0.0}, {"rental_uris": {"android": "https://dc.lft.to/lastmile_qr_scan", "ios": "https://dc.lft.to/lastmile_qr_scan"}, "lon": -77.01407916666666, "name": "e55aeb00bf6235da628a235234a0c524", "lat": 38.9281125, "is_reserved": 0, "fusion_lat": 0.0, "bike_id": "e55aeb00bf6235da628a235234a0c524", "type": "electric_scooter", "is_disabled": 0, "fusion_lon": 0.0}, {"rental_uris": {"android": "https://dc.lft.to/lastmile_qr_scan", "ios": "https://dc.lft.to/lastmile_qr_scan"}, "lon": -77.02738583333333, "name": "d5965bccfd16e841aa083fe4d0dc97af", "lat": 38.927709166666666, "is_reserved": 0, "fusion_lat": 0.0, "bike_id": "d5965bccfd16e841aa083fe4d0dc97af", "type": "electric_scooter", "is_disabled": 0, "fusion_lon": 0.0}, {"rental_uris": {"android": "https://dc.lft.to/lastmile_qr_scan", "ios": "https://dc.lft.to/lastmile_qr_scan"}, "lon": -76.95076016666667, "name": "3f8f6c31733c661f983e711c15338336", "lat": 38.905220166666666, "is_reserved": 0, "fusion_lat": 0.0, "bike_id": "3f8f6c31733c661f983e711c15338336", "type": "electric_scooter", "is_disabled": 0, "fusion_lon": 0.0}, {"rental_uris": {"android": "https://dc.lft.to/lastmile_qr_scan", "ios": "https://dc.lft.to/lastmile_qr_scan"}, "lon": -77.042179, "name": "de50e95f7c8af487a247fceae20d4ba6", "lat": 38.92154583333333, "is_reserved": 0, "fusion_lat": 0.0, "bike_id": "de50e95f7c8af487a247fceae20d4ba6", "type": "electric_scooter", "is_disabled": 0, "fusion_lon": 0.0}, {"rental_uris": {"android": "https://dc.lft.to/lastmile_qr_scan", "ios": "https://dc.lft.to/lastmile_qr_scan"}, "lon": -76.99406466666667, "name": "f07635cd0a276c6c1eea5439c6a7dad2", "lat": 38.921768, "is_reserved": 0, "fusion_lat": 0.0, "bike_id": "f07635cd0a276c6c1eea5439c6a7dad2", "type": "electric_bike", "is_disabled": 0, "fusion_lon": 0.0}, {"rental_uris": {"android": "https://dc.lft.to/lastmile_qr_scan", "ios": "https://dc.lft.to/lastmile_qr_scan"}, "lon": -77.02812166666666, "name": "1bc8a7d68d6726b3d47bcabf1b63ff30", "lat": 38.917549, "is_reserved": 0, "fusion_lat": 0.0, "bike_id": "1bc8a7d68d6726b3d47bcabf1b63ff30", "type": "electric_scooter", "is_disabled": 0, "fusion_lon": 0.0}, {"rental_uris": {"android": "https://dc.lft.to/lastmile_qr_scan", "ios": "https://dc.lft.to/lastmile_qr_scan"}, "lon": -77.01965366666667, "name": "51a1774ec11027b8f60cd06a02fdd653", "lat": 38.89898566666667, "is_reserved": 0, "fusion_lat": 0.0, "bike_id": "51a1774ec11027b8f60cd06a02fdd653", "type": "electric_scooter", "is_disabled": 0, "fusion_lon": 0.0}, {"rental_uris": {"android": "https://dc.lft.to/lastmile_qr_scan", "ios": "https://dc.lft.to/lastmile_qr_scan"}, "lon": -77.04498866666667, "name": "d468a6edccd907d31f0d160640483dfe", "lat": 38.91107683333333, "is_reserved": 0, "fusion_lat": 0.0, "bike_id": "d468a6edccd907d31f0d160640483dfe", "type": "electric_scooter", "is_disabled": 0, "fusion_lon": 0.0}, {"rental_uris": {"android": "https://dc.lft.to/lastmile_qr_scan", "ios": "https://dc.lft.to/lastmile_qr_scan"}, "lon": -77.02530566666667, "name": "6401cfe9cc6d113ab406d2956c76033e", "lat": 38.906269, "is_reserved": 0, "fusion_lat": 0.0, "bike_id": "6401cfe9cc6d113ab406d2956c76033e", "type": "electric_scooter", "is_disabled": 0, "fusion_lon": 0.0}, {"rental_uris": {"android": "https://dc.lft.to/lastmile_qr_scan", "ios": "https://dc.lft.to/lastmile_qr_scan"}, "lon": -77.0270075, "name": "186f1ad142ba318eb07fcd9712dafcdc", "lat": 38.9035405, "is_reserved": 0, "fusion_lat": 0.0, "bike_id": "186f1ad142ba318eb07fcd9712dafcdc", "type": "electric_scooter", "is_disabled": 0, "fusion_lon": 0.0}, {"rental_uris": {"android": "https://dc.lft.to/lastmile_qr_scan", "ios": "https://dc.lft.to/lastmile_qr_scan"}, "lon": -76.98532333333333, "name": "815f8b947e88167c71307a0b4e6b360a", "lat": 38.9041475, "is_reserved": 0, "fusion_lat": 0.0, "bike_id": "815f8b947e88167c71307a0b4e6b360a", "type": "electric_scooter", "is_disabled": 0, "fusion_lon": 0.0}, {"rental_uris": {"android": "https://dc.lft.to/lastmile_qr_scan", "ios": "https://dc.lft.to/lastmile_qr_scan"}, "lon": -77.02196333333333, "name": "2348d5d88062a26e96c532768a164c40", "lat": 38.90148133333334, "is_reserved": 0, "fusion_lat": 0.0, "bike_id": "2348d5d88062a26e96c532768a164c40", "type": "electric_scooter", "is_disabled": 0, "fusion_lon": 0.0}, {"rental_uris": {"android": "https://dc.lft.to/lastmile_qr_scan", "ios": "https://dc.lft.to/lastmile_qr_scan"}, "lon": -77.04151666666667, "name": "cab2dfb681ada75b9f683e1a23c03f48", "lat": 38.91713933333333, "is_reserved": 0, "fusion_lat": 0.0, "bike_id": "cab2dfb681ada75b9f683e1a23c03f48", "type": "electric_scooter", "is_disabled": 0, "fusion_lon": 0.0}, {"rental_uris": {"android": "https://dc.lft.to/lastmile_qr_scan", "ios": "https://dc.lft.to/lastmile_qr_scan"}, "lon": -77.0323065, "name": "c02e556e5714e3c641834cd38c4d451d", "lat": 38.937058, "is_reserved": 0, "fusion_lat": 0.0, "bike_id": "c02e556e5714e3c641834cd38c4d451d", "type": "electric_scooter", "is_disabled": 0, "fusion_lon": 0.0}, {"rental_uris": {"android": "https://dc.lft.to/lastmile_qr_scan", "ios": "https://dc.lft.to/lastmile_qr_scan"},