{"data": {"bikes": [{"rental_uris": {"android": "https://dc.lft.to/lastmile_qr_scan", "ios": "https://dc.lft.to/lastmile_qr_scan"}, "fusion_lat": 0.0, "is_reserved": 0, "lat": 38.942189, "name": "d41131abe1411f0af26c53fcffe62281", "bike_id": "d41131abe1411f0af26c53fcffe62281", "is_disabled": 0, "fusion_lon": 0.0, "type": "electric_bike", "lon": -76.9612795}, {"rental_uris": {"android": "https://dc.lft.to/lastmile_qr_scan", "ios": "https://dc.lft.to/lastmile_qr_scan"}, "fusion_lat": 0.0, "is_reserved": 0, "lat": 38.95746916666667, "name": "e6a51fa747d6c54b93c6434676dab6fd", "bike_id": "e6a51fa747d6c54b93c6434676dab6fd", "is_disabled": 0, "fusion_lon": 0.0, "type": "electric_scooter", "lon": -77.02072983333333}, {"rental_uris": {"android": "https://dc.lft.to/lastmile_qr_scan", "ios": "https://dc.lft.to/lastmile_qr_scan"}, "fusion_lat": 0.0, "is_reserved": 0, "lat": 38.91837483333333, "name": "dd3c00f78746a3906b88cec3b6ba62f8", "bike_id": "dd3c00f78746a3906b88cec3b6ba62f8", "is_disabled": 0, "fusion_lon": 0.0, "type": "electric_scooter", "lon": -77.03523333333334}, {"rental_uris": {"android": "https://dc.lft.to/lastmile_qr_scan", "ios": "https://dc.lft.to/lastmile_qr_scan"}, "fusion_lat": 0.0, "is_reserved": 0, "lat": 38.8961185, "name": "a72dc3b2a0d6ab870d89bd06be514489", "bike_id": "a72dc3b2a0d6ab870d89bd06be514489", "is_disabled": 0, "fusion_lon": 0.0, "type": "electric_scooter", "lon": -76.92974316666667}, {"rental_uris": {"android": "https://dc.lft.to/lastmile_qr_scan", "ios": "https://dc.lft.to/lastmile_qr_scan"}, "fusion_lat": 0.0, "is_reserved": 0, "lat": 38.90371916666667, "name": "425a9e97a0089b643e3c11ae5d76b12d", "bike_id": "425a9e97a0089b643e3c11ae5d76b12d", "is_disabled": 0, "fusion_lon": 0.0, "type": "electric_scooter", "lon": -77.01736166666667}, {"rental_uris": {"android": "https://dc.lft.to/lastmile_qr_scan", "ios": "https://dc.lft.to/lastmile_qr_scan"}, "fusion_lat": 0.0, "is_reserved": 0, "lat": 38.912555, "name": "e9c5e4b7b9f662125657d82599911dbd", "bike_id": "e9c5e4b7b9f662125657d82599911dbd", "is_disabled": 0, "fusion_lon": 0.0, "type": "electric_scooter", "lon": -77.03868766666666}, {"rental_uris": {"android": "https://dc.lft.to/lastmile_qr_scan", "ios": "https://dc.lft.to/lastmile_qr_scan"}, "fusion_lat": 0.0, "is_reserved": 0, "lat": 38.91570683333333, "name": "e67c9aa96e2b08d6368d4a289be420a4", "bike_id": "e67c9aa96e2b08d6368d4a289be420a4", "is_disabled": 0, "fusion_lon": 0.0, "type": "electric_scooter", "lon": -77.0189045}, {"rental_uris": {"android": "https://dc.lft.to/lastmile_qr_scan", "ios": "https://dc.lft.to/lastmile_qr_scan"}, "fusion_lat": 0.0, "is_reserved": 0, "lat": 38.903715, "name": "bf76778d8d3aa44176a2039c8ca24083", "bike_id": "bf76778d8d3aa44176a2039c8ca24083", "is_disabled": 0, "fusion_lon": 0.0, "type": "electric_scooter", "lon": -77.02519216666667}, {"rental_uris": {"android": "https://dc.lft.to/lastmile_qr_scan", "ios": "https://dc.lft.to/lastmile_qr_scan"}, "fusion_lat": 0.0, "is_reserved": 0, "lat": 38.880735, "name": "c29995a0c9a38de5f67b7f7f746112a3", "bike_id": "c29995a0c9a38de5f67b7f7f746112a3", "is_disabled": 0, "fusion_lon": 0.0, "type": "electric_scooter", "lon": -77.03722416666666}, {"rental_uris": {"android": "https://dc.lft.to/lastmile_qr_scan", "ios": "https://dc.lft.to/lastmile_qr_scan"}, "fusion_lat": 0.0, "is_reserved": 0, "lat": 38.88140816666667, "name": "6595d5d6384b144c9e645124883ef229", "bike_id": "6595d5d6384b144c9e645124883ef229", "is_disabled": 0, "fusion_lon": 0.0, "type": "electric_scooter", "lon": -77.017698}, {"rental_uris": {"android": "https://dc.lft.to/lastmile_qr_scan", "ios": "https://dc.lft.to/lastmile_qr_scan"}, "fusion_lat": 0.0, "is_reserved": 0, "lat": 38.924823, "name": "6643a3733f2a52bc086e29ffab0b7ad1", "bike_id": "6643a3733f2a52bc086e29ffab0b7ad1", "is_disabled": 0, "fusion_lon": 0.0, "type": "electric_scooter", "lon": -77.0521405}, {"rental_uris": {"android": "https://dc.lft.to/lastmile_qr_scan", "ios": "https://dc.lft.to/lastmile_qr_scan"}, "fusion_lat": 0.0, "is_reserved": 0, "lat": 38.92152516666667, "name": "fe63fa002d82dace1f814d2f587a09b1", "bike_id": "fe63fa002d82dace1f814d2f587a09b1", "is_disabled": 0, "fusion_lon": 0.0, "type": "electric_scooter", "lon": -77.03388633333333}, {"rental_uris": {"android": "https://dc.lft.to/lastmile_qr_scan", "ios": "https://dc.lft.to/lastmile_qr_scan"}, "fusion_lat": 0.0, "is_reserved": 0, "lat": 38.89930183333333, "name": "c3e42aac42fe32b66a283d0fe89494d2", "bike_id": "c3e42aac42fe32b66a283d0fe89494d2", "is_disabled": 0, "fusion_lon": 0.0, "type": "electric_bike", "lon": -77.001634}, {"rental_uris": {"android": "https://dc.lft.to/lastmile_qr_scan", "ios": "https://dc.lft.to/lastmile_qr_scan"}, "fusion_lat": 0.0, "is_reserved": 0, "lat": 38.89360883333333, "name": "7b0a86902c2a3cba7c011eaa008cf952", "bike_id": "7b0a86902c2a3cba7c011eaa008cf952", "is_disabled": 0, "fusion_lon": 0.0, "type": "electric_scooter", "lon": -76.98459716666666}, {"rental_uris": {"android": "https://dc.lft.to/lastmile_qr_scan", "ios": "https://dc.lft.to/lastmile_qr_scan"}, "fusion_lat": 0.0, "is_reserved": 0, "lat": 38.907839, "name": "a5fd7e75475bd9c2c7a6d7b97bf80415", "bike_id": "a5fd7e75475bd9c2c7a6d7b97bf80415", "is_disabled": 0, "fusion_lon": 0.0, "type": "electric_scooter", "lon": -77.0305915}, {"rental_uris": {"android": "https://dc.lft.to/lastmile_qr_scan", "ios": "https://dc.lft.to/lastmile_qr_scan"}, "fusion_lat": 0.0, "is_reserved": 0, "lat": 38.9158235, "name": "f1b515e1cfc241a64dbbc7e1c01dbdcb", "bike_id": "f1b515e1cfc241a64dbbc7e1c01dbdcb", "is_disabled": 0, "fusion_lon": 0.0, "type": "electric_scooter", "lon": -77.01229616666667}, {"rental_uris": {"android": "https://dc.lft.to/lastmile_qr_scan", "ios": "https://dc.lft.to/lastmile_qr_scan"}, "fusion_lat": 0.0, "is_reserved": 0, "lat": 38.899918166666666, "name": "aec36b63337fe940466b21b9e1ed8cc4", "bike_id": "aec36b63337fe940466b21b9e1ed8cc4", "is_disabled": 0, "fusion_lon": 0.0, "type": "electric_scooter", "lon": -77.00057533333333}, {"rental_uris": {"android": "https://dc.lft.to/lastmile_qr_scan", "ios": "https://dc.lft.to/lastmile_qr_scan"}, "fusion_lat": 0.0, "is_reserved": 0, "lat": 38.908345, "name": "f657b50ccb420419cfa91c70891683fc", "bike_id": "f657b50ccb420419cfa91c70891683fc", "is_disabled": 0, "fusion_lon": 0.0, "type": "electric_scooter", "lon": -76.99701}, {"rental_uris": {"android": "https://dc.lft.to/lastmile_qr_scan", "ios": "https://dc.lft.to/lastmile_qr_scan"}, "fusion_lat": 0.0, "is_reserved": 0, "lat": 38.91177233333333, "name": "222c2239aa379dcac8f4b5ca6c1060e8", "bike_id": "222c2239aa379dcac8f4b5ca6c1060e8", "is_disabled": 0, "fusion_lon": 0.0, "type": "electric_scooter", "lon": -77.00449566666667}, {"rental_uris": {"android": "https://dc.lft.to/lastmile_qr_scan", "ios": "https://dc.lft.to/lastmile_qr_scan"}, "fusion_lat": 0.0, "is_reserved": 0, "lat": 38.89612616666667, "name": "84cbd535c4af8e3793ec8ce6e8788713", "bike_id": "84cbd535c4af8e3793ec8ce6e8788713", "is_disabled": 0, "fusion_lon": 0.0, "type": "electric_scooter", "lon": -76.97685266666667}, {"rental_uris": {"android": "https://dc.lft.to/lastmile_qr_scan", "ios": "https://dc.lft.to/lastmile_qr_scan"}, "fusion_lat": 0.0, "is_reserved": 0, "lat": 38.902441, "name": "87e4b32cf1f96f9f650cba1aeb679f8c", "bike_id": "87e4b32cf1f96f9f650cba1aeb679f8c", "is_disabled": 0, "fusion_lon": 0.0, "type": "electric_scooter", "lon": -77.0018955}, {"rental_uris": {"android": "https://dc.lft.to/lastmile_qr_scan", "ios": "https://dc.lft.to/lastmile_qr_scan"}, "fusion_lat": 0.0, "is_reserved": 0, "lat": 38.909031, "name": "5cf5e970b5bab7f2c7e7e9b5d42a8e6d", "bike_id": "5cf5e970b5bab7f2c7e7e9b5d42a8e6d", "is_disabled": 0, "fusion_lon": 0.0, "type": "electric_scooter", "lon": -76.99119166666667}, {"rental_uris": {"android": "https://dc.lft.to/lastmile_qr_scan", "ios": "https://dc.lft.to/lastmile_qr_scan"}, "fusion_lat": 0.0, "is_reserved": 0, "lat": 38.91704883333333, "name": "e46f86284b7882e51ed361e1fd9c8607", "bike_id": "e46f86284b7882e51ed361e1fd9c8607", "is_disabled": 0, "fusion_lon": 0.0, "type": "electric_scooter", "lon": -77.02287516666667}, {"rental_uris": {"android": "https://dc.lft.to/lastmile_qr_scan", "ios": "https://dc.lft.to/lastmile_qr_scan"}, "fusion_lat": 0.0, "is_reserved": 0, "lat": 38.926113, "name": "80050d0c0d378bc95e447331e877b56a", "bike_id": "80050d0c0d378bc95e447331e877b56a", "is_disabled": 0, "fusion_lon": 0.0, "type": "electric_scooter", "lon": -77.0215955}, {"rental_uris": {"android": "https://dc.lft.to/lastmile_qr_scan", "ios": "https://dc.lft.to/lastmile_qr_scan"}, "fusion_lat": 0.0, "is_reserved": 0, "lat": 38.8839135, "name": "34df21457d5fd5529c8667c1f98cfc8d", "bike_id": "34df21457d5fd5529c8667c1f98cfc8d", "is_disabled": 0, "fusion_lon": 0.0, "type": "electric_scooter", "lon": -76.93052416666667}, {"rental_uris": {"android": "https://dc.lft.to/lastmile_qr_scan", "ios": "https://dc.lft.to/lastmile_qr_scan"}, "fusion_lat": 0.0, "is_reserved": 0, "lat": 38.900057833333335, "name": "3bbbcf49657fa431c9f0727c24235943", "bike_id": "3bbbcf49657fa431c9f0727c24235943", "is_disabled": 0, "fusion_lon": 0.0, "type": "electric_scooter", "lon": -76.93025983333334}, {"rental_uris": {"android": "https://dc.lft.to/lastmile_qr_scan", "ios": "https://dc.lft.to/lastmile_qr_scan"}, "fusion_lat": 0.0, "is_reserved": 0, "lat": 38.925984166666666, "name": "8042b6de1239f5f958f803b45c9cd4fe", "bike_id": "8042b6de1239f5f958f803b45c9cd4fe", "is_disabled": 0, "fusion_lon": 0.0, "type": "electric_scooter", "lon": -77.02154066666667}, {"rental_uris": {"android": "https://dc.lft.to/lastmile_qr_scan", "ios": "https://dc.lft.to/lastmile_qr_scan"}, "fusion_lat": 0.0, "is_reserved": 0, "lat": 38.879085833333335, "name": "5c9d8464a64ccf6b1b9174a223ff217e", "bike_id": "5c9d8464a64ccf6b1b9174a223ff217e", "is_disabled": 0, "fusion_lon": 0.0, "type": "electric_scooter", "lon": -77.02160266666667}, {"rental_uris": {"android": "https://dc.lft.to/lastmile_qr_scan", "ios": "https://dc.lft.to/lastmile_qr_scan"}, "fusion_lat": 0.0, "is_reserved": 0, "lat": 38.915452333333334, "name": "2811df85a183db5e736c26d51f7d6dc1", "bike_id": "2811df85a183db5e736c26d51f7d6dc1", "is_disabled": 0, "fusion_lon": 0.0, "type": "electric_scooter", "lon": -77.02202033333333}, {"rental_uris": {"android": "https://dc.lft.to/lastmile_qr_scan", "ios": "https://dc.lft.to/lastmile_qr_scan"}, "fusion_lat": 0.0, "is_reserved": 0, "lat": 38.91645183333333, "name": "010159fdce3c97c6e3c2f87fdb675bf8", "bike_id": "010159fdce3c97c6e3c2f87fdb675bf8", "is_disabled": 0, "fusion_lon": 0.0, "type": "electric_scooter", "lon": -77.01020783333334}, {"rental_uris": {"android": "https://dc.lft.to/lastmile_qr_scan", "ios": "https://dc.lft.to/lastmile_qr_scan"}, "fusion_lat": 0.0, "is_reserved": 0, "lat": 38.90557966666667, "name": "7b2c5c579ab468471a3dc78ab0822cb1", "bike_id": "7b2c5c579ab468471a3dc78ab0822cb1", "is_disabled": 0, "fusion_lon": 0.0, "type": "electric_scooter", "lon": -77.00605816666666}, {"rental_uris": {"android": "https://dc.lft.to/lastmile_qr_scan", "ios": "https://dc.lft.to/lastmile_qr_scan"}, "fusion_lat": 0.0, "is_reserved": 0, "lat": 38.90058883333333, "name": "268b22d0b7b6a4517da472e33401a0bf", "bike_id": "268b22d0b7b6a4517da472e33401a0bf", "is_disabled": 0, "fusion_lon": 0.0, "type": "electric_scooter", "lon": -77.02180633333333}, {"rental_uris": {"android": "https://dc.lft.to/lastmile_qr_scan", "ios": "https://dc.lft.to/lastmile_qr_scan"}, "fusion_lat": 0.0, "is_reserved": 0, "lat": 38.89298383333333, "name": "03503921ee5592938fc2fd75451542d8", "bike_id": "03503921ee5592938fc2fd75451542d8", "is_disabled": 0, "fusion_lon": 0.0, "type": "electric_scooter", "lon": -76.92996666666667}, {"rental_uris": {"android": "https://dc.lft.to/lastmile_qr_scan", "ios": "https://dc.lft.to/lastmile_qr_scan"}, "fusion_lat": 0.0, "is_reserved": 0, "lat": 38.9073055, "name": "bf2da191376f8d42e893c69ae3b40d77", "bike_id": "bf2da191376f8d42e893c69ae3b40d77", "is_disabled": 0, "fusion_lon": 0.0, "type": "electric_scooter", "lon": -77.0037155}, {"rental_uris": {"android": "https://dc.lft.to/lastmile_qr_scan", "ios": "https://dc.lft.to/lastmile_qr_scan"}, "fusion_lat": 0.0, "is_reserved": 0, "lat": 38.9176355, "name": "358233b85243d017eb4f449a1b8d610e", "bike_id": "358233b85243d017eb4f449a1b8d610e", "is_disabled": 0, "fusion_lon": 0.0, "type": "electric_scooter", "lon": -77.024378}, {"rental_uris": {"android": "https://dc.lft.to/lastmile_qr_scan", "ios": "https://dc.lft.to/lastmile_qr_scan"}, "fusion_lat": 0.0, "is_reserved": 0, "lat": 38.97497716666667, "name": "985ab6793f434c4a0b15fc93bd9092ac", "bike_id": "985ab6793f434c4a0b15fc93bd9092ac", "is_disabled": 0, "fusion_lon": 0.0, "type": "electric_scooter", "lon": -77.01697383333334}, {"rental_uris": {"android": "https://dc.lft.to/lastmile_qr_scan", "ios": "https://dc.lft.to/lastmile_qr_scan"}, "fusion_lat": 0.0, "is_reserved": 0, "lat": 38.902113166666666, "name": "623f0dcc512232af4d553f66f522eb0b", "bike_id": "623f0dcc512232af4d553f66f522eb0b", "is_disabled": 0, "fusion_lon": 0.0, "type": "electric_scooter", "lon": -77.05896483333333}, {"rental_uris": {"android": "https://dc.lft.to/lastmile_qr_scan", "ios": "https://dc.lft.to/lastmile_qr_scan"}, "fusion_lat": 0.0, "is_reserved": 0, "lat": 38.921453166666666, "name": "5d082e45262b0e0d349d128ce4b7b07a", "bike_id": "5d082e45262b0e0d349d128ce4b7b07a", "is_disabled": 0, "fusion_lon": 0.0, "type": "electric_scooter", "lon": -77.04590283333333}, {"rental_uris": {"android": "https://dc.lft.to/lastmile_qr_scan", "ios": "https://dc.lft.to/lastmile_qr_scan"}, "fusion_lat": 0.0, "is_reserved": 0, "lat": 38.89525416666667, "name": "f77f969898be6b08e62cae509a958cc1", "bike_id": "f77f969898be6b08e62cae509a958cc1", "is_disabled": 0, "fusion_lon": 0.0, "type": "electric_scooter", "lon": -77.04473216666666}, {"rental_uris": {"android": "https://dc.lft.to/lastmile_qr_scan", "ios": "https://dc.lft.to/lastmile_qr_scan"}, "fusion_lat": 0.0, "is_reserved": 0, "lat": 38.893531, "name": "66b73df3dc1e717f1727def7969becf3", "bike_id": "66b73df3dc1e717f1727def7969becf3", "is_disabled": 0, "fusion_lon": 0.0, "type": "electric_scooter", "lon": -76.99474116666667}, {"rental_uris": {"android": "https://dc.lft.to/lastmile_qr_scan", "ios": "https://dc.lft.to/lastmile_qr_scan"}, "fusion_lat": 0.0, "is_reserved": 0, "lat": 38.90541833333333, "name": "9f78fc55b08b18cd602f187cd743b796", "bike_id": "9f78fc55b08b18cd602f187cd743b796", "is_disabled": 0, "fusion_lon": 0.0, "type": "electric_scooter", "lon": -77.04959716666667}, {"rental_uris": {"android": "https://dc.lft.to/lastmile_qr_scan", "ios": "https://dc.lft.to/lastmile_qr_scan"}, "fusion_lat": 0.0, "is_reserved": 0, "lat": 38.91194266666667, "name": "55a1d221c0a933490744bd9783a38cec", "bike_id": "55a1d221c0a933490744bd9783a38cec", "is_disabled": 0, "fusion_lon": 0.0, "type": "electric_scooter", "lon": -77.03858733333334}, {"rental_uris": {"android": "https://dc.lft.to/lastmile_qr_scan", "ios": "https://dc.lft.to/lastmile_qr_scan"}, "fusion_lat": 0.0, "is_reserved": 0, "lat": 39.084907333333334, "name": "9f7d02c77b7533da84aeac6571728813", "bike_id": "9f7d02c77b7533da84aeac6571728813", "is_disabled": 0, "fusion_lon": 0.0, "type": "electric_bike", "lon": -76.950581}, {"rental_uris": {"android": "https://dc.lft.to/lastmile_qr_scan", "ios": "https://dc.lft.to/lastmile_qr_scan"}, "fusion_lat": 0.0, "is_reserved": 0, "lat": 38.948770833333334, "name": "0c547d133698d72e08bb47160fc7b6a6", "bike_id": "0c547d133698d72e08bb47160fc7b6a6", "is_disabled": 0, "fusion_lon": 0.0, "type": "electric_scooter", "lon": -77.03279066666667}, {"rental_uris": {"android": "https://dc.lft.to/lastmile_qr_scan", "ios": "https://dc.lft.to/lastmile_qr_scan"}, "fusion_lat": 0.0, "is_reserved": 0, "lat": 38.89011633333333, "name": "b1759274147accf893330bd262c074c2", "bike_id": "b1759274147accf893330bd262c074c2", "is_disabled": 0, "fusion_lon": 0.0, "type": "electric_scooter", "lon": -76.93733966666667}, {"rental_uris": {"android": "https://dc.lft.to/lastmile_qr_scan", "ios": "https://dc.lft.to/lastmile_qr_scan"}, "fusion_lat": 0.0, "is_reserved": 0, "lat": 38.89225183333333, "name": "e87a02415589fd7fb4ec758736ee1c43", "bike_id": "e87a02415589fd7fb4ec758736ee1c43", "is_disabled": 0, "fusion_lon": 0.0, "type": "electric_scooter", "lon": -77.0318555}, {"rental_uris": {"android": "https://dc.lft.to/lastmile_qr_scan", "ios": "https://dc.lft.to/lastmile_qr_scan"}, "fusion_lat": 0.0, "is_reserved": 0, "lat": 38.89468216666667, "name": "2b533cb6a0331232db0bc846dee97a2a", "bike_id": "2b533cb6a0331232db0bc846dee97a2a", "is_disabled": 0, "fusion_lon": 0.0, "type": "electric_scooter", "lon": -77.02683066666667}, {"rental_uris": {"android": "https://dc.lft.to/lastmile_qr_scan", "ios": "https://dc.lft.to/lastmile_qr_scan"}, "fusion_lat": 0.0, "is_reserved": 0, "lat": 38.88355466666667, "name": "21b9e1124a9c89ad6f9841340106aa7d", "bike_id": "21b9e1124a9c89ad6f9841340106aa7d", "is_disabled": 0, "fusion_lon": 0.0, "type": "electric_scooter", "lon": -77.019736}, {"rental_uris": {"android": "https://dc.lft.to/lastmile_qr_scan", "ios": "https://dc.lft.to/lastmile_qr_scan"}, "fusion_lat": 0.0, "is_reserved": 0, "lat": 38.914821, "name": "1f3ea673be9fc916f6ae847bfee9a498", "bike_id": "1f3ea673be9fc916f6ae847bfee9a498", "is_disabled": 0, "fusion_lon": 0.0, "type": "electric_scooter", "lon": -77.03233716666666}, {"rental_uris": {"android": "https://dc.lft.to/lastmile_qr_scan", "ios": "https://dc.lft.to/lastmile_qr_scan"}, "fusion_lat": 0.0, "is_reserved": 0, "lat": 38.91844116666667, "name": "1768644bd17db66cdf6480939996b043", "bike_id": "1768644bd17db66cdf6480939996b043", "is_disabled": 0, "fusion_lon": 0.0, "type": "electric_scooter", "lon": -77.021835}, {"rental_uris": {"android": "https://dc.lft.to/lastmile_qr_scan", "ios": "https://dc.lft.to/lastmile_qr_scan"}, "fusion_lat": 0.0, "is_reserved": 0, "lat": 38.91597933333333, "name": "5f592ce9b1b913c601d1b60d74616c40", "bike_id": "5f592ce9b1b913c601d1b60d74616c40", "is_disabled": 0, "fusion_lon": 0.0, "type": "electric_scooter", "lon": -77.02300016666666}, {"rental_uris": {"android": "https://dc.lft.to/lastmile_qr_scan", "ios": "https://dc.lft.to/lastmile_qr_scan"}, "fusion_lat": 0.0, "is_reserved": 0, "lat": 38.87293116666667, "name": "71be48f1711f03eeac61a6e7d8dbc4af", "bike_id": "71be48f1711f03eeac61a6e7d8dbc4af", "is_disabled": 0, "fusion_lon": 0.0, "type": "electric_scooter", "lon": -77.00231666666667}, {"rental_uris": {"android": "https://dc.lft.to/lastmile_qr_scan", "ios": "https://dc.lft.to/lastmile_qr_scan"}, "fusion_lat": 0.0, "is_reserved": 0, "lat": 38.892210666666664, "name": "d00f976b276370a5bbe95b68a69cb398", "bike_id": "d00f976b276370a5bbe95b68a69cb398", "is_disabled": 0, "fusion_lon": 0.0, "type": "electric_scooter", "lon": -77.03992033333333}, {"rental_uris": {"android": "https://dc.lft.to/lastmile_qr_scan", "ios": "https://dc.lft.to/lastmile_qr_scan"}, "fusion_lat": 0.0, "is_reserved": 0, "lat": 38.92238866666667, "name": "08d84da0bb42f0c75c0ce6b0debdfcbf", "bike_id": "08d84da0bb42f0c75c0ce6b0debdfcbf", "is_disabled": 0, "fusion_lon": 0.0, "type": "electric_scooter", "lon": -77.03476866666666}, {"rental_uris": {"android": "https://dc.lft.to/lastmile_qr_scan", "ios": "https://dc.lft.to/lastmile_qr_scan"}, "fusion_lat": 0.0, "is_reserved": 0, "lat": 38.897871, "name": "3b96b3da6f5a6767af0e54f6a570f14e", "bike_id": "3b96b3da6f5a6767af0e54f6a570f14e", "is_disabled": 0, "fusion_lon": 0.0, "type": "electric_scooter", "lon": -77.054672}, {"rental_uris": {"android": "https://dc.lft.to/lastmile_qr_scan", "ios": "https://dc.lft.to/lastmile_qr_scan"}, "fusion_lat": 0.0, "is_reserved": 0, "lat": 38.881823833333335, "name": "2017901caa3289bd19ee5a5796dd55fd", "bike_id": "2017901caa3289bd19ee5a5796dd55fd", "is_disabled": 0, "fusion_lon": 0.0, "type": "electric_scooter", "lon": -76.990277}, {"rental_uris": {"android": "https://dc.lft.to/lastmile_qr_scan", "ios": "https://dc.lft.to/lastmile_qr_scan"}, "fusion_lat": 0.0, "is_reserved": 0, "lat": 38.90901216666666, "name": "310e3f8c162b1957bf111ad76993b797", "bike_id": "310e3f8c162b1957bf111ad76993b797", "is_disabled": 0, "fusion_lon": 0.0, "type": "electric_scooter", "lon": -77.044117}, {"rental_uris": {"android": "https://dc.lft.to/lastmile_qr_scan", "ios": "https://dc.lft.to/lastmile_qr_scan"}, "fusion_lat": 0.0, "is_reserved": 0, "lat": 38.933246833333335, "name": "7b7ba294d70ee029059e9e6fc2b563a7", "bike_id": "7b7ba294d70ee029059e9e6fc2b563a7", "is_disabled": 0, "fusion_lon": 0.0, "type": "electric_scooter", "lon": -77.03800566666666}, {"rental_uris": {"android": "https://dc.lft.to/lastmile_qr_scan", "ios": "https://dc.lft.to/lastmile_qr_scan"}, "fusion_lat": 0.0, "is_reserved": 0, "lat": 38.92845666666667, "name": "d57fc950131e44525b4ede6ba00cc30d", "bike_id": "d57fc950131e44525b4ede6ba00cc30d", "is_disabled": 0, "fusion_lon": 0.0, "type": "electric_scooter", "lon": -77.02486933333333}, {"rental_uris": {"android": "https://dc.lft.to/lastmile_qr_scan", "ios": "https://dc.lft.to/lastmile_qr_scan"}, "fusion_lat": 0.0, "is_reserved": 0, "lat": 38.934924, "name": "3b7ef269bd8b521e2143798efa5d66e8", "bike_id": "3b7ef269bd8b521e2143798efa5d66e8", "is_disabled": 0, "fusion_lon": 0.0, "type": "electric_scooter", "lon": -77.04455233333333}, {"rental_uris": {"android": "https://dc.lft.to/lastmile_qr_scan", "ios": "https://dc.lft.to/lastmile_qr_scan"}, "fusion_lat": 0.0, "is_reserved": 0, "lat": 38.921413333333334, "name": "691ce90e9fd2d42dc6062a0fd2b7f731", "bike_id": "691ce90e9fd2d42dc6062a0fd2b7f731", "is_disabled": 0, "fusion_lon": 0.0, "type": "electric_scooter", "lon": -77.041275}, {"rental_uris": {"android": "https://dc.lft.to/lastmile_qr_scan", "ios": "https://dc.lft.to/lastmile_qr_scan"}, "fusion_lat": 0.0, "is_reserved": 0, "lat": 38.90095133333333, "name": "2fca464069e27bd6cb8887d3bbfc8b53", "bike_id": "2fca464069e27bd6cb8887d3bbfc8b53", "is_disabled": 0, "fusion_lon": 0.0, "type": "electric_scooter", "lon": -77.04482833333333}, {"rental_uris": {"android": "https://dc.lft.to/lastmile_qr_scan", "ios": "https://dc.lft.to/lastmile_qr_scan"}, "fusion_lat": 0.0, "is_reserved": 0, "lat": 38.898795666666665, "name": "7473cd9ff35be940cc274a8e9b20beef", "bike_id": "7473cd9ff35be940cc274a8e9b20beef", "is_disabled": 0, "fusion_lon": 0.0, "type": "electric_scooter", "lon": -76.98838766666667}, {"rental_uris": {"android": "https://dc.lft.to/lastmile_qr_scan", "ios": "https://dc.lft.to/lastmile_qr_scan"}, "fusion_lat": 0.0, "is_reserved": 0, "lat": 38.9264175, "name": "a65dd252029980d92a48c4a7f90a8248", "bike_id": "a65dd252029980d92a48c4a7f90a8248", "is_disabled": 0, "fusion_lon": 0.0, "type": "electric_scooter", "lon": -77.0250705}, {"rental_uris": {"android": "https://dc.lft.to/lastmile_qr_scan", "ios": "https://dc.lft.to/lastmile_qr_scan"}, "fusion_lat": 0.0, "is_reserved": 0, "lat": 38.923623, "name": "2bfdf507d2d7af3e64a459cf358acedb", "bike_id": "2bfdf507d2d7af3e64a459cf358acedb", "is_disabled": 0, "fusion_lon": 0.0, "type": "electric_scooter", "lon": -77.01954683333334}, {"rental_uris": {"android": "https://dc.lft.to/lastmile_qr_scan", "ios": "https://dc.lft.to/lastmile_qr_scan"}, "fusion_lat": 0.0, "is_reserved": 0, "lat": 38.896091, "name": "10b20b9c113f5b44b4d61ec0352568a8", "bike_id": "10b20b9c113f5b44b4d61ec0352568a8", "is_disabled": 0, "fusion_lon": 0.0, "type": "electric_scooter", "lon": -76.97286566666666}, {"rental_uris": {"android": "https://dc.lft.to/lastmile_qr_scan", "ios": "https://dc.lft.to/lastmile_qr_scan"}, "fusion_lat": 0.0, "is_reserved": 0, "lat": 38.989871, "name": "2c95b05e82ea91be1389a5f0b6d01fa5", "bike_id": "2c95b05e82ea91be1389a5f0b6d01fa5", "is_disabled": 0, "fusion_lon": 0.0, "type": "electric_scooter", "lon": -77.0336125}, {"rental_uris": {"android": "https://dc.lft.to/lastmile_qr_scan", "ios": "https://dc.lft.to/lastmile_qr_scan"}, "fusion_lat": 0.0, "is_reserved": 0, "lat": 38.92466833333334, "name": "cc46145702dda3e2e8ad4d2e8c39defc", "bike_id": "cc46145702dda3e2e8ad4d2e8c39defc", "is_disabled": 0, "fusion_lon": 0.0, "type": "electric_scooter", "lon": -77.02699083333333}, {"rental_uris": {"android": "https://dc.lft.to/lastmile_qr_scan", "ios": "https://dc.lft.to/lastmile_qr_scan"}, "fusion_lat": 0.0, "is_reserved": 0, "lat": 38.897776666666665, "name": "80a0eb71d4168f5dbf67af63b8705b56", "bike_id": "80a0eb71d4168f5dbf67af63b8705b56", "is_disabled": 0, "fusion_lon": 0.0, "type": "electric_scooter", "lon": -76.992778}, {"rental_uris": {"android": "https://dc.lft.to/lastmile_qr_scan", "ios": "https://dc.lft.to/lastmile_qr_scan"}, "fusion_lat": 0.0, "is_reserved": 0, "lat": 38.86259066666667, "name": "32e667458f3888c2a1faafd0f452e5f6", "bike_id": "32e667458f3888c2a1faafd0f452e5f6", "is_disabled": 0, "fusion_lon": 0.0, "type": "electric_scooter", "lon": -76.981835}, {"rental_uris": {"android": "https://dc.lft.to/lastmile_qr_scan", "ios": "https://dc.lft.to/lastmile_qr_scan"}, "fusion_lat": 0.0, "is_reserved": 0, "lat": 38.92099566666667, "name": "af8b63de06ed9d3674172686f6a930f0", "bike_id": "af8b63de06ed9d3674172686f6a930f0", "is_disabled": 0, "fusion_lon": 0.0, "type": "electric_scooter", "lon": -77.04190533333333}, {"rental_uris": {"android": "https://dc.lft.to/lastmile_qr_scan", "ios": "https://dc.lft.to/lastmile_qr_scan"}, "fusion_lat": 0.0, "is_reserved": 0, "lat": 38.91538366666666, "name": "acab3161ccc6a4a1ed146da54a82e3e1", "bike_id": "acab3161ccc6a4a1ed146da54a82e3e1", "is_disabled": 0, "fusion_lon": 0.0, "type": "electric_scooter", "lon": -77.02006033333333}, {"rental_uris": {"android": "https://dc.lft.to/lastmile_qr_scan", "ios": "https://dc.lft.to/lastmile_qr_scan"}, "fusion_lat": 0.0, "is_reserved": 0, "lat": 38.88725316666667, "name": "1fb7bafa0a6fa5f76e21b9998ebc280f", "bike_id": "1fb7bafa0a6fa5f76e21b9998ebc280f", "is_disabled": 0, "fusion_lon": 0.0, "type": "electric_scooter", "lon": -76.99682983333334}, {"rental_uris": {"android": "https://dc.lft.to/lastmile_qr_scan", "ios": "https://dc.lft.to/lastmile_qr_scan"}, "fusion_lat": 0.0, "is_reserved": 0, "lat": 38.943329166666665, "name": "21df1d57a628fcbb057e0c082a6f8ced", "bike_id": "21df1d57a628fcbb057e0c082a6f8ced", "is_disabled": 0, "fusion_lon": 0.0, "type": "electric_scooter", "lon": -77.0155265}, {"rental_uris": {"android": "https://dc.lft.to/lastmile_qr_scan", "ios": "https://dc.lft.to/lastmile_qr_scan"}, "fusion_lat": 0.0, "is_reserved": 0, "lat": 38.87822883333333, "name": "136c39f2eb2b5cbfd818d752ce87291c", "bike_id": "136c39f2eb2b5cbfd818d752ce87291c", "is_disabled": 0, "fusion_lon": 0.0, "type": "electric_scooter", "lon": -77.02242433333333}, {"rental_uris": {"android": "https://dc.lft.to/lastmile_qr_scan", "ios": "https://dc.lft.to/lastmile_qr_scan"}, "fusion_lat": 0.0, "is_reserved": 0, "lat": 38.926335333333334, "name": "b47de92130a19dc930f134521dd03828", "bike_id": "b47de92130a19dc930f134521dd03828", "is_disabled": 0, "fusion_lon": 0.0, "type": "electric_scooter", "lon": -77.03473266666667}, {"rental_uris": {"android": "https://dc.lft.to/lastmile_qr_scan", "ios": "https://dc.lft.to/lastmile_qr_scan"}, "fusion_lat": 0.0, "is_reserved": 0, "lat": 38.9277475, "name": "a3b595d1810b366119bb55127b4affb4", "bike_id": "a3b595d1810b366119bb55127b4affb4", "is_disabled": 0, "fusion_lon": 0.0, "type": "electric_scooter", "lon": -77.02710033333334}, {"rental_uris": {"android": "https://dc.lft.to/lastmile_qr_scan", "ios": "https://dc.lft.to/lastmile_qr_scan"}, "fusion_lat": 0.0, "is_reserved": 0, "lat": 38.90255633333334, "name": "4f79de77208f98ceb746f0c9db3b428e", "bike_id": "4f79de77208f98ceb746f0c9db3b428e", "is_disabled": 0, "fusion_lon": 0.0, "type": "electric_scooter", "lon": -77.0058785}, {"rental_uris": {"android": "https://dc.lft.to/lastmile_qr_scan", "ios": "https://dc.lft.to/lastmile_qr_scan"}, "fusion_lat": 0.0, "is_reserved": 0, "lat": 38.8939485, "name": "10a6358b934ee870e5a5ee9a55ead9f0", "bike_id": "10a6358b934ee870e5a5ee9a55ead9f0", "is_disabled": 0, "fusion_lon": 0.0, "type": "electric_scooter", "lon": -77.02075416666666}, {"rental_uris": {"android": "https://dc.lft.to/lastmile_qr_scan", "ios": "https://dc.lft.to/lastmile_qr_scan"}, "fusion_lat": 0.0, "is_reserved": 0, "lat": 38.90412833333333, "name": "0ac183a33bae9426d1f4ddf718624c51", "bike_id": "0ac183a33bae9426d1f4ddf718624c51", "is_disabled": 0, "fusion_lon": 0.0, "type": "electric_scooter", "lon": -77.02575816666666}, {"rental_uris": {"android": "https://dc.lft.to/lastmile_qr_scan", "ios": "https://dc.lft.to/lastmile_qr_scan"}, "fusion_lat": 0.0, "is_reserved": 0, "lat": 38.873398333333334, "name": "0aba00139afde5f09a3d3fa5ed45e7e2", "bike_id": "0aba00139afde5f09a3d3fa5ed45e7e2", "is_disabled": 0, "fusion_lon": 0.0, "type": "electric_scooter", "lon": -76.99168483333334}, {"rental_uris": {"android": "https://dc.lft.to/lastmile_qr_scan", "ios": "https://dc.lft.to/lastmile_qr_scan"}, "fusion_lat": 0.0, "is_reserved": 0, "lat": 38.893562333333335, "name": "605ff378d058a65361b4167fb34b8467", "bike_id": "605ff378d058a65361b4167fb34b8467", "is_disabled": 0, "fusion_lon": 0.0, "type": "electric_scooter", "lon": -77.02824416666667}, {"rental_uris": {"android": "https://dc.lft.to/lastmile_qr_scan", "ios": "https://dc.lft.to/lastmile_qr_scan"}, "fusion_lat": 0.0, "is_reserved": 0, "lat": 38.91551033333333, "name": "84f301149ddd8e0e031f2ebafed33c33", "bike_id": "84f301149ddd8e0e031f2ebafed33c33", "is_disabled": 0, "fusion_lon": 0.0, "type": "electric_scooter", "lon": -77.0244745}, {"rental_uris": {"android": "https://dc.lft.to/lastmile_qr_scan", "ios": "https://dc.lft.to/lastmile_qr_scan"}, "fusion_lat": 0.0, "is_reserved": 0, "lat": 38.90746133333333, "name": "9bcc467ef951ba94ff49d7cb597cf1c8", "bike_id": "9bcc467ef951ba94ff49d7cb597cf1c8", "is_disabled": 0, "fusion_lon": 0.0, "type": "electric_scooter", "lon": -76.997696}, {"rental_uris": {"android": "https://dc.lft.to/lastmile_qr_scan", "ios": "https://dc.lft.to/lastmile_qr_scan"}, "fusion_lat": 0.0, "is_reserved": 0, "lat": 38.9097135, "name": "299bc04954396ff41b85ac42e3f7d36e", "bike_id": "299bc04954396ff41b85ac42e3f7d36e", "is_disabled": 0, "fusion_lon": 0.0, "type": "electric_scooter", "lon": -77.03221316666666}, {"rental_uris": {"android": "https://dc.lft.to/lastmile_qr_scan", "ios": "https://dc.lft.to/lastmile_qr_scan"}, "fusion_lat": 0.0, "is_reserved": 0, "lat": 38.90855466666667, "name": "96042ea6958826aeee575fc9e8f28dac", "bike_id": "96042ea6958826aeee575fc9e8f28dac", "is_disabled": 0, "fusion_lon": 0.0, "type": "electric_scooter", "lon": -77.00359516666667}, {"rental_uris": {"android": "https://dc.lft.to/lastmile_qr_scan", "ios": "https://dc.lft.to/lastmile_qr_scan"}, "fusion_lat": 0.0, "is_reserved": 0, "lat": 38.915752166666664, "name": "9a8360ecc69aca7c1d03678aae8b94b6", "bike_id": "9a8360ecc69aca7c1d03678aae8b94b6", "is_disabled": 0, "fusion_lon": 0.0, "type": "electric_scooter", "lon": -77.012396}, {"rental_uris": {"android": "https://dc.lft.to/lastmile_qr_scan", "ios": "https://dc.lft.to/lastmile_qr_scan"}, "fusion_lat": 0.0, "is_reserved": 0, "lat": 38.98431566666667, "name": "9f7e4cfd3119d361ec643e768fb824e1", "bike_id": "9f7e4cfd3119d361ec643e768fb824e1", "is_disabled": 0, "fusion_lon": 0.0, "type": "electric_scooter", "lon": -77.0267365}, {"rental_uris": {"android": "https://dc.lft.to/lastmile_qr_scan", "ios": "https://dc.lft.to/lastmile_qr_scan"}, "fusion_lat": 0.0, "is_reserved": 0, "lat": 38.89817, "name": "1d858a067162d7ff18246808447aa0c1", "bike_id": "1d858a067162d7ff18246808447aa0c1", "is_disabled": 0, "fusion_lon": 0.0, "type": "electric_bike", "lon": -76.99073133333333}, {"rental_uris": {"android": "https://dc.lft.to/lastmile_qr_scan", "ios": "https://dc.lft.to/lastmile_qr_scan"}, "fusion_lat": 0.0, "is_reserved": 0, "lat": 38.935145, "name": "59f7b86f3b4b653a4ac5737178c9e844", "bike_id": "59f7b86f3b4b653a4ac5737178c9e844", "is_disabled": 0, "fusion_lon": 0.0, "type": "electric_scooter", "lon": -77.03291166666666}, {"rental_uris": {"android": "https://dc.lft.to/lastmile_qr_scan", "ios": "https://dc.lft.to/lastmile_qr_scan"}, "fusion_lat": 0.0, "is_reserved": 0, "lat": 38.919608833333335, "name": "b49aa731d84ab173d09a528f615aa871", "bike_id": "b49aa731d84ab173d09a528f615aa871", "is_disabled": 0, "fusion_lon": 0.0, "type": "electric_scooter", "lon": -77.0422255}, {"rental_uris": {"android": "https://dc.lft.to/lastmile_qr_scan", "ios": "https://dc.lft.to/lastmile_qr_scan"}, "fusion_lat": 0.0, "is_reserved": 0, "lat": 38.884396833333334, "name": "421adbadc72d93e72500e2f77cc7df76", "bike_id": "421adbadc72d93e72500e2f77cc7df76", "is_disabled": 0, "fusion_lon": 0.0, "type": "electric_scooter", "lon": -77.00347816666667}, {"rental_uris": {"android": "https://dc.lft.to/lastmile_qr_scan", "ios": "https://dc.lft.to/lastmile_qr_scan"}, "fusion_lat": 0.0, "is_reserved": 0, "lat": 38.88878166666667, "name": "beaeb413b125574b93468bc684e7af5b", "bike_id": "beaeb413b125574b93468bc684e7af5b", "is_disabled": 0, "fusion_lon": 0.0, "type": "electric_scooter", "lon": -76.99037483333333}, {"rental_uris": {"android": "https://dc.lft.to/lastmile_qr_scan", "ios": "https://dc.lft.to/lastmile_qr_scan"}, "fusion_lat": 0.0, "is_reserved": 0, "lat": 38.913851, "name": "574e0f64a09adfcb0b5917e06ec28cf1", "bike_id": "574e0f64a09adfcb0b5917e06ec28cf1", "is_disabled": 0, "fusion_lon": 0.0, "type": "electric_scooter", "lon": -76.98418933333333}, {"rental_uris": {"android": "https://dc.lft.to/lastmile_qr_scan", "ios": "https://dc.lft.to/lastmile_qr_scan"}, "fusion_lat": 0.0, "is_reserved": 0, "lat": 38.87992966666667, "name": "eb1f63fcd4e36f78e248854e79fdabce", "bike_id": "eb1f63fcd4e36f78e248854e79fdabce", "is_disabled": 0, "fusion_lon": 0.0, "type": "electric_scooter", "lon": -77.0374185}, {"rental_uris": {"android": "https://dc.lft.to/lastmile_qr_scan", "ios": "https://dc.lft.to/lastmile_qr_scan"}, "fusion_lat": 0.0, "is_reserved": 0, "lat": 38.935868666666664, "name": "a468f64ea38ccdae4d05143ec390ddb2", "bike_id": "a468f64ea38ccdae4d05143ec390ddb2", "is_disabled": 0, "fusion_lon": 0.0, "type": "electric_scooter", "lon": -77.05860366666667}, {"rental_uris": {"android": "https://dc.lft.to/lastmile_qr_scan", "ios": "https://dc.lft.to/lastmile_qr_scan"}, "fusion_lat": 0.0, "is_reserved": 0, "lat": 38.91883033333333, "name": "7338bcb3d4764d77aec4938f7fe4e37b", "bike_id": "7338bcb3d4764d77aec4938f7fe4e37b", "is_disabled": 0, "fusion_lon": 0.0, "type": "electric_scooter", "lon": -77.0271435}, {"rental_uris": {"android": "https://dc.lft.to/lastmile_qr_scan", "ios": "https://dc.lft.to/lastmile_qr_scan"}, "fusion_lat": 0.0, "is_reserved": 0, "lat": 38.905533166666665, "name": "a580b73956aadfd1eca80a1dae851078", "bike_id": "a580b73956aadfd1eca80a1dae851078", "is_disabled": 0, "fusion_lon": 0.0, "type": "electric_scooter", "lon": -77.03565466666667}, {"rental_uris": {"android": "https://dc.lft.to/lastmile_qr_scan", "ios": "https://dc.lft.to/lastmile_qr_scan"}, "fusion_lat": 0.0, "is_reserved": 0, "lat": 38.88691, "name": "85dc552c16609fcfd8306f2b5fde70e1", "bike_id": "85dc552c16609fcfd8306f2b5fde70e1", "is_disabled": 0, "fusion_lon": 0.0, "type": "electric_scooter", "lon": -77.01378133333333}, {"rental_uris": {"android": "https://dc.lft.to/lastmile_qr_scan", "ios": "https://dc.lft.to/lastmile_qr_scan"}, "fusion_lat": 0.0, "is_reserved": 0, "lat": 38.92613333333333, "name": "5b57769170e74a589a75a1d4fa586793", "bike_id": "5b57769170e74a589a75a1d4fa586793", "is_disabled": 0, "fusion_lon": 0.0, "type": "electric_scooter", "lon": -77.02163116666667}, {"rental_uris": {"android": "https://dc.lft.to/lastmile_qr_scan", "ios": "https://dc.lft.to/lastmile_qr_scan"}, "fusion_lat": 0.0, "is_reserved": 0, "lat": 38.9154405, "name": "3cd600844043c1fe3bea10526806f3f6", "bike_id": "3cd600844043c1fe3bea10526806f3f6", "is_disabled": 0, "fusion_lon": 0.0, "type": "electric_scooter", "lon": -77.0281735}, {"rental_uris": {"android": "https://dc.lft.to/lastmile_qr_scan", "ios": "https://dc.lft.to/lastmile_qr_scan"}, "fusion_lat": 0.0, "is_reserved": 0, "lat": 38.90957566666667, "name": "4dce9faed4aad79e2747e01cccfbba72", "bike_id": "4dce9faed4aad79e2747e01cccfbba72", "is_disabled": 0, "fusion_lon": 0.0, "type": "electric_scooter", "lon": -77.02279133333333}, {"rental_uris": {"android": "https://dc.lft.to/lastmile_qr_scan", "ios": "https://dc.lft.to/lastmile_qr_scan"}, "fusion_lat": 0.0, "is_reserved": 0, "lat": 38.927255333333335, "name": "4eaf4fdec46c22feff2ceb386f667ed8", "bike_id": "4eaf4fdec46c22feff2ceb386f667ed8", "is_disabled": 0, "fusion_lon": 0.0, "type": "electric_scooter", "lon": -77.02965816666666}, {"rental_uris": {"android": "https://dc.lft.to/lastmile_qr_scan", "ios": "https://dc.lft.to/lastmile_qr_scan"}, "fusion_lat": 0.0, "is_reserved": 0, "lat": 38.897995, "name": "181e5dc589176754df36dbbf8e1c8dcf", "bike_id": "181e5dc589176754df36dbbf8e1c8dcf", "is_disabled": 0, "fusion_lon": 0.0, "type": "electric_scooter", "lon": -77.01217566666666}, {"rental_uris": {"android": "https://dc.lft.to/lastmile_qr_scan", "ios": "https://dc.lft.to/lastmile_qr_scan"}, "fusion_lat": 0.0, "is_reserved": 0, "lat": 38.9016465, "name": "463c09756405b9f84d03ec1b1164af53", "bike_id": "463c09756405b9f84d03ec1b1164af53", "is_disabled": 0, "fusion_lon": 0.0, "type": "electric_scooter", "lon": -76.93023733333334}, {"rental_uris": {"android": "https://dc.lft.to/lastmile_qr_scan", "ios": "https://dc.lft.to/lastmile_qr_scan"}, "fusion_lat": 0.0, "is_reserved": 0, "lat": 38.8073385, "name": "3fa80ceaad1499b3d504f6e96b548597", "bike_id": "3fa80ceaad1499b3d504f6e96b548597", "is_disabled": 0, "fusion_lon": 0.0, "type": "electric_bike", "lon": -76.9925585}, {"rental_uris": {"android": "https://dc.lft.to/lastmile_qr_scan", "ios": "https://dc.lft.to/lastmile_qr_scan"}, "fusion_lat": 0.0, "is_reserved": 0, "lat": 38.806759166666666, "name": "ba5b3adf9645da91dfaedc5e2701f509", "bike_id": "ba5b3adf9645da91dfaedc5e2701f509", "is_disabled": 0, "fusion_lon": 0.0, "type": "electric_bike", "lon": -77.087599}, {"rental_uris": {"android": "https://dc.lft.to/lastmile_qr_scan", "ios": "https://dc.lft.to/lastmile_qr_scan"}, "fusion_lat": 0.0, "is_reserved": 0, "lat": 38.92359483333333, "name": "21e51d203eb30b464f864411e3b41295", "bike_id": "21e51d203eb30b464f864411e3b41295", "is_disabled": 0, "fusion_lon": 0.0, "type": "electric_scooter", "lon": -77.0502725}, {"rental_uris": {"android": "https://dc.lft.to/lastmile_qr_scan", "ios": "https://dc.lft.to/lastmile_qr_scan"}, "fusion_lat": 0.0, "is_reserved": 0, "lat": 38.925244666666664, "name": "bdd0f5b373fb21850929bec1a6ec8daa", "bike_id": "bdd0f5b373fb21850929bec1a6ec8daa", "is_disabled": 0, "fusion_lon": 0.0, "type": "electric_scooter", "lon": -77.05548433333334}, {"rental_uris": {"android": "https://dc.lft.to/lastmile_qr_scan", "ios": "https://dc.lft.to/lastmile_qr_scan"}, "fusion_lat": 0.0, "is_reserved": 0, "lat": 38.9003365, "name": "f3ae291c4d6af703aed5d72292b3526f", "bike_id": "f3ae291c4d6af703aed5d72292b3526f", "is_disabled": 0, "fusion_lon": 0.0, "type": "electric_scooter", "lon": -77.043223}, {"rental_uris": {"android": "https://dc.lft.to/lastmile_qr_scan", "ios": "https://dc.lft.to/lastmile_qr_scan"}, "fusion_lat": 0.0, "is_reserved": 0, "lat": 38.938943333333334, "name": "84a01a9a1af264f8febe1f3c45047f6e", "bike_id": "84a01a9a1af264f8febe1f3c45047f6e", "is_disabled": 0, "fusion_lon": 0.0, "type": "electric_scooter", "lon": -77.01766433333333}, {"rental_uris": {"android": "https://dc.lft.to/lastmile_qr_scan", "ios": "https://dc.lft.to/lastmile_qr_scan"}, "fusion_lat": 0.0, "is_reserved": 0, "lat": 38.913383333333336, "name": "fc342eda0ec25d83c27e9ee70cd51581", "bike_id": "fc342eda0ec25d83c27e9ee70cd51581", "is_disabled": 0, "fusion_lon": 0.0, "type": "electric_scooter", "lon": -77.03204083333334}, {"rental_uris": {"android": "https://dc.lft.to/lastmile_qr_scan", "ios": "https://dc.lft.to/lastmile_qr_scan"}, "fusion_lat": 0.0, "is_reserved": 0, "lat": 38.85606966666667, "name": "b78f5ead621c1b61db8be8738dcd497d", "bike_id": "b78f5ead621c1b61db8be8738dcd497d", "is_disabled": 0, "fusion_lon": 0.0, "type": "electric_bike", "lon": -76.97459316666666}, {"rental_uris": {"android": "https://dc.lft.to/lastmile_qr_scan", "ios": "https://dc.lft.to/lastmile_qr_scan"}, "fusion_lat": 0.0, "is_reserved": 0, "lat": 38.96025816666667, "name": "909f6c7c6792e4cfb8054a1629a74c36", "bike_id": "909f6c7c6792e4cfb8054a1629a74c36", "is_disabled": 0, "fusion_lon": 0.0, "type": "electric_scooter", "lon": -77.02427716666666}, {"rental_uris": {"android": "https://dc.lft.to/lastmile_qr_scan", "ios": "https://dc.lft.to/lastmile_qr_scan"}, "fusion_lat": 0.0, "is_reserved": 0, "lat": 38.89863783333333, "name": "6f38eb0a854d2cfb301f87a4a7da2974", "bike_id": "6f38eb0a854d2cfb301f87a4a7da2974", "is_disabled": 0, "fusion_lon": 0.0, "type": "electric_scooter", "lon": -77.04883233333334}, {"rental_uris": {"android": "https://dc.lft.to/lastmile_qr_scan", "ios": "https://dc.lft.to/lastmile_qr_scan"}, "fusion_lat": 0.0, "is_reserved": 0, "lat": 38.90735683333333, "name": "d2393152a3cf357f0831825e9dd286fd", "bike_id": "d2393152a3cf357f0831825e9dd286fd", "is_disabled": 0, "fusion_lon": 0.0, "type": "electric_scooter", "lon": -77.02329766666666}, {"rental_uris": {"android": "https://dc.lft.to/lastmile_qr_scan", "ios": "https://dc.lft.to/lastmile_qr_scan"}, "fusion_lat": 0.0, "is_reserved": 0, "lat": 38.943153, "name": "e05b35f747c860a54bfc93fb85d1180f", "bike_id": "e05b35f747c860a54bfc93fb85d1180f", "is_disabled": 0, "fusion_lon": 0.0, "type": "electric_bike", "lon": -76.99012266666666}, {"rental_uris": {"android": "https://dc.lft.to/lastmile_qr_scan", "ios": "https://dc.lft.to/lastmile_qr_scan"}, "fusion_lat": 0.0, "is_reserved": 0, "lat": 38.877308666666664, "name": "38d10bcbbebf443b0f32c267f5aa43fc", "bike_id": "38d10bcbbebf443b0f32c267f5aa43fc", "is_disabled": 0, "fusion_lon": 0.0, "type": "electric_scooter", "lon": -77.00583916666666}, {"rental_uris": {"android": "https://dc.lft.to/lastmile_qr_scan", "ios": "https://dc.lft.to/lastmile_qr_scan"}, "fusion_lat": 0.0, "is_reserved": 0, "lat": 38.920909333333334, "name": "f72432825a7ccb5928f18f927ac0494a", "bike_id": "f72432825a7ccb5928f18f927ac0494a", "is_disabled": 0, "fusion_lon": 0.0, "type": "electric_scooter", "lon": -77.02190483333334}, {"rental_uris": {"android": "https://dc.lft.to/lastmile_qr_scan", "ios": "https://dc.lft.to/lastmile_qr_scan"}, "fusion_lat": 0.0, "is_reserved": 0, "lat": 38.897468333333336, "name": "43ff5309b2f9f66c9fed548254e6f403", "bike_id": "43ff5309b2f9f66c9fed548254e6f403", "is_disabled": 0, "fusion_lon": 0.0, "type": "electric_scooter", "lon": -76.97692}, {"rental_uris": {"android": "https://dc.lft.to/lastmile_qr_scan", "ios": "https://dc.lft.to/lastmile_qr_scan"}, "fusion_lat": 0.0, "is_reserved": 0, "lat": 38.90353133333333, "name": "ef3cb9ce407cff9398d85652120f4a3d", "bike_id": "ef3cb9ce407cff9398d85652120f4a3d", "is_disabled": 0, "fusion_lon": 0.0, "type": "electric_scooter", "lon": -77.03542683333333}, {"rental_uris": {"android": "https://dc.lft.to/lastmile_qr_scan", "ios": "https://dc.lft.to/lastmile_qr_scan"}, "fusion_lat": 0.0, "is_reserved": 0, "lat": 38.912597166666664, "name": "4b19e25477e40ff9caefd82f82a1c028", "bike_id": "4b19e25477e40ff9caefd82f82a1c028", "is_disabled": 0, "fusion_lon": 0.0, "type": "electric_scooter", "lon": -77.04552533333333}, {"rental_uris": {"android": "https://dc.lft.to/lastmile_qr_scan", "ios": "https://dc.lft.to/lastmile_qr_scan"}, "fusion_lat": 0.0, "is_reserved": 0, "lat": 38.89228683333333, "name": "5f78e853d70bf4d3705401c430031fbb", "bike_id": "5f78e853d70bf4d3705401c430031fbb", "is_disabled": 0, "fusion_lon": 0.0, "type": "electric_scooter", "lon": -77.031811}, {"rental_uris": {"android": "https://dc.lft.to/lastmile_qr_scan", "ios": "https://dc.lft.to/lastmile_qr_scan"}, "fusion_lat": 0.0, "is_reserved": 0, "lat": 38.90212533333333, "name": "0eafce5853fd7b4574aab63262ce1889", "bike_id": "0eafce5853fd7b4574aab63262ce1889", "is_disabled": 0, "fusion_lon": 0.0, "type": "electric_scooter", "lon": -77.02436866666666}, {"rental_uris": {"android": "https://dc.lft.to/lastmile_qr_scan", "ios": "https://dc.lft.to/lastmile_qr_scan"}, "fusion_lat": 0.0, "is_reserved": 0, "lat": 38.918688333333336, "name": "1558a93f6ee941d2cc4ad8c4c867a86e", "bike_id": "1558a93f6ee941d2cc4ad8c4c867a86e", "is_disabled": 0, "fusion_lon": 0.0, "type": "electric_scooter", "lon": -77.04720233333333}, {"rental_uris": {"android": "https://dc.lft.to/lastmile_qr_scan", "ios": "https://dc.lft.to/lastmile_qr_scan"}, "fusion_lat": 0.0, "is_reserved": 0, "lat": 38.79336266666667, "name": "86960fa80135051a9c912aa7b2ba722f", "bike_id": "86960fa80135051a9c912aa7b2ba722f", "is_disabled": 0, "fusion_lon": 0.0, "type": "electric_bike", "lon": -77.00056816666667}, {"rental_uris": {"android": "https://dc.lft.to/lastmile_qr_scan", "ios": "https://dc.lft.to/lastmile_qr_scan"}, "fusion_lat": 0.0, "is_reserved": 0, "lat": 38.91176633333333, "name": "d626a4e16bc0c37d350e750afd2d644c", "bike_id": "d626a4e16bc0c37d350e750afd2d644c", "is_disabled": 0, "fusion_lon": 0.0, "type": "electric_scooter", "lon": -77.00452066666666}, {"rental_uris": {"android": "https://dc.lft.to/lastmile_qr_scan", "ios": "https://dc.lft.to/lastmile_qr_scan"}, "fusion_lat": 0.0, "is_reserved": 0, "lat": 38.89278933333333, "name": "8c9115af9bc5a43627072fcabb2dca3b", "bike_id": "8c9115af9bc5a43627072fcabb2dca3b", "is_disabled": 0, "fusion_lon": 0.0, "type": "electric_scooter", "lon": -76.92134983333334}, {"rental_uris": {"android": "https://dc.lft.to/lastmile_qr_scan", "ios": "https://dc.lft.to/lastmile_qr_scan"}, "fusion_lat": 0.0, "is_reserved": 0, "lat": 38.915563, "name": "d0b0311067739038812cbcdb70a6c54f", "bike_id": "d0b0311067739038812cbcdb70a6c54f", "is_disabled": 0, "fusion_lon": 0.0, "type": "electric_scooter", "lon": -77.01413583333333}, {"rental_uris": {"android": "https://dc.lft.to/lastmile_qr_scan", "ios": "https://dc.lft.to/lastmile_qr_scan"}, "fusion_lat": 0.0, "is_reserved": 0, "lat": 38.9063975, "name": "a24debf5398e9e97c6a905669b0fc1ba", "bike_id": "a24debf5398e9e97c6a905669b0fc1ba", "is_disabled": 0, "fusion_lon": 0.0, "type": "electric_scooter", "lon": -77.01139666666667}, {"rental_uris": {"android": "https://dc.lft.to/lastmile_qr_scan", "ios": "https://dc.lft.to/lastmile_qr_scan"}, "fusion_lat": 0.0, "is_reserved": 0, "lat": 38.936808166666665, "name": "93b8e1f16de76d0b7a487b1237f6b81d", "bike_id": "93b8e1f16de76d0b7a487b1237f6b81d", "is_disabled": 0, "fusion_lon": 0.0, "type": "electric_scooter", "lon": -77.0363}, {"rental_uris": {"android": "https://dc.lft.to/lastmile_qr_scan", "ios": "https://dc.lft.to/lastmile_qr_scan"}, "fusion_lat": 0.0, "is_reserved": 0, "lat": 38.903311333333335, "name": "fbb787c5070e7fc4c132174dc9664acc", "bike_id": "fbb787c5070e7fc4c132174dc9664acc", "is_disabled": 0, "fusion_lon": 0.0, "type": "electric_bike", "lon": -76.9336685}, {"rental_uris": {"android": "https://dc.lft.to/lastmile_qr_scan", "ios": "https://dc.lft.to/lastmile_qr_scan"}, "fusion_lat": 0.0, "is_reserved": 0, "lat": 38.91997766666667, "name": "5f85a36e5f184710e637a9a3f8d55cf5", "bike_id": "5f85a36e5f184710e637a9a3f8d55cf5", "is_disabled": 0, "fusion_lon": 0.0, "type": "electric_scooter", "lon": -77.032272}, {"rental_uris": {"android": "https://dc.lft.to/lastmile_qr_scan", "ios": "https://dc.lft.to/lastmile_qr_scan"}, "fusion_lat": 0.0, "is_reserved": 0, "lat": 38.91291833333333, "name": "8930a90a99f2333474ca6174066d60d6", "bike_id": "8930a90a99f2333474ca6174066d60d6", "is_disabled": 0, "fusion_lon": 0.0, "type": "electric_scooter", "lon": -76.985485}, {"rental_uris": {"android": "https://dc.lft.to/lastmile_qr_scan", "ios": "https://dc.lft.to/lastmile_qr_scan"}, "fusion_lat": 0.0, "is_reserved": 0, "lat": 38.92473433333333, "name": "4165f6518d03a1cce3812ce9f8555ac1", "bike_id": "4165f6518d03a1cce3812ce9f8555ac1", "is_disabled": 0, "fusion_lon": 0.0, "type": "electric_scooter", "lon": -77.02220866666667}, {"rental_uris": {"android": "https://dc.lft.to/lastmile_qr_scan", "ios": "https://dc.lft.to/lastmile_qr_scan"}, "fusion_lat": 0.0, "is_reserved": 0, "lat": 38.952153333333335, "name": "e9190236ed3e0f3f181435f4f9d48934", "bike_id": "e9190236ed3e0f3f181435f4f9d48934", "is_disabled": 0, "fusion_lon": 0.0, "type": "electric_scooter", "lon": -77.06971583333333}, {"rental_uris": {"android": "https://dc.lft.to/lastmile_qr_scan", "ios": "https://dc.lft.to/lastmile_qr_scan"}, "fusion_lat": 0.0, "is_reserved": 0, "lat": 38.896190833333335, "name": "284212c5b69a1214d69b49b081a79987", "bike_id": "284212c5b69a1214d69b49b081a79987", "is_disabled": 0, "fusion_lon": 0.0, "type": "electric_scooter", "lon": -77.0220745}, {"rental_uris": {"android": "https://dc.lft.to/lastmile_qr_scan", "ios": "https://dc.lft.to/lastmile_qr_scan"}, "fusion_lat": 0.0, "is_reserved": 0, "lat": 38.871781166666665, "name": "f234aae7b3b22d75e5769814ac77d6c8", "bike_id": "f234aae7b3b22d75e5769814ac77d6c8", "is_disabled": 0, "fusion_lon": 0.0, "type": "electric_scooter", "lon": -77.00615533333334}, {"rental_uris": {"android": "https://dc.lft.to/lastmile_qr_scan", "ios": "https://dc.lft.to/lastmile_qr_scan"}, "fusion_lat": 0.0, "is_reserved": 0, "lat": 38.878435833333334, "name": "012d69bb1270c4145658187e0390961c", "bike_id": "012d69bb1270c4145658187e0390961c", "is_disabled": 0, "fusion_lon": 0.0, "type": "electric_scooter", "lon": -77.02243533333333}, {"rental_uris": {"android": "https://dc.lft.to/lastmile_qr_scan", "ios": "https://dc.lft.to/lastmile_qr_scan"}, "fusion_lat": 0.0, "is_reserved": 0, "lat": 38.893657833333336, "name": "e92b41a32485d24ff1bd11be52891dd5", "bike_id": "e92b41a32485d24ff1bd11be52891dd5", "is_disabled": 0, "fusion_lon": 0.0, "type": "electric_scooter", "lon": -77.00333666666667}, {"rental_uris": {"android": "https://dc.lft.to/lastmile_qr_scan", "ios": "https://dc.lft.to/lastmile_qr_scan"}, "fusion_lat": 0.0, "is_reserved": 0, "lat": 38.90760433333333, "name": "b981a7c609a115bb5ccc4046dc22c93e", "bike_id": "b981a7c609a115bb5ccc4046dc22c93e", "is_disabled": 0, "fusion_lon": 0.0, "type": "electric_scooter", "lon": -77.037564}, {"rental_uris": {"android": "https://dc.lft.to/lastmile_qr_scan", "ios": "https://dc.lft.to/lastmile_qr_scan"}, "fusion_lat": 0.0, "is_reserved": 0, "lat": 38.92053766666667, "name": "6151bff26b54e549d3c4e389bdf13604", "bike_id": "6151bff26b54e549d3c4e389bdf13604", "is_disabled": 0, "fusion_lon": 0.0, "type": "electric_scooter", "lon": -76.98430133333333}, {"rental_uris": {"android": "https://dc.lft.to/lastmile_qr_scan", "ios": "https://dc.lft.to/lastmile_qr_scan"}, "fusion_lat": 0.0, "is_reserved": 0, "lat": 38.89804783333334, "name": "585111e99d53779121902783c07cebe2", "bike_id": "585111e99d53779121902783c07cebe2", "is_disabled": 0, "fusion_lon": 0.0, "type": "electric_scooter", "lon": -77.0248105}, {"rental_uris": {"android": "https://dc.lft.to/lastmile_qr_scan", "ios": "https://dc.lft.to/lastmile_qr_scan"}, "fusion_lat": 0.0, "is_reserved": 0, "lat": 38.90132416666667, "name": "251d68b0824e71db76bd69f174ce390f", "bike_id": "251d68b0824e71db76bd69f174ce390f", "is_disabled": 0, "fusion_lon": 0.0, "type": "electric_scooter", "lon": -77.04664033333333}, {"rental_uris": {"android": "https://dc.lft.to/lastmile_qr_scan", "ios": "https://dc.lft.to/lastmile_qr_scan"}, "fusion_lat": 0.0, "is_reserved": 0, "lat": 38.973702333333335, "name": "8f6f2b02ed5274cb55972fbb045fab1b", "bike_id": "8f6f2b02ed5274cb55972fbb045fab1b", "is_disabled": 0, "fusion_lon": 0.0, "type": "electric_scooter", "lon": -77.01869083333334}, {"rental_uris": {"android": "https://dc.lft.to/lastmile_qr_scan", "ios": "https://dc.lft.to/lastmile_qr_scan"}, "fusion_lat": 0.0, "is_reserved": 0, "lat": 38.923753, "name": "942038dfb0968f21c17924cadb893d3e", "bike_id": "942038dfb0968f21c17924cadb893d3e", "is_disabled": 0, "fusion_lon": 0.0, "type": "electric_scooter", "lon": -76.99379116666667}, {"rental_uris": {"android": "https://dc.lft.to/lastmile_qr_scan", "ios": "https://dc.lft.to/lastmile_qr_scan"}, "fusion_lat": 0.0, "is_reserved": 0, "lat": 39.04237066666666, "name": "8c06b7c8e1f002ab29a622a52305bdd2", "bike_id": "8c06b7c8e1f002ab29a622a52305bdd2", "is_disabled": 0, "fusion_lon": 0.0, "type": "electric_bike", "lon": -76.9973835}, {"rental_uris": {"android": "https://dc.lft.to/lastmile_qr_scan", "ios": "https://dc.lft.to/lastmile_qr_scan"}, "fusion_lat": 0.0, "is_reserved": 0, "lat": 38.9117715, "name": "ee3d5c919eefe92f9d43d798a6a0b39e", "bike_id": "ee3d5c919eefe92f9d43d798a6a0b39e", "is_disabled": 0, "fusion_lon": 0.0, "type": "electric_scooter", "lon": -77.05927616666666}, {"rental_uris": {"android": "https://dc.lft.to/lastmile_qr_scan", "ios": "https://dc.lft.to/lastmile_qr_scan"}, "fusion_lat": 0.0, "is_reserved": 0, "lat": 38.9733445, "name": "6b6139f579c73b09171325aec6172cd7", "bike_id": "6b6139f579c73b09171325aec6172cd7", "is_disabled": 0, "fusion_lon": 0.0, "type": "electric_bike", "lon": -76.99575866666666}, {"rental_uris": {"android": "https://dc.lft.to/lastmile_qr_scan", "ios": "https://dc.lft.to/lastmile_qr_scan"}, "fusion_lat": 0.0, "is_reserved": 0, "lat": 38.92326666666666, "name": "689497c8142176da9fdd0f2caf52c983", "bike_id": "689497c8142176da9fdd0f2caf52c983", "is_disabled": 0, "fusion_lon": 0.0, "type": "electric_scooter", "lon": -77.04614683333334}, {"rental_uris": {"android": "https://dc.lft.to/lastmile_qr_scan", "ios": "https://dc.lft.to/lastmile_qr_scan"}, "fusion_lat": 0.0, "is_reserved": 0, "lat": 38.918680333333334, "name": "85866bc2b065ed650564c41eee4f1dd9", "bike_id": "85866bc2b065ed650564c41eee4f1dd9", "is_disabled": 0, "fusion_lon": 0.0, "type": "electric_scooter", "lon": -77.03668}, {"rental_uris": {"android": "https://dc.lft.to/lastmile_qr_scan", "ios": "https://dc.lft.to/lastmile_qr_scan"}, "fusion_lat": 0.0, "is_reserved": 0, "lat": 38.89619483333333, "name": "49061dbc1ff3aad1af92735979843cce", "bike_id": "49061dbc1ff3aad1af92735979843cce", "is_disabled": 0, "fusion_lon": 0.0, "type": "electric_scooter", "lon": -77.01629366666667}, {"rental_uris": {"android": "https://dc.lft.to/lastmile_qr_scan", "ios": "https://dc.lft.to/lastmile_qr_scan"}, "fusion_lat": 0.0, "is_reserved": 0, "lat": 38.9518355, "name": "e67b6531d11e1011c3d90fa040c90ab7", "bike_id": "e67b6531d11e1011c3d90fa040c90ab7", "is_disabled": 0, "fusion_lon": 0.0, "type": "electric_scooter", "lon": -77.0261635}, {"rental_uris": {"android": "https://dc.lft.to/lastmile_qr_scan", "ios": "https://dc.lft.to/lastmile_qr_scan"}, "fusion_lat": 0.0, "is_reserved": 0, "lat": 38.922392, "name": "e506098667839b54a447983dafc05ed0", "bike_id": "e506098667839b54a447983dafc05ed0", "is_disabled": 0, "fusion_lon": 0.0, "type": "electric_scooter", "lon": -77.0366405}, {"rental_uris": {"android": "https://dc.lft.to/lastmile_qr_scan", "ios": "https://dc.lft.to/lastmile_qr_scan"}, "fusion_lat": 0.0, "is_reserved": 0, "lat": 38.923401166666665, "name": "3abde0e6db3454bffbeedfae13b0ea90", "bike_id": "3abde0e6db3454bffbeedfae13b0ea90", "is_disabled": 0, "fusion_lon": 0.0, "type": "electric_scooter", "lon": -77.03636}, {"rental_uris": {"android": "https://dc.lft.to/lastmile_qr_scan", "ios": "https://dc.lft.to/lastmile_qr_scan"}, "fusion_lat": 0.0, "is_reserved": 0, "lat": 38.90699033333333, "name": "d2fbaa952e866ca3aab743f96f12be19", "bike_id": "d2fbaa952e866ca3aab743f96f12be19", "is_disabled": 0, "fusion_lon": 0.0, "type": "electric_scooter", "lon": -77.02695366666667}, {"rental_uris": {"android": "https://dc.lft.to/lastmile_qr_scan", "ios": "https://dc.lft.to/lastmile_qr_scan"}, "fusion_lat": 0.0, "is_reserved": 0, "lat": 38.91804366666667, "name": "2315ab4ef07b5377c3347a48ba3c4a75", "bike_id": "2315ab4ef07b5377c3347a48ba3c4a75", "is_disabled": 0, "fusion_lon": 0.0, "type": "electric_scooter", "lon": -77.0315675}, {"rental_uris": {"android": "https://dc.lft.to/lastmile_qr_scan", "ios": "https://dc.lft.to/lastmile_qr_scan"}, "fusion_lat": 0.0, "is_reserved": 0, "lat": 38.9191685, "name": "f82f5956a2ea59d340116c71a6af52b4", "bike_id": "f82f5956a2ea59d340116c71a6af52b4", "is_disabled": 0, "fusion_lon": 0.0, "type": "electric_scooter", "lon": -77.04208733333333}, {"rental_uris": {"android": "https://dc.lft.to/lastmile_qr_scan", "ios": "https://dc.lft.to/lastmile_qr_scan"}, "fusion_lat": 0.0, "is_reserved": 0, "lat": 38.92147383333333, "name": "18a879d3e7652dbfad7cc3083a62752c", "bike_id": "18a879d3e7652dbfad7cc3083a62752c", "is_disabled": 0, "fusion_lon": 0.0, "type": "electric_scooter", "lon": -77.03382333333333}, {"rental_uris": {"android": "https://dc.lft.to/lastmile_qr_scan", "ios": "https://dc.lft.to/lastmile_qr_scan"}, "fusion_lat": 0.0, "is_reserved": 0, "lat": 38.89770633333333, "name": "67488b4783663e1f81696828c88bdb07", "bike_id": "67488b4783663e1f81696828c88bdb07", "is_disabled": 0, "fusion_lon": 0.0, "type": "electric_scooter", "lon": -77.04780566666666}, {"rental_uris": {"android": "https://dc.lft.to/lastmile_qr_scan", "ios": "https://dc.lft.to/lastmile_qr_scan"}, "fusion_lat": 0.0, "is_reserved": 0, "lat": 38.929150666666665, "name": "2efd137053e7b863478dee44483ca4e3", "bike_id": "2efd137053e7b863478dee44483ca4e3", "is_disabled": 0, "fusion_lon": 0.0, "type": "electric_scooter", "lon": -76.99813283333333}, {"rental_uris": {"android": "https://dc.lft.to/lastmile_qr_scan", "ios": "https://dc.lft.to/lastmile_qr_scan"}, "fusion_lat": 0.0, "is_reserved": 0, "lat": 38.924821333333334, "name": "12e2ad90e1b2c3850184081c9ae1e169", "bike_id": "12e2ad90e1b2c3850184081c9ae1e169", "is_disabled": 0, "fusion_lon": 0.0, "type": "electric_scooter", "lon": -77.0521155}, {"rental_uris": {"android": "https://dc.lft.to/lastmile_qr_scan", "ios": "https://dc.lft.to/lastmile_qr_scan"}, "fusion_lat": 0.0, "is_reserved": 0, "lat": 38.9019785, "name": "dea82c9aaa03c6c8851f900d2e67c6f6", "bike_id": "dea82c9aaa03c6c8851f900d2e67c6f6", "is_disabled": 0, "fusion_lon": 0.0, "type": "electric_scooter", "lon": -77.02191983333333}, {"rental_uris": {"android": "https://dc.lft.to/lastmile_qr_scan", "ios": "https://dc.lft.to/lastmile_qr_scan"}, "fusion_lat": 0.0, "is_reserved": 0, "lat": 38.914231666666666, "name": "d6104c8629d68dd23801168b55335d0a", "bike_id": "d6104c8629d68dd23801168b55335d0a", "is_disabled": 0, "fusion_lon": 0.0, "type": "electric_scooter", "lon": -77.0320725}, {"rental_uris": {"android": "https://dc.lft.to/lastmile_qr_scan", "ios": "https://dc.lft.to/lastmile_qr_scan"}, "fusion_lat": 0.0, "is_reserved": 0, "lat": 38.914529333333334, "name": "56f484cccd5bc96292b87e90012d2ea3", "bike_id": "56f484cccd5bc96292b87e90012d2ea3", "is_disabled": 0, "fusion_lon": 0.0, "type": "electric_bike", "lon": -76.9728025}, {"rental_uris": {"android": "https://dc.lft.to/lastmile_qr_scan", "ios": "https://dc.lft.to/lastmile_qr_scan"}, "fusion_lat": 0.0, "is_reserved": 0, "lat": 38.899073333333334, "name": "d03f033aa014f7af6a5052572515f80c", "bike_id": "d03f033aa014f7af6a5052572515f80c", "is_disabled": 0, "fusion_lon": 0.0, "type": "electric_scooter", "lon": -76.97996633333334}, {"rental_uris": {"android": "https://dc.lft.to/lastmile_qr_scan", "ios": "https://dc.lft.to/lastmile_qr_scan"}, "fusion_lat": 0.0, "is_reserved": 0, "lat": 38.919249, "name": "31d47749250019406eec19c83a7f1b31", "bike_id": "31d47749250019406eec19c83a7f1b31", "is_disabled": 0, "fusion_lon": 0.0, "type": "electric_scooter", "lon": -77.07279383333334}, {"rental_uris": {"android": "https://dc.lft.to/lastmile_qr_scan", "ios": "https://dc.lft.to/lastmile_qr_scan"}, "fusion_lat": 0.0, "is_reserved": 0, "lat": 38.911012166666666, "name": "a89abe5aa3850f1d55011ce82c0ce80a", "bike_id": "a89abe5aa3850f1d55011ce82c0ce80a", "is_disabled": 0, "fusion_lon": 0.0, "type": "electric_scooter", "lon": -77.02185133333333}, {"rental_uris": {"android": "https://dc.lft.to/lastmile_qr_scan", "ios": "https://dc.lft.to/lastmile_qr_scan"}, "fusion_lat": 0.0, "is_reserved": 0, "lat": 38.921536333333336, "name": "affc93b6d1312d688851a673968bd7cf", "bike_id": "affc93b6d1312d688851a673968bd7cf", "is_disabled": 0, "fusion_lon": 0.0, "type": "electric_scooter", "lon": -77.020716}, {"rental_uris": {"android": "https://dc.lft.to/lastmile_qr_scan", "ios": "https://dc.lft.to/lastmile_qr_scan"}, "fusion_lat": 0.0, "is_reserved": 0, "lat": 38.90719466666667, "name": "6029b6bff08bb9d6041bdeb70662e728", "bike_id": "6029b6bff08bb9d6041bdeb70662e728", "is_disabled": 0, "fusion_lon": 0.0, "type": "electric_scooter", "lon": -77.02547133333333}, {"rental_uris": {"android": "https://dc.lft.to/lastmile_qr_scan", "ios": "https://dc.lft.to/lastmile_qr_scan"}, "fusion_lat": 0.0, "is_reserved": 0, "lat": 38.922846166666666, "name": "904b45b5b1309c6cb016315150115803", "bike_id": "904b45b5b1309c6cb016315150115803", "is_disabled": 0, "fusion_lon": 0.0, "type": "electric_scooter", "lon": -76.997707}, {"rental_uris": {"android": "https://dc.lft.to/lastmile_qr_scan", "ios": "https://dc.lft.to/lastmile_qr_scan"}, "fusion_lat": 0.0, "is_reserved": 0, "lat": 38.97499066666666, "name": "6bd520dd522537c99990f089d66144b9", "bike_id": "6bd520dd522537c99990f089d66144b9", "is_disabled": 0, "fusion_lon": 0.0, "type": "electric_scooter", "lon": -77.0169605}, {"rental_uris": {"android": "https://dc.lft.to/lastmile_qr_scan", "ios": "https://dc.lft.to/lastmile_qr_scan"}, "fusion_lat": 0.0, "is_reserved": 0, "lat": 38.9438115, "name": "1b00d46ccc537f2e69a25bbccf162112", "bike_id": "1b00d46ccc537f2e69a25bbccf162112", "is_disabled": 0, "fusion_lon": 0.0, "type": "electric_bike", "lon": -77.023526}, {"rental_uris": {"android": "https://dc.lft.to/lastmile_qr_scan", "ios": "https://dc.lft.to/lastmile_qr_scan"}, "fusion_lat": 0.0, "is_reserved": 0, "lat": 38.89221366666666, "name": "edaaded61e1bca1735bbde96f0a10f9e", "bike_id": "edaaded61e1bca1735bbde96f0a10f9e", "is_disabled": 0, "fusion_lon": 0.0, "type": "electric_scooter", "lon": -77.04505183333333}, {"rental_uris": {"android": "https://dc.lft.to/lastmile_qr_scan", "ios": "https://dc.lft.to/lastmile_qr_scan"}, "fusion_lat": 0.0, "is_reserved": 0, "lat": 38.879189333333336, "name": "f6be3321d952d5154082e9608e701e69", "bike_id": "f6be3321d952d5154082e9608e701e69", "is_disabled": 0, "fusion_lon": 0.0, "type": "electric_scooter", "lon": -77.0215505}, {"rental_uris": {"android": "https://dc.lft.to/lastmile_qr_scan", "ios": "https://dc.lft.to/lastmile_qr_scan"}, "fusion_lat": 0.0, "is_reserved": 0, "lat": 38.91324816666667, "name": "e99ff8eccaeacb54cbca9e4fff1276f2", "bike_id": "e99ff8eccaeacb54cbca9e4fff1276f2", "is_disabled": 0, "fusion_lon": 0.0, "type": "electric_scooter", "lon": -77.0149925}, {"rental_uris": {"android": "https://dc.lft.to/lastmile_qr_scan", "ios": "https://dc.lft.to/lastmile_qr_scan"}, "fusion_lat": 0.0, "is_reserved": 0, "lat": 38.936943166666666, "name": "1c0f81d197e913ced508da300a59e84b", "bike_id": "1c0f81d197e913ced508da300a59e84b", "is_disabled": 0, "fusion_lon": 0.0, "type": "electric_scooter", "lon": -77.02717733333333}, {"rental_uris": {"android": "https://dc.lft.to/lastmile_qr_scan", "ios": "https://dc.lft.to/lastmile_qr_scan"}, "fusion_lat": 0.0, "is_reserved": 0, "lat": 38.91645966666667, "name": "88d64b81e719a700ab445128d3d5ffc6", "bike_id": "88d64b81e719a700ab445128d3d5ffc6", "is_disabled": 0, "fusion_lon": 0.0, "type": "electric_scooter", "lon": -77.03220666666667}, {"rental_uris": {"android": "https://dc.lft.to/lastmile_qr_scan", "ios": "https://dc.lft.to/lastmile_qr_scan"}, "fusion_lat": 0.0, "is_reserved": 0, "lat": 38.92520666666667, "name": "05e8bf38675384c6d6309d31a9910a91", "bike_id": "05e8bf38675384c6d6309d31a9910a91", "is_disabled": 0, "fusion_lon": 0.0, "type": "electric_scooter", "lon": -77.050582}, {"rental_uris": {"android": "https://dc.lft.to/lastmile_qr_scan", "ios": "https://dc.lft.to/lastmile_qr_scan"}, "fusion_lat": 0.0, "is_reserved": 0, "lat": 38.920433333333335, "name": "9d6161409e9eed9c77fcf3aa17d46730", "bike_id": "9d6161409e9eed9c77fcf3aa17d46730", "is_disabled": 0, "fusion_lon": 0.0, "type": "electric_scooter", "lon": -77.03287983333334}, {"rental_uris": {"android": "https://dc.lft.to/lastmile_qr_scan", "ios": "https://dc.lft.to/lastmile_qr_scan"}, "fusion_lat": 0.0, "is_reserved": 0, "lat": 38.90644733333333, "name": "37f83aed68f4762830e85898bc7d5709", "bike_id": "37f83aed68f4762830e85898bc7d5709", "is_disabled": 0, "fusion_lon": 0.0, "type": "electric_scooter", "lon": -77.01434}, {"rental_uris": {"android": "https://dc.lft.to/lastmile_qr_scan", "ios": "https://dc.lft.to/lastmile_qr_scan"}, "fusion_lat": 0.0, "is_reserved": 0, "lat": 38.93741716666667, "name": "4fd6bd892ecf0e00870451bd25df36dd", "bike_id": "4fd6bd892ecf0e00870451bd25df36dd", "is_disabled": 0, "fusion_lon": 0.0, "type": "electric_scooter", "lon": -77.03432166666667}, {"rental_uris": {"android": "https://dc.lft.to/lastmile_qr_scan", "ios": "https://dc.lft.to/lastmile_qr_scan"}, "fusion_lat": 0.0, "is_reserved": 0, "lat": 38.93058216666667, "name": "e75f6ebeb7eb5382fa1b0829c20cc2c0", "bike_id": "e75f6ebeb7eb5382fa1b0829c20cc2c0", "is_disabled": 0, "fusion_lon": 0.0, "type": "electric_scooter", "lon": -77.0232205}, {"rental_uris": {"android": "https://dc.lft.to/lastmile_qr_scan", "ios": "https://dc.lft.to/lastmile_qr_scan"}, "fusion_lat": 0.0, "is_reserved": 0, "lat": 38.9023285, "name": "c8dde2914e20c957e26ec08a24332a7f", "bike_id": "c8dde2914e20c957e26ec08a24332a7f", "is_disabled": 0, "fusion_lon": 0.0, "type": "electric_scooter", "lon": -77.03960816666667}, {"rental_uris": {"android": "https://dc.lft.to/lastmile_qr_scan", "ios": "https://dc.lft.to/lastmile_qr_scan"}, "fusion_lat": 0.0, "is_reserved": 0, "lat": 38.8982055, "name": "4170282bcdb6d506427eef660a74f2e1", "bike_id": "4170282bcdb6d506427eef660a74f2e1", "is_disabled": 0, "fusion_lon": 0.0, "type": "electric_scooter", "lon": -77.028216}, {"rental_uris": {"android": "https://dc.lft.to/lastmile_qr_scan", "ios": "https://dc.lft.to/lastmile_qr_scan"}, "fusion_lat": 0.0, "is_reserved": 0, "lat": 38.89354766666666, "name": "a39dd1c247f0d8691518ba3c5fcaaa2a", "bike_id": "a39dd1c247f0d8691518ba3c5fcaaa2a", "is_disabled": 0, "fusion_lon": 0.0, "type": "electric_scooter", "lon": -77.00331633333333}, {"rental_uris": {"android": "https://dc.lft.to/lastmile_qr_scan", "ios": "https://dc.lft.to/lastmile_qr_scan"}, "fusion_lat": 0.0, "is_reserved": 0, "lat": 38.8872465, "name": "9b8acdf9fa6486fe4cda57bc22aa27f0", "bike_id": "9b8acdf9fa6486fe4cda57bc22aa27f0", "is_disabled": 0, "fusion_lon": 0.0, "type": "electric_scooter", "lon": -76.996794}, {"rental_uris": {"android": "https://dc.lft.to/lastmile_qr_scan", "ios": "https://dc.lft.to/lastmile_qr_scan"}, "fusion_lat": 0.0, "is_reserved": 0, "lat": 38.937434333333336, "name": "7beecb6567c7b0f0bf61cc8f6e135aff", "bike_id": "7beecb6567c7b0f0bf61cc8f6e135aff", "is_disabled": 0, "fusion_lon": 0.0, "type": "electric_scooter", "lon": -77.0325975}, {"rental_uris": {"android": "https://dc.lft.to/lastmile_qr_scan", "ios": "https://dc.lft.to/lastmile_qr_scan"}, "fusion_lat": 0.0, "is_reserved": 0, "lat": 38.854371, "name": "78d8b9f0509356a81b393ee245fe0cd3", "bike_id": "78d8b9f0509356a81b393ee245fe0cd3", "is_disabled": 0, "fusion_lon": 0.0, "type": "electric_bike", "lon": -77.08320566666667}, {"rental_uris": {"android": "https://dc.lft.to/lastmile_qr_scan", "ios": "https://dc.lft.to/lastmile_qr_scan"}, "fusion_lat": 0.0, "is_reserved": 0, "lat": 38.8775355, "name": "2e5375ea763d466214f6cf8bfac946b9", "bike_id": "2e5375ea763d466214f6cf8bfac946b9", "is_disabled": 0, "fusion_lon": 0.0, "type": "electric_scooter", "lon": -77.00318016666667}, {"rental_uris": {"android": "https://dc.lft.to/lastmile_qr_scan", "ios": "https://dc.lft.to/lastmile_qr_scan"}, "fusion_lat": 0.0, "is_reserved": 0, "lat": 39.0211565, "name": "2bc56e41c80df61a332d98a4cfa6696f", "bike_id": "2bc56e41c80df61a332d98a4cfa6696f", "is_disabled": 0, "fusion_lon": 0.0, "type": "electric_bike", "lon": -77.04498416666667}, {"rental_uris": {"android": "https://dc.lft.to/lastmile_qr_scan", "ios": "https://dc.lft.to/lastmile_qr_scan"}, "fusion_lat": 0.0, "is_reserved": 0, "lat": 38.866210333333335, "name": "5aaad4352bfdc87b8a6976ba218a57e2", "bike_id": "5aaad4352bfdc87b8a6976ba218a57e2", "is_disabled": 0, "fusion_lon": 0.0, "type": "electric_bike", "lon": -76.94569483333333}, {"rental_uris": {"android": "https://dc.lft.to/lastmile_qr_scan", "ios": "https://dc.lft.to/lastmile_qr_scan"}, "fusion_lat": 0.0, "is_reserved": 0, "lat": 38.894683, "name": "b4db9c882a45d7335c5b7d5a18b4c69e", "bike_id": "b4db9c882a45d7335c5b7d5a18b4c69e", "is_disabled": 0, "fusion_lon": 0.0, "type": "electric_scooter", "lon": -76.997127}, {"rental_uris": {"android": "https://dc.lft.to/lastmile_qr_scan", "ios": "https://dc.lft.to/lastmile_qr_scan"}, "fusion_lat": 0.0, "is_reserved": 0, "lat": 38.901649, "name": "d467b055082f97fef9e8215ce790bcde", "bike_id": "d467b055082f97fef9e8215ce790bcde", "is_disabled": 0, "fusion_lon": 0.0, "type": "electric_scooter", "lon": -77.02476233333333}, {"rental_uris": {"android": "https://dc.lft.to/lastmile_qr_scan", "ios": "https://dc.lft.to/lastmile_qr_scan"}, "fusion_lat": 0.0, "is_reserved": 0, "lat": 38.9307295, "name": "fd79f3bfa9b2a129781e725a414aedae", "bike_id": "fd79f3bfa9b2a129781e725a414aedae", "is_disabled": 0, "fusion_lon": 0.0, "type": "electric_scooter", "lon": -77.037334}, {"rental_uris": {"android": "https://dc.lft.to/lastmile_qr_scan", "ios": "https://dc.lft.to/lastmile_qr_scan"}, "fusion_lat": 0.0, "is_reserved": 0, "lat": 38.9170395, "name": "7a74249fd576d26e77eaee4aa8c4c1b4", "bike_id": "7a74249fd576d26e77eaee4aa8c4c1b4", "is_disabled": 0, "fusion_lon": 0.0, "type": "electric_scooter", "lon": -77.02280283333333}, {"rental_uris": {"android": "https://dc.lft.to/lastmile_qr_scan", "ios": "https://dc.lft.to/lastmile_qr_scan"}, "fusion_lat": 0.0, "is_reserved": 0, "lat": 38.8899445, "name": "f082428641df9fb248e1abd067c5fc1f", "bike_id": "f082428641df9fb248e1abd067c5fc1f", "is_disabled": 0, "fusion_lon": 0.0, "type": "electric_scooter", "lon": -76.99251366666667}, {"rental_uris": {"android": "https://dc.lft.to/lastmile_qr_scan", "ios": "https://dc.lft.to/lastmile_qr_scan"}, "fusion_lat": 0.0, "is_reserved": 0, "lat": 38.959079333333335, "name": "1ec6232db04089ab2d6b417369f487e0", "bike_id": "1ec6232db04089ab2d6b417369f487e0", "is_disabled": 0, "fusion_lon": 0.0, "type": "electric_scooter", "lon": -77.00017816666667}, {"rental_uris": {"android": "https://dc.lft.to/lastmile_qr_scan", "ios": "https://dc.lft.to/lastmile_qr_scan"}, "fusion_lat": 0.0, "is_reserved": 0, "lat": 38.918145333333335, "name": "a5ecf360f6f6fb717377f0c77825f8e1", "bike_id": "a5ecf360f6f6fb717377f0c77825f8e1", "is_disabled": 0, "fusion_lon": 0.0, "type": "electric_scooter", "lon": -77.0247945}, {"rental_uris": {"android": "https://dc.lft.to/lastmile_qr_scan", "ios": "https://dc.lft.to/lastmile_qr_scan"}, "fusion_lat": 0.0, "is_reserved": 0, "lat": 38.922849, "name": "74adacef55402ec3071e88fa1d41a3b2", "bike_id": "74adacef55402ec3071e88fa1d41a3b2", "is_disabled": 0, "fusion_lon": 0.0, "type": "electric_scooter", "lon": -77.03661183333334}, {"rental_uris": {"android": "https://dc.lft.to/lastmile_qr_scan", "ios": "https://dc.lft.to/lastmile_qr_scan"}, "fusion_lat": 0.0, "is_reserved": 0, "lat": 38.94262366666667, "name": "3da3c28324974c5888cb1ac54a2fe2b4", "bike_id": "3da3c28324974c5888cb1ac54a2fe2b4", "is_disabled": 0, "fusion_lon": 0.0, "type": "electric_bike", "lon": -76.99073016666667}, {"rental_uris": {"android": "https://dc.lft.to/lastmile_qr_scan", "ios": "https://dc.lft.to/lastmile_qr_scan"}, "fusion_lat": 0.0, "is_reserved": 0, "lat": 38.904878833333335, "name": "73c27c93a0065f3c0a777ae2d56cc9a0", "bike_id": "73c27c93a0065f3c0a777ae2d56cc9a0", "is_disabled": 0, "fusion_lon": 0.0, "type": "electric_scooter", "lon": -76.97739916666667}, {"rental_uris": {"android": "https://dc.lft.to/lastmile_qr_scan", "ios": "https://dc.lft.to/lastmile_qr_scan"}, "fusion_lat": 0.0, "is_reserved": 0, "lat": 38.879881166666664, "name": "748b3a227a05b7c13cc2421eadfec26c", "bike_id": "748b3a227a05b7c13cc2421eadfec26c", "is_disabled": 0, "fusion_lon": 0.0, "type": "electric_scooter", "lon": -76.98403916666666}, {"rental_uris": {"android": "https://dc.lft.to/lastmile_qr_scan", "ios": "https://dc.lft.to/lastmile_qr_scan"}, "fusion_lat": 0.0, "is_reserved": 0, "lat": 38.90334883333333, "name": "0ec0da4d6daa7a46bf5c423b87e6898e", "bike_id": "0ec0da4d6daa7a46bf5c423b87e6898e", "is_disabled": 0, "fusion_lon": 0.0, "type": "electric_scooter", "lon": -76.98233233333333}, {"rental_uris": {"android": "https://dc.lft.to/lastmile_qr_scan", "ios": "https://dc.lft.to/lastmile_qr_scan"}, "fusion_lat": 0.0, "is_reserved": 0, "lat": 38.94821, "name": "2d3cb2d09cc16e7436efc28cddba0674", "bike_id": "2d3cb2d09cc16e7436efc28cddba0674", "is_disabled": 0, "fusion_lon": 0.0, "type": "electric_bike", "lon": -77.006343}, {"rental_uris": {"android": "https://dc.lft.to/lastmile_qr_scan", "ios": "https://dc.lft.to/lastmile_qr_scan"}, "fusion_lat": 0.0, "is_reserved": 0, "lat": 38.876369, "name": "ea65e0ed7c10edbd08a6c53f69e05106", "bike_id": "ea65e0ed7c10edbd08a6c53f69e05106", "is_disabled": 0, "fusion_lon": 0.0, "type": "electric_scooter", "lon": -77.01659933333333}, {"rental_uris": {"android": "https://dc.lft.to/lastmile_qr_scan", "ios": "https://dc.lft.to/lastmile_qr_scan"}, "fusion_lat": 0.0, "is_reserved": 0, "lat": 38.9051215, "name": "51f8dd08c249dc4a9f344d72ba7e06b3", "bike_id": "51f8dd08c249dc4a9f344d72ba7e06b3", "is_disabled": 0, "fusion_lon": 0.0, "type": "electric_scooter", "lon": -77.051285}, {"rental_uris": {"android": "https://dc.lft.to/lastmile_qr_scan", "ios": "https://dc.lft.to/lastmile_qr_scan"}, "fusion_lat": 0.0, "is_reserved": 0, "lat": 38.882625833333336, "name": "0429a58f2e3d318d6a2d8220174a23dd", "bike_id": "0429a58f2e3d318d6a2d8220174a23dd", "is_disabled": 0, "fusion_lon": 0.0, "type": "electric_scooter", "lon": -76.991982}, {"rental_uris": {"android": "https://dc.lft.to/lastmile_qr_scan", "ios": "https://dc.lft.to/lastmile_qr_scan"}, "fusion_lat": 0.0, "is_reserved": 0, "lat": 38.9269365, "name": "7c99ddde35b447d333ce0356ad256fd1", "bike_id": "7c99ddde35b447d333ce0356ad256fd1", "is_disabled": 0, "fusion_lon": 0.0, "type": "electric_scooter", "lon": -77.02057366666666}, {"rental_uris": {"android": "https://dc.lft.to/lastmile_qr_scan", "ios": "https://dc.lft.to/lastmile_qr_scan"}, "fusion_lat": 0.0, "is_reserved": 0, "lat": 38.9055895, "name": "8014481d9f63551f367b991f42dc74d7", "bike_id": "8014481d9f63551f367b991f42dc74d7", "is_disabled": 0, "fusion_lon": 0.0, "type": "electric_scooter", "lon": -77.04189233333334}, {"rental_uris": {"android": "https://dc.lft.to/lastmile_qr_scan", "ios": "https://dc.lft.to/lastmile_qr_scan"}, "fusion_lat": 0.0, "is_reserved": 0, "lat": 38.896128833333336, "name": "dbaf5aa2be7ea3c7c6d2b5aa8b1acb6b", "bike_id": "dbaf5aa2be7ea3c7c6d2b5aa8b1acb6b", "is_disabled": 0, "fusion_lon": 0.0, "type": "electric_scooter", "lon": -77.01171516666666}, {"rental_uris": {"android": "https://dc.lft.to/lastmile_qr_scan", "ios": "https://dc.lft.to/lastmile_qr_scan"}, "fusion_lat": 0.0, "is_reserved": 0, "lat": 38.94728683333334, "name": "e8e29c61a86f3f29fbd7c596df9f16b9", "bike_id": "e8e29c61a86f3f29fbd7c596df9f16b9", "is_disabled": 0, "fusion_lon": 0.0, "type": "electric_scooter", "lon": -77.0246165}, {"rental_uris": {"android": "https://dc.lft.to/lastmile_qr_scan", "ios": "https://dc.lft.to/lastmile_qr_scan"}, "fusion_lat": 0.0, "is_reserved": 0, "lat": 38.900648, "name": "33e84a9a6b677bd7ba27ce957632cc2f", "bike_id": "33e84a9a6b677bd7ba27ce957632cc2f", "is_disabled": 0, "fusion_lon": 0.0, "type": "electric_scooter", "lon": -76.92742833333334}, {"rental_uris": {"android": "https://dc.lft.to/lastmile_qr_scan", "ios": "https://dc.lft.to/lastmile_qr_scan"}, "fusion_lat": 0.0, "is_reserved": 0, "lat": 38.920549333333334, "name": "009340a438a227816224f223ed2dabd5", "bike_id": "009340a438a227816224f223ed2dabd5", "is_disabled": 0, "fusion_lon": 0.0, "type": "electric_scooter", "lon": -77.02985466666667}, {"rental_uris": {"android": "https://dc.lft.to/lastmile_qr_scan", "ios": "https://dc.lft.to/lastmile_qr_scan"}, "fusion_lat": 0.0, "is_reserved": 0, "lat": 38.898032, "name": "a54bf3516a221859c1380a2e6fc4d640", "bike_id": "a54bf3516a221859c1380a2e6fc4d640", "is_disabled": 0, "fusion_lon": 0.0, "type": "electric_scooter", "lon": -77.04614133333334}, {"rental_uris": {"android": "https://dc.lft.to/lastmile_qr_scan", "ios": "https://dc.lft.to/lastmile_qr_scan"}, "fusion_lat": 0.0, "is_reserved": 0, "lat": 38.934659833333335, "name": "846574a55fb56bea4385e3975b301d00", "bike_id": "846574a55fb56bea4385e3975b301d00", "is_disabled": 0, "fusion_lon": 0.0, "type": "electric_scooter", "lon": -77.04138183333333}, {"rental_uris": {"android": "https://dc.lft.to/lastmile_qr_scan", "ios": "https://dc.lft.to/lastmile_qr_scan"}, "fusion_lat": 0.0, "is_reserved": 0, "lat": 38.91413433333334, "name": "eacba6061986c26fc399325a430e0c19", "bike_id": "eacba6061986c26fc399325a430e0c19", "is_disabled": 0, "fusion_lon": 0.0, "type": "electric_scooter", "lon": -77.019067}, {"rental_uris": {"android": "https://dc.lft.to/lastmile_qr_scan", "ios": "https://dc.lft.to/lastmile_qr_scan"}, "fusion_lat": 0.0, "is_reserved": 0, "lat": 38.9076845, "name": "498432fad2854d63e0de0de9d0383afe", "bike_id": "498432fad2854d63e0de0de9d0383afe", "is_disabled": 0, "fusion_lon": 0.0, "type": "electric_scooter", "lon": -77.037544}, {"rental_uris": {"android": "https://dc.lft.to/lastmile_qr_scan", "ios": "https://dc.lft.to/lastmile_qr_scan"}, "fusion_lat": 0.0, "is_reserved": 0, "lat": 38.92202966666667, "name": "451b20b4962bdab5e42de5b6a70dcedd", "bike_id": "451b20b4962bdab5e42de5b6a70dcedd", "is_disabled": 0, "fusion_lon": 0.0, "type": "electric_scooter", "lon": -77.0271235}, {"rental_uris": {"android": "https://dc.lft.to/lastmile_qr_scan", "ios": "https://dc.lft.to/lastmile_qr_scan"}, "fusion_lat": 0.0, "is_reserved": 0, "lat": 38.939583166666665, "name": "a3b20cc20e50104f1ed7c47139543090", "bike_id": "a3b20cc20e50104f1ed7c47139543090", "is_disabled": 0, "fusion_lon": 0.0, "type": "electric_scooter", "lon": -77.07239816666667}, {"rental_uris": {"android": "https://dc.lft.to/lastmile_qr_scan", "ios": "https://dc.lft.to/lastmile_qr_scan"}, "fusion_lat": 0.0, "is_reserved": 0, "lat": 38.91041933333333, "name": "9b273f98e2b329427d27e8ecbeff349d", "bike_id": "9b273f98e2b329427d27e8ecbeff349d", "is_disabled": 0, "fusion_lon": 0.0, "type": "electric_scooter", "lon": -77.02182}, {"rental_uris": {"android": "https://dc.lft.to/lastmile_qr_scan", "ios": "https://dc.lft.to/lastmile_qr_scan"}, "fusion_lat": 0.0, "is_reserved": 0, "lat": 38.9223035, "name": "0a8110be7e33766353e269bc7d928c7d", "bike_id": "0a8110be7e33766353e269bc7d928c7d", "is_disabled": 0, "fusion_lon": 0.0, "type": "electric_scooter", "lon": -77.023349}, {"rental_uris": {"android": "https://dc.lft.to/lastmile_qr_scan", "ios": "https://dc.lft.to/lastmile_qr_scan"}, "fusion_lat": 0.0, "is_reserved": 0, "lat": 38.91477033333334, "name": "ff98260b990f684aba3c92395a0ce782", "bike_id": "ff98260b990f684aba3c92395a0ce782", "is_disabled": 0, "fusion_lon": 0.0, "type": "electric_scooter", "lon": -77.02165566666666}, {"rental_uris": {"android": "https://dc.lft.to/lastmile_qr_scan", "ios": "https://dc.lft.to/lastmile_qr_scan"}, "fusion_lat": 0.0, "is_reserved": 0, "lat": 38.90845783333333, "name": "30be77accccbc18c2670085ca0335f76", "bike_id": "30be77accccbc18c2670085ca0335f76", "is_disabled": 0, "fusion_lon": 0.0, "type": "electric_scooter", "lon": -77.00205166666667}, {"rental_uris": {"android": "https://dc.lft.to/lastmile_qr_scan", "ios": "https://dc.lft.to/lastmile_qr_scan"}, "fusion_lat": 0.0, "is_reserved": 0, "lat": 38.871784166666664, "name": "fa189d748c84ed53f7637a75ac8ea191", "bike_id": "fa189d748c84ed53f7637a75ac8ea191", "is_disabled": 0, "fusion_lon": 0.0, "type": "electric_scooter", "lon": -77.00614483333334}, {"rental_uris": {"android": "https://dc.lft.to/lastmile_qr_scan", "ios": "https://dc.lft.to/lastmile_qr_scan"}, "fusion_lat": 0.0, "is_reserved": 0, "lat": 38.897854333333335, "name": "44317e6c44ea19750bb7700c7fc8af9a", "bike_id": "44317e6c44ea19750bb7700c7fc8af9a", "is_disabled": 0, "fusion_lon": 0.0, "type": "electric_scooter", "lon": -77.0164415}, {"rental_uris": {"android": "https://dc.lft.to/lastmile_qr_scan", "ios": "https://dc.lft.to/lastmile_qr_scan"}, "fusion_lat": 0.0, "is_reserved": 0, "lat": 38.842756666666666, "name": "861dd534cddfd84f411262b015931415", "bike_id": "861dd534cddfd84f411262b015931415", "is_disabled": 0, "fusion_lon": 0.0, "type": "electric_bike", "lon": -76.988414}, {"rental_uris": {"android": "https://dc.lft.to/lastmile_qr_scan", "ios": "https://dc.lft.to/lastmile_qr_scan"}, "fusion_lat": 0.0, "is_reserved": 0, "lat": 38.90130583333333, "name": "400e71e73c490b77cec5fb329967ba21", "bike_id": "400e71e73c490b77cec5fb329967ba21", "is_disabled": 0, "fusion_lon": 0.0, "type": "electric_scooter", "lon": -76.980021}, {"rental_uris": {"android": "https://dc.lft.to/lastmile_qr_scan", "ios": "https://dc.lft.to/lastmile_qr_scan"}, "fusion_lat": 0.0, "is_reserved": 0, "lat": 38.89014233333333, "name": "685ea172e5dda32563fbc9c7643185c3", "bike_id": "685ea172e5dda32563fbc9c7643185c3", "is_disabled": 0, "fusion_lon": 0.0, "type": "electric_scooter", "lon": -76.9373775}, {"rental_uris": {"android": "https://dc.lft.to/lastmile_qr_scan", "ios": "https://dc.lft.to/lastmile_qr_scan"}, "fusion_lat": 0.0, "is_reserved": 0, "lat": 38.9109335, "name": "59175cbf8b55559c2ae720fe0c387f8d", "bike_id": "59175cbf8b55559c2ae720fe0c387f8d", "is_disabled": 0, "fusion_lon": 0.0, "type": "electric_scooter", "lon": -77.0734435}, {"rental_uris": {"android": "https://dc.lft.to/lastmile_qr_scan", "ios": "https://dc.lft.to/lastmile_qr_scan"}, "fusion_lat": 0.0, "is_reserved": 0, "lat": 38.9181855, "name": "01308f4221d12cfa2fc299441344dc18", "bike_id": "01308f4221d12cfa2fc299441344dc18", "is_disabled": 0, "fusion_lon": 0.0, "type": "electric_scooter", "lon": -77.024794}, {"rental_uris": {"android": "https://dc.lft.to/lastmile_qr_scan", "ios": "https://dc.lft.to/lastmile_qr_scan"}, "fusion_lat": 0.0, "is_reserved": 0, "lat": 38.887149, "name": "95738d4c3c56810aa282f6503052017e", "bike_id": "95738d4c3c56810aa282f6503052017e", "is_disabled": 0, "fusion_lon": 0.0, "type": "electric_scooter", "lon": -77.02181533333334}, {"rental_uris": {"android": "https://dc.lft.to/lastmile_qr_scan", "ios": "https://dc.lft.to/lastmile_qr_scan"}, "fusion_lat": 0.0, "is_reserved": 0, "lat": 38.91474216666667, "name": "1f83c88841932a4234d4af46b44c1e48", "bike_id": "1f83c88841932a4234d4af46b44c1e48", "is_disabled": 0, "fusion_lon": 0.0, "type": "electric_scooter", "lon": -77.021757}, {"rental_uris": {"android": "https://dc.lft.to/lastmile_qr_scan", "ios": "https://dc.lft.to/lastmile_qr_scan"}, "fusion_lat": 0.0, "is_reserved": 0, "lat": 38.912499, "name": "f4e9696fbdccb74c91dc8b11a1d0b39f", "bike_id": "f4e9696fbdccb74c91dc8b11a1d0b39f", "is_disabled": 0, "fusion_lon": 0.0, "type": "electric_scooter", "lon": -77.0386785}, {"rental_uris": {"android": "https://dc.lft.to/lastmile_qr_scan", "ios": "https://dc.lft.to/lastmile_qr_scan"}, "fusion_lat": 0.0, "is_reserved": 0, "lat": 38.896042, "name": "77ee9645da4a240be4f523101aa45b7e", "bike_id": "77ee9645da4a240be4f523101aa45b7e", "is_disabled": 0, "fusion_lon": 0.0, "type": "electric_scooter", "lon": -77.03035516666667}, {"rental_uris": {"android": "https://dc.lft.to/lastmile_qr_scan", "ios": "https://dc.lft.to/lastmile_qr_scan"}, "fusion_lat": 0.0, "is_reserved": 0, "lat": 38.879092666666665, "name": "1dc95b74c941a23e6e11f672a7ab5bed", "bike_id": "1dc95b74c941a23e6e11f672a7ab5bed", "is_disabled": 0, "fusion_lon": 0.0, "type": "electric_scooter", "lon": -77.00721383333334}, {"rental_uris": {"android": "https://dc.lft.to/lastmile_qr_scan", "ios": "https://dc.lft.to/lastmile_qr_scan"}, "fusion_lat": 0.0, "is_reserved": 0, "lat": 38.9018595, "name": "004d70b59435774ab5e75b6ca087d1d0", "bike_id": "004d70b59435774ab5e75b6ca087d1d0", "is_disabled": 0, "fusion_lon": 0.0, "type": "electric_scooter", "lon": -77.03381683333333}, {"rental_uris": {"android": "https://dc.lft.to/lastmile_qr_scan", "ios": "https://dc.lft.to/lastmile_qr_scan"}, "fusion_lat": 0.0, "is_reserved": 0, "lat": 38.91050966666667, "name": "d1d03a7fb519f50e30baf39ab669b15b", "bike_id": "d1d03a7fb519f50e30baf39ab669b15b", "is_disabled": 0, "fusion_lon": 0.0, "type": "electric_scooter", "lon": -77.0384145}, {"rental_uris": {"android": "https://dc.lft.to/lastmile_qr_scan", "ios": "https://dc.lft.to/lastmile_qr_scan"}, "fusion_lat": 0.0, "is_reserved": 0, "lat": 38.94411316666667, "name": "97919762d2a142882751690964a8a5f6", "bike_id": "97919762d2a142882751690964a8a5f6", "is_disabled": 0, "fusion_lon": 0.0, "type": "electric_scooter", "lon": -77.0632375}, {"rental_uris": {"android": "https://dc.lft.to/lastmile_qr_scan", "ios": "https://dc.lft.to/lastmile_qr_scan"}, "fusion_lat": 0.0, "is_reserved": 0, "lat": 38.932507333333334, "name": "100b9f17ae1d30f9880f66c69c869d3e", "bike_id": "100b9f17ae1d30f9880f66c69c869d3e", "is_disabled": 0, "fusion_lon": 0.0, "type": "electric_scooter", "lon": -77.03201616666666}, {"rental_uris": {"android": "https://dc.lft.to/lastmile_qr_scan", "ios": "https://dc.lft.to/lastmile_qr_scan"}, "fusion_lat": 0.0, "is_reserved": 0, "lat": 38.90270483333333, "name": "f0e44363d260ea30d09f9a76e71b5fb5", "bike_id": "f0e44363d260ea30d09f9a76e71b5fb5", "is_disabled": 0, "fusion_lon": 0.0, "type": "electric_scooter", "lon": -77.032425}, {"rental_uris": {"android": "https://dc.lft.to/lastmile_qr_scan", "ios": "https://dc.lft.to/lastmile_qr_scan"}, "fusion_lat": 0.0, "is_reserved": 0, "lat": 38.8887625, "name": "cb126227913961b2a25f9f1eaeb860fe", "bike_id": "cb126227913961b2a25f9f1eaeb860fe", "is_disabled": 0, "fusion_lon": 0.0, "type": "electric_scooter", "lon": -76.9904}, {"rental_uris": {"android": "https://dc.lft.to/lastmile_qr_scan", "ios": "https://dc.lft.to/lastmile_qr_scan"}, "fusion_lat": 0.0, "is_reserved": 0, "lat": 38.899731333333335, "name": "f7361ce3e3b91d7e84201fb2f4696932", "bike_id": "f7361ce3e3b91d7e84201fb2f4696932", "is_disabled": 0, "fusion_lon": 0.0, "type": "electric_scooter", "lon": -77.02239483333334}, {"rental_uris": {"android": "https://dc.lft.to/lastmile_qr_scan", "ios": "https://dc.lft.to/lastmile_qr_scan"}, "fusion_lat": 0.0, "is_reserved": 0, "lat": 38.9054115, "name": "18332504311f3106e5a55048b7821fba", "bike_id": "18332504311f3106e5a55048b7821fba", "is_disabled": 0, "fusion_lon": 0.0, "type": "electric_scooter", "lon": -77.041033}, {"rental_uris": {"android": "https://dc.lft.to/lastmile_qr_scan", "ios": "https://dc.lft.to/lastmile_qr_scan"}, "fusion_lat": 0.0, "is_reserved": 0, "lat": 38.8876955, "name": "6a19ce87d47de007a2ef0daaa99e300e", "bike_id": "6a19ce87d47de007a2ef0daaa99e300e", "is_disabled": 0, "fusion_lon": 0.0, "type": "electric_scooter", "lon": -76.932645}, {"rental_uris": {"android": "https://dc.lft.to/lastmile_qr_scan", "ios": "https://dc.lft.to/lastmile_qr_scan"}, "fusion_lat": 0.0, "is_reserved": 0, "lat": 38.927306333333334, "name": "de07cca975bd2b6550127623d44dc406", "bike_id": "de07cca975bd2b6550127623d44dc406", "is_disabled": 0, "fusion_lon": 0.0, "type": "electric_scooter", "lon": -77.02245833333333}, {"rental_uris": {"android": "https://dc.lft.to/lastmile_qr_scan", "ios": "https://dc.lft.to/lastmile_qr_scan"}, "fusion_lat": 0.0, "is_reserved": 0, "lat": 38.91545516666667, "name": "275a0f4dbd65aeea18b812bc9a33cbfb", "bike_id": "275a0f4dbd65aeea18b812bc9a33cbfb", "is_disabled": 0, "fusion_lon": 0.0, "type": "electric_scooter", "lon": -77.03661133333334}, {"rental_uris": {"android": "https://dc.lft.to/lastmile_qr_scan", "ios": "https://dc.lft.to/lastmile_qr_scan"}, "fusion_lat": 0.0, "is_reserved": 0, "lat": 38.92067383333333, "name": "cba3695b1e249a1ef2fb1402123b3fa5", "bike_id": "cba3695b1e249a1ef2fb1402123b3fa5", "is_disabled": 0, "fusion_lon": 0.0, "type": "electric_scooter", "lon": -77.025648}, {"rental_uris": {"android": "https://dc.lft.to/lastmile_qr_scan", "ios": "https://dc.lft.to/lastmile_qr_scan"}, "fusion_lat": 0.0, "is_reserved": 0, "lat": 38.915376333333334, "name": "99463c9f8500cb8ffcf7c0becec1164d", "bike_id": "99463c9f8500cb8ffcf7c0becec1164d", "is_disabled": 0, "fusion_lon": 0.0, "type": "electric_scooter", "lon": -77.01227883333334}, {"rental_uris": {"android": "https://dc.lft.to/lastmile_qr_scan", "ios": "https://dc.lft.to/lastmile_qr_scan"}, "fusion_lat": 0.0, "is_reserved": 0, "lat": 38.8872245, "name": "7698281217d2250ea51290737e96951c", "bike_id": "7698281217d2250ea51290737e96951c", "is_disabled": 0, "fusion_lon": 0.0, "type": "electric_scooter", "lon": -76.99683616666667}, {"rental_uris": {"android": "https://dc.lft.to/lastmile_qr_scan", "ios": "https://dc.lft.to/lastmile_qr_scan"}, "fusion_lat": 0.0, "is_reserved": 0, "lat": 38.92351033333333, "name": "9e11fc5e99f636b9b011b534925c66ed", "bike_id": "9e11fc5e99f636b9b011b534925c66ed", "is_disabled": 0, "fusion_lon": 0.0, "type": "electric_scooter", "lon": -77.03369983333333}, {"rental_uris": {"android": "https://dc.lft.to/lastmile_qr_scan", "ios": "https://dc.lft.to/lastmile_qr_scan"}, "fusion_lat": 0.0, "is_reserved": 0, "lat": 38.8963065, "name": "91662a044c0730d9e6b3e8b2eb92a4c0", "bike_id": "91662a044c0730d9e6b3e8b2eb92a4c0", "is_disabled": 0, "fusion_lon": 0.0, "type": "electric_scooter", "lon": -77.04654983333333}, {"rental_uris": {"android": "https://dc.lft.to/lastmile_qr_scan", "ios": "https://dc.lft.to/lastmile_qr_scan"}, "fusion_lat": 0.0, "is_reserved": 0, "lat": 38.93528833333333, "name": "cab2061bf381d32d838fb506bcf365d3", "bike_id": "cab2061bf381d32d838fb506bcf365d3", "is_disabled": 0, "fusion_lon": 0.0, "type": "electric_scooter", "lon": -77.02352916666666}, {"rental_uris": {"android": "https://dc.lft.to/lastmile_qr_scan", "ios": "https://dc.lft.to/lastmile_qr_scan"}, "fusion_lat": 0.0, "is_reserved": 0, "lat": 38.924493, "name": "cbdb3ce8266c06366b9ef05ed430cd64", "bike_id": "cbdb3ce8266c06366b9ef05ed430cd64", "is_disabled": 0, "fusion_lon": 0.0, "type": "electric_scooter", "lon": -77.03406733333334}, {"rental_uris": {"android": "https://dc.lft.to/lastmile_qr_scan", "ios": "https://dc.lft.to/lastmile_qr_scan"}, "fusion_lat": 0.0, "is_reserved": 0, "lat": 38.87621383333333, "name": "18748ed507fc98c136247a2f75c218c6", "bike_id": "18748ed507fc98c136247a2f75c218c6", "is_disabled": 0, "fusion_lon": 0.0, "type": "electric_scooter", "lon": -77.002472}, {"rental_uris": {"android": "https://dc.lft.to/lastmile_qr_scan", "ios": "https://dc.lft.to/lastmile_qr_scan"}, "fusion_lat": 0.0, "is_reserved": 0, "lat": 38.9176955, "name": "cdc3f8315f8b0ec74173edd7eb76d8a5", "bike_id": "cdc3f8315f8b0ec74173edd7eb76d8a5", "is_disabled": 0, "fusion_lon": 0.0, "type": "electric_scooter", "lon": -77.01493683333334}, {"rental_uris": {"android": "https://dc.lft.to/lastmile_qr_scan", "ios": "https://dc.lft.to/lastmile_qr_scan"}, "fusion_lat": 0.0, "is_reserved": 0, "lat": 38.894198, "name": "1b4c9a358c65d3936e4d1c06269a5ce3", "bike_id": "1b4c9a358c65d3936e4d1c06269a5ce3", "is_disabled": 0, "fusion_lon": 0.0, "type": "electric_scooter", "lon": -76.997723}, {"rental_uris": {"android": "https://dc.lft.to/lastmile_qr_scan", "ios": "https://dc.lft.to/lastmile_qr_scan"}, "fusion_lat": 0.0, "is_reserved": 0, "lat": 39.03814633333333, "name": "cda1ee97057d485cfe87f8ae5d1729fd", "bike_id": "cda1ee97057d485cfe87f8ae5d1729fd", "is_disabled": 0, "fusion_lon": 0.0, "type": "electric_bike", "lon": -77.04227583333333}, {"rental_uris": {"android": "https://dc.lft.to/lastmile_qr_scan", "ios": "https://dc.lft.to/lastmile_qr_scan"}, "fusion_lat": 0.0, "is_reserved": 0, "lat": 38.912604333333334, "name": "570ae90e4553d5eb296a55af3eb30c9a", "bike_id": "570ae90e4553d5eb296a55af3eb30c9a", "is_disabled": 0, "fusion_lon": 0.0, "type": "electric_scooter", "lon": -77.038067}, {"rental_uris": {"android": "https://dc.lft.to/lastmile_qr_scan", "ios": "https://dc.lft.to/lastmile_qr_scan"}, "fusion_lat": 0.0, "is_reserved": 0, "lat": 38.902442666666666, "name": "fd043eeb442a8a9cbdf2a481e193c3b3", "bike_id": "fd043eeb442a8a9cbdf2a481e193c3b3", "is_disabled": 0, "fusion_lon": 0.0, "type": "electric_scooter", "lon": -76.97414383333333}, {"rental_uris": {"android": "https://dc.lft.to/lastmile_qr_scan", "ios": "https://dc.lft.to/lastmile_qr_scan"}, "fusion_lat": 0.0, "is_reserved": 0, "lat": 38.91952833333333, "name": "481b6afea4f7a2f5fb20f1299d5b99de", "bike_id": "481b6afea4f7a2f5fb20f1299d5b99de", "is_disabled": 0, "fusion_lon": 0.0, "type": "electric_scooter", "lon": -77.07872416666666}, {"rental_uris": {"android": "https://dc.lft.to/lastmile_qr_scan", "ios": "https://dc.lft.to/lastmile_qr_scan"}, "fusion_lat": 0.0, "is_reserved": 0, "lat": 38.89194066666667, "name": "632935a5dbe2874835f0be02f3a09479", "bike_id": "632935a5dbe2874835f0be02f3a09479", "is_disabled": 0, "fusion_lon": 0.0, "type": "electric_scooter", "lon": -77.02221466666667}, {"rental_uris": {"android": "https://dc.lft.to/lastmile_qr_scan", "ios": "https://dc.lft.to/lastmile_qr_scan"}, "fusion_lat": 0.0, "is_reserved": 0, "lat": 38.92438083333333, "name": "a9056a7d86c0ffbcdbb803ff041bf8b2", "bike_id": "a9056a7d86c0ffbcdbb803ff041bf8b2", "is_disabled": 0, "fusion_lon": 0.0, "type": "electric_scooter", "lon": -77.0340725}, {"rental_uris": {"android": "https://dc.lft.to/lastmile_qr_scan", "ios": "https://dc.lft.to/lastmile_qr_scan"}, "fusion_lat": 0.0, "is_reserved": 0, "lat": 38.892284833333335, "name": "e4bcac2e5f68cc3f463238407627800f", "bike_id": "e4bcac2e5f68cc3f463238407627800f", "is_disabled": 0, "fusion_lon": 0.0, "type": "electric_scooter", "lon": -77.04367833333333}, {"rental_uris": {"android": "https://dc.lft.to/lastmile_qr_scan", "ios": "https://dc.lft.to/lastmile_qr_scan"}, "fusion_lat": 0.0, "is_reserved": 0, "lat": 38.88221, "name": "7af1805318d38fa2ad48027cce0a86a4", "bike_id": "7af1805318d38fa2ad48027cce0a86a4", "is_disabled": 0, "fusion_lon": 0.0, "type": "electric_scooter", "lon": -76.939048}, {"rental_uris": {"android": "https://dc.lft.to/lastmile_qr_scan", "ios": "https://dc.lft.to/lastmile_qr_scan"}, "fusion_lat": 0.0, "is_reserved": 0, "lat": 38.92143816666667, "name": "9991917121c92914f31a9cc7e0a2d0a4", "bike_id": "9991917121c92914f31a9cc7e0a2d0a4", "is_disabled": 0, "fusion_lon": 0.0, "type": "electric_scooter", "lon": -77.034529}, {"rental_uris": {"android": "https://dc.lft.to/lastmile_qr_scan", "ios": "https://dc.lft.to/lastmile_qr_scan"}, "fusion_lat": 0.0, "is_reserved": 0, "lat": 38.8982895, "name": "d70d211588304f2cc0318cf8e22e4c10", "bike_id": "d70d211588304f2cc0318cf8e22e4c10", "is_disabled": 0, "fusion_lon": 0.0, "type": "electric_scooter", "lon": -77.04613816666667}, {"rental_uris": {"android": "https://dc.lft.to/lastmile_qr_scan", "ios": "https://dc.lft.to/lastmile_qr_scan"}, "fusion_lat": 0.0, "is_reserved": 0, "lat": 38.857054166666664, "name": "711e2569acd523fe5196a02eeced5aad", "bike_id": "711e2569acd523fe5196a02eeced5aad", "is_disabled": 0, "fusion_lon": 0.0, "type": "electric_scooter", "lon": -76.98213083333333}, {"rental_uris": {"android": "https://dc.lft.to/lastmile_qr_scan", "ios": "https://dc.lft.to/lastmile_qr_scan"}, "fusion_lat": 0.0, "is_reserved": 0, "lat": 38.92297083333333, "name": "2df68d6f7c7f6d957db2a1516abb05d7", "bike_id": "2df68d6f7c7f6d957db2a1516abb05d7", "is_disabled": 0, "fusion_lon": 0.0, "type": "electric_scooter", "lon": -77.04145633333333}, {"rental_uris": {"android": "https://dc.lft.to/lastmile_qr_scan", "ios": "https://dc.lft.to/lastmile_qr_scan"}, "fusion_lat": 0.0, "is_reserved": 0, "lat": 38.9419845, "name": "e768a404c35f787fade6ff09f790d8af", "bike_id": "e768a404c35f787fade6ff09f790d8af", "is_disabled": 0, "fusion_lon": 0.0, "type": "electric_scooter", "lon": -77.024778}, {"rental_uris": {"android": "https://dc.lft.to/lastmile_qr_scan", "ios": "https://dc.lft.to/lastmile_qr_scan"}, "fusion_lat": 0.0, "is_reserved": 0, "lat": 38.9121805, "name": "c058ef18c782334eb230059adf760a38", "bike_id": "c058ef18c782334eb230059adf760a38", "is_disabled": 0, "fusion_lon": 0.0, "type": "electric_scooter", "lon": -77.031977}, {"rental_uris": {"android": "https://dc.lft.to/lastmile_qr_scan", "ios": "https://dc.lft.to/lastmile_qr_scan"}, "fusion_lat": 0.0, "is_reserved": 0, "lat": 38.914941, "name": "a536e792e5ed5c6b521f225ae988e90e", "bike_id": "a536e792e5ed5c6b521f225ae988e90e", "is_disabled": 0, "fusion_lon": 0.0, "type": "electric_scooter", "lon": -77.022714}, {"rental_uris": {"android": "https://dc.lft.to/lastmile_qr_scan", "ios": "https://dc.lft.to/lastmile_qr_scan"}, "fusion_lat": 0.0, "is_reserved": 0, "lat": 38.88072016666667, "name": "8b273348687e16bc8db1b66650391353", "bike_id": "8b273348687e16bc8db1b66650391353", "is_disabled": 0, "fusion_lon": 0.0, "type": "electric_scooter", "lon": -76.99158316666667}, {"rental_uris": {"android": "https://dc.lft.to/lastmile_qr_scan", "ios": "https://dc.lft.to/lastmile_qr_scan"}, "fusion_lat": 0.0, "is_reserved": 0, "lat": 38.93532233333333, "name": "72b6f43687a9f01dd052eea65e418622", "bike_id": "72b6f43687a9f01dd052eea65e418622", "is_disabled": 0, "fusion_lon": 0.0, "type": "electric_scooter", "lon": -77.023501}, {"rental_uris": {"android": "https://dc.lft.to/lastmile_qr_scan", "ios": "https://dc.lft.to/lastmile_qr_scan"}, "fusion_lat": 0.0, "is_reserved": 0, "lat": 38.927317, "name": "8d7408c7a6259b69a2fc177d22445edf", "bike_id": "8d7408c7a6259b69a2fc177d22445edf", "is_disabled": 0, "fusion_lon": 0.0, "type": "electric_scooter", "lon": -77.02282016666666}, {"rental_uris": {"android": "https://dc.lft.to/lastmile_qr_scan", "ios": "https://dc.lft.to/lastmile_qr_scan"}, "fusion_lat": 0.0, "is_reserved": 0, "lat": 38.917665166666666, "name": "9ebf6e94fa765282aaf0bd2e1384893a", "bike_id": "9ebf6e94fa765282aaf0bd2e1384893a", "is_disabled": 0, "fusion_lon": 0.0, "type": "electric_scooter", "lon": -77.02298283333333}, {"rental_uris": {"android": "https://dc.lft.to/lastmile_qr_scan", "ios": "https://dc.lft.to/lastmile_qr_scan"}, "fusion_lat": 0.0, "is_reserved": 0, "lat": 38.86246, "name": "efac6d689a963fa2f6ceb62d15b0f490", "bike_id": "efac6d689a963fa2f6ceb62d15b0f490", "is_disabled": 0, "fusion_lon": 0.0, "type": "electric_scooter", "lon": -76.9950325}, {"rental_uris": {"android": "https://dc.lft.to/lastmile_qr_scan", "ios": "https://dc.lft.to/lastmile_qr_scan"}, "fusion_lat": 0.0, "is_reserved": 0, "lat": 38.898124333333335, "name": "7aa1ca365e90c0f1320976edf0b817d7", "bike_id": "7aa1ca365e90c0f1320976edf0b817d7", "is_disabled": 0, "fusion_lon": 0.0, "type": "electric_scooter", "lon": -77.02818533333334}, {"rental_uris": {"android": "https://dc.lft.to/lastmile_qr_scan", "ios": "https://dc.lft.to/lastmile_qr_scan"}, "fusion_lat": 0.0, "is_reserved": 0, "lat": 38.9164955, "name": "8cc1ab06405ab16f2683ab23a3edd04f", "bike_id": "8cc1ab06405ab16f2683ab23a3edd04f", "is_disabled": 0, "fusion_lon": 0.0, "type": "electric_scooter", "lon": -77.0239965}, {"rental_uris": {"android": "https://dc.lft.to/lastmile_qr_scan", "ios": "https://dc.lft.to/lastmile_qr_scan"}, "fusion_lat": 0.0, "is_reserved": 0, "lat": 38.94147516666666, "name": "4fd52b601b28279ec97a7570bf8f7c3a", "bike_id": "4fd52b601b28279ec97a7570bf8f7c3a", "is_disabled": 0, "fusion_lon": 0.0, "type": "electric_scooter", "lon": -77.032846}, {"rental_uris": {"android": "https://dc.lft.to/lastmile_qr_scan", "ios": "https://dc.lft.to/lastmile_qr_scan"}, "fusion_lat": 0.0, "is_reserved": 0, "lat": 38.8756365, "name": "e2dbf18241f821c7408c65dda2494f5c", "bike_id": "e2dbf18241f821c7408c65dda2494f5c", "is_disabled": 0, "fusion_lon": 0.0, "type": "electric_scooter", "lon": -77.006036}, {"rental_uris": {"android": "https://dc.lft.to/lastmile_qr_scan", "ios": "https://dc.lft.to/lastmile_qr_scan"}, "fusion_lat": 0.0, "is_reserved": 0, "lat": 38.86506883333333, "name": "e2f0860390b12d94442e54a9a0b97cb3", "bike_id": "e2f0860390b12d94442e54a9a0b97cb3", "is_disabled": 0, "fusion_lon": 0.0, "type": "electric_scooter", "lon": -76.96901966666667}, {"rental_uris": {"android": "https://dc.lft.to/lastmile_qr_scan", "ios": "https://dc.lft.to/lastmile_qr_scan"},