{"data": {"bikes": [{"rental_uris": {"ios": "https://dc.lft.to/lastmile_qr_scan", "android": "https://dc.lft.to/lastmile_qr_scan"}, "type": "electric_scooter", "name": "975f8a3ae62b83f172b1744b659cc240", "is_reserved": 0, "lon": -77.04226033333333, "is_disabled": 0, "fusion_lat": 0.0, "lat": 38.92175, "bike_id": "975f8a3ae62b83f172b1744b659cc240", "fusion_lon": 0.0}, {"rental_uris": {"ios": "https://dc.lft.to/lastmile_qr_scan", "android": "https://dc.lft.to/lastmile_qr_scan"}, "type": "electric_scooter", "name": "7e8d4ee7cc0fdaf380392c2803beb567", "is_reserved": 0, "lon": -77.06283833333333, "is_disabled": 0, "fusion_lat": 0.0, "lat": 38.9124775, "bike_id": "7e8d4ee7cc0fdaf380392c2803beb567", "fusion_lon": 0.0}, {"rental_uris": {"ios": "https://dc.lft.to/lastmile_qr_scan", "android": "https://dc.lft.to/lastmile_qr_scan"}, "type": "electric_scooter", "name": "5a43005b1389428648bd8b8cc0355c38", "is_reserved": 0, "lon": -77.03175416666667, "is_disabled": 0, "fusion_lat": 0.0, "lat": 38.909717666666666, "bike_id": "5a43005b1389428648bd8b8cc0355c38", "fusion_lon": 0.0}, {"rental_uris": {"ios": "https://dc.lft.to/lastmile_qr_scan", "android": "https://dc.lft.to/lastmile_qr_scan"}, "type": "electric_scooter", "name": "504a7e71fbec9c4ba23b0ea2513f6fb3", "is_reserved": 0, "lon": -77.02307083333334, "is_disabled": 0, "fusion_lat": 0.0, "lat": 38.92726716666667, "bike_id": "504a7e71fbec9c4ba23b0ea2513f6fb3", "fusion_lon": 0.0}, {"rental_uris": {"ios": "https://dc.lft.to/lastmile_qr_scan", "android": "https://dc.lft.to/lastmile_qr_scan"}, "type": "electric_scooter", "name": "992dde9bc2c2cee3c1dd5cb075da545a", "is_reserved": 0, "lon": -77.01997233333333, "is_disabled": 0, "fusion_lat": 0.0, "lat": 38.91154083333333, "bike_id": "992dde9bc2c2cee3c1dd5cb075da545a", "fusion_lon": 0.0}, {"rental_uris": {"ios": "https://dc.lft.to/lastmile_qr_scan", "android": "https://dc.lft.to/lastmile_qr_scan"}, "type": "electric_scooter", "name": "7251dd581f718d05b8199c9b013c26bd", "is_reserved": 0, "lon": -77.02428133333333, "is_disabled": 0, "fusion_lat": 0.0, "lat": 38.92320216666667, "bike_id": "7251dd581f718d05b8199c9b013c26bd", "fusion_lon": 0.0}, {"rental_uris": {"ios": "https://dc.lft.to/lastmile_qr_scan", "android": "https://dc.lft.to/lastmile_qr_scan"}, "type": "electric_scooter", "name": "5285219c186f18ba240df1972d1bc040", "is_reserved": 0, "lon": -77.01576283333333, "is_disabled": 0, "fusion_lat": 0.0, "lat": 38.876615666666666, "bike_id": "5285219c186f18ba240df1972d1bc040", "fusion_lon": 0.0}, {"rental_uris": {"ios": "https://dc.lft.to/lastmile_qr_scan", "android": "https://dc.lft.to/lastmile_qr_scan"}, "type": "electric_scooter", "name": "e8745472b858b28497489403c6353968", "is_reserved": 0, "lon": -76.9811, "is_disabled": 0, "fusion_lat": 0.0, "lat": 38.86436616666667, "bike_id": "e8745472b858b28497489403c6353968", "fusion_lon": 0.0}, {"rental_uris": {"ios": "https://dc.lft.to/lastmile_qr_scan", "android": "https://dc.lft.to/lastmile_qr_scan"}, "type": "electric_scooter", "name": "72281e4681d9145fb4b86606a191b05d", "is_reserved": 0, "lon": -77.004389, "is_disabled": 0, "fusion_lat": 0.0, "lat": 38.920944666666664, "bike_id": "72281e4681d9145fb4b86606a191b05d", "fusion_lon": 0.0}, {"rental_uris": {"ios": "https://dc.lft.to/lastmile_qr_scan", "android": "https://dc.lft.to/lastmile_qr_scan"}, "type": "electric_scooter", "name": "6415e9239770e75f0e3654905be752a2", "is_reserved": 0, "lon": -76.98083533333333, "is_disabled": 0, "fusion_lat": 0.0, "lat": 38.889617333333334, "bike_id": "6415e9239770e75f0e3654905be752a2", "fusion_lon": 0.0}, {"rental_uris": {"ios": "https://dc.lft.to/lastmile_qr_scan", "android": "https://dc.lft.to/lastmile_qr_scan"}, "type": "electric_scooter", "name": "979e87cfe312d3f244bfe055e2fd75e3", "is_reserved": 0, "lon": -77.06601433333333, "is_disabled": 0, "fusion_lat": 0.0, "lat": 38.9061835, "bike_id": "979e87cfe312d3f244bfe055e2fd75e3", "fusion_lon": 0.0}, {"rental_uris": {"ios": "https://dc.lft.to/lastmile_qr_scan", "android": "https://dc.lft.to/lastmile_qr_scan"}, "type": "electric_scooter", "name": "e0021e28cfc1d8cb09b95b1ba4decfa6", "is_reserved": 0, "lon": -77.03205116666666, "is_disabled": 0, "fusion_lat": 0.0, "lat": 38.90896433333333, "bike_id": "e0021e28cfc1d8cb09b95b1ba4decfa6", "fusion_lon": 0.0}, {"rental_uris": {"ios": "https://dc.lft.to/lastmile_qr_scan", "android": "https://dc.lft.to/lastmile_qr_scan"}, "type": "electric_scooter", "name": "4f7b43fb2aa621bb133335e60dd53543", "is_reserved": 0, "lon": -77.0058285, "is_disabled": 0, "fusion_lat": 0.0, "lat": 38.900449333333334, "bike_id": "4f7b43fb2aa621bb133335e60dd53543", "fusion_lon": 0.0}, {"rental_uris": {"ios": "https://dc.lft.to/lastmile_qr_scan", "android": "https://dc.lft.to/lastmile_qr_scan"}, "type": "electric_scooter", "name": "232c27b465927cc1cedff200f65b0489", "is_reserved": 0, "lon": -76.996165, "is_disabled": 0, "fusion_lat": 0.0, "lat": 38.931642833333335, "bike_id": "232c27b465927cc1cedff200f65b0489", "fusion_lon": 0.0}, {"rental_uris": {"ios": "https://dc.lft.to/lastmile_qr_scan", "android": "https://dc.lft.to/lastmile_qr_scan"}, "type": "electric_scooter", "name": "02202e379bb768f67db548782de6952d", "is_reserved": 0, "lon": -77.05301433333334, "is_disabled": 0, "fusion_lat": 0.0, "lat": 38.900681166666665, "bike_id": "02202e379bb768f67db548782de6952d", "fusion_lon": 0.0}, {"rental_uris": {"ios": "https://dc.lft.to/lastmile_qr_scan", "android": "https://dc.lft.to/lastmile_qr_scan"}, "type": "electric_scooter", "name": "d33a783dfbb9a08071f061177931d361", "is_reserved": 0, "lon": -76.92627416666667, "is_disabled": 0, "fusion_lat": 0.0, "lat": 38.89957733333333, "bike_id": "d33a783dfbb9a08071f061177931d361", "fusion_lon": 0.0}, {"rental_uris": {"ios": "https://dc.lft.to/lastmile_qr_scan", "android": "https://dc.lft.to/lastmile_qr_scan"}, "type": "electric_scooter", "name": "82c8e3a2feb0db01add6f6077cebb617", "is_reserved": 0, "lon": -77.04279733333334, "is_disabled": 0, "fusion_lat": 0.0, "lat": 38.91780716666667, "bike_id": "82c8e3a2feb0db01add6f6077cebb617", "fusion_lon": 0.0}, {"rental_uris": {"ios": "https://dc.lft.to/lastmile_qr_scan", "android": "https://dc.lft.to/lastmile_qr_scan"}, "type": "electric_scooter", "name": "a0823bc8da287d01b2626492cdb31a21", "is_reserved": 0, "lon": -77.012148, "is_disabled": 0, "fusion_lat": 0.0, "lat": 38.916835666666664, "bike_id": "a0823bc8da287d01b2626492cdb31a21", "fusion_lon": 0.0}, {"rental_uris": {"ios": "https://dc.lft.to/lastmile_qr_scan", "android": "https://dc.lft.to/lastmile_qr_scan"}, "type": "electric_scooter", "name": "04782f29801e6defe68a6f104fc2a54a", "is_reserved": 0, "lon": -77.03869866666666, "is_disabled": 0, "fusion_lat": 0.0, "lat": 38.911178, "bike_id": "04782f29801e6defe68a6f104fc2a54a", "fusion_lon": 0.0}, {"rental_uris": {"ios": "https://dc.lft.to/lastmile_qr_scan", "android": "https://dc.lft.to/lastmile_qr_scan"}, "type": "electric_scooter", "name": "19c9aceafc74aff1bf7fbeedc4e71ea0", "is_reserved": 0, "lon": -77.0816815, "is_disabled": 0, "fusion_lat": 0.0, "lat": 38.919568, "bike_id": "19c9aceafc74aff1bf7fbeedc4e71ea0", "fusion_lon": 0.0}, {"rental_uris": {"ios": "https://dc.lft.to/lastmile_qr_scan", "android": "https://dc.lft.to/lastmile_qr_scan"}, "type": "electric_scooter", "name": "43debe1630264bfee11124a4bdfa928d", "is_reserved": 0, "lon": -76.982123, "is_disabled": 0, "fusion_lat": 0.0, "lat": 38.89545866666667, "bike_id": "43debe1630264bfee11124a4bdfa928d", "fusion_lon": 0.0}, {"rental_uris": {"ios": "https://dc.lft.to/lastmile_qr_scan", "android": "https://dc.lft.to/lastmile_qr_scan"}, "type": "electric_scooter", "name": "0e1aede62a4e3430005ee1fce43c7269", "is_reserved": 0, "lon": -77.03354583333333, "is_disabled": 0, "fusion_lat": 0.0, "lat": 38.954795, "bike_id": "0e1aede62a4e3430005ee1fce43c7269", "fusion_lon": 0.0}, {"rental_uris": {"ios": "https://dc.lft.to/lastmile_qr_scan", "android": "https://dc.lft.to/lastmile_qr_scan"}, "type": "electric_scooter", "name": "031bb949b32f7b0b7e3befff0dd3106a", "is_reserved": 0, "lon": -77.032612, "is_disabled": 0, "fusion_lat": 0.0, "lat": 38.91824866666666, "bike_id": "031bb949b32f7b0b7e3befff0dd3106a", "fusion_lon": 0.0}, {"rental_uris": {"ios": "https://dc.lft.to/lastmile_qr_scan", "android": "https://dc.lft.to/lastmile_qr_scan"}, "type": "electric_scooter", "name": "b1b2c6987110ab80ad7af3690950a0e2", "is_reserved": 0, "lon": -77.01990883333333, "is_disabled": 0, "fusion_lat": 0.0, "lat": 38.9015225, "bike_id": "b1b2c6987110ab80ad7af3690950a0e2", "fusion_lon": 0.0}, {"rental_uris": {"ios": "https://dc.lft.to/lastmile_qr_scan", "android": "https://dc.lft.to/lastmile_qr_scan"}, "type": "electric_scooter", "name": "275956d6e407ddab4967ebd38d8af1a6", "is_reserved": 0, "lon": -76.99918266666667, "is_disabled": 0, "fusion_lat": 0.0, "lat": 38.9089635, "bike_id": "275956d6e407ddab4967ebd38d8af1a6", "fusion_lon": 0.0}, {"rental_uris": {"ios": "https://dc.lft.to/lastmile_qr_scan", "android": "https://dc.lft.to/lastmile_qr_scan"}, "type": "electric_scooter", "name": "378970efd03b1cff58af0d4d591e2a1d", "is_reserved": 0, "lon": -77.03745133333334, "is_disabled": 0, "fusion_lat": 0.0, "lat": 38.928827166666665, "bike_id": "378970efd03b1cff58af0d4d591e2a1d", "fusion_lon": 0.0}, {"rental_uris": {"ios": "https://dc.lft.to/lastmile_qr_scan", "android": "https://dc.lft.to/lastmile_qr_scan"}, "type": "electric_scooter", "name": "d2bb125d922f34d6cf09556cedeebd2d", "is_reserved": 0, "lon": -77.05022516666666, "is_disabled": 0, "fusion_lat": 0.0, "lat": 38.910543, "bike_id": "d2bb125d922f34d6cf09556cedeebd2d", "fusion_lon": 0.0}, {"rental_uris": {"ios": "https://dc.lft.to/lastmile_qr_scan", "android": "https://dc.lft.to/lastmile_qr_scan"}, "type": "electric_scooter", "name": "499b2674326d602c06be22dbaab26df2", "is_reserved": 0, "lon": -77.01977433333333, "is_disabled": 0, "fusion_lat": 0.0, "lat": 38.952141166666664, "bike_id": "499b2674326d602c06be22dbaab26df2", "fusion_lon": 0.0}, {"rental_uris": {"ios": "https://dc.lft.to/lastmile_qr_scan", "android": "https://dc.lft.to/lastmile_qr_scan"}, "type": "electric_scooter", "name": "c43ceb41b91b50e95d81d2131f508c52", "is_reserved": 0, "lon": -77.04676066666667, "is_disabled": 0, "fusion_lat": 0.0, "lat": 38.89237266666667, "bike_id": "c43ceb41b91b50e95d81d2131f508c52", "fusion_lon": 0.0}, {"rental_uris": {"ios": "https://dc.lft.to/lastmile_qr_scan", "android": "https://dc.lft.to/lastmile_qr_scan"}, "type": "electric_scooter", "name": "50faf489c223332adb6c68151bb927b3", "is_reserved": 0, "lon": -77.04108866666667, "is_disabled": 0, "fusion_lat": 0.0, "lat": 38.905938666666664, "bike_id": "50faf489c223332adb6c68151bb927b3", "fusion_lon": 0.0}, {"rental_uris": {"ios": "https://dc.lft.to/lastmile_qr_scan", "android": "https://dc.lft.to/lastmile_qr_scan"}, "type": "electric_scooter", "name": "ff2e809780ce6ceb8eb80aa3f06807a1", "is_reserved": 0, "lon": -77.06543416666666, "is_disabled": 0, "fusion_lat": 0.0, "lat": 38.905159166666664, "bike_id": "ff2e809780ce6ceb8eb80aa3f06807a1", "fusion_lon": 0.0}, {"rental_uris": {"ios": "https://dc.lft.to/lastmile_qr_scan", "android": "https://dc.lft.to/lastmile_qr_scan"}, "type": "electric_scooter", "name": "4a3919d274eaad878609824724c56d5f", "is_reserved": 0, "lon": -77.00870866666666, "is_disabled": 0, "fusion_lat": 0.0, "lat": 38.92245583333333, "bike_id": "4a3919d274eaad878609824724c56d5f", "fusion_lon": 0.0}, {"rental_uris": {"ios": "https://dc.lft.to/lastmile_qr_scan", "android": "https://dc.lft.to/lastmile_qr_scan"}, "type": "electric_scooter", "name": "7acc3adcdfa4a000564f9266cc5b9399", "is_reserved": 0, "lon": -77.0366325, "is_disabled": 0, "fusion_lat": 0.0, "lat": 38.91723316666667, "bike_id": "7acc3adcdfa4a000564f9266cc5b9399", "fusion_lon": 0.0}, {"rental_uris": {"ios": "https://dc.lft.to/lastmile_qr_scan", "android": "https://dc.lft.to/lastmile_qr_scan"}, "type": "electric_scooter", "name": "a49a1f0575c59c7548e31ed8ed3513c4", "is_reserved": 0, "lon": -77.039731, "is_disabled": 0, "fusion_lat": 0.0, "lat": 38.91552466666667, "bike_id": "a49a1f0575c59c7548e31ed8ed3513c4", "fusion_lon": 0.0}, {"rental_uris": {"ios": "https://dc.lft.to/lastmile_qr_scan", "android": "https://dc.lft.to/lastmile_qr_scan"}, "type": "electric_scooter", "name": "2160507e2fb52a3abc5ea46be7dc19f6", "is_reserved": 0, "lon": -77.04238933333333, "is_disabled": 0, "fusion_lat": 0.0, "lat": 38.922771833333336, "bike_id": "2160507e2fb52a3abc5ea46be7dc19f6", "fusion_lon": 0.0}, {"rental_uris": {"ios": "https://dc.lft.to/lastmile_qr_scan", "android": "https://dc.lft.to/lastmile_qr_scan"}, "type": "electric_scooter", "name": "0c33f8913d210ff0bf98632d60229bbe", "is_reserved": 0, "lon": -77.02388466666666, "is_disabled": 0, "fusion_lat": 0.0, "lat": 38.92701616666667, "bike_id": "0c33f8913d210ff0bf98632d60229bbe", "fusion_lon": 0.0}, {"rental_uris": {"ios": "https://dc.lft.to/lastmile_qr_scan", "android": "https://dc.lft.to/lastmile_qr_scan"}, "type": "electric_scooter", "name": "f6a066fef6b61693056e60609a7aa84d", "is_reserved": 0, "lon": -77.04877166666667, "is_disabled": 0, "fusion_lat": 0.0, "lat": 38.909224, "bike_id": "f6a066fef6b61693056e60609a7aa84d", "fusion_lon": 0.0}, {"rental_uris": {"ios": "https://dc.lft.to/lastmile_qr_scan", "android": "https://dc.lft.to/lastmile_qr_scan"}, "type": "electric_bike", "name": "31d212130b3a0dc8426680a5442884ef", "is_reserved": 0, "lon": -76.973247, "is_disabled": 0, "fusion_lat": 0.0, "lat": 38.857805666666664, "bike_id": "31d212130b3a0dc8426680a5442884ef", "fusion_lon": 0.0}, {"rental_uris": {"ios": "https://dc.lft.to/lastmile_qr_scan", "android": "https://dc.lft.to/lastmile_qr_scan"}, "type": "electric_scooter", "name": "c36a7a8172a124eabaee317415147ac2", "is_reserved": 0, "lon": -77.038437, "is_disabled": 0, "fusion_lat": 0.0, "lat": 38.9104425, "bike_id": "c36a7a8172a124eabaee317415147ac2", "fusion_lon": 0.0}, {"rental_uris": {"ios": "https://dc.lft.to/lastmile_qr_scan", "android": "https://dc.lft.to/lastmile_qr_scan"}, "type": "electric_scooter", "name": "9ad10f850a7e27f4247a56a72e2f5860", "is_reserved": 0, "lon": -77.00930416666667, "is_disabled": 0, "fusion_lat": 0.0, "lat": 38.881905833333334, "bike_id": "9ad10f850a7e27f4247a56a72e2f5860", "fusion_lon": 0.0}, {"rental_uris": {"ios": "https://dc.lft.to/lastmile_qr_scan", "android": "https://dc.lft.to/lastmile_qr_scan"}, "type": "electric_scooter", "name": "13e7e31362c72a82d4f4b7e6d0c9fb1d", "is_reserved": 0, "lon": -77.02472416666667, "is_disabled": 0, "fusion_lat": 0.0, "lat": 38.93857166666667, "bike_id": "13e7e31362c72a82d4f4b7e6d0c9fb1d", "fusion_lon": 0.0}, {"rental_uris": {"ios": "https://dc.lft.to/lastmile_qr_scan", "android": "https://dc.lft.to/lastmile_qr_scan"}, "type": "electric_scooter", "name": "15b4569452d855f48a437542d8ff8590", "is_reserved": 0, "lon": -77.01905883333333, "is_disabled": 0, "fusion_lat": 0.0, "lat": 38.923436, "bike_id": "15b4569452d855f48a437542d8ff8590", "fusion_lon": 0.0}, {"rental_uris": {"ios": "https://dc.lft.to/lastmile_qr_scan", "android": "https://dc.lft.to/lastmile_qr_scan"}, "type": "electric_bike", "name": "74b4d688c07f9a9763875269f47b3c90", "is_reserved": 0, "lon": -77.03153583333334, "is_disabled": 0, "fusion_lat": 0.0, "lat": 38.920331, "bike_id": "74b4d688c07f9a9763875269f47b3c90", "fusion_lon": 0.0}, {"rental_uris": {"ios": "https://dc.lft.to/lastmile_qr_scan", "android": "https://dc.lft.to/lastmile_qr_scan"}, "type": "electric_scooter", "name": "aa0e8ec6f8cd0d183f96c3c8f3df853c", "is_reserved": 0, "lon": -77.0210485, "is_disabled": 0, "fusion_lat": 0.0, "lat": 38.96676766666667, "bike_id": "aa0e8ec6f8cd0d183f96c3c8f3df853c", "fusion_lon": 0.0}, {"rental_uris": {"ios": "https://dc.lft.to/lastmile_qr_scan", "android": "https://dc.lft.to/lastmile_qr_scan"}, "type": "electric_scooter", "name": "34cebccaa5ef1d594f1d63339fd88204", "is_reserved": 0, "lon": -77.041452, "is_disabled": 0, "fusion_lat": 0.0, "lat": 38.917128, "bike_id": "34cebccaa5ef1d594f1d63339fd88204", "fusion_lon": 0.0}, {"rental_uris": {"ios": "https://dc.lft.to/lastmile_qr_scan", "android": "https://dc.lft.to/lastmile_qr_scan"}, "type": "electric_scooter", "name": "642e1dbcced0064f65c014fa71d4beb9", "is_reserved": 0, "lon": -77.022024, "is_disabled": 0, "fusion_lat": 0.0, "lat": 38.90676766666667, "bike_id": "642e1dbcced0064f65c014fa71d4beb9", "fusion_lon": 0.0}, {"rental_uris": {"ios": "https://dc.lft.to/lastmile_qr_scan", "android": "https://dc.lft.to/lastmile_qr_scan"}, "type": "electric_scooter", "name": "ee95fdd077b1795321c8f3dca80e65f6", "is_reserved": 0, "lon": -76.98527566666667, "is_disabled": 0, "fusion_lat": 0.0, "lat": 38.91450783333333, "bike_id": "ee95fdd077b1795321c8f3dca80e65f6", "fusion_lon": 0.0}, {"rental_uris": {"ios": "https://dc.lft.to/lastmile_qr_scan", "android": "https://dc.lft.to/lastmile_qr_scan"}, "type": "electric_scooter", "name": "579efad4a8b81be17675dcae372e9dfa", "is_reserved": 0, "lon": -76.99031733333334, "is_disabled": 0, "fusion_lat": 0.0, "lat": 38.888819, "bike_id": "579efad4a8b81be17675dcae372e9dfa", "fusion_lon": 0.0}, {"rental_uris": {"ios": "https://dc.lft.to/lastmile_qr_scan", "android": "https://dc.lft.to/lastmile_qr_scan"}, "type": "electric_scooter", "name": "1f2fe23bda7845223a5be99fe03a3d1d", "is_reserved": 0, "lon": -77.00750783333334, "is_disabled": 0, "fusion_lat": 0.0, "lat": 38.91115933333333, "bike_id": "1f2fe23bda7845223a5be99fe03a3d1d", "fusion_lon": 0.0}, {"rental_uris": {"ios": "https://dc.lft.to/lastmile_qr_scan", "android": "https://dc.lft.to/lastmile_qr_scan"}, "type": "electric_scooter", "name": "b6748ae38535891fc2015a833a521df1", "is_reserved": 0, "lon": -76.98858916666667, "is_disabled": 0, "fusion_lat": 0.0, "lat": 38.906979, "bike_id": "b6748ae38535891fc2015a833a521df1", "fusion_lon": 0.0}, {"rental_uris": {"ios": "https://dc.lft.to/lastmile_qr_scan", "android": "https://dc.lft.to/lastmile_qr_scan"}, "type": "electric_bike", "name": "3db1f4a778cb83fe048caf87dc505ea2", "is_reserved": 0, "lon": -77.019016, "is_disabled": 0, "fusion_lat": 0.0, "lat": 38.97675383333333, "bike_id": "3db1f4a778cb83fe048caf87dc505ea2", "fusion_lon": 0.0}, {"rental_uris": {"ios": "https://dc.lft.to/lastmile_qr_scan", "android": "https://dc.lft.to/lastmile_qr_scan"}, "type": "electric_scooter", "name": "5568b69e90ee90da15177153c54b9f59", "is_reserved": 0, "lon": -77.03620433333333, "is_disabled": 0, "fusion_lat": 0.0, "lat": 38.942903333333334, "bike_id": "5568b69e90ee90da15177153c54b9f59", "fusion_lon": 0.0}, {"rental_uris": {"ios": "https://dc.lft.to/lastmile_qr_scan", "android": "https://dc.lft.to/lastmile_qr_scan"}, "type": "electric_scooter", "name": "a81f7f8f412f7738e65faa29af28b234", "is_reserved": 0, "lon": -77.032204, "is_disabled": 0, "fusion_lat": 0.0, "lat": 38.89627483333334, "bike_id": "a81f7f8f412f7738e65faa29af28b234", "fusion_lon": 0.0}, {"rental_uris": {"ios": "https://dc.lft.to/lastmile_qr_scan", "android": "https://dc.lft.to/lastmile_qr_scan"}, "type": "electric_scooter", "name": "998dffd4f7ce26c6d31fe08a3dcf4719", "is_reserved": 0, "lon": -77.02502883333334, "is_disabled": 0, "fusion_lat": 0.0, "lat": 38.942136, "bike_id": "998dffd4f7ce26c6d31fe08a3dcf4719", "fusion_lon": 0.0}, {"rental_uris": {"ios": "https://dc.lft.to/lastmile_qr_scan", "android": "https://dc.lft.to/lastmile_qr_scan"}, "type": "electric_scooter", "name": "ca96a9e1b7d639a8d850be45b9b583c3", "is_reserved": 0, "lon": -77.04248883333334, "is_disabled": 0, "fusion_lat": 0.0, "lat": 38.92224616666667, "bike_id": "ca96a9e1b7d639a8d850be45b9b583c3", "fusion_lon": 0.0}, {"rental_uris": {"ios": "https://dc.lft.to/lastmile_qr_scan", "android": "https://dc.lft.to/lastmile_qr_scan"}, "type": "electric_scooter", "name": "86757828d95a1ca6f3b9127dff63d4f4", "is_reserved": 0, "lon": -77.03658266666666, "is_disabled": 0, "fusion_lat": 0.0, "lat": 38.91724166666667, "bike_id": "86757828d95a1ca6f3b9127dff63d4f4", "fusion_lon": 0.0}, {"rental_uris": {"ios": "https://dc.lft.to/lastmile_qr_scan", "android": "https://dc.lft.to/lastmile_qr_scan"}, "type": "electric_scooter", "name": "8a6d1291cf9c7c5012ba53aa22930c47", "is_reserved": 0, "lon": -77.02619333333334, "is_disabled": 0, "fusion_lat": 0.0, "lat": 38.951828, "bike_id": "8a6d1291cf9c7c5012ba53aa22930c47", "fusion_lon": 0.0}, {"rental_uris": {"ios": "https://dc.lft.to/lastmile_qr_scan", "android": "https://dc.lft.to/lastmile_qr_scan"}, "type": "electric_scooter", "name": "5a5155db4e2e55907aaed9d110019efb", "is_reserved": 0, "lon": -76.99528183333334, "is_disabled": 0, "fusion_lat": 0.0, "lat": 38.90026566666667, "bike_id": "5a5155db4e2e55907aaed9d110019efb", "fusion_lon": 0.0}, {"rental_uris": {"ios": "https://dc.lft.to/lastmile_qr_scan", "android": "https://dc.lft.to/lastmile_qr_scan"}, "type": "electric_bike", "name": "35c663885b1f08e21015a365689df11a", "is_reserved": 0, "lon": -77.00726416666667, "is_disabled": 0, "fusion_lat": 0.0, "lat": 38.83245083333333, "bike_id": "35c663885b1f08e21015a365689df11a", "fusion_lon": 0.0}, {"rental_uris": {"ios": "https://dc.lft.to/lastmile_qr_scan", "android": "https://dc.lft.to/lastmile_qr_scan"}, "type": "electric_scooter", "name": "85ea2d0582b28b52d6df3bbcdb24da26", "is_reserved": 0, "lon": -77.02575333333333, "is_disabled": 0, "fusion_lat": 0.0, "lat": 38.88747633333333, "bike_id": "85ea2d0582b28b52d6df3bbcdb24da26", "fusion_lon": 0.0}, {"rental_uris": {"ios": "https://dc.lft.to/lastmile_qr_scan", "android": "https://dc.lft.to/lastmile_qr_scan"}, "type": "electric_scooter", "name": "49510b413f1ab303b0be8824320d81af", "is_reserved": 0, "lon": -76.98314516666667, "is_disabled": 0, "fusion_lat": 0.0, "lat": 38.925871, "bike_id": "49510b413f1ab303b0be8824320d81af", "fusion_lon": 0.0}, {"rental_uris": {"ios": "https://dc.lft.to/lastmile_qr_scan", "android": "https://dc.lft.to/lastmile_qr_scan"}, "type": "electric_scooter", "name": "c09b302ce2f7793273739d12058751fa", "is_reserved": 0, "lon": -77.017688, "is_disabled": 0, "fusion_lat": 0.0, "lat": 38.877168, "bike_id": "c09b302ce2f7793273739d12058751fa", "fusion_lon": 0.0}, {"rental_uris": {"ios": "https://dc.lft.to/lastmile_qr_scan", "android": "https://dc.lft.to/lastmile_qr_scan"}, "type": "electric_scooter", "name": "982d5a0732deb7c81dcab651c5b9d488", "is_reserved": 0, "lon": -77.04354183333334, "is_disabled": 0, "fusion_lat": 0.0, "lat": 38.901239833333335, "bike_id": "982d5a0732deb7c81dcab651c5b9d488", "fusion_lon": 0.0}, {"rental_uris": {"ios": "https://dc.lft.to/lastmile_qr_scan", "android": "https://dc.lft.to/lastmile_qr_scan"}, "type": "electric_scooter", "name": "85a6e955e87b99f1c8f2fd8bd7b4ed03", "is_reserved": 0, "lon": -77.04176766666667, "is_disabled": 0, "fusion_lat": 0.0, "lat": 38.9170235, "bike_id": "85a6e955e87b99f1c8f2fd8bd7b4ed03", "fusion_lon": 0.0}, {"rental_uris": {"ios": "https://dc.lft.to/lastmile_qr_scan", "android": "https://dc.lft.to/lastmile_qr_scan"}, "type": "electric_scooter", "name": "b0f1bee37ecac86e48697d249991fff5", "is_reserved": 0, "lon": -77.00402416666667, "is_disabled": 0, "fusion_lat": 0.0, "lat": 38.874609666666665, "bike_id": "b0f1bee37ecac86e48697d249991fff5", "fusion_lon": 0.0}, {"rental_uris": {"ios": "https://dc.lft.to/lastmile_qr_scan", "android": "https://dc.lft.to/lastmile_qr_scan"}, "type": "electric_bike", "name": "4dbcbb59792ab4cc5ef3a20fba718fd5", "is_reserved": 0, "lon": -76.9979415, "is_disabled": 0, "fusion_lat": 0.0, "lat": 38.908675833333334, "bike_id": "4dbcbb59792ab4cc5ef3a20fba718fd5", "fusion_lon": 0.0}, {"rental_uris": {"ios": "https://dc.lft.to/lastmile_qr_scan", "android": "https://dc.lft.to/lastmile_qr_scan"}, "type": "electric_scooter", "name": "b4de0fc33d3981ca3af2793e65a202e2", "is_reserved": 0, "lon": -77.0326185, "is_disabled": 0, "fusion_lat": 0.0, "lat": 38.93271, "bike_id": "b4de0fc33d3981ca3af2793e65a202e2", "fusion_lon": 0.0}, {"rental_uris": {"ios": "https://dc.lft.to/lastmile_qr_scan", "android": "https://dc.lft.to/lastmile_qr_scan"}, "type": "electric_scooter", "name": "1f4128fdf0ccf8ca11ceb6f321f449de", "is_reserved": 0, "lon": -77.0190415, "is_disabled": 0, "fusion_lat": 0.0, "lat": 38.92339666666667, "bike_id": "1f4128fdf0ccf8ca11ceb6f321f449de", "fusion_lon": 0.0}, {"rental_uris": {"ios": "https://dc.lft.to/lastmile_qr_scan", "android": "https://dc.lft.to/lastmile_qr_scan"}, "type": "electric_scooter", "name": "080ca5141db8f2251709b4586cc1cadc", "is_reserved": 0, "lon": -77.016089, "is_disabled": 0, "fusion_lat": 0.0, "lat": 38.912797833333336, "bike_id": "080ca5141db8f2251709b4586cc1cadc", "fusion_lon": 0.0}, {"rental_uris": {"ios": "https://dc.lft.to/lastmile_qr_scan", "android": "https://dc.lft.to/lastmile_qr_scan"}, "type": "electric_bike", "name": "dddc0503a600cf4e45a782a3a49dfdeb", "is_reserved": 0, "lon": -77.02200733333333, "is_disabled": 0, "fusion_lat": 0.0, "lat": 38.95152683333333, "bike_id": "dddc0503a600cf4e45a782a3a49dfdeb", "fusion_lon": 0.0}, {"rental_uris": {"ios": "https://dc.lft.to/lastmile_qr_scan", "android": "https://dc.lft.to/lastmile_qr_scan"}, "type": "electric_scooter", "name": "cd49d6a8736aedf952d93fb9d6dbfaa6", "is_reserved": 0, "lon": -76.99032883333334, "is_disabled": 0, "fusion_lat": 0.0, "lat": 38.88874716666667, "bike_id": "cd49d6a8736aedf952d93fb9d6dbfaa6", "fusion_lon": 0.0}, {"rental_uris": {"ios": "https://dc.lft.to/lastmile_qr_scan", "android": "https://dc.lft.to/lastmile_qr_scan"}, "type": "electric_scooter", "name": "895cedf65253914dfa58647898b8b4d7", "is_reserved": 0, "lon": -77.005718, "is_disabled": 0, "fusion_lat": 0.0, "lat": 38.87462633333333, "bike_id": "895cedf65253914dfa58647898b8b4d7", "fusion_lon": 0.0}, {"rental_uris": {"ios": "https://dc.lft.to/lastmile_qr_scan", "android": "https://dc.lft.to/lastmile_qr_scan"}, "type": "electric_scooter", "name": "962000f4565204b6f60d85fd73b08a04", "is_reserved": 0, "lon": -76.95700833333333, "is_disabled": 0, "fusion_lat": 0.0, "lat": 38.892131166666665, "bike_id": "962000f4565204b6f60d85fd73b08a04", "fusion_lon": 0.0}, {"rental_uris": {"ios": "https://dc.lft.to/lastmile_qr_scan", "android": "https://dc.lft.to/lastmile_qr_scan"}, "type": "electric_scooter", "name": "2daa89ae1a5053f7b715e284d70d95f2", "is_reserved": 0, "lon": -77.0115165, "is_disabled": 0, "fusion_lat": 0.0, "lat": 38.91446583333333, "bike_id": "2daa89ae1a5053f7b715e284d70d95f2", "fusion_lon": 0.0}, {"rental_uris": {"ios": "https://dc.lft.to/lastmile_qr_scan", "android": "https://dc.lft.to/lastmile_qr_scan"}, "type": "electric_scooter", "name": "4f7614606d4838990bdb32768cc00322", "is_reserved": 0, "lon": -77.03943666666666, "is_disabled": 0, "fusion_lat": 0.0, "lat": 38.90167183333333, "bike_id": "4f7614606d4838990bdb32768cc00322", "fusion_lon": 0.0}, {"rental_uris": {"ios": "https://dc.lft.to/lastmile_qr_scan", "android": "https://dc.lft.to/lastmile_qr_scan"}, "type": "electric_scooter", "name": "9cf4b653e5f106c7e3157b376f116dc8", "is_reserved": 0, "lon": -77.03206516666667, "is_disabled": 0, "fusion_lat": 0.0, "lat": 38.911945333333335, "bike_id": "9cf4b653e5f106c7e3157b376f116dc8", "fusion_lon": 0.0}, {"rental_uris": {"ios": "https://dc.lft.to/lastmile_qr_scan", "android": "https://dc.lft.to/lastmile_qr_scan"}, "type": "electric_scooter", "name": "89c393f09c7ac4a73fb594c9f58a51b1", "is_reserved": 0, "lon": -77.03855566666667, "is_disabled": 0, "fusion_lat": 0.0, "lat": 38.91660983333333, "bike_id": "89c393f09c7ac4a73fb594c9f58a51b1", "fusion_lon": 0.0}, {"rental_uris": {"ios": "https://dc.lft.to/lastmile_qr_scan", "android": "https://dc.lft.to/lastmile_qr_scan"}, "type": "electric_scooter", "name": "c7f14d39f4de88de1d949b9c1f55eaf8", "is_reserved": 0, "lon": -77.00924616666667, "is_disabled": 0, "fusion_lat": 0.0, "lat": 38.896911333333335, "bike_id": "c7f14d39f4de88de1d949b9c1f55eaf8", "fusion_lon": 0.0}, {"rental_uris": {"ios": "https://dc.lft.to/lastmile_qr_scan", "android": "https://dc.lft.to/lastmile_qr_scan"}, "type": "electric_scooter", "name": "09b50defe6007b804c00f08e887169f9", "is_reserved": 0, "lon": -77.02403216666667, "is_disabled": 0, "fusion_lat": 0.0, "lat": 38.9176115, "bike_id": "09b50defe6007b804c00f08e887169f9", "fusion_lon": 0.0}, {"rental_uris": {"ios": "https://dc.lft.to/lastmile_qr_scan", "android": "https://dc.lft.to/lastmile_qr_scan"}, "type": "electric_scooter", "name": "da79195fd97debfc4064ef71df081e66", "is_reserved": 0, "lon": -77.02998733333334, "is_disabled": 0, "fusion_lat": 0.0, "lat": 38.905119666666664, "bike_id": "da79195fd97debfc4064ef71df081e66", "fusion_lon": 0.0}, {"rental_uris": {"ios": "https://dc.lft.to/lastmile_qr_scan", "android": "https://dc.lft.to/lastmile_qr_scan"}, "type": "electric_scooter", "name": "36f70808496927022ad9c3e198271ab7", "is_reserved": 0, "lon": -77.02499433333334, "is_disabled": 0, "fusion_lat": 0.0, "lat": 38.897504833333336, "bike_id": "36f70808496927022ad9c3e198271ab7", "fusion_lon": 0.0}, {"rental_uris": {"ios": "https://dc.lft.to/lastmile_qr_scan", "android": "https://dc.lft.to/lastmile_qr_scan"}, "type": "electric_scooter", "name": "ff02bd11370ccd67dfb8c3e9a14ff48b", "is_reserved": 0, "lon": -77.02653283333333, "is_disabled": 0, "fusion_lat": 0.0, "lat": 38.929753833333336, "bike_id": "ff02bd11370ccd67dfb8c3e9a14ff48b", "fusion_lon": 0.0}, {"rental_uris": {"ios": "https://dc.lft.to/lastmile_qr_scan", "android": "https://dc.lft.to/lastmile_qr_scan"}, "type": "electric_scooter", "name": "71e0f38278f512ec1ad5797353b2b9ae", "is_reserved": 0, "lon": -77.0610855, "is_disabled": 0, "fusion_lat": 0.0, "lat": 38.905031666666666, "bike_id": "71e0f38278f512ec1ad5797353b2b9ae", "fusion_lon": 0.0}, {"rental_uris": {"ios": "https://dc.lft.to/lastmile_qr_scan", "android": "https://dc.lft.to/lastmile_qr_scan"}, "type": "electric_scooter", "name": "66c99635cc14348cb4a8cc54201f6807", "is_reserved": 0, "lon": -77.04804233333333, "is_disabled": 0, "fusion_lat": 0.0, "lat": 38.911037, "bike_id": "66c99635cc14348cb4a8cc54201f6807", "fusion_lon": 0.0}, {"rental_uris": {"ios": "https://dc.lft.to/lastmile_qr_scan", "android": "https://dc.lft.to/lastmile_qr_scan"}, "type": "electric_scooter", "name": "29624af2623219efa1cf29b163006fb8", "is_reserved": 0, "lon": -77.03264116666666, "is_disabled": 0, "fusion_lat": 0.0, "lat": 38.90126566666667, "bike_id": "29624af2623219efa1cf29b163006fb8", "fusion_lon": 0.0}, {"rental_uris": {"ios": "https://dc.lft.to/lastmile_qr_scan", "android": "https://dc.lft.to/lastmile_qr_scan"}, "type": "electric_scooter", "name": "a5bef06d7ef8fa1d11db510e3e8e58db", "is_reserved": 0, "lon": -77.03818316666667, "is_disabled": 0, "fusion_lat": 0.0, "lat": 38.911914, "bike_id": "a5bef06d7ef8fa1d11db510e3e8e58db", "fusion_lon": 0.0}, {"rental_uris": {"ios": "https://dc.lft.to/lastmile_qr_scan", "android": "https://dc.lft.to/lastmile_qr_scan"}, "type": "electric_scooter", "name": "7dadf2c69af1237385f744b47896dd79", "is_reserved": 0, "lon": -77.04676466666666, "is_disabled": 0, "fusion_lat": 0.0, "lat": 38.90553666666667, "bike_id": "7dadf2c69af1237385f744b47896dd79", "fusion_lon": 0.0}, {"rental_uris": {"ios": "https://dc.lft.to/lastmile_qr_scan", "android": "https://dc.lft.to/lastmile_qr_scan"}, "type": "electric_scooter", "name": "82c03b7fab54302977542434384236c3", "is_reserved": 0, "lon": -77.02096, "is_disabled": 0, "fusion_lat": 0.0, "lat": 38.930052833333335, "bike_id": "82c03b7fab54302977542434384236c3", "fusion_lon": 0.0}, {"rental_uris": {"ios": "https://dc.lft.to/lastmile_qr_scan", "android": "https://dc.lft.to/lastmile_qr_scan"}, "type": "electric_scooter", "name": "140a489e6b70ecef4061133a3f453083", "is_reserved": 0, "lon": -77.02284733333333, "is_disabled": 0, "fusion_lat": 0.0, "lat": 38.92764433333333, "bike_id": "140a489e6b70ecef4061133a3f453083", "fusion_lon": 0.0}, {"rental_uris": {"ios": "https://dc.lft.to/lastmile_qr_scan", "android": "https://dc.lft.to/lastmile_qr_scan"}, "type": "electric_scooter", "name": "402734054a0938c3c64b555be90065cc", "is_reserved": 0, "lon": -77.00559933333334, "is_disabled": 0, "fusion_lat": 0.0, "lat": 38.87472433333333, "bike_id": "402734054a0938c3c64b555be90065cc", "fusion_lon": 0.0}, {"rental_uris": {"ios": "https://dc.lft.to/lastmile_qr_scan", "android": "https://dc.lft.to/lastmile_qr_scan"}, "type": "electric_scooter", "name": "34c80bcaaa783a767395c786f997934f", "is_reserved": 0, "lon": -77.03178133333333, "is_disabled": 0, "fusion_lat": 0.0, "lat": 38.915517, "bike_id": "34c80bcaaa783a767395c786f997934f", "fusion_lon": 0.0}, {"rental_uris": {"ios": "https://dc.lft.to/lastmile_qr_scan", "android": "https://dc.lft.to/lastmile_qr_scan"}, "type": "electric_scooter", "name": "a87f2a45e553abd99695172e3fe4b839", "is_reserved": 0, "lon": -77.00992983333333, "is_disabled": 0, "fusion_lat": 0.0, "lat": 38.905633333333334, "bike_id": "a87f2a45e553abd99695172e3fe4b839", "fusion_lon": 0.0}, {"rental_uris": {"ios": "https://dc.lft.to/lastmile_qr_scan", "android": "https://dc.lft.to/lastmile_qr_scan"}, "type": "electric_scooter", "name": "288990562333a44713deec4153041078", "is_reserved": 0, "lon": -77.036438, "is_disabled": 0, "fusion_lat": 0.0, "lat": 38.908511, "bike_id": "288990562333a44713deec4153041078", "fusion_lon": 0.0}, {"rental_uris": {"ios": "https://dc.lft.to/lastmile_qr_scan", "android": "https://dc.lft.to/lastmile_qr_scan"}, "type": "electric_scooter", "name": "1ac70852e61c91933e9ac269bf6db171", "is_reserved": 0, "lon": -77.0089065, "is_disabled": 0, "fusion_lat": 0.0, "lat": 38.91716983333333, "bike_id": "1ac70852e61c91933e9ac269bf6db171", "fusion_lon": 0.0}, {"rental_uris": {"ios": "https://dc.lft.to/lastmile_qr_scan", "android": "https://dc.lft.to/lastmile_qr_scan"}, "type": "electric_scooter", "name": "8f3858e8c12bbeef5f007f66ab7d73d4", "is_reserved": 0, "lon": -77.02099833333334, "is_disabled": 0, "fusion_lat": 0.0, "lat": 38.931194, "bike_id": "8f3858e8c12bbeef5f007f66ab7d73d4", "fusion_lon": 0.0}, {"rental_uris": {"ios": "https://dc.lft.to/lastmile_qr_scan", "android": "https://dc.lft.to/lastmile_qr_scan"}, "type": "electric_scooter", "name": "77c7014702d9032e8d4cb30059395f06", "is_reserved": 0, "lon": -77.0320675, "is_disabled": 0, "fusion_lat": 0.0, "lat": 38.908232166666664, "bike_id": "77c7014702d9032e8d4cb30059395f06", "fusion_lon": 0.0}, {"rental_uris": {"ios": "https://dc.lft.to/lastmile_qr_scan", "android": "https://dc.lft.to/lastmile_qr_scan"}, "type": "electric_scooter", "name": "1fc2cdb58665fcc22f986d359b96193c", "is_reserved": 0, "lon": -76.937023, "is_disabled": 0, "fusion_lat": 0.0, "lat": 38.890193, "bike_id": "1fc2cdb58665fcc22f986d359b96193c", "fusion_lon": 0.0}, {"rental_uris": {"ios": "https://dc.lft.to/lastmile_qr_scan", "android": "https://dc.lft.to/lastmile_qr_scan"}, "type": "electric_scooter", "name": "25ed5714a58c6e4fa6cf0b0becfc0cb2", "is_reserved": 0, "lon": -77.03228033333333, "is_disabled": 0, "fusion_lat": 0.0, "lat": 38.923548333333336, "bike_id": "25ed5714a58c6e4fa6cf0b0becfc0cb2", "fusion_lon": 0.0}, {"rental_uris": {"ios": "https://dc.lft.to/lastmile_qr_scan", "android": "https://dc.lft.to/lastmile_qr_scan"}, "type": "electric_scooter", "name": "39bfb37ff4372495eeab58108f65f25c", "is_reserved": 0, "lon": -77.020721, "is_disabled": 0, "fusion_lat": 0.0, "lat": 38.93113683333333, "bike_id": "39bfb37ff4372495eeab58108f65f25c", "fusion_lon": 0.0}, {"rental_uris": {"ios": "https://dc.lft.to/lastmile_qr_scan", "android": "https://dc.lft.to/lastmile_qr_scan"}, "type": "electric_scooter", "name": "984d07321b7ca1c8ed78bb2004dafeb4", "is_reserved": 0, "lon": -77.06422883333333, "is_disabled": 0, "fusion_lat": 0.0, "lat": 38.914004, "bike_id": "984d07321b7ca1c8ed78bb2004dafeb4", "fusion_lon": 0.0}, {"rental_uris": {"ios": "https://dc.lft.to/lastmile_qr_scan", "android": "https://dc.lft.to/lastmile_qr_scan"}, "type": "electric_scooter", "name": "a339d4904d2a361a8cadddc3a32a56fb", "is_reserved": 0, "lon": -76.97752016666666, "is_disabled": 0, "fusion_lat": 0.0, "lat": 38.8646555, "bike_id": "a339d4904d2a361a8cadddc3a32a56fb", "fusion_lon": 0.0}, {"rental_uris": {"ios": "https://dc.lft.to/lastmile_qr_scan", "android": "https://dc.lft.to/lastmile_qr_scan"}, "type": "electric_scooter", "name": "70990c170a410b551b06e5ac5e650214", "is_reserved": 0, "lon": -77.03437333333333, "is_disabled": 0, "fusion_lat": 0.0, "lat": 38.9180125, "bike_id": "70990c170a410b551b06e5ac5e650214", "fusion_lon": 0.0}, {"rental_uris": {"ios": "https://dc.lft.to/lastmile_qr_scan", "android": "https://dc.lft.to/lastmile_qr_scan"}, "type": "electric_scooter", "name": "af10597a9f297e5af6893da8dc651412", "is_reserved": 0, "lon": -77.02323716666666, "is_disabled": 0, "fusion_lat": 0.0, "lat": 38.9208195, "bike_id": "af10597a9f297e5af6893da8dc651412", "fusion_lon": 0.0}, {"rental_uris": {"ios": "https://dc.lft.to/lastmile_qr_scan", "android": "https://dc.lft.to/lastmile_qr_scan"}, "type": "electric_scooter", "name": "6c052e1f1da60d47eafa1e900d89a829", "is_reserved": 0, "lon": -77.04508916666667, "is_disabled": 0, "fusion_lat": 0.0, "lat": 38.90368566666667, "bike_id": "6c052e1f1da60d47eafa1e900d89a829", "fusion_lon": 0.0}, {"rental_uris": {"ios": "https://dc.lft.to/lastmile_qr_scan", "android": "https://dc.lft.to/lastmile_qr_scan"}, "type": "electric_scooter", "name": "201c04a511089c8d9b937fc74fdb8230", "is_reserved": 0, "lon": -77.04698533333334, "is_disabled": 0, "fusion_lat": 0.0, "lat": 38.92199883333333, "bike_id": "201c04a511089c8d9b937fc74fdb8230", "fusion_lon": 0.0}, {"rental_uris": {"ios": "https://dc.lft.to/lastmile_qr_scan", "android": "https://dc.lft.to/lastmile_qr_scan"}, "type": "electric_scooter", "name": "3f9cc5237c66ccb28dc00a322defd16e", "is_reserved": 0, "lon": -76.98441783333334, "is_disabled": 0, "fusion_lat": 0.0, "lat": 38.914823166666665, "bike_id": "3f9cc5237c66ccb28dc00a322defd16e", "fusion_lon": 0.0}, {"rental_uris": {"ios": "https://dc.lft.to/lastmile_qr_scan", "android": "https://dc.lft.to/lastmile_qr_scan"}, "type": "electric_scooter", "name": "944abec9db6bda87633c72a4435cf39a", "is_reserved": 0, "lon": -77.04099816666667, "is_disabled": 0, "fusion_lat": 0.0, "lat": 38.9184025, "bike_id": "944abec9db6bda87633c72a4435cf39a", "fusion_lon": 0.0}, {"rental_uris": {"ios": "https://dc.lft.to/lastmile_qr_scan", "android": "https://dc.lft.to/lastmile_qr_scan"}, "type": "electric_scooter", "name": "2b14f98c380c0254411b62f0c321cb41", "is_reserved": 0, "lon": -77.03443033333333, "is_disabled": 0, "fusion_lat": 0.0, "lat": 38.90580466666667, "bike_id": "2b14f98c380c0254411b62f0c321cb41", "fusion_lon": 0.0}, {"rental_uris": {"ios": "https://dc.lft.to/lastmile_qr_scan", "android": "https://dc.lft.to/lastmile_qr_scan"}, "type": "electric_scooter", "name": "75b83e7309f945ec363ee058d389ecd8", "is_reserved": 0, "lon": -77.02574483333333, "is_disabled": 0, "fusion_lat": 0.0, "lat": 38.88413633333333, "bike_id": "75b83e7309f945ec363ee058d389ecd8", "fusion_lon": 0.0}, {"rental_uris": {"ios": "https://dc.lft.to/lastmile_qr_scan", "android": "https://dc.lft.to/lastmile_qr_scan"}, "type": "electric_scooter", "name": "2243445d2c4b02d33dd69b569da3c4f3", "is_reserved": 0, "lon": -77.03163833333333, "is_disabled": 0, "fusion_lat": 0.0, "lat": 38.915582666666666, "bike_id": "2243445d2c4b02d33dd69b569da3c4f3", "fusion_lon": 0.0}, {"rental_uris": {"ios": "https://dc.lft.to/lastmile_qr_scan", "android": "https://dc.lft.to/lastmile_qr_scan"}, "type": "electric_bike", "name": "d535025d735d079a065364f596caaca9", "is_reserved": 0, "lon": -76.982527, "is_disabled": 0, "fusion_lat": 0.0, "lat": 38.95332966666667, "bike_id": "d535025d735d079a065364f596caaca9", "fusion_lon": 0.0}, {"rental_uris": {"ios": "https://dc.lft.to/lastmile_qr_scan", "android": "https://dc.lft.to/lastmile_qr_scan"}, "type": "electric_scooter", "name": "80b706a9814722a62d84704f4636ca93", "is_reserved": 0, "lon": -77.03402616666666, "is_disabled": 0, "fusion_lat": 0.0, "lat": 38.924048666666664, "bike_id": "80b706a9814722a62d84704f4636ca93", "fusion_lon": 0.0}, {"rental_uris": {"ios": "https://dc.lft.to/lastmile_qr_scan", "android": "https://dc.lft.to/lastmile_qr_scan"}, "type": "electric_scooter", "name": "06b480dd9bd46f150c5c168233f84bd9", "is_reserved": 0, "lon": -77.03217633333334, "is_disabled": 0, "fusion_lat": 0.0, "lat": 38.89899783333333, "bike_id": "06b480dd9bd46f150c5c168233f84bd9", "fusion_lon": 0.0}, {"rental_uris": {"ios": "https://dc.lft.to/lastmile_qr_scan", "android": "https://dc.lft.to/lastmile_qr_scan"}, "type": "electric_scooter", "name": "d1a7383a488a3e23a4e242d8a1e775bb", "is_reserved": 0, "lon": -77.02423216666666, "is_disabled": 0, "fusion_lat": 0.0, "lat": 38.92033716666667, "bike_id": "d1a7383a488a3e23a4e242d8a1e775bb", "fusion_lon": 0.0}, {"rental_uris": {"ios": "https://dc.lft.to/lastmile_qr_scan", "android": "https://dc.lft.to/lastmile_qr_scan"}, "type": "electric_bike", "name": "590437f37187f45165e93069f897f036", "is_reserved": 0, "lon": -76.98021366666667, "is_disabled": 0, "fusion_lat": 0.0, "lat": 38.85316016666667, "bike_id": "590437f37187f45165e93069f897f036", "fusion_lon": 0.0}, {"rental_uris": {"ios": "https://dc.lft.to/lastmile_qr_scan", "android": "https://dc.lft.to/lastmile_qr_scan"}, "type": "electric_scooter", "name": "d551e2da256c83c7325707fec27aebd6", "is_reserved": 0, "lon": -77.04083083333333, "is_disabled": 0, "fusion_lat": 0.0, "lat": 38.947899, "bike_id": "d551e2da256c83c7325707fec27aebd6", "fusion_lon": 0.0}, {"rental_uris": {"ios": "https://dc.lft.to/lastmile_qr_scan", "android": "https://dc.lft.to/lastmile_qr_scan"}, "type": "electric_scooter", "name": "47d82b07f18e9e1a1183644c9ab55163", "is_reserved": 0, "lon": -77.02256216666666, "is_disabled": 0, "fusion_lat": 0.0, "lat": 38.92826183333333, "bike_id": "47d82b07f18e9e1a1183644c9ab55163", "fusion_lon": 0.0}, {"rental_uris": {"ios": "https://dc.lft.to/lastmile_qr_scan", "android": "https://dc.lft.to/lastmile_qr_scan"}, "type": "electric_scooter", "name": "b40ff343a039f4287f1c09f95df636d6", "is_reserved": 0, "lon": -77.03182133333334, "is_disabled": 0, "fusion_lat": 0.0, "lat": 38.909214, "bike_id": "b40ff343a039f4287f1c09f95df636d6", "fusion_lon": 0.0}, {"rental_uris": {"ios": "https://dc.lft.to/lastmile_qr_scan", "android": "https://dc.lft.to/lastmile_qr_scan"}, "type": "electric_scooter", "name": "c1897819aa02dda479212454a5e4fc6f", "is_reserved": 0, "lon": -77.02484083333333, "is_disabled": 0, "fusion_lat": 0.0, "lat": 38.93516266666666, "bike_id": "c1897819aa02dda479212454a5e4fc6f", "fusion_lon": 0.0}, {"rental_uris": {"ios": "https://dc.lft.to/lastmile_qr_scan", "android": "https://dc.lft.to/lastmile_qr_scan"}, "type": "electric_scooter", "name": "a07cb77bab55a0ee6bacf86bb25903eb", "is_reserved": 0, "lon": -77.00747583333333, "is_disabled": 0, "fusion_lat": 0.0, "lat": 38.91102466666667, "bike_id": "a07cb77bab55a0ee6bacf86bb25903eb", "fusion_lon": 0.0}, {"rental_uris": {"ios": "https://dc.lft.to/lastmile_qr_scan", "android": "https://dc.lft.to/lastmile_qr_scan"}, "type": "electric_scooter", "name": "7eb612d8bd2fce32dde14c49ae2f11b1", "is_reserved": 0, "lon": -77.04016333333334, "is_disabled": 0, "fusion_lat": 0.0, "lat": 38.921697333333334, "bike_id": "7eb612d8bd2fce32dde14c49ae2f11b1", "fusion_lon": 0.0}, {"rental_uris": {"ios": "https://dc.lft.to/lastmile_qr_scan", "android": "https://dc.lft.to/lastmile_qr_scan"}, "type": "electric_scooter", "name": "ce136af52e7a43cc68c1a83ec1e040b6", "is_reserved": 0, "lon": -76.98986, "is_disabled": 0, "fusion_lat": 0.0, "lat": 38.86501466666667, "bike_id": "ce136af52e7a43cc68c1a83ec1e040b6", "fusion_lon": 0.0}, {"rental_uris": {"ios": "https://dc.lft.to/lastmile_qr_scan", "android": "https://dc.lft.to/lastmile_qr_scan"}, "type": "electric_scooter", "name": "10c7d38caaff40e5ba1beb5a4e833f10", "is_reserved": 0, "lon": -77.02088, "is_disabled": 0, "fusion_lat": 0.0, "lat": 38.9214695, "bike_id": "10c7d38caaff40e5ba1beb5a4e833f10", "fusion_lon": 0.0}, {"rental_uris": {"ios": "https://dc.lft.to/lastmile_qr_scan", "android": "https://dc.lft.to/lastmile_qr_scan"}, "type": "electric_bike", "name": "463dc9dea7a0b51e6a75972638c5ad52", "is_reserved": 0, "lon": -77.034453, "is_disabled": 0, "fusion_lat": 0.0, "lat": 38.909786, "bike_id": "463dc9dea7a0b51e6a75972638c5ad52", "fusion_lon": 0.0}, {"rental_uris": {"ios": "https://dc.lft.to/lastmile_qr_scan", "android": "https://dc.lft.to/lastmile_qr_scan"}, "type": "electric_scooter", "name": "da68775c5d5537df487b5de5e1662516", "is_reserved": 0, "lon": -77.03047016666666, "is_disabled": 0, "fusion_lat": 0.0, "lat": 38.90817633333333, "bike_id": "da68775c5d5537df487b5de5e1662516", "fusion_lon": 0.0}, {"rental_uris": {"ios": "https://dc.lft.to/lastmile_qr_scan", "android": "https://dc.lft.to/lastmile_qr_scan"}, "type": "electric_scooter", "name": "f2efd65b949ee783519a29256389c8c6", "is_reserved": 0, "lon": -77.06148416666667, "is_disabled": 0, "fusion_lat": 0.0, "lat": 38.912980833333336, "bike_id": "f2efd65b949ee783519a29256389c8c6", "fusion_lon": 0.0}, {"rental_uris": {"ios": "https://dc.lft.to/lastmile_qr_scan", "android": "https://dc.lft.to/lastmile_qr_scan"}, "type": "electric_scooter", "name": "4dbc58e0a638ea6bed0dcf289381133c", "is_reserved": 0, "lon": -77.02698433333333, "is_disabled": 0, "fusion_lat": 0.0, "lat": 38.92399966666667, "bike_id": "4dbc58e0a638ea6bed0dcf289381133c", "fusion_lon": 0.0}, {"rental_uris": {"ios": "https://dc.lft.to/lastmile_qr_scan", "android": "https://dc.lft.to/lastmile_qr_scan"}, "type": "electric_bike", "name": "d14f6e869e4a10dd2f639ceb7fd856a8", "is_reserved": 0, "lon": -76.98059283333333, "is_disabled": 0, "fusion_lat": 0.0, "lat": 38.97255066666666, "bike_id": "d14f6e869e4a10dd2f639ceb7fd856a8", "fusion_lon": 0.0}, {"rental_uris": {"ios": "https://dc.lft.to/lastmile_qr_scan", "android": "https://dc.lft.to/lastmile_qr_scan"}, "type": "electric_scooter", "name": "8455154d64daea569d4505bb62844b44", "is_reserved": 0, "lon": -77.04782566666667, "is_disabled": 0, "fusion_lat": 0.0, "lat": 38.8996565, "bike_id": "8455154d64daea569d4505bb62844b44", "fusion_lon": 0.0}, {"rental_uris": {"ios": "https://dc.lft.to/lastmile_qr_scan", "android": "https://dc.lft.to/lastmile_qr_scan"}, "type": "electric_scooter", "name": "4ece557597479c7276bfc5ebfbcf8609", "is_reserved": 0, "lon": -77.01975483333334, "is_disabled": 0, "fusion_lat": 0.0, "lat": 38.89872316666667, "bike_id": "4ece557597479c7276bfc5ebfbcf8609", "fusion_lon": 0.0}, {"rental_uris": {"ios": "https://dc.lft.to/lastmile_qr_scan", "android": "https://dc.lft.to/lastmile_qr_scan"}, "type": "electric_scooter", "name": "d8cc1618b3f0a132c0374cb467e2ee08", "is_reserved": 0, "lon": -77.03862666666667, "is_disabled": 0, "fusion_lat": 0.0, "lat": 38.90806766666667, "bike_id": "d8cc1618b3f0a132c0374cb467e2ee08", "fusion_lon": 0.0}, {"rental_uris": {"ios": "https://dc.lft.to/lastmile_qr_scan", "android": "https://dc.lft.to/lastmile_qr_scan"}, "type": "electric_scooter", "name": "33ee5f68b2eefa066e91d24d5d8b79e5", "is_reserved": 0, "lon": -77.03519633333333, "is_disabled": 0, "fusion_lat": 0.0, "lat": 38.912645, "bike_id": "33ee5f68b2eefa066e91d24d5d8b79e5", "fusion_lon": 0.0}, {"rental_uris": {"ios": "https://dc.lft.to/lastmile_qr_scan", "android": "https://dc.lft.to/lastmile_qr_scan"}, "type": "electric_bike", "name": "fdb39f5c3a26db07701abdee8e055c34", "is_reserved": 0, "lon": -76.94975683333334, "is_disabled": 0, "fusion_lat": 0.0, "lat": 38.88303033333333, "bike_id": "fdb39f5c3a26db07701abdee8e055c34", "fusion_lon": 0.0}, {"rental_uris": {"ios": "https://dc.lft.to/lastmile_qr_scan", "android": "https://dc.lft.to/lastmile_qr_scan"}, "type": "electric_scooter", "name": "f896c28cf78609878d9ea52620acaf85", "is_reserved": 0, "lon": -77.000262, "is_disabled": 0, "fusion_lat": 0.0, "lat": 38.873925166666666, "bike_id": "f896c28cf78609878d9ea52620acaf85", "fusion_lon": 0.0}, {"rental_uris": {"ios": "https://dc.lft.to/lastmile_qr_scan", "android": "https://dc.lft.to/lastmile_qr_scan"}, "type": "electric_scooter", "name": "32815c7c524c3f1d47a332a59cbba9e8", "is_reserved": 0, "lon": -77.01917833333333, "is_disabled": 0, "fusion_lat": 0.0, "lat": 38.89992983333333, "bike_id": "32815c7c524c3f1d47a332a59cbba9e8", "fusion_lon": 0.0}, {"rental_uris": {"ios": "https://dc.lft.to/lastmile_qr_scan", "android": "https://dc.lft.to/lastmile_qr_scan"}, "type": "electric_scooter", "name": "39ff26d314b568345d9d186619ef0553", "is_reserved": 0, "lon": -77.02514483333333, "is_disabled": 0, "fusion_lat": 0.0, "lat": 38.920494833333336, "bike_id": "39ff26d314b568345d9d186619ef0553", "fusion_lon": 0.0}, {"rental_uris": {"ios": "https://dc.lft.to/lastmile_qr_scan", "android": "https://dc.lft.to/lastmile_qr_scan"}, "type": "electric_scooter", "name": "9965e94355d4a5cef0818470345d223e", "is_reserved": 0, "lon": -77.01958216666667, "is_disabled": 0, "fusion_lat": 0.0, "lat": 38.923268166666666, "bike_id": "9965e94355d4a5cef0818470345d223e", "fusion_lon": 0.0}, {"rental_uris": {"ios": "https://dc.lft.to/lastmile_qr_scan", "android": "https://dc.lft.to/lastmile_qr_scan"}, "type": "electric_bike", "name": "92fd5e0f895ac08d3bce66755b9a55d7", "is_reserved": 0, "lon": -77.026817, "is_disabled": 0, "fusion_lat": 0.0, "lat": 38.9026895, "bike_id": "92fd5e0f895ac08d3bce66755b9a55d7", "fusion_lon": 0.0}, {"rental_uris": {"ios": "https://dc.lft.to/lastmile_qr_scan", "android": "https://dc.lft.to/lastmile_qr_scan"}, "type": "electric_scooter", "name": "8b8ab6d3d0175a07a15cdf335b89187e", "is_reserved": 0, "lon": -77.04830316666667, "is_disabled": 0, "fusion_lat": 0.0, "lat": 38.921109333333334, "bike_id": "8b8ab6d3d0175a07a15cdf335b89187e", "fusion_lon": 0.0}, {"rental_uris": {"ios": "https://dc.lft.to/lastmile_qr_scan", "android": "https://dc.lft.to/lastmile_qr_scan"}, "type": "electric_scooter", "name": "1d0e96530dfc238aaea28ae2636da60b", "is_reserved": 0, "lon": -76.95879766666667, "is_disabled": 0, "fusion_lat": 0.0, "lat": 38.859470333333334, "bike_id": "1d0e96530dfc238aaea28ae2636da60b", "fusion_lon": 0.0}, {"rental_uris": {"ios": "https://dc.lft.to/lastmile_qr_scan", "android": "https://dc.lft.to/lastmile_qr_scan"}, "type": "electric_scooter", "name": "2bcd15e8c6529d8c77a1e5e784fb96ab", "is_reserved": 0, "lon": -77.03082, "is_disabled": 0, "fusion_lat": 0.0, "lat": 38.90569283333333, "bike_id": "2bcd15e8c6529d8c77a1e5e784fb96ab", "fusion_lon": 0.0}, {"rental_uris": {"ios": "https://dc.lft.to/lastmile_qr_scan", "android": "https://dc.lft.to/lastmile_qr_scan"}, "type": "electric_scooter", "name": "c0d935153ab6710386dfb5c6b2977ab5", "is_reserved": 0, "lon": -77.005033, "is_disabled": 0, "fusion_lat": 0.0, "lat": 38.94412833333333, "bike_id": "c0d935153ab6710386dfb5c6b2977ab5", "fusion_lon": 0.0}, {"rental_uris": {"ios": "https://dc.lft.to/lastmile_qr_scan", "android": "https://dc.lft.to/lastmile_qr_scan"}, "type": "electric_scooter", "name": "beef78b7618d46a7f47c84e17c57b7dc", "is_reserved": 0, "lon": -77.03259616666666, "is_disabled": 0, "fusion_lat": 0.0, "lat": 38.939804333333335, "bike_id": "beef78b7618d46a7f47c84e17c57b7dc", "fusion_lon": 0.0}, {"rental_uris": {"ios": "https://dc.lft.to/lastmile_qr_scan", "android": "https://dc.lft.to/lastmile_qr_scan"}, "type": "electric_scooter", "name": "f6e20437cae99cc9e55f6c399ccd4b93", "is_reserved": 0, "lon": -77.05691, "is_disabled": 0, "fusion_lat": 0.0, "lat": 38.933915166666665, "bike_id": "f6e20437cae99cc9e55f6c399ccd4b93", "fusion_lon": 0.0}, {"rental_uris": {"ios": "https://dc.lft.to/lastmile_qr_scan", "android": "https://dc.lft.to/lastmile_qr_scan"}, "type": "electric_scooter", "name": "5ead437f44bc8cd55418a3bad8cb5022", "is_reserved": 0, "lon": -77.02622533333333, "is_disabled": 0, "fusion_lat": 0.0, "lat": 38.8922375, "bike_id": "5ead437f44bc8cd55418a3bad8cb5022", "fusion_lon": 0.0}, {"rental_uris": {"ios": "https://dc.lft.to/lastmile_qr_scan", "android": "https://dc.lft.to/lastmile_qr_scan"}, "type": "electric_scooter", "name": "75204f0e618219f28b3fd81ed3e9bd86", "is_reserved": 0, "lon": -76.99388483333334, "is_disabled": 0, "fusion_lat": 0.0, "lat": 38.910166, "bike_id": "75204f0e618219f28b3fd81ed3e9bd86", "fusion_lon": 0.0}, {"rental_uris": {"ios": "https://dc.lft.to/lastmile_qr_scan", "android": "https://dc.lft.to/lastmile_qr_scan"}, "type": "electric_scooter", "name": "6f5298f7897ad7ea1cdaca98f2130191", "is_reserved": 0, "lon": -77.00193866666666, "is_disabled": 0, "fusion_lat": 0.0, "lat": 38.903196333333334, "bike_id": "6f5298f7897ad7ea1cdaca98f2130191", "fusion_lon": 0.0}, {"rental_uris": {"ios": "https://dc.lft.to/lastmile_qr_scan", "android": "https://dc.lft.to/lastmile_qr_scan"}, "type": "electric_bike", "name": "b8e021889541e1e814a7887e9cfb4515", "is_reserved": 0, "lon": -76.97531766666667, "is_disabled": 0, "fusion_lat": 0.0, "lat": 38.9033085, "bike_id": "b8e021889541e1e814a7887e9cfb4515", "fusion_lon": 0.0}, {"rental_uris": {"ios": "https://dc.lft.to/lastmile_qr_scan", "android": "https://dc.lft.to/lastmile_qr_scan"}, "type": "electric_scooter", "name": "f03d2b38c98673a8c309772ed0d67919", "is_reserved": 0, "lon": -77.03837183333333, "is_disabled": 0, "fusion_lat": 0.0, "lat": 38.903979666666665, "bike_id": "f03d2b38c98673a8c309772ed0d67919", "fusion_lon": 0.0}, {"rental_uris": {"ios": "https://dc.lft.to/lastmile_qr_scan", "android": "https://dc.lft.to/lastmile_qr_scan"}, "type": "electric_scooter", "name": "45154d9a78b27d47bdb5ca8a2b0fb639", "is_reserved": 0, "lon": -77.01820916666667, "is_disabled": 0, "fusion_lat": 0.0, "lat": 38.9110735, "bike_id": "45154d9a78b27d47bdb5ca8a2b0fb639", "fusion_lon": 0.0}, {"rental_uris": {"ios": "https://dc.lft.to/lastmile_qr_scan", "android": "https://dc.lft.to/lastmile_qr_scan"}, "type": "electric_scooter", "name": "e189bf24d8caec85cfa27c6478e0ebd6", "is_reserved": 0, "lon": -77.02715533333334, "is_disabled": 0, "fusion_lat": 0.0, "lat": 38.9196195, "bike_id": "e189bf24d8caec85cfa27c6478e0ebd6", "fusion_lon": 0.0}, {"rental_uris": {"ios": "https://dc.lft.to/lastmile_qr_scan", "android": "https://dc.lft.to/lastmile_qr_scan"}, "type": "electric_scooter", "name": "bdd16be8189ba63752c962c0c27fdc8b", "is_reserved": 0, "lon": -77.02206433333333, "is_disabled": 0, "fusion_lat": 0.0, "lat": 38.8873315, "bike_id": "bdd16be8189ba63752c962c0c27fdc8b", "fusion_lon": 0.0}, {"rental_uris": {"ios": "https://dc.lft.to/lastmile_qr_scan", "android": "https://dc.lft.to/lastmile_qr_scan"}, "type": "electric_scooter", "name": "a03a7d98a7eec7892707ef1ddefc4fa3", "is_reserved": 0, "lon": -77.03083666666667, "is_disabled": 0, "fusion_lat": 0.0, "lat": 38.938765, "bike_id": "a03a7d98a7eec7892707ef1ddefc4fa3", "fusion_lon": 0.0}, {"rental_uris": {"ios": "https://dc.lft.to/lastmile_qr_scan", "android": "https://dc.lft.to/lastmile_qr_scan"}, "type": "electric_scooter", "name": "336fdfb3a952758ad3335e29846f5a5d", "is_reserved": 0, "lon": -77.04874016666666, "is_disabled": 0, "fusion_lat": 0.0, "lat": 38.899027, "bike_id": "336fdfb3a952758ad3335e29846f5a5d", "fusion_lon": 0.0}, {"rental_uris": {"ios": "https://dc.lft.to/lastmile_qr_scan", "android": "https://dc.lft.to/lastmile_qr_scan"}, "type": "electric_bike", "name": "d6b5964b999bfa968680a6046bd238d6", "is_reserved": 0, "lon": -77.0321295, "is_disabled": 0, "fusion_lat": 0.0, "lat": 38.90269283333333, "bike_id": "d6b5964b999bfa968680a6046bd238d6", "fusion_lon": 0.0}, {"rental_uris": {"ios": "https://dc.lft.to/lastmile_qr_scan", "android": "https://dc.lft.to/lastmile_qr_scan"}, "type": "electric_scooter", "name": "db6d4f6776fb5438652d7a6bbc53e768", "is_reserved": 0, "lon": -77.02213933333333, "is_disabled": 0, "fusion_lat": 0.0, "lat": 38.91270733333333, "bike_id": "db6d4f6776fb5438652d7a6bbc53e768", "fusion_lon": 0.0}, {"rental_uris": {"ios": "https://dc.lft.to/lastmile_qr_scan", "android": "https://dc.lft.to/lastmile_qr_scan"}, "type": "electric_scooter", "name": "9d4647fa7f70880e8efc1231cbb0b682", "is_reserved": 0, "lon": -77.03215183333333, "is_disabled": 0, "fusion_lat": 0.0, "lat": 38.907027666666664, "bike_id": "9d4647fa7f70880e8efc1231cbb0b682", "fusion_lon": 0.0}, {"rental_uris": {"ios": "https://dc.lft.to/lastmile_qr_scan", "android": "https://dc.lft.to/lastmile_qr_scan"}, "type": "electric_scooter", "name": "935c82468c34a39059a80844791a3f73", "is_reserved": 0, "lon": -77.03494116666667, "is_disabled": 0, "fusion_lat": 0.0, "lat": 38.916949, "bike_id": "935c82468c34a39059a80844791a3f73", "fusion_lon": 0.0}, {"rental_uris": {"ios": "https://dc.lft.to/lastmile_qr_scan", "android": "https://dc.lft.to/lastmile_qr_scan"}, "type": "electric_scooter", "name": "a4fcc47916c9e934bfe3864ba5c1da42", "is_reserved": 0, "lon": -77.00921716666667, "is_disabled": 0, "fusion_lat": 0.0, "lat": 38.89746383333333, "bike_id": "a4fcc47916c9e934bfe3864ba5c1da42", "fusion_lon": 0.0}, {"rental_uris": {"ios": "https://dc.lft.to/lastmile_qr_scan", "android": "https://dc.lft.to/lastmile_qr_scan"}, "type": "electric_scooter", "name": "573dd5347aaf6caa59c6a2eeb5e2f63e", "is_reserved": 0, "lon": -77.0391, "is_disabled": 0, "fusion_lat": 0.0, "lat": 38.91758133333333, "bike_id": "573dd5347aaf6caa59c6a2eeb5e2f63e", "fusion_lon": 0.0}, {"rental_uris": {"ios": "https://dc.lft.to/lastmile_qr_scan", "android": "https://dc.lft.to/lastmile_qr_scan"}, "type": "electric_scooter", "name": "7c2f7709680f4a0a8d288bd3bed945f1", "is_reserved": 0, "lon": -77.02279966666667, "is_disabled": 0, "fusion_lat": 0.0, "lat": 38.92087216666667, "bike_id": "7c2f7709680f4a0a8d288bd3bed945f1", "fusion_lon": 0.0}, {"rental_uris": {"ios": "https://dc.lft.to/lastmile_qr_scan", "android": "https://dc.lft.to/lastmile_qr_scan"}, "type": "electric_scooter", "name": "6ac3c215d5195ab2521fa18e1a7fb6ac", "is_reserved": 0, "lon": -77.01533233333333, "is_disabled": 0, "fusion_lat": 0.0, "lat": 38.879553666666666, "bike_id": "6ac3c215d5195ab2521fa18e1a7fb6ac", "fusion_lon": 0.0}, {"rental_uris": {"ios": "https://dc.lft.to/lastmile_qr_scan", "android": "https://dc.lft.to/lastmile_qr_scan"}, "type": "electric_scooter", "name": "213f60c1ce1c1c4fc7c707af48a0b5b3", "is_reserved": 0, "lon": -77.0224265, "is_disabled": 0, "fusion_lat": 0.0, "lat": 38.92672816666666, "bike_id": "213f60c1ce1c1c4fc7c707af48a0b5b3", "fusion_lon": 0.0}, {"rental_uris": {"ios": "https://dc.lft.to/lastmile_qr_scan", "android": "https://dc.lft.to/lastmile_qr_scan"}, "type": "electric_scooter", "name": "ee3cc4860568390639f43d7cd7200cc0", "is_reserved": 0, "lon": -77.03575283333333, "is_disabled": 0, "fusion_lat": 0.0, "lat": 38.904780833333334, "bike_id": "ee3cc4860568390639f43d7cd7200cc0", "fusion_lon": 0.0}, {"rental_uris": {"ios": "https://dc.lft.to/lastmile_qr_scan", "android": "https://dc.lft.to/lastmile_qr_scan"}, "type": "electric_scooter", "name": "71ca69342b2fe931b3c69f7e08e7b178", "is_reserved": 0, "lon": -76.9904155, "is_disabled": 0, "fusion_lat": 0.0, "lat": 38.86374216666667, "bike_id": "71ca69342b2fe931b3c69f7e08e7b178", "fusion_lon": 0.0}, {"rental_uris": {"ios": "https://dc.lft.to/lastmile_qr_scan", "android": "https://dc.lft.to/lastmile_qr_scan"}, "type": "electric_scooter", "name": "6cf6c5fcac56298a62fe22400ff22b5c", "is_reserved": 0, "lon": -77.03957433333333, "is_disabled": 0, "fusion_lat": 0.0, "lat": 38.892458, "bike_id": "6cf6c5fcac56298a62fe22400ff22b5c", "fusion_lon": 0.0}, {"rental_uris": {"ios": "https://dc.lft.to/lastmile_qr_scan", "android": "https://dc.lft.to/lastmile_qr_scan"}, "type": "electric_scooter", "name": "580f3ce7a754725f6b7613ae4ea62b1a", "is_reserved": 0, "lon": -77.04264933333333, "is_disabled": 0, "fusion_lat": 0.0, "lat": 38.92233816666667, "bike_id": "580f3ce7a754725f6b7613ae4ea62b1a", "fusion_lon": 0.0}, {"rental_uris": {"ios": "https://dc.lft.to/lastmile_qr_scan", "android": "https://dc.lft.to/lastmile_qr_scan"}, "type": "electric_bike", "name": "af3048ecf6b1f4cde5613caa3f623e5b", "is_reserved": 0, "lon": -77.066971, "is_disabled": 0, "fusion_lat": 0.0, "lat": 38.83169483333333, "bike_id": "af3048ecf6b1f4cde5613caa3f623e5b", "fusion_lon": 0.0}, {"rental_uris": {"ios": "https://dc.lft.to/lastmile_qr_scan", "android": "https://dc.lft.to/lastmile_qr_scan"}, "type": "electric_scooter", "name": "45174a9066c79645221177015c1a38a4", "is_reserved": 0, "lon": -77.04173866666666, "is_disabled": 0, "fusion_lat": 0.0, "lat": 38.917286, "bike_id": "45174a9066c79645221177015c1a38a4", "fusion_lon": 0.0}, {"rental_uris": {"ios": "https://dc.lft.to/lastmile_qr_scan", "android": "https://dc.lft.to/lastmile_qr_scan"}, "type": "electric_scooter", "name": "1e43e1d3fdad8c889f4dadda76554dd7", "is_reserved": 0, "lon": -77.0394895, "is_disabled": 0, "fusion_lat": 0.0, "lat": 38.902636333333334, "bike_id": "1e43e1d3fdad8c889f4dadda76554dd7", "fusion_lon": 0.0}, {"rental_uris": {"ios": "https://dc.lft.to/lastmile_qr_scan", "android": "https://dc.lft.to/lastmile_qr_scan"}, "type": "electric_scooter", "name": "0ce24ab2b741dcce0b8a1a7d6ee892c7", "is_reserved": 0, "lon": -77.00191333333333, "is_disabled": 0, "fusion_lat": 0.0, "lat": 38.90038216666667, "bike_id": "0ce24ab2b741dcce0b8a1a7d6ee892c7", "fusion_lon": 0.0}, {"rental_uris": {"ios": "https://dc.lft.to/lastmile_qr_scan", "android": "https://dc.lft.to/lastmile_qr_scan"}, "type": "electric_scooter", "name": "a5ae83fd3dcf548c38057682c760ec96", "is_reserved": 0, "lon": -77.02627033333333, "is_disabled": 0, "fusion_lat": 0.0, "lat": 38.89218533333333, "bike_id": "a5ae83fd3dcf548c38057682c760ec96", "fusion_lon": 0.0}, {"rental_uris": {"ios": "https://dc.lft.to/lastmile_qr_scan", "android": "https://dc.lft.to/lastmile_qr_scan"}, "type": "electric_scooter", "name": "60f70a768bafaad85c46bd96aa76888e", "is_reserved": 0, "lon": -76.98608183333333, "is_disabled": 0, "fusion_lat": 0.0, "lat": 38.87841866666667, "bike_id": "60f70a768bafaad85c46bd96aa76888e", "fusion_lon": 0.0}, {"rental_uris": {"ios": "https://dc.lft.to/lastmile_qr_scan", "android": "https://dc.lft.to/lastmile_qr_scan"}, "type": "electric_scooter", "name": "112f2bbf7151f1dd815d5cf6ae285ca2", "is_reserved": 0, "lon": -77.00062616666666, "is_disabled": 0, "fusion_lat": 0.0, "lat": 38.87444983333334, "bike_id": "112f2bbf7151f1dd815d5cf6ae285ca2", "fusion_lon": 0.0}, {"rental_uris": {"ios": "https://dc.lft.to/lastmile_qr_scan", "android": "https://dc.lft.to/lastmile_qr_scan"}, "type": "electric_scooter", "name": "a72a40d19d820b490034660eff91cff6", "is_reserved": 0, "lon": -76.98054516666667, "is_disabled": 0, "fusion_lat": 0.0, "lat": 38.90762216666667, "bike_id": "a72a40d19d820b490034660eff91cff6", "fusion_lon": 0.0}, {"rental_uris": {"ios": "https://dc.lft.to/lastmile_qr_scan", "android": "https://dc.lft.to/lastmile_qr_scan"}, "type": "electric_scooter", "name": "6eb34d6efdd4d62f021355b4f44e7dec", "is_reserved": 0, "lon": -77.05214383333333, "is_disabled": 0, "fusion_lat": 0.0, "lat": 38.92433483333333, "bike_id": "6eb34d6efdd4d62f021355b4f44e7dec", "fusion_lon": 0.0}, {"rental_uris": {"ios": "https://dc.lft.to/lastmile_qr_scan", "android": "https://dc.lft.to/lastmile_qr_scan"}, "type": "electric_scooter", "name": "6903a750ce8152d5536ef2a6f921298b", "is_reserved": 0, "lon": -76.9927505, "is_disabled": 0, "fusion_lat": 0.0, "lat": 38.902303833333335, "bike_id": "6903a750ce8152d5536ef2a6f921298b", "fusion_lon": 0.0}, {"rental_uris": {"ios": "https://dc.lft.to/lastmile_qr_scan", "android": "https://dc.lft.to/lastmile_qr_scan"}, "type": "electric_scooter", "name": "3a59716591cd71a1930134aac5d3507a", "is_reserved": 0, "lon": -77.03038166666667, "is_disabled": 0, "fusion_lat": 0.0, "lat": 38.92245416666667, "bike_id": "3a59716591cd71a1930134aac5d3507a", "fusion_lon": 0.0}, {"rental_uris": {"ios": "https://dc.lft.to/lastmile_qr_scan", "android": "https://dc.lft.to/lastmile_qr_scan"}, "type": "electric_scooter", "name": "7a2f55cff75dd6325cf2be3d5d77d633", "is_reserved": 0, "lon": -77.043243, "is_disabled": 0, "fusion_lat": 0.0, "lat": 38.934127, "bike_id": "7a2f55cff75dd6325cf2be3d5d77d633", "fusion_lon": 0.0}, {"rental_uris": {"ios": "https://dc.lft.to/lastmile_qr_scan", "android": "https://dc.lft.to/lastmile_qr_scan"}, "type": "electric_bike", "name": "1152f72be9314b5f9bf0e37da0967691", "is_reserved": 0, "lon": -77.07020366666667, "is_disabled": 0, "fusion_lat": 0.0, "lat": 38.841133, "bike_id": "1152f72be9314b5f9bf0e37da0967691", "fusion_lon": 0.0}, {"rental_uris": {"ios": "https://dc.lft.to/lastmile_qr_scan", "android": "https://dc.lft.to/lastmile_qr_scan"}, "type": "electric_scooter", "name": "b34b710342fa746ca3ff8fbc288fedff", "is_reserved": 0, "lon": -77.04406816666666, "is_disabled": 0, "fusion_lat": 0.0, "lat": 38.92953216666667, "bike_id": "b34b710342fa746ca3ff8fbc288fedff", "fusion_lon": 0.0}, {"rental_uris": {"ios": "https://dc.lft.to/lastmile_qr_scan", "android": "https://dc.lft.to/lastmile_qr_scan"}, "type": "electric_scooter", "name": "75a3795b7aab141fd7b40215ff5b273d", "is_reserved": 0, "lon": -76.9656585, "is_disabled": 0, "fusion_lat": 0.0, "lat": 38.87609333333333, "bike_id": "75a3795b7aab141fd7b40215ff5b273d", "fusion_lon": 0.0}, {"rental_uris": {"ios": "https://dc.lft.to/lastmile_qr_scan", "android": "https://dc.lft.to/lastmile_qr_scan"}, "type": "electric_scooter", "name": "196fee2ae796edf144541a7660da4d0a", "is_reserved": 0, "lon": -76.94385066666666, "is_disabled": 0, "fusion_lat": 0.0, "lat": 38.8911895, "bike_id": "196fee2ae796edf144541a7660da4d0a", "fusion_lon": 0.0}, {"rental_uris": {"ios": "https://dc.lft.to/lastmile_qr_scan", "android": "https://dc.lft.to/lastmile_qr_scan"}, "type": "electric_scooter", "name": "78df4f6d0d33af37c665115816005391", "is_reserved": 0, "lon": -76.96506933333333, "is_disabled": 0, "fusion_lat": 0.0, "lat": 38.87647366666667, "bike_id": "78df4f6d0d33af37c665115816005391", "fusion_lon": 0.0}, {"rental_uris": {"ios": "https://dc.lft.to/lastmile_qr_scan", "android": "https://dc.lft.to/lastmile_qr_scan"}, "type": "electric_scooter", "name": "85106a44636e50ea07e2bf416142f2f7", "is_reserved": 0, "lon": -77.070812, "is_disabled": 0, "fusion_lat": 0.0, "lat": 38.89733483333333, "bike_id": "85106a44636e50ea07e2bf416142f2f7", "fusion_lon": 0.0}, {"rental_uris": {"ios": "https://dc.lft.to/lastmile_qr_scan", "android": "https://dc.lft.to/lastmile_qr_scan"}, "type": "electric_bike", "name": "e34d0844d054e5a39d442b1d9af44471", "is_reserved": 0, "lon": -77.0145385, "is_disabled": 0, "fusion_lat": 0.0, "lat": 38.917732, "bike_id": "e34d0844d054e5a39d442b1d9af44471", "fusion_lon": 0.0}, {"rental_uris": {"ios": "https://dc.lft.to/lastmile_qr_scan", "android": "https://dc.lft.to/lastmile_qr_scan"}, "type": "electric_scooter", "name": "29463e60e3a5a0ff0b5fa4d68071056a", "is_reserved": 0, "lon": -77.00419766666667, "is_disabled": 0, "fusion_lat": 0.0, "lat": 38.9118825, "bike_id": "29463e60e3a5a0ff0b5fa4d68071056a", "fusion_lon": 0.0}, {"rental_uris": {"ios": "https://dc.lft.to/lastmile_qr_scan", "android": "https://dc.lft.to/lastmile_qr_scan"}, "type": "electric_scooter", "name": "d6cd143f2221793cd8896d340a43c6c2", "is_reserved": 0, "lon": -77.0049805, "is_disabled": 0, "fusion_lat": 0.0, "lat": 38.879485333333335, "bike_id": "d6cd143f2221793cd8896d340a43c6c2", "fusion_lon": 0.0}, {"rental_uris": {"ios": "https://dc.lft.to/lastmile_qr_scan", "android": "https://dc.lft.to/lastmile_qr_scan"}, "type": "electric_scooter", "name": "f1abf68f2b5d4de08c2bb30ac872af3e", "is_reserved": 0, "lon": -77.04689383333333, "is_disabled": 0, "fusion_lat": 0.0, "lat": 38.8922525, "bike_id": "f1abf68f2b5d4de08c2bb30ac872af3e", "fusion_lon": 0.0}, {"rental_uris": {"ios": "https://dc.lft.to/lastmile_qr_scan", "android": "https://dc.lft.to/lastmile_qr_scan"}, "type": "electric_scooter", "name": "c93705e25cbc7cbe67ae7efbb1d6d215", "is_reserved": 0, "lon": -77.02712833333334, "is_disabled": 0, "fusion_lat": 0.0, "lat": 38.915258333333334, "bike_id": "c93705e25cbc7cbe67ae7efbb1d6d215", "fusion_lon": 0.0}, {"rental_uris": {"ios": "https://dc.lft.to/lastmile_qr_scan", "android": "https://dc.lft.to/lastmile_qr_scan"}, "type": "electric_scooter", "name": "d5c6a3001500ba71cdd4ccee199785b6", "is_reserved": 0, "lon": -76.96547233333334, "is_disabled": 0, "fusion_lat": 0.0, "lat": 38.87888366666667, "bike_id": "d5c6a3001500ba71cdd4ccee199785b6", "fusion_lon": 0.0}, {"rental_uris": {"ios": "https://dc.lft.to/lastmile_qr_scan", "android": "https://dc.lft.to/lastmile_qr_scan"}, "type": "electric_bike", "name": "4c0dba72e5baeca19934a23ed0e24bfd", "is_reserved": 0, "lon": -76.99441266666666, "is_disabled": 0, "fusion_lat": 0.0, "lat": 38.8310845, "bike_id": "4c0dba72e5baeca19934a23ed0e24bfd", "fusion_lon": 0.0}, {"rental_uris": {"ios": "https://dc.lft.to/lastmile_qr_scan", "android": "https://dc.lft.to/lastmile_qr_scan"}, "type": "electric_scooter", "name": "028ced84c149c6a3f0ac966454764072", "is_reserved": 0, "lon": -77.03232266666667, "is_disabled": 0, "fusion_lat": 0.0, "lat": 38.90962866666667, "bike_id": "028ced84c149c6a3f0ac966454764072", "fusion_lon": 0.0}, {"rental_uris": {"ios": "https://dc.lft.to/lastmile_qr_scan", "android": "https://dc.lft.to/lastmile_qr_scan"}, "type": "electric_bike", "name": "7ea5ef56f0f418559a2763aadbf4dd6a", "is_reserved": 0, "lon": -77.083188, "is_disabled": 0, "fusion_lat": 0.0, "lat": 38.854366, "bike_id": "7ea5ef56f0f418559a2763aadbf4dd6a", "fusion_lon": 0.0}, {"rental_uris": {"ios": "https://dc.lft.to/lastmile_qr_scan", "android": "https://dc.lft.to/lastmile_qr_scan"}, "type": "electric_scooter", "name": "8de2352064536f18ac2f488bb66d8372", "is_reserved": 0, "lon": -77.03968066666667, "is_disabled": 0, "fusion_lat": 0.0, "lat": 38.892209333333334, "bike_id": "8de2352064536f18ac2f488bb66d8372", "fusion_lon": 0.0}, {"rental_uris": {"ios": "https://dc.lft.to/lastmile_qr_scan", "android": "https://dc.lft.to/lastmile_qr_scan"}, "type": "electric_bike", "name": "3ce31ced843ed42ba74498c9204ffada", "is_reserved": 0, "lon": -76.99575933333334, "is_disabled": 0, "fusion_lat": 0.0, "lat": 38.831612, "bike_id": "3ce31ced843ed42ba74498c9204ffada", "fusion_lon": 0.0}, {"rental_uris": {"ios": "https://dc.lft.to/lastmile_qr_scan", "android": "https://dc.lft.to/lastmile_qr_scan"}, "type": "electric_scooter", "name": "8e003ef11bced5e5858f207177915600", "is_reserved": 0, "lon": -77.0222725, "is_disabled": 0, "fusion_lat": 0.0, "lat": 38.898439, "bike_id": "8e003ef11bced5e5858f207177915600", "fusion_lon": 0.0}, {"rental_uris": {"ios": "https://dc.lft.to/lastmile_qr_scan", "android": "https://dc.lft.to/lastmile_qr_scan"}, "type": "electric_scooter", "name": "f5dcad31ef839f43419c7cae60b9b5e9", "is_reserved": 0, "lon": -77.0178685, "is_disabled": 0, "fusion_lat": 0.0, "lat": 38.87470966666667, "bike_id": "f5dcad31ef839f43419c7cae60b9b5e9", "fusion_lon": 0.0}, {"rental_uris": {"ios": "https://dc.lft.to/lastmile_qr_scan", "android": "https://dc.lft.to/lastmile_qr_scan"}, "type": "electric_scooter", "name": "ca82472b562b208ca0bf23cb0d1abbc5", "is_reserved": 0, "lon": -76.9972645, "is_disabled": 0, "fusion_lat": 0.0, "lat": 38.89749666666667, "bike_id": "ca82472b562b208ca0bf23cb0d1abbc5", "fusion_lon": 0.0}, {"rental_uris": {"ios": "https://dc.lft.to/lastmile_qr_scan", "android": "https://dc.lft.to/lastmile_qr_scan"}, "type": "electric_scooter", "name": "f97218a85f72d53678d129fc29faba60", "is_reserved": 0, "lon": -77.03995416666666, "is_disabled": 0, "fusion_lat": 0.0, "lat": 38.901493333333335, "bike_id": "f97218a85f72d53678d129fc29faba60", "fusion_lon": 0.0}, {"rental_uris": {"ios": "https://dc.lft.to/lastmile_qr_scan", "android": "https://dc.lft.to/lastmile_qr_scan"}, "type": "electric_scooter", "name": "8b06cc4ead7e83ca6504f74fec4791c9", "is_reserved": 0, "lon": -76.99664716666666, "is_disabled": 0, "fusion_lat": 0.0, "lat": 38.89234616666667, "bike_id": "8b06cc4ead7e83ca6504f74fec4791c9", "fusion_lon": 0.0}, {"rental_uris": {"ios": "https://dc.lft.to/lastmile_qr_scan", "android": "https://dc.lft.to/lastmile_qr_scan"}, "type": "electric_scooter", "name": "8999859c5b433d2029c968b6ab8bb619", "is_reserved": 0, "lon": -77.002768, "is_disabled": 0, "fusion_lat": 0.0, "lat": 38.90883483333333, "bike_id": "8999859c5b433d2029c968b6ab8bb619", "fusion_lon": 0.0}, {"rental_uris": {"ios": "https://dc.lft.to/lastmile_qr_scan", "android": "https://dc.lft.to/lastmile_qr_scan"}, "type": "electric_scooter", "name": "d1d2846deb91d61695e457b356078f40", "is_reserved": 0, "lon": -77.023051, "is_disabled": 0, "fusion_lat": 0.0, "lat": 38.9128525, "bike_id": "d1d2846deb91d61695e457b356078f40", "fusion_lon": 0.0}, {"rental_uris": {"ios": "https://dc.lft.to/lastmile_qr_scan", "android": "https://dc.lft.to/lastmile_qr_scan"}, "type": "electric_scooter", "name": "202f5fd95ea7b7aca4912aefdaf47521", "is_reserved": 0, "lon": -77.0314925, "is_disabled": 0, "fusion_lat": 0.0, "lat": 38.88743266666667, "bike_id": "202f5fd95ea7b7aca4912aefdaf47521", "fusion_lon": 0.0}, {"rental_uris": {"ios": "https://dc.lft.to/lastmile_qr_scan", "android": "https://dc.lft.to/lastmile_qr_scan"}, "type": "electric_scooter", "name": "e510cc6de1fb9700bcb6ba6e41780aac", "is_reserved": 0, "lon": -77.02528966666667, "is_disabled": 0, "fusion_lat": 0.0, "lat": 38.94534633333333, "bike_id": "e510cc6de1fb9700bcb6ba6e41780aac", "fusion_lon": 0.0}, {"rental_uris": {"ios": "https://dc.lft.to/lastmile_qr_scan", "android": "https://dc.lft.to/lastmile_qr_scan"}, "type": "electric_scooter", "name": "68bc5f5243dfadfe4f6d1727e22f4a18", "is_reserved": 0, "lon": -76.97571566666667, "is_disabled": 0, "fusion_lat": 0.0, "lat": 38.944232166666666, "bike_id": "68bc5f5243dfadfe4f6d1727e22f4a18", "fusion_lon": 0.0}, {"rental_uris": {"ios": "https://dc.lft.to/lastmile_qr_scan", "android": "https://dc.lft.to/lastmile_qr_scan"}, "type": "electric_scooter", "name": "6c6cbca8cbb25879f161253965167650", "is_reserved": 0, "lon": -76.99790066666667, "is_disabled": 0, "fusion_lat": 0.0, "lat": 38.876386833333335, "bike_id": "6c6cbca8cbb25879f161253965167650", "fusion_lon": 0.0}, {"rental_uris": {"ios": "https://dc.lft.to/lastmile_qr_scan", "android": "https://dc.lft.to/lastmile_qr_scan"}, "type": "electric_scooter", "name": "fd5aaead96930dcde0f4162dc7272c5d", "is_reserved": 0, "lon": -77.03465966666667, "is_disabled": 0, "fusion_lat": 0.0, "lat": 38.91707483333333, "bike_id": "fd5aaead96930dcde0f4162dc7272c5d", "fusion_lon": 0.0}, {"rental_uris": {"ios": "https://dc.lft.to/lastmile_qr_scan", "android": "https://dc.lft.to/lastmile_qr_scan"}, "type": "electric_scooter", "name": "9244626a2a9279fc2a1d654c8c5d39eb", "is_reserved": 0, "lon": -77.06835316666667, "is_disabled": 0, "fusion_lat": 0.0, "lat": 38.95226733333333, "bike_id": "9244626a2a9279fc2a1d654c8c5d39eb", "fusion_lon": 0.0}, {"rental_uris": {"ios": "https://dc.lft.to/lastmile_qr_scan", "android": "https://dc.lft.to/lastmile_qr_scan"}, "type": "electric_scooter", "name": "95102a27d2f82a4125735739663e5822", "is_reserved": 0, "lon": -77.02619833333334, "is_disabled": 0, "fusion_lat": 0.0, "lat": 38.90305883333333, "bike_id": "95102a27d2f82a4125735739663e5822", "fusion_lon": 0.0}, {"rental_uris": {"ios": "https://dc.lft.to/lastmile_qr_scan", "android": "https://dc.lft.to/lastmile_qr_scan"}, "type": "electric_scooter", "name": "d32ddc6353387483cf50fe5c850534e8", "is_reserved": 0, "lon": -77.032208, "is_disabled": 0, "fusion_lat": 0.0, "lat": 38.908675, "bike_id": "d32ddc6353387483cf50fe5c850534e8", "fusion_lon": 0.0}, {"rental_uris": {"ios": "https://dc.lft.to/lastmile_qr_scan", "android": "https://dc.lft.to/lastmile_qr_scan"}, "type": "electric_bike", "name": "a788782e56ff78694db403365c474d47", "is_reserved": 0, "lon": -76.95795416666667, "is_disabled": 0, "fusion_lat": 0.0, "lat": 38.980435, "bike_id": "a788782e56ff78694db403365c474d47", "fusion_lon": 0.0}, {"rental_uris": {"ios": "https://dc.lft.to/lastmile_qr_scan", "android": "https://dc.lft.to/lastmile_qr_scan"}, "type": "electric_bike", "name": "904b0d9961b16c757d5905681211c4d3", "is_reserved": 0, "lon": -77.00138866666667, "is_disabled": 0, "fusion_lat": 0.0, "lat": 38.995016, "bike_id": "904b0d9961b16c757d5905681211c4d3", "fusion_lon": 0.0}, {"rental_uris": {"ios": "https://dc.lft.to/lastmile_qr_scan", "android": "https://dc.lft.to/lastmile_qr_scan"}, "type": "electric_scooter", "name": "5ba5a51b618246d6a770d70ee13306df", "is_reserved": 0, "lon": -77.0419305, "is_disabled": 0, "fusion_lat": 0.0, "lat": 38.92018316666667, "bike_id": "5ba5a51b618246d6a770d70ee13306df", "fusion_lon": 0.0}, {"rental_uris": {"ios": "https://dc.lft.to/lastmile_qr_scan", "android": "https://dc.lft.to/lastmile_qr_scan"}, "type": "electric_scooter", "name": "1b05cb8c6dfc65b2ecdd266b3d648593", "is_reserved": 0, "lon": -76.99477233333333, "is_disabled": 0, "fusion_lat": 0.0, "lat": 38.90552783333333, "bike_id": "1b05cb8c6dfc65b2ecdd266b3d648593", "fusion_lon": 0.0}, {"rental_uris": {"ios": "https://dc.lft.to/lastmile_qr_scan", "android": "https://dc.lft.to/lastmile_qr_scan"}, "type": "electric_scooter", "name": "ae91bb251e33bb0f168beaf32bf550de", "is_reserved": 0, "lon": -77.01771783333334, "is_disabled": 0, "fusion_lat": 0.0, "lat": 38.9009445, "bike_id": "ae91bb251e33bb0f168beaf32bf550de", "fusion_lon": 0.0}, {"rental_uris": {"ios": "https://dc.lft.to/lastmile_qr_scan", "android": "https://dc.lft.to/lastmile_qr_scan"}, "type": "electric_scooter", "name": "32fd18af615e75482613a1b8db191842", "is_reserved": 0, "lon": -76.96530383333334, "is_disabled": 0, "fusion_lat": 0.0, "lat": 38.918457333333336, "bike_id": "32fd18af615e75482613a1b8db191842", "fusion_lon": 0.0}, {"rental_uris": {"ios": "https://dc.lft.to/lastmile_qr_scan", "android": "https://dc.lft.to/lastmile_qr_scan"}, "type": "electric_scooter", "name": "67383e68ccd01078179300d40ff1aaee", "is_reserved": 0, "lon": -76.94197683333333, "is_disabled": 0, "fusion_lat": 0.0, "lat": 38.90226666666667, "bike_id": "67383e68ccd01078179300d40ff1aaee", "fusion_lon": 0.0}, {"rental_uris": {"ios": "https://dc.lft.to/lastmile_qr_scan", "android": "https://dc.lft.to/lastmile_qr_scan"}, "type": "electric_scooter", "name": "ea54f3f013093bf6cc0fcde79ca96358", "is_reserved": 0, "lon": -77.02179616666666, "is_disabled": 0, "fusion_lat": 0.0, "lat": 38.91066416666666, "bike_id": "ea54f3f013093bf6cc0fcde79ca96358", "fusion_lon": 0.0}, {"rental_uris": {"ios": "https://dc.lft.to/lastmile_qr_scan", "android": "https://dc.lft.to/lastmile_qr_scan"}, "type": "electric_scooter", "name": "105f13d058e62b86f62a75ffd0f5e968", "is_reserved": 0, "lon": -77.00562183333334, "is_disabled": 0, "fusion_lat": 0.0, "lat": 38.905557333333334, "bike_id": "105f13d058e62b86f62a75ffd0f5e968", "fusion_lon": 0.0}, {"rental_uris": {"ios": "https://dc.lft.to/lastmile_qr_scan", "android": "https://dc.lft.to/lastmile_qr_scan"}, "type": "electric_scooter", "name": "9e140c98b536bb84d5cde121b518cf66", "is_reserved": 0, "lon": -77.075545, "is_disabled": 0, "fusion_lat": 0.0, "lat": 38.920876666666665, "bike_id": "9e140c98b536bb84d5cde121b518cf66", "fusion_lon": 0.0}, {"rental_uris": {"ios": "https://dc.lft.to/lastmile_qr_scan", "android": "https://dc.lft.to/lastmile_qr_scan"}, "type": "electric_scooter", "name": "e2f78a4e7e6c70de25d6cbcc789ac914", "is_reserved": 0, "lon": -77.0446785, "is_disabled": 0, "fusion_lat": 0.0, "lat": 38.91917633333333, "bike_id": "e2f78a4e7e6c70de25d6cbcc789ac914", "fusion_lon": 0.0}, {"rental_uris": {"ios": "https://dc.lft.to/lastmile_qr_scan", "android": "https://dc.lft.to/lastmile_qr_scan"}, "type": "electric_scooter", "name": "88cc18b44ded0044afcb26a398aa4463", "is_reserved": 0, "lon": -77.03853366666667, "is_disabled": 0, "fusion_lat": 0.0, "lat": 38.91638016666667, "bike_id": "88cc18b44ded0044afcb26a398aa4463", "fusion_lon": 0.0}, {"rental_uris": {"ios": "https://dc.lft.to/lastmile_qr_scan", "android": "https://dc.lft.to/lastmile_qr_scan"}, "type": "electric_scooter", "name": "4444e9f1710d5153dc91b19a862e9699", "is_reserved": 0, "lon": -77.021501, "is_disabled": 0, "fusion_lat": 0.0, "lat": 38.919909833333335, "bike_id": "4444e9f1710d5153dc91b19a862e9699", "fusion_lon": 0.0}, {"rental_uris": {"ios": "https://dc.lft.to/lastmile_qr_scan", "android": "https://dc.lft.to/lastmile_qr_scan"}, "type": "electric_scooter", "name": "22dc9bcec67526328678fbd1adc5875f", "is_reserved": 0, "lon": -77.043247, "is_disabled": 0, "fusion_lat": 0.0, "lat": 38.927112, "bike_id": "22dc9bcec67526328678fbd1adc5875f", "fusion_lon": 0.0}, {"rental_uris": {"ios": "https://dc.lft.to/lastmile_qr_scan", "android": "https://dc.lft.to/lastmile_qr_scan"}, "type": "electric_scooter", "name": "cf5e5fe7275cce0ca27472bc5559b9a2", "is_reserved": 0, "lon": -77.032482, "is_disabled": 0, "fusion_lat": 0.0, "lat": 38.93256383333333, "bike_id": "cf5e5fe7275cce0ca27472bc5559b9a2", "fusion_lon": 0.0}, {"rental_uris": {"ios": "https://dc.lft.to/lastmile_qr_scan", "android": "https://dc.lft.to/lastmile_qr_scan"}, "type": "electric_scooter", "name": "cf3a69cc63af5a3934c4576f56116f6c", "is_reserved": 0, "lon": -77.03831916666667, "is_disabled": 0, "fusion_lat": 0.0, "lat": 38.91258583333333, "bike_id": "cf3a69cc63af5a3934c4576f56116f6c", "fusion_lon": 0.0}, {"rental_uris": {"ios": "https://dc.lft.to/lastmile_qr_scan", "android": "https://dc.lft.to/lastmile_qr_scan"}, "type": "electric_scooter", "name": "f5c8fafc94d6538308f905afabccaaac", "is_reserved": 0, "lon": -77.02507883333334, "is_disabled": 0, "fusion_lat": 0.0, "lat": 38.942169166666666, "bike_id": "f5c8fafc94d6538308f905afabccaaac", "fusion_lon": 0.0}, {"rental_uris": {"ios": "https://dc.lft.to/lastmile_qr_scan", "android": "https://dc.lft.to/lastmile_qr_scan"}, "type": "electric_scooter", "name": "4c6f0184f9b7f6661b9aa8016918c18c", "is_reserved": 0, "lon": -77.04745716666666, "is_disabled": 0, "fusion_lat": 0.0, "lat": 38.901836333333335, "bike_id": "4c6f0184f9b7f6661b9aa8016918c18c", "fusion_lon": 0.0}, {"rental_uris": {"ios": "https://dc.lft.to/lastmile_qr_scan", "android": "https://dc.lft.to/lastmile_qr_scan"}, "type": "electric_scooter", "name": "87b885df855666abfcd7c87d78705e95", "is_reserved": 0, "lon": -77.04569566666666, "is_disabled": 0, "fusion_lat": 0.0, "lat": 38.91323833333333, "bike_id": "87b885df855666abfcd7c87d78705e95", "fusion_lon": 0.0}, {"rental_uris": {"ios": "https://dc.lft.to/lastmile_qr_scan", "android": "https://dc.lft.to/lastmile_qr_scan"}, "type": "electric_scooter", "name": "9946db6da6cb4bf45bb957a0ae11423c", "is_reserved": 0, "lon": -77.031891, "is_disabled": 0, "fusion_lat": 0.0, "lat": 38.91430233333333, "bike_id": "9946db6da6cb4bf45bb957a0ae11423c", "fusion_lon": 0.0}, {"rental_uris": {"ios": "https://dc.lft.to/lastmile_qr_scan", "android": "https://dc.lft.to/lastmile_qr_scan"}, "type": "electric_scooter", "name": "e53f89b43aaa89742c5ff4f179e5d1af", "is_reserved": 0, "lon": -77.00723866666667, "is_disabled": 0, "fusion_lat": 0.0, "lat": 38.9110925, "bike_id": "e53f89b43aaa89742c5ff4f179e5d1af", "fusion_lon": 0.0}, {"rental_uris": {"ios": "https://dc.lft.to/lastmile_qr_scan", "android": "https://dc.lft.to/lastmile_qr_scan"}, "type": "electric_scooter", "name": "a356a75139b503708b367e44f31f7939", "is_reserved": 0, "lon": -77.03710116666667, "is_disabled": 0, "fusion_lat": 0.0, "lat": 38.92776083333333, "bike_id": "a356a75139b503708b367e44f31f7939", "fusion_lon": 0.0}, {"rental_uris": {"ios": "https://dc.lft.to/lastmile_qr_scan", "android": "https://dc.lft.to/lastmile_qr_scan"}, "type": "electric_scooter", "name": "3cc2af6969908f4bed99f33b3028f1e2", "is_reserved": 0, "lon": -77.0276735, "is_disabled": 0, "fusion_lat": 0.0, "lat": 38.922421666666665, "bike_id": "3cc2af6969908f4bed99f33b3028f1e2", "fusion_lon": 0.0}, {"rental_uris": {"ios": "https://dc.lft.to/lastmile_qr_scan", "android": "https://dc.lft.to/lastmile_qr_scan"}, "type": "electric_bike", "name": "6efc5a1deea749d1272eed3a5a09dd56", "is_reserved": 0, "lon": -76.97773633333334, "is_disabled": 0, "fusion_lat": 0.0, "lat": 38.857282166666664, "bike_id": "6efc5a1deea749d1272eed3a5a09dd56", "fusion_lon": 0.0}, {"rental_uris": {"ios": "https://dc.lft.to/lastmile_qr_scan", "android": "https://dc.lft.to/lastmile_qr_scan"}, "type": "electric_bike", "name": "38110220ccddef98e1235b9b9fd2335e", "is_reserved": 0, "lon": -76.99989233333334, "is_disabled": 0, "fusion_lat": 0.0, "lat": 38.964094333333335, "bike_id": "38110220ccddef98e1235b9b9fd2335e", "fusion_lon": 0.0}, {"rental_uris": {"ios": "https://dc.lft.to/lastmile_qr_scan", "android": "https://dc.lft.to/lastmile_qr_scan"}, "type": "electric_scooter", "name": "f62ab31f99a96d30902142df6718cb2b", "is_reserved": 0, "lon": -77.02595566666666, "is_disabled": 0, "fusion_lat": 0.0, "lat": 38.91950116666667, "bike_id": "f62ab31f99a96d30902142df6718cb2b", "fusion_lon": 0.0}, {"rental_uris": {"ios": "https://dc.lft.to/lastmile_qr_scan", "android": "https://dc.lft.to/lastmile_qr_scan"}, "type": "electric_scooter", "name": "818fb38d033da363b71eb4b5f7ad8552", "is_reserved": 0, "lon": -77.03339216666667, "is_disabled": 0, "fusion_lat": 0.0, "lat": 38.897253166666665, "bike_id": "818fb38d033da363b71eb4b5f7ad8552", "fusion_lon": 0.0}, {"rental_uris": {"ios": "https://dc.lft.to/lastmile_qr_scan", "android": "https://dc.lft.to/lastmile_qr_scan"}, "type": "electric_bike", "name": "7b97d8226ec9b5c89aa179ed72a682cc", "is_reserved": 0, "lon": -76.95744433333333, "is_disabled": 0, "fusion_lat": 0.0, "lat": 38.8885655, "bike_id": "7b97d8226ec9b5c89aa179ed72a682cc", "fusion_lon": 0.0}, {"rental_uris": {"ios": "https://dc.lft.to/lastmile_qr_scan", "android": "https://dc.lft.to/lastmile_qr_scan"}, "type": "electric_scooter", "name": "6199b88f855c1d8d25342b1fcc3c76d8", "is_reserved": 0, "lon": -77.0320295, "is_disabled": 0, "fusion_lat": 0.0, "lat": 38.909337, "bike_id": "6199b88f855c1d8d25342b1fcc3c76d8", "fusion_lon": 0.0}, {"rental_uris": {"ios": "https://dc.lft.to/lastmile_qr_scan", "android": "https://dc.lft.to/lastmile_qr_scan"}, "type": "electric_scooter", "name": "24d88470f407f972afa16cae01c4d430", "is_reserved": 0, "lon": -77.04384516666667, "is_disabled": 0, "fusion_lat": 0.0, "lat": 38.917081833333334, "bike_id": "24d88470f407f972afa16cae01c4d430", "fusion_lon": 0.0}, {"rental_uris": {"ios": "https://dc.lft.to/lastmile_qr_scan", "android": "https://dc.lft.to/lastmile_qr_scan"}, "type": "electric_scooter", "name": "9ba4416a18e3948639215689e014f26e", "is_reserved": 0, "lon": -77.045302, "is_disabled": 0, "fusion_lat": 0.0, "lat": 38.899617166666665, "bike_id": "9ba4416a18e3948639215689e014f26e", "fusion_lon": 0.0}, {"rental_uris": {"ios": "https://dc.lft.to/lastmile_qr_scan", "android": "https://dc.lft.to/lastmile_qr_scan"}, "type": "electric_scooter", "name": "2a81c592a84de24cbb29d9756f1dc11a", "is_reserved": 0, "lon": -77.0317595, "is_disabled": 0, "fusion_lat": 0.0, "lat": 38.9157035, "bike_id": "2a81c592a84de24cbb29d9756f1dc11a", "fusion_lon": 0.0}, {"rental_uris": {"ios": "https://dc.lft.to/lastmile_qr_scan", "android": "https://dc.lft.to/lastmile_qr_scan"}, "type": "electric_scooter", "name": "ef848fabb1db5bd829972fcbd876e88f", "is_reserved": 0, "lon": -77.038682, "is_disabled": 0, "fusion_lat": 0.0, "lat": 38.91109383333333, "bike_id": "ef848fabb1db5bd829972fcbd876e88f", "fusion_lon": 0.0}, {"rental_uris": {"ios": "https://dc.lft.to/lastmile_qr_scan", "android": "https://dc.lft.to/lastmile_qr_scan"}, "type": "electric_scooter", "name": "2a90dd7f768b4a2c69bffc7a0426a776", "is_reserved": 0, "lon": -77.067778, "is_disabled": 0, "fusion_lat": 0.0, "lat": 38.90884416666667, "bike_id": "2a90dd7f768b4a2c69bffc7a0426a776", "fusion_lon": 0.0}, {"rental_uris": {"ios": "https://dc.lft.to/lastmile_qr_scan", "android": "https://dc.lft.to/lastmile_qr_scan"}, "type": "electric_scooter", "name": "7b3a54cd1e083d794e17f74173ebc79c", "is_reserved": 0, "lon": -77.0455265, "is_disabled": 0, "fusion_lat": 0.0, "lat": 38.9097825, "bike_id": "7b3a54cd1e083d794e17f74173ebc79c", "fusion_lon": 0.0}, {"rental_uris": {"ios": "https://dc.lft.to/lastmile_qr_scan", "android": "https://dc.lft.to/lastmile_qr_scan"}, "type": "electric_scooter", "name": "311dd0fbe976b5a0a9c6efc3c340b378", "is_reserved": 0, "lon": -76.94720283333334, "is_disabled": 0, "fusion_lat": 0.0, "lat": 38.8908295, "bike_id": "311dd0fbe976b5a0a9c6efc3c340b378", "fusion_lon": 0.0}, {"rental_uris": {"ios": "https://dc.lft.to/lastmile_qr_scan", "android": "https://dc.lft.to/lastmile_qr_scan"}, "type": "electric_scooter", "name": "fde13cbbf17b5940406131faed90a05e", "is_reserved": 0, "lon": -77.03955666666667, "is_disabled": 0, "fusion_lat": 0.0, "lat": 38.89246883333333, "bike_id": "fde13cbbf17b5940406131faed90a05e", "fusion_lon": 0.0}, {"rental_uris": {"ios": "https://dc.lft.to/lastmile_qr_scan", "android": "https://dc.lft.to/lastmile_qr_scan"}, "type": "electric_scooter", "name": "29d3ee776cf9d1938f55c0a4fffc19b4", "is_reserved": 0, "lon": -77.03783066666666, "is_disabled": 0, "fusion_lat": 0.0, "lat": 38.925683, "bike_id": "29d3ee776cf9d1938f55c0a4fffc19b4", "fusion_lon": 0.0}, {"rental_uris": {"ios": "https://dc.lft.to/lastmile_qr_scan", "android": "https://dc.lft.to/lastmile_qr_scan"}, "type": "electric_bike", "name": "488ab54281f0e65c812576866af8c94b", "is_reserved": 0, "lon": -77.1264975, "is_disabled": 0, "fusion_lat": 0.0, "lat": 38.81909516666666, "bike_id": "488ab54281f0e65c812576866af8c94b", "fusion_lon": 0.0}, {"rental_uris": {"ios": "https://dc.lft.to/lastmile_qr_scan", "android": "https://dc.lft.to/lastmile_qr_scan"}, "type": "electric_scooter", "name": "005860c1d6ab31539c7e0aca5461ec69", "is_reserved": 0, "lon": -77.01128183333333, "is_disabled": 0, "fusion_lat": 0.0, "lat": 38.9119565, "bike_id": "005860c1d6ab31539c7e0aca5461ec69", "fusion_lon": 0.0}, {"rental_uris": {"ios": "https://dc.lft.to/lastmile_qr_scan", "android": "https://dc.lft.to/lastmile_qr_scan"}, "type": "electric_scooter", "name": "ee979c26fe6515bcded814d07247d41d", "is_reserved": 0, "lon": -77.02302, "is_disabled": 0, "fusion_lat": 0.0, "lat": 38.8998475, "bike_id": "ee979c26fe6515bcded814d07247d41d", "fusion_lon": 0.0}, {"rental_uris": {"ios": "https://dc.lft.to/lastmile_qr_scan", "android": "https://dc.lft.to/lastmile_qr_scan"}, "type": "electric_scooter", "name": "1e48673fe58af6b928e6816338aba918", "is_reserved": 0, "lon": -77.02127816666666, "is_disabled": 0, "fusion_lat": 0.0, "lat": 38.9328985, "bike_id": "1e48673fe58af6b928e6816338aba918", "fusion_lon": 0.0}, {"rental_uris": {"ios": "https://dc.lft.to/lastmile_qr_scan", "android": "https://dc.lft.to/lastmile_qr_scan"}, "type": "electric_scooter", "name": "753032ae93d9ff4769309fc5301953bb", "is_reserved": 0, "lon": -77.06372783333333, "is_disabled": 0, "fusion_lat": 0.0, "lat": 38.9356275, "bike_id": "753032ae93d9ff4769309fc5301953bb", "fusion_lon": 0.0}, {"rental_uris": {"ios": "https://dc.lft.to/lastmile_qr_scan", "android": "https://dc.lft.to/lastmile_qr_scan"}, "type": "electric_scooter", "name": "9344cc5110e1f458e3764aad28837293", "is_reserved": 0, "lon": -77.0385445, "is_disabled": 0, "fusion_lat": 0.0, "lat": 38.912813, "bike_id": "9344cc5110e1f458e3764aad28837293", "fusion_lon": 0.0}, {"rental_uris": {"ios": "https://dc.lft.to/lastmile_qr_scan", "android": "https://dc.lft.to/lastmile_qr_scan"}, "type": "electric_scooter", "name": "0d42896f8150287e89d6e8172d683e70", "is_reserved": 0, "lon": -77.04146366666667, "is_disabled": 0, "fusion_lat": 0.0, "lat": 38.923015, "bike_id": "0d42896f8150287e89d6e8172d683e70", "fusion_lon": 0.0}, {"rental_uris": {"ios": "https://dc.lft.to/lastmile_qr_scan", "android": "https://dc.lft.to/lastmile_qr_scan"}, "type": "electric_scooter", "name": "1e9ff41da9a88c1811db91f177a69b15", "is_reserved": 0, "lon": -77.02411666666667, "is_disabled": 0, "fusion_lat": 0.0, "lat": 38.920723, "bike_id": "1e9ff41da9a88c1811db91f177a69b15", "fusion_lon": 0.0}, {"rental_uris": {"ios": "https://dc.lft.to/lastmile_qr_scan", "android": "https://dc.lft.to/lastmile_qr_scan"}, "type": "electric_scooter", "name": "977b781c77b5b3960cd14749233a00bb", "is_reserved": 0, "lon": -77.0122525, "is_disabled": 0, "fusion_lat": 0.0, "lat": 38.91499533333333, "bike_id": "977b781c77b5b3960cd14749233a00bb", "fusion_lon": 0.0}, {"rental_uris": {"ios": "https://dc.lft.to/lastmile_qr_scan", "android": "https://dc.lft.to/lastmile_qr_scan"}, "type": "electric_scooter", "name": "a73cd4633822d04c7e6611c3feb9ed65", "is_reserved": 0, "lon": -76.9282595, "is_disabled": 0, "fusion_lat": 0.0, "lat": 38.901796166666664, "bike_id": "a73cd4633822d04c7e6611c3feb9ed65", "fusion_lon": 0.0}, {"rental_uris": {"ios": "https://dc.lft.to/lastmile_qr_scan", "android": "https://dc.lft.to/lastmile_qr_scan"}, "type": "electric_bike", "name": "22dfc2d6c47cfdd07db44698db166a9e", "is_reserved": 0, "lon": -76.9958335, "is_disabled": 0, "fusion_lat": 0.0, "lat": 38.862268, "bike_id": "22dfc2d6c47cfdd07db44698db166a9e", "fusion_lon": 0.0}, {"rental_uris": {"ios": "https://dc.lft.to/lastmile_qr_scan", "android": "https://dc.lft.to/lastmile_qr_scan"}, "type": "electric_scooter", "name": "15c0113bddf66f146ae6692a7de7d6bd", "is_reserved": 0, "lon": -76.94751133333334, "is_disabled": 0, "fusion_lat": 0.0, "lat": 38.89364033333333, "bike_id": "15c0113bddf66f146ae6692a7de7d6bd", "fusion_lon": 0.0}, {"rental_uris": {"ios": "https://dc.lft.to/lastmile_qr_scan", "android": "https://dc.lft.to/lastmile_qr_scan"}, "type": "electric_scooter", "name": "4828812126acd45cfde5557ae57d1a27", "is_reserved": 0, "lon": -77.0321295, "is_disabled": 0, "fusion_lat": 0.0, "lat": 38.908964833333336, "bike_id": "4828812126acd45cfde5557ae57d1a27", "fusion_lon": 0.0}, {"rental_uris": {"ios": "https://dc.lft.to/lastmile_qr_scan", "android": "https://dc.lft.to/lastmile_qr_scan"}, "type": "electric_scooter", "name": "463ba4e7f1f522a485fd143f12b941a8", "is_reserved": 0, "lon": -77.0463105, "is_disabled": 0, "fusion_lat": 0.0, "lat": 38.897512, "bike_id": "463ba4e7f1f522a485fd143f12b941a8", "fusion_lon": 0.0}, {"rental_uris": {"ios": "https://dc.lft.to/lastmile_qr_scan", "android": "https://dc.lft.to/lastmile_qr_scan"}, "type": "electric_scooter", "name": "0b647e2f17507a43d537aebe7fc08416", "is_reserved": 0, "lon": -77.000469, "is_disabled": 0, "fusion_lat": 0.0, "lat": 38.918981333333335, "bike_id": "0b647e2f17507a43d537aebe7fc08416", "fusion_lon": 0.0}, {"rental_uris": {"ios": "https://dc.lft.to/lastmile_qr_scan", "android": "https://dc.lft.to/lastmile_qr_scan"}, "type": "electric_scooter", "name": "53e00fda14ebd01475cfc3a602b29da1", "is_reserved": 0, "lon": -76.98082833333333, "is_disabled": 0, "fusion_lat": 0.0, "lat": 38.89442183333333, "bike_id": "53e00fda14ebd01475cfc3a602b29da1", "fusion_lon": 0.0}, {"rental_uris": {"ios": "https://dc.lft.to/lastmile_qr_scan", "android": "https://dc.lft.to/lastmile_qr_scan"}, "type": "electric_scooter", "name": "ae19d97282dc1995f4d61e19f3dc7b3a", "is_reserved": 0, "lon": -77.03656466666666, "is_disabled": 0, "fusion_lat": 0.0, "lat": 38.92805333333333, "bike_id": "ae19d97282dc1995f4d61e19f3dc7b3a", "fusion_lon": 0.0}, {"rental_uris": {"ios": "https://dc.lft.to/lastmile_qr_scan", "android": "https://dc.lft.to/lastmile_qr_scan"}, "type": "electric_scooter", "name": "353b79fa940a06477aa53f58ce4f7f43", "is_reserved": 0, "lon": -77.01430416666666, "is_disabled": 0, "fusion_lat": 0.0, "lat": 38.91805316666667, "bike_id": "353b79fa940a06477aa53f58ce4f7f43", "fusion_lon": 0.0}, {"rental_uris": {"ios": "https://dc.lft.to/lastmile_qr_scan", "android": "https://dc.lft.to/lastmile_qr_scan"}, "type": "electric_scooter", "name": "a8f7084fe7d48953852113788bbe9bc6", "is_reserved": 0, "lon": -76.98579166666667, "is_disabled": 0, "fusion_lat": 0.0, "lat": 38.854499, "bike_id": "a8f7084fe7d48953852113788bbe9bc6", "fusion_lon": 0.0}, {"rental_uris": {"ios": "https://dc.lft.to/lastmile_qr_scan", "android": "https://dc.lft.to/lastmile_qr_scan"}, "type": "electric_scooter", "name": "9abff3ef08225794ed9877515dce9cfe", "is_reserved": 0, "lon": -77.0248625, "is_disabled": 0, "fusion_lat": 0.0, "lat": 38.904106, "bike_id": "9abff3ef08225794ed9877515dce9cfe", "fusion_lon": 0.0}, {"rental_uris": {"ios": "https://dc.lft.to/lastmile_qr_scan", "android": "https://dc.lft.to/lastmile_qr_scan"}, "type": "electric_scooter", "name": "085666d498cedcde135121f0f71ed884", "is_reserved": 0, "lon": -77.03076916666667, "is_disabled": 0, "fusion_lat": 0.0, "lat": 38.938747166666666, "bike_id": "085666d498cedcde135121f0f71ed884", "fusion_lon": 0.0}, {"rental_uris": {"ios": "https://dc.lft.to/lastmile_qr_scan", "android": "https://dc.lft.to/lastmile_qr_scan"}, "type": "electric_scooter", "name": "1a878bd69903d67e9099adac19bfad27", "is_reserved": 0, "lon": -77.03831716666667, "is_disabled": 0, "fusion_lat": 0.0, "lat": 38.911157833333334, "bike_id": "1a878bd69903d67e9099adac19bfad27", "fusion_lon": 0.0}, {"rental_uris": {"ios": "https://dc.lft.to/lastmile_qr_scan", "android": "https://dc.lft.to/lastmile_qr_scan"}, "type": "electric_scooter", "name": "0bf21b86212eff7692c245a6227d6c94", "is_reserved": 0, "lon": -77.0351175, "is_disabled": 0, "fusion_lat": 0.0, "lat": 38.9214985, "bike_id": "0bf21b86212eff7692c245a6227d6c94", "fusion_lon": 0.0}, {"rental_uris": {"ios": "https://dc.lft.to/lastmile_qr_scan", "android": "https://dc.lft.to/lastmile_qr_scan"}, "type": "electric_scooter", "name": "e8b4d89e674374c145a7e04f05eba1ea", "is_reserved": 0, "lon": -77.0367275, "is_disabled": 0, "fusion_lat": 0.0, "lat": 38.93921, "bike_id": "e8b4d89e674374c145a7e04f05eba1ea", "fusion_lon": 0.0}, {"rental_uris": {"ios": "https://dc.lft.to/lastmile_qr_scan", "android": "https://dc.lft.to/lastmile_qr_scan"}, "type": "electric_scooter", "name": "d7bbafcdd8ed9c7a07b2f2e512399924", "is_reserved": 0, "lon": -77.04126766666667, "is_disabled": 0, "fusion_lat": 0.0, "lat": 38.931071333333335, "bike_id": "d7bbafcdd8ed9c7a07b2f2e512399924", "fusion_lon": 0.0}, {"rental_uris": {"ios": "https://dc.lft.to/lastmile_qr_scan", "android": "https://dc.lft.to/lastmile_qr_scan"}, "type": "electric_scooter", "name": "0ef8e81ae031aee07e3fff9dabe93de2", "is_reserved": 0, "lon": -77.04320116666666, "is_disabled": 0, "fusion_lat": 0.0, "lat": 38.922149166666664, "bike_id": "0ef8e81ae031aee07e3fff9dabe93de2", "fusion_lon": 0.0}, {"rental_uris": {"ios": "https://dc.lft.to/lastmile_qr_scan", "android": "https://dc.lft.to/lastmile_qr_scan"}, "type": "electric_scooter", "name": "7ba6e714587ffdb52162fdead8fe8a44", "is_reserved": 0, "lon": -77.0427445, "is_disabled": 0, "fusion_lat": 0.0, "lat": 38.907406, "bike_id": "7ba6e714587ffdb52162fdead8fe8a44", "fusion_lon": 0.0}, {"rental_uris": {"ios": "https://dc.lft.to/lastmile_qr_scan", "android": "https://dc.lft.to/lastmile_qr_scan"}, "type": "electric_scooter", "name": "15a64d66602c8303a43602039ea47eb0", "is_reserved": 0, "lon": -77.03636883333333, "is_disabled": 0, "fusion_lat": 0.0, "lat": 38.92438533333333, "bike_id": "15a64d66602c8303a43602039ea47eb0", "fusion_lon": 0.0}, {"rental_uris": {"ios": "https://dc.lft.to/lastmile_qr_scan", "android": "https://dc.lft.to/lastmile_qr_scan"}, "type": "electric_scooter", "name": "a76a11f45fc38f6b46fb983a07071be1", "is_reserved": 0, "lon": -77.039567, "is_disabled": 0, "fusion_lat": 0.0, "lat": 38.90804833333333, "bike_id": "a76a11f45fc38f6b46fb983a07071be1", "fusion_lon": 0.0}, {"rental_uris": {"ios": "https://dc.lft.to/lastmile_qr_scan", "android": "https://dc.lft.to/lastmile_qr_scan"}, "type": "electric_scooter", "name": "51cb8d18b777027afa5a358ed7979caf", "is_reserved": 0, "lon": -76.97412116666666, "is_disabled": 0, "fusion_lat": 0.0, "lat": 38.901397333333335, "bike_id": "51cb8d18b777027afa5a358ed7979caf", "fusion_lon": 0.0}, {"rental_uris": {"ios": "https://dc.lft.to/lastmile_qr_scan", "android": "https://dc.lft.to/lastmile_qr_scan"}, "type": "electric_scooter", "name": "46c2ae43234b783af844e656108f0d5e", "is_reserved": 0, "lon": -76.92991883333333, "is_disabled": 0, "fusion_lat": 0.0, "lat": 38.892948, "bike_id": "46c2ae43234b783af844e656108f0d5e", "fusion_lon": 0.0}, {"rental_uris": {"ios": "https://dc.lft.to/lastmile_qr_scan", "android": "https://dc.lft.to/lastmile_qr_scan"}, "type": "electric_scooter", "name": "91449b02da50ca5ba0288511664a57c7", "is_reserved": 0, "lon": -77.00567183333334, "is_disabled": 0, "fusion_lat": 0.0, "lat": 38.905588333333334, "bike_id": "91449b02da50ca5ba0288511664a57c7", "fusion_lon": 0.0}, {"rental_uris": {"ios": "https://dc.lft.to/lastmile_qr_scan", "android": "https://dc.lft.to/lastmile_qr_scan"}, "type": "electric_scooter", "name": "e0882ee4170fe6ec26898b8fd56618ab", "is_reserved": 0, "lon": -77.04505883333333, "is_disabled": 0, "fusion_lat": 0.0, "lat": 38.914226, "bike_id": "e0882ee4170fe6ec26898b8fd56618ab", "fusion_lon": 0.0}, {"rental_uris": {"ios": "https://dc.lft.to/lastmile_qr_scan", "android": "https://dc.lft.to/lastmile_qr_scan"},