{"data": {"bikes": [{"lon": -77.03862433333333, "bike_id": "424ce891fee9a5c10052e33d88eedaad", "lat": 38.912578, "fusion_lon": 0.0, "fusion_lat": 0.0, "type": "electric_scooter", "name": "424ce891fee9a5c10052e33d88eedaad", "is_disabled": 0, "rental_uris": {"ios": "https://dc.lft.to/lastmile_qr_scan", "android": "https://dc.lft.to/lastmile_qr_scan"}, "is_reserved": 0}, {"lon": -77.045437, "bike_id": "efec7a7aba9fd914b4838b37dc140b1e", "lat": 38.934013, "fusion_lon": 0.0, "fusion_lat": 0.0, "type": "electric_scooter", "name": "efec7a7aba9fd914b4838b37dc140b1e", "is_disabled": 0, "rental_uris": {"ios": "https://dc.lft.to/lastmile_qr_scan", "android": "https://dc.lft.to/lastmile_qr_scan"}, "is_reserved": 0}, {"lon": -77.023441, "bike_id": "ea8f0dfeee40b4a17fd3e5bebe6c748d", "lat": 38.9176805, "fusion_lon": 0.0, "fusion_lat": 0.0, "type": "electric_scooter", "name": "ea8f0dfeee40b4a17fd3e5bebe6c748d", "is_disabled": 0, "rental_uris": {"ios": "https://dc.lft.to/lastmile_qr_scan", "android": "https://dc.lft.to/lastmile_qr_scan"}, "is_reserved": 0}, {"lon": -77.03361783333334, "bike_id": "67a6c3e2ce6215f43b57a03b6cbb031f", "lat": 38.898422, "fusion_lon": 0.0, "fusion_lat": 0.0, "type": "electric_scooter", "name": "67a6c3e2ce6215f43b57a03b6cbb031f", "is_disabled": 0, "rental_uris": {"ios": "https://dc.lft.to/lastmile_qr_scan", "android": "https://dc.lft.to/lastmile_qr_scan"}, "is_reserved": 0}, {"lon": -77.03869016666667, "bike_id": "cecf4084ebd85a59caceb553aaaf6b82", "lat": 38.915488, "fusion_lon": 0.0, "fusion_lat": 0.0, "type": "electric_scooter", "name": "cecf4084ebd85a59caceb553aaaf6b82", "is_disabled": 0, "rental_uris": {"ios": "https://dc.lft.to/lastmile_qr_scan", "android": "https://dc.lft.to/lastmile_qr_scan"}, "is_reserved": 0}, {"lon": -77.0173295, "bike_id": "75e66507adb22fbef30e34adeac3f3f9", "lat": 38.90382683333333, "fusion_lon": 0.0, "fusion_lat": 0.0, "type": "electric_scooter", "name": "75e66507adb22fbef30e34adeac3f3f9", "is_disabled": 0, "rental_uris": {"ios": "https://dc.lft.to/lastmile_qr_scan", "android": "https://dc.lft.to/lastmile_qr_scan"}, "is_reserved": 0}, {"lon": -77.02284366666666, "bike_id": "5e5d2d7c6c2f676b82475007b39e09c1", "lat": 38.92685183333333, "fusion_lon": 0.0, "fusion_lat": 0.0, "type": "electric_scooter", "name": "5e5d2d7c6c2f676b82475007b39e09c1", "is_disabled": 0, "rental_uris": {"ios": "https://dc.lft.to/lastmile_qr_scan", "android": "https://dc.lft.to/lastmile_qr_scan"}, "is_reserved": 0}, {"lon": -76.96218783333333, "bike_id": "7413fa6766cfb2a5f2ecbcc8b9e11027", "lat": 38.87786633333333, "fusion_lon": 0.0, "fusion_lat": 0.0, "type": "electric_scooter", "name": "7413fa6766cfb2a5f2ecbcc8b9e11027", "is_disabled": 0, "rental_uris": {"ios": "https://dc.lft.to/lastmile_qr_scan", "android": "https://dc.lft.to/lastmile_qr_scan"}, "is_reserved": 0}, {"lon": -77.0731855, "bike_id": "070413332b9b755bbdd0c321e4e26ed2", "lat": 38.913971, "fusion_lon": 0.0, "fusion_lat": 0.0, "type": "electric_scooter", "name": "070413332b9b755bbdd0c321e4e26ed2", "is_disabled": 0, "rental_uris": {"ios": "https://dc.lft.to/lastmile_qr_scan", "android": "https://dc.lft.to/lastmile_qr_scan"}, "is_reserved": 0}, {"lon": -77.03319, "bike_id": "dfc1e5bdf1fdf8b58965eba832dd3f2a", "lat": 38.9389485, "fusion_lon": 0.0, "fusion_lat": 0.0, "type": "electric_scooter", "name": "dfc1e5bdf1fdf8b58965eba832dd3f2a", "is_disabled": 0, "rental_uris": {"ios": "https://dc.lft.to/lastmile_qr_scan", "android": "https://dc.lft.to/lastmile_qr_scan"}, "is_reserved": 0}, {"lon": -77.04237516666667, "bike_id": "dd9dff9940fec044993c6b90deb446eb", "lat": 38.924308833333335, "fusion_lon": 0.0, "fusion_lat": 0.0, "type": "electric_scooter", "name": "dd9dff9940fec044993c6b90deb446eb", "is_disabled": 0, "rental_uris": {"ios": "https://dc.lft.to/lastmile_qr_scan", "android": "https://dc.lft.to/lastmile_qr_scan"}, "is_reserved": 0}, {"lon": -77.03364066666667, "bike_id": "ba2cc5ee6e993f92f979e639ea0006a6", "lat": 38.9352595, "fusion_lon": 0.0, "fusion_lat": 0.0, "type": "electric_scooter", "name": "ba2cc5ee6e993f92f979e639ea0006a6", "is_disabled": 0, "rental_uris": {"ios": "https://dc.lft.to/lastmile_qr_scan", "android": "https://dc.lft.to/lastmile_qr_scan"}, "is_reserved": 0}, {"lon": -77.02087566666667, "bike_id": "5451cc5bfc816342f91eb9efa6aadd62", "lat": 38.9270585, "fusion_lon": 0.0, "fusion_lat": 0.0, "type": "electric_scooter", "name": "5451cc5bfc816342f91eb9efa6aadd62", "is_disabled": 0, "rental_uris": {"ios": "https://dc.lft.to/lastmile_qr_scan", "android": "https://dc.lft.to/lastmile_qr_scan"}, "is_reserved": 0}, {"lon": -77.01610016666666, "bike_id": "6cb8afd533a4f7a383c471db45471d64", "lat": 38.919464833333336, "fusion_lon": 0.0, "fusion_lat": 0.0, "type": "electric_scooter", "name": "6cb8afd533a4f7a383c471db45471d64", "is_disabled": 0, "rental_uris": {"ios": "https://dc.lft.to/lastmile_qr_scan", "android": "https://dc.lft.to/lastmile_qr_scan"}, "is_reserved": 0}, {"lon": -77.03636716666666, "bike_id": "f09d45f049c3dbba367033429492b080", "lat": 38.93178433333333, "fusion_lon": 0.0, "fusion_lat": 0.0, "type": "electric_scooter", "name": "f09d45f049c3dbba367033429492b080", "is_disabled": 0, "rental_uris": {"ios": "https://dc.lft.to/lastmile_qr_scan", "android": "https://dc.lft.to/lastmile_qr_scan"}, "is_reserved": 0}, {"lon": -77.04722533333333, "bike_id": "aa6a83e13ac835e0f6a1b0751b5b3fe7", "lat": 38.911204, "fusion_lon": 0.0, "fusion_lat": 0.0, "type": "electric_scooter", "name": "aa6a83e13ac835e0f6a1b0751b5b3fe7", "is_disabled": 0, "rental_uris": {"ios": "https://dc.lft.to/lastmile_qr_scan", "android": "https://dc.lft.to/lastmile_qr_scan"}, "is_reserved": 0}, {"lon": -77.0046635, "bike_id": "68916efd3fbb7e5c10f9d1079a110eb6", "lat": 38.910475166666664, "fusion_lon": 0.0, "fusion_lat": 0.0, "type": "electric_scooter", "name": "68916efd3fbb7e5c10f9d1079a110eb6", "is_disabled": 0, "rental_uris": {"ios": "https://dc.lft.to/lastmile_qr_scan", "android": "https://dc.lft.to/lastmile_qr_scan"}, "is_reserved": 0}, {"lon": -77.0034765, "bike_id": "04740c7142ccf09f29b6f920e4b9eca0", "lat": 38.90270533333333, "fusion_lon": 0.0, "fusion_lat": 0.0, "type": "electric_scooter", "name": "04740c7142ccf09f29b6f920e4b9eca0", "is_disabled": 0, "rental_uris": {"ios": "https://dc.lft.to/lastmile_qr_scan", "android": "https://dc.lft.to/lastmile_qr_scan"}, "is_reserved": 0}, {"lon": -77.00092866666667, "bike_id": "0850a21d95fedb80df4286b0e482f960", "lat": 38.90757166666667, "fusion_lon": 0.0, "fusion_lat": 0.0, "type": "electric_scooter", "name": "0850a21d95fedb80df4286b0e482f960", "is_disabled": 0, "rental_uris": {"ios": "https://dc.lft.to/lastmile_qr_scan", "android": "https://dc.lft.to/lastmile_qr_scan"}, "is_reserved": 0}, {"lon": -77.02367233333334, "bike_id": "a3edfe3c0e661ae40c567f7994af3c32", "lat": 38.920584833333336, "fusion_lon": 0.0, "fusion_lat": 0.0, "type": "electric_scooter", "name": "a3edfe3c0e661ae40c567f7994af3c32", "is_disabled": 0, "rental_uris": {"ios": "https://dc.lft.to/lastmile_qr_scan", "android": "https://dc.lft.to/lastmile_qr_scan"}, "is_reserved": 0}, {"lon": -76.93359333333333, "bike_id": "f77dbf8d5a5b0826f5657e5f1aae9822", "lat": 38.887972, "fusion_lon": 0.0, "fusion_lat": 0.0, "type": "electric_scooter", "name": "f77dbf8d5a5b0826f5657e5f1aae9822", "is_disabled": 0, "rental_uris": {"ios": "https://dc.lft.to/lastmile_qr_scan", "android": "https://dc.lft.to/lastmile_qr_scan"}, "is_reserved": 0}, {"lon": -76.94877916666667, "bike_id": "2b1bd1e8bd8bdea30e7bc3675e3756e3", "lat": 38.89554033333334, "fusion_lon": 0.0, "fusion_lat": 0.0, "type": "electric_scooter", "name": "2b1bd1e8bd8bdea30e7bc3675e3756e3", "is_disabled": 0, "rental_uris": {"ios": "https://dc.lft.to/lastmile_qr_scan", "android": "https://dc.lft.to/lastmile_qr_scan"}, "is_reserved": 0}, {"lon": -77.0507715, "bike_id": "8f4e7dc8056234c43779b9c4346943b9", "lat": 38.8967055, "fusion_lon": 0.0, "fusion_lat": 0.0, "type": "electric_scooter", "name": "8f4e7dc8056234c43779b9c4346943b9", "is_disabled": 0, "rental_uris": {"ios": "https://dc.lft.to/lastmile_qr_scan", "android": "https://dc.lft.to/lastmile_qr_scan"}, "is_reserved": 0}, {"lon": -77.03342266666667, "bike_id": "a7fa92e9abc7807583b5351e5d7d5f75", "lat": 38.902835333333336, "fusion_lon": 0.0, "fusion_lat": 0.0, "type": "electric_scooter", "name": "a7fa92e9abc7807583b5351e5d7d5f75", "is_disabled": 0, "rental_uris": {"ios": "https://dc.lft.to/lastmile_qr_scan", "android": "https://dc.lft.to/lastmile_qr_scan"}, "is_reserved": 0}, {"lon": -77.048873, "bike_id": "3ec3faad830b362cd5fe37d39549fcf7", "lat": 38.90368016666667, "fusion_lon": 0.0, "fusion_lat": 0.0, "type": "electric_scooter", "name": "3ec3faad830b362cd5fe37d39549fcf7", "is_disabled": 0, "rental_uris": {"ios": "https://dc.lft.to/lastmile_qr_scan", "android": "https://dc.lft.to/lastmile_qr_scan"}, "is_reserved": 0}, {"lon": -77.019083, "bike_id": "8f0846c9f24d7cbb4a94fb76eb65ec91", "lat": 38.886184, "fusion_lon": 0.0, "fusion_lat": 0.0, "type": "electric_scooter", "name": "8f0846c9f24d7cbb4a94fb76eb65ec91", "is_disabled": 0, "rental_uris": {"ios": "https://dc.lft.to/lastmile_qr_scan", "android": "https://dc.lft.to/lastmile_qr_scan"}, "is_reserved": 0}, {"lon": -77.0397325, "bike_id": "168448013a7dfb7a51bac0c18c07d371", "lat": 38.923207833333336, "fusion_lon": 0.0, "fusion_lat": 0.0, "type": "electric_scooter", "name": "168448013a7dfb7a51bac0c18c07d371", "is_disabled": 0, "rental_uris": {"ios": "https://dc.lft.to/lastmile_qr_scan", "android": "https://dc.lft.to/lastmile_qr_scan"}, "is_reserved": 0}, {"lon": -77.02493916666667, "bike_id": "7e21501db2ea986d6d6edcb5086520c6", "lat": 38.89725216666667, "fusion_lon": 0.0, "fusion_lat": 0.0, "type": "electric_scooter", "name": "7e21501db2ea986d6d6edcb5086520c6", "is_disabled": 0, "rental_uris": {"ios": "https://dc.lft.to/lastmile_qr_scan", "android": "https://dc.lft.to/lastmile_qr_scan"}, "is_reserved": 0}, {"lon": -77.05348433333333, "bike_id": "29379e5e866d89c34a315dbd92895790", "lat": 38.92703483333333, "fusion_lon": 0.0, "fusion_lat": 0.0, "type": "electric_scooter", "name": "29379e5e866d89c34a315dbd92895790", "is_disabled": 0, "rental_uris": {"ios": "https://dc.lft.to/lastmile_qr_scan", "android": "https://dc.lft.to/lastmile_qr_scan"}, "is_reserved": 0}, {"lon": -77.028128, "bike_id": "76f50bdf6f4c300cdfec9d7a9dbae766", "lat": 38.92477, "fusion_lon": 0.0, "fusion_lat": 0.0, "type": "electric_scooter", "name": "76f50bdf6f4c300cdfec9d7a9dbae766", "is_disabled": 0, "rental_uris": {"ios": "https://dc.lft.to/lastmile_qr_scan", "android": "https://dc.lft.to/lastmile_qr_scan"}, "is_reserved": 0}, {"lon": -77.00046266666666, "bike_id": "fd5566fc40f85c2fb87855c1a8613c1a", "lat": 38.900149666666664, "fusion_lon": 0.0, "fusion_lat": 0.0, "type": "electric_scooter", "name": "fd5566fc40f85c2fb87855c1a8613c1a", "is_disabled": 0, "rental_uris": {"ios": "https://dc.lft.to/lastmile_qr_scan", "android": "https://dc.lft.to/lastmile_qr_scan"}, "is_reserved": 0}, {"lon": -77.01885833333333, "bike_id": "f75af011a9176b2ead06091c84a8c43a", "lat": 38.9149195, "fusion_lon": 0.0, "fusion_lat": 0.0, "type": "electric_scooter", "name": "f75af011a9176b2ead06091c84a8c43a", "is_disabled": 0, "rental_uris": {"ios": "https://dc.lft.to/lastmile_qr_scan", "android": "https://dc.lft.to/lastmile_qr_scan"}, "is_reserved": 0}, {"lon": -77.02989283333334, "bike_id": "8332ff54bbdb1c0fd9ac8ff35ef25766", "lat": 38.97438566666667, "fusion_lon": 0.0, "fusion_lat": 0.0, "type": "electric_bike", "name": "8332ff54bbdb1c0fd9ac8ff35ef25766", "is_disabled": 0, "rental_uris": {"ios": "https://dc.lft.to/lastmile_qr_scan", "android": "https://dc.lft.to/lastmile_qr_scan"}, "is_reserved": 0}, {"lon": -76.99769666666667, "bike_id": "ebe61c3ee47e5338d65172526871340d", "lat": 38.92450816666667, "fusion_lon": 0.0, "fusion_lat": 0.0, "type": "electric_scooter", "name": "ebe61c3ee47e5338d65172526871340d", "is_disabled": 0, "rental_uris": {"ios": "https://dc.lft.to/lastmile_qr_scan", "android": "https://dc.lft.to/lastmile_qr_scan"}, "is_reserved": 0}, {"lon": -77.04867566666667, "bike_id": "9e7ccc3817fe5a79885330f10174490a", "lat": 38.8922475, "fusion_lon": 0.0, "fusion_lat": 0.0, "type": "electric_scooter", "name": "9e7ccc3817fe5a79885330f10174490a", "is_disabled": 0, "rental_uris": {"ios": "https://dc.lft.to/lastmile_qr_scan", "android": "https://dc.lft.to/lastmile_qr_scan"}, "is_reserved": 0}, {"lon": -77.02307033333334, "bike_id": "b34881f9078ca56ca25724a4282426ea", "lat": 38.90960616666667, "fusion_lon": 0.0, "fusion_lat": 0.0, "type": "electric_scooter", "name": "b34881f9078ca56ca25724a4282426ea", "is_disabled": 0, "rental_uris": {"ios": "https://dc.lft.to/lastmile_qr_scan", "android": "https://dc.lft.to/lastmile_qr_scan"}, "is_reserved": 0}, {"lon": -77.05129883333333, "bike_id": "cee8d70a770e7a9b1e62b83fe8964681", "lat": 38.9236295, "fusion_lon": 0.0, "fusion_lat": 0.0, "type": "electric_scooter", "name": "cee8d70a770e7a9b1e62b83fe8964681", "is_disabled": 0, "rental_uris": {"ios": "https://dc.lft.to/lastmile_qr_scan", "android": "https://dc.lft.to/lastmile_qr_scan"}, "is_reserved": 0}, {"lon": -77.00339116666666, "bike_id": "3dfe1abb5b07572b7ee605fee22b5cf6", "lat": 38.895197333333336, "fusion_lon": 0.0, "fusion_lat": 0.0, "type": "electric_scooter", "name": "3dfe1abb5b07572b7ee605fee22b5cf6", "is_disabled": 0, "rental_uris": {"ios": "https://dc.lft.to/lastmile_qr_scan", "android": "https://dc.lft.to/lastmile_qr_scan"}, "is_reserved": 0}, {"lon": -77.05868683333334, "bike_id": "8ed17beb168622ec0b3b84d018df7126", "lat": 38.936124, "fusion_lon": 0.0, "fusion_lat": 0.0, "type": "electric_scooter", "name": "8ed17beb168622ec0b3b84d018df7126", "is_disabled": 0, "rental_uris": {"ios": "https://dc.lft.to/lastmile_qr_scan", "android": "https://dc.lft.to/lastmile_qr_scan"}, "is_reserved": 0}, {"lon": -77.03074616666666, "bike_id": "5c9cef76a1185266940e496fc9745313", "lat": 38.885898, "fusion_lon": 0.0, "fusion_lat": 0.0, "type": "electric_scooter", "name": "5c9cef76a1185266940e496fc9745313", "is_disabled": 0, "rental_uris": {"ios": "https://dc.lft.to/lastmile_qr_scan", "android": "https://dc.lft.to/lastmile_qr_scan"}, "is_reserved": 0}, {"lon": -77.0500645, "bike_id": "50e40101e77f180ce41e889792cdcdea", "lat": 38.89791566666667, "fusion_lon": 0.0, "fusion_lat": 0.0, "type": "electric_scooter", "name": "50e40101e77f180ce41e889792cdcdea", "is_disabled": 0, "rental_uris": {"ios": "https://dc.lft.to/lastmile_qr_scan", "android": "https://dc.lft.to/lastmile_qr_scan"}, "is_reserved": 0}, {"lon": -77.04741133333333, "bike_id": "249185a82b4c679fb4ff8b50c01953ff", "lat": 38.909684666666664, "fusion_lon": 0.0, "fusion_lat": 0.0, "type": "electric_scooter", "name": "249185a82b4c679fb4ff8b50c01953ff", "is_disabled": 0, "rental_uris": {"ios": "https://dc.lft.to/lastmile_qr_scan", "android": "https://dc.lft.to/lastmile_qr_scan"}, "is_reserved": 0}, {"lon": -77.03351616666667, "bike_id": "793f29addd04c2d82068973454659539", "lat": 38.886992166666666, "fusion_lon": 0.0, "fusion_lat": 0.0, "type": "electric_scooter", "name": "793f29addd04c2d82068973454659539", "is_disabled": 0, "rental_uris": {"ios": "https://dc.lft.to/lastmile_qr_scan", "android": "https://dc.lft.to/lastmile_qr_scan"}, "is_reserved": 0}, {"lon": -76.98366583333333, "bike_id": "03c0c6c43fefe6e5413806a9f4d75b10", "lat": 38.90883816666667, "fusion_lon": 0.0, "fusion_lat": 0.0, "type": "electric_scooter", "name": "03c0c6c43fefe6e5413806a9f4d75b10", "is_disabled": 0, "rental_uris": {"ios": "https://dc.lft.to/lastmile_qr_scan", "android": "https://dc.lft.to/lastmile_qr_scan"}, "is_reserved": 0}, {"lon": -77.074568, "bike_id": "c2441551614a5d1436fe984dacd31abc", "lat": 38.9450495, "fusion_lon": 0.0, "fusion_lat": 0.0, "type": "electric_scooter", "name": "c2441551614a5d1436fe984dacd31abc", "is_disabled": 0, "rental_uris": {"ios": "https://dc.lft.to/lastmile_qr_scan", "android": "https://dc.lft.to/lastmile_qr_scan"}, "is_reserved": 0}, {"lon": -76.976238, "bike_id": "465151562b0aee2705cf83cdfe4d1521", "lat": 38.9057035, "fusion_lon": 0.0, "fusion_lat": 0.0, "type": "electric_scooter", "name": "465151562b0aee2705cf83cdfe4d1521", "is_disabled": 0, "rental_uris": {"ios": "https://dc.lft.to/lastmile_qr_scan", "android": "https://dc.lft.to/lastmile_qr_scan"}, "is_reserved": 0}, {"lon": -77.03854833333334, "bike_id": "247bcd022030c574d7dd74ad87505774", "lat": 38.9011755, "fusion_lon": 0.0, "fusion_lat": 0.0, "type": "electric_scooter", "name": "247bcd022030c574d7dd74ad87505774", "is_disabled": 0, "rental_uris": {"ios": "https://dc.lft.to/lastmile_qr_scan", "android": "https://dc.lft.to/lastmile_qr_scan"}, "is_reserved": 0}, {"lon": -77.12529366666666, "bike_id": "5c4b31df0859a620ee44213cb729f9e1", "lat": 39.056355, "fusion_lon": 0.0, "fusion_lat": 0.0, "type": "electric_bike", "name": "5c4b31df0859a620ee44213cb729f9e1", "is_disabled": 0, "rental_uris": {"ios": "https://dc.lft.to/lastmile_qr_scan", "android": "https://dc.lft.to/lastmile_qr_scan"}, "is_reserved": 0}, {"lon": -77.0448635, "bike_id": "a3bc9f044ffb68b29deb8c77b88152af", "lat": 38.892671, "fusion_lon": 0.0, "fusion_lat": 0.0, "type": "electric_scooter", "name": "a3bc9f044ffb68b29deb8c77b88152af", "is_disabled": 0, "rental_uris": {"ios": "https://dc.lft.to/lastmile_qr_scan", "android": "https://dc.lft.to/lastmile_qr_scan"}, "is_reserved": 0}, {"lon": -77.036227, "bike_id": "b062d6b73803a4ef7171ad859da39607", "lat": 38.931624666666664, "fusion_lon": 0.0, "fusion_lat": 0.0, "type": "electric_scooter", "name": "b062d6b73803a4ef7171ad859da39607", "is_disabled": 0, "rental_uris": {"ios": "https://dc.lft.to/lastmile_qr_scan", "android": "https://dc.lft.to/lastmile_qr_scan"}, "is_reserved": 0}, {"lon": -77.059083, "bike_id": "bc9f0eb5db4dc582e2ee01a23c46037b", "lat": 38.90358916666667, "fusion_lon": 0.0, "fusion_lat": 0.0, "type": "electric_scooter", "name": "bc9f0eb5db4dc582e2ee01a23c46037b", "is_disabled": 0, "rental_uris": {"ios": "https://dc.lft.to/lastmile_qr_scan", "android": "https://dc.lft.to/lastmile_qr_scan"}, "is_reserved": 0}, {"lon": -77.075759, "bike_id": "70a7fb7d960dc97240e17d9042ff8c3b", "lat": 38.89492933333333, "fusion_lon": 0.0, "fusion_lat": 0.0, "type": "electric_scooter", "name": "70a7fb7d960dc97240e17d9042ff8c3b", "is_disabled": 0, "rental_uris": {"ios": "https://dc.lft.to/lastmile_qr_scan", "android": "https://dc.lft.to/lastmile_qr_scan"}, "is_reserved": 0}, {"lon": -77.0257285, "bike_id": "19fcf76817e416dd74949b10522a8dba", "lat": 38.9246, "fusion_lon": 0.0, "fusion_lat": 0.0, "type": "electric_scooter", "name": "19fcf76817e416dd74949b10522a8dba", "is_disabled": 0, "rental_uris": {"ios": "https://dc.lft.to/lastmile_qr_scan", "android": "https://dc.lft.to/lastmile_qr_scan"}, "is_reserved": 0}, {"lon": -77.001572, "bike_id": "1a74221c7111760c5cf8bb8aa8110842", "lat": 38.875258333333335, "fusion_lon": 0.0, "fusion_lat": 0.0, "type": "electric_scooter", "name": "1a74221c7111760c5cf8bb8aa8110842", "is_disabled": 0, "rental_uris": {"ios": "https://dc.lft.to/lastmile_qr_scan", "android": "https://dc.lft.to/lastmile_qr_scan"}, "is_reserved": 0}, {"lon": -77.02400966666667, "bike_id": "3776353ff4535429d5bec2fbdc222e90", "lat": 38.91525033333333, "fusion_lon": 0.0, "fusion_lat": 0.0, "type": "electric_scooter", "name": "3776353ff4535429d5bec2fbdc222e90", "is_disabled": 0, "rental_uris": {"ios": "https://dc.lft.to/lastmile_qr_scan", "android": "https://dc.lft.to/lastmile_qr_scan"}, "is_reserved": 0}, {"lon": -77.03476166666667, "bike_id": "f448050e82f0d6bcbde3e0794a381636", "lat": 38.9287215, "fusion_lon": 0.0, "fusion_lat": 0.0, "type": "electric_scooter", "name": "f448050e82f0d6bcbde3e0794a381636", "is_disabled": 0, "rental_uris": {"ios": "https://dc.lft.to/lastmile_qr_scan", "android": "https://dc.lft.to/lastmile_qr_scan"}, "is_reserved": 0}, {"lon": -76.93178083333333, "bike_id": "ebc8620cdfb4878e77f582e17354ed6f", "lat": 38.89880866666667, "fusion_lon": 0.0, "fusion_lat": 0.0, "type": "electric_scooter", "name": "ebc8620cdfb4878e77f582e17354ed6f", "is_disabled": 0, "rental_uris": {"ios": "https://dc.lft.to/lastmile_qr_scan", "android": "https://dc.lft.to/lastmile_qr_scan"}, "is_reserved": 0}, {"lon": -76.9495705, "bike_id": "0e30185f3ac7d930cb528c1543a378f0", "lat": 38.894400833333336, "fusion_lon": 0.0, "fusion_lat": 0.0, "type": "electric_scooter", "name": "0e30185f3ac7d930cb528c1543a378f0", "is_disabled": 0, "rental_uris": {"ios": "https://dc.lft.to/lastmile_qr_scan", "android": "https://dc.lft.to/lastmile_qr_scan"}, "is_reserved": 0}, {"lon": -76.99473883333333, "bike_id": "a2b31d0e1aff0d1313e46c9e1d259a75", "lat": 38.86223316666667, "fusion_lon": 0.0, "fusion_lat": 0.0, "type": "electric_scooter", "name": "a2b31d0e1aff0d1313e46c9e1d259a75", "is_disabled": 0, "rental_uris": {"ios": "https://dc.lft.to/lastmile_qr_scan", "android": "https://dc.lft.to/lastmile_qr_scan"}, "is_reserved": 0}, {"lon": -77.04710416666667, "bike_id": "437039071e188e4578412c4b29ec404f", "lat": 38.92228733333334, "fusion_lon": 0.0, "fusion_lat": 0.0, "type": "electric_scooter", "name": "437039071e188e4578412c4b29ec404f", "is_disabled": 0, "rental_uris": {"ios": "https://dc.lft.to/lastmile_qr_scan", "android": "https://dc.lft.to/lastmile_qr_scan"}, "is_reserved": 0}, {"lon": -77.0332245, "bike_id": "5b07998ebf300c0f8de69323532e642e", "lat": 38.94720233333334, "fusion_lon": 0.0, "fusion_lat": 0.0, "type": "electric_scooter", "name": "5b07998ebf300c0f8de69323532e642e", "is_disabled": 0, "rental_uris": {"ios": "https://dc.lft.to/lastmile_qr_scan", "android": "https://dc.lft.to/lastmile_qr_scan"}, "is_reserved": 0}, {"lon": -77.0114065, "bike_id": "06de44c7f3f2362c401d6225132e9b6e", "lat": 38.912552166666664, "fusion_lon": 0.0, "fusion_lat": 0.0, "type": "electric_scooter", "name": "06de44c7f3f2362c401d6225132e9b6e", "is_disabled": 0, "rental_uris": {"ios": "https://dc.lft.to/lastmile_qr_scan", "android": "https://dc.lft.to/lastmile_qr_scan"}, "is_reserved": 0}, {"lon": -77.00514533333333, "bike_id": "ec266f91781671dfe92e263204af0873", "lat": 38.879165666666665, "fusion_lon": 0.0, "fusion_lat": 0.0, "type": "electric_scooter", "name": "ec266f91781671dfe92e263204af0873", "is_disabled": 0, "rental_uris": {"ios": "https://dc.lft.to/lastmile_qr_scan", "android": "https://dc.lft.to/lastmile_qr_scan"}, "is_reserved": 0}, {"lon": -77.04834383333333, "bike_id": "d245fe3fa5736ccd55d2b3a64facb482", "lat": 38.91889183333333, "fusion_lon": 0.0, "fusion_lat": 0.0, "type": "electric_scooter", "name": "d245fe3fa5736ccd55d2b3a64facb482", "is_disabled": 0, "rental_uris": {"ios": "https://dc.lft.to/lastmile_qr_scan", "android": "https://dc.lft.to/lastmile_qr_scan"}, "is_reserved": 0}, {"lon": -76.98088566666667, "bike_id": "9a055f0f7f938170850e6cfa442b8755", "lat": 38.88134183333333, "fusion_lon": 0.0, "fusion_lat": 0.0, "type": "electric_bike", "name": "9a055f0f7f938170850e6cfa442b8755", "is_disabled": 0, "rental_uris": {"ios": "https://dc.lft.to/lastmile_qr_scan", "android": "https://dc.lft.to/lastmile_qr_scan"}, "is_reserved": 0}, {"lon": -76.933711, "bike_id": "0da606639bfa439324fa9ac144f38dc4", "lat": 38.89914433333333, "fusion_lon": 0.0, "fusion_lat": 0.0, "type": "electric_scooter", "name": "0da606639bfa439324fa9ac144f38dc4", "is_disabled": 0, "rental_uris": {"ios": "https://dc.lft.to/lastmile_qr_scan", "android": "https://dc.lft.to/lastmile_qr_scan"}, "is_reserved": 0}, {"lon": -77.041941, "bike_id": "9b4014cda49e04a39142cc3862280f12", "lat": 38.926235, "fusion_lon": 0.0, "fusion_lat": 0.0, "type": "electric_scooter", "name": "9b4014cda49e04a39142cc3862280f12", "is_disabled": 0, "rental_uris": {"ios": "https://dc.lft.to/lastmile_qr_scan", "android": "https://dc.lft.to/lastmile_qr_scan"}, "is_reserved": 0}, {"lon": -77.04122016666666, "bike_id": "8c803178767ae744b8292af443acf3ec", "lat": 38.9253245, "fusion_lon": 0.0, "fusion_lat": 0.0, "type": "electric_scooter", "name": "8c803178767ae744b8292af443acf3ec", "is_disabled": 0, "rental_uris": {"ios": "https://dc.lft.to/lastmile_qr_scan", "android": "https://dc.lft.to/lastmile_qr_scan"}, "is_reserved": 0}, {"lon": -76.95192883333333, "bike_id": "6ced3d7bddeee14c2fc5d7b25c74bc01", "lat": 38.8999945, "fusion_lon": 0.0, "fusion_lat": 0.0, "type": "electric_scooter", "name": "6ced3d7bddeee14c2fc5d7b25c74bc01", "is_disabled": 0, "rental_uris": {"ios": "https://dc.lft.to/lastmile_qr_scan", "android": "https://dc.lft.to/lastmile_qr_scan"}, "is_reserved": 0}, {"lon": -77.04107783333333, "bike_id": "e3e3755c7ce7734413b5f86cf53ddfac", "lat": 38.91854816666667, "fusion_lon": 0.0, "fusion_lat": 0.0, "type": "electric_scooter", "name": "e3e3755c7ce7734413b5f86cf53ddfac", "is_disabled": 0, "rental_uris": {"ios": "https://dc.lft.to/lastmile_qr_scan", "android": "https://dc.lft.to/lastmile_qr_scan"}, "is_reserved": 0}, {"lon": -77.02382766666666, "bike_id": "7968bd6fad3cb2bd505d578ad74e101c", "lat": 38.91826733333333, "fusion_lon": 0.0, "fusion_lat": 0.0, "type": "electric_scooter", "name": "7968bd6fad3cb2bd505d578ad74e101c", "is_disabled": 0, "rental_uris": {"ios": "https://dc.lft.to/lastmile_qr_scan", "android": "https://dc.lft.to/lastmile_qr_scan"}, "is_reserved": 0}, {"lon": -77.02961233333333, "bike_id": "a5c7d5616587dda5cabd1131436c3384", "lat": 38.92569666666667, "fusion_lon": 0.0, "fusion_lat": 0.0, "type": "electric_scooter", "name": "a5c7d5616587dda5cabd1131436c3384", "is_disabled": 0, "rental_uris": {"ios": "https://dc.lft.to/lastmile_qr_scan", "android": "https://dc.lft.to/lastmile_qr_scan"}, "is_reserved": 0}, {"lon": -76.998356, "bike_id": "3141c8aec4a50ae1cfb2d00a55d8ef9b", "lat": 38.90237166666667, "fusion_lon": 0.0, "fusion_lat": 0.0, "type": "electric_scooter", "name": "3141c8aec4a50ae1cfb2d00a55d8ef9b", "is_disabled": 0, "rental_uris": {"ios": "https://dc.lft.to/lastmile_qr_scan", "android": "https://dc.lft.to/lastmile_qr_scan"}, "is_reserved": 0}, {"lon": -77.005507, "bike_id": "c92bf294dafdbbe0e0b794b586d9f359", "lat": 38.87854983333333, "fusion_lon": 0.0, "fusion_lat": 0.0, "type": "electric_scooter", "name": "c92bf294dafdbbe0e0b794b586d9f359", "is_disabled": 0, "rental_uris": {"ios": "https://dc.lft.to/lastmile_qr_scan", "android": "https://dc.lft.to/lastmile_qr_scan"}, "is_reserved": 0}, {"lon": -77.00076433333334, "bike_id": "5e06fa7e718ee62d4be0d8620838d1b3", "lat": 38.907125666666666, "fusion_lon": 0.0, "fusion_lat": 0.0, "type": "electric_scooter", "name": "5e06fa7e718ee62d4be0d8620838d1b3", "is_disabled": 0, "rental_uris": {"ios": "https://dc.lft.to/lastmile_qr_scan", "android": "https://dc.lft.to/lastmile_qr_scan"}, "is_reserved": 0}, {"lon": -77.03828833333333, "bike_id": "6726bb9c382760f2f07acffb0d2aa280", "lat": 38.90797333333333, "fusion_lon": 0.0, "fusion_lat": 0.0, "type": "electric_scooter", "name": "6726bb9c382760f2f07acffb0d2aa280", "is_disabled": 0, "rental_uris": {"ios": "https://dc.lft.to/lastmile_qr_scan", "android": "https://dc.lft.to/lastmile_qr_scan"}, "is_reserved": 0}, {"lon": -76.98670216666666, "bike_id": "0dad362ddeac64751c080ab81c450daf", "lat": 38.9025175, "fusion_lon": 0.0, "fusion_lat": 0.0, "type": "electric_scooter", "name": "0dad362ddeac64751c080ab81c450daf", "is_disabled": 0, "rental_uris": {"ios": "https://dc.lft.to/lastmile_qr_scan", "android": "https://dc.lft.to/lastmile_qr_scan"}, "is_reserved": 0}, {"lon": -77.038426, "bike_id": "cbce98830e5ca8a134135c78085b27bd", "lat": 38.90687583333333, "fusion_lon": 0.0, "fusion_lat": 0.0, "type": "electric_scooter", "name": "cbce98830e5ca8a134135c78085b27bd", "is_disabled": 0, "rental_uris": {"ios": "https://dc.lft.to/lastmile_qr_scan", "android": "https://dc.lft.to/lastmile_qr_scan"}, "is_reserved": 0}, {"lon": -77.0471155, "bike_id": "d91e6b62274f649ef8834660403d1af4", "lat": 38.922345, "fusion_lon": 0.0, "fusion_lat": 0.0, "type": "electric_scooter", "name": "d91e6b62274f649ef8834660403d1af4", "is_disabled": 0, "rental_uris": {"ios": "https://dc.lft.to/lastmile_qr_scan", "android": "https://dc.lft.to/lastmile_qr_scan"}, "is_reserved": 0}, {"lon": -77.02809783333333, "bike_id": "97ffb1d7caebd1044a84a185d8ac2ea9", "lat": 38.92017, "fusion_lon": 0.0, "fusion_lat": 0.0, "type": "electric_scooter", "name": "97ffb1d7caebd1044a84a185d8ac2ea9", "is_disabled": 0, "rental_uris": {"ios": "https://dc.lft.to/lastmile_qr_scan", "android": "https://dc.lft.to/lastmile_qr_scan"}, "is_reserved": 0}, {"lon": -77.0426755, "bike_id": "e8f025b44c2412cedf00048ce7afdea0", "lat": 38.917835, "fusion_lon": 0.0, "fusion_lat": 0.0, "type": "electric_scooter", "name": "e8f025b44c2412cedf00048ce7afdea0", "is_disabled": 0, "rental_uris": {"ios": "https://dc.lft.to/lastmile_qr_scan", "android": "https://dc.lft.to/lastmile_qr_scan"}, "is_reserved": 0}, {"lon": -77.00070533333333, "bike_id": "6fe6363787c5aa9ee047fec02912ff96", "lat": 38.924305, "fusion_lon": 0.0, "fusion_lat": 0.0, "type": "electric_scooter", "name": "6fe6363787c5aa9ee047fec02912ff96", "is_disabled": 0, "rental_uris": {"ios": "https://dc.lft.to/lastmile_qr_scan", "android": "https://dc.lft.to/lastmile_qr_scan"}, "is_reserved": 0}, {"lon": -77.05211716666666, "bike_id": "c3d37bb4e4ee69d70821c6aa657eb891", "lat": 38.90010183333333, "fusion_lon": 0.0, "fusion_lat": 0.0, "type": "electric_scooter", "name": "c3d37bb4e4ee69d70821c6aa657eb891", "is_disabled": 0, "rental_uris": {"ios": "https://dc.lft.to/lastmile_qr_scan", "android": "https://dc.lft.to/lastmile_qr_scan"}, "is_reserved": 0}, {"lon": -77.0238635, "bike_id": "23149e51509bb4f07a9ea0c29f947c16", "lat": 38.91761916666667, "fusion_lon": 0.0, "fusion_lat": 0.0, "type": "electric_scooter", "name": "23149e51509bb4f07a9ea0c29f947c16", "is_disabled": 0, "rental_uris": {"ios": "https://dc.lft.to/lastmile_qr_scan", "android": "https://dc.lft.to/lastmile_qr_scan"}, "is_reserved": 0}, {"lon": -76.93609416666666, "bike_id": "218776891aca6860e57d01179a56ed06", "lat": 38.896834, "fusion_lon": 0.0, "fusion_lat": 0.0, "type": "electric_scooter", "name": "218776891aca6860e57d01179a56ed06", "is_disabled": 0, "rental_uris": {"ios": "https://dc.lft.to/lastmile_qr_scan", "android": "https://dc.lft.to/lastmile_qr_scan"}, "is_reserved": 0}, {"lon": -77.02885833333333, "bike_id": "ceea4ff4fdeb6e09f7d1c8ee9cbb4aec", "lat": 38.903774166666665, "fusion_lon": 0.0, "fusion_lat": 0.0, "type": "electric_scooter", "name": "ceea4ff4fdeb6e09f7d1c8ee9cbb4aec", "is_disabled": 0, "rental_uris": {"ios": "https://dc.lft.to/lastmile_qr_scan", "android": "https://dc.lft.to/lastmile_qr_scan"}, "is_reserved": 0}, {"lon": -76.97619533333334, "bike_id": "0d6df967f4ac7f27005b31fe6b6a1245", "lat": 38.9038295, "fusion_lon": 0.0, "fusion_lat": 0.0, "type": "electric_scooter", "name": "0d6df967f4ac7f27005b31fe6b6a1245", "is_disabled": 0, "rental_uris": {"ios": "https://dc.lft.to/lastmile_qr_scan", "android": "https://dc.lft.to/lastmile_qr_scan"}, "is_reserved": 0}, {"lon": -76.99918116666667, "bike_id": "ebb67fd92149bc3130103e804c4a7ec9", "lat": 38.90914183333334, "fusion_lon": 0.0, "fusion_lat": 0.0, "type": "electric_scooter", "name": "ebb67fd92149bc3130103e804c4a7ec9", "is_disabled": 0, "rental_uris": {"ios": "https://dc.lft.to/lastmile_qr_scan", "android": "https://dc.lft.to/lastmile_qr_scan"}, "is_reserved": 0}, {"lon": -77.01194666666666, "bike_id": "2f874d0395036470590a7d8992854b75", "lat": 38.90016983333334, "fusion_lon": 0.0, "fusion_lat": 0.0, "type": "electric_scooter", "name": "2f874d0395036470590a7d8992854b75", "is_disabled": 0, "rental_uris": {"ios": "https://dc.lft.to/lastmile_qr_scan", "android": "https://dc.lft.to/lastmile_qr_scan"}, "is_reserved": 0}, {"lon": -77.0214525, "bike_id": "175b13a1d95bff2814aa59b9c3f69b85", "lat": 38.89403816666667, "fusion_lon": 0.0, "fusion_lat": 0.0, "type": "electric_scooter", "name": "175b13a1d95bff2814aa59b9c3f69b85", "is_disabled": 0, "rental_uris": {"ios": "https://dc.lft.to/lastmile_qr_scan", "android": "https://dc.lft.to/lastmile_qr_scan"}, "is_reserved": 0}, {"lon": -77.03645983333334, "bike_id": "ee81c8f11f94dee691e4550964ae31e4", "lat": 38.91866, "fusion_lon": 0.0, "fusion_lat": 0.0, "type": "electric_scooter", "name": "ee81c8f11f94dee691e4550964ae31e4", "is_disabled": 0, "rental_uris": {"ios": "https://dc.lft.to/lastmile_qr_scan", "android": "https://dc.lft.to/lastmile_qr_scan"}, "is_reserved": 0}, {"lon": -77.02594883333333, "bike_id": "22c8b358b79a2adf6f13a96e857ff05c", "lat": 38.905032, "fusion_lon": 0.0, "fusion_lat": 0.0, "type": "electric_scooter", "name": "22c8b358b79a2adf6f13a96e857ff05c", "is_disabled": 0, "rental_uris": {"ios": "https://dc.lft.to/lastmile_qr_scan", "android": "https://dc.lft.to/lastmile_qr_scan"}, "is_reserved": 0}, {"lon": -76.9893105, "bike_id": "b694265560dc855a868b0613b2729db9", "lat": 38.918363666666664, "fusion_lon": 0.0, "fusion_lat": 0.0, "type": "electric_scooter", "name": "b694265560dc855a868b0613b2729db9", "is_disabled": 0, "rental_uris": {"ios": "https://dc.lft.to/lastmile_qr_scan", "android": "https://dc.lft.to/lastmile_qr_scan"}, "is_reserved": 0}, {"lon": -77.04963383333333, "bike_id": "2eb3e7bd85cd4abedb3c8a7cf57d479c", "lat": 38.894682, "fusion_lon": 0.0, "fusion_lat": 0.0, "type": "electric_scooter", "name": "2eb3e7bd85cd4abedb3c8a7cf57d479c", "is_disabled": 0, "rental_uris": {"ios": "https://dc.lft.to/lastmile_qr_scan", "android": "https://dc.lft.to/lastmile_qr_scan"}, "is_reserved": 0}, {"lon": -77.04499883333334, "bike_id": "fa28da4981b2ad6d818e77fa3aaff180", "lat": 38.919376, "fusion_lon": 0.0, "fusion_lat": 0.0, "type": "electric_scooter", "name": "fa28da4981b2ad6d818e77fa3aaff180", "is_disabled": 0, "rental_uris": {"ios": "https://dc.lft.to/lastmile_qr_scan", "android": "https://dc.lft.to/lastmile_qr_scan"}, "is_reserved": 0}, {"lon": -77.048728, "bike_id": "10f8f138a23cff63119281e41d964734", "lat": 38.909722333333335, "fusion_lon": 0.0, "fusion_lat": 0.0, "type": "electric_scooter", "name": "10f8f138a23cff63119281e41d964734", "is_disabled": 0, "rental_uris": {"ios": "https://dc.lft.to/lastmile_qr_scan", "android": "https://dc.lft.to/lastmile_qr_scan"}, "is_reserved": 0}, {"lon": -77.051454, "bike_id": "ba354855f2fa81d33118764dfc63f7e0", "lat": 38.8986435, "fusion_lon": 0.0, "fusion_lat": 0.0, "type": "electric_scooter", "name": "ba354855f2fa81d33118764dfc63f7e0", "is_disabled": 0, "rental_uris": {"ios": "https://dc.lft.to/lastmile_qr_scan", "android": "https://dc.lft.to/lastmile_qr_scan"}, "is_reserved": 0}, {"lon": -77.012817, "bike_id": "3c71f84bd8c11a08add6eed34c3b8039", "lat": 38.910301, "fusion_lon": 0.0, "fusion_lat": 0.0, "type": "electric_scooter", "name": "3c71f84bd8c11a08add6eed34c3b8039", "is_disabled": 0, "rental_uris": {"ios": "https://dc.lft.to/lastmile_qr_scan", "android": "https://dc.lft.to/lastmile_qr_scan"}, "is_reserved": 0}, {"lon": -77.115887, "bike_id": "71720f7ff2019345bae2662f031aaa3f", "lat": 39.0749265, "fusion_lon": 0.0, "fusion_lat": 0.0, "type": "electric_bike", "name": "71720f7ff2019345bae2662f031aaa3f", "is_disabled": 0, "rental_uris": {"ios": "https://dc.lft.to/lastmile_qr_scan", "android": "https://dc.lft.to/lastmile_qr_scan"}, "is_reserved": 0}, {"lon": -77.01418016666666, "bike_id": "bcc1dea6bdd311c5598fd6bda553fb65", "lat": 38.928326, "fusion_lon": 0.0, "fusion_lat": 0.0, "type": "electric_scooter", "name": "bcc1dea6bdd311c5598fd6bda553fb65", "is_disabled": 0, "rental_uris": {"ios": "https://dc.lft.to/lastmile_qr_scan", "android": "https://dc.lft.to/lastmile_qr_scan"}, "is_reserved": 0}, {"lon": -77.02280783333333, "bike_id": "c977a0e7fa79865e0e89dd9320fa4af1", "lat": 38.92687733333333, "fusion_lon": 0.0, "fusion_lat": 0.0, "type": "electric_scooter", "name": "c977a0e7fa79865e0e89dd9320fa4af1", "is_disabled": 0, "rental_uris": {"ios": "https://dc.lft.to/lastmile_qr_scan", "android": "https://dc.lft.to/lastmile_qr_scan"}, "is_reserved": 0}, {"lon": -77.0120485, "bike_id": "82bed1f103368a061ac54faad0314b4f", "lat": 38.916499333333334, "fusion_lon": 0.0, "fusion_lat": 0.0, "type": "electric_scooter", "name": "82bed1f103368a061ac54faad0314b4f", "is_disabled": 0, "rental_uris": {"ios": "https://dc.lft.to/lastmile_qr_scan", "android": "https://dc.lft.to/lastmile_qr_scan"}, "is_reserved": 0}, {"lon": -76.96909483333333, "bike_id": "52a8e59cc30688806bf9fbc62d228f4d", "lat": 38.84611016666667, "fusion_lon": 0.0, "fusion_lat": 0.0, "type": "electric_bike", "name": "52a8e59cc30688806bf9fbc62d228f4d", "is_disabled": 0, "rental_uris": {"ios": "https://dc.lft.to/lastmile_qr_scan", "android": "https://dc.lft.to/lastmile_qr_scan"}, "is_reserved": 0}, {"lon": -77.03346866666666, "bike_id": "99a01b51f0aa36e175da3f4637449782", "lat": 38.9451285, "fusion_lon": 0.0, "fusion_lat": 0.0, "type": "electric_bike", "name": "99a01b51f0aa36e175da3f4637449782", "is_disabled": 0, "rental_uris": {"ios": "https://dc.lft.to/lastmile_qr_scan", "android": "https://dc.lft.to/lastmile_qr_scan"}, "is_reserved": 0}, {"lon": -77.0375235, "bike_id": "dddc44ab966a461614f2cf06862eef6f", "lat": 38.91107366666667, "fusion_lon": 0.0, "fusion_lat": 0.0, "type": "electric_scooter", "name": "dddc44ab966a461614f2cf06862eef6f", "is_disabled": 0, "rental_uris": {"ios": "https://dc.lft.to/lastmile_qr_scan", "android": "https://dc.lft.to/lastmile_qr_scan"}, "is_reserved": 0}, {"lon": -77.02391, "bike_id": "b3bf5d4119519ed747ffa743ec90d1c4", "lat": 38.904092166666665, "fusion_lon": 0.0, "fusion_lat": 0.0, "type": "electric_scooter", "name": "b3bf5d4119519ed747ffa743ec90d1c4", "is_disabled": 0, "rental_uris": {"ios": "https://dc.lft.to/lastmile_qr_scan", "android": "https://dc.lft.to/lastmile_qr_scan"}, "is_reserved": 0}, {"lon": -77.02386333333334, "bike_id": "ce7c358e2a97fc642886e8ed57eebe37", "lat": 38.8997665, "fusion_lon": 0.0, "fusion_lat": 0.0, "type": "electric_scooter", "name": "ce7c358e2a97fc642886e8ed57eebe37", "is_disabled": 0, "rental_uris": {"ios": "https://dc.lft.to/lastmile_qr_scan", "android": "https://dc.lft.to/lastmile_qr_scan"}, "is_reserved": 0}, {"lon": -77.03164016666666, "bike_id": "74a18dfa47cffa4439917f0862fa93b4", "lat": 38.8921775, "fusion_lon": 0.0, "fusion_lat": 0.0, "type": "electric_scooter", "name": "74a18dfa47cffa4439917f0862fa93b4", "is_disabled": 0, "rental_uris": {"ios": "https://dc.lft.to/lastmile_qr_scan", "android": "https://dc.lft.to/lastmile_qr_scan"}, "is_reserved": 0}, {"lon": -77.02683316666666, "bike_id": "61cc993130fe55f7918ae0304fd68a37", "lat": 38.902506833333334, "fusion_lon": 0.0, "fusion_lat": 0.0, "type": "electric_scooter", "name": "61cc993130fe55f7918ae0304fd68a37", "is_disabled": 0, "rental_uris": {"ios": "https://dc.lft.to/lastmile_qr_scan", "android": "https://dc.lft.to/lastmile_qr_scan"}, "is_reserved": 0}, {"lon": -77.03247616666667, "bike_id": "a10a0e67f5444ffa93fecb2446fb635c", "lat": 38.927703, "fusion_lon": 0.0, "fusion_lat": 0.0, "type": "electric_scooter", "name": "a10a0e67f5444ffa93fecb2446fb635c", "is_disabled": 0, "rental_uris": {"ios": "https://dc.lft.to/lastmile_qr_scan", "android": "https://dc.lft.to/lastmile_qr_scan"}, "is_reserved": 0}, {"lon": -76.99500833333333, "bike_id": "6866b0226d6965cfb39fa59eebf20baa", "lat": 38.8976425, "fusion_lon": 0.0, "fusion_lat": 0.0, "type": "electric_scooter", "name": "6866b0226d6965cfb39fa59eebf20baa", "is_disabled": 0, "rental_uris": {"ios": "https://dc.lft.to/lastmile_qr_scan", "android": "https://dc.lft.to/lastmile_qr_scan"}, "is_reserved": 0}, {"lon": -77.01745583333333, "bike_id": "8dd7fa7e95f524101ff22093a5028ea1", "lat": 38.881926166666666, "fusion_lon": 0.0, "fusion_lat": 0.0, "type": "electric_scooter", "name": "8dd7fa7e95f524101ff22093a5028ea1", "is_disabled": 0, "rental_uris": {"ios": "https://dc.lft.to/lastmile_qr_scan", "android": "https://dc.lft.to/lastmile_qr_scan"}, "is_reserved": 0}, {"lon": -76.99705183333333, "bike_id": "9ef9aca147e1503dfe6810dd04cbad89", "lat": 38.844296666666665, "fusion_lon": 0.0, "fusion_lat": 0.0, "type": "electric_scooter", "name": "9ef9aca147e1503dfe6810dd04cbad89", "is_disabled": 0, "rental_uris": {"ios": "https://dc.lft.to/lastmile_qr_scan", "android": "https://dc.lft.to/lastmile_qr_scan"}, "is_reserved": 0}, {"lon": -77.00533916666667, "bike_id": "3ef165e5accc5ddeac8922f4a8c8df75", "lat": 38.87543766666667, "fusion_lon": 0.0, "fusion_lat": 0.0, "type": "electric_scooter", "name": "3ef165e5accc5ddeac8922f4a8c8df75", "is_disabled": 0, "rental_uris": {"ios": "https://dc.lft.to/lastmile_qr_scan", "android": "https://dc.lft.to/lastmile_qr_scan"}, "is_reserved": 0}, {"lon": -77.01160066666667, "bike_id": "6d7aee4abd559a6f0685b3dd61b7f759", "lat": 38.89610316666667, "fusion_lon": 0.0, "fusion_lat": 0.0, "type": "electric_scooter", "name": "6d7aee4abd559a6f0685b3dd61b7f759", "is_disabled": 0, "rental_uris": {"ios": "https://dc.lft.to/lastmile_qr_scan", "android": "https://dc.lft.to/lastmile_qr_scan"}, "is_reserved": 0}, {"lon": -77.02509983333333, "bike_id": "f9ca6cad16fd6b888dad0d9db863de90", "lat": 38.942024, "fusion_lon": 0.0, "fusion_lat": 0.0, "type": "electric_scooter", "name": "f9ca6cad16fd6b888dad0d9db863de90", "is_disabled": 0, "rental_uris": {"ios": "https://dc.lft.to/lastmile_qr_scan", "android": "https://dc.lft.to/lastmile_qr_scan"}, "is_reserved": 0}, {"lon": -77.02964566666667, "bike_id": "c42cec665dee65a04d5bbb72ec45d1bc", "lat": 38.9229505, "fusion_lon": 0.0, "fusion_lat": 0.0, "type": "electric_scooter", "name": "c42cec665dee65a04d5bbb72ec45d1bc", "is_disabled": 0, "rental_uris": {"ios": "https://dc.lft.to/lastmile_qr_scan", "android": "https://dc.lft.to/lastmile_qr_scan"}, "is_reserved": 0}, {"lon": -76.97601966666667, "bike_id": "e3960d940da0192212d2658ef563f486", "lat": 38.89749616666667, "fusion_lon": 0.0, "fusion_lat": 0.0, "type": "electric_scooter", "name": "e3960d940da0192212d2658ef563f486", "is_disabled": 0, "rental_uris": {"ios": "https://dc.lft.to/lastmile_qr_scan", "android": "https://dc.lft.to/lastmile_qr_scan"}, "is_reserved": 0}, {"lon": -76.97891066666666, "bike_id": "e07f8c208ec02232f0b00dc41d4f78bd", "lat": 38.885382666666665, "fusion_lon": 0.0, "fusion_lat": 0.0, "type": "electric_scooter", "name": "e07f8c208ec02232f0b00dc41d4f78bd", "is_disabled": 0, "rental_uris": {"ios": "https://dc.lft.to/lastmile_qr_scan", "android": "https://dc.lft.to/lastmile_qr_scan"}, "is_reserved": 0}, {"lon": -76.98333883333333, "bike_id": "7c275490cd6bbef0294543ae0a52d721", "lat": 38.89544266666667, "fusion_lon": 0.0, "fusion_lat": 0.0, "type": "electric_scooter", "name": "7c275490cd6bbef0294543ae0a52d721", "is_disabled": 0, "rental_uris": {"ios": "https://dc.lft.to/lastmile_qr_scan", "android": "https://dc.lft.to/lastmile_qr_scan"}, "is_reserved": 0}, {"lon": -77.11798466666667, "bike_id": "55fdb2107d5068e1bd43e9ee1e2fd2c3", "lat": 38.873739, "fusion_lon": 0.0, "fusion_lat": 0.0, "type": "electric_bike", "name": "55fdb2107d5068e1bd43e9ee1e2fd2c3", "is_disabled": 0, "rental_uris": {"ios": "https://dc.lft.to/lastmile_qr_scan", "android": "https://dc.lft.to/lastmile_qr_scan"}, "is_reserved": 0}, {"lon": -77.02428366666666, "bike_id": "c7b9fa32059c5bd601134d19937228d5", "lat": 38.91408066666666, "fusion_lon": 0.0, "fusion_lat": 0.0, "type": "electric_scooter", "name": "c7b9fa32059c5bd601134d19937228d5", "is_disabled": 0, "rental_uris": {"ios": "https://dc.lft.to/lastmile_qr_scan", "android": "https://dc.lft.to/lastmile_qr_scan"}, "is_reserved": 0}, {"lon": -76.98019233333333, "bike_id": "8d173fbd0ce31fdb27cf65cd0a991ba9", "lat": 38.89888366666667, "fusion_lon": 0.0, "fusion_lat": 0.0, "type": "electric_scooter", "name": "8d173fbd0ce31fdb27cf65cd0a991ba9", "is_disabled": 0, "rental_uris": {"ios": "https://dc.lft.to/lastmile_qr_scan", "android": "https://dc.lft.to/lastmile_qr_scan"}, "is_reserved": 0}, {"lon": -77.01447133333333, "bike_id": "796bf94aed2e55cecdb460d08ff4af9b", "lat": 38.879394, "fusion_lon": 0.0, "fusion_lat": 0.0, "type": "electric_scooter", "name": "796bf94aed2e55cecdb460d08ff4af9b", "is_disabled": 0, "rental_uris": {"ios": "https://dc.lft.to/lastmile_qr_scan", "android": "https://dc.lft.to/lastmile_qr_scan"}, "is_reserved": 0}, {"lon": -77.07434566666667, "bike_id": "7671b525629683c2540b5bb9f511b439", "lat": 38.99946283333333, "fusion_lon": 0.0, "fusion_lat": 0.0, "type": "electric_bike", "name": "7671b525629683c2540b5bb9f511b439", "is_disabled": 0, "rental_uris": {"ios": "https://dc.lft.to/lastmile_qr_scan", "android": "https://dc.lft.to/lastmile_qr_scan"}, "is_reserved": 0}, {"lon": -77.00741233333333, "bike_id": "998bf41b8a86abfc171017fde1723a3a", "lat": 38.916312, "fusion_lon": 0.0, "fusion_lat": 0.0, "type": "electric_scooter", "name": "998bf41b8a86abfc171017fde1723a3a", "is_disabled": 0, "rental_uris": {"ios": "https://dc.lft.to/lastmile_qr_scan", "android": "https://dc.lft.to/lastmile_qr_scan"}, "is_reserved": 0}, {"lon": -77.01429516666667, "bike_id": "22c7025f9d35b6cfcbaff60f62cfd836", "lat": 38.91463566666667, "fusion_lon": 0.0, "fusion_lat": 0.0, "type": "electric_scooter", "name": "22c7025f9d35b6cfcbaff60f62cfd836", "is_disabled": 0, "rental_uris": {"ios": "https://dc.lft.to/lastmile_qr_scan", "android": "https://dc.lft.to/lastmile_qr_scan"}, "is_reserved": 0}, {"lon": -77.03257266666667, "bike_id": "cfe7bae1271d18ea222a12189165c746", "lat": 38.935630333333336, "fusion_lon": 0.0, "fusion_lat": 0.0, "type": "electric_scooter", "name": "cfe7bae1271d18ea222a12189165c746", "is_disabled": 0, "rental_uris": {"ios": "https://dc.lft.to/lastmile_qr_scan", "android": "https://dc.lft.to/lastmile_qr_scan"}, "is_reserved": 0}, {"lon": -76.98715783333333, "bike_id": "fe358a9a7f3cb44f8b1b6a8060d946eb", "lat": 38.866305833333335, "fusion_lon": 0.0, "fusion_lat": 0.0, "type": "electric_scooter", "name": "fe358a9a7f3cb44f8b1b6a8060d946eb", "is_disabled": 0, "rental_uris": {"ios": "https://dc.lft.to/lastmile_qr_scan", "android": "https://dc.lft.to/lastmile_qr_scan"}, "is_reserved": 0}, {"lon": -77.058607, "bike_id": "c313acf3fd26aa916779155cbed691b2", "lat": 38.936110666666664, "fusion_lon": 0.0, "fusion_lat": 0.0, "type": "electric_scooter", "name": "c313acf3fd26aa916779155cbed691b2", "is_disabled": 0, "rental_uris": {"ios": "https://dc.lft.to/lastmile_qr_scan", "android": "https://dc.lft.to/lastmile_qr_scan"}, "is_reserved": 0}, {"lon": -76.950024, "bike_id": "6d532e9ce582061e9675d2bd0268a9c1", "lat": 38.893828666666664, "fusion_lon": 0.0, "fusion_lat": 0.0, "type": "electric_scooter", "name": "6d532e9ce582061e9675d2bd0268a9c1", "is_disabled": 0, "rental_uris": {"ios": "https://dc.lft.to/lastmile_qr_scan", "android": "https://dc.lft.to/lastmile_qr_scan"}, "is_reserved": 0}, {"lon": -77.02207616666666, "bike_id": "23b7a961aa7cef6f9da7d2cbebf1912d", "lat": 38.91411383333333, "fusion_lon": 0.0, "fusion_lat": 0.0, "type": "electric_scooter", "name": "23b7a961aa7cef6f9da7d2cbebf1912d", "is_disabled": 0, "rental_uris": {"ios": "https://dc.lft.to/lastmile_qr_scan", "android": "https://dc.lft.to/lastmile_qr_scan"}, "is_reserved": 0}, {"lon": -77.0573335, "bike_id": "4a7e96d6df0598ea184651dfbbfaf397", "lat": 38.933799666666665, "fusion_lon": 0.0, "fusion_lat": 0.0, "type": "electric_scooter", "name": "4a7e96d6df0598ea184651dfbbfaf397", "is_disabled": 0, "rental_uris": {"ios": "https://dc.lft.to/lastmile_qr_scan", "android": "https://dc.lft.to/lastmile_qr_scan"}, "is_reserved": 0}, {"lon": -77.01921483333334, "bike_id": "a6fb117c393f3a8e2f8462628fcd47cd", "lat": 38.934643333333334, "fusion_lon": 0.0, "fusion_lat": 0.0, "type": "electric_scooter", "name": "a6fb117c393f3a8e2f8462628fcd47cd", "is_disabled": 0, "rental_uris": {"ios": "https://dc.lft.to/lastmile_qr_scan", "android": "https://dc.lft.to/lastmile_qr_scan"}, "is_reserved": 0}, {"lon": -76.97306166666667, "bike_id": "56b10e7ede291ae5462581ae44c31e32", "lat": 38.91988283333333, "fusion_lon": 0.0, "fusion_lat": 0.0, "type": "electric_scooter", "name": "56b10e7ede291ae5462581ae44c31e32", "is_disabled": 0, "rental_uris": {"ios": "https://dc.lft.to/lastmile_qr_scan", "android": "https://dc.lft.to/lastmile_qr_scan"}, "is_reserved": 0}, {"lon": -77.07294333333333, "bike_id": "87e44c20e808630d331d2d639ac88789", "lat": 38.92467033333333, "fusion_lon": 0.0, "fusion_lat": 0.0, "type": "electric_scooter", "name": "87e44c20e808630d331d2d639ac88789", "is_disabled": 0, "rental_uris": {"ios": "https://dc.lft.to/lastmile_qr_scan", "android": "https://dc.lft.to/lastmile_qr_scan"}, "is_reserved": 0}, {"lon": -76.97334616666667, "bike_id": "80aebfcadc28508b2e977aab487da3da", "lat": 38.865729333333334, "fusion_lon": 0.0, "fusion_lat": 0.0, "type": "electric_scooter", "name": "80aebfcadc28508b2e977aab487da3da", "is_disabled": 0, "rental_uris": {"ios": "https://dc.lft.to/lastmile_qr_scan", "android": "https://dc.lft.to/lastmile_qr_scan"}, "is_reserved": 0}, {"lon": -77.04478733333333, "bike_id": "7c2405c63c09cbc2d34c26c71ba28a5c", "lat": 38.91583333333333, "fusion_lon": 0.0, "fusion_lat": 0.0, "type": "electric_scooter", "name": "7c2405c63c09cbc2d34c26c71ba28a5c", "is_disabled": 0, "rental_uris": {"ios": "https://dc.lft.to/lastmile_qr_scan", "android": "https://dc.lft.to/lastmile_qr_scan"}, "is_reserved": 0}, {"lon": -77.01585183333333, "bike_id": "295c9b07cd002f0a058dbbf6e8077cef", "lat": 38.88615733333334, "fusion_lon": 0.0, "fusion_lat": 0.0, "type": "electric_scooter", "name": "295c9b07cd002f0a058dbbf6e8077cef", "is_disabled": 0, "rental_uris": {"ios": "https://dc.lft.to/lastmile_qr_scan", "android": "https://dc.lft.to/lastmile_qr_scan"}, "is_reserved": 0}, {"lon": -76.982271, "bike_id": "a339b5a8612ddee3cfb59f8facf70e73", "lat": 38.8864355, "fusion_lon": 0.0, "fusion_lat": 0.0, "type": "electric_scooter", "name": "a339b5a8612ddee3cfb59f8facf70e73", "is_disabled": 0, "rental_uris": {"ios": "https://dc.lft.to/lastmile_qr_scan", "android": "https://dc.lft.to/lastmile_qr_scan"}, "is_reserved": 0}, {"lon": -77.02371516666666, "bike_id": "8c36e23b9fe72b46a929fcee70a57246", "lat": 38.90203483333333, "fusion_lon": 0.0, "fusion_lat": 0.0, "type": "electric_scooter", "name": "8c36e23b9fe72b46a929fcee70a57246", "is_disabled": 0, "rental_uris": {"ios": "https://dc.lft.to/lastmile_qr_scan", "android": "https://dc.lft.to/lastmile_qr_scan"}, "is_reserved": 0}, {"lon": -77.0287, "bike_id": "f3e34310dc6f32fc4f11da4e13cf9e65", "lat": 38.88772733333333, "fusion_lon": 0.0, "fusion_lat": 0.0, "type": "electric_scooter", "name": "f3e34310dc6f32fc4f11da4e13cf9e65", "is_disabled": 0, "rental_uris": {"ios": "https://dc.lft.to/lastmile_qr_scan", "android": "https://dc.lft.to/lastmile_qr_scan"}, "is_reserved": 0}, {"lon": -77.000705, "bike_id": "19c762231aed36581f81ad75cdffee2b", "lat": 38.87668166666667, "fusion_lon": 0.0, "fusion_lat": 0.0, "type": "electric_scooter", "name": "19c762231aed36581f81ad75cdffee2b", "is_disabled": 0, "rental_uris": {"ios": "https://dc.lft.to/lastmile_qr_scan", "android": "https://dc.lft.to/lastmile_qr_scan"}, "is_reserved": 0}, {"lon": -77.16628966666667, "bike_id": "a68c15659f9ffb102fc35b7f3fa3b38b", "lat": 38.888420333333336, "fusion_lon": 0.0, "fusion_lat": 0.0, "type": "electric_bike", "name": "a68c15659f9ffb102fc35b7f3fa3b38b", "is_disabled": 0, "rental_uris": {"ios": "https://dc.lft.to/lastmile_qr_scan", "android": "https://dc.lft.to/lastmile_qr_scan"}, "is_reserved": 0}, {"lon": -77.11176583333334, "bike_id": "33179731964d667b31c8b7080def0c6a", "lat": 38.855253166666664, "fusion_lon": 0.0, "fusion_lat": 0.0, "type": "electric_bike", "name": "33179731964d667b31c8b7080def0c6a", "is_disabled": 0, "rental_uris": {"ios": "https://dc.lft.to/lastmile_qr_scan", "android": "https://dc.lft.to/lastmile_qr_scan"}, "is_reserved": 0}, {"lon": -77.04692083333333, "bike_id": "2826f3fa60ecd47e77a1b4b7a270b320", "lat": 39.02394, "fusion_lon": 0.0, "fusion_lat": 0.0, "type": "electric_bike", "name": "2826f3fa60ecd47e77a1b4b7a270b320", "is_disabled": 0, "rental_uris": {"ios": "https://dc.lft.to/lastmile_qr_scan", "android": "https://dc.lft.to/lastmile_qr_scan"}, "is_reserved": 0}, {"lon": -77.0333875, "bike_id": "f83c5c2a4b4525d5f09439adb323d6c5", "lat": 38.902802666666666, "fusion_lon": 0.0, "fusion_lat": 0.0, "type": "electric_scooter", "name": "f83c5c2a4b4525d5f09439adb323d6c5", "is_disabled": 0, "rental_uris": {"ios": "https://dc.lft.to/lastmile_qr_scan", "android": "https://dc.lft.to/lastmile_qr_scan"}, "is_reserved": 0}, {"lon": -77.01206116666667, "bike_id": "07bc6b9750cb66be0602176122ed82e1", "lat": 38.87182516666667, "fusion_lon": 0.0, "fusion_lat": 0.0, "type": "electric_scooter", "name": "07bc6b9750cb66be0602176122ed82e1", "is_disabled": 0, "rental_uris": {"ios": "https://dc.lft.to/lastmile_qr_scan", "android": "https://dc.lft.to/lastmile_qr_scan"}, "is_reserved": 0}, {"lon": -77.10490966666667, "bike_id": "408efd377046776bf84736298df0530a", "lat": 38.856054, "fusion_lon": 0.0, "fusion_lat": 0.0, "type": "electric_bike", "name": "408efd377046776bf84736298df0530a", "is_disabled": 0, "rental_uris": {"ios": "https://dc.lft.to/lastmile_qr_scan", "android": "https://dc.lft.to/lastmile_qr_scan"}, "is_reserved": 0}, {"lon": -77.0279515, "bike_id": "1cd9f48ba4be3871206078fedaf38dfa", "lat": 38.934216, "fusion_lon": 0.0, "fusion_lat": 0.0, "type": "electric_scooter", "name": "1cd9f48ba4be3871206078fedaf38dfa", "is_disabled": 0, "rental_uris": {"ios": "https://dc.lft.to/lastmile_qr_scan", "android": "https://dc.lft.to/lastmile_qr_scan"}, "is_reserved": 0}, {"lon": -77.02956516666667, "bike_id": "3db5e91980efbb98b9b6fa511f9a675a", "lat": 38.907995166666666, "fusion_lon": 0.0, "fusion_lat": 0.0, "type": "electric_scooter", "name": "3db5e91980efbb98b9b6fa511f9a675a", "is_disabled": 0, "rental_uris": {"ios": "https://dc.lft.to/lastmile_qr_scan", "android": "https://dc.lft.to/lastmile_qr_scan"}, "is_reserved": 0}, {"lon": -77.02784216666667, "bike_id": "d6d47456829ef71e139191858f031f20", "lat": 38.941932, "fusion_lon": 0.0, "fusion_lat": 0.0, "type": "electric_scooter", "name": "d6d47456829ef71e139191858f031f20", "is_disabled": 0, "rental_uris": {"ios": "https://dc.lft.to/lastmile_qr_scan", "android": "https://dc.lft.to/lastmile_qr_scan"}, "is_reserved": 0}, {"lon": -77.05250466666666, "bike_id": "a34b9bf00f4b1efe714151f9e6606711", "lat": 38.927372166666665, "fusion_lon": 0.0, "fusion_lat": 0.0, "type": "electric_scooter", "name": "a34b9bf00f4b1efe714151f9e6606711", "is_disabled": 0, "rental_uris": {"ios": "https://dc.lft.to/lastmile_qr_scan", "android": "https://dc.lft.to/lastmile_qr_scan"}, "is_reserved": 0}, {"lon": -77.02447666666667, "bike_id": "6c1bc544117b4de50b3554683f1b40e0", "lat": 38.93799683333334, "fusion_lon": 0.0, "fusion_lat": 0.0, "type": "electric_scooter", "name": "6c1bc544117b4de50b3554683f1b40e0", "is_disabled": 0, "rental_uris": {"ios": "https://dc.lft.to/lastmile_qr_scan", "android": "https://dc.lft.to/lastmile_qr_scan"}, "is_reserved": 0}, {"lon": -77.04583516666666, "bike_id": "1ec3f3008890fdd3ce5e1ecdc9d121d3", "lat": 38.918637, "fusion_lon": 0.0, "fusion_lat": 0.0, "type": "electric_scooter", "name": "1ec3f3008890fdd3ce5e1ecdc9d121d3", "is_disabled": 0, "rental_uris": {"ios": "https://dc.lft.to/lastmile_qr_scan", "android": "https://dc.lft.to/lastmile_qr_scan"}, "is_reserved": 0}, {"lon": -77.04865916666667, "bike_id": "bc5b0cade19540b6fbd1f6a14ec47a3f", "lat": 38.892222833333335, "fusion_lon": 0.0, "fusion_lat": 0.0, "type": "electric_scooter", "name": "bc5b0cade19540b6fbd1f6a14ec47a3f", "is_disabled": 0, "rental_uris": {"ios": "https://dc.lft.to/lastmile_qr_scan", "android": "https://dc.lft.to/lastmile_qr_scan"}, "is_reserved": 0}, {"lon": -76.985829, "bike_id": "d8f5474b4e8df511bb4b0b0ad063e733", "lat": 38.883487333333335, "fusion_lon": 0.0, "fusion_lat": 0.0, "type": "electric_scooter", "name": "d8f5474b4e8df511bb4b0b0ad063e733", "is_disabled": 0, "rental_uris": {"ios": "https://dc.lft.to/lastmile_qr_scan", "android": "https://dc.lft.to/lastmile_qr_scan"}, "is_reserved": 0}, {"lon": -77.04597883333334, "bike_id": "50982e6ae21a657ff67bacf8617bf9f6", "lat": 39.02455966666667, "fusion_lon": 0.0, "fusion_lat": 0.0, "type": "electric_bike", "name": "50982e6ae21a657ff67bacf8617bf9f6", "is_disabled": 0, "rental_uris": {"ios": "https://dc.lft.to/lastmile_qr_scan", "android": "https://dc.lft.to/lastmile_qr_scan"}, "is_reserved": 0}, {"lon": -76.97417433333334, "bike_id": "b28b63f40cccb33fffd3bd868d4193ec", "lat": 38.86531266666667, "fusion_lon": 0.0, "fusion_lat": 0.0, "type": "electric_scooter", "name": "b28b63f40cccb33fffd3bd868d4193ec", "is_disabled": 0, "rental_uris": {"ios": "https://dc.lft.to/lastmile_qr_scan", "android": "https://dc.lft.to/lastmile_qr_scan"}, "is_reserved": 0}, {"lon": -77.03037683333334, "bike_id": "f142e36b501d0a0b868ea70a90c8474c", "lat": 38.913302, "fusion_lon": 0.0, "fusion_lat": 0.0, "type": "electric_scooter", "name": "f142e36b501d0a0b868ea70a90c8474c", "is_disabled": 0, "rental_uris": {"ios": "https://dc.lft.to/lastmile_qr_scan", "android": "https://dc.lft.to/lastmile_qr_scan"}, "is_reserved": 0}, {"lon": -77.03656216666667, "bike_id": "34cba7b09c89730a5dc5b38c565c739a", "lat": 38.9229415, "fusion_lon": 0.0, "fusion_lat": 0.0, "type": "electric_scooter", "name": "34cba7b09c89730a5dc5b38c565c739a", "is_disabled": 0, "rental_uris": {"ios": "https://dc.lft.to/lastmile_qr_scan", "android": "https://dc.lft.to/lastmile_qr_scan"}, "is_reserved": 0}, {"lon": -77.02528933333333, "bike_id": "779c2495a3964d02071c6410b1a14ba9", "lat": 38.93752816666667, "fusion_lon": 0.0, "fusion_lat": 0.0, "type": "electric_scooter", "name": "779c2495a3964d02071c6410b1a14ba9", "is_disabled": 0, "rental_uris": {"ios": "https://dc.lft.to/lastmile_qr_scan", "android": "https://dc.lft.to/lastmile_qr_scan"}, "is_reserved": 0}, {"lon": -77.02228383333333, "bike_id": "5a7c4cf61ec25edc22daed6fb1c484de", "lat": 38.961991833333336, "fusion_lon": 0.0, "fusion_lat": 0.0, "type": "electric_scooter", "name": "5a7c4cf61ec25edc22daed6fb1c484de", "is_disabled": 0, "rental_uris": {"ios": "https://dc.lft.to/lastmile_qr_scan", "android": "https://dc.lft.to/lastmile_qr_scan"}, "is_reserved": 0}, {"lon": -77.02474133333334, "bike_id": "debe7a6450748acb8e58a7d03a720ecc", "lat": 38.9192785, "fusion_lon": 0.0, "fusion_lat": 0.0, "type": "electric_scooter", "name": "debe7a6450748acb8e58a7d03a720ecc", "is_disabled": 0, "rental_uris": {"ios": "https://dc.lft.to/lastmile_qr_scan", "android": "https://dc.lft.to/lastmile_qr_scan"}, "is_reserved": 0}, {"lon": -76.99886633333334, "bike_id": "d10413aee357ef29f9dce54d4fa540e1", "lat": 38.909511, "fusion_lon": 0.0, "fusion_lat": 0.0, "type": "electric_scooter", "name": "d10413aee357ef29f9dce54d4fa540e1", "is_disabled": 0, "rental_uris": {"ios": "https://dc.lft.to/lastmile_qr_scan", "android": "https://dc.lft.to/lastmile_qr_scan"}, "is_reserved": 0}, {"lon": -77.02118366666667, "bike_id": "a57c7979396837aed537daa814cb3cde", "lat": 38.921647166666666, "fusion_lon": 0.0, "fusion_lat": 0.0, "type": "electric_scooter", "name": "a57c7979396837aed537daa814cb3cde", "is_disabled": 0, "rental_uris": {"ios": "https://dc.lft.to/lastmile_qr_scan", "android": "https://dc.lft.to/lastmile_qr_scan"}, "is_reserved": 0}, {"lon": -76.98229766666667, "bike_id": "0c53d5c88fa897a0802b9ee08623379b", "lat": 38.91651933333333, "fusion_lon": 0.0, "fusion_lat": 0.0, "type": "electric_scooter", "name": "0c53d5c88fa897a0802b9ee08623379b", "is_disabled": 0, "rental_uris": {"ios": "https://dc.lft.to/lastmile_qr_scan", "android": "https://dc.lft.to/lastmile_qr_scan"}, "is_reserved": 0}, {"lon": -76.92989733333333, "bike_id": "bf55b267c615436b2870620bba415c5d", "lat": 38.893340333333335, "fusion_lon": 0.0, "fusion_lat": 0.0, "type": "electric_scooter", "name": "bf55b267c615436b2870620bba415c5d", "is_disabled": 0, "rental_uris": {"ios": "https://dc.lft.to/lastmile_qr_scan", "android": "https://dc.lft.to/lastmile_qr_scan"}, "is_reserved": 0}, {"lon": -77.035389, "bike_id": "74fc04d3c198bd6243f231c2e3bc5c70", "lat": 38.92343233333333, "fusion_lon": 0.0, "fusion_lat": 0.0, "type": "electric_scooter", "name": "74fc04d3c198bd6243f231c2e3bc5c70", "is_disabled": 0, "rental_uris": {"ios": "https://dc.lft.to/lastmile_qr_scan", "android": "https://dc.lft.to/lastmile_qr_scan"}, "is_reserved": 0}, {"lon": -77.02237816666667, "bike_id": "33287bc7fdc4a4d2c3989c448c2967ab", "lat": 38.92622683333333, "fusion_lon": 0.0, "fusion_lat": 0.0, "type": "electric_scooter", "name": "33287bc7fdc4a4d2c3989c448c2967ab", "is_disabled": 0, "rental_uris": {"ios": "https://dc.lft.to/lastmile_qr_scan", "android": "https://dc.lft.to/lastmile_qr_scan"}, "is_reserved": 0}, {"lon": -77.05809933333333, "bike_id": "0cc650c20dbcdc3b8d3a698d6ca7cb7d", "lat": 38.9353145, "fusion_lon": 0.0, "fusion_lat": 0.0, "type": "electric_bike", "name": "0cc650c20dbcdc3b8d3a698d6ca7cb7d", "is_disabled": 0, "rental_uris": {"ios": "https://dc.lft.to/lastmile_qr_scan", "android": "https://dc.lft.to/lastmile_qr_scan"}, "is_reserved": 0}, {"lon": -77.021824, "bike_id": "f0ce8196d44f90daefdf8890e8cd4806", "lat": 38.939506, "fusion_lon": 0.0, "fusion_lat": 0.0, "type": "electric_scooter", "name": "f0ce8196d44f90daefdf8890e8cd4806", "is_disabled": 0, "rental_uris": {"ios": "https://dc.lft.to/lastmile_qr_scan", "android": "https://dc.lft.to/lastmile_qr_scan"}, "is_reserved": 0}, {"lon": -77.01268283333333, "bike_id": "47cc48923ab0f9df9c5a8acfd9a73bd1", "lat": 38.915501666666664, "fusion_lon": 0.0, "fusion_lat": 0.0, "type": "electric_scooter", "name": "47cc48923ab0f9df9c5a8acfd9a73bd1", "is_disabled": 0, "rental_uris": {"ios": "https://dc.lft.to/lastmile_qr_scan", "android": "https://dc.lft.to/lastmile_qr_scan"}, "is_reserved": 0}, {"lon": -77.044043, "bike_id": "8851f59a1fe5d3010af7adcc27908b1e", "lat": 38.924519, "fusion_lon": 0.0, "fusion_lat": 0.0, "type": "electric_scooter", "name": "8851f59a1fe5d3010af7adcc27908b1e", "is_disabled": 0, "rental_uris": {"ios": "https://dc.lft.to/lastmile_qr_scan", "android": "https://dc.lft.to/lastmile_qr_scan"}, "is_reserved": 0}, {"lon": -77.021056, "bike_id": "1638c9c2591160f7eed596b94f372232", "lat": 38.90610983333333, "fusion_lon": 0.0, "fusion_lat": 0.0, "type": "electric_scooter", "name": "1638c9c2591160f7eed596b94f372232", "is_disabled": 0, "rental_uris": {"ios": "https://dc.lft.to/lastmile_qr_scan", "android": "https://dc.lft.to/lastmile_qr_scan"}, "is_reserved": 0}, {"lon": -76.989242, "bike_id": "87f68dd0ad895074eb0d03027b15f9e3", "lat": 38.8581115, "fusion_lon": 0.0, "fusion_lat": 0.0, "type": "electric_scooter", "name": "87f68dd0ad895074eb0d03027b15f9e3", "is_disabled": 0, "rental_uris": {"ios": "https://dc.lft.to/lastmile_qr_scan", "android": "https://dc.lft.to/lastmile_qr_scan"}, "is_reserved": 0}, {"lon": -77.04891383333333, "bike_id": "dbac0755f438ba5b6b852ca0b1087d7b", "lat": 38.892364, "fusion_lon": 0.0, "fusion_lat": 0.0, "type": "electric_scooter", "name": "dbac0755f438ba5b6b852ca0b1087d7b", "is_disabled": 0, "rental_uris": {"ios": "https://dc.lft.to/lastmile_qr_scan", "android": "https://dc.lft.to/lastmile_qr_scan"}, "is_reserved": 0}, {"lon": -77.04392966666667, "bike_id": "cf5bbcb1e7536b5be54aa46decc8a162", "lat": 39.04721466666667, "fusion_lon": 0.0, "fusion_lat": 0.0, "type": "electric_bike", "name": "cf5bbcb1e7536b5be54aa46decc8a162", "is_disabled": 0, "rental_uris": {"ios": "https://dc.lft.to/lastmile_qr_scan", "android": "https://dc.lft.to/lastmile_qr_scan"}, "is_reserved": 0}, {"lon": -77.0557695, "bike_id": "b2d4a1ccba525a0911e58eb0bf0b66c2", "lat": 38.92318316666667, "fusion_lon": 0.0, "fusion_lat": 0.0, "type": "electric_scooter", "name": "b2d4a1ccba525a0911e58eb0bf0b66c2", "is_disabled": 0, "rental_uris": {"ios": "https://dc.lft.to/lastmile_qr_scan", "android": "https://dc.lft.to/lastmile_qr_scan"}, "is_reserved": 0}, {"lon": -76.97966466666666, "bike_id": "14c7b39f85da4c1243e8e9cbf532fe24", "lat": 38.953684833333334, "fusion_lon": 0.0, "fusion_lat": 0.0, "type": "electric_bike", "name": "14c7b39f85da4c1243e8e9cbf532fe24", "is_disabled": 0, "rental_uris": {"ios": "https://dc.lft.to/lastmile_qr_scan", "android": "https://dc.lft.to/lastmile_qr_scan"}, "is_reserved": 0}, {"lon": -77.02208966666667, "bike_id": "7f4018cfe4ab7567c79976b10ccceb2a", "lat": 38.91411166666666, "fusion_lon": 0.0, "fusion_lat": 0.0, "type": "electric_scooter", "name": "7f4018cfe4ab7567c79976b10ccceb2a", "is_disabled": 0, "rental_uris": {"ios": "https://dc.lft.to/lastmile_qr_scan", "android": "https://dc.lft.to/lastmile_qr_scan"}, "is_reserved": 0}, {"lon": -77.0468555, "bike_id": "272a6b8f017561f5b3f6f934d9647807", "lat": 38.906291, "fusion_lon": 0.0, "fusion_lat": 0.0, "type": "electric_scooter", "name": "272a6b8f017561f5b3f6f934d9647807", "is_disabled": 0, "rental_uris": {"ios": "https://dc.lft.to/lastmile_qr_scan", "android": "https://dc.lft.to/lastmile_qr_scan"}, "is_reserved": 0}, {"lon": -77.02489216666666, "bike_id": "b1b9314abacbbe2ed2e88409d4cfb9fe", "lat": 38.948206666666664, "fusion_lon": 0.0, "fusion_lat": 0.0, "type": "electric_scooter", "name": "b1b9314abacbbe2ed2e88409d4cfb9fe", "is_disabled": 0, "rental_uris": {"ios": "https://dc.lft.to/lastmile_qr_scan", "android": "https://dc.lft.to/lastmile_qr_scan"}, "is_reserved": 0}, {"lon": -76.98494366666667, "bike_id": "63b75b2b2143d326cc81f413fea4a4ab", "lat": 38.878414666666664, "fusion_lon": 0.0, "fusion_lat": 0.0, "type": "electric_scooter", "name": "63b75b2b2143d326cc81f413fea4a4ab", "is_disabled": 0, "rental_uris": {"ios": "https://dc.lft.to/lastmile_qr_scan", "android": "https://dc.lft.to/lastmile_qr_scan"}, "is_reserved": 0}, {"lon": -77.039986, "bike_id": "e8cc7a775dfc92bac0dc8cb8e46d09a1", "lat": 38.92456583333333, "fusion_lon": 0.0, "fusion_lat": 0.0, "type": "electric_scooter", "name": "e8cc7a775dfc92bac0dc8cb8e46d09a1", "is_disabled": 0, "rental_uris": {"ios": "https://dc.lft.to/lastmile_qr_scan", "android": "https://dc.lft.to/lastmile_qr_scan"}, "is_reserved": 0}, {"lon": -77.03835466666666, "bike_id": "1ec2fd28a25858e9535c128d71622467", "lat": 38.91094583333334, "fusion_lon": 0.0, "fusion_lat": 0.0, "type": "electric_scooter", "name": "1ec2fd28a25858e9535c128d71622467", "is_disabled": 0, "rental_uris": {"ios": "https://dc.lft.to/lastmile_qr_scan", "android": "https://dc.lft.to/lastmile_qr_scan"}, "is_reserved": 0}, {"lon": -77.03951066666667, "bike_id": "2994020200a71764ba8777ae97e0b30e", "lat": 38.924555833333336, "fusion_lon": 0.0, "fusion_lat": 0.0, "type": "electric_scooter", "name": "2994020200a71764ba8777ae97e0b30e", "is_disabled": 0, "rental_uris": {"ios": "https://dc.lft.to/lastmile_qr_scan", "android": "https://dc.lft.to/lastmile_qr_scan"}, "is_reserved": 0}, {"lon": -77.0501005, "bike_id": "1a68ccf160f894f680ff277f4ea6e116", "lat": 38.89817933333333, "fusion_lon": 0.0, "fusion_lat": 0.0, "type": "electric_scooter", "name": "1a68ccf160f894f680ff277f4ea6e116", "is_disabled": 0, "rental_uris": {"ios": "https://dc.lft.to/lastmile_qr_scan", "android": "https://dc.lft.to/lastmile_qr_scan"}, "is_reserved": 0}, {"lon": -77.03639133333333, "bike_id": "53c82738f528f0f7237c91f65f940934", "lat": 38.923447833333334, "fusion_lon": 0.0, "fusion_lat": 0.0, "type": "electric_scooter", "name": "53c82738f528f0f7237c91f65f940934", "is_disabled": 0, "rental_uris": {"ios": "https://dc.lft.to/lastmile_qr_scan", "android": "https://dc.lft.to/lastmile_qr_scan"}, "is_reserved": 0}, {"lon": -77.0494345, "bike_id": "1c78961e1155c65f036e11ec6df350b7", "lat": 38.90857666666667, "fusion_lon": 0.0, "fusion_lat": 0.0, "type": "electric_scooter", "name": "1c78961e1155c65f036e11ec6df350b7", "is_disabled": 0, "rental_uris": {"ios": "https://dc.lft.to/lastmile_qr_scan", "android": "https://dc.lft.to/lastmile_qr_scan"}, "is_reserved": 0}, {"lon": -76.946347, "bike_id": "b12083b40d60c32c09f393065b4b24dc", "lat": 38.89832083333334, "fusion_lon": 0.0, "fusion_lat": 0.0, "type": "electric_scooter", "name": "b12083b40d60c32c09f393065b4b24dc", "is_disabled": 0, "rental_uris": {"ios": "https://dc.lft.to/lastmile_qr_scan", "android": "https://dc.lft.to/lastmile_qr_scan"}, "is_reserved": 0}, {"lon": -77.0396625, "bike_id": "b3e3a8a5f4dc9b502ba92148ab75b24f", "lat": 38.93146566666667, "fusion_lon": 0.0, "fusion_lat": 0.0, "type": "electric_scooter", "name": "b3e3a8a5f4dc9b502ba92148ab75b24f", "is_disabled": 0, "rental_uris": {"ios": "https://dc.lft.to/lastmile_qr_scan", "android": "https://dc.lft.to/lastmile_qr_scan"}, "is_reserved": 0}, {"lon": -77.016159, "bike_id": "7d90d998026baccd0d72c64078520d5c", "lat": 38.90662783333333, "fusion_lon": 0.0, "fusion_lat": 0.0, "type": "electric_scooter", "name": "7d90d998026baccd0d72c64078520d5c", "is_disabled": 0, "rental_uris": {"ios": "https://dc.lft.to/lastmile_qr_scan", "android": "https://dc.lft.to/lastmile_qr_scan"}, "is_reserved": 0}, {"lon": -77.03281766666667, "bike_id": "e33e22ba3d75fdedc7985c0438b6ac42", "lat": 38.93641566666667, "fusion_lon": 0.0, "fusion_lat": 0.0, "type": "electric_scooter", "name": "e33e22ba3d75fdedc7985c0438b6ac42", "is_disabled": 0, "rental_uris": {"ios": "https://dc.lft.to/lastmile_qr_scan", "android": "https://dc.lft.to/lastmile_qr_scan"}, "is_reserved": 0}, {"lon": -77.02242783333334, "bike_id": "c8e1b52a6b950c6ce0c9c1e1b9b8e2f1", "lat": 38.922662833333334, "fusion_lon": 0.0, "fusion_lat": 0.0, "type": "electric_scooter", "name": "c8e1b52a6b950c6ce0c9c1e1b9b8e2f1", "is_disabled": 0, "rental_uris": {"ios": "https://dc.lft.to/lastmile_qr_scan", "android": "https://dc.lft.to/lastmile_qr_scan"}, "is_reserved": 0}, {"lon": -77.04043816666666, "bike_id": "bd93cb0e64297b33316381d3fdd29830", "lat": 38.92315466666667, "fusion_lon": 0.0, "fusion_lat": 0.0, "type": "electric_scooter", "name": "bd93cb0e64297b33316381d3fdd29830", "is_disabled": 0, "rental_uris": {"ios": "https://dc.lft.to/lastmile_qr_scan", "android": "https://dc.lft.to/lastmile_qr_scan"}, "is_reserved": 0}, {"lon": -76.94130033333333, "bike_id": "dd9a676ce3274916cc23ce148f6cf2f3", "lat": 38.88604933333333, "fusion_lon": 0.0, "fusion_lat": 0.0, "type": "electric_scooter", "name": "dd9a676ce3274916cc23ce148f6cf2f3", "is_disabled": 0, "rental_uris": {"ios": "https://dc.lft.to/lastmile_qr_scan", "android": "https://dc.lft.to/lastmile_qr_scan"}, "is_reserved": 0}, {"lon": -77.04367433333333, "bike_id": "8717f740a99a32dde510d756acb380a4", "lat": 38.89877083333333, "fusion_lon": 0.0, "fusion_lat": 0.0, "type": "electric_scooter", "name": "8717f740a99a32dde510d756acb380a4", "is_disabled": 0, "rental_uris": {"ios": "https://dc.lft.to/lastmile_qr_scan", "android": "https://dc.lft.to/lastmile_qr_scan"}, "is_reserved": 0}, {"lon": -77.05210916666667, "bike_id": "920e3d0a25a6870a17014070e1f086fe", "lat": 38.915554166666666, "fusion_lon": 0.0, "fusion_lat": 0.0, "type": "electric_scooter", "name": "920e3d0a25a6870a17014070e1f086fe", "is_disabled": 0, "rental_uris": {"ios": "https://dc.lft.to/lastmile_qr_scan", "android": "https://dc.lft.to/lastmile_qr_scan"}, "is_reserved": 0}, {"lon": -77.034735, "bike_id": "bf7da51f55dc12761c6a8c1486d17ce4", "lat": 38.90627116666667, "fusion_lon": 0.0, "fusion_lat": 0.0, "type": "electric_scooter", "name": "bf7da51f55dc12761c6a8c1486d17ce4", "is_disabled": 0, "rental_uris": {"ios": "https://dc.lft.to/lastmile_qr_scan", "android": "https://dc.lft.to/lastmile_qr_scan"}, "is_reserved": 0}, {"lon": -77.00433133333334, "bike_id": "92bcd46f4767152e93ed97e397bb8c83", "lat": 38.9133885, "fusion_lon": 0.0, "fusion_lat": 0.0, "type": "electric_scooter", "name": "92bcd46f4767152e93ed97e397bb8c83", "is_disabled": 0, "rental_uris": {"ios": "https://dc.lft.to/lastmile_qr_scan", "android": "https://dc.lft.to/lastmile_qr_scan"}, "is_reserved": 0}, {"lon": -77.02356016666667, "bike_id": "a7cc0eef1dd8573e31942033e483a41c", "lat": 38.892197333333336, "fusion_lon": 0.0, "fusion_lat": 0.0, "type": "electric_scooter", "name": "a7cc0eef1dd8573e31942033e483a41c", "is_disabled": 0, "rental_uris": {"ios": "https://dc.lft.to/lastmile_qr_scan", "android": "https://dc.lft.to/lastmile_qr_scan"}, "is_reserved": 0}, {"lon": -77.03650316666666, "bike_id": "49b0051da002982f914bc12d3bc24660", "lat": 38.94091133333333, "fusion_lon": 0.0, "fusion_lat": 0.0, "type": "electric_scooter", "name": "49b0051da002982f914bc12d3bc24660", "is_disabled": 0, "rental_uris": {"ios": "https://dc.lft.to/lastmile_qr_scan", "android": "https://dc.lft.to/lastmile_qr_scan"}, "is_reserved": 0}, {"lon": -77.02808666666667, "bike_id": "bb54faf049e659e3764aabf1197030c9", "lat": 38.9046565, "fusion_lon": 0.0, "fusion_lat": 0.0, "type": "electric_scooter", "name": "bb54faf049e659e3764aabf1197030c9", "is_disabled": 0, "rental_uris": {"ios": "https://dc.lft.to/lastmile_qr_scan", "android": "https://dc.lft.to/lastmile_qr_scan"}, "is_reserved": 0}, {"lon": -77.0287755, "bike_id": "723516823de29eb5233f6ea07cdce809", "lat": 38.92820583333334, "fusion_lon": 0.0, "fusion_lat": 0.0, "type": "electric_scooter", "name": "723516823de29eb5233f6ea07cdce809", "is_disabled": 0, "rental_uris": {"ios": "https://dc.lft.to/lastmile_qr_scan", "android": "https://dc.lft.to/lastmile_qr_scan"}, "is_reserved": 0}, {"lon": -77.031249, "bike_id": "013cc1c53e5d9685e8a89a29db454b23", "lat": 38.91696066666667, "fusion_lon": 0.0, "fusion_lat": 0.0, "type": "electric_scooter", "name": "013cc1c53e5d9685e8a89a29db454b23", "is_disabled": 0, "rental_uris": {"ios": "https://dc.lft.to/lastmile_qr_scan", "android": "https://dc.lft.to/lastmile_qr_scan"}, "is_reserved": 0}, {"lon": -77.02360633333333, "bike_id": "ba83a9bc32682f2fbb491b5b94c8a9f0", "lat": 38.89219583333333, "fusion_lon": 0.0, "fusion_lat": 0.0, "type": "electric_scooter", "name": "ba83a9bc32682f2fbb491b5b94c8a9f0", "is_disabled": 0, "rental_uris": {"ios": "https://dc.lft.to/lastmile_qr_scan", "android": "https://dc.lft.to/lastmile_qr_scan"}, "is_reserved": 0}, {"lon": -76.99455533333334, "bike_id": "e8d0d17c8c1ab66a9df688b370c6e65a", "lat": 38.86215983333334, "fusion_lon": 0.0, "fusion_lat": 0.0, "type": "electric_scooter", "name": "e8d0d17c8c1ab66a9df688b370c6e65a", "is_disabled": 0, "rental_uris": {"ios": "https://dc.lft.to/lastmile_qr_scan", "android": "https://dc.lft.to/lastmile_qr_scan"}, "is_reserved": 0}, {"lon": -76.9808685, "bike_id": "f28d759da6d6d7faa3662ed831d567f4", "lat": 38.95356733333333, "fusion_lon": 0.0, "fusion_lat": 0.0, "type": "electric_bike", "name": "f28d759da6d6d7faa3662ed831d567f4", "is_disabled": 0, "rental_uris": {"ios": "https://dc.lft.to/lastmile_qr_scan", "android": "https://dc.lft.to/lastmile_qr_scan"}, "is_reserved": 0}, {"lon": -77.0303415, "bike_id": "c9883d8cbe24a388f42eba2924ce6066", "lat": 38.93120183333333, "fusion_lon": 0.0, "fusion_lat": 0.0, "type": "electric_scooter", "name": "c9883d8cbe24a388f42eba2924ce6066", "is_disabled": 0, "rental_uris": {"ios": "https://dc.lft.to/lastmile_qr_scan", "android": "https://dc.lft.to/lastmile_qr_scan"}, "is_reserved": 0}, {"lon": -77.02868766666667, "bike_id": "ba29f6a1332ab92ca229d93956f8b1d2", "lat": 38.93279166666667, "fusion_lon": 0.0, "fusion_lat": 0.0, "type": "electric_scooter", "name": "ba29f6a1332ab92ca229d93956f8b1d2", "is_disabled": 0, "rental_uris": {"ios": "https://dc.lft.to/lastmile_qr_scan", "android": "https://dc.lft.to/lastmile_qr_scan"}, "is_reserved": 0}, {"lon": -77.054475, "bike_id": "67121953d245c2a9f759c2be67c6c710", "lat": 38.928670833333335, "fusion_lon": 0.0, "fusion_lat": 0.0, "type": "electric_scooter", "name": "67121953d245c2a9f759c2be67c6c710", "is_disabled": 0, "rental_uris": {"ios": "https://dc.lft.to/lastmile_qr_scan", "android": "https://dc.lft.to/lastmile_qr_scan"}, "is_reserved": 0}, {"lon": -77.03019816666666, "bike_id": "2a2ba114718ee41f86198d9d3093431f", "lat": 38.90241016666667, "fusion_lon": 0.0, "fusion_lat": 0.0, "type": "electric_scooter", "name": "2a2ba114718ee41f86198d9d3093431f", "is_disabled": 0, "rental_uris": {"ios": "https://dc.lft.to/lastmile_qr_scan", "android": "https://dc.lft.to/lastmile_qr_scan"}, "is_reserved": 0}, {"lon": -77.0077005, "bike_id": "a7bb89774e7b43df68ba1a8a6b04c421", "lat": 38.983855166666665, "fusion_lon": 0.0, "fusion_lat": 0.0, "type": "electric_bike", "name": "a7bb89774e7b43df68ba1a8a6b04c421", "is_disabled": 0, "rental_uris": {"ios": "https://dc.lft.to/lastmile_qr_scan", "android": "https://dc.lft.to/lastmile_qr_scan"}, "is_reserved": 0}, {"lon": -77.03651733333334, "bike_id": "80440997b6f4bbbf190aaf6e57894b71", "lat": 38.912797166666664, "fusion_lon": 0.0, "fusion_lat": 0.0, "type": "electric_scooter", "name": "80440997b6f4bbbf190aaf6e57894b71", "is_disabled": 0, "rental_uris": {"ios": "https://dc.lft.to/lastmile_qr_scan", "android": "https://dc.lft.to/lastmile_qr_scan"}, "is_reserved": 0}, {"lon": -77.03294316666667, "bike_id": "733ee098b770df2ce4b8f6f56d749a2e", "lat": 38.956528666666664, "fusion_lon": 0.0, "fusion_lat": 0.0, "type": "electric_scooter", "name": "733ee098b770df2ce4b8f6f56d749a2e", "is_disabled": 0, "rental_uris": {"ios": "https://dc.lft.to/lastmile_qr_scan", "android": "https://dc.lft.to/lastmile_qr_scan"}, "is_reserved": 0}, {"lon": -77.0264915, "bike_id": "609329620c781dcc6e37392ba8975f0f", "lat": 38.97571966666667, "fusion_lon": 0.0, "fusion_lat": 0.0, "type": "electric_scooter", "name": "609329620c781dcc6e37392ba8975f0f", "is_disabled": 0, "rental_uris": {"ios": "https://dc.lft.to/lastmile_qr_scan", "android": "https://dc.lft.to/lastmile_qr_scan"}, "is_reserved": 0}, {"lon": -76.93641633333333, "bike_id": "99298a1212c1237c6788a912504887b9", "lat": 38.90062433333333, "fusion_lon": 0.0, "fusion_lat": 0.0, "type": "electric_scooter", "name": "99298a1212c1237c6788a912504887b9", "is_disabled": 0, "rental_uris": {"ios": "https://dc.lft.to/lastmile_qr_scan", "android": "https://dc.lft.to/lastmile_qr_scan"}, "is_reserved": 0}, {"lon": -77.02820366666667, "bike_id": "a9db38e907b1c618c6d8907f5cf566b9", "lat": 38.96501833333333, "fusion_lon": 0.0, "fusion_lat": 0.0, "type": "electric_bike", "name": "a9db38e907b1c618c6d8907f5cf566b9", "is_disabled": 0, "rental_uris": {"ios": "https://dc.lft.to/lastmile_qr_scan", "android": "https://dc.lft.to/lastmile_qr_scan"}, "is_reserved": 0}, {"lon": -76.9301215, "bike_id": "02b476ade18584f0b8b1782d0f8e7375", "lat": 38.896524666666664, "fusion_lon": 0.0, "fusion_lat": 0.0, "type": "electric_bike", "name": "02b476ade18584f0b8b1782d0f8e7375", "is_disabled": 0, "rental_uris": {"ios": "https://dc.lft.to/lastmile_qr_scan", "android": "https://dc.lft.to/lastmile_qr_scan"}, "is_reserved": 0}, {"lon": -77.012976, "bike_id": "97b2f0a7e096fdf8a36b5a03cd1f8f6a", "lat": 38.90072983333334, "fusion_lon": 0.0, "fusion_lat": 0.0, "type": "electric_scooter", "name": "97b2f0a7e096fdf8a36b5a03cd1f8f6a", "is_disabled": 0, "rental_uris": {"ios": "https://dc.lft.to/lastmile_qr_scan", "android": "https://dc.lft.to/lastmile_qr_scan"}, "is_reserved": 0}, {"lon": -76.9987865, "bike_id": "cf89bf5fff72d51c8299da4ef34a665c", "lat": 38.90959466666666, "fusion_lon": 0.0, "fusion_lat": 0.0, "type": "electric_scooter", "name": "cf89bf5fff72d51c8299da4ef34a665c", "is_disabled": 0, "rental_uris": {"ios": "https://dc.lft.to/lastmile_qr_scan", "android": "https://dc.lft.to/lastmile_qr_scan"}, "is_reserved": 0}, {"lon": -77.0363885, "bike_id": "f95871ebd88083d3ad27331481bdee50", "lat": 38.921314, "fusion_lon": 0.0, "fusion_lat": 0.0, "type": "electric_bike", "name": "f95871ebd88083d3ad27331481bdee50", "is_disabled": 0, "rental_uris": {"ios": "https://dc.lft.to/lastmile_qr_scan", "android": "https://dc.lft.to/lastmile_qr_scan"}, "is_reserved": 0}, {"lon": -77.04203533333333, "bike_id": "702da549a560dd965788f670887bd1ec", "lat": 38.92625866666667, "fusion_lon": 0.0, "fusion_lat": 0.0, "type": "electric_scooter", "name": "702da549a560dd965788f670887bd1ec", "is_disabled": 0, "rental_uris": {"ios": "https://dc.lft.to/lastmile_qr_scan", "android": "https://dc.lft.to/lastmile_qr_scan"}, "is_reserved": 0}, {"lon": -77.01723733333333, "bike_id": "99d90787436e117e737ce44b83ead3f4", "lat": 38.943136333333335, "fusion_lon": 0.0, "fusion_lat": 0.0, "type": "electric_scooter", "name": "99d90787436e117e737ce44b83ead3f4", "is_disabled": 0, "rental_uris": {"ios": "https://dc.lft.to/lastmile_qr_scan", "android": "https://dc.lft.to/lastmile_qr_scan"}, "is_reserved": 0}, {"lon": -77.03806983333334, "bike_id": "a492a392df29a79be64914753a59dede", "lat": 38.920648166666666, "fusion_lon": 0.0, "fusion_lat": 0.0, "type": "electric_scooter", "name": "a492a392df29a79be64914753a59dede", "is_disabled": 0, "rental_uris": {"ios": "https://dc.lft.to/lastmile_qr_scan", "android": "https://dc.lft.to/lastmile_qr_scan"}, "is_reserved": 0}, {"lon": -77.03234166666667, "bike_id": "1c4aa3244180074781b09f324c41e4f5", "lat": 38.9268725, "fusion_lon": 0.0, "fusion_lat": 0.0, "type": "electric_scooter", "name": "1c4aa3244180074781b09f324c41e4f5", "is_disabled": 0, "rental_uris": {"ios": "https://dc.lft.to/lastmile_qr_scan", "android": "https://dc.lft.to/lastmile_qr_scan"}, "is_reserved": 0}, {"lon": -76.93178116666667, "bike_id": "9f3ac76827b540bbd578b20f0b7f73fe", "lat": 38.89881716666667, "fusion_lon": 0.0, "fusion_lat": 0.0, "type": "electric_scooter", "name": "9f3ac76827b540bbd578b20f0b7f73fe", "is_disabled": 0, "rental_uris": {"ios": "https://dc.lft.to/lastmile_qr_scan", "android": "https://dc.lft.to/lastmile_qr_scan"}, "is_reserved": 0}, {"lon": -77.01480066666667, "bike_id": "4e6fb01cc108b04315d5b885dfb2dc5f", "lat": 38.958678, "fusion_lon": 0.0, "fusion_lat": 0.0, "type": "electric_scooter", "name": "4e6fb01cc108b04315d5b885dfb2dc5f", "is_disabled": 0, "rental_uris": {"ios": "https://dc.lft.to/lastmile_qr_scan", "android": "https://dc.lft.to/lastmile_qr_scan"}, "is_reserved": 0}, {"lon": -77.01851066666667, "bike_id": "ec507c7d5bc1f5765b4261c2519ddb97", "lat": 38.912686666666666, "fusion_lon": 0.0, "fusion_lat": 0.0, "type": "electric_scooter", "name": "ec507c7d5bc1f5765b4261c2519ddb97", "is_disabled": 0, "rental_uris": {"ios": "https://dc.lft.to/lastmile_qr_scan", "android": "https://dc.lft.to/lastmile_qr_scan"}, "is_reserved": 0}, {"lon": -77.02609566666666, "bike_id": "07b9b92e405b61ce69e0608b72a3bd30", "lat": 38.929895333333334, "fusion_lon": 0.0, "fusion_lat": 0.0, "type": "electric_scooter", "name": "07b9b92e405b61ce69e0608b72a3bd30", "is_disabled": 0, "rental_uris": {"ios": "https://dc.lft.to/lastmile_qr_scan", "android": "https://dc.lft.to/lastmile_qr_scan"}, "is_reserved": 0}, {"lon": -77.11570283333333, "bike_id": "b73815ed4c6d6db7c0eff4eeeae2d21c", "lat": 38.99342266666667, "fusion_lon": 0.0, "fusion_lat": 0.0, "type": "electric_bike", "name": "b73815ed4c6d6db7c0eff4eeeae2d21c", "is_disabled": 0, "rental_uris": {"ios": "https://dc.lft.to/lastmile_qr_scan", "android": "https://dc.lft.to/lastmile_qr_scan"}, "is_reserved": 0}, {"lon": -77.030961, "bike_id": "0c619ce6b71157eade7d7981549a5da6", "lat": 38.90454183333333, "fusion_lon": 0.0, "fusion_lat": 0.0, "type": "electric_scooter", "name": "0c619ce6b71157eade7d7981549a5da6", "is_disabled": 0, "rental_uris": {"ios": "https://dc.lft.to/lastmile_qr_scan", "android": "https://dc.lft.to/lastmile_qr_scan"}, "is_reserved": 0}, {"lon": -77.05915933333333, "bike_id": "e2eaeb9b7d46578f44f828f9185001bb", "lat": 38.903845, "fusion_lon": 0.0, "fusion_lat": 0.0, "type": "electric_scooter", "name": "e2eaeb9b7d46578f44f828f9185001bb", "is_disabled": 0, "rental_uris": {"ios": "https://dc.lft.to/lastmile_qr_scan", "android": "https://dc.lft.to/lastmile_qr_scan"}, "is_reserved": 0}, {"lon": -77.139143, "bike_id": "cca87e6f20ed8069bed5944420a6f054", "lat": 38.8967955, "fusion_lon": 0.0, "fusion_lat": 0.0, "type": "electric_bike", "name": "cca87e6f20ed8069bed5944420a6f054", "is_disabled": 0, "rental_uris": {"ios": "https://dc.lft.to/lastmile_qr_scan", "android": "https://dc.lft.to/lastmile_qr_scan"}, "is_reserved": 0}, {"lon": -76.98601766666667, "bike_id": "40de03d8384827d549f66075f8f28fac", "lat": 38.90617133333333, "fusion_lon": 0.0, "fusion_lat": 0.0, "type": "electric_bike", "name": "40de03d8384827d549f66075f8f28fac", "is_disabled": 0, "rental_uris": {"ios": "https://dc.lft.to/lastmile_qr_scan", "android": "https://dc.lft.to/lastmile_qr_scan"}, "is_reserved": 0}, {"lon": -77.04177733333333, "bike_id": "2c1636bc389975846e7159a16afb3a14", "lat": 38.92018866666667, "fusion_lon": 0.0, "fusion_lat": 0.0, "type": "electric_scooter", "name": "2c1636bc389975846e7159a16afb3a14", "is_disabled": 0, "rental_uris": {"ios": "https://dc.lft.to/lastmile_qr_scan", "android": "https://dc.lft.to/lastmile_qr_scan"}, "is_reserved": 0}, {"lon": -77.03990833333333, "bike_id": "58c6f9aef97170dc9657b1d330f6efa1", "lat": 38.92466666666667, "fusion_lon": 0.0, "fusion_lat": 0.0, "type": "electric_scooter", "name": "58c6f9aef97170dc9657b1d330f6efa1", "is_disabled": 0, "rental_uris": {"ios": "https://dc.lft.to/lastmile_qr_scan", "android": "https://dc.lft.to/lastmile_qr_scan"}, "is_reserved": 0}, {"lon": -77.02399183333333, "bike_id": "5dbd3dbe5fcb7048462b3f547ccf0b97", "lat": 38.919964666666665, "fusion_lon": 0.0, "fusion_lat": 0.0, "type": "electric_scooter", "name": "5dbd3dbe5fcb7048462b3f547ccf0b97", "is_disabled": 0, "rental_uris": {"ios": "https://dc.lft.to/lastmile_qr_scan", "android": "https://dc.lft.to/lastmile_qr_scan"}, "is_reserved": 0}, {"lon": -77.02159633333333, "bike_id": "efb99f2a9e47f8cd8521cf22bd384d1a", "lat": 38.89216716666667, "fusion_lon": 0.0, "fusion_lat": 0.0, "type": "electric_scooter", "name": "efb99f2a9e47f8cd8521cf22bd384d1a", "is_disabled": 0, "rental_uris": {"ios": "https://dc.lft.to/lastmile_qr_scan", "android": "https://dc.lft.to/lastmile_qr_scan"}, "is_reserved": 0}, {"lon": -77.02595616666666, "bike_id": "50c557103865961ea9b32048dd412195", "lat": 38.926562833333335, "fusion_lon": 0.0, "fusion_lat": 0.0, "type": "electric_scooter", "name": "50c557103865961ea9b32048dd412195", "is_disabled": 0, "rental_uris": {"ios": "https://dc.lft.to/lastmile_qr_scan", "android": "https://dc.lft.to/lastmile_qr_scan"}, "is_reserved": 0}, {"lon": -77.04926933333333, "bike_id": "02911eb78fe81b9495ec51774d839005", "lat": 39.02927866666667, "fusion_lon": 0.0, "fusion_lat": 0.0, "type": "electric_bike", "name": "02911eb78fe81b9495ec51774d839005", "is_disabled": 0, "rental_uris": {"ios": "https://dc.lft.to/lastmile_qr_scan", "android": "https://dc.lft.to/lastmile_qr_scan"}, "is_reserved": 0}, {"lon": -77.04639216666666, "bike_id": "edc2921eafc391398ade345444f7ad21", "lat": 38.903422666666664, "fusion_lon": 0.0, "fusion_lat": 0.0, "type": "electric_scooter", "name": "edc2921eafc391398ade345444f7ad21", "is_disabled": 0, "rental_uris": {"ios": "https://dc.lft.to/lastmile_qr_scan", "android": "https://dc.lft.to/lastmile_qr_scan"}, "is_reserved": 0}, {"lon": -77.0481655, "bike_id": "8b08e3e8d6a6452eb0286aa313444c7a", "lat": 38.913316333333334, "fusion_lon": 0.0, "fusion_lat": 0.0, "type": "electric_scooter", "name": "8b08e3e8d6a6452eb0286aa313444c7a", "is_disabled": 0, "rental_uris": {"ios": "https://dc.lft.to/lastmile_qr_scan", "android": "https://dc.lft.to/lastmile_qr_scan"}, "is_reserved": 0}, {"lon": -77.024208, "bike_id": "57091f219b6e05fb6deb489d98daff37", "lat": 38.9140715, "fusion_lon": 0.0, "fusion_lat": 0.0, "type": "electric_scooter", "name": "57091f219b6e05fb6deb489d98daff37", "is_disabled": 0, "rental_uris": {"ios": "https://dc.lft.to/lastmile_qr_scan", "android": "https://dc.lft.to/lastmile_qr_scan"}, "is_reserved": 0}, {"lon": -77.02395966666667, "bike_id": "db774308819f0b749775fbc3ec9a6297", "lat": 38.93488133333334, "fusion_lon": 0.0, "fusion_lat": 0.0, "type": "electric_scooter", "name": "db774308819f0b749775fbc3ec9a6297", "is_disabled": 0, "rental_uris": {"ios": "https://dc.lft.to/lastmile_qr_scan", "android": "https://dc.lft.to/lastmile_qr_scan"}, "is_reserved": 0}, {"lon": -77.03389433333334, "bike_id": "3b1ebf3d4fb37c72219994de6906f21b", "lat": 38.93841333333334, "fusion_lon": 0.0, "fusion_lat": 0.0, "type": "electric_scooter", "name": "3b1ebf3d4fb37c72219994de6906f21b", "is_disabled": 0, "rental_uris": {"ios": "https://dc.lft.to/lastmile_qr_scan", "android": "https://dc.lft.to/lastmile_qr_scan"}, "is_reserved": 0}, {"lon": -77.021675, "bike_id": "ffe69e1af189e080f3497774c90749c0", "lat": 38.8874765, "fusion_lon": 0.0, "fusion_lat": 0.0, "type": "electric_scooter", "name": "ffe69e1af189e080f3497774c90749c0", "is_disabled": 0, "rental_uris": {"ios": "https://dc.lft.to/lastmile_qr_scan", "android": "https://dc.lft.to/lastmile_qr_scan"}, "is_reserved": 0}, {"lon": -77.03177816666667, "bike_id": "a182e75d7e822123eadd48e783ebfcaa", "lat": 38.895753666666664, "fusion_lon": 0.0, "fusion_lat": 0.0, "type": "electric_scooter", "name": "a182e75d7e822123eadd48e783ebfcaa", "is_disabled": 0, "rental_uris": {"ios": "https://dc.lft.to/lastmile_qr_scan", "android": "https://dc.lft.to/lastmile_qr_scan"}, "is_reserved": 0}, {"lon": -76.98881383333334, "bike_id": "040c74eaa0eb5db2df9d7ad805355e98", "lat": 38.86659516666667, "fusion_lon": 0.0, "fusion_lat": 0.0, "type": "electric_scooter", "name": "040c74eaa0eb5db2df9d7ad805355e98", "is_disabled": 0, "rental_uris": {"ios": "https://dc.lft.to/lastmile_qr_scan", "android": "https://dc.lft.to/lastmile_qr_scan"}, "is_reserved": 0}, {"lon": -77.02305833333334, "bike_id": "0ee1a66dc845c2b4680bddfc406df395", "lat": 38.940990166666666, "fusion_lon": 0.0, "fusion_lat": 0.0, "type": "electric_scooter", "name": "0ee1a66dc845c2b4680bddfc406df395", "is_disabled": 0, "rental_uris": {"ios": "https://dc.lft.to/lastmile_qr_scan", "android": "https://dc.lft.to/lastmile_qr_scan"}, "is_reserved": 0}, {"lon": -77.0296065, "bike_id": "5550b653c806a30a72cfac06569ac0f3", "lat": 38.921567333333336, "fusion_lon": 0.0, "fusion_lat": 0.0, "type": "electric_scooter", "name": "5550b653c806a30a72cfac06569ac0f3", "is_disabled": 0, "rental_uris": {"ios": "https://dc.lft.to/lastmile_qr_scan", "android": "https://dc.lft.to/lastmile_qr_scan"}, "is_reserved": 0}, {"lon": -77.0325795, "bike_id": "914f8255ba614bfd648dd9205be869b3", "lat": 38.941550666666664, "fusion_lon": 0.0, "fusion_lat": 0.0, "type": "electric_scooter", "name": "914f8255ba614bfd648dd9205be869b3", "is_disabled": 0, "rental_uris": {"ios": "https://dc.lft.to/lastmile_qr_scan", "android": "https://dc.lft.to/lastmile_qr_scan"}, "is_reserved": 0}, {"lon": -77.03673766666667, "bike_id": "83f6d3c504297a1a9ec538f0ed3a6899", "lat": 38.916947, "fusion_lon": 0.0, "fusion_lat": 0.0, "type": "electric_scooter", "name": "83f6d3c504297a1a9ec538f0ed3a6899", "is_disabled": 0, "rental_uris": {"ios": "https://dc.lft.to/lastmile_qr_scan", "android": "https://dc.lft.to/lastmile_qr_scan"}, "is_reserved": 0}, {"lon": -77.0095085, "bike_id": "7ad921ddb5958946b19a24ee7c5c3140", "lat": 38.87630433333333, "fusion_lon": 0.0, "fusion_lat": 0.0, "type": "electric_scooter", "name": "7ad921ddb5958946b19a24ee7c5c3140", "is_disabled": 0, "rental_uris": {"ios": "https://dc.lft.to/lastmile_qr_scan", "android": "https://dc.lft.to/lastmile_qr_scan"}, "is_reserved": 0}, {"lon": -77.00731016666667, "bike_id": "067528a77a4eca752bf962e7a119f85c", "lat": 38.898889833333335, "fusion_lon": 0.0, "fusion_lat": 0.0, "type": "electric_scooter", "name": "067528a77a4eca752bf962e7a119f85c", "is_disabled": 0, "rental_uris": {"ios": "https://dc.lft.to/lastmile_qr_scan", "android": "https://dc.lft.to/lastmile_qr_scan"}, "is_reserved": 0}, {"lon": -76.98110333333334, "bike_id": "43fd0918627a9a2f00d9da18eebbd8cf", "lat": 38.904180833333335, "fusion_lon": 0.0, "fusion_lat": 0.0, "type": "electric_scooter", "name": "43fd0918627a9a2f00d9da18eebbd8cf", "is_disabled": 0, "rental_uris": {"ios": "https://dc.lft.to/lastmile_qr_scan", "android": "https://dc.lft.to/lastmile_qr_scan"}, "is_reserved": 0}, {"lon": -77.051282, "bike_id": "cee98db72979f8b29c0a9455ab3494f3", "lat": 38.923617, "fusion_lon": 0.0, "fusion_lat": 0.0, "type": "electric_scooter", "name": "cee98db72979f8b29c0a9455ab3494f3", "is_disabled": 0, "rental_uris": {"ios": "https://dc.lft.to/lastmile_qr_scan", "android": "https://dc.lft.to/lastmile_qr_scan"}, "is_reserved": 0}, {"lon": -76.98008116666666, "bike_id": "7220172c4e3fceae7f98f260f4ee12fa", "lat": 38.90432533333333, "fusion_lon": 0.0, "fusion_lat": 0.0, "type": "electric_scooter", "name": "7220172c4e3fceae7f98f260f4ee12fa", "is_disabled": 0, "rental_uris": {"ios": "https://dc.lft.to/lastmile_qr_scan", "android": "https://dc.lft.to/lastmile_qr_scan"}, "is_reserved": 0}, {"lon": -77.00359366666666, "bike_id": "f16da122430e71af22dfd26b7d235c53", "lat": 38.8993765, "fusion_lon": 0.0, "fusion_lat": 0.0, "type": "electric_scooter", "name": "f16da122430e71af22dfd26b7d235c53", "is_disabled": 0, "rental_uris": {"ios": "https://dc.lft.to/lastmile_qr_scan", "android": "https://dc.lft.to/lastmile_qr_scan"}, "is_reserved": 0}, {"lon": -77.05053566666666, "bike_id": "8487342899423b9b4397c4559a892fbb", "lat": 38.92369566666667, "fusion_lon": 0.0, "fusion_lat": 0.0, "type": "electric_scooter", "name": "8487342899423b9b4397c4559a892fbb", "is_disabled": 0, "rental_uris": {"ios": "https://dc.lft.to/lastmile_qr_scan", "android": "https://dc.lft.to/lastmile_qr_scan"}, "is_reserved": 0}, {"lon": -77.03264683333333, "bike_id": "45d926161975e577db46314f00f4431d", "lat": 38.91998666666667, "fusion_lon": 0.0, "fusion_lat": 0.0, "type": "electric_scooter", "name": "45d926161975e577db46314f00f4431d", "is_disabled": 0, "rental_uris": {"ios": "https://dc.lft.to/lastmile_qr_scan", "android": "https://dc.lft.to/lastmile_qr_scan"}, "is_reserved": 0}, {"lon": -77.05508716666667, "bike_id": "36236970a086f089e415620a467d5625", "lat": 38.904403, "fusion_lon": 0.0, "fusion_lat": 0.0, "type": "electric_scooter", "name": "36236970a086f089e415620a467d5625", "is_disabled": 0, "rental_uris": {"ios": "https://dc.lft.to/lastmile_qr_scan", "android": "https://dc.lft.to/lastmile_qr_scan"}, "is_reserved": 0}, {"lon": -77.03447466666667, "bike_id": "ea804d257d13ddda59c76ae5769c1f82", "lat": 38.9343055, "fusion_lon": 0.0, "fusion_lat": 0.0, "type": "electric_scooter", "name": "ea804d257d13ddda59c76ae5769c1f82", "is_disabled": 0, "rental_uris": {"ios": "https://dc.lft.to/lastmile_qr_scan", "android": "https://dc.lft.to/lastmile_qr_scan"}, "is_reserved": 0}, {"lon": -77.01155016666667, "bike_id": "0b7dd9cfa44ac89526c95e224a7f44d9", "lat": 38.8960625, "fusion_lon": 0.0, "fusion_lat": 0.0, "type": "electric_scooter", "name": "0b7dd9cfa44ac89526c95e224a7f44d9", "is_disabled": 0, "rental_uris": {"ios": "https://dc.lft.to/lastmile_qr_scan", "android": "https://dc.lft.to/lastmile_qr_scan"}, "is_reserved": 0}, {"lon": -77.04894766666666, "bike_id": "94ac0dd2e577664bebbdde3c623c2dce", "lat": 38.89235816666667, "fusion_lon": 0.0, "fusion_lat": 0.0, "type": "electric_scooter", "name": "94ac0dd2e577664bebbdde3c623c2dce", "is_disabled": 0, "rental_uris": {"ios": "https://dc.lft.to/lastmile_qr_scan", "android": "https://dc.lft.to/lastmile_qr_scan"}, "is_reserved": 0}, {"lon": -77.046005, "bike_id": "7a7e758415745202f7ab85d495332faa", "lat": 38.9076545, "fusion_lon": 0.0, "fusion_lat": 0.0, "type": "electric_scooter", "name": "7a7e758415745202f7ab85d495332faa", "is_disabled": 0, "rental_uris": {"ios": "https://dc.lft.to/lastmile_qr_scan", "android": "https://dc.lft.to/lastmile_qr_scan"}, "is_reserved": 0}, {"lon": -77.0327985, "bike_id": "52c8059c50aa39c35a7bc9b25899aa41", "lat": 38.93455683333333, "fusion_lon": 0.0, "fusion_lat": 0.0, "type": "electric_scooter", "name": "52c8059c50aa39c35a7bc9b25899aa41", "is_disabled": 0, "rental_uris": {"ios": "https://dc.lft.to/lastmile_qr_scan", "android": "https://dc.lft.to/lastmile_qr_scan"}, "is_reserved": 0}, {"lon": -77.02162216666666, "bike_id": "1d08643b727abe9aeb7612162ede49a3", "lat": 38.909708, "fusion_lon": 0.0, "fusion_lat": 0.0, "type": "electric_scooter", "name": "1d08643b727abe9aeb7612162ede49a3", "is_disabled": 0, "rental_uris": {"ios": "https://dc.lft.to/lastmile_qr_scan", "android": "https://dc.lft.to/lastmile_qr_scan"}, "is_reserved": 0}, {"lon": -76.954749, "bike_id": "d8cd5f62df759b3ecc6f7281675e2f3b", "lat": 38.886639, "fusion_lon": 0.0, "fusion_lat": 0.0, "type": "electric_scooter", "name": "d8cd5f62df759b3ecc6f7281675e2f3b", "is_disabled": 0, "rental_uris": {"ios": "https://dc.lft.to/lastmile_qr_scan", "android": "https://dc.lft.to/lastmile_qr_scan"}, "is_reserved": 0}, {"lon": -77.02494166666666, "bike_id": "1fa580fa1ccce6e39591cf2a83f7b760", "lat": 38.925922, "fusion_lon": 0.0, "fusion_lat": 0.0, "type": "electric_scooter", "name": "1fa580fa1ccce6e39591cf2a83f7b760", "is_disabled": 0, "rental_uris": {"ios": "https://dc.lft.to/lastmile_qr_scan", "android": "https://dc.lft.to/lastmile_qr_scan"}, "is_reserved": 0}, {"lon": -76.998818, "bike_id": "8aa721fdb2d21b86baa974b21e2dde59", "lat": 38.92057783333333, "fusion_lon": 0.0, "fusion_lat": 0.0, "type": "electric_scooter", "name": "8aa721fdb2d21b86baa974b21e2dde59", "is_disabled": 0, "rental_uris": {"ios": "https://dc.lft.to/lastmile_qr_scan", "android": "https://dc.lft.to/lastmile_qr_scan"}, "is_reserved": 0}, {"lon": -77.00552816666666, "bike_id": "9c4a9624ec3c04dcc8f8d30826e81b70", "lat": 38.87470533333333, "fusion_lon": 0.0, "fusion_lat": 0.0, "type": "electric_scooter", "name": "9c4a9624ec3c04dcc8f8d30826e81b70", "is_disabled": 0, "rental_uris": {"ios": "https://dc.lft.to/lastmile_qr_scan", "android": "https://dc.lft.to/lastmile_qr_scan"}, "is_reserved": 0}, {"lon": -76.9867475, "bike_id": "c62625d807babe482731720217789730", "lat": 38.86734366666666, "fusion_lon": 0.0, "fusion_lat": 0.0, "type": "electric_scooter", "name": "c62625d807babe482731720217789730", "is_disabled": 0, "rental_uris": {"ios": "https://dc.lft.to/lastmile_qr_scan", "android": "https://dc.lft.to/lastmile_qr_scan"}, "is_reserved": 0}, {"lon": -77.036766, "bike_id": "4a31ee20dbb9818a9c993abf674b68ea", "lat": 38.93641933333333, "fusion_lon": 0.0, "fusion_lat": 0.0, "type": "electric_bike", "name": "4a31ee20dbb9818a9c993abf674b68ea", "is_disabled": 0, "rental_uris": {"ios": "https://dc.lft.to/lastmile_qr_scan", "android": "https://dc.lft.to/lastmile_qr_scan"}, "is_reserved": 0}, {"lon": -77.03430833333333, "bike_id": "5b6cf0502eb2aa2cea010f80bec591a3", "lat": 38.90278716666667, "fusion_lon": 0.0, "fusion_lat": 0.0, "type": "electric_scooter", "name": "5b6cf0502eb2aa2cea010f80bec591a3", "is_disabled": 0, "rental_uris": {"ios": "https://dc.lft.to/lastmile_qr_scan", "android": "https://dc.lft.to/lastmile_qr_scan"}, "is_reserved": 0}, {"lon": -77.01213666666666, "bike_id": "719ff70a0060ae019450fc59deab398c", "lat": 38.914375, "fusion_lon": 0.0, "fusion_lat": 0.0, "type": "electric_scooter", "name": "719ff70a0060ae019450fc59deab398c", "is_disabled": 0, "rental_uris": {"ios": "https://dc.lft.to/lastmile_qr_scan", "android": "https://dc.lft.to/lastmile_qr_scan"}, "is_reserved": 0}, {"lon": -77.0244015, "bike_id": "a683e3fdf101dae5f5487895f8e22895", "lat": 38.924969833333336, "fusion_lon": 0.0, "fusion_lat": 0.0, "type": "electric_scooter", "name": "a683e3fdf101dae5f5487895f8e22895", "is_disabled": 0, "rental_uris": {"ios": "https://dc.lft.to/lastmile_qr_scan", "android": "https://dc.lft.to/lastmile_qr_scan"}, "is_reserved": 0}, {"lon": -76.9954755, "bike_id": "955ed7aad96d4f81de14f41b14bea7da", "lat": 38.8626305, "fusion_lon": 0.0, "fusion_lat": 0.0, "type": "electric_scooter", "name": "955ed7aad96d4f81de14f41b14bea7da", "is_disabled": 0, "rental_uris": {"ios": "https://dc.lft.to/lastmile_qr_scan", "android": "https://dc.lft.to/lastmile_qr_scan"}, "is_reserved": 0}, {"lon": -76.96380416666666, "bike_id": "70576d8db4a2df931b3c42220b2df57e", "lat": 38.9517985, "fusion_lon": 0.0, "fusion_lat": 0.0, "type": "electric_bike", "name": "70576d8db4a2df931b3c42220b2df57e", "is_disabled": 0, "rental_uris": {"ios": "https://dc.lft.to/lastmile_qr_scan", "android": "https://dc.lft.to/lastmile_qr_scan"}, "is_reserved": 0}, {"lon": -77.00054983333334, "bike_id": "a8ed868c56abb293efbd6a88712a37c2", "lat": 38.90884783333333, "fusion_lon": 0.0, "fusion_lat": 0.0, "type": "electric_scooter", "name": "a8ed868c56abb293efbd6a88712a37c2", "is_disabled": 0, "rental_uris": {"ios": "https://dc.lft.to/lastmile_qr_scan", "android": "https://dc.lft.to/lastmile_qr_scan"}, "is_reserved": 0}, {"lon": -77.048163, "bike_id": "fbd51d79fb32a68121e77ee7d25a71e4", "lat": 38.916343499999996, "fusion_lon": 0.0, "fusion_lat": 0.0, "type": "electric_scooter", "name": "fbd51d79fb32a68121e77ee7d25a71e4", "is_disabled": 0, "rental_uris": {"ios": "https://dc.lft.to/lastmile_qr_scan", "android": "https://dc.lft.to/lastmile_qr_scan"}, "is_reserved": 0},