{"data": {"bikes": [{"is_disabled": 0, "fusion_lat": 0.0, "lat": 38.904294666666665, "type": "electric_scooter", "lon": -77.04856716666667, "is_reserved": 0, "fusion_lon": 0.0, "bike_id": "e8a72cf480bcc88bc985b46ba9eeb3e1", "name": "e8a72cf480bcc88bc985b46ba9eeb3e1", "rental_uris": {"ios": "https://dc.lft.to/lastmile_qr_scan", "android": "https://dc.lft.to/lastmile_qr_scan"}}, {"is_disabled": 0, "fusion_lat": 0.0, "lat": 38.89835216666667, "type": "electric_scooter", "lon": -76.94632966666667, "is_reserved": 0, "fusion_lon": 0.0, "bike_id": "95d8cb4615e235ecab4e2cb04be52e75", "name": "95d8cb4615e235ecab4e2cb04be52e75", "rental_uris": {"ios": "https://dc.lft.to/lastmile_qr_scan", "android": "https://dc.lft.to/lastmile_qr_scan"}}, {"is_disabled": 0, "fusion_lat": 0.0, "lat": 38.915536, "type": "electric_scooter", "lon": -77.00948833333334, "is_reserved": 0, "fusion_lon": 0.0, "bike_id": "902c97b6f9491d74d082c8a81ca076d2", "name": "902c97b6f9491d74d082c8a81ca076d2", "rental_uris": {"ios": "https://dc.lft.to/lastmile_qr_scan", "android": "https://dc.lft.to/lastmile_qr_scan"}}, {"is_disabled": 0, "fusion_lat": 0.0, "lat": 38.91822966666667, "type": "electric_scooter", "lon": -77.03639833333334, "is_reserved": 0, "fusion_lon": 0.0, "bike_id": "06e991f5e6fd9eb8049b79a95e5afeb9", "name": "06e991f5e6fd9eb8049b79a95e5afeb9", "rental_uris": {"ios": "https://dc.lft.to/lastmile_qr_scan", "android": "https://dc.lft.to/lastmile_qr_scan"}}, {"is_disabled": 0, "fusion_lat": 0.0, "lat": 38.9100965, "type": "electric_scooter", "lon": -77.04005283333333, "is_reserved": 0, "fusion_lon": 0.0, "bike_id": "49390243b98f34fd50e6feef9df16bc4", "name": "49390243b98f34fd50e6feef9df16bc4", "rental_uris": {"ios": "https://dc.lft.to/lastmile_qr_scan", "android": "https://dc.lft.to/lastmile_qr_scan"}}, {"is_disabled": 0, "fusion_lat": 0.0, "lat": 38.9348965, "type": "electric_scooter", "lon": -77.02403183333334, "is_reserved": 0, "fusion_lon": 0.0, "bike_id": "5f37a2e8e021b37d57f5f484526acde7", "name": "5f37a2e8e021b37d57f5f484526acde7", "rental_uris": {"ios": "https://dc.lft.to/lastmile_qr_scan", "android": "https://dc.lft.to/lastmile_qr_scan"}}, {"is_disabled": 0, "fusion_lat": 0.0, "lat": 38.9233315, "type": "electric_scooter", "lon": -77.04331116666667, "is_reserved": 0, "fusion_lon": 0.0, "bike_id": "d6695fcc09f95a2328edcaecc3fed8bb", "name": "d6695fcc09f95a2328edcaecc3fed8bb", "rental_uris": {"ios": "https://dc.lft.to/lastmile_qr_scan", "android": "https://dc.lft.to/lastmile_qr_scan"}}, {"is_disabled": 0, "fusion_lat": 0.0, "lat": 38.922563, "type": "electric_scooter", "lon": -77.04255333333333, "is_reserved": 0, "fusion_lon": 0.0, "bike_id": "36ca9c7197f05d701429ef182720ca60", "name": "36ca9c7197f05d701429ef182720ca60", "rental_uris": {"ios": "https://dc.lft.to/lastmile_qr_scan", "android": "https://dc.lft.to/lastmile_qr_scan"}}, {"is_disabled": 0, "fusion_lat": 0.0, "lat": 38.924640833333335, "type": "electric_scooter", "lon": -77.078665, "is_reserved": 0, "fusion_lon": 0.0, "bike_id": "df967016430682f4ab93d95c5dd39287", "name": "df967016430682f4ab93d95c5dd39287", "rental_uris": {"ios": "https://dc.lft.to/lastmile_qr_scan", "android": "https://dc.lft.to/lastmile_qr_scan"}}, {"is_disabled": 0, "fusion_lat": 0.0, "lat": 39.051963666666666, "type": "electric_bike", "lon": -77.10921433333333, "is_reserved": 0, "fusion_lon": 0.0, "bike_id": "e65bc086518fa68fc7d8cc0a004a6a8c", "name": "e65bc086518fa68fc7d8cc0a004a6a8c", "rental_uris": {"ios": "https://dc.lft.to/lastmile_qr_scan", "android": "https://dc.lft.to/lastmile_qr_scan"}}, {"is_disabled": 0, "fusion_lat": 0.0, "lat": 38.90150283333333, "type": "electric_scooter", "lon": -77.04267216666666, "is_reserved": 0, "fusion_lon": 0.0, "bike_id": "c69ba4bc6e43533962ae3940aadcfc3b", "name": "c69ba4bc6e43533962ae3940aadcfc3b", "rental_uris": {"ios": "https://dc.lft.to/lastmile_qr_scan", "android": "https://dc.lft.to/lastmile_qr_scan"}}, {"is_disabled": 0, "fusion_lat": 0.0, "lat": 38.89605016666667, "type": "electric_scooter", "lon": -77.0093045, "is_reserved": 0, "fusion_lon": 0.0, "bike_id": "741ee76d74d06816a6ed914c9a2d6340", "name": "741ee76d74d06816a6ed914c9a2d6340", "rental_uris": {"ios": "https://dc.lft.to/lastmile_qr_scan", "android": "https://dc.lft.to/lastmile_qr_scan"}}, {"is_disabled": 0, "fusion_lat": 0.0, "lat": 38.958782666666664, "type": "electric_bike", "lon": -76.92481366666667, "is_reserved": 0, "fusion_lon": 0.0, "bike_id": "a4c6f434f2b6def6d94cbad4794be6a2", "name": "a4c6f434f2b6def6d94cbad4794be6a2", "rental_uris": {"ios": "https://dc.lft.to/lastmile_qr_scan", "android": "https://dc.lft.to/lastmile_qr_scan"}}, {"is_disabled": 0, "fusion_lat": 0.0, "lat": 38.932485666666665, "type": "electric_scooter", "lon": -77.040047, "is_reserved": 0, "fusion_lon": 0.0, "bike_id": "f67bd3fd3c165b87d35ba7cec23ad19e", "name": "f67bd3fd3c165b87d35ba7cec23ad19e", "rental_uris": {"ios": "https://dc.lft.to/lastmile_qr_scan", "android": "https://dc.lft.to/lastmile_qr_scan"}}, {"is_disabled": 0, "fusion_lat": 0.0, "lat": 38.973256, "type": "electric_bike", "lon": -77.02137766666667, "is_reserved": 0, "fusion_lon": 0.0, "bike_id": "34b8ee0df0b21975a1a316509ea67b1b", "name": "34b8ee0df0b21975a1a316509ea67b1b", "rental_uris": {"ios": "https://dc.lft.to/lastmile_qr_scan", "android": "https://dc.lft.to/lastmile_qr_scan"}}, {"is_disabled": 0, "fusion_lat": 0.0, "lat": 38.900727833333335, "type": "electric_scooter", "lon": -76.9983295, "is_reserved": 0, "fusion_lon": 0.0, "bike_id": "1a3adec9a2a133a878a56d7c41239f6d", "name": "1a3adec9a2a133a878a56d7c41239f6d", "rental_uris": {"ios": "https://dc.lft.to/lastmile_qr_scan", "android": "https://dc.lft.to/lastmile_qr_scan"}}, {"is_disabled": 0, "fusion_lat": 0.0, "lat": 38.881812333333336, "type": "electric_scooter", "lon": -77.02808516666667, "is_reserved": 0, "fusion_lon": 0.0, "bike_id": "e79b9ee002c26a6e340aa7d8a5da3a79", "name": "e79b9ee002c26a6e340aa7d8a5da3a79", "rental_uris": {"ios": "https://dc.lft.to/lastmile_qr_scan", "android": "https://dc.lft.to/lastmile_qr_scan"}}, {"is_disabled": 0, "fusion_lat": 0.0, "lat": 38.9033025, "type": "electric_scooter", "lon": -77.03831733333334, "is_reserved": 0, "fusion_lon": 0.0, "bike_id": "9b136c4dd3b936e087c7dcaf89db74cb", "name": "9b136c4dd3b936e087c7dcaf89db74cb", "rental_uris": {"ios": "https://dc.lft.to/lastmile_qr_scan", "android": "https://dc.lft.to/lastmile_qr_scan"}}, {"is_disabled": 0, "fusion_lat": 0.0, "lat": 38.92545116666667, "type": "electric_scooter", "lon": -76.981132, "is_reserved": 0, "fusion_lon": 0.0, "bike_id": "783f007d000ca6ee6c13cb72665b0c42", "name": "783f007d000ca6ee6c13cb72665b0c42", "rental_uris": {"ios": "https://dc.lft.to/lastmile_qr_scan", "android": "https://dc.lft.to/lastmile_qr_scan"}}, {"is_disabled": 0, "fusion_lat": 0.0, "lat": 38.8442565, "type": "electric_scooter", "lon": -76.99773933333333, "is_reserved": 0, "fusion_lon": 0.0, "bike_id": "f5f84df63e6e3b4ab4b03d6f5c818a8b", "name": "f5f84df63e6e3b4ab4b03d6f5c818a8b", "rental_uris": {"ios": "https://dc.lft.to/lastmile_qr_scan", "android": "https://dc.lft.to/lastmile_qr_scan"}}, {"is_disabled": 0, "fusion_lat": 0.0, "lat": 38.921230333333334, "type": "electric_scooter", "lon": -77.04585066666667, "is_reserved": 0, "fusion_lon": 0.0, "bike_id": "12ba121ea77472cf44e93a9cfaa37dfa", "name": "12ba121ea77472cf44e93a9cfaa37dfa", "rental_uris": {"ios": "https://dc.lft.to/lastmile_qr_scan", "android": "https://dc.lft.to/lastmile_qr_scan"}}, {"is_disabled": 0, "fusion_lat": 0.0, "lat": 38.8692405, "type": "electric_scooter", "lon": -76.9831725, "is_reserved": 0, "fusion_lon": 0.0, "bike_id": "0b2b3405ff7d777b144f5d9f83efea0f", "name": "0b2b3405ff7d777b144f5d9f83efea0f", "rental_uris": {"ios": "https://dc.lft.to/lastmile_qr_scan", "android": "https://dc.lft.to/lastmile_qr_scan"}}, {"is_disabled": 0, "fusion_lat": 0.0, "lat": 38.90442616666667, "type": "electric_scooter", "lon": -77.03240483333333, "is_reserved": 0, "fusion_lon": 0.0, "bike_id": "f264d2dabbb2a16f179a634ecc9a2356", "name": "f264d2dabbb2a16f179a634ecc9a2356", "rental_uris": {"ios": "https://dc.lft.to/lastmile_qr_scan", "android": "https://dc.lft.to/lastmile_qr_scan"}}, {"is_disabled": 0, "fusion_lat": 0.0, "lat": 38.885047666666665, "type": "electric_scooter", "lon": -77.00558983333333, "is_reserved": 0, "fusion_lon": 0.0, "bike_id": "bc3b9e2614473c59809bb62d1fe64914", "name": "bc3b9e2614473c59809bb62d1fe64914", "rental_uris": {"ios": "https://dc.lft.to/lastmile_qr_scan", "android": "https://dc.lft.to/lastmile_qr_scan"}}, {"is_disabled": 0, "fusion_lat": 0.0, "lat": 38.98659966666666, "type": "electric_bike", "lon": -77.05641166666666, "is_reserved": 0, "fusion_lon": 0.0, "bike_id": "349cef902cad2822c0f1d55d2a0b857c", "name": "349cef902cad2822c0f1d55d2a0b857c", "rental_uris": {"ios": "https://dc.lft.to/lastmile_qr_scan", "android": "https://dc.lft.to/lastmile_qr_scan"}}, {"is_disabled": 0, "fusion_lat": 0.0, "lat": 38.911759333333336, "type": "electric_scooter", "lon": -77.068281, "is_reserved": 0, "fusion_lon": 0.0, "bike_id": "63fabd3668c1ae33019e8d62156cc337", "name": "63fabd3668c1ae33019e8d62156cc337", "rental_uris": {"ios": "https://dc.lft.to/lastmile_qr_scan", "android": "https://dc.lft.to/lastmile_qr_scan"}}, {"is_disabled": 0, "fusion_lat": 0.0, "lat": 38.875227, "type": "electric_scooter", "lon": -77.00067833333334, "is_reserved": 0, "fusion_lon": 0.0, "bike_id": "a9ccc180830b1913788f4d6b224ea0bc", "name": "a9ccc180830b1913788f4d6b224ea0bc", "rental_uris": {"ios": "https://dc.lft.to/lastmile_qr_scan", "android": "https://dc.lft.to/lastmile_qr_scan"}}, {"is_disabled": 0, "fusion_lat": 0.0, "lat": 38.903234833333336, "type": "electric_scooter", "lon": -77.04310933333333, "is_reserved": 0, "fusion_lon": 0.0, "bike_id": "f7c72e4d53f6655a9be85b353a7245c0", "name": "f7c72e4d53f6655a9be85b353a7245c0", "rental_uris": {"ios": "https://dc.lft.to/lastmile_qr_scan", "android": "https://dc.lft.to/lastmile_qr_scan"}}, {"is_disabled": 0, "fusion_lat": 0.0, "lat": 38.9355765, "type": "electric_scooter", "lon": -77.029558, "is_reserved": 0, "fusion_lon": 0.0, "bike_id": "de5813609a93c7626c9b1fd6a3593b6c", "name": "de5813609a93c7626c9b1fd6a3593b6c", "rental_uris": {"ios": "https://dc.lft.to/lastmile_qr_scan", "android": "https://dc.lft.to/lastmile_qr_scan"}}, {"is_disabled": 0, "fusion_lat": 0.0, "lat": 38.89894183333333, "type": "electric_scooter", "lon": -76.93301983333333, "is_reserved": 0, "fusion_lon": 0.0, "bike_id": "e8348b2d6dc21dbc262a62fb5158b739", "name": "e8348b2d6dc21dbc262a62fb5158b739", "rental_uris": {"ios": "https://dc.lft.to/lastmile_qr_scan", "android": "https://dc.lft.to/lastmile_qr_scan"}}, {"is_disabled": 0, "fusion_lat": 0.0, "lat": 38.917823166666665, "type": "electric_scooter", "lon": -77.02413183333333, "is_reserved": 0, "fusion_lon": 0.0, "bike_id": "fe8e74f15205a8ac43bd3a0d4ea0d984", "name": "fe8e74f15205a8ac43bd3a0d4ea0d984", "rental_uris": {"ios": "https://dc.lft.to/lastmile_qr_scan", "android": "https://dc.lft.to/lastmile_qr_scan"}}, {"is_disabled": 0, "fusion_lat": 0.0, "lat": 38.91569033333333, "type": "electric_scooter", "lon": -77.011902, "is_reserved": 0, "fusion_lon": 0.0, "bike_id": "7dae51df6603b2d386dbaea7964db50e", "name": "7dae51df6603b2d386dbaea7964db50e", "rental_uris": {"ios": "https://dc.lft.to/lastmile_qr_scan", "android": "https://dc.lft.to/lastmile_qr_scan"}}, {"is_disabled": 0, "fusion_lat": 0.0, "lat": 38.89989516666667, "type": "electric_scooter", "lon": -77.0523655, "is_reserved": 0, "fusion_lon": 0.0, "bike_id": "73bf1c383a4a27f1cefc1bbc09b207b5", "name": "73bf1c383a4a27f1cefc1bbc09b207b5", "rental_uris": {"ios": "https://dc.lft.to/lastmile_qr_scan", "android": "https://dc.lft.to/lastmile_qr_scan"}}, {"is_disabled": 0, "fusion_lat": 0.0, "lat": 38.866556, "type": "electric_scooter", "lon": -76.99009066666666, "is_reserved": 0, "fusion_lon": 0.0, "bike_id": "439d03cf883117baaf73cb01c2358d9c", "name": "439d03cf883117baaf73cb01c2358d9c", "rental_uris": {"ios": "https://dc.lft.to/lastmile_qr_scan", "android": "https://dc.lft.to/lastmile_qr_scan"}}, {"is_disabled": 0, "fusion_lat": 0.0, "lat": 38.91983183333333, "type": "electric_scooter", "lon": -77.04159166666666, "is_reserved": 0, "fusion_lon": 0.0, "bike_id": "09cdeec2112ee21833a04b8ead5eb4df", "name": "09cdeec2112ee21833a04b8ead5eb4df", "rental_uris": {"ios": "https://dc.lft.to/lastmile_qr_scan", "android": "https://dc.lft.to/lastmile_qr_scan"}}, {"is_disabled": 0, "fusion_lat": 0.0, "lat": 38.91738433333333, "type": "electric_scooter", "lon": -77.02694866666667, "is_reserved": 0, "fusion_lon": 0.0, "bike_id": "ea31e9f216af374b565f27bdc0c42663", "name": "ea31e9f216af374b565f27bdc0c42663", "rental_uris": {"ios": "https://dc.lft.to/lastmile_qr_scan", "android": "https://dc.lft.to/lastmile_qr_scan"}}, {"is_disabled": 0, "fusion_lat": 0.0, "lat": 38.839851333333336, "type": "electric_bike", "lon": -77.00563516666666, "is_reserved": 0, "fusion_lon": 0.0, "bike_id": "483d96ef035a315da9052c7ad7475038", "name": "483d96ef035a315da9052c7ad7475038", "rental_uris": {"ios": "https://dc.lft.to/lastmile_qr_scan", "android": "https://dc.lft.to/lastmile_qr_scan"}}, {"is_disabled": 0, "fusion_lat": 0.0, "lat": 38.91692416666667, "type": "electric_scooter", "lon": -77.023964, "is_reserved": 0, "fusion_lon": 0.0, "bike_id": "1a23c16b8046a456d371a17100644913", "name": "1a23c16b8046a456d371a17100644913", "rental_uris": {"ios": "https://dc.lft.to/lastmile_qr_scan", "android": "https://dc.lft.to/lastmile_qr_scan"}}, {"is_disabled": 0, "fusion_lat": 0.0, "lat": 38.881342333333336, "type": "electric_bike", "lon": -76.9808475, "is_reserved": 0, "fusion_lon": 0.0, "bike_id": "de0e35489a30e553f4086cfd9dd885d2", "name": "de0e35489a30e553f4086cfd9dd885d2", "rental_uris": {"ios": "https://dc.lft.to/lastmile_qr_scan", "android": "https://dc.lft.to/lastmile_qr_scan"}}, {"is_disabled": 0, "fusion_lat": 0.0, "lat": 38.864375333333335, "type": "electric_scooter", "lon": -76.97351766666667, "is_reserved": 0, "fusion_lon": 0.0, "bike_id": "a709f0c8889730b89413f309f078ae55", "name": "a709f0c8889730b89413f309f078ae55", "rental_uris": {"ios": "https://dc.lft.to/lastmile_qr_scan", "android": "https://dc.lft.to/lastmile_qr_scan"}}, {"is_disabled": 0, "fusion_lat": 0.0, "lat": 38.82261416666667, "type": "electric_bike", "lon": -77.00546816666666, "is_reserved": 0, "fusion_lon": 0.0, "bike_id": "ee514deb451d9961e621ad1944e315b3", "name": "ee514deb451d9961e621ad1944e315b3", "rental_uris": {"ios": "https://dc.lft.to/lastmile_qr_scan", "android": "https://dc.lft.to/lastmile_qr_scan"}}, {"is_disabled": 0, "fusion_lat": 0.0, "lat": 38.89223666666667, "type": "electric_scooter", "lon": -77.0265605, "is_reserved": 0, "fusion_lon": 0.0, "bike_id": "5a288f5ceb1277e1d298735cf5ea2bfa", "name": "5a288f5ceb1277e1d298735cf5ea2bfa", "rental_uris": {"ios": "https://dc.lft.to/lastmile_qr_scan", "android": "https://dc.lft.to/lastmile_qr_scan"}}, {"is_disabled": 0, "fusion_lat": 0.0, "lat": 38.908050333333335, "type": "electric_scooter", "lon": -76.99828966666666, "is_reserved": 0, "fusion_lon": 0.0, "bike_id": "39a2585691bb60714512270e840f3697", "name": "39a2585691bb60714512270e840f3697", "rental_uris": {"ios": "https://dc.lft.to/lastmile_qr_scan", "android": "https://dc.lft.to/lastmile_qr_scan"}}, {"is_disabled": 0, "fusion_lat": 0.0, "lat": 38.911082, "type": "electric_scooter", "lon": -77.02413583333333, "is_reserved": 0, "fusion_lon": 0.0, "bike_id": "fec616db88548d112eadcd75768051da", "name": "fec616db88548d112eadcd75768051da", "rental_uris": {"ios": "https://dc.lft.to/lastmile_qr_scan", "android": "https://dc.lft.to/lastmile_qr_scan"}}, {"is_disabled": 0, "fusion_lat": 0.0, "lat": 38.892225, "type": "electric_scooter", "lon": -77.04658616666667, "is_reserved": 0, "fusion_lon": 0.0, "bike_id": "9b84cdb69ae8078102972d4676436a9c", "name": "9b84cdb69ae8078102972d4676436a9c", "rental_uris": {"ios": "https://dc.lft.to/lastmile_qr_scan", "android": "https://dc.lft.to/lastmile_qr_scan"}}, {"is_disabled": 0, "fusion_lat": 0.0, "lat": 38.899618333333336, "type": "electric_scooter", "lon": -77.05183166666667, "is_reserved": 0, "fusion_lon": 0.0, "bike_id": "b4458c3893b2a61b31b32734b0b4b5f9", "name": "b4458c3893b2a61b31b32734b0b4b5f9", "rental_uris": {"ios": "https://dc.lft.to/lastmile_qr_scan", "android": "https://dc.lft.to/lastmile_qr_scan"}}, {"is_disabled": 0, "fusion_lat": 0.0, "lat": 38.926286833333336, "type": "electric_scooter", "lon": -77.03789533333334, "is_reserved": 0, "fusion_lon": 0.0, "bike_id": "7c391aff7c8a6ace414fc9be02c0b443", "name": "7c391aff7c8a6ace414fc9be02c0b443", "rental_uris": {"ios": "https://dc.lft.to/lastmile_qr_scan", "android": "https://dc.lft.to/lastmile_qr_scan"}}, {"is_disabled": 0, "fusion_lat": 0.0, "lat": 38.892646166666665, "type": "electric_scooter", "lon": -76.941551, "is_reserved": 0, "fusion_lon": 0.0, "bike_id": "3445af1de76fe6641b178bce58f99d99", "name": "3445af1de76fe6641b178bce58f99d99", "rental_uris": {"ios": "https://dc.lft.to/lastmile_qr_scan", "android": "https://dc.lft.to/lastmile_qr_scan"}}, {"is_disabled": 0, "fusion_lat": 0.0, "lat": 38.9141585, "type": "electric_scooter", "lon": -77.01281883333333, "is_reserved": 0, "fusion_lon": 0.0, "bike_id": "7ba81ca3b5de92f56fdd7c137a66ba67", "name": "7ba81ca3b5de92f56fdd7c137a66ba67", "rental_uris": {"ios": "https://dc.lft.to/lastmile_qr_scan", "android": "https://dc.lft.to/lastmile_qr_scan"}}, {"is_disabled": 0, "fusion_lat": 0.0, "lat": 38.905794666666665, "type": "electric_scooter", "lon": -77.029756, "is_reserved": 0, "fusion_lon": 0.0, "bike_id": "b51a0f07f975c0d2b3350ac7ba7fe5c9", "name": "b51a0f07f975c0d2b3350ac7ba7fe5c9", "rental_uris": {"ios": "https://dc.lft.to/lastmile_qr_scan", "android": "https://dc.lft.to/lastmile_qr_scan"}}, {"is_disabled": 0, "fusion_lat": 0.0, "lat": 38.93292066666667, "type": "electric_scooter", "lon": -77.03276583333333, "is_reserved": 0, "fusion_lon": 0.0, "bike_id": "efd1e042d821536204f53e60975322e7", "name": "efd1e042d821536204f53e60975322e7", "rental_uris": {"ios": "https://dc.lft.to/lastmile_qr_scan", "android": "https://dc.lft.to/lastmile_qr_scan"}}, {"is_disabled": 0, "fusion_lat": 0.0, "lat": 38.89456083333334, "type": "electric_bike", "lon": -76.97033466666667, "is_reserved": 0, "fusion_lon": 0.0, "bike_id": "75a12cb015439efdac9df1617fde2432", "name": "75a12cb015439efdac9df1617fde2432", "rental_uris": {"ios": "https://dc.lft.to/lastmile_qr_scan", "android": "https://dc.lft.to/lastmile_qr_scan"}}, {"is_disabled": 0, "fusion_lat": 0.0, "lat": 38.92254716666667, "type": "electric_scooter", "lon": -77.03399633333333, "is_reserved": 0, "fusion_lon": 0.0, "bike_id": "8ae91ac6d2d442d3ddad82888a34eff3", "name": "8ae91ac6d2d442d3ddad82888a34eff3", "rental_uris": {"ios": "https://dc.lft.to/lastmile_qr_scan", "android": "https://dc.lft.to/lastmile_qr_scan"}}, {"is_disabled": 0, "fusion_lat": 0.0, "lat": 38.87478616666667, "type": "electric_scooter", "lon": -77.01069416666667, "is_reserved": 0, "fusion_lon": 0.0, "bike_id": "fb096707bb484b3e8d5c280c0ea3c540", "name": "fb096707bb484b3e8d5c280c0ea3c540", "rental_uris": {"ios": "https://dc.lft.to/lastmile_qr_scan", "android": "https://dc.lft.to/lastmile_qr_scan"}}, {"is_disabled": 0, "fusion_lat": 0.0, "lat": 38.923515, "type": "electric_scooter", "lon": -77.03581383333334, "is_reserved": 0, "fusion_lon": 0.0, "bike_id": "aa0800acf8503baab50a1b834fdb0b2c", "name": "aa0800acf8503baab50a1b834fdb0b2c", "rental_uris": {"ios": "https://dc.lft.to/lastmile_qr_scan", "android": "https://dc.lft.to/lastmile_qr_scan"}}, {"is_disabled": 0, "fusion_lat": 0.0, "lat": 38.8767095, "type": "electric_scooter", "lon": -77.004205, "is_reserved": 0, "fusion_lon": 0.0, "bike_id": "5938e15aaf8b8c58cd63db05f30494e6", "name": "5938e15aaf8b8c58cd63db05f30494e6", "rental_uris": {"ios": "https://dc.lft.to/lastmile_qr_scan", "android": "https://dc.lft.to/lastmile_qr_scan"}}, {"is_disabled": 0, "fusion_lat": 0.0, "lat": 38.901856, "type": "electric_scooter", "lon": -77.0241735, "is_reserved": 0, "fusion_lon": 0.0, "bike_id": "215e2229867e9e28fb363600f8b54317", "name": "215e2229867e9e28fb363600f8b54317", "rental_uris": {"ios": "https://dc.lft.to/lastmile_qr_scan", "android": "https://dc.lft.to/lastmile_qr_scan"}}, {"is_disabled": 0, "fusion_lat": 0.0, "lat": 38.914539833333336, "type": "electric_bike", "lon": -76.972747, "is_reserved": 0, "fusion_lon": 0.0, "bike_id": "48e4a09b71544619cb8fc8de2ced9e6e", "name": "48e4a09b71544619cb8fc8de2ced9e6e", "rental_uris": {"ios": "https://dc.lft.to/lastmile_qr_scan", "android": "https://dc.lft.to/lastmile_qr_scan"}}, {"is_disabled": 0, "fusion_lat": 0.0, "lat": 38.900657333333335, "type": "electric_scooter", "lon": -77.0509345, "is_reserved": 0, "fusion_lon": 0.0, "bike_id": "f0bec5b59006881a4014528b26b4f226", "name": "f0bec5b59006881a4014528b26b4f226", "rental_uris": {"ios": "https://dc.lft.to/lastmile_qr_scan", "android": "https://dc.lft.to/lastmile_qr_scan"}}, {"is_disabled": 0, "fusion_lat": 0.0, "lat": 38.939416, "type": "electric_scooter", "lon": -77.06092033333333, "is_reserved": 0, "fusion_lon": 0.0, "bike_id": "702405a8f86da644f10e8aa397d8f3db", "name": "702405a8f86da644f10e8aa397d8f3db", "rental_uris": {"ios": "https://dc.lft.to/lastmile_qr_scan", "android": "https://dc.lft.to/lastmile_qr_scan"}}, {"is_disabled": 0, "fusion_lat": 0.0, "lat": 38.8922315, "type": "electric_scooter", "lon": -77.04868966666666, "is_reserved": 0, "fusion_lon": 0.0, "bike_id": "73e7166dd204842b5d098d4979c8c685", "name": "73e7166dd204842b5d098d4979c8c685", "rental_uris": {"ios": "https://dc.lft.to/lastmile_qr_scan", "android": "https://dc.lft.to/lastmile_qr_scan"}}, {"is_disabled": 0, "fusion_lat": 0.0, "lat": 38.861838, "type": "electric_scooter", "lon": -76.99424683333334, "is_reserved": 0, "fusion_lon": 0.0, "bike_id": "a234746a35c848dc355a1bb3cc4ec263", "name": "a234746a35c848dc355a1bb3cc4ec263", "rental_uris": {"ios": "https://dc.lft.to/lastmile_qr_scan", "android": "https://dc.lft.to/lastmile_qr_scan"}}, {"is_disabled": 0, "fusion_lat": 0.0, "lat": 38.9162195, "type": "electric_scooter", "lon": -77.04557216666667, "is_reserved": 0, "fusion_lon": 0.0, "bike_id": "c240ede097a3bc85aca198e347fa8b1f", "name": "c240ede097a3bc85aca198e347fa8b1f", "rental_uris": {"ios": "https://dc.lft.to/lastmile_qr_scan", "android": "https://dc.lft.to/lastmile_qr_scan"}}, {"is_disabled": 0, "fusion_lat": 0.0, "lat": 38.86525266666666, "type": "electric_scooter", "lon": -76.99043566666667, "is_reserved": 0, "fusion_lon": 0.0, "bike_id": "99cc514f67c41b11d8ab6fca2a0d161c", "name": "99cc514f67c41b11d8ab6fca2a0d161c", "rental_uris": {"ios": "https://dc.lft.to/lastmile_qr_scan", "android": "https://dc.lft.to/lastmile_qr_scan"}}, {"is_disabled": 0, "fusion_lat": 0.0, "lat": 38.9387195, "type": "electric_bike", "lon": -77.02626216666667, "is_reserved": 0, "fusion_lon": 0.0, "bike_id": "49bb87489622815de2d7fb606bd20b7b", "name": "49bb87489622815de2d7fb606bd20b7b", "rental_uris": {"ios": "https://dc.lft.to/lastmile_qr_scan", "android": "https://dc.lft.to/lastmile_qr_scan"}}, {"is_disabled": 0, "fusion_lat": 0.0, "lat": 38.9154705, "type": "electric_scooter", "lon": -77.0199375, "is_reserved": 0, "fusion_lon": 0.0, "bike_id": "851b74dcf856b19a64c33a35bc0e15f1", "name": "851b74dcf856b19a64c33a35bc0e15f1", "rental_uris": {"ios": "https://dc.lft.to/lastmile_qr_scan", "android": "https://dc.lft.to/lastmile_qr_scan"}}, {"is_disabled": 0, "fusion_lat": 0.0, "lat": 38.89274916666667, "type": "electric_scooter", "lon": -77.0259615, "is_reserved": 0, "fusion_lon": 0.0, "bike_id": "7523f768f2017caab12400ab217cecfa", "name": "7523f768f2017caab12400ab217cecfa", "rental_uris": {"ios": "https://dc.lft.to/lastmile_qr_scan", "android": "https://dc.lft.to/lastmile_qr_scan"}}, {"is_disabled": 0, "fusion_lat": 0.0, "lat": 38.8975335, "type": "electric_scooter", "lon": -77.04608633333334, "is_reserved": 0, "fusion_lon": 0.0, "bike_id": "b6e7e03613d6e94c82ea52f62ead01a8", "name": "b6e7e03613d6e94c82ea52f62ead01a8", "rental_uris": {"ios": "https://dc.lft.to/lastmile_qr_scan", "android": "https://dc.lft.to/lastmile_qr_scan"}}, {"is_disabled": 0, "fusion_lat": 0.0, "lat": 38.92824866666667, "type": "electric_scooter", "lon": -77.0225385, "is_reserved": 0, "fusion_lon": 0.0, "bike_id": "ab9b6d2d666d0c2484c133e8deef3e15", "name": "ab9b6d2d666d0c2484c133e8deef3e15", "rental_uris": {"ios": "https://dc.lft.to/lastmile_qr_scan", "android": "https://dc.lft.to/lastmile_qr_scan"}}, {"is_disabled": 0, "fusion_lat": 0.0, "lat": 38.9308825, "type": "electric_scooter", "lon": -76.96709933333334, "is_reserved": 0, "fusion_lon": 0.0, "bike_id": "6369f97bc325930e0d3aa71c8e35a167", "name": "6369f97bc325930e0d3aa71c8e35a167", "rental_uris": {"ios": "https://dc.lft.to/lastmile_qr_scan", "android": "https://dc.lft.to/lastmile_qr_scan"}}, {"is_disabled": 0, "fusion_lat": 0.0, "lat": 38.874577333333335, "type": "electric_scooter", "lon": -77.00485616666667, "is_reserved": 0, "fusion_lon": 0.0, "bike_id": "c0fd5a84ee2965639090758230b8fd65", "name": "c0fd5a84ee2965639090758230b8fd65", "rental_uris": {"ios": "https://dc.lft.to/lastmile_qr_scan", "android": "https://dc.lft.to/lastmile_qr_scan"}}, {"is_disabled": 0, "fusion_lat": 0.0, "lat": 38.918046333333336, "type": "electric_scooter", "lon": -77.03363216666666, "is_reserved": 0, "fusion_lon": 0.0, "bike_id": "62a15d294e7ad3756d6cfd110f42a38d", "name": "62a15d294e7ad3756d6cfd110f42a38d", "rental_uris": {"ios": "https://dc.lft.to/lastmile_qr_scan", "android": "https://dc.lft.to/lastmile_qr_scan"}}, {"is_disabled": 0, "fusion_lat": 0.0, "lat": 38.9076905, "type": "electric_scooter", "lon": -77.06905333333333, "is_reserved": 0, "fusion_lon": 0.0, "bike_id": "e5c5642ab79cb69cb288b67957b54f9e", "name": "e5c5642ab79cb69cb288b67957b54f9e", "rental_uris": {"ios": "https://dc.lft.to/lastmile_qr_scan", "android": "https://dc.lft.to/lastmile_qr_scan"}}, {"is_disabled": 0, "fusion_lat": 0.0, "lat": 39.0243055, "type": "electric_bike", "lon": -77.13099733333334, "is_reserved": 0, "fusion_lon": 0.0, "bike_id": "28d48d1428d12e93642516f37676c1a1", "name": "28d48d1428d12e93642516f37676c1a1", "rental_uris": {"ios": "https://dc.lft.to/lastmile_qr_scan", "android": "https://dc.lft.to/lastmile_qr_scan"}}, {"is_disabled": 0, "fusion_lat": 0.0, "lat": 39.03042033333333, "type": "electric_bike", "lon": -77.09468683333333, "is_reserved": 0, "fusion_lon": 0.0, "bike_id": "12203f9e31a0a5066d3285edbb74fdd3", "name": "12203f9e31a0a5066d3285edbb74fdd3", "rental_uris": {"ios": "https://dc.lft.to/lastmile_qr_scan", "android": "https://dc.lft.to/lastmile_qr_scan"}}, {"is_disabled": 0, "fusion_lat": 0.0, "lat": 38.92182616666667, "type": "electric_scooter", "lon": -77.01827416666667, "is_reserved": 0, "fusion_lon": 0.0, "bike_id": "85b6b73b291dfc33b2cad0644291f4c9", "name": "85b6b73b291dfc33b2cad0644291f4c9", "rental_uris": {"ios": "https://dc.lft.to/lastmile_qr_scan", "android": "https://dc.lft.to/lastmile_qr_scan"}}, {"is_disabled": 0, "fusion_lat": 0.0, "lat": 38.915771, "type": "electric_scooter", "lon": -77.03187916666667, "is_reserved": 0, "fusion_lon": 0.0, "bike_id": "d9c1b261915bc21b81303d5e0fdd78ae", "name": "d9c1b261915bc21b81303d5e0fdd78ae", "rental_uris": {"ios": "https://dc.lft.to/lastmile_qr_scan", "android": "https://dc.lft.to/lastmile_qr_scan"}}, {"is_disabled": 0, "fusion_lat": 0.0, "lat": 38.9361665, "type": "electric_scooter", "lon": -77.03209766666667, "is_reserved": 0, "fusion_lon": 0.0, "bike_id": "420378214b816a211dd90b67db23d06c", "name": "420378214b816a211dd90b67db23d06c", "rental_uris": {"ios": "https://dc.lft.to/lastmile_qr_scan", "android": "https://dc.lft.to/lastmile_qr_scan"}}, {"is_disabled": 0, "fusion_lat": 0.0, "lat": 38.918200166666665, "type": "electric_scooter", "lon": -77.038441, "is_reserved": 0, "fusion_lon": 0.0, "bike_id": "e6238d034dac36c205738f1973689439", "name": "e6238d034dac36c205738f1973689439", "rental_uris": {"ios": "https://dc.lft.to/lastmile_qr_scan", "android": "https://dc.lft.to/lastmile_qr_scan"}}, {"is_disabled": 0, "fusion_lat": 0.0, "lat": 38.9000735, "type": "electric_scooter", "lon": -77.000345, "is_reserved": 0, "fusion_lon": 0.0, "bike_id": "96b4cca8fbde4e03c2aae01762a80115", "name": "96b4cca8fbde4e03c2aae01762a80115", "rental_uris": {"ios": "https://dc.lft.to/lastmile_qr_scan", "android": "https://dc.lft.to/lastmile_qr_scan"}}, {"is_disabled": 0, "fusion_lat": 0.0, "lat": 39.00015166666667, "type": "electric_bike", "lon": -76.91057483333333, "is_reserved": 0, "fusion_lon": 0.0, "bike_id": "f6179c4eda3da2358e77fe7876d8bfbf", "name": "f6179c4eda3da2358e77fe7876d8bfbf", "rental_uris": {"ios": "https://dc.lft.to/lastmile_qr_scan", "android": "https://dc.lft.to/lastmile_qr_scan"}}, {"is_disabled": 0, "fusion_lat": 0.0, "lat": 38.8938595, "type": "electric_scooter", "lon": -76.99869566666666, "is_reserved": 0, "fusion_lon": 0.0, "bike_id": "20ea7e0699c0ec59b78dc13a4a1e53d9", "name": "20ea7e0699c0ec59b78dc13a4a1e53d9", "rental_uris": {"ios": "https://dc.lft.to/lastmile_qr_scan", "android": "https://dc.lft.to/lastmile_qr_scan"}}, {"is_disabled": 0, "fusion_lat": 0.0, "lat": 38.9256115, "type": "electric_bike", "lon": -77.00128383333333, "is_reserved": 0, "fusion_lon": 0.0, "bike_id": "beef61bf54a918b20de4a85398f78300", "name": "beef61bf54a918b20de4a85398f78300", "rental_uris": {"ios": "https://dc.lft.to/lastmile_qr_scan", "android": "https://dc.lft.to/lastmile_qr_scan"}}, {"is_disabled": 0, "fusion_lat": 0.0, "lat": 38.902317833333335, "type": "electric_scooter", "lon": -77.046561, "is_reserved": 0, "fusion_lon": 0.0, "bike_id": "0d344f9ed499513fe9b7e3b75eacc37e", "name": "0d344f9ed499513fe9b7e3b75eacc37e", "rental_uris": {"ios": "https://dc.lft.to/lastmile_qr_scan", "android": "https://dc.lft.to/lastmile_qr_scan"}}, {"is_disabled": 0, "fusion_lat": 0.0, "lat": 38.90603016666667, "type": "electric_scooter", "lon": -77.04110183333333, "is_reserved": 0, "fusion_lon": 0.0, "bike_id": "5fbf696163b479bfcd8bc12287e7b340", "name": "5fbf696163b479bfcd8bc12287e7b340", "rental_uris": {"ios": "https://dc.lft.to/lastmile_qr_scan", "android": "https://dc.lft.to/lastmile_qr_scan"}}, {"is_disabled": 0, "fusion_lat": 0.0, "lat": 38.925647, "type": "electric_scooter", "lon": -77.05268633333333, "is_reserved": 0, "fusion_lon": 0.0, "bike_id": "e45f958610aa137349ead5f60d843975", "name": "e45f958610aa137349ead5f60d843975", "rental_uris": {"ios": "https://dc.lft.to/lastmile_qr_scan", "android": "https://dc.lft.to/lastmile_qr_scan"}}, {"is_disabled": 0, "fusion_lat": 0.0, "lat": 38.86369216666667, "type": "electric_bike", "lon": -76.97007366666666, "is_reserved": 0, "fusion_lon": 0.0, "bike_id": "1382277b39798e3945d3046955186b3a", "name": "1382277b39798e3945d3046955186b3a", "rental_uris": {"ios": "https://dc.lft.to/lastmile_qr_scan", "android": "https://dc.lft.to/lastmile_qr_scan"}}, {"is_disabled": 0, "fusion_lat": 0.0, "lat": 38.90258083333333, "type": "electric_scooter", "lon": -77.02185833333333, "is_reserved": 0, "fusion_lon": 0.0, "bike_id": "ff7d078d9014dd2654b0ae28a9227ff7", "name": "ff7d078d9014dd2654b0ae28a9227ff7", "rental_uris": {"ios": "https://dc.lft.to/lastmile_qr_scan", "android": "https://dc.lft.to/lastmile_qr_scan"}}, {"is_disabled": 0, "fusion_lat": 0.0, "lat": 38.85064666666667, "type": "electric_bike", "lon": -76.97323366666667, "is_reserved": 0, "fusion_lon": 0.0, "bike_id": "fedcac92e7479c8fd53050cf151ae2d8", "name": "fedcac92e7479c8fd53050cf151ae2d8", "rental_uris": {"ios": "https://dc.lft.to/lastmile_qr_scan", "android": "https://dc.lft.to/lastmile_qr_scan"}}, {"is_disabled": 0, "fusion_lat": 0.0, "lat": 38.94021466666667, "type": "electric_scooter", "lon": -77.07166733333334, "is_reserved": 0, "fusion_lon": 0.0, "bike_id": "8af564266f19a13ff50f00dcafcfbb80", "name": "8af564266f19a13ff50f00dcafcfbb80", "rental_uris": {"ios": "https://dc.lft.to/lastmile_qr_scan", "android": "https://dc.lft.to/lastmile_qr_scan"}}, {"is_disabled": 0, "fusion_lat": 0.0, "lat": 38.92069033333333, "type": "electric_scooter", "lon": -77.0437945, "is_reserved": 0, "fusion_lon": 0.0, "bike_id": "fab8ce706910258318b434c37726c31a", "name": "fab8ce706910258318b434c37726c31a", "rental_uris": {"ios": "https://dc.lft.to/lastmile_qr_scan", "android": "https://dc.lft.to/lastmile_qr_scan"}}, {"is_disabled": 0, "fusion_lat": 0.0, "lat": 38.914493666666665, "type": "electric_scooter", "lon": -77.0458985, "is_reserved": 0, "fusion_lon": 0.0, "bike_id": "e1ab49230495f6242e3d56503b8e5395", "name": "e1ab49230495f6242e3d56503b8e5395", "rental_uris": {"ios": "https://dc.lft.to/lastmile_qr_scan", "android": "https://dc.lft.to/lastmile_qr_scan"}}, {"is_disabled": 0, "fusion_lat": 0.0, "lat": 38.9312275, "type": "electric_scooter", "lon": -77.02794416666667, "is_reserved": 0, "fusion_lon": 0.0, "bike_id": "8166eb3cd8138f2157940c001ed58874", "name": "8166eb3cd8138f2157940c001ed58874", "rental_uris": {"ios": "https://dc.lft.to/lastmile_qr_scan", "android": "https://dc.lft.to/lastmile_qr_scan"}}, {"is_disabled": 0, "fusion_lat": 0.0, "lat": 38.918225666666665, "type": "electric_scooter", "lon": -77.03844333333333, "is_reserved": 0, "fusion_lon": 0.0, "bike_id": "950322fed0f8bee3fb74aca8577bd3eb", "name": "950322fed0f8bee3fb74aca8577bd3eb", "rental_uris": {"ios": "https://dc.lft.to/lastmile_qr_scan", "android": "https://dc.lft.to/lastmile_qr_scan"}}, {"is_disabled": 0, "fusion_lat": 0.0, "lat": 38.87199116666667, "type": "electric_scooter", "lon": -77.00605833333333, "is_reserved": 0, "fusion_lon": 0.0, "bike_id": "fa47b9f781ec0eccc4ea46ca2514291c", "name": "fa47b9f781ec0eccc4ea46ca2514291c", "rental_uris": {"ios": "https://dc.lft.to/lastmile_qr_scan", "android": "https://dc.lft.to/lastmile_qr_scan"}}, {"is_disabled": 0, "fusion_lat": 0.0, "lat": 38.8921545, "type": "electric_scooter", "lon": -77.04645166666667, "is_reserved": 0, "fusion_lon": 0.0, "bike_id": "4df0eb4b5602a0859ed8d4b12b2433fc", "name": "4df0eb4b5602a0859ed8d4b12b2433fc", "rental_uris": {"ios": "https://dc.lft.to/lastmile_qr_scan", "android": "https://dc.lft.to/lastmile_qr_scan"}}, {"is_disabled": 0, "fusion_lat": 0.0, "lat": 38.87654583333333, "type": "electric_scooter", "lon": -77.01584616666666, "is_reserved": 0, "fusion_lon": 0.0, "bike_id": "6402d6641f6869d490a6e816ff00992a", "name": "6402d6641f6869d490a6e816ff00992a", "rental_uris": {"ios": "https://dc.lft.to/lastmile_qr_scan", "android": "https://dc.lft.to/lastmile_qr_scan"}}, {"is_disabled": 0, "fusion_lat": 0.0, "lat": 38.875021833333335, "type": "electric_scooter", "lon": -77.0011925, "is_reserved": 0, "fusion_lon": 0.0, "bike_id": "6a4df929adabc57eb5a79d97f29fba35", "name": "6a4df929adabc57eb5a79d97f29fba35", "rental_uris": {"ios": "https://dc.lft.to/lastmile_qr_scan", "android": "https://dc.lft.to/lastmile_qr_scan"}}, {"is_disabled": 0, "fusion_lat": 0.0, "lat": 38.905102, "type": "electric_scooter", "lon": -77.05907783333333, "is_reserved": 0, "fusion_lon": 0.0, "bike_id": "5a06ccff30c25e2b4f62b8721458236f", "name": "5a06ccff30c25e2b4f62b8721458236f", "rental_uris": {"ios": "https://dc.lft.to/lastmile_qr_scan", "android": "https://dc.lft.to/lastmile_qr_scan"}}, {"is_disabled": 0, "fusion_lat": 0.0, "lat": 38.9097165, "type": "electric_scooter", "lon": -77.03436, "is_reserved": 0, "fusion_lon": 0.0, "bike_id": "c60e79f186f750cc69387cf3c80bcdfd", "name": "c60e79f186f750cc69387cf3c80bcdfd", "rental_uris": {"ios": "https://dc.lft.to/lastmile_qr_scan", "android": "https://dc.lft.to/lastmile_qr_scan"}}, {"is_disabled": 0, "fusion_lat": 0.0, "lat": 38.90261866666667, "type": "electric_scooter", "lon": -77.04907383333334, "is_reserved": 0, "fusion_lon": 0.0, "bike_id": "8e28d299906501fa8c58a01ae15886c9", "name": "8e28d299906501fa8c58a01ae15886c9", "rental_uris": {"ios": "https://dc.lft.to/lastmile_qr_scan", "android": "https://dc.lft.to/lastmile_qr_scan"}}, {"is_disabled": 0, "fusion_lat": 0.0, "lat": 38.904921, "type": "electric_scooter", "lon": -77.06783766666666, "is_reserved": 0, "fusion_lon": 0.0, "bike_id": "476ea3733ac958ef77cd4d22a68cc611", "name": "476ea3733ac958ef77cd4d22a68cc611", "rental_uris": {"ios": "https://dc.lft.to/lastmile_qr_scan", "android": "https://dc.lft.to/lastmile_qr_scan"}}, {"is_disabled": 0, "fusion_lat": 0.0, "lat": 38.9335805, "type": "electric_scooter", "lon": -77.05719083333334, "is_reserved": 0, "fusion_lon": 0.0, "bike_id": "c46cba8fbfa7fc5bd0bed28170e31fbc", "name": "c46cba8fbfa7fc5bd0bed28170e31fbc", "rental_uris": {"ios": "https://dc.lft.to/lastmile_qr_scan", "android": "https://dc.lft.to/lastmile_qr_scan"}}, {"is_disabled": 0, "fusion_lat": 0.0, "lat": 38.90515583333333, "type": "electric_scooter", "lon": -77.06660583333333, "is_reserved": 0, "fusion_lon": 0.0, "bike_id": "696d817b1df6060ffd2776ae61850bec", "name": "696d817b1df6060ffd2776ae61850bec", "rental_uris": {"ios": "https://dc.lft.to/lastmile_qr_scan", "android": "https://dc.lft.to/lastmile_qr_scan"}}, {"is_disabled": 0, "fusion_lat": 0.0, "lat": 38.9105035, "type": "electric_scooter", "lon": -77.01513983333334, "is_reserved": 0, "fusion_lon": 0.0, "bike_id": "1d5c87b98837ee08d26ed37e8b9aa62d", "name": "1d5c87b98837ee08d26ed37e8b9aa62d", "rental_uris": {"ios": "https://dc.lft.to/lastmile_qr_scan", "android": "https://dc.lft.to/lastmile_qr_scan"}}, {"is_disabled": 0, "fusion_lat": 0.0, "lat": 38.956315833333335, "type": "electric_scooter", "lon": -77.0330095, "is_reserved": 0, "fusion_lon": 0.0, "bike_id": "26160e247f3ebd70474779e802dafb0b", "name": "26160e247f3ebd70474779e802dafb0b", "rental_uris": {"ios": "https://dc.lft.to/lastmile_qr_scan", "android": "https://dc.lft.to/lastmile_qr_scan"}}, {"is_disabled": 0, "fusion_lat": 0.0, "lat": 38.90050983333333, "type": "electric_scooter", "lon": -77.05065483333334, "is_reserved": 0, "fusion_lon": 0.0, "bike_id": "44993d4768ef48ea7820b56ebd3bbda7", "name": "44993d4768ef48ea7820b56ebd3bbda7", "rental_uris": {"ios": "https://dc.lft.to/lastmile_qr_scan", "android": "https://dc.lft.to/lastmile_qr_scan"}}, {"is_disabled": 0, "fusion_lat": 0.0, "lat": 38.908705499999996, "type": "electric_scooter", "lon": -77.04487983333334, "is_reserved": 0, "fusion_lon": 0.0, "bike_id": "91c8825f154a5ea546da943fa8e6c3f4", "name": "91c8825f154a5ea546da943fa8e6c3f4", "rental_uris": {"ios": "https://dc.lft.to/lastmile_qr_scan", "android": "https://dc.lft.to/lastmile_qr_scan"}}, {"is_disabled": 0, "fusion_lat": 0.0, "lat": 38.896398166666664, "type": "electric_scooter", "lon": -76.95587916666666, "is_reserved": 0, "fusion_lon": 0.0, "bike_id": "64f44d4c6f4a17eec3febfe1114b2364", "name": "64f44d4c6f4a17eec3febfe1114b2364", "rental_uris": {"ios": "https://dc.lft.to/lastmile_qr_scan", "android": "https://dc.lft.to/lastmile_qr_scan"}}, {"is_disabled": 0, "fusion_lat": 0.0, "lat": 38.914174, "type": "electric_scooter", "lon": -77.01954583333334, "is_reserved": 0, "fusion_lon": 0.0, "bike_id": "bc9f9196b856e23b9ba53ee4a4d04cad", "name": "bc9f9196b856e23b9ba53ee4a4d04cad", "rental_uris": {"ios": "https://dc.lft.to/lastmile_qr_scan", "android": "https://dc.lft.to/lastmile_qr_scan"}}, {"is_disabled": 0, "fusion_lat": 0.0, "lat": 38.903917666666665, "type": "electric_scooter", "lon": -77.0447635, "is_reserved": 0, "fusion_lon": 0.0, "bike_id": "6073172d3e26deb4b620ea1619e0ee61", "name": "6073172d3e26deb4b620ea1619e0ee61", "rental_uris": {"ios": "https://dc.lft.to/lastmile_qr_scan", "android": "https://dc.lft.to/lastmile_qr_scan"}}, {"is_disabled": 0, "fusion_lat": 0.0, "lat": 38.873736666666666, "type": "electric_scooter", "lon": -77.00039083333333, "is_reserved": 0, "fusion_lon": 0.0, "bike_id": "70c163d9d22b54ca2f4aba87251547d7", "name": "70c163d9d22b54ca2f4aba87251547d7", "rental_uris": {"ios": "https://dc.lft.to/lastmile_qr_scan", "android": "https://dc.lft.to/lastmile_qr_scan"}}, {"is_disabled": 0, "fusion_lat": 0.0, "lat": 38.906354666666665, "type": "electric_scooter", "lon": -77.041472, "is_reserved": 0, "fusion_lon": 0.0, "bike_id": "eadc2a73242b2c744cccbeafe6a5d45a", "name": "eadc2a73242b2c744cccbeafe6a5d45a", "rental_uris": {"ios": "https://dc.lft.to/lastmile_qr_scan", "android": "https://dc.lft.to/lastmile_qr_scan"}}, {"is_disabled": 0, "fusion_lat": 0.0, "lat": 38.9082195, "type": "electric_scooter", "lon": -77.03387516666666, "is_reserved": 0, "fusion_lon": 0.0, "bike_id": "73624cfce32a4eb4dc87f621b0c5a8d6", "name": "73624cfce32a4eb4dc87f621b0c5a8d6", "rental_uris": {"ios": "https://dc.lft.to/lastmile_qr_scan", "android": "https://dc.lft.to/lastmile_qr_scan"}}, {"is_disabled": 0, "fusion_lat": 0.0, "lat": 38.895642333333335, "type": "electric_bike", "lon": -77.1272615, "is_reserved": 0, "fusion_lon": 0.0, "bike_id": "65c0be08d7752ff0af0b9d3b525df30a", "name": "65c0be08d7752ff0af0b9d3b525df30a", "rental_uris": {"ios": "https://dc.lft.to/lastmile_qr_scan", "android": "https://dc.lft.to/lastmile_qr_scan"}}, {"is_disabled": 0, "fusion_lat": 0.0, "lat": 38.911048, "type": "electric_scooter", "lon": -77.00207466666667, "is_reserved": 0, "fusion_lon": 0.0, "bike_id": "67c52209a506829fe482f21427c51e2c", "name": "67c52209a506829fe482f21427c51e2c", "rental_uris": {"ios": "https://dc.lft.to/lastmile_qr_scan", "android": "https://dc.lft.to/lastmile_qr_scan"}}, {"is_disabled": 0, "fusion_lat": 0.0, "lat": 38.89608533333333, "type": "electric_scooter", "lon": -77.04415183333333, "is_reserved": 0, "fusion_lon": 0.0, "bike_id": "b939a368351be345936f38fa9d141b95", "name": "b939a368351be345936f38fa9d141b95", "rental_uris": {"ios": "https://dc.lft.to/lastmile_qr_scan", "android": "https://dc.lft.to/lastmile_qr_scan"}}, {"is_disabled": 0, "fusion_lat": 0.0, "lat": 38.921483333333335, "type": "electric_scooter", "lon": -77.0422045, "is_reserved": 0, "fusion_lon": 0.0, "bike_id": "29de2e7c368747946c7d93127cfc6893", "name": "29de2e7c368747946c7d93127cfc6893", "rental_uris": {"ios": "https://dc.lft.to/lastmile_qr_scan", "android": "https://dc.lft.to/lastmile_qr_scan"}}, {"is_disabled": 0, "fusion_lat": 0.0, "lat": 38.918892, "type": "electric_scooter", "lon": -77.03892533333334, "is_reserved": 0, "fusion_lon": 0.0, "bike_id": "d18905f5b2f74c80dc9e8b9ea97117e4", "name": "d18905f5b2f74c80dc9e8b9ea97117e4", "rental_uris": {"ios": "https://dc.lft.to/lastmile_qr_scan", "android": "https://dc.lft.to/lastmile_qr_scan"}}, {"is_disabled": 0, "fusion_lat": 0.0, "lat": 38.90251283333333, "type": "electric_scooter", "lon": -77.01763533333333, "is_reserved": 0, "fusion_lon": 0.0, "bike_id": "99af0e9094ff35a45d9ed4a2418818d9", "name": "99af0e9094ff35a45d9ed4a2418818d9", "rental_uris": {"ios": "https://dc.lft.to/lastmile_qr_scan", "android": "https://dc.lft.to/lastmile_qr_scan"}}, {"is_disabled": 0, "fusion_lat": 0.0, "lat": 38.9056075, "type": "electric_scooter", "lon": -77.03461516666667, "is_reserved": 0, "fusion_lon": 0.0, "bike_id": "27948afeb403e8f27436c7f4e6a9fa1f", "name": "27948afeb403e8f27436c7f4e6a9fa1f", "rental_uris": {"ios": "https://dc.lft.to/lastmile_qr_scan", "android": "https://dc.lft.to/lastmile_qr_scan"}}, {"is_disabled": 0, "fusion_lat": 0.0, "lat": 38.93095233333333, "type": "electric_scooter", "lon": -77.02512116666666, "is_reserved": 0, "fusion_lon": 0.0, "bike_id": "8df784dae9cb4802354412e0772e7520", "name": "8df784dae9cb4802354412e0772e7520", "rental_uris": {"ios": "https://dc.lft.to/lastmile_qr_scan", "android": "https://dc.lft.to/lastmile_qr_scan"}}, {"is_disabled": 0, "fusion_lat": 0.0, "lat": 38.9187125, "type": "electric_scooter", "lon": -77.02593366666666, "is_reserved": 0, "fusion_lon": 0.0, "bike_id": "3b1eb5f911aa98ea4c8ea800935ae289", "name": "3b1eb5f911aa98ea4c8ea800935ae289", "rental_uris": {"ios": "https://dc.lft.to/lastmile_qr_scan", "android": "https://dc.lft.to/lastmile_qr_scan"}}, {"is_disabled": 0, "fusion_lat": 0.0, "lat": 38.832325166666664, "type": "electric_bike", "lon": -76.94622183333334, "is_reserved": 0, "fusion_lon": 0.0, "bike_id": "ceaaf685a50d134a78b2db6448ff83a7", "name": "ceaaf685a50d134a78b2db6448ff83a7", "rental_uris": {"ios": "https://dc.lft.to/lastmile_qr_scan", "android": "https://dc.lft.to/lastmile_qr_scan"}}, {"is_disabled": 0, "fusion_lat": 0.0, "lat": 38.925444166666665, "type": "electric_scooter", "lon": -77.033672, "is_reserved": 0, "fusion_lon": 0.0, "bike_id": "d4435fa13d89a786b18a9bfdb1f8f595", "name": "d4435fa13d89a786b18a9bfdb1f8f595", "rental_uris": {"ios": "https://dc.lft.to/lastmile_qr_scan", "android": "https://dc.lft.to/lastmile_qr_scan"}}, {"is_disabled": 0, "fusion_lat": 0.0, "lat": 38.9245735, "type": "electric_scooter", "lon": -77.0203335, "is_reserved": 0, "fusion_lon": 0.0, "bike_id": "aee8de6776cc63a7e4c40d417b9c23f8", "name": "aee8de6776cc63a7e4c40d417b9c23f8", "rental_uris": {"ios": "https://dc.lft.to/lastmile_qr_scan", "android": "https://dc.lft.to/lastmile_qr_scan"}}, {"is_disabled": 0, "fusion_lat": 0.0, "lat": 38.91758133333333, "type": "electric_scooter", "lon": -77.03166716666667, "is_reserved": 0, "fusion_lon": 0.0, "bike_id": "ec938cd4d50d3736ff77f4d05b77fec0", "name": "ec938cd4d50d3736ff77f4d05b77fec0", "rental_uris": {"ios": "https://dc.lft.to/lastmile_qr_scan", "android": "https://dc.lft.to/lastmile_qr_scan"}}, {"is_disabled": 0, "fusion_lat": 0.0, "lat": 38.90592066666667, "type": "electric_scooter", "lon": -77.03246183333333, "is_reserved": 0, "fusion_lon": 0.0, "bike_id": "3da18a93a7c2cf8468e6b1faa914fc49", "name": "3da18a93a7c2cf8468e6b1faa914fc49", "rental_uris": {"ios": "https://dc.lft.to/lastmile_qr_scan", "android": "https://dc.lft.to/lastmile_qr_scan"}}, {"is_disabled": 0, "fusion_lat": 0.0, "lat": 38.9158705, "type": "electric_scooter", "lon": -77.04695166666667, "is_reserved": 0, "fusion_lon": 0.0, "bike_id": "0ce20ff0800c43f53104eab4c41621c2", "name": "0ce20ff0800c43f53104eab4c41621c2", "rental_uris": {"ios": "https://dc.lft.to/lastmile_qr_scan", "android": "https://dc.lft.to/lastmile_qr_scan"}}, {"is_disabled": 0, "fusion_lat": 0.0, "lat": 38.9787915, "type": "electric_scooter", "lon": -77.02549416666666, "is_reserved": 0, "fusion_lon": 0.0, "bike_id": "d753888bd8f1a4137c38546653fdd34a", "name": "d753888bd8f1a4137c38546653fdd34a", "rental_uris": {"ios": "https://dc.lft.to/lastmile_qr_scan", "android": "https://dc.lft.to/lastmile_qr_scan"}}, {"is_disabled": 0, "fusion_lat": 0.0, "lat": 38.9273315, "type": "electric_scooter", "lon": -77.03556483333334, "is_reserved": 0, "fusion_lon": 0.0, "bike_id": "2892f36d0d4945559abef57f3897699a", "name": "2892f36d0d4945559abef57f3897699a", "rental_uris": {"ios": "https://dc.lft.to/lastmile_qr_scan", "android": "https://dc.lft.to/lastmile_qr_scan"}}, {"is_disabled": 0, "fusion_lat": 0.0, "lat": 38.864580833333335, "type": "electric_scooter", "lon": -76.982444, "is_reserved": 0, "fusion_lon": 0.0, "bike_id": "4bc69c748974b497d0db57024b0df4d7", "name": "4bc69c748974b497d0db57024b0df4d7", "rental_uris": {"ios": "https://dc.lft.to/lastmile_qr_scan", "android": "https://dc.lft.to/lastmile_qr_scan"}}, {"is_disabled": 0, "fusion_lat": 0.0, "lat": 38.905488, "type": "electric_bike", "lon": -77.00208133333334, "is_reserved": 0, "fusion_lon": 0.0, "bike_id": "18537239a67c6e56b8b9c963245518bb", "name": "18537239a67c6e56b8b9c963245518bb", "rental_uris": {"ios": "https://dc.lft.to/lastmile_qr_scan", "android": "https://dc.lft.to/lastmile_qr_scan"}}, {"is_disabled": 0, "fusion_lat": 0.0, "lat": 38.90924116666667, "type": "electric_scooter", "lon": -77.04375583333334, "is_reserved": 0, "fusion_lon": 0.0, "bike_id": "dd429c8629ab0cd56370cdc2ac34f60e", "name": "dd429c8629ab0cd56370cdc2ac34f60e", "rental_uris": {"ios": "https://dc.lft.to/lastmile_qr_scan", "android": "https://dc.lft.to/lastmile_qr_scan"}}, {"is_disabled": 0, "fusion_lat": 0.0, "lat": 38.88992866666667, "type": "electric_scooter", "lon": -76.94696416666666, "is_reserved": 0, "fusion_lon": 0.0, "bike_id": "3ce1da9ad9691268ac866cac730a2f77", "name": "3ce1da9ad9691268ac866cac730a2f77", "rental_uris": {"ios": "https://dc.lft.to/lastmile_qr_scan", "android": "https://dc.lft.to/lastmile_qr_scan"}}, {"is_disabled": 0, "fusion_lat": 0.0, "lat": 38.864182666666665, "type": "electric_scooter", "lon": -76.98042633333333, "is_reserved": 0, "fusion_lon": 0.0, "bike_id": "f3caad34a9c72c3bb2abc9f16fced7f0", "name": "f3caad34a9c72c3bb2abc9f16fced7f0", "rental_uris": {"ios": "https://dc.lft.to/lastmile_qr_scan", "android": "https://dc.lft.to/lastmile_qr_scan"}}, {"is_disabled": 0, "fusion_lat": 0.0, "lat": 38.916669166666665, "type": "electric_scooter", "lon": -77.041541, "is_reserved": 0, "fusion_lon": 0.0, "bike_id": "1e82296e72200ea24e8910edd3d69103", "name": "1e82296e72200ea24e8910edd3d69103", "rental_uris": {"ios": "https://dc.lft.to/lastmile_qr_scan", "android": "https://dc.lft.to/lastmile_qr_scan"}}, {"is_disabled": 0, "fusion_lat": 0.0, "lat": 38.92788916666667, "type": "electric_scooter", "lon": -77.02723466666667, "is_reserved": 0, "fusion_lon": 0.0, "bike_id": "3142996e087e16100c074af2e5902353", "name": "3142996e087e16100c074af2e5902353", "rental_uris": {"ios": "https://dc.lft.to/lastmile_qr_scan", "android": "https://dc.lft.to/lastmile_qr_scan"}}, {"is_disabled": 0, "fusion_lat": 0.0, "lat": 38.886014, "type": "electric_scooter", "lon": -77.015437, "is_reserved": 0, "fusion_lon": 0.0, "bike_id": "89d9c17182dfc7e9ee554ad59986da21", "name": "89d9c17182dfc7e9ee554ad59986da21", "rental_uris": {"ios": "https://dc.lft.to/lastmile_qr_scan", "android": "https://dc.lft.to/lastmile_qr_scan"}}, {"is_disabled": 0, "fusion_lat": 0.0, "lat": 38.91716016666667, "type": "electric_scooter", "lon": -77.03102883333334, "is_reserved": 0, "fusion_lon": 0.0, "bike_id": "3a0bc4ce050bc4a60787a0ce273249dc", "name": "3a0bc4ce050bc4a60787a0ce273249dc", "rental_uris": {"ios": "https://dc.lft.to/lastmile_qr_scan", "android": "https://dc.lft.to/lastmile_qr_scan"}}, {"is_disabled": 0, "fusion_lat": 0.0, "lat": 38.9283315, "type": "electric_scooter", "lon": -77.05513433333333, "is_reserved": 0, "fusion_lon": 0.0, "bike_id": "b14d7a5bc69c95828b8c81db460a68da", "name": "b14d7a5bc69c95828b8c81db460a68da", "rental_uris": {"ios": "https://dc.lft.to/lastmile_qr_scan", "android": "https://dc.lft.to/lastmile_qr_scan"}}, {"is_disabled": 0, "fusion_lat": 0.0, "lat": 38.899959333333335, "type": "electric_scooter", "lon": -77.03346516666667, "is_reserved": 0, "fusion_lon": 0.0, "bike_id": "122b67acb9de1a0dd26dc6f1437ce1c2", "name": "122b67acb9de1a0dd26dc6f1437ce1c2", "rental_uris": {"ios": "https://dc.lft.to/lastmile_qr_scan", "android": "https://dc.lft.to/lastmile_qr_scan"}}, {"is_disabled": 0, "fusion_lat": 0.0, "lat": 38.884451, "type": "electric_scooter", "lon": -77.02561666666666, "is_reserved": 0, "fusion_lon": 0.0, "bike_id": "0f682055e44bb915c4cf419df960f738", "name": "0f682055e44bb915c4cf419df960f738", "rental_uris": {"ios": "https://dc.lft.to/lastmile_qr_scan", "android": "https://dc.lft.to/lastmile_qr_scan"}}, {"is_disabled": 0, "fusion_lat": 0.0, "lat": 38.91629666666667, "type": "electric_scooter", "lon": -77.03208433333333, "is_reserved": 0, "fusion_lon": 0.0, "bike_id": "6f8be4ac28600ab542b00337a2d4c6b3", "name": "6f8be4ac28600ab542b00337a2d4c6b3", "rental_uris": {"ios": "https://dc.lft.to/lastmile_qr_scan", "android": "https://dc.lft.to/lastmile_qr_scan"}}, {"is_disabled": 0, "fusion_lat": 0.0, "lat": 38.921746, "type": "electric_scooter", "lon": -77.04224533333333, "is_reserved": 0, "fusion_lon": 0.0, "bike_id": "d8a831822c6284266a082c2fda17247c", "name": "d8a831822c6284266a082c2fda17247c", "rental_uris": {"ios": "https://dc.lft.to/lastmile_qr_scan", "android": "https://dc.lft.to/lastmile_qr_scan"}}, {"is_disabled": 0, "fusion_lat": 0.0, "lat": 38.92483216666667, "type": "electric_scooter", "lon": -77.0284025, "is_reserved": 0, "fusion_lon": 0.0, "bike_id": "89bd7357d04b2756bf14256144ebf902", "name": "89bd7357d04b2756bf14256144ebf902", "rental_uris": {"ios": "https://dc.lft.to/lastmile_qr_scan", "android": "https://dc.lft.to/lastmile_qr_scan"}}, {"is_disabled": 0, "fusion_lat": 0.0, "lat": 38.920145166666664, "type": "electric_scooter", "lon": -77.07118866666667, "is_reserved": 0, "fusion_lon": 0.0, "bike_id": "9ad15b67ad6c7bfec86e20e9ff62a48a", "name": "9ad15b67ad6c7bfec86e20e9ff62a48a", "rental_uris": {"ios": "https://dc.lft.to/lastmile_qr_scan", "android": "https://dc.lft.to/lastmile_qr_scan"}}, {"is_disabled": 0, "fusion_lat": 0.0, "lat": 38.92569983333333, "type": "electric_scooter", "lon": -77.03937666666667, "is_reserved": 0, "fusion_lon": 0.0, "bike_id": "5b461df60c9ed952d87f42ad30d9920a", "name": "5b461df60c9ed952d87f42ad30d9920a", "rental_uris": {"ios": "https://dc.lft.to/lastmile_qr_scan", "android": "https://dc.lft.to/lastmile_qr_scan"}}, {"is_disabled": 0, "fusion_lat": 0.0, "lat": 38.8665685, "type": "electric_scooter", "lon": -76.98894166666666, "is_reserved": 0, "fusion_lon": 0.0, "bike_id": "40bd69123f43085d228d0d604767035a", "name": "40bd69123f43085d228d0d604767035a", "rental_uris": {"ios": "https://dc.lft.to/lastmile_qr_scan", "android": "https://dc.lft.to/lastmile_qr_scan"}}, {"is_disabled": 0, "fusion_lat": 0.0, "lat": 38.88937466666667, "type": "electric_scooter", "lon": -77.01504666666666, "is_reserved": 0, "fusion_lon": 0.0, "bike_id": "81583c568f008b02133353b1f35290da", "name": "81583c568f008b02133353b1f35290da", "rental_uris": {"ios": "https://dc.lft.to/lastmile_qr_scan", "android": "https://dc.lft.to/lastmile_qr_scan"}}, {"is_disabled": 0, "fusion_lat": 0.0, "lat": 38.92469883333333, "type": "electric_scooter", "lon": -77.03537816666666, "is_reserved": 0, "fusion_lon": 0.0, "bike_id": "7f723bd50bf5d79021fd43ada9c8cb79", "name": "7f723bd50bf5d79021fd43ada9c8cb79", "rental_uris": {"ios": "https://dc.lft.to/lastmile_qr_scan", "android": "https://dc.lft.to/lastmile_qr_scan"}}, {"is_disabled": 0, "fusion_lat": 0.0, "lat": 38.9162885, "type": "electric_scooter", "lon": -77.01372683333334, "is_reserved": 0, "fusion_lon": 0.0, "bike_id": "32669be7de4638917214e2e25001e45e", "name": "32669be7de4638917214e2e25001e45e", "rental_uris": {"ios": "https://dc.lft.to/lastmile_qr_scan", "android": "https://dc.lft.to/lastmile_qr_scan"}}, {"is_disabled": 0, "fusion_lat": 0.0, "lat": 38.9170265, "type": "electric_scooter", "lon": -77.0095585, "is_reserved": 0, "fusion_lon": 0.0, "bike_id": "ee1f42aa4a6826ae1e8bc991383f5371", "name": "ee1f42aa4a6826ae1e8bc991383f5371", "rental_uris": {"ios": "https://dc.lft.to/lastmile_qr_scan", "android": "https://dc.lft.to/lastmile_qr_scan"}}, {"is_disabled": 0, "fusion_lat": 0.0, "lat": 38.8746235, "type": "electric_scooter", "lon": -77.00492266666667, "is_reserved": 0, "fusion_lon": 0.0, "bike_id": "98e137eae46f9f0d949b69afa91a87c7", "name": "98e137eae46f9f0d949b69afa91a87c7", "rental_uris": {"ios": "https://dc.lft.to/lastmile_qr_scan", "android": "https://dc.lft.to/lastmile_qr_scan"}}, {"is_disabled": 0, "fusion_lat": 0.0, "lat": 38.931123666666664, "type": "electric_scooter", "lon": -77.021333, "is_reserved": 0, "fusion_lon": 0.0, "bike_id": "82f3932be19cb190153a8cba777cb1de", "name": "82f3932be19cb190153a8cba777cb1de", "rental_uris": {"ios": "https://dc.lft.to/lastmile_qr_scan", "android": "https://dc.lft.to/lastmile_qr_scan"}}, {"is_disabled": 0, "fusion_lat": 0.0, "lat": 38.88974966666667, "type": "electric_scooter", "lon": -76.93732166666666, "is_reserved": 0, "fusion_lon": 0.0, "bike_id": "caed34394c80ff682c510c65139d749b", "name": "caed34394c80ff682c510c65139d749b", "rental_uris": {"ios": "https://dc.lft.to/lastmile_qr_scan", "android": "https://dc.lft.to/lastmile_qr_scan"}}, {"is_disabled": 0, "fusion_lat": 0.0, "lat": 38.9103415, "type": "electric_scooter", "lon": -77.04387183333333, "is_reserved": 0, "fusion_lon": 0.0, "bike_id": "f5a0f8038eef7483ef14dd0f4174cef6", "name": "f5a0f8038eef7483ef14dd0f4174cef6", "rental_uris": {"ios": "https://dc.lft.to/lastmile_qr_scan", "android": "https://dc.lft.to/lastmile_qr_scan"}}, {"is_disabled": 0, "fusion_lat": 0.0, "lat": 38.93770516666667, "type": "electric_scooter", "lon": -77.03260633333333, "is_reserved": 0, "fusion_lon": 0.0, "bike_id": "677192ee58b32ea16214482fa3ec86d5", "name": "677192ee58b32ea16214482fa3ec86d5", "rental_uris": {"ios": "https://dc.lft.to/lastmile_qr_scan", "android": "https://dc.lft.to/lastmile_qr_scan"}}, {"is_disabled": 0, "fusion_lat": 0.0, "lat": 38.964937666666664, "type": "electric_bike", "lon": -77.0648655, "is_reserved": 0, "fusion_lon": 0.0, "bike_id": "2beeb01a3896c9a1b481bac4eafa28e3", "name": "2beeb01a3896c9a1b481bac4eafa28e3", "rental_uris": {"ios": "https://dc.lft.to/lastmile_qr_scan", "android": "https://dc.lft.to/lastmile_qr_scan"}}, {"is_disabled": 0, "fusion_lat": 0.0, "lat": 38.884311, "type": "electric_scooter", "lon": -76.95750966666667, "is_reserved": 0, "fusion_lon": 0.0, "bike_id": "5ba5c92961990d11fc87fa194daf5075", "name": "5ba5c92961990d11fc87fa194daf5075", "rental_uris": {"ios": "https://dc.lft.to/lastmile_qr_scan", "android": "https://dc.lft.to/lastmile_qr_scan"}}, {"is_disabled": 0, "fusion_lat": 0.0, "lat": 38.92364833333333, "type": "electric_scooter", "lon": -77.0504205, "is_reserved": 0, "fusion_lon": 0.0, "bike_id": "45a81a90ba5c24c76bc7590f9fea8d8a", "name": "45a81a90ba5c24c76bc7590f9fea8d8a", "rental_uris": {"ios": "https://dc.lft.to/lastmile_qr_scan", "android": "https://dc.lft.to/lastmile_qr_scan"}}, {"is_disabled": 0, "fusion_lat": 0.0, "lat": 38.91599816666667, "type": "electric_scooter", "lon": -77.02133633333334, "is_reserved": 0, "fusion_lon": 0.0, "bike_id": "fcb9487c326796683b02ef7139652387", "name": "fcb9487c326796683b02ef7139652387", "rental_uris": {"ios": "https://dc.lft.to/lastmile_qr_scan", "android": "https://dc.lft.to/lastmile_qr_scan"}}, {"is_disabled": 0, "fusion_lat": 0.0, "lat": 38.898359, "type": "electric_scooter", "lon": -76.946287, "is_reserved": 0, "fusion_lon": 0.0, "bike_id": "46a2064f4ccd095dee44fe1965a17041", "name": "46a2064f4ccd095dee44fe1965a17041", "rental_uris": {"ios": "https://dc.lft.to/lastmile_qr_scan", "android": "https://dc.lft.to/lastmile_qr_scan"}}, {"is_disabled": 0, "fusion_lat": 0.0, "lat": 38.93690933333333, "type": "electric_scooter", "lon": -77.02710933333333, "is_reserved": 0, "fusion_lon": 0.0, "bike_id": "00b6b0040b253dc7c56da1347ba707b8", "name": "00b6b0040b253dc7c56da1347ba707b8", "rental_uris": {"ios": "https://dc.lft.to/lastmile_qr_scan", "android": "https://dc.lft.to/lastmile_qr_scan"}}, {"is_disabled": 0, "fusion_lat": 0.0, "lat": 38.896306333333335, "type": "electric_scooter", "lon": -77.0395195, "is_reserved": 0, "fusion_lon": 0.0, "bike_id": "03a6e54e89968975282155cbb411aec9", "name": "03a6e54e89968975282155cbb411aec9", "rental_uris": {"ios": "https://dc.lft.to/lastmile_qr_scan", "android": "https://dc.lft.to/lastmile_qr_scan"}}, {"is_disabled": 0, "fusion_lat": 0.0, "lat": 38.914757333333334, "type": "electric_scooter", "lon": -77.02387533333334, "is_reserved": 0, "fusion_lon": 0.0, "bike_id": "c45a8fb4b1b8cdee27842ab9fb042c71", "name": "c45a8fb4b1b8cdee27842ab9fb042c71", "rental_uris": {"ios": "https://dc.lft.to/lastmile_qr_scan", "android": "https://dc.lft.to/lastmile_qr_scan"}}, {"is_disabled": 0, "fusion_lat": 0.0, "lat": 38.912305333333336, "type": "electric_scooter", "lon": -77.04504733333333, "is_reserved": 0, "fusion_lon": 0.0, "bike_id": "64a18aa3e3cdad31aab8629a1d7bf01b", "name": "64a18aa3e3cdad31aab8629a1d7bf01b", "rental_uris": {"ios": "https://dc.lft.to/lastmile_qr_scan", "android": "https://dc.lft.to/lastmile_qr_scan"}}, {"is_disabled": 0, "fusion_lat": 0.0, "lat": 38.9086435, "type": "electric_scooter", "lon": -77.04263883333333, "is_reserved": 0, "fusion_lon": 0.0, "bike_id": "028cdf6cff8504d35cd8d69180b18785", "name": "028cdf6cff8504d35cd8d69180b18785", "rental_uris": {"ios": "https://dc.lft.to/lastmile_qr_scan", "android": "https://dc.lft.to/lastmile_qr_scan"}}, {"is_disabled": 0, "fusion_lat": 0.0, "lat": 38.892989, "type": "electric_scooter", "lon": -76.99844183333333, "is_reserved": 0, "fusion_lon": 0.0, "bike_id": "6bedf34033e8ee9c491b1c7a28a3634b", "name": "6bedf34033e8ee9c491b1c7a28a3634b", "rental_uris": {"ios": "https://dc.lft.to/lastmile_qr_scan", "android": "https://dc.lft.to/lastmile_qr_scan"}}, {"is_disabled": 0, "fusion_lat": 0.0, "lat": 38.934347333333335, "type": "electric_scooter", "lon": -77.03987716666667, "is_reserved": 0, "fusion_lon": 0.0, "bike_id": "e116f60d81057d37b1786876e2442668", "name": "e116f60d81057d37b1786876e2442668", "rental_uris": {"ios": "https://dc.lft.to/lastmile_qr_scan", "android": "https://dc.lft.to/lastmile_qr_scan"}}, {"is_disabled": 0, "fusion_lat": 0.0, "lat": 38.89823966666667, "type": "electric_scooter", "lon": -77.00728566666666, "is_reserved": 0, "fusion_lon": 0.0, "bike_id": "7257be59f6a33d150aad0446595bc05b", "name": "7257be59f6a33d150aad0446595bc05b", "rental_uris": {"ios": "https://dc.lft.to/lastmile_qr_scan", "android": "https://dc.lft.to/lastmile_qr_scan"}}, {"is_disabled": 0, "fusion_lat": 0.0, "lat": 38.916080666666666, "type": "electric_scooter", "lon": -77.011855, "is_reserved": 0, "fusion_lon": 0.0, "bike_id": "59b8aa00499c29faf73516ddfb0494fd", "name": "59b8aa00499c29faf73516ddfb0494fd", "rental_uris": {"ios": "https://dc.lft.to/lastmile_qr_scan", "android": "https://dc.lft.to/lastmile_qr_scan"}}, {"is_disabled": 0, "fusion_lat": 0.0, "lat": 38.884958, "type": "electric_scooter", "lon": -77.00341066666667, "is_reserved": 0, "fusion_lon": 0.0, "bike_id": "1c4eefe074b5a15c2c45bba893a0a6e6", "name": "1c4eefe074b5a15c2c45bba893a0a6e6", "rental_uris": {"ios": "https://dc.lft.to/lastmile_qr_scan", "android": "https://dc.lft.to/lastmile_qr_scan"}}, {"is_disabled": 0, "fusion_lat": 0.0, "lat": 38.887752166666665, "type": "electric_scooter", "lon": -77.0032875, "is_reserved": 0, "fusion_lon": 0.0, "bike_id": "59e1b5759328aa8c52e446acf6160ee6", "name": "59e1b5759328aa8c52e446acf6160ee6", "rental_uris": {"ios": "https://dc.lft.to/lastmile_qr_scan", "android": "https://dc.lft.to/lastmile_qr_scan"}}, {"is_disabled": 0, "fusion_lat": 0.0, "lat": 38.80754783333333, "type": "electric_bike", "lon": -77.09453466666666, "is_reserved": 0, "fusion_lon": 0.0, "bike_id": "a0a90ae7fba33ea0e8aa7db802b28f20", "name": "a0a90ae7fba33ea0e8aa7db802b28f20", "rental_uris": {"ios": "https://dc.lft.to/lastmile_qr_scan", "android": "https://dc.lft.to/lastmile_qr_scan"}}, {"is_disabled": 0, "fusion_lat": 0.0, "lat": 38.902562833333334, "type": "electric_scooter", "lon": -77.04158933333333, "is_reserved": 0, "fusion_lon": 0.0, "bike_id": "7056186738f8e3a9d551381765f1e8a0", "name": "7056186738f8e3a9d551381765f1e8a0", "rental_uris": {"ios": "https://dc.lft.to/lastmile_qr_scan", "android": "https://dc.lft.to/lastmile_qr_scan"}}, {"is_disabled": 0, "fusion_lat": 0.0, "lat": 38.947185, "type": "electric_scooter", "lon": -77.03341316666666, "is_reserved": 0, "fusion_lon": 0.0, "bike_id": "2ca9ccc426b60366e01edf2a596ac354", "name": "2ca9ccc426b60366e01edf2a596ac354", "rental_uris": {"ios": "https://dc.lft.to/lastmile_qr_scan", "android": "https://dc.lft.to/lastmile_qr_scan"}}, {"is_disabled": 0, "fusion_lat": 0.0, "lat": 38.93712166666667, "type": "electric_scooter", "lon": -77.02927783333334, "is_reserved": 0, "fusion_lon": 0.0, "bike_id": "639edb7a4079f3bdef7b0ccc4fbf3d6b", "name": "639edb7a4079f3bdef7b0ccc4fbf3d6b", "rental_uris": {"ios": "https://dc.lft.to/lastmile_qr_scan", "android": "https://dc.lft.to/lastmile_qr_scan"}}, {"is_disabled": 0, "fusion_lat": 0.0, "lat": 38.95793783333333, "type": "electric_bike", "lon": -77.00187366666667, "is_reserved": 0, "fusion_lon": 0.0, "bike_id": "2cb12b272455349c882f1efed42cb159", "name": "2cb12b272455349c882f1efed42cb159", "rental_uris": {"ios": "https://dc.lft.to/lastmile_qr_scan", "android": "https://dc.lft.to/lastmile_qr_scan"}}, {"is_disabled": 0, "fusion_lat": 0.0, "lat": 38.85505283333333, "type": "electric_bike", "lon": -76.98406483333333, "is_reserved": 0, "fusion_lon": 0.0, "bike_id": "b97a91872250dc7463e71f069523178d", "name": "b97a91872250dc7463e71f069523178d", "rental_uris": {"ios": "https://dc.lft.to/lastmile_qr_scan", "android": "https://dc.lft.to/lastmile_qr_scan"}}, {"is_disabled": 0, "fusion_lat": 0.0, "lat": 38.904975666666665, "type": "electric_scooter", "lon": -77.02595566666666, "is_reserved": 0, "fusion_lon": 0.0, "bike_id": "163fd98f2c73d5876d126e09b0b33432", "name": "163fd98f2c73d5876d126e09b0b33432", "rental_uris": {"ios": "https://dc.lft.to/lastmile_qr_scan", "android": "https://dc.lft.to/lastmile_qr_scan"}}, {"is_disabled": 0, "fusion_lat": 0.0, "lat": 38.92850266666667, "type": "electric_scooter", "lon": -77.01401183333333, "is_reserved": 0, "fusion_lon": 0.0, "bike_id": "2602d217dba013bcfa5ce2e4f6ef98b4", "name": "2602d217dba013bcfa5ce2e4f6ef98b4", "rental_uris": {"ios": "https://dc.lft.to/lastmile_qr_scan", "android": "https://dc.lft.to/lastmile_qr_scan"}}, {"is_disabled": 0, "fusion_lat": 0.0, "lat": 38.89744966666667, "type": "electric_scooter", "lon": -77.007419, "is_reserved": 0, "fusion_lon": 0.0, "bike_id": "9e619d79603162928eccc33374883138", "name": "9e619d79603162928eccc33374883138", "rental_uris": {"ios": "https://dc.lft.to/lastmile_qr_scan", "android": "https://dc.lft.to/lastmile_qr_scan"}}, {"is_disabled": 0, "fusion_lat": 0.0, "lat": 38.916843166666666, "type": "electric_scooter", "lon": -77.022803, "is_reserved": 0, "fusion_lon": 0.0, "bike_id": "3160a16544e4eae8afe30d98415b371d", "name": "3160a16544e4eae8afe30d98415b371d", "rental_uris": {"ios": "https://dc.lft.to/lastmile_qr_scan", "android": "https://dc.lft.to/lastmile_qr_scan"}}, {"is_disabled": 0, "fusion_lat": 0.0, "lat": 38.88382333333333, "type": "electric_scooter", "lon": -77.04601316666667, "is_reserved": 0, "fusion_lon": 0.0, "bike_id": "31dc7d658ab2290da01d70203261f9e4", "name": "31dc7d658ab2290da01d70203261f9e4", "rental_uris": {"ios": "https://dc.lft.to/lastmile_qr_scan", "android": "https://dc.lft.to/lastmile_qr_scan"}}, {"is_disabled": 0, "fusion_lat": 0.0, "lat": 38.8372675, "type": "electric_bike", "lon": -76.99758316666667, "is_reserved": 0, "fusion_lon": 0.0, "bike_id": "a7f2bb72a356f9934fa902a55105617b", "name": "a7f2bb72a356f9934fa902a55105617b", "rental_uris": {"ios": "https://dc.lft.to/lastmile_qr_scan", "android": "https://dc.lft.to/lastmile_qr_scan"}}, {"is_disabled": 0, "fusion_lat": 0.0, "lat": 38.889963, "type": "electric_scooter", "lon": -76.955638, "is_reserved": 0, "fusion_lon": 0.0, "bike_id": "a4998dd9062e493782dd82b7a6c5064b", "name": "a4998dd9062e493782dd82b7a6c5064b", "rental_uris": {"ios": "https://dc.lft.to/lastmile_qr_scan", "android": "https://dc.lft.to/lastmile_qr_scan"}}, {"is_disabled": 0, "fusion_lat": 0.0, "lat": 38.91827, "type": "electric_scooter", "lon": -77.02707883333333, "is_reserved": 0, "fusion_lon": 0.0, "bike_id": "40b04a3d0bfd2e1f5d278b02537ab0a1", "name": "40b04a3d0bfd2e1f5d278b02537ab0a1", "rental_uris": {"ios": "https://dc.lft.to/lastmile_qr_scan", "android": "https://dc.lft.to/lastmile_qr_scan"}}, {"is_disabled": 0, "fusion_lat": 0.0, "lat": 38.91552333333333, "type": "electric_scooter", "lon": -77.02155916666666, "is_reserved": 0, "fusion_lon": 0.0, "bike_id": "ead108e02ca56d42208c094bb527d46f", "name": "ead108e02ca56d42208c094bb527d46f", "rental_uris": {"ios": "https://dc.lft.to/lastmile_qr_scan", "android": "https://dc.lft.to/lastmile_qr_scan"}}, {"is_disabled": 0, "fusion_lat": 0.0, "lat": 38.9245725, "type": "electric_bike", "lon": -76.97555, "is_reserved": 0, "fusion_lon": 0.0, "bike_id": "f66e7d191f6eec0af44aafd54567528a", "name": "f66e7d191f6eec0af44aafd54567528a", "rental_uris": {"ios": "https://dc.lft.to/lastmile_qr_scan", "android": "https://dc.lft.to/lastmile_qr_scan"}}, {"is_disabled": 0, "fusion_lat": 0.0, "lat": 38.9226525, "type": "electric_scooter", "lon": -77.018487, "is_reserved": 0, "fusion_lon": 0.0, "bike_id": "6baf8ccee1aea582ac828699920485f9", "name": "6baf8ccee1aea582ac828699920485f9", "rental_uris": {"ios": "https://dc.lft.to/lastmile_qr_scan", "android": "https://dc.lft.to/lastmile_qr_scan"}}, {"is_disabled": 0, "fusion_lat": 0.0, "lat": 38.85562, "type": "electric_scooter", "lon": -76.9950045, "is_reserved": 0, "fusion_lon": 0.0, "bike_id": "5ce3b76bab14c78a43fd26735c2b4640", "name": "5ce3b76bab14c78a43fd26735c2b4640", "rental_uris": {"ios": "https://dc.lft.to/lastmile_qr_scan", "android": "https://dc.lft.to/lastmile_qr_scan"}}, {"is_disabled": 0, "fusion_lat": 0.0, "lat": 38.90275666666667, "type": "electric_scooter", "lon": -77.04027583333334, "is_reserved": 0, "fusion_lon": 0.0, "bike_id": "175920f81bc4a7af0ee122d3a442f377", "name": "175920f81bc4a7af0ee122d3a442f377", "rental_uris": {"ios": "https://dc.lft.to/lastmile_qr_scan", "android": "https://dc.lft.to/lastmile_qr_scan"}}, {"is_disabled": 0, "fusion_lat": 0.0, "lat": 38.9183585, "type": "electric_scooter", "lon": -77.04153116666667, "is_reserved": 0, "fusion_lon": 0.0, "bike_id": "ac8e7bf8df4246dc016d01911f10da68", "name": "ac8e7bf8df4246dc016d01911f10da68", "rental_uris": {"ios": "https://dc.lft.to/lastmile_qr_scan", "android": "https://dc.lft.to/lastmile_qr_scan"}}, {"is_disabled": 0, "fusion_lat": 0.0, "lat": 38.9272245, "type": "electric_scooter", "lon": -77.0365345, "is_reserved": 0, "fusion_lon": 0.0, "bike_id": "090cf1a21397881b2c1f58fbdf40ed9a", "name": "090cf1a21397881b2c1f58fbdf40ed9a", "rental_uris": {"ios": "https://dc.lft.to/lastmile_qr_scan", "android": "https://dc.lft.to/lastmile_qr_scan"}}, {"is_disabled": 0, "fusion_lat": 0.0, "lat": 38.90120616666667, "type": "electric_scooter", "lon": -77.02174316666667, "is_reserved": 0, "fusion_lon": 0.0, "bike_id": "c57bb16aae2fcd36829e1190fea1e18f", "name": "c57bb16aae2fcd36829e1190fea1e18f", "rental_uris": {"ios": "https://dc.lft.to/lastmile_qr_scan", "android": "https://dc.lft.to/lastmile_qr_scan"}}, {"is_disabled": 0, "fusion_lat": 0.0, "lat": 38.903559333333334, "type": "electric_scooter", "lon": -77.0363205, "is_reserved": 0, "fusion_lon": 0.0, "bike_id": "3956be8cfdefb4527bd1291a66710fe3", "name": "3956be8cfdefb4527bd1291a66710fe3", "rental_uris": {"ios": "https://dc.lft.to/lastmile_qr_scan", "android": "https://dc.lft.to/lastmile_qr_scan"}}, {"is_disabled": 0, "fusion_lat": 0.0, "lat": 38.935101333333336, "type": "electric_scooter", "lon": -77.0329565, "is_reserved": 0, "fusion_lon": 0.0, "bike_id": "df34784d7806de135adc35fedb40ece3", "name": "df34784d7806de135adc35fedb40ece3", "rental_uris": {"ios": "https://dc.lft.to/lastmile_qr_scan", "android": "https://dc.lft.to/lastmile_qr_scan"}}, {"is_disabled": 0, "fusion_lat": 0.0, "lat": 38.916349, "type": "electric_scooter", "lon": -77.03213366666667, "is_reserved": 0, "fusion_lon": 0.0, "bike_id": "d4e7a9e9dee8e525bdfc42825bce189e", "name": "d4e7a9e9dee8e525bdfc42825bce189e", "rental_uris": {"ios": "https://dc.lft.to/lastmile_qr_scan", "android": "https://dc.lft.to/lastmile_qr_scan"}}, {"is_disabled": 0, "fusion_lat": 0.0, "lat": 38.91827266666667, "type": "electric_scooter", "lon": -77.0351845, "is_reserved": 0, "fusion_lon": 0.0, "bike_id": "30a4e5dab32895c42abfca4b083c14e5", "name": "30a4e5dab32895c42abfca4b083c14e5", "rental_uris": {"ios": "https://dc.lft.to/lastmile_qr_scan", "android": "https://dc.lft.to/lastmile_qr_scan"}}, {"is_disabled": 0, "fusion_lat": 0.0, "lat": 38.8860275, "type": "electric_scooter", "lon": -77.04512666666666, "is_reserved": 0, "fusion_lon": 0.0, "bike_id": "59b331ccf09e289885c64f9e71bf154e", "name": "59b331ccf09e289885c64f9e71bf154e", "rental_uris": {"ios": "https://dc.lft.to/lastmile_qr_scan", "android": "https://dc.lft.to/lastmile_qr_scan"}}, {"is_disabled": 0, "fusion_lat": 0.0, "lat": 38.90074116666667, "type": "electric_scooter", "lon": -77.01280833333334, "is_reserved": 0, "fusion_lon": 0.0, "bike_id": "41af2cfbe541d0cc21507a908e8a9043", "name": "41af2cfbe541d0cc21507a908e8a9043", "rental_uris": {"ios": "https://dc.lft.to/lastmile_qr_scan", "android": "https://dc.lft.to/lastmile_qr_scan"}}, {"is_disabled": 0, "fusion_lat": 0.0, "lat": 38.924176833333334, "type": "electric_scooter", "lon": -77.05600483333333, "is_reserved": 0, "fusion_lon": 0.0, "bike_id": "3155892161192afed4aea60d5b3bcfca", "name": "3155892161192afed4aea60d5b3bcfca", "rental_uris": {"ios": "https://dc.lft.to/lastmile_qr_scan", "android": "https://dc.lft.to/lastmile_qr_scan"}}, {"is_disabled": 0, "fusion_lat": 0.0, "lat": 38.896043666666664, "type": "electric_scooter", "lon": -77.03168633333334, "is_reserved": 0, "fusion_lon": 0.0, "bike_id": "57b4a34995aff11fb9bb1dc78af2f699", "name": "57b4a34995aff11fb9bb1dc78af2f699", "rental_uris": {"ios": "https://dc.lft.to/lastmile_qr_scan", "android": "https://dc.lft.to/lastmile_qr_scan"}}, {"is_disabled": 0, "fusion_lat": 0.0, "lat": 38.926804833333335, "type": "electric_scooter", "lon": -77.03042966666666, "is_reserved": 0, "fusion_lon": 0.0, "bike_id": "9f72d766e543b930be2fbf1706febb9f", "name": "9f72d766e543b930be2fbf1706febb9f", "rental_uris": {"ios": "https://dc.lft.to/lastmile_qr_scan", "android": "https://dc.lft.to/lastmile_qr_scan"}}, {"is_disabled": 0, "fusion_lat": 0.0, "lat": 38.956344333333334, "type": "electric_scooter", "lon": -77.03301833333333, "is_reserved": 0, "fusion_lon": 0.0, "bike_id": "24d1931a8c1e2a663b1c82526ad2106e", "name": "24d1931a8c1e2a663b1c82526ad2106e", "rental_uris": {"ios": "https://dc.lft.to/lastmile_qr_scan", "android": "https://dc.lft.to/lastmile_qr_scan"}}, {"is_disabled": 0, "fusion_lat": 0.0, "lat": 38.90282333333333, "type": "electric_scooter", "lon": -77.03831466666666, "is_reserved": 0, "fusion_lon": 0.0, "bike_id": "58903011fedc247e242006f140c7e0e1", "name": "58903011fedc247e242006f140c7e0e1", "rental_uris": {"ios": "https://dc.lft.to/lastmile_qr_scan", "android": "https://dc.lft.to/lastmile_qr_scan"}}, {"is_disabled": 0, "fusion_lat": 0.0, "lat": 38.845881, "type": "electric_scooter", "lon": -76.981595, "is_reserved": 0, "fusion_lon": 0.0, "bike_id": "fcb78cf134ae163adb9a520143c5a986", "name": "fcb78cf134ae163adb9a520143c5a986", "rental_uris": {"ios": "https://dc.lft.to/lastmile_qr_scan", "android": "https://dc.lft.to/lastmile_qr_scan"}}, {"is_disabled": 0, "fusion_lat": 0.0, "lat": 38.93604633333333, "type": "electric_scooter", "lon": -77.03783233333333, "is_reserved": 0, "fusion_lon": 0.0, "bike_id": "55c447b58c67c422df5f4e6b20cdf8d2", "name": "55c447b58c67c422df5f4e6b20cdf8d2", "rental_uris": {"ios": "https://dc.lft.to/lastmile_qr_scan", "android": "https://dc.lft.to/lastmile_qr_scan"}}, {"is_disabled": 0, "fusion_lat": 0.0, "lat": 38.921798333333335, "type": "electric_scooter", "lon": -77.047053, "is_reserved": 0, "fusion_lon": 0.0, "bike_id": "a6f8dcf32cbf049a762a03443cd07cc8", "name": "a6f8dcf32cbf049a762a03443cd07cc8", "rental_uris": {"ios": "https://dc.lft.to/lastmile_qr_scan", "android": "https://dc.lft.to/lastmile_qr_scan"}}, {"is_disabled": 0, "fusion_lat": 0.0, "lat": 38.88440816666667, "type": "electric_scooter", "lon": -77.03030266666667, "is_reserved": 0, "fusion_lon": 0.0, "bike_id": "e0571fd1cc55bea69d53b685ea2d7a37", "name": "e0571fd1cc55bea69d53b685ea2d7a37", "rental_uris": {"ios": "https://dc.lft.to/lastmile_qr_scan", "android": "https://dc.lft.to/lastmile_qr_scan"}}, {"is_disabled": 0, "fusion_lat": 0.0, "lat": 38.879412, "type": "electric_scooter", "lon": -77.00512633333334, "is_reserved": 0, "fusion_lon": 0.0, "bike_id": "c1480646f0d0493e79328ff7ffe5026a", "name": "c1480646f0d0493e79328ff7ffe5026a", "rental_uris": {"ios": "https://dc.lft.to/lastmile_qr_scan", "android": "https://dc.lft.to/lastmile_qr_scan"}}, {"is_disabled": 0, "fusion_lat": 0.0, "lat": 38.908412166666665, "type": "electric_scooter", "lon": -77.023478, "is_reserved": 0, "fusion_lon": 0.0, "bike_id": "dca052ab1562f610179e9d2bd69e70b2", "name": "dca052ab1562f610179e9d2bd69e70b2", "rental_uris": {"ios": "https://dc.lft.to/lastmile_qr_scan", "android": "https://dc.lft.to/lastmile_qr_scan"}}, {"is_disabled": 0, "fusion_lat": 0.0, "lat": 38.89213216666667, "type": "electric_scooter", "lon": -77.000481, "is_reserved": 0, "fusion_lon": 0.0, "bike_id": "dc05edd682596f353eee48108f254abd", "name": "dc05edd682596f353eee48108f254abd", "rental_uris": {"ios": "https://dc.lft.to/lastmile_qr_scan", "android": "https://dc.lft.to/lastmile_qr_scan"}}, {"is_disabled": 0, "fusion_lat": 0.0, "lat": 38.91724383333333, "type": "electric_scooter", "lon": -77.02344483333333, "is_reserved": 0, "fusion_lon": 0.0, "bike_id": "f3d58fbddf62efd00ff3137faac25877", "name": "f3d58fbddf62efd00ff3137faac25877", "rental_uris": {"ios": "https://dc.lft.to/lastmile_qr_scan", "android": "https://dc.lft.to/lastmile_qr_scan"}}, {"is_disabled": 0, "fusion_lat": 0.0, "lat": 38.91192233333334, "type": "electric_scooter", "lon": -77.06086816666667, "is_reserved": 0, "fusion_lon": 0.0, "bike_id": "360ae4b8df6e49cda38206a8ab3532a9", "name": "360ae4b8df6e49cda38206a8ab3532a9", "rental_uris": {"ios": "https://dc.lft.to/lastmile_qr_scan", "android": "https://dc.lft.to/lastmile_qr_scan"}}, {"is_disabled": 0, "fusion_lat": 0.0, "lat": 38.84463816666667, "type": "electric_scooter", "lon": -76.99857, "is_reserved": 0, "fusion_lon": 0.0, "bike_id": "8df854558a23890efde87684406e107a", "name": "8df854558a23890efde87684406e107a", "rental_uris": {"ios": "https://dc.lft.to/lastmile_qr_scan", "android": "https://dc.lft.to/lastmile_qr_scan"}}, {"is_disabled": 0, "fusion_lat": 0.0, "lat": 38.860601333333335, "type": "electric_bike", "lon": -77.056398, "is_reserved": 0, "fusion_lon": 0.0, "bike_id": "085662df4250c6a6700a0b889dda9aa8", "name": "085662df4250c6a6700a0b889dda9aa8", "rental_uris": {"ios": "https://dc.lft.to/lastmile_qr_scan", "android": "https://dc.lft.to/lastmile_qr_scan"}}, {"is_disabled": 0, "fusion_lat": 0.0, "lat": 38.904241999999996, "type": "electric_scooter", "lon": -77.02080433333333, "is_reserved": 0, "fusion_lon": 0.0, "bike_id": "40ca3c0e034e5b2c0e2210bcb9403635", "name": "40ca3c0e034e5b2c0e2210bcb9403635", "rental_uris": {"ios": "https://dc.lft.to/lastmile_qr_scan", "android": "https://dc.lft.to/lastmile_qr_scan"}}, {"is_disabled": 0, "fusion_lat": 0.0, "lat": 38.902738, "type": "electric_scooter", "lon": -77.03344066666666, "is_reserved": 0, "fusion_lon": 0.0, "bike_id": "01d84922d419d84f8a4bb7d1af10205f", "name": "01d84922d419d84f8a4bb7d1af10205f", "rental_uris": {"ios": "https://dc.lft.to/lastmile_qr_scan", "android": "https://dc.lft.to/lastmile_qr_scan"}}, {"is_disabled": 0, "fusion_lat": 0.0, "lat": 38.915531666666666, "type": "electric_scooter", "lon": -77.03376316666666, "is_reserved": 0, "fusion_lon": 0.0, "bike_id": "dfff1d492988ca66919cf670453012ec", "name": "dfff1d492988ca66919cf670453012ec", "rental_uris": {"ios": "https://dc.lft.to/lastmile_qr_scan", "android": "https://dc.lft.to/lastmile_qr_scan"}}, {"is_disabled": 0, "fusion_lat": 0.0, "lat": 38.9046825, "type": "electric_scooter", "lon": -77.04846283333333, "is_reserved": 0, "fusion_lon": 0.0, "bike_id": "e7d34bf96d49fc8c2b17c79f2feb6257", "name": "e7d34bf96d49fc8c2b17c79f2feb6257", "rental_uris": {"ios": "https://dc.lft.to/lastmile_qr_scan", "android": "https://dc.lft.to/lastmile_qr_scan"}}, {"is_disabled": 0, "fusion_lat": 0.0, "lat": 38.89742616666667, "type": "electric_scooter", "lon": -77.000279, "is_reserved": 0, "fusion_lon": 0.0, "bike_id": "732ab5661bea043abfd8c821c9d99db5", "name": "732ab5661bea043abfd8c821c9d99db5", "rental_uris": {"ios": "https://dc.lft.to/lastmile_qr_scan", "android": "https://dc.lft.to/lastmile_qr_scan"}}, {"is_disabled": 0, "fusion_lat": 0.0, "lat": 38.89627433333333, "type": "electric_scooter", "lon": -76.98500733333333, "is_reserved": 0, "fusion_lon": 0.0, "bike_id": "af784c5d99c8f4f6429ef0d314f2121b", "name": "af784c5d99c8f4f6429ef0d314f2121b", "rental_uris": {"ios": "https://dc.lft.to/lastmile_qr_scan", "android": "https://dc.lft.to/lastmile_qr_scan"}}, {"is_disabled": 0, "fusion_lat": 0.0, "lat": 38.903898, "type": "electric_scooter", "lon": -77.04378166666666, "is_reserved": 0, "fusion_lon": 0.0, "bike_id": "b0718e4f3d90250e3e868d119a3a00f9", "name": "b0718e4f3d90250e3e868d119a3a00f9", "rental_uris": {"ios": "https://dc.lft.to/lastmile_qr_scan", "android": "https://dc.lft.to/lastmile_qr_scan"}}, {"is_disabled": 0, "fusion_lat": 0.0, "lat": 38.900388, "type": "electric_scooter", "lon": -76.98824866666666, "is_reserved": 0, "fusion_lon": 0.0, "bike_id": "4ea71861293c41253dcb3ebd1c4e7b5e", "name": "4ea71861293c41253dcb3ebd1c4e7b5e", "rental_uris": {"ios": "https://dc.lft.to/lastmile_qr_scan", "android": "https://dc.lft.to/lastmile_qr_scan"}}, {"is_disabled": 0, "fusion_lat": 0.0, "lat": 38.91705016666667, "type": "electric_scooter", "lon": -77.00109283333333, "is_reserved": 0, "fusion_lon": 0.0, "bike_id": "bd13deb5a08ca7ad060ce914e5593df2", "name": "bd13deb5a08ca7ad060ce914e5593df2", "rental_uris": {"ios": "https://dc.lft.to/lastmile_qr_scan", "android": "https://dc.lft.to/lastmile_qr_scan"}}, {"is_disabled": 0, "fusion_lat": 0.0, "lat": 38.91412416666667, "type": "electric_scooter", "lon": -77.02167116666666, "is_reserved": 0, "fusion_lon": 0.0, "bike_id": "c34681d636cc709e15a785b6a7ea5c6a", "name": "c34681d636cc709e15a785b6a7ea5c6a", "rental_uris": {"ios": "https://dc.lft.to/lastmile_qr_scan", "android": "https://dc.lft.to/lastmile_qr_scan"}}, {"is_disabled": 0, "fusion_lat": 0.0, "lat": 38.95958683333333, "type": "electric_bike", "lon": -77.10082833333334, "is_reserved": 0, "fusion_lon": 0.0, "bike_id": "2e5e08b6619a06edfa3a173f13c5e72b", "name": "2e5e08b6619a06edfa3a173f13c5e72b", "rental_uris": {"ios": "https://dc.lft.to/lastmile_qr_scan", "android": "https://dc.lft.to/lastmile_qr_scan"}}, {"is_disabled": 0, "fusion_lat": 0.0, "lat": 38.89811516666666, "type": "electric_scooter", "lon": -77.0087675, "is_reserved": 0, "fusion_lon": 0.0, "bike_id": "4f8f702f2f6a0b15c344898d80d7630a", "name": "4f8f702f2f6a0b15c344898d80d7630a", "rental_uris": {"ios": "https://dc.lft.to/lastmile_qr_scan", "android": "https://dc.lft.to/lastmile_qr_scan"}}, {"is_disabled": 0, "fusion_lat": 0.0, "lat": 38.93684733333333, "type": "electric_scooter", "lon": -77.03623333333333, "is_reserved": 0, "fusion_lon": 0.0, "bike_id": "581d1bc3ca11adbcbb7419371372136c", "name": "581d1bc3ca11adbcbb7419371372136c", "rental_uris": {"ios": "https://dc.lft.to/lastmile_qr_scan", "android": "https://dc.lft.to/lastmile_qr_scan"}}, {"is_disabled": 0, "fusion_lat": 0.0, "lat": 38.90350816666667, "type": "electric_scooter", "lon": -77.06216633333334, "is_reserved": 0, "fusion_lon": 0.0, "bike_id": "508875b74a3e89bdf1c775496321153f", "name": "508875b74a3e89bdf1c775496321153f", "rental_uris": {"ios": "https://dc.lft.to/lastmile_qr_scan", "android": "https://dc.lft.to/lastmile_qr_scan"}}, {"is_disabled": 0, "fusion_lat": 0.0, "lat": 38.9133305, "type": "electric_scooter", "lon": -77.04272083333333, "is_reserved": 0, "fusion_lon": 0.0, "bike_id": "747e7c6ab6f7fa14500adf27c846e02b", "name": "747e7c6ab6f7fa14500adf27c846e02b", "rental_uris": {"ios": "https://dc.lft.to/lastmile_qr_scan", "android": "https://dc.lft.to/lastmile_qr_scan"}}, {"is_disabled": 0, "fusion_lat": 0.0, "lat": 38.87931833333333, "type": "electric_scooter", "lon": -77.016899, "is_reserved": 0, "fusion_lon": 0.0, "bike_id": "122a25d028f4c22f48cc60de19854444", "name": "122a25d028f4c22f48cc60de19854444", "rental_uris": {"ios": "https://dc.lft.to/lastmile_qr_scan", "android": "https://dc.lft.to/lastmile_qr_scan"}}, {"is_disabled": 0, "fusion_lat": 0.0, "lat": 38.86188416666667, "type": "electric_scooter", "lon": -76.99449316666667, "is_reserved": 0, "fusion_lon": 0.0, "bike_id": "32a2732be406afac5e62654febe20ce0", "name": "32a2732be406afac5e62654febe20ce0", "rental_uris": {"ios": "https://dc.lft.to/lastmile_qr_scan", "android": "https://dc.lft.to/lastmile_qr_scan"}}, {"is_disabled": 0, "fusion_lat": 0.0, "lat": 38.917805, "type": "electric_scooter", "lon": -77.0228625, "is_reserved": 0, "fusion_lon": 0.0, "bike_id": "24045b5b2a65669eb65210a0ad974bb4", "name": "24045b5b2a65669eb65210a0ad974bb4", "rental_uris": {"ios": "https://dc.lft.to/lastmile_qr_scan", "android": "https://dc.lft.to/lastmile_qr_scan"}}, {"is_disabled": 0, "fusion_lat": 0.0, "lat": 38.90502216666667, "type": "electric_scooter", "lon": -77.04063916666667, "is_reserved": 0, "fusion_lon": 0.0, "bike_id": "81e118b2e52c5ddf3f47c380aaf0d50c", "name": "81e118b2e52c5ddf3f47c380aaf0d50c", "rental_uris": {"ios": "https://dc.lft.to/lastmile_qr_scan", "android": "https://dc.lft.to/lastmile_qr_scan"}}, {"is_disabled": 0, "fusion_lat": 0.0, "lat": 38.9339925, "type": "electric_scooter", "lon": -77.03877666666666, "is_reserved": 0, "fusion_lon": 0.0, "bike_id": "56cfce8505618654d3552260bea63f1e", "name": "56cfce8505618654d3552260bea63f1e", "rental_uris": {"ios": "https://dc.lft.to/lastmile_qr_scan", "android": "https://dc.lft.to/lastmile_qr_scan"}}, {"is_disabled": 0, "fusion_lat": 0.0, "lat": 38.8868175, "type": "electric_scooter", "lon": -77.0020625, "is_reserved": 0, "fusion_lon": 0.0, "bike_id": "4368adea76be23f95d31f21028ac311b", "name": "4368adea76be23f95d31f21028ac311b", "rental_uris": {"ios": "https://dc.lft.to/lastmile_qr_scan", "android": "https://dc.lft.to/lastmile_qr_scan"}}, {"is_disabled": 0, "fusion_lat": 0.0, "lat": 38.90636383333333, "type": "electric_scooter", "lon": -77.01130816666667, "is_reserved": 0, "fusion_lon": 0.0, "bike_id": "d3051c037de82b6e321f8b0fdd5c76ef", "name": "d3051c037de82b6e321f8b0fdd5c76ef", "rental_uris": {"ios": "https://dc.lft.to/lastmile_qr_scan", "android": "https://dc.lft.to/lastmile_qr_scan"}}, {"is_disabled": 0, "fusion_lat": 0.0, "lat": 38.92613133333333, "type": "electric_scooter", "lon": -77.05697116666667, "is_reserved": 0, "fusion_lon": 0.0, "bike_id": "faf8d6ee2ed7482a86ef4e75975d0480", "name": "faf8d6ee2ed7482a86ef4e75975d0480", "rental_uris": {"ios": "https://dc.lft.to/lastmile_qr_scan", "android": "https://dc.lft.to/lastmile_qr_scan"}}, {"is_disabled": 0, "fusion_lat": 0.0, "lat": 38.844259, "type": "electric_scooter", "lon": -76.99776016666667, "is_reserved": 0, "fusion_lon": 0.0, "bike_id": "04c78d2305b3dfe97fadd70c6f900794", "name": "04c78d2305b3dfe97fadd70c6f900794", "rental_uris": {"ios": "https://dc.lft.to/lastmile_qr_scan", "android": "https://dc.lft.to/lastmile_qr_scan"}}, {"is_disabled": 0, "fusion_lat": 0.0, "lat": 38.810530166666666, "type": "electric_bike", "lon": -77.08506233333334, "is_reserved": 0, "fusion_lon": 0.0, "bike_id": "c2e5d895b47ab333832e163b872051e1", "name": "c2e5d895b47ab333832e163b872051e1", "rental_uris": {"ios": "https://dc.lft.to/lastmile_qr_scan", "android": "https://dc.lft.to/lastmile_qr_scan"}}, {"is_disabled": 0, "fusion_lat": 0.0, "lat": 38.877471666666665, "type": "electric_bike", "lon": -76.98053583333333, "is_reserved": 0, "fusion_lon": 0.0, "bike_id": "08c8ab2e80ef08f9d46338da466d6b30", "name": "08c8ab2e80ef08f9d46338da466d6b30", "rental_uris": {"ios": "https://dc.lft.to/lastmile_qr_scan", "android": "https://dc.lft.to/lastmile_qr_scan"}}, {"is_disabled": 0, "fusion_lat": 0.0, "lat": 38.91959666666666, "type": "electric_scooter", "lon": -77.01520633333334, "is_reserved": 0, "fusion_lon": 0.0, "bike_id": "a72786e15d7a2f9e8ba1e2a286e42f27", "name": "a72786e15d7a2f9e8ba1e2a286e42f27", "rental_uris": {"ios": "https://dc.lft.to/lastmile_qr_scan", "android": "https://dc.lft.to/lastmile_qr_scan"}}, {"is_disabled": 0, "fusion_lat": 0.0, "lat": 38.89223333333333, "type": "electric_scooter", "lon": -77.0485935, "is_reserved": 0, "fusion_lon": 0.0, "bike_id": "36c1fd552ca17e60ab7d356191c36887", "name": "36c1fd552ca17e60ab7d356191c36887", "rental_uris": {"ios": "https://dc.lft.to/lastmile_qr_scan", "android": "https://dc.lft.to/lastmile_qr_scan"}}, {"is_disabled": 0, "fusion_lat": 0.0, "lat": 38.934296333333336, "type": "electric_scooter", "lon": -77.0283835, "is_reserved": 0, "fusion_lon": 0.0, "bike_id": "2579e9d1062fdb4926075f9a0f5783fd", "name": "2579e9d1062fdb4926075f9a0f5783fd", "rental_uris": {"ios": "https://dc.lft.to/lastmile_qr_scan", "android": "https://dc.lft.to/lastmile_qr_scan"}}, {"is_disabled": 0, "fusion_lat": 0.0, "lat": 38.9062795, "type": "electric_scooter", "lon": -77.03563066666666, "is_reserved": 0, "fusion_lon": 0.0, "bike_id": "cb8a7ee810a9ede7415955c7f19e4dc5", "name": "cb8a7ee810a9ede7415955c7f19e4dc5", "rental_uris": {"ios": "https://dc.lft.to/lastmile_qr_scan", "android": "https://dc.lft.to/lastmile_qr_scan"}}, {"is_disabled": 0, "fusion_lat": 0.0, "lat": 38.854306333333334, "type": "electric_bike", "lon": -76.90979466666667, "is_reserved": 0, "fusion_lon": 0.0, "bike_id": "ed8a5dce8a124765fab6efc867c0dff7", "name": "ed8a5dce8a124765fab6efc867c0dff7", "rental_uris": {"ios": "https://dc.lft.to/lastmile_qr_scan", "android": "https://dc.lft.to/lastmile_qr_scan"}}, {"is_disabled": 0, "fusion_lat": 0.0, "lat": 38.882093833333336, "type": "electric_scooter", "lon": -76.99938933333334, "is_reserved": 0, "fusion_lon": 0.0, "bike_id": "869e70f579ee95e03187705b30beaa2d", "name": "869e70f579ee95e03187705b30beaa2d", "rental_uris": {"ios": "https://dc.lft.to/lastmile_qr_scan", "android": "https://dc.lft.to/lastmile_qr_scan"}}, {"is_disabled": 0, "fusion_lat": 0.0, "lat": 38.90863183333333, "type": "electric_scooter", "lon": -77.04374733333333, "is_reserved": 0, "fusion_lon": 0.0, "bike_id": "6ac9002e4f7d6f4985676fb4b61385ad", "name": "6ac9002e4f7d6f4985676fb4b61385ad", "rental_uris": {"ios": "https://dc.lft.to/lastmile_qr_scan", "android": "https://dc.lft.to/lastmile_qr_scan"}}, {"is_disabled": 0, "fusion_lat": 0.0, "lat": 38.90363883333333, "type": "electric_scooter", "lon": -77.00339683333333, "is_reserved": 0, "fusion_lon": 0.0, "bike_id": "c87fa44b26274d1571a4a752659af406", "name": "c87fa44b26274d1571a4a752659af406", "rental_uris": {"ios": "https://dc.lft.to/lastmile_qr_scan", "android": "https://dc.lft.to/lastmile_qr_scan"}}, {"is_disabled": 0, "fusion_lat": 0.0, "lat": 38.866646333333335, "type": "electric_scooter", "lon": -76.989092, "is_reserved": 0, "fusion_lon": 0.0, "bike_id": "7c7bb48f098adf971c1004b7c551c1d5", "name": "7c7bb48f098adf971c1004b7c551c1d5", "rental_uris": {"ios": "https://dc.lft.to/lastmile_qr_scan", "android": "https://dc.lft.to/lastmile_qr_scan"}}, {"is_disabled": 0, "fusion_lat": 0.0, "lat": 38.906483, "type": "electric_scooter", "lon": -77.008354, "is_reserved": 0, "fusion_lon": 0.0, "bike_id": "be443e13a5992524f57f68c206c76291", "name": "be443e13a5992524f57f68c206c76291", "rental_uris": {"ios": "https://dc.lft.to/lastmile_qr_scan", "android": "https://dc.lft.to/lastmile_qr_scan"}}, {"is_disabled": 0, "fusion_lat": 0.0, "lat": 38.902855833333334, "type": "electric_scooter", "lon": -77.03842016666667, "is_reserved": 0, "fusion_lon": 0.0, "bike_id": "8753cae2f15e4f5a45c66b39aeed6c9c", "name": "8753cae2f15e4f5a45c66b39aeed6c9c", "rental_uris": {"ios": "https://dc.lft.to/lastmile_qr_scan", "android": "https://dc.lft.to/lastmile_qr_scan"}}, {"is_disabled": 0, "fusion_lat": 0.0, "lat": 38.880336666666665, "type": "electric_scooter", "lon": -77.0307615, "is_reserved": 0, "fusion_lon": 0.0, "bike_id": "73967fd51202f619b45f7abb20433f98", "name": "73967fd51202f619b45f7abb20433f98", "rental_uris": {"ios": "https://dc.lft.to/lastmile_qr_scan", "android": "https://dc.lft.to/lastmile_qr_scan"}}, {"is_disabled": 0, "fusion_lat": 0.0, "lat": 38.93351083333334, "type": "electric_scooter", "lon": -77.06935116666666, "is_reserved": 0, "fusion_lon": 0.0, "bike_id": "065ebc80de243e71dd855ba2fdba921a", "name": "065ebc80de243e71dd855ba2fdba921a", "rental_uris": {"ios": "https://dc.lft.to/lastmile_qr_scan", "android": "https://dc.lft.to/lastmile_qr_scan"}}, {"is_disabled": 0, "fusion_lat": 0.0, "lat": 38.917462666666665, "type": "electric_scooter", "lon": -77.03460683333333, "is_reserved": 0, "fusion_lon": 0.0, "bike_id": "cf6ec3223481513f1cfd06eb574cf716", "name": "cf6ec3223481513f1cfd06eb574cf716", "rental_uris": {"ios": "https://dc.lft.to/lastmile_qr_scan", "android": "https://dc.lft.to/lastmile_qr_scan"}}, {"is_disabled": 0, "fusion_lat": 0.0, "lat": 38.912038, "type": "electric_scooter", "lon": -77.04460816666666, "is_reserved": 0, "fusion_lon": 0.0, "bike_id": "44539f5dddbf6804654c3c44758d15ff", "name": "44539f5dddbf6804654c3c44758d15ff", "rental_uris": {"ios": "https://dc.lft.to/lastmile_qr_scan", "android": "https://dc.lft.to/lastmile_qr_scan"}}, {"is_disabled": 0, "fusion_lat": 0.0, "lat": 38.91659033333333, "type": "electric_scooter", "lon": -77.04178733333333, "is_reserved": 0, "fusion_lon": 0.0, "bike_id": "cdcf14b622142410eb66ae4f000c1dac", "name": "cdcf14b622142410eb66ae4f000c1dac", "rental_uris": {"ios": "https://dc.lft.to/lastmile_qr_scan", "android": "https://dc.lft.to/lastmile_qr_scan"}}, {"is_disabled": 0, "fusion_lat": 0.0, "lat": 38.9034765, "type": "electric_scooter", "lon": -77.03466866666666, "is_reserved": 0, "fusion_lon": 0.0, "bike_id": "6b4a395a44e41ff6a8888f90c0752df7", "name": "6b4a395a44e41ff6a8888f90c0752df7", "rental_uris": {"ios": "https://dc.lft.to/lastmile_qr_scan", "android": "https://dc.lft.to/lastmile_qr_scan"}}, {"is_disabled": 0, "fusion_lat": 0.0, "lat": 38.9070145, "type": "electric_scooter", "lon": -77.03444, "is_reserved": 0, "fusion_lon": 0.0, "bike_id": "0a413c115d059bf70e592a4da71b8143", "name": "0a413c115d059bf70e592a4da71b8143", "rental_uris": {"ios": "https://dc.lft.to/lastmile_qr_scan", "android": "https://dc.lft.to/lastmile_qr_scan"}}, {"is_disabled": 0, "fusion_lat": 0.0, "lat": 38.8887465, "type": "electric_scooter", "lon": -77.001112, "is_reserved": 0, "fusion_lon": 0.0, "bike_id": "aa1b6ad45d3c1474147e1129c0641601", "name": "aa1b6ad45d3c1474147e1129c0641601", "rental_uris": {"ios": "https://dc.lft.to/lastmile_qr_scan", "android": "https://dc.lft.to/lastmile_qr_scan"}}, {"is_disabled": 0, "fusion_lat": 0.0, "lat": 38.90096716666667, "type": "electric_scooter", "lon": -77.023948, "is_reserved": 0, "fusion_lon": 0.0, "bike_id": "d876ca7258f4dc8a84764ee46dbb3b9c", "name": "d876ca7258f4dc8a84764ee46dbb3b9c", "rental_uris": {"ios": "https://dc.lft.to/lastmile_qr_scan", "android": "https://dc.lft.to/lastmile_qr_scan"}}, {"is_disabled": 0, "fusion_lat": 0.0, "lat": 38.9171285, "type": "electric_scooter", "lon": -77.037692, "is_reserved": 0, "fusion_lon": 0.0, "bike_id": "f7e681ab8a63dd6ea89922e9c675d7c4", "name": "f7e681ab8a63dd6ea89922e9c675d7c4", "rental_uris": {"ios": "https://dc.lft.to/lastmile_qr_scan", "android": "https://dc.lft.to/lastmile_qr_scan"}}, {"is_disabled": 0, "fusion_lat": 0.0, "lat": 38.92098033333333, "type": "electric_scooter", "lon": -77.063257, "is_reserved": 0, "fusion_lon": 0.0, "bike_id": "1f7deeb5c8a7f4e784072aba35bfab5f", "name": "1f7deeb5c8a7f4e784072aba35bfab5f", "rental_uris": {"ios": "https://dc.lft.to/lastmile_qr_scan", "android": "https://dc.lft.to/lastmile_qr_scan"}}, {"is_disabled": 0, "fusion_lat": 0.0, "lat": 38.926395666666664, "type": "electric_scooter", "lon": -77.01339283333333, "is_reserved": 0, "fusion_lon": 0.0, "bike_id": "977b6cfd6fc3b536e9cf51a0f7cbe2cc", "name": "977b6cfd6fc3b536e9cf51a0f7cbe2cc", "rental_uris": {"ios": "https://dc.lft.to/lastmile_qr_scan", "android": "https://dc.lft.to/lastmile_qr_scan"}}, {"is_disabled": 0, "fusion_lat": 0.0, "lat": 38.90787133333333, "type": "electric_scooter", "lon": -77.04440633333333, "is_reserved": 0, "fusion_lon": 0.0, "bike_id": "769fb1ab71ba3955754ff0f61b307027", "name": "769fb1ab71ba3955754ff0f61b307027", "rental_uris": {"ios": "https://dc.lft.to/lastmile_qr_scan", "android": "https://dc.lft.to/lastmile_qr_scan"}}, {"is_disabled": 0, "fusion_lat": 0.0, "lat": 38.899026166666665, "type": "electric_scooter", "lon": -77.007193, "is_reserved": 0, "fusion_lon": 0.0, "bike_id": "f8eaccec02ed6bd8e0416bf2fac5cd5d", "name": "f8eaccec02ed6bd8e0416bf2fac5cd5d", "rental_uris": {"ios": "https://dc.lft.to/lastmile_qr_scan", "android": "https://dc.lft.to/lastmile_qr_scan"}}, {"is_disabled": 0, "fusion_lat": 0.0, "lat": 38.940866666666665, "type": "electric_scooter", "lon": -77.02718183333333, "is_reserved": 0, "fusion_lon": 0.0, "bike_id": "0c8af3c241dd8c2b7c24fd6487a37243", "name": "0c8af3c241dd8c2b7c24fd6487a37243", "rental_uris": {"ios": "https://dc.lft.to/lastmile_qr_scan", "android": "https://dc.lft.to/lastmile_qr_scan"}}, {"is_disabled": 0, "fusion_lat": 0.0, "lat": 38.92602616666667, "type": "electric_scooter", "lon": -77.05686166666666, "is_reserved": 0, "fusion_lon": 0.0, "bike_id": "6ce317e31efba3efee0d6da5bf20349c", "name": "6ce317e31efba3efee0d6da5bf20349c", "rental_uris": {"ios": "https://dc.lft.to/lastmile_qr_scan", "android": "https://dc.lft.to/lastmile_qr_scan"}}, {"is_disabled": 0, "fusion_lat": 0.0, "lat": 38.93768016666667, "type": "electric_scooter", "lon": -77.02103833333334, "is_reserved": 0, "fusion_lon": 0.0, "bike_id": "76d03c33967fcdda31aaab800a3a0031", "name": "76d03c33967fcdda31aaab800a3a0031", "rental_uris": {"ios": "https://dc.lft.to/lastmile_qr_scan", "android": "https://dc.lft.to/lastmile_qr_scan"}}, {"is_disabled": 0, "fusion_lat": 0.0, "lat": 38.923261333333336, "type": "electric_scooter", "lon": -77.038944, "is_reserved": 0, "fusion_lon": 0.0, "bike_id": "64139030158b130804a51e8d495da21b", "name": "64139030158b130804a51e8d495da21b", "rental_uris": {"ios": "https://dc.lft.to/lastmile_qr_scan", "android": "https://dc.lft.to/lastmile_qr_scan"}}, {"is_disabled": 0, "fusion_lat": 0.0, "lat": 38.9182345, "type": "electric_scooter", "lon": -77.03528333333334, "is_reserved": 0, "fusion_lon": 0.0, "bike_id": "85b0596e1a9f3830dfa60f8a0fa30d42", "name": "85b0596e1a9f3830dfa60f8a0fa30d42", "rental_uris": {"ios": "https://dc.lft.to/lastmile_qr_scan", "android": "https://dc.lft.to/lastmile_qr_scan"}}, {"is_disabled": 0, "fusion_lat": 0.0, "lat": 38.903747833333334, "type": "electric_scooter", "lon": -77.01854733333333, "is_reserved": 0, "fusion_lon": 0.0, "bike_id": "2084c35cf4fd7b3e284a54c8007980fa", "name": "2084c35cf4fd7b3e284a54c8007980fa", "rental_uris": {"ios": "https://dc.lft.to/lastmile_qr_scan", "android": "https://dc.lft.to/lastmile_qr_scan"}}, {"is_disabled": 0, "fusion_lat": 0.0, "lat": 38.95086383333334, "type": "electric_scooter", "lon": -77.02827466666666, "is_reserved": 0, "fusion_lon": 0.0, "bike_id": "38c23148da54b742c597adf9e3847c59", "name": "38c23148da54b742c597adf9e3847c59", "rental_uris": {"ios": "https://dc.lft.to/lastmile_qr_scan", "android": "https://dc.lft.to/lastmile_qr_scan"}}, {"is_disabled": 0, "fusion_lat": 0.0, "lat": 38.82085466666667, "type": "electric_bike", "lon": -77.05362883333333, "is_reserved": 0, "fusion_lon": 0.0, "bike_id": "8196d9d029fa0618d36538bb27aceb45", "name": "8196d9d029fa0618d36538bb27aceb45", "rental_uris": {"ios": "https://dc.lft.to/lastmile_qr_scan", "android": "https://dc.lft.to/lastmile_qr_scan"}}, {"is_disabled": 0, "fusion_lat": 0.0, "lat": 38.919465, "type": "electric_scooter", "lon": -77.0318545, "is_reserved": 0, "fusion_lon": 0.0, "bike_id": "fc6a101e86bbbabfe742c9b3c03b1c32", "name": "fc6a101e86bbbabfe742c9b3c03b1c32", "rental_uris": {"ios": "https://dc.lft.to/lastmile_qr_scan", "android": "https://dc.lft.to/lastmile_qr_scan"}}, {"is_disabled": 0, "fusion_lat": 0.0, "lat": 38.91961216666667, "type": "electric_scooter", "lon": -77.03203366666666, "is_reserved": 0, "fusion_lon": 0.0, "bike_id": "6d0af62db3b8b1e8e10f44dcc988a0bc", "name": "6d0af62db3b8b1e8e10f44dcc988a0bc", "rental_uris": {"ios": "https://dc.lft.to/lastmile_qr_scan", "android": "https://dc.lft.to/lastmile_qr_scan"}}, {"is_disabled": 0, "fusion_lat": 0.0, "lat": 38.95268466666667, "type": "electric_bike", "lon": -77.06969966666666, "is_reserved": 0, "fusion_lon": 0.0, "bike_id": "b209c3bb6ec9e403c47c2125c5c2069b", "name": "b209c3bb6ec9e403c47c2125c5c2069b", "rental_uris": {"ios": "https://dc.lft.to/lastmile_qr_scan", "android": "https://dc.lft.to/lastmile_qr_scan"}}, {"is_disabled": 0, "fusion_lat": 0.0, "lat": 38.906647, "type": "electric_scooter", "lon": -77.026899, "is_reserved": 0, "fusion_lon": 0.0, "bike_id": "d0e8ba4163937469a4846138073cb8ef", "name": "d0e8ba4163937469a4846138073cb8ef", "rental_uris": {"ios": "https://dc.lft.to/lastmile_qr_scan", "android": "https://dc.lft.to/lastmile_qr_scan"}}, {"is_disabled": 0, "fusion_lat": 0.0, "lat": 38.9353495, "type": "electric_scooter", "lon": -77.02350333333334, "is_reserved": 0, "fusion_lon": 0.0, "bike_id": "935de89f6b57e17b89d6329e8e5dda8c", "name": "935de89f6b57e17b89d6329e8e5dda8c", "rental_uris": {"ios": "https://dc.lft.to/lastmile_qr_scan", "android": "https://dc.lft.to/lastmile_qr_scan"}},