{"data": {"bikes": [{"fusion_lat": 0.0, "name": "7879815dcffc56ee90e45c751849441a", "is_disabled": 0, "rental_uris": {"android": "https://dc.lft.to/lastmile_qr_scan", "ios": "https://dc.lft.to/lastmile_qr_scan"}, "fusion_lon": 0.0, "lat": 38.9079235, "bike_id": "7879815dcffc56ee90e45c751849441a", "type": "electric_scooter", "is_reserved": 0, "lon": -77.04348766666666}, {"fusion_lat": 0.0, "name": "1f33bdf4d4a4cccf45ce231d4a1e9509", "is_disabled": 0, "rental_uris": {"android": "https://dc.lft.to/lastmile_qr_scan", "ios": "https://dc.lft.to/lastmile_qr_scan"}, "fusion_lon": 0.0, "lat": 38.85695716666667, "bike_id": "1f33bdf4d4a4cccf45ce231d4a1e9509", "type": "electric_scooter", "is_reserved": 0, "lon": -76.99599}, {"fusion_lat": 0.0, "name": "573fd8bd9a148fe82261d084e86c34e9", "is_disabled": 0, "rental_uris": {"android": "https://dc.lft.to/lastmile_qr_scan", "ios": "https://dc.lft.to/lastmile_qr_scan"}, "fusion_lon": 0.0, "lat": 38.9121845, "bike_id": "573fd8bd9a148fe82261d084e86c34e9", "type": "electric_scooter", "is_reserved": 0, "lon": -77.02714466666667}, {"fusion_lat": 0.0, "name": "7e6a0a9c40a303cad56f9d64245403df", "is_disabled": 0, "rental_uris": {"android": "https://dc.lft.to/lastmile_qr_scan", "ios": "https://dc.lft.to/lastmile_qr_scan"}, "fusion_lon": 0.0, "lat": 38.906248166666664, "bike_id": "7e6a0a9c40a303cad56f9d64245403df", "type": "electric_scooter", "is_reserved": 0, "lon": -77.04136766666667}, {"fusion_lat": 0.0, "name": "5b27f37f9ad217fc831a02f241fe8b54", "is_disabled": 0, "rental_uris": {"android": "https://dc.lft.to/lastmile_qr_scan", "ios": "https://dc.lft.to/lastmile_qr_scan"}, "fusion_lon": 0.0, "lat": 38.8898485, "bike_id": "5b27f37f9ad217fc831a02f241fe8b54", "type": "electric_scooter", "is_reserved": 0, "lon": -76.98414366666667}, {"fusion_lat": 0.0, "name": "a85b8029b90d403dd50d3a5e7a70d08d", "is_disabled": 0, "rental_uris": {"android": "https://dc.lft.to/lastmile_qr_scan", "ios": "https://dc.lft.to/lastmile_qr_scan"}, "fusion_lon": 0.0, "lat": 38.92790866666667, "bike_id": "a85b8029b90d403dd50d3a5e7a70d08d", "type": "electric_scooter", "is_reserved": 0, "lon": -77.05525533333333}, {"fusion_lat": 0.0, "name": "7cd44bb093780f523f26a443a9fa5e14", "is_disabled": 0, "rental_uris": {"android": "https://dc.lft.to/lastmile_qr_scan", "ios": "https://dc.lft.to/lastmile_qr_scan"}, "fusion_lon": 0.0, "lat": 38.88792883333333, "bike_id": "7cd44bb093780f523f26a443a9fa5e14", "type": "electric_bike", "is_reserved": 0, "lon": -76.92993116666666}, {"fusion_lat": 0.0, "name": "648f67f25e908ef593eb5b12a5bba3f6", "is_disabled": 0, "rental_uris": {"android": "https://dc.lft.to/lastmile_qr_scan", "ios": "https://dc.lft.to/lastmile_qr_scan"}, "fusion_lon": 0.0, "lat": 38.916893, "bike_id": "648f67f25e908ef593eb5b12a5bba3f6", "type": "electric_scooter", "is_reserved": 0, "lon": -77.040828}, {"fusion_lat": 0.0, "name": "c6bff56672bdd78355ddac430776e114", "is_disabled": 0, "rental_uris": {"android": "https://dc.lft.to/lastmile_qr_scan", "ios": "https://dc.lft.to/lastmile_qr_scan"}, "fusion_lon": 0.0, "lat": 38.88158083333333, "bike_id": "c6bff56672bdd78355ddac430776e114", "type": "electric_scooter", "is_reserved": 0, "lon": -77.02735583333333}, {"fusion_lat": 0.0, "name": "37f4e962a85c82cd209ad6d1d801ec1c", "is_disabled": 0, "rental_uris": {"android": "https://dc.lft.to/lastmile_qr_scan", "ios": "https://dc.lft.to/lastmile_qr_scan"}, "fusion_lon": 0.0, "lat": 38.898732, "bike_id": "37f4e962a85c82cd209ad6d1d801ec1c", "type": "electric_scooter", "is_reserved": 0, "lon": -76.93183883333333}, {"fusion_lat": 0.0, "name": "e935ed28e5def1eaafa08c83ce26b5e8", "is_disabled": 0, "rental_uris": {"android": "https://dc.lft.to/lastmile_qr_scan", "ios": "https://dc.lft.to/lastmile_qr_scan"}, "fusion_lon": 0.0, "lat": 38.902291166666664, "bike_id": "e935ed28e5def1eaafa08c83ce26b5e8", "type": "electric_bike", "is_reserved": 0, "lon": -77.0230125}, {"fusion_lat": 0.0, "name": "321ede82ff0d442e2fc98da8b1d7aae1", "is_disabled": 0, "rental_uris": {"android": "https://dc.lft.to/lastmile_qr_scan", "ios": "https://dc.lft.to/lastmile_qr_scan"}, "fusion_lon": 0.0, "lat": 38.92864333333333, "bike_id": "321ede82ff0d442e2fc98da8b1d7aae1", "type": "electric_scooter", "is_reserved": 0, "lon": -77.03496766666666}, {"fusion_lat": 0.0, "name": "a72eb2ea1d56743e33536020eabec320", "is_disabled": 0, "rental_uris": {"android": "https://dc.lft.to/lastmile_qr_scan", "ios": "https://dc.lft.to/lastmile_qr_scan"}, "fusion_lon": 0.0, "lat": 38.9087175, "bike_id": "a72eb2ea1d56743e33536020eabec320", "type": "electric_scooter", "is_reserved": 0, "lon": -77.038519}, {"fusion_lat": 0.0, "name": "803bb53aa266b986cecb8c601d03fc8b", "is_disabled": 0, "rental_uris": {"android": "https://dc.lft.to/lastmile_qr_scan", "ios": "https://dc.lft.to/lastmile_qr_scan"}, "fusion_lon": 0.0, "lat": 38.93096283333333, "bike_id": "803bb53aa266b986cecb8c601d03fc8b", "type": "electric_scooter", "is_reserved": 0, "lon": -77.02477466666667}, {"fusion_lat": 0.0, "name": "30cd343f97b8c3b12cb795f0aeead144", "is_disabled": 0, "rental_uris": {"android": "https://dc.lft.to/lastmile_qr_scan", "ios": "https://dc.lft.to/lastmile_qr_scan"}, "fusion_lon": 0.0, "lat": 38.90222466666667, "bike_id": "30cd343f97b8c3b12cb795f0aeead144", "type": "electric_scooter", "is_reserved": 0, "lon": -77.04620566666667}, {"fusion_lat": 0.0, "name": "f976ea4d8594c630ec629a4e92445e6c", "is_disabled": 0, "rental_uris": {"android": "https://dc.lft.to/lastmile_qr_scan", "ios": "https://dc.lft.to/lastmile_qr_scan"}, "fusion_lon": 0.0, "lat": 38.9318445, "bike_id": "f976ea4d8594c630ec629a4e92445e6c", "type": "electric_scooter", "is_reserved": 0, "lon": -77.0429915}, {"fusion_lat": 0.0, "name": "8f91dc8eb2a532c0458e188bd3a5a0fe", "is_disabled": 0, "rental_uris": {"android": "https://dc.lft.to/lastmile_qr_scan", "ios": "https://dc.lft.to/lastmile_qr_scan"}, "fusion_lon": 0.0, "lat": 38.8996665, "bike_id": "8f91dc8eb2a532c0458e188bd3a5a0fe", "type": "electric_scooter", "is_reserved": 0, "lon": -77.04049566666667}, {"fusion_lat": 0.0, "name": "86548a8c30395cf645e8bf49cf008754", "is_disabled": 0, "rental_uris": {"android": "https://dc.lft.to/lastmile_qr_scan", "ios": "https://dc.lft.to/lastmile_qr_scan"}, "fusion_lon": 0.0, "lat": 38.9238045, "bike_id": "86548a8c30395cf645e8bf49cf008754", "type": "electric_scooter", "is_reserved": 0, "lon": -77.07532266666666}, {"fusion_lat": 0.0, "name": "7c256150a1bdf48961f476d01bcf4d07", "is_disabled": 0, "rental_uris": {"android": "https://dc.lft.to/lastmile_qr_scan", "ios": "https://dc.lft.to/lastmile_qr_scan"}, "fusion_lon": 0.0, "lat": 38.902538666666665, "bike_id": "7c256150a1bdf48961f476d01bcf4d07", "type": "electric_scooter", "is_reserved": 0, "lon": -77.0261805}, {"fusion_lat": 0.0, "name": "8c51999ce944a72129edab6ec3718b60", "is_disabled": 0, "rental_uris": {"android": "https://dc.lft.to/lastmile_qr_scan", "ios": "https://dc.lft.to/lastmile_qr_scan"}, "fusion_lon": 0.0, "lat": 38.91801516666666, "bike_id": "8c51999ce944a72129edab6ec3718b60", "type": "electric_scooter", "is_reserved": 0, "lon": -77.03658083333333}, {"fusion_lat": 0.0, "name": "cc50791ea7334a5403418f6f81d1f8e3", "is_disabled": 0, "rental_uris": {"android": "https://dc.lft.to/lastmile_qr_scan", "ios": "https://dc.lft.to/lastmile_qr_scan"}, "fusion_lon": 0.0, "lat": 38.940891, "bike_id": "cc50791ea7334a5403418f6f81d1f8e3", "type": "electric_scooter", "is_reserved": 0, "lon": -77.02497683333333}, {"fusion_lat": 0.0, "name": "661735817d05b88a29a5cfaec93b9ba1", "is_disabled": 0, "rental_uris": {"android": "https://dc.lft.to/lastmile_qr_scan", "ios": "https://dc.lft.to/lastmile_qr_scan"}, "fusion_lon": 0.0, "lat": 38.904138, "bike_id": "661735817d05b88a29a5cfaec93b9ba1", "type": "electric_scooter", "is_reserved": 0, "lon": -77.0239625}, {"fusion_lat": 0.0, "name": "1846d35671c06a7ff94a1a54bae81b05", "is_disabled": 0, "rental_uris": {"android": "https://dc.lft.to/lastmile_qr_scan", "ios": "https://dc.lft.to/lastmile_qr_scan"}, "fusion_lon": 0.0, "lat": 38.90034083333333, "bike_id": "1846d35671c06a7ff94a1a54bae81b05", "type": "electric_scooter", "is_reserved": 0, "lon": -77.01208416666667}, {"fusion_lat": 0.0, "name": "f6459180161b4601bb2779c0c0df89b5", "is_disabled": 0, "rental_uris": {"android": "https://dc.lft.to/lastmile_qr_scan", "ios": "https://dc.lft.to/lastmile_qr_scan"}, "fusion_lon": 0.0, "lat": 38.845846, "bike_id": "f6459180161b4601bb2779c0c0df89b5", "type": "electric_bike", "is_reserved": 0, "lon": -76.98166233333333}, {"fusion_lat": 0.0, "name": "83d75514dfaa04f541ec9cc7e5e28043", "is_disabled": 0, "rental_uris": {"android": "https://dc.lft.to/lastmile_qr_scan", "ios": "https://dc.lft.to/lastmile_qr_scan"}, "fusion_lon": 0.0, "lat": 38.927409833333336, "bike_id": "83d75514dfaa04f541ec9cc7e5e28043", "type": "electric_scooter", "is_reserved": 0, "lon": -77.03350866666666}, {"fusion_lat": 0.0, "name": "350c1ad49f7d7acdd2355a9599250eeb", "is_disabled": 0, "rental_uris": {"android": "https://dc.lft.to/lastmile_qr_scan", "ios": "https://dc.lft.to/lastmile_qr_scan"}, "fusion_lon": 0.0, "lat": 38.897037166666664, "bike_id": "350c1ad49f7d7acdd2355a9599250eeb", "type": "electric_scooter", "is_reserved": 0, "lon": -77.00733333333334}, {"fusion_lat": 0.0, "name": "bfb5a51590f8fab81797fba248362b95", "is_disabled": 0, "rental_uris": {"android": "https://dc.lft.to/lastmile_qr_scan", "ios": "https://dc.lft.to/lastmile_qr_scan"}, "fusion_lon": 0.0, "lat": 38.899036333333335, "bike_id": "bfb5a51590f8fab81797fba248362b95", "type": "electric_scooter", "is_reserved": 0, "lon": -77.056775}, {"fusion_lat": 0.0, "name": "ae9f5dd4fdb9baf62319688d9b5d5ddb", "is_disabled": 0, "rental_uris": {"android": "https://dc.lft.to/lastmile_qr_scan", "ios": "https://dc.lft.to/lastmile_qr_scan"}, "fusion_lon": 0.0, "lat": 38.9126725, "bike_id": "ae9f5dd4fdb9baf62319688d9b5d5ddb", "type": "electric_scooter", "is_reserved": 0, "lon": -77.02987833333333}, {"fusion_lat": 0.0, "name": "69e6eea1bafbfd9df4fa82533b0740bd", "is_disabled": 0, "rental_uris": {"android": "https://dc.lft.to/lastmile_qr_scan", "ios": "https://dc.lft.to/lastmile_qr_scan"}, "fusion_lon": 0.0, "lat": 38.92634966666667, "bike_id": "69e6eea1bafbfd9df4fa82533b0740bd", "type": "electric_scooter", "is_reserved": 0, "lon": -77.0368735}, {"fusion_lat": 0.0, "name": "dfdef89b9a6660f66d9e4e7e693ed4dd", "is_disabled": 0, "rental_uris": {"android": "https://dc.lft.to/lastmile_qr_scan", "ios": "https://dc.lft.to/lastmile_qr_scan"}, "fusion_lon": 0.0, "lat": 38.89064616666667, "bike_id": "dfdef89b9a6660f66d9e4e7e693ed4dd", "type": "electric_scooter", "is_reserved": 0, "lon": -76.944485}, {"fusion_lat": 0.0, "name": "bd23de7193a3d7d98d8085e8bace85c1", "is_disabled": 0, "rental_uris": {"android": "https://dc.lft.to/lastmile_qr_scan", "ios": "https://dc.lft.to/lastmile_qr_scan"}, "fusion_lon": 0.0, "lat": 38.913889833333336, "bike_id": "bd23de7193a3d7d98d8085e8bace85c1", "type": "electric_scooter", "is_reserved": 0, "lon": -77.033255}, {"fusion_lat": 0.0, "name": "4c174d8741bde214c04df8b31b4536b7", "is_disabled": 0, "rental_uris": {"android": "https://dc.lft.to/lastmile_qr_scan", "ios": "https://dc.lft.to/lastmile_qr_scan"}, "fusion_lon": 0.0, "lat": 38.91787816666667, "bike_id": "4c174d8741bde214c04df8b31b4536b7", "type": "electric_scooter", "is_reserved": 0, "lon": -77.00926433333333}, {"fusion_lat": 0.0, "name": "c1035007b061fe9911b47d106d80f9a8", "is_disabled": 0, "rental_uris": {"android": "https://dc.lft.to/lastmile_qr_scan", "ios": "https://dc.lft.to/lastmile_qr_scan"}, "fusion_lon": 0.0, "lat": 38.960098333333335, "bike_id": "c1035007b061fe9911b47d106d80f9a8", "type": "electric_scooter", "is_reserved": 0, "lon": -77.01977416666666}, {"fusion_lat": 0.0, "name": "a4bdc63ccfc0738b3848009e55f15509", "is_disabled": 0, "rental_uris": {"android": "https://dc.lft.to/lastmile_qr_scan", "ios": "https://dc.lft.to/lastmile_qr_scan"}, "fusion_lon": 0.0, "lat": 38.9319385, "bike_id": "a4bdc63ccfc0738b3848009e55f15509", "type": "electric_scooter", "is_reserved": 0, "lon": -77.02796216666667}, {"fusion_lat": 0.0, "name": "7bdced9b067bbd9d208b19184dbf9800", "is_disabled": 0, "rental_uris": {"android": "https://dc.lft.to/lastmile_qr_scan", "ios": "https://dc.lft.to/lastmile_qr_scan"}, "fusion_lon": 0.0, "lat": 38.89921316666667, "bike_id": "7bdced9b067bbd9d208b19184dbf9800", "type": "electric_scooter", "is_reserved": 0, "lon": -77.00354683333333}, {"fusion_lat": 0.0, "name": "58a05b917986ebf2bb0b933b16eb79e4", "is_disabled": 0, "rental_uris": {"android": "https://dc.lft.to/lastmile_qr_scan", "ios": "https://dc.lft.to/lastmile_qr_scan"}, "fusion_lon": 0.0, "lat": 38.9215985, "bike_id": "58a05b917986ebf2bb0b933b16eb79e4", "type": "electric_scooter", "is_reserved": 0, "lon": -77.03643466666666}, {"fusion_lat": 0.0, "name": "cef561566fa7d8fe16ac082befa12b6b", "is_disabled": 0, "rental_uris": {"android": "https://dc.lft.to/lastmile_qr_scan", "ios": "https://dc.lft.to/lastmile_qr_scan"}, "fusion_lon": 0.0, "lat": 38.8876315, "bike_id": "cef561566fa7d8fe16ac082befa12b6b", "type": "electric_scooter", "is_reserved": 0, "lon": -76.9946865}, {"fusion_lat": 0.0, "name": "5e12e9d25852e132acaa82b9bc6c5a63", "is_disabled": 0, "rental_uris": {"android": "https://dc.lft.to/lastmile_qr_scan", "ios": "https://dc.lft.to/lastmile_qr_scan"}, "fusion_lon": 0.0, "lat": 38.89850083333333, "bike_id": "5e12e9d25852e132acaa82b9bc6c5a63", "type": "electric_scooter", "is_reserved": 0, "lon": -77.02196933333333}, {"fusion_lat": 0.0, "name": "2e7e4e7ca39151d59716c92777296b6c", "is_disabled": 0, "rental_uris": {"android": "https://dc.lft.to/lastmile_qr_scan", "ios": "https://dc.lft.to/lastmile_qr_scan"}, "fusion_lon": 0.0, "lat": 38.90723033333333, "bike_id": "2e7e4e7ca39151d59716c92777296b6c", "type": "electric_scooter", "is_reserved": 0, "lon": -77.04053516666667}, {"fusion_lat": 0.0, "name": "5c74d875c6269879c22ea37b5462d12e", "is_disabled": 0, "rental_uris": {"android": "https://dc.lft.to/lastmile_qr_scan", "ios": "https://dc.lft.to/lastmile_qr_scan"}, "fusion_lon": 0.0, "lat": 38.917021, "bike_id": "5c74d875c6269879c22ea37b5462d12e", "type": "electric_scooter", "is_reserved": 0, "lon": -77.027244}, {"fusion_lat": 0.0, "name": "55058b6f509c97ad01deb961b0075b26", "is_disabled": 0, "rental_uris": {"android": "https://dc.lft.to/lastmile_qr_scan", "ios": "https://dc.lft.to/lastmile_qr_scan"}, "fusion_lon": 0.0, "lat": 38.9183575, "bike_id": "55058b6f509c97ad01deb961b0075b26", "type": "electric_scooter", "is_reserved": 0, "lon": -76.96540533333334}, {"fusion_lat": 0.0, "name": "0dda78de97b1c9f49828fc55c3c81025", "is_disabled": 0, "rental_uris": {"android": "https://dc.lft.to/lastmile_qr_scan", "ios": "https://dc.lft.to/lastmile_qr_scan"}, "fusion_lon": 0.0, "lat": 38.9165955, "bike_id": "0dda78de97b1c9f49828fc55c3c81025", "type": "electric_scooter", "is_reserved": 0, "lon": -77.02817816666666}, {"fusion_lat": 0.0, "name": "6e5d00087d838a29ea7d9afa542e6cd8", "is_disabled": 0, "rental_uris": {"android": "https://dc.lft.to/lastmile_qr_scan", "ios": "https://dc.lft.to/lastmile_qr_scan"}, "fusion_lon": 0.0, "lat": 38.907141833333334, "bike_id": "6e5d00087d838a29ea7d9afa542e6cd8", "type": "electric_scooter", "is_reserved": 0, "lon": -77.00372283333333}, {"fusion_lat": 0.0, "name": "3049c5df77d776b0404e3b314bf94d3d", "is_disabled": 0, "rental_uris": {"android": "https://dc.lft.to/lastmile_qr_scan", "ios": "https://dc.lft.to/lastmile_qr_scan"}, "fusion_lon": 0.0, "lat": 38.92474566666667, "bike_id": "3049c5df77d776b0404e3b314bf94d3d", "type": "electric_scooter", "is_reserved": 0, "lon": -77.02554016666667}, {"fusion_lat": 0.0, "name": "ab390b6202718215fedfa99ec7405a7c", "is_disabled": 0, "rental_uris": {"android": "https://dc.lft.to/lastmile_qr_scan", "ios": "https://dc.lft.to/lastmile_qr_scan"}, "fusion_lon": 0.0, "lat": 38.920884666666666, "bike_id": "ab390b6202718215fedfa99ec7405a7c", "type": "electric_scooter", "is_reserved": 0, "lon": -77.02416383333333}, {"fusion_lat": 0.0, "name": "374795c158a8011080ae5e08e35627fd", "is_disabled": 0, "rental_uris": {"android": "https://dc.lft.to/lastmile_qr_scan", "ios": "https://dc.lft.to/lastmile_qr_scan"}, "fusion_lon": 0.0, "lat": 38.98475466666667, "bike_id": "374795c158a8011080ae5e08e35627fd", "type": "electric_scooter", "is_reserved": 0, "lon": -77.02639333333333}, {"fusion_lat": 0.0, "name": "e671b268adb3dc176d9ff0a59bf7f324", "is_disabled": 0, "rental_uris": {"android": "https://dc.lft.to/lastmile_qr_scan", "ios": "https://dc.lft.to/lastmile_qr_scan"}, "fusion_lon": 0.0, "lat": 38.91710333333333, "bike_id": "e671b268adb3dc176d9ff0a59bf7f324", "type": "electric_scooter", "is_reserved": 0, "lon": -77.0286925}, {"fusion_lat": 0.0, "name": "b8f6502761d65f08f1d672de87616e7e", "is_disabled": 0, "rental_uris": {"android": "https://dc.lft.to/lastmile_qr_scan", "ios": "https://dc.lft.to/lastmile_qr_scan"}, "fusion_lon": 0.0, "lat": 38.90935866666667, "bike_id": "b8f6502761d65f08f1d672de87616e7e", "type": "electric_scooter", "is_reserved": 0, "lon": -77.0184885}, {"fusion_lat": 0.0, "name": "45ac26de6c8c58226983b1fd531b04f0", "is_disabled": 0, "rental_uris": {"android": "https://dc.lft.to/lastmile_qr_scan", "ios": "https://dc.lft.to/lastmile_qr_scan"}, "fusion_lon": 0.0, "lat": 38.9214775, "bike_id": "45ac26de6c8c58226983b1fd531b04f0", "type": "electric_scooter", "is_reserved": 0, "lon": -77.03866116666667}, {"fusion_lat": 0.0, "name": "89ba44d8da5a3d111af82741175e432e", "is_disabled": 0, "rental_uris": {"android": "https://dc.lft.to/lastmile_qr_scan", "ios": "https://dc.lft.to/lastmile_qr_scan"}, "fusion_lon": 0.0, "lat": 38.9118525, "bike_id": "89ba44d8da5a3d111af82741175e432e", "type": "electric_scooter", "is_reserved": 0, "lon": -77.03262866666667}, {"fusion_lat": 0.0, "name": "10001b6cd803678f915f7897452edf67", "is_disabled": 0, "rental_uris": {"android": "https://dc.lft.to/lastmile_qr_scan", "ios": "https://dc.lft.to/lastmile_qr_scan"}, "fusion_lon": 0.0, "lat": 38.88763466666666, "bike_id": "10001b6cd803678f915f7897452edf67", "type": "electric_scooter", "is_reserved": 0, "lon": -76.9774825}, {"fusion_lat": 0.0, "name": "c4f00a5b490686876e66fc2e70194562", "is_disabled": 0, "rental_uris": {"android": "https://dc.lft.to/lastmile_qr_scan", "ios": "https://dc.lft.to/lastmile_qr_scan"}, "fusion_lon": 0.0, "lat": 38.906822, "bike_id": "c4f00a5b490686876e66fc2e70194562", "type": "electric_bike", "is_reserved": 0, "lon": -76.94493466666667}, {"fusion_lat": 0.0, "name": "059da4c1b8fb83a22be688bbbdb47184", "is_disabled": 0, "rental_uris": {"android": "https://dc.lft.to/lastmile_qr_scan", "ios": "https://dc.lft.to/lastmile_qr_scan"}, "fusion_lon": 0.0, "lat": 38.901518, "bike_id": "059da4c1b8fb83a22be688bbbdb47184", "type": "electric_scooter", "is_reserved": 0, "lon": -76.93060316666667}, {"fusion_lat": 0.0, "name": "089555d17cf496c16b3a79bb4da9b919", "is_disabled": 0, "rental_uris": {"android": "https://dc.lft.to/lastmile_qr_scan", "ios": "https://dc.lft.to/lastmile_qr_scan"}, "fusion_lon": 0.0, "lat": 38.9040975, "bike_id": "089555d17cf496c16b3a79bb4da9b919", "type": "electric_scooter", "is_reserved": 0, "lon": -76.97329133333334}, {"fusion_lat": 0.0, "name": "2d0e13f6685887e1ddc8b51d87b471a7", "is_disabled": 0, "rental_uris": {"android": "https://dc.lft.to/lastmile_qr_scan", "ios": "https://dc.lft.to/lastmile_qr_scan"}, "fusion_lon": 0.0, "lat": 38.834014, "bike_id": "2d0e13f6685887e1ddc8b51d87b471a7", "type": "electric_bike", "is_reserved": 0, "lon": -77.0032845}, {"fusion_lat": 0.0, "name": "dd3ed3b57e506b80c5af9783df1cc780", "is_disabled": 0, "rental_uris": {"android": "https://dc.lft.to/lastmile_qr_scan", "ios": "https://dc.lft.to/lastmile_qr_scan"}, "fusion_lon": 0.0, "lat": 38.92252233333333, "bike_id": "dd3ed3b57e506b80c5af9783df1cc780", "type": "electric_scooter", "is_reserved": 0, "lon": -77.01840716666666}, {"fusion_lat": 0.0, "name": "199ae92872994cfaedf7606057e64544", "is_disabled": 0, "rental_uris": {"android": "https://dc.lft.to/lastmile_qr_scan", "ios": "https://dc.lft.to/lastmile_qr_scan"}, "fusion_lon": 0.0, "lat": 38.9000855, "bike_id": "199ae92872994cfaedf7606057e64544", "type": "electric_scooter", "is_reserved": 0, "lon": -77.01239933333333}, {"fusion_lat": 0.0, "name": "a9a3d76954a590455e6c532127a984c8", "is_disabled": 0, "rental_uris": {"android": "https://dc.lft.to/lastmile_qr_scan", "ios": "https://dc.lft.to/lastmile_qr_scan"}, "fusion_lon": 0.0, "lat": 38.87756783333333, "bike_id": "a9a3d76954a590455e6c532127a984c8", "type": "electric_scooter", "is_reserved": 0, "lon": -76.9938555}, {"fusion_lat": 0.0, "name": "20555a21be6e563e27c0b79773ac5748", "is_disabled": 0, "rental_uris": {"android": "https://dc.lft.to/lastmile_qr_scan", "ios": "https://dc.lft.to/lastmile_qr_scan"}, "fusion_lon": 0.0, "lat": 38.899817666666664, "bike_id": "20555a21be6e563e27c0b79773ac5748", "type": "electric_scooter", "is_reserved": 0, "lon": -77.02214433333333}, {"fusion_lat": 0.0, "name": "41194ded7f78461f7241abc721a24303", "is_disabled": 0, "rental_uris": {"android": "https://dc.lft.to/lastmile_qr_scan", "ios": "https://dc.lft.to/lastmile_qr_scan"}, "fusion_lon": 0.0, "lat": 38.89439083333333, "bike_id": "41194ded7f78461f7241abc721a24303", "type": "electric_scooter", "is_reserved": 0, "lon": -76.9748635}, {"fusion_lat": 0.0, "name": "10ac67b79fdf6bde6482565ce2a259a4", "is_disabled": 0, "rental_uris": {"android": "https://dc.lft.to/lastmile_qr_scan", "ios": "https://dc.lft.to/lastmile_qr_scan"}, "fusion_lon": 0.0, "lat": 38.906826833333334, "bike_id": "10ac67b79fdf6bde6482565ce2a259a4", "type": "electric_scooter", "is_reserved": 0, "lon": -77.036799}, {"fusion_lat": 0.0, "name": "dbb8a192bb3feab36d5051fc6a49d7ab", "is_disabled": 0, "rental_uris": {"android": "https://dc.lft.to/lastmile_qr_scan", "ios": "https://dc.lft.to/lastmile_qr_scan"}, "fusion_lon": 0.0, "lat": 38.905181666666664, "bike_id": "dbb8a192bb3feab36d5051fc6a49d7ab", "type": "electric_scooter", "is_reserved": 0, "lon": -77.0482955}, {"fusion_lat": 0.0, "name": "615a14a6572021675e27196f8706d0d6", "is_disabled": 0, "rental_uris": {"android": "https://dc.lft.to/lastmile_qr_scan", "ios": "https://dc.lft.to/lastmile_qr_scan"}, "fusion_lon": 0.0, "lat": 38.9068, "bike_id": "615a14a6572021675e27196f8706d0d6", "type": "electric_scooter", "is_reserved": 0, "lon": -77.037507}, {"fusion_lat": 0.0, "name": "8bed050f4f6b8c7024fd3252ddf0b28f", "is_disabled": 0, "rental_uris": {"android": "https://dc.lft.to/lastmile_qr_scan", "ios": "https://dc.lft.to/lastmile_qr_scan"}, "fusion_lon": 0.0, "lat": 38.906056, "bike_id": "8bed050f4f6b8c7024fd3252ddf0b28f", "type": "electric_scooter", "is_reserved": 0, "lon": -77.04142883333333}, {"fusion_lat": 0.0, "name": "ded3ec24c79ffd8a4919090a3b1b4517", "is_disabled": 0, "rental_uris": {"android": "https://dc.lft.to/lastmile_qr_scan", "ios": "https://dc.lft.to/lastmile_qr_scan"}, "fusion_lon": 0.0, "lat": 38.9329865, "bike_id": "ded3ec24c79ffd8a4919090a3b1b4517", "type": "electric_scooter", "is_reserved": 0, "lon": -77.03078483333333}, {"fusion_lat": 0.0, "name": "8e43689ef7fff68bd4a4fb776a041a25", "is_disabled": 0, "rental_uris": {"android": "https://dc.lft.to/lastmile_qr_scan", "ios": "https://dc.lft.to/lastmile_qr_scan"}, "fusion_lon": 0.0, "lat": 38.95630366666666, "bike_id": "8e43689ef7fff68bd4a4fb776a041a25", "type": "electric_scooter", "is_reserved": 0, "lon": -77.03305116666667}, {"fusion_lat": 0.0, "name": "f7ecc06bd1f2278118b0ab3d6839b418", "is_disabled": 0, "rental_uris": {"android": "https://dc.lft.to/lastmile_qr_scan", "ios": "https://dc.lft.to/lastmile_qr_scan"}, "fusion_lon": 0.0, "lat": 38.9078, "bike_id": "f7ecc06bd1f2278118b0ab3d6839b418", "type": "electric_scooter", "is_reserved": 0, "lon": -77.04304983333333}, {"fusion_lat": 0.0, "name": "12b36aabce0ef67ccfe83998a02c585b", "is_disabled": 0, "rental_uris": {"android": "https://dc.lft.to/lastmile_qr_scan", "ios": "https://dc.lft.to/lastmile_qr_scan"}, "fusion_lon": 0.0, "lat": 38.92719916666667, "bike_id": "12b36aabce0ef67ccfe83998a02c585b", "type": "electric_scooter", "is_reserved": 0, "lon": -77.0207605}, {"fusion_lat": 0.0, "name": "952cb6966248083768de0e11339815fe", "is_disabled": 0, "rental_uris": {"android": "https://dc.lft.to/lastmile_qr_scan", "ios": "https://dc.lft.to/lastmile_qr_scan"}, "fusion_lon": 0.0, "lat": 38.900095666666665, "bike_id": "952cb6966248083768de0e11339815fe", "type": "electric_scooter", "is_reserved": 0, "lon": -76.98763516666666}, {"fusion_lat": 0.0, "name": "47aca3691214a06538d4b8c215c91b58", "is_disabled": 0, "rental_uris": {"android": "https://dc.lft.to/lastmile_qr_scan", "ios": "https://dc.lft.to/lastmile_qr_scan"}, "fusion_lon": 0.0, "lat": 38.877068, "bike_id": "47aca3691214a06538d4b8c215c91b58", "type": "electric_scooter", "is_reserved": 0, "lon": -76.99383283333333}, {"fusion_lat": 0.0, "name": "9abf9f6e87c60e9372fa193799f9b750", "is_disabled": 0, "rental_uris": {"android": "https://dc.lft.to/lastmile_qr_scan", "ios": "https://dc.lft.to/lastmile_qr_scan"}, "fusion_lon": 0.0, "lat": 38.896052, "bike_id": "9abf9f6e87c60e9372fa193799f9b750", "type": "electric_scooter", "is_reserved": 0, "lon": -77.0093}, {"fusion_lat": 0.0, "name": "7d61df5afbb8a38c71ccc4bd164e12da", "is_disabled": 0, "rental_uris": {"android": "https://dc.lft.to/lastmile_qr_scan", "ios": "https://dc.lft.to/lastmile_qr_scan"}, "fusion_lon": 0.0, "lat": 38.88612416666667, "bike_id": "7d61df5afbb8a38c71ccc4bd164e12da", "type": "electric_scooter", "is_reserved": 0, "lon": -77.01556916666667}, {"fusion_lat": 0.0, "name": "f1a02722c71ecb043b24bcf8648a3d14", "is_disabled": 0, "rental_uris": {"android": "https://dc.lft.to/lastmile_qr_scan", "ios": "https://dc.lft.to/lastmile_qr_scan"}, "fusion_lon": 0.0, "lat": 38.8987465, "bike_id": "f1a02722c71ecb043b24bcf8648a3d14", "type": "electric_scooter", "is_reserved": 0, "lon": -76.9318555}, {"fusion_lat": 0.0, "name": "d607eed0cb9b7a8eaed717b04d9964d5", "is_disabled": 0, "rental_uris": {"android": "https://dc.lft.to/lastmile_qr_scan", "ios": "https://dc.lft.to/lastmile_qr_scan"}, "fusion_lon": 0.0, "lat": 38.919981166666666, "bike_id": "d607eed0cb9b7a8eaed717b04d9964d5", "type": "electric_scooter", "is_reserved": 0, "lon": -77.02171816666667}, {"fusion_lat": 0.0, "name": "30a74f1f36eda9316e55f686e490e7cd", "is_disabled": 0, "rental_uris": {"android": "https://dc.lft.to/lastmile_qr_scan", "ios": "https://dc.lft.to/lastmile_qr_scan"}, "fusion_lon": 0.0, "lat": 38.924474833333335, "bike_id": "30a74f1f36eda9316e55f686e490e7cd", "type": "electric_scooter", "is_reserved": 0, "lon": -77.00878866666666}, {"fusion_lat": 0.0, "name": "722401a15399fd44df94b04516eacaf0", "is_disabled": 0, "rental_uris": {"android": "https://dc.lft.to/lastmile_qr_scan", "ios": "https://dc.lft.to/lastmile_qr_scan"}, "fusion_lon": 0.0, "lat": 38.89673466666667, "bike_id": "722401a15399fd44df94b04516eacaf0", "type": "electric_scooter", "is_reserved": 0, "lon": -77.05100133333333}, {"fusion_lat": 0.0, "name": "75829037a0c916d88830b76f5334c62e", "is_disabled": 0, "rental_uris": {"android": "https://dc.lft.to/lastmile_qr_scan", "ios": "https://dc.lft.to/lastmile_qr_scan"}, "fusion_lon": 0.0, "lat": 38.93018716666667, "bike_id": "75829037a0c916d88830b76f5334c62e", "type": "electric_scooter", "is_reserved": 0, "lon": -77.0234995}, {"fusion_lat": 0.0, "name": "637010df1044e2be85cfb36403ea7092", "is_disabled": 0, "rental_uris": {"android": "https://dc.lft.to/lastmile_qr_scan", "ios": "https://dc.lft.to/lastmile_qr_scan"}, "fusion_lon": 0.0, "lat": 38.92393716666667, "bike_id": "637010df1044e2be85cfb36403ea7092", "type": "electric_scooter", "is_reserved": 0, "lon": -77.03641583333334}, {"fusion_lat": 0.0, "name": "eea72e362b3fc15fafce80cc8a5f5855", "is_disabled": 0, "rental_uris": {"android": "https://dc.lft.to/lastmile_qr_scan", "ios": "https://dc.lft.to/lastmile_qr_scan"}, "fusion_lon": 0.0, "lat": 38.902601, "bike_id": "eea72e362b3fc15fafce80cc8a5f5855", "type": "electric_scooter", "is_reserved": 0, "lon": -77.04370966666667}, {"fusion_lat": 0.0, "name": "c6ff22c4c759b93301632948b27feeea", "is_disabled": 0, "rental_uris": {"android": "https://dc.lft.to/lastmile_qr_scan", "ios": "https://dc.lft.to/lastmile_qr_scan"}, "fusion_lon": 0.0, "lat": 38.883148, "bike_id": "c6ff22c4c759b93301632948b27feeea", "type": "electric_scooter", "is_reserved": 0, "lon": -77.01387333333334}, {"fusion_lat": 0.0, "name": "5d338d27b31f7715b5739ea0ec477506", "is_disabled": 0, "rental_uris": {"android": "https://dc.lft.to/lastmile_qr_scan", "ios": "https://dc.lft.to/lastmile_qr_scan"}, "fusion_lon": 0.0, "lat": 38.9053865, "bike_id": "5d338d27b31f7715b5739ea0ec477506", "type": "electric_scooter", "is_reserved": 0, "lon": -77.02183883333333}, {"fusion_lat": 0.0, "name": "619d1c8f0bf1f33f9febc52da11764a1", "is_disabled": 0, "rental_uris": {"android": "https://dc.lft.to/lastmile_qr_scan", "ios": "https://dc.lft.to/lastmile_qr_scan"}, "fusion_lon": 0.0, "lat": 38.9974405, "bike_id": "619d1c8f0bf1f33f9febc52da11764a1", "type": "electric_bike", "is_reserved": 0, "lon": -77.02685516666666}, {"fusion_lat": 0.0, "name": "9149e7c8ebdc6d3455ba733aeb66cb4b", "is_disabled": 0, "rental_uris": {"android": "https://dc.lft.to/lastmile_qr_scan", "ios": "https://dc.lft.to/lastmile_qr_scan"}, "fusion_lon": 0.0, "lat": 38.93587316666667, "bike_id": "9149e7c8ebdc6d3455ba733aeb66cb4b", "type": "electric_scooter", "is_reserved": 0, "lon": -77.03355783333333}, {"fusion_lat": 0.0, "name": "c24f49b64d78fb45379845dd7bafb564", "is_disabled": 0, "rental_uris": {"android": "https://dc.lft.to/lastmile_qr_scan", "ios": "https://dc.lft.to/lastmile_qr_scan"}, "fusion_lon": 0.0, "lat": 38.9111445, "bike_id": "c24f49b64d78fb45379845dd7bafb564", "type": "electric_scooter", "is_reserved": 0, "lon": -77.04475183333334}, {"fusion_lat": 0.0, "name": "11d0574f6480f91ea92e85a13bc346d6", "is_disabled": 0, "rental_uris": {"android": "https://dc.lft.to/lastmile_qr_scan", "ios": "https://dc.lft.to/lastmile_qr_scan"}, "fusion_lon": 0.0, "lat": 38.89932116666667, "bike_id": "11d0574f6480f91ea92e85a13bc346d6", "type": "electric_scooter", "is_reserved": 0, "lon": -76.99736983333334}, {"fusion_lat": 0.0, "name": "affadd08b03e07d519ebc4a26841753f", "is_disabled": 0, "rental_uris": {"android": "https://dc.lft.to/lastmile_qr_scan", "ios": "https://dc.lft.to/lastmile_qr_scan"}, "fusion_lon": 0.0, "lat": 38.90502816666667, "bike_id": "affadd08b03e07d519ebc4a26841753f", "type": "electric_scooter", "is_reserved": 0, "lon": -77.067676}, {"fusion_lat": 0.0, "name": "8e6f0e0d49c3c00ea66aee595d0e6ba7", "is_disabled": 0, "rental_uris": {"android": "https://dc.lft.to/lastmile_qr_scan", "ios": "https://dc.lft.to/lastmile_qr_scan"}, "fusion_lon": 0.0, "lat": 38.94184216666667, "bike_id": "8e6f0e0d49c3c00ea66aee595d0e6ba7", "type": "electric_scooter", "is_reserved": 0, "lon": -77.023106}, {"fusion_lat": 0.0, "name": "eda64f70e7b2c961821215af37ebf759", "is_disabled": 0, "rental_uris": {"android": "https://dc.lft.to/lastmile_qr_scan", "ios": "https://dc.lft.to/lastmile_qr_scan"}, "fusion_lon": 0.0, "lat": 38.86450816666667, "bike_id": "eda64f70e7b2c961821215af37ebf759", "type": "electric_bike", "is_reserved": 0, "lon": -77.106848}, {"fusion_lat": 0.0, "name": "8c7581e9309d00c4b1dbe78ad10f2997", "is_disabled": 0, "rental_uris": {"android": "https://dc.lft.to/lastmile_qr_scan", "ios": "https://dc.lft.to/lastmile_qr_scan"}, "fusion_lon": 0.0, "lat": 38.905899833333336, "bike_id": "8c7581e9309d00c4b1dbe78ad10f2997", "type": "electric_scooter", "is_reserved": 0, "lon": -77.04710766666666}, {"fusion_lat": 0.0, "name": "0b77181a178def0676c476dbc45ae154", "is_disabled": 0, "rental_uris": {"android": "https://dc.lft.to/lastmile_qr_scan", "ios": "https://dc.lft.to/lastmile_qr_scan"}, "fusion_lon": 0.0, "lat": 38.90270983333333, "bike_id": "0b77181a178def0676c476dbc45ae154", "type": "electric_scooter", "is_reserved": 0, "lon": -77.01897366666667}, {"fusion_lat": 0.0, "name": "19260927956982094033b29b5fb255b9", "is_disabled": 0, "rental_uris": {"android": "https://dc.lft.to/lastmile_qr_scan", "ios": "https://dc.lft.to/lastmile_qr_scan"}, "fusion_lon": 0.0, "lat": 38.90013283333333, "bike_id": "19260927956982094033b29b5fb255b9", "type": "electric_scooter", "is_reserved": 0, "lon": -77.012426}, {"fusion_lat": 0.0, "name": "7a01e09f94dd4f5e77434e746328e154", "is_disabled": 0, "rental_uris": {"android": "https://dc.lft.to/lastmile_qr_scan", "ios": "https://dc.lft.to/lastmile_qr_scan"}, "fusion_lon": 0.0, "lat": 38.91263766666667, "bike_id": "7a01e09f94dd4f5e77434e746328e154", "type": "electric_scooter", "is_reserved": 0, "lon": -77.03138416666667}, {"fusion_lat": 0.0, "name": "0858f91e3a49211249aaaff9078894bb", "is_disabled": 0, "rental_uris": {"android": "https://dc.lft.to/lastmile_qr_scan", "ios": "https://dc.lft.to/lastmile_qr_scan"}, "fusion_lon": 0.0, "lat": 38.87464, "bike_id": "0858f91e3a49211249aaaff9078894bb", "type": "electric_scooter", "is_reserved": 0, "lon": -77.00030866666667}, {"fusion_lat": 0.0, "name": "c39852925c955cf1e618015229550389", "is_disabled": 0, "rental_uris": {"android": "https://dc.lft.to/lastmile_qr_scan", "ios": "https://dc.lft.to/lastmile_qr_scan"}, "fusion_lon": 0.0, "lat": 38.909568666666665, "bike_id": "c39852925c955cf1e618015229550389", "type": "electric_scooter", "is_reserved": 0, "lon": -77.0143885}, {"fusion_lat": 0.0, "name": "77c1a2e48a73568dc21dd1bda7ef342c", "is_disabled": 0, "rental_uris": {"android": "https://dc.lft.to/lastmile_qr_scan", "ios": "https://dc.lft.to/lastmile_qr_scan"}, "fusion_lon": 0.0, "lat": 38.903823833333334, "bike_id": "77c1a2e48a73568dc21dd1bda7ef342c", "type": "electric_scooter", "is_reserved": 0, "lon": -77.03578916666666}, {"fusion_lat": 0.0, "name": "d736faa867c83f591737daa75a3d1e2e", "is_disabled": 0, "rental_uris": {"android": "https://dc.lft.to/lastmile_qr_scan", "ios": "https://dc.lft.to/lastmile_qr_scan"}, "fusion_lon": 0.0, "lat": 38.916796166666664, "bike_id": "d736faa867c83f591737daa75a3d1e2e", "type": "electric_scooter", "is_reserved": 0, "lon": -77.01584016666666}, {"fusion_lat": 0.0, "name": "c6799c86529560f63a0d817c4162b4c9", "is_disabled": 0, "rental_uris": {"android": "https://dc.lft.to/lastmile_qr_scan", "ios": "https://dc.lft.to/lastmile_qr_scan"}, "fusion_lon": 0.0, "lat": 38.916018666666666, "bike_id": "c6799c86529560f63a0d817c4162b4c9", "type": "electric_scooter", "is_reserved": 0, "lon": -77.024024}, {"fusion_lat": 0.0, "name": "eb706ff40a38b0802b06c779f33b3582", "is_disabled": 0, "rental_uris": {"android": "https://dc.lft.to/lastmile_qr_scan", "ios": "https://dc.lft.to/lastmile_qr_scan"}, "fusion_lon": 0.0, "lat": 38.88497233333333, "bike_id": "eb706ff40a38b0802b06c779f33b3582", "type": "electric_scooter", "is_reserved": 0, "lon": -77.02094316666667}, {"fusion_lat": 0.0, "name": "16101e12b3a83df2ff323d57b4af9cc0", "is_disabled": 0, "rental_uris": {"android": "https://dc.lft.to/lastmile_qr_scan", "ios": "https://dc.lft.to/lastmile_qr_scan"}, "fusion_lon": 0.0, "lat": 38.919285, "bike_id": "16101e12b3a83df2ff323d57b4af9cc0", "type": "electric_scooter", "is_reserved": 0, "lon": -77.00984883333334}, {"fusion_lat": 0.0, "name": "a9d13b456fa2a3aa0d33aea64674326b", "is_disabled": 0, "rental_uris": {"android": "https://dc.lft.to/lastmile_qr_scan", "ios": "https://dc.lft.to/lastmile_qr_scan"}, "fusion_lon": 0.0, "lat": 38.99544516666667, "bike_id": "a9d13b456fa2a3aa0d33aea64674326b", "type": "electric_bike", "is_reserved": 0, "lon": -77.0745565}, {"fusion_lat": 0.0, "name": "f6ca5616d162d4e7320d493820a10967", "is_disabled": 0, "rental_uris": {"android": "https://dc.lft.to/lastmile_qr_scan", "ios": "https://dc.lft.to/lastmile_qr_scan"}, "fusion_lon": 0.0, "lat": 38.923673666666666, "bike_id": "f6ca5616d162d4e7320d493820a10967", "type": "electric_scooter", "is_reserved": 0, "lon": -77.04255616666667}, {"fusion_lat": 0.0, "name": "ab9e2bfb6fa95cb0a4abdf401042a7a1", "is_disabled": 0, "rental_uris": {"android": "https://dc.lft.to/lastmile_qr_scan", "ios": "https://dc.lft.to/lastmile_qr_scan"}, "fusion_lon": 0.0, "lat": 38.88386416666667, "bike_id": "ab9e2bfb6fa95cb0a4abdf401042a7a1", "type": "electric_scooter", "is_reserved": 0, "lon": -76.99603283333333}, {"fusion_lat": 0.0, "name": "821e0c1783d995fdcf378b51989966e2", "is_disabled": 0, "rental_uris": {"android": "https://dc.lft.to/lastmile_qr_scan", "ios": "https://dc.lft.to/lastmile_qr_scan"}, "fusion_lon": 0.0, "lat": 38.906878166666665, "bike_id": "821e0c1783d995fdcf378b51989966e2", "type": "electric_scooter", "is_reserved": 0, "lon": -77.04184616666667}, {"fusion_lat": 0.0, "name": "fc02f2437dc8803e34ec0237768945ce", "is_disabled": 0, "rental_uris": {"android": "https://dc.lft.to/lastmile_qr_scan", "ios": "https://dc.lft.to/lastmile_qr_scan"}, "fusion_lon": 0.0, "lat": 38.916568833333336, "bike_id": "fc02f2437dc8803e34ec0237768945ce", "type": "electric_scooter", "is_reserved": 0, "lon": -77.02813533333334}, {"fusion_lat": 0.0, "name": "16bc8ba05f20c4dee2058fa873aea1b9", "is_disabled": 0, "rental_uris": {"android": "https://dc.lft.to/lastmile_qr_scan", "ios": "https://dc.lft.to/lastmile_qr_scan"}, "fusion_lon": 0.0, "lat": 38.92345133333333, "bike_id": "16bc8ba05f20c4dee2058fa873aea1b9", "type": "electric_scooter", "is_reserved": 0, "lon": -77.035428}, {"fusion_lat": 0.0, "name": "b4aa516782a8dc78e798d608b5d2d6bd", "is_disabled": 0, "rental_uris": {"android": "https://dc.lft.to/lastmile_qr_scan", "ios": "https://dc.lft.to/lastmile_qr_scan"}, "fusion_lon": 0.0, "lat": 38.86261066666667, "bike_id": "b4aa516782a8dc78e798d608b5d2d6bd", "type": "electric_bike", "is_reserved": 0, "lon": -76.98349983333334}, {"fusion_lat": 0.0, "name": "8adeb10439f0afa28219fcde21308f02", "is_disabled": 0, "rental_uris": {"android": "https://dc.lft.to/lastmile_qr_scan", "ios": "https://dc.lft.to/lastmile_qr_scan"}, "fusion_lon": 0.0, "lat": 38.892524333333334, "bike_id": "8adeb10439f0afa28219fcde21308f02", "type": "electric_scooter", "is_reserved": 0, "lon": -77.04661033333333}, {"fusion_lat": 0.0, "name": "5b93bf0195223e6cb67bc97a84180d6e", "is_disabled": 0, "rental_uris": {"android": "https://dc.lft.to/lastmile_qr_scan", "ios": "https://dc.lft.to/lastmile_qr_scan"}, "fusion_lon": 0.0, "lat": 38.90783733333333, "bike_id": "5b93bf0195223e6cb67bc97a84180d6e", "type": "electric_scooter", "is_reserved": 0, "lon": -77.03203816666667}, {"fusion_lat": 0.0, "name": "a27719f74e04da93dc906f6e2ec00f7b", "is_disabled": 0, "rental_uris": {"android": "https://dc.lft.to/lastmile_qr_scan", "ios": "https://dc.lft.to/lastmile_qr_scan"}, "fusion_lon": 0.0, "lat": 38.92785666666666, "bike_id": "a27719f74e04da93dc906f6e2ec00f7b", "type": "electric_scooter", "is_reserved": 0, "lon": -76.97965783333333}, {"fusion_lat": 0.0, "name": "f3c16df5d5630f8dc1a5a7032355abc5", "is_disabled": 0, "rental_uris": {"android": "https://dc.lft.to/lastmile_qr_scan", "ios": "https://dc.lft.to/lastmile_qr_scan"}, "fusion_lon": 0.0, "lat": 38.900602666666664, "bike_id": "f3c16df5d5630f8dc1a5a7032355abc5", "type": "electric_scooter", "is_reserved": 0, "lon": -77.01737583333333}, {"fusion_lat": 0.0, "name": "0e86afc50af8ba040268c345e4224f25", "is_disabled": 0, "rental_uris": {"android": "https://dc.lft.to/lastmile_qr_scan", "ios": "https://dc.lft.to/lastmile_qr_scan"}, "fusion_lon": 0.0, "lat": 38.94660983333333, "bike_id": "0e86afc50af8ba040268c345e4224f25", "type": "electric_bike", "is_reserved": 0, "lon": -77.00693916666667}, {"fusion_lat": 0.0, "name": "cd599574546441b823151020bff39561", "is_disabled": 0, "rental_uris": {"android": "https://dc.lft.to/lastmile_qr_scan", "ios": "https://dc.lft.to/lastmile_qr_scan"}, "fusion_lon": 0.0, "lat": 38.886212, "bike_id": "cd599574546441b823151020bff39561", "type": "electric_scooter", "is_reserved": 0, "lon": -77.01984466666667}, {"fusion_lat": 0.0, "name": "e0249dda6ad8bff0de80ae91529d8ddd", "is_disabled": 0, "rental_uris": {"android": "https://dc.lft.to/lastmile_qr_scan", "ios": "https://dc.lft.to/lastmile_qr_scan"}, "fusion_lon": 0.0, "lat": 38.902574, "bike_id": "e0249dda6ad8bff0de80ae91529d8ddd", "type": "electric_scooter", "is_reserved": 0, "lon": -77.00326933333334}, {"fusion_lat": 0.0, "name": "741fb818953b4642d088174ab8ce92e0", "is_disabled": 0, "rental_uris": {"android": "https://dc.lft.to/lastmile_qr_scan", "ios": "https://dc.lft.to/lastmile_qr_scan"}, "fusion_lon": 0.0, "lat": 38.838539833333336, "bike_id": "741fb818953b4642d088174ab8ce92e0", "type": "electric_scooter", "is_reserved": 0, "lon": -76.99701266666666}, {"fusion_lat": 0.0, "name": "3b155363a66fe0b028a965fcab463492", "is_disabled": 0, "rental_uris": {"android": "https://dc.lft.to/lastmile_qr_scan", "ios": "https://dc.lft.to/lastmile_qr_scan"}, "fusion_lon": 0.0, "lat": 38.92993533333333, "bike_id": "3b155363a66fe0b028a965fcab463492", "type": "electric_scooter", "is_reserved": 0, "lon": -77.038014}, {"fusion_lat": 0.0, "name": "77d39c599cf4494fc0b5b3db57172a1e", "is_disabled": 0, "rental_uris": {"android": "https://dc.lft.to/lastmile_qr_scan", "ios": "https://dc.lft.to/lastmile_qr_scan"}, "fusion_lon": 0.0, "lat": 38.9207995, "bike_id": "77d39c599cf4494fc0b5b3db57172a1e", "type": "electric_scooter", "is_reserved": 0, "lon": -77.0230245}, {"fusion_lat": 0.0, "name": "45db2dd65db556ff70387605407541df", "is_disabled": 0, "rental_uris": {"android": "https://dc.lft.to/lastmile_qr_scan", "ios": "https://dc.lft.to/lastmile_qr_scan"}, "fusion_lon": 0.0, "lat": 38.933257166666664, "bike_id": "45db2dd65db556ff70387605407541df", "type": "electric_scooter", "is_reserved": 0, "lon": -77.03257016666667}, {"fusion_lat": 0.0, "name": "698a025e542b94d156d0e5f1da1a1733", "is_disabled": 0, "rental_uris": {"android": "https://dc.lft.to/lastmile_qr_scan", "ios": "https://dc.lft.to/lastmile_qr_scan"}, "fusion_lon": 0.0, "lat": 38.915623833333335, "bike_id": "698a025e542b94d156d0e5f1da1a1733", "type": "electric_scooter", "is_reserved": 0, "lon": -77.03149333333333}, {"fusion_lat": 0.0, "name": "1fa7ca751a3d8080924d309af00f022d", "is_disabled": 0, "rental_uris": {"android": "https://dc.lft.to/lastmile_qr_scan", "ios": "https://dc.lft.to/lastmile_qr_scan"}, "fusion_lon": 0.0, "lat": 38.909568666666665, "bike_id": "1fa7ca751a3d8080924d309af00f022d", "type": "electric_scooter", "is_reserved": 0, "lon": -77.04731883333334}, {"fusion_lat": 0.0, "name": "86a397d0909e7363230b02affc6790e0", "is_disabled": 0, "rental_uris": {"android": "https://dc.lft.to/lastmile_qr_scan", "ios": "https://dc.lft.to/lastmile_qr_scan"}, "fusion_lon": 0.0, "lat": 38.91425183333333, "bike_id": "86a397d0909e7363230b02affc6790e0", "type": "electric_scooter", "is_reserved": 0, "lon": -76.9844085}, {"fusion_lat": 0.0, "name": "546f52d0d9849cb7bcceab9e347056a7", "is_disabled": 0, "rental_uris": {"android": "https://dc.lft.to/lastmile_qr_scan", "ios": "https://dc.lft.to/lastmile_qr_scan"}, "fusion_lon": 0.0, "lat": 38.92079116666667, "bike_id": "546f52d0d9849cb7bcceab9e347056a7", "type": "electric_scooter", "is_reserved": 0, "lon": -77.023977}, {"fusion_lat": 0.0, "name": "0394f0c1a870bcaad6c78171a3cf6300", "is_disabled": 0, "rental_uris": {"android": "https://dc.lft.to/lastmile_qr_scan", "ios": "https://dc.lft.to/lastmile_qr_scan"}, "fusion_lon": 0.0, "lat": 38.93009583333333, "bike_id": "0394f0c1a870bcaad6c78171a3cf6300", "type": "electric_scooter", "is_reserved": 0, "lon": -77.02077833333334}, {"fusion_lat": 0.0, "name": "936ffe133b89e5311a9b99b06fa2b4d7", "is_disabled": 0, "rental_uris": {"android": "https://dc.lft.to/lastmile_qr_scan", "ios": "https://dc.lft.to/lastmile_qr_scan"}, "fusion_lon": 0.0, "lat": 38.878183666666665, "bike_id": "936ffe133b89e5311a9b99b06fa2b4d7", "type": "electric_scooter", "is_reserved": 0, "lon": -76.99007783333333}, {"fusion_lat": 0.0, "name": "8b1b87f05b1d5eec99f5ca70fb40473f", "is_disabled": 0, "rental_uris": {"android": "https://dc.lft.to/lastmile_qr_scan", "ios": "https://dc.lft.to/lastmile_qr_scan"}, "fusion_lon": 0.0, "lat": 38.931907333333335, "bike_id": "8b1b87f05b1d5eec99f5ca70fb40473f", "type": "electric_scooter", "is_reserved": 0, "lon": -77.0251075}, {"fusion_lat": 0.0, "name": "6bd25d4090921c49485c7efdcce0c760", "is_disabled": 0, "rental_uris": {"android": "https://dc.lft.to/lastmile_qr_scan", "ios": "https://dc.lft.to/lastmile_qr_scan"}, "fusion_lon": 0.0, "lat": 39.0417855, "bike_id": "6bd25d4090921c49485c7efdcce0c760", "type": "electric_bike", "is_reserved": 0, "lon": -77.0523975}, {"fusion_lat": 0.0, "name": "edd370227b24d5347567450e90f3368a", "is_disabled": 0, "rental_uris": {"android": "https://dc.lft.to/lastmile_qr_scan", "ios": "https://dc.lft.to/lastmile_qr_scan"}, "fusion_lon": 0.0, "lat": 38.885018, "bike_id": "edd370227b24d5347567450e90f3368a", "type": "electric_scooter", "is_reserved": 0, "lon": -77.03010466666667}, {"fusion_lat": 0.0, "name": "20924f6e8ac56d8f20fbbb231f8341da", "is_disabled": 0, "rental_uris": {"android": "https://dc.lft.to/lastmile_qr_scan", "ios": "https://dc.lft.to/lastmile_qr_scan"}, "fusion_lon": 0.0, "lat": 38.90901316666667, "bike_id": "20924f6e8ac56d8f20fbbb231f8341da", "type": "electric_scooter", "is_reserved": 0, "lon": -77.04495183333333}, {"fusion_lat": 0.0, "name": "b13d79ebf139b014df162e0cab5175a6", "is_disabled": 0, "rental_uris": {"android": "https://dc.lft.to/lastmile_qr_scan", "ios": "https://dc.lft.to/lastmile_qr_scan"}, "fusion_lon": 0.0, "lat": 38.90383283333333, "bike_id": "b13d79ebf139b014df162e0cab5175a6", "type": "electric_scooter", "is_reserved": 0, "lon": -77.06716483333334}, {"fusion_lat": 0.0, "name": "77095bec5d424a386881a5d3c60e861d", "is_disabled": 0, "rental_uris": {"android": "https://dc.lft.to/lastmile_qr_scan", "ios": "https://dc.lft.to/lastmile_qr_scan"}, "fusion_lon": 0.0, "lat": 38.88387916666667, "bike_id": "77095bec5d424a386881a5d3c60e861d", "type": "electric_scooter", "is_reserved": 0, "lon": -76.93058916666666}, {"fusion_lat": 0.0, "name": "6627d609ac21f4c403862733764aed51", "is_disabled": 0, "rental_uris": {"android": "https://dc.lft.to/lastmile_qr_scan", "ios": "https://dc.lft.to/lastmile_qr_scan"}, "fusion_lon": 0.0, "lat": 38.91524833333333, "bike_id": "6627d609ac21f4c403862733764aed51", "type": "electric_scooter", "is_reserved": 0, "lon": -77.03181383333333}, {"fusion_lat": 0.0, "name": "c5c821962aaa65392c92865c65f0b79c", "is_disabled": 0, "rental_uris": {"android": "https://dc.lft.to/lastmile_qr_scan", "ios": "https://dc.lft.to/lastmile_qr_scan"}, "fusion_lon": 0.0, "lat": 38.89838133333333, "bike_id": "c5c821962aaa65392c92865c65f0b79c", "type": "electric_scooter", "is_reserved": 0, "lon": -77.02975766666667}, {"fusion_lat": 0.0, "name": "4aee7f67b95c95c56b9e12b67966dc18", "is_disabled": 0, "rental_uris": {"android": "https://dc.lft.to/lastmile_qr_scan", "ios": "https://dc.lft.to/lastmile_qr_scan"}, "fusion_lon": 0.0, "lat": 38.904191, "bike_id": "4aee7f67b95c95c56b9e12b67966dc18", "type": "electric_scooter", "is_reserved": 0, "lon": -77.0533535}, {"fusion_lat": 0.0, "name": "ab43ff44c961bcdcdc53dc160c326047", "is_disabled": 0, "rental_uris": {"android": "https://dc.lft.to/lastmile_qr_scan", "ios": "https://dc.lft.to/lastmile_qr_scan"}, "fusion_lon": 0.0, "lat": 38.958894666666666, "bike_id": "ab43ff44c961bcdcdc53dc160c326047", "type": "electric_scooter", "is_reserved": 0, "lon": -77.02778466666666}, {"fusion_lat": 0.0, "name": "41f0cf794d3aca1e86c7d525c0e1d6f9", "is_disabled": 0, "rental_uris": {"android": "https://dc.lft.to/lastmile_qr_scan", "ios": "https://dc.lft.to/lastmile_qr_scan"}, "fusion_lon": 0.0, "lat": 38.884532666666665, "bike_id": "41f0cf794d3aca1e86c7d525c0e1d6f9", "type": "electric_scooter", "is_reserved": 0, "lon": -76.9938945}, {"fusion_lat": 0.0, "name": "3ba5fa2927e84080f912d4216bc64162", "is_disabled": 0, "rental_uris": {"android": "https://dc.lft.to/lastmile_qr_scan", "ios": "https://dc.lft.to/lastmile_qr_scan"}, "fusion_lon": 0.0, "lat": 38.906976, "bike_id": "3ba5fa2927e84080f912d4216bc64162", "type": "electric_scooter", "is_reserved": 0, "lon": -77.05043333333333}, {"fusion_lat": 0.0, "name": "431ebd6a9caa3de970695c621b5fccf9", "is_disabled": 0, "rental_uris": {"android": "https://dc.lft.to/lastmile_qr_scan", "ios": "https://dc.lft.to/lastmile_qr_scan"}, "fusion_lon": 0.0, "lat": 38.9042985, "bike_id": "431ebd6a9caa3de970695c621b5fccf9", "type": "electric_scooter", "is_reserved": 0, "lon": -76.996123}, {"fusion_lat": 0.0, "name": "c3a40e2c4dc0ac175850708be2b45169", "is_disabled": 0, "rental_uris": {"android": "https://dc.lft.to/lastmile_qr_scan", "ios": "https://dc.lft.to/lastmile_qr_scan"}, "fusion_lon": 0.0, "lat": 38.90700183333333, "bike_id": "c3a40e2c4dc0ac175850708be2b45169", "type": "electric_scooter", "is_reserved": 0, "lon": -77.04180016666666}, {"fusion_lat": 0.0, "name": "6513922045e10959c70c26dd91597977", "is_disabled": 0, "rental_uris": {"android": "https://dc.lft.to/lastmile_qr_scan", "ios": "https://dc.lft.to/lastmile_qr_scan"}, "fusion_lon": 0.0, "lat": 38.80677383333333, "bike_id": "6513922045e10959c70c26dd91597977", "type": "electric_bike", "is_reserved": 0, "lon": -77.069102}, {"fusion_lat": 0.0, "name": "e5d168fa98bcd69eb355da161dfbbfaf", "is_disabled": 0, "rental_uris": {"android": "https://dc.lft.to/lastmile_qr_scan", "ios": "https://dc.lft.to/lastmile_qr_scan"}, "fusion_lon": 0.0, "lat": 38.90874933333333, "bike_id": "e5d168fa98bcd69eb355da161dfbbfaf", "type": "electric_scooter", "is_reserved": 0, "lon": -77.0432465}, {"fusion_lat": 0.0, "name": "39bafeda7a7f032e3e8c139d2a657bf2", "is_disabled": 0, "rental_uris": {"android": "https://dc.lft.to/lastmile_qr_scan", "ios": "https://dc.lft.to/lastmile_qr_scan"}, "fusion_lon": 0.0, "lat": 38.9052665, "bike_id": "39bafeda7a7f032e3e8c139d2a657bf2", "type": "electric_scooter", "is_reserved": 0, "lon": -77.0593385}, {"fusion_lat": 0.0, "name": "113e272f9409de412fd3269d2e4ad24e", "is_disabled": 0, "rental_uris": {"android": "https://dc.lft.to/lastmile_qr_scan", "ios": "https://dc.lft.to/lastmile_qr_scan"}, "fusion_lon": 0.0, "lat": 38.8972085, "bike_id": "113e272f9409de412fd3269d2e4ad24e", "type": "electric_scooter", "is_reserved": 0, "lon": -77.02010466666667}, {"fusion_lat": 0.0, "name": "2a47d477b59cc0ca4219f2c6a4d24c60", "is_disabled": 0, "rental_uris": {"android": "https://dc.lft.to/lastmile_qr_scan", "ios": "https://dc.lft.to/lastmile_qr_scan"}, "fusion_lon": 0.0, "lat": 38.870328, "bike_id": "2a47d477b59cc0ca4219f2c6a4d24c60", "type": "electric_scooter", "is_reserved": 0, "lon": -77.00975666666666}, {"fusion_lat": 0.0, "name": "bdedfff44a829ce81b3af8641e89d861", "is_disabled": 0, "rental_uris": {"android": "https://dc.lft.to/lastmile_qr_scan", "ios": "https://dc.lft.to/lastmile_qr_scan"}, "fusion_lon": 0.0, "lat": 38.91384266666667, "bike_id": "bdedfff44a829ce81b3af8641e89d861", "type": "electric_scooter", "is_reserved": 0, "lon": -77.03660583333334}, {"fusion_lat": 0.0, "name": "446cd4f8a895ecb56bde39b99fc8b926", "is_disabled": 0, "rental_uris": {"android": "https://dc.lft.to/lastmile_qr_scan", "ios": "https://dc.lft.to/lastmile_qr_scan"}, "fusion_lon": 0.0, "lat": 38.9255045, "bike_id": "446cd4f8a895ecb56bde39b99fc8b926", "type": "electric_scooter", "is_reserved": 0, "lon": -76.98318066666667}, {"fusion_lat": 0.0, "name": "ac423ea2e462e65c18ee8cf3bb6b42dd", "is_disabled": 0, "rental_uris": {"android": "https://dc.lft.to/lastmile_qr_scan", "ios": "https://dc.lft.to/lastmile_qr_scan"}, "fusion_lon": 0.0, "lat": 38.90237916666667, "bike_id": "ac423ea2e462e65c18ee8cf3bb6b42dd", "type": "electric_scooter", "is_reserved": 0, "lon": -77.05897366666666}, {"fusion_lat": 0.0, "name": "fba020c1c46091b378fe9c9d50cfc605", "is_disabled": 0, "rental_uris": {"android": "https://dc.lft.to/lastmile_qr_scan", "ios": "https://dc.lft.to/lastmile_qr_scan"}, "fusion_lon": 0.0, "lat": 38.9072995, "bike_id": "fba020c1c46091b378fe9c9d50cfc605", "type": "electric_scooter", "is_reserved": 0, "lon": -77.02967333333333}, {"fusion_lat": 0.0, "name": "f470c66e3eae09c53447bc9b675a1e90", "is_disabled": 0, "rental_uris": {"android": "https://dc.lft.to/lastmile_qr_scan", "ios": "https://dc.lft.to/lastmile_qr_scan"}, "fusion_lon": 0.0, "lat": 38.896293666666665, "bike_id": "f470c66e3eae09c53447bc9b675a1e90", "type": "electric_bike", "is_reserved": 0, "lon": -77.02162816666667}, {"fusion_lat": 0.0, "name": "03d13b164943c93167f48b7c5c3203d6", "is_disabled": 0, "rental_uris": {"android": "https://dc.lft.to/lastmile_qr_scan", "ios": "https://dc.lft.to/lastmile_qr_scan"}, "fusion_lon": 0.0, "lat": 38.922989333333334, "bike_id": "03d13b164943c93167f48b7c5c3203d6", "type": "electric_scooter", "is_reserved": 0, "lon": -77.04205333333333}, {"fusion_lat": 0.0, "name": "11964dec737beeda5974821360f74b63", "is_disabled": 0, "rental_uris": {"android": "https://dc.lft.to/lastmile_qr_scan", "ios": "https://dc.lft.to/lastmile_qr_scan"}, "fusion_lon": 0.0, "lat": 38.92056483333333, "bike_id": "11964dec737beeda5974821360f74b63", "type": "electric_scooter", "is_reserved": 0, "lon": -77.02360533333334}, {"fusion_lat": 0.0, "name": "9c500b5e73dd042329a5e854d4e460ff", "is_disabled": 0, "rental_uris": {"android": "https://dc.lft.to/lastmile_qr_scan", "ios": "https://dc.lft.to/lastmile_qr_scan"}, "fusion_lon": 0.0, "lat": 38.889917833333335, "bike_id": "9c500b5e73dd042329a5e854d4e460ff", "type": "electric_scooter", "is_reserved": 0, "lon": -76.9823125}, {"fusion_lat": 0.0, "name": "fdf9a2fa343905e5750609093a1a3107", "is_disabled": 0, "rental_uris": {"android": "https://dc.lft.to/lastmile_qr_scan", "ios": "https://dc.lft.to/lastmile_qr_scan"}, "fusion_lon": 0.0, "lat": 38.938478833333335, "bike_id": "fdf9a2fa343905e5750609093a1a3107", "type": "electric_scooter", "is_reserved": 0, "lon": -77.03394716666666}, {"fusion_lat": 0.0, "name": "252341fe123c607deb5cee126dd7e088", "is_disabled": 0, "rental_uris": {"android": "https://dc.lft.to/lastmile_qr_scan", "ios": "https://dc.lft.to/lastmile_qr_scan"}, "fusion_lon": 0.0, "lat": 38.934225833333336, "bike_id": "252341fe123c607deb5cee126dd7e088", "type": "electric_scooter", "is_reserved": 0, "lon": -77.039967}, {"fusion_lat": 0.0, "name": "864833f46fc5c5cab2641d97ddae1291", "is_disabled": 0, "rental_uris": {"android": "https://dc.lft.to/lastmile_qr_scan", "ios": "https://dc.lft.to/lastmile_qr_scan"}, "fusion_lon": 0.0, "lat": 38.92790566666667, "bike_id": "864833f46fc5c5cab2641d97ddae1291", "type": "electric_scooter", "is_reserved": 0, "lon": -77.03151266666667}, {"fusion_lat": 0.0, "name": "11b7db97920b14470f5590ea23a0216b", "is_disabled": 0, "rental_uris": {"android": "https://dc.lft.to/lastmile_qr_scan", "ios": "https://dc.lft.to/lastmile_qr_scan"}, "fusion_lon": 0.0, "lat": 38.90262033333333, "bike_id": "11b7db97920b14470f5590ea23a0216b", "type": "electric_scooter", "is_reserved": 0, "lon": -77.0199645}, {"fusion_lat": 0.0, "name": "c5cffb24c6cd68558243c1956651f175", "is_disabled": 0, "rental_uris": {"android": "https://dc.lft.to/lastmile_qr_scan", "ios": "https://dc.lft.to/lastmile_qr_scan"}, "fusion_lon": 0.0, "lat": 38.9311005, "bike_id": "c5cffb24c6cd68558243c1956651f175", "type": "electric_scooter", "is_reserved": 0, "lon": -77.02141316666666}, {"fusion_lat": 0.0, "name": "1488834425e033fba42578ac63de8b66", "is_disabled": 0, "rental_uris": {"android": "https://dc.lft.to/lastmile_qr_scan", "ios": "https://dc.lft.to/lastmile_qr_scan"}, "fusion_lon": 0.0, "lat": 38.9198705, "bike_id": "1488834425e033fba42578ac63de8b66", "type": "electric_scooter", "is_reserved": 0, "lon": -77.02396216666666}, {"fusion_lat": 0.0, "name": "0f0fe9cf7808575f3083e050d073e8b7", "is_disabled": 0, "rental_uris": {"android": "https://dc.lft.to/lastmile_qr_scan", "ios": "https://dc.lft.to/lastmile_qr_scan"}, "fusion_lon": 0.0, "lat": 38.932846, "bike_id": "0f0fe9cf7808575f3083e050d073e8b7", "type": "electric_scooter", "is_reserved": 0, "lon": -77.03258516666666}, {"fusion_lat": 0.0, "name": "4aba75e1341764289180dd31c7020b8d", "is_disabled": 0, "rental_uris": {"android": "https://dc.lft.to/lastmile_qr_scan", "ios": "https://dc.lft.to/lastmile_qr_scan"}, "fusion_lon": 0.0, "lat": 38.9734095, "bike_id": "4aba75e1341764289180dd31c7020b8d", "type": "electric_bike", "is_reserved": 0, "lon": -77.017938}, {"fusion_lat": 0.0, "name": "bb880272b32a2566d9a69572ab626abc", "is_disabled": 0, "rental_uris": {"android": "https://dc.lft.to/lastmile_qr_scan", "ios": "https://dc.lft.to/lastmile_qr_scan"}, "fusion_lon": 0.0, "lat": 38.9273935, "bike_id": "bb880272b32a2566d9a69572ab626abc", "type": "electric_scooter", "is_reserved": 0, "lon": -77.02164833333333}, {"fusion_lat": 0.0, "name": "955948cb95114a98528d6a7b6681e2c4", "is_disabled": 0, "rental_uris": {"android": "https://dc.lft.to/lastmile_qr_scan", "ios": "https://dc.lft.to/lastmile_qr_scan"}, "fusion_lon": 0.0, "lat": 38.90028216666666, "bike_id": "955948cb95114a98528d6a7b6681e2c4", "type": "electric_scooter", "is_reserved": 0, "lon": -77.002003}, {"fusion_lat": 0.0, "name": "4e2d97def64ca25b3992ce0918d85a17", "is_disabled": 0, "rental_uris": {"android": "https://dc.lft.to/lastmile_qr_scan", "ios": "https://dc.lft.to/lastmile_qr_scan"}, "fusion_lon": 0.0, "lat": 38.90852833333334, "bike_id": "4e2d97def64ca25b3992ce0918d85a17", "type": "electric_scooter", "is_reserved": 0, "lon": -77.02429116666667}, {"fusion_lat": 0.0, "name": "12b69d30d5a0561006cb0d298aa27e01", "is_disabled": 0, "rental_uris": {"android": "https://dc.lft.to/lastmile_qr_scan", "ios": "https://dc.lft.to/lastmile_qr_scan"}, "fusion_lon": 0.0, "lat": 38.87665533333333, "bike_id": "12b69d30d5a0561006cb0d298aa27e01", "type": "electric_scooter", "is_reserved": 0, "lon": -77.01761483333334}, {"fusion_lat": 0.0, "name": "bdf00a56a62668d6c77ac5b3f1b22ffa", "is_disabled": 0, "rental_uris": {"android": "https://dc.lft.to/lastmile_qr_scan", "ios": "https://dc.lft.to/lastmile_qr_scan"}, "fusion_lon": 0.0, "lat": 38.90761716666667, "bike_id": "bdf00a56a62668d6c77ac5b3f1b22ffa", "type": "electric_scooter", "is_reserved": 0, "lon": -77.03208533333333}, {"fusion_lat": 0.0, "name": "48d8e4314ff448131ec800dfeb9cafb3", "is_disabled": 0, "rental_uris": {"android": "https://dc.lft.to/lastmile_qr_scan", "ios": "https://dc.lft.to/lastmile_qr_scan"}, "fusion_lon": 0.0, "lat": 38.919487333333336, "bike_id": "48d8e4314ff448131ec800dfeb9cafb3", "type": "electric_scooter", "is_reserved": 0, "lon": -77.01784}, {"fusion_lat": 0.0, "name": "731cccc3674fb21094747fe1f35378c3", "is_disabled": 0, "rental_uris": {"android": "https://dc.lft.to/lastmile_qr_scan", "ios": "https://dc.lft.to/lastmile_qr_scan"}, "fusion_lon": 0.0, "lat": 38.87846116666667, "bike_id": "731cccc3674fb21094747fe1f35378c3", "type": "electric_bike", "is_reserved": 0, "lon": -77.03015883333333}, {"fusion_lat": 0.0, "name": "218403ba24725d95571f2a8a78feeb99", "is_disabled": 0, "rental_uris": {"android": "https://dc.lft.to/lastmile_qr_scan", "ios": "https://dc.lft.to/lastmile_qr_scan"}, "fusion_lon": 0.0, "lat": 38.93674933333333, "bike_id": "218403ba24725d95571f2a8a78feeb99", "type": "electric_scooter", "is_reserved": 0, "lon": -77.03594183333334}, {"fusion_lat": 0.0, "name": "6222354a98efbc03f7636cdac648dd12", "is_disabled": 0, "rental_uris": {"android": "https://dc.lft.to/lastmile_qr_scan", "ios": "https://dc.lft.to/lastmile_qr_scan"}, "fusion_lon": 0.0, "lat": 38.90381166666667, "bike_id": "6222354a98efbc03f7636cdac648dd12", "type": "electric_scooter", "is_reserved": 0, "lon": -77.04609616666667}, {"fusion_lat": 0.0, "name": "392eaa9738d9805a869e5768e1976ba3", "is_disabled": 0, "rental_uris": {"android": "https://dc.lft.to/lastmile_qr_scan", "ios": "https://dc.lft.to/lastmile_qr_scan"}, "fusion_lon": 0.0, "lat": 38.92114466666666, "bike_id": "392eaa9738d9805a869e5768e1976ba3", "type": "electric_scooter", "is_reserved": 0, "lon": -77.0120945}, {"fusion_lat": 0.0, "name": "5ccbfb17b9484831741f15004b954c70", "is_disabled": 0, "rental_uris": {"android": "https://dc.lft.to/lastmile_qr_scan", "ios": "https://dc.lft.to/lastmile_qr_scan"}, "fusion_lon": 0.0, "lat": 38.857669, "bike_id": "5ccbfb17b9484831741f15004b954c70", "type": "electric_bike", "is_reserved": 0, "lon": -76.98765033333333}, {"fusion_lat": 0.0, "name": "ba550f43aacd11994b6c48b79691189c", "is_disabled": 0, "rental_uris": {"android": "https://dc.lft.to/lastmile_qr_scan", "ios": "https://dc.lft.to/lastmile_qr_scan"}, "fusion_lon": 0.0, "lat": 38.943093, "bike_id": "ba550f43aacd11994b6c48b79691189c", "type": "electric_scooter", "is_reserved": 0, "lon": -77.06146583333333}, {"fusion_lat": 0.0, "name": "67af41d920b3ea53880e3a200031ac06", "is_disabled": 0, "rental_uris": {"android": "https://dc.lft.to/lastmile_qr_scan", "ios": "https://dc.lft.to/lastmile_qr_scan"}, "fusion_lon": 0.0, "lat": 38.913461833333336, "bike_id": "67af41d920b3ea53880e3a200031ac06", "type": "electric_scooter", "is_reserved": 0, "lon": -77.03199983333333}, {"fusion_lat": 0.0, "name": "d8b5629063c6e3b6ca35b3f735861d4d", "is_disabled": 0, "rental_uris": {"android": "https://dc.lft.to/lastmile_qr_scan", "ios": "https://dc.lft.to/lastmile_qr_scan"}, "fusion_lon": 0.0, "lat": 38.883925833333336, "bike_id": "d8b5629063c6e3b6ca35b3f735861d4d", "type": "electric_scooter", "is_reserved": 0, "lon": -76.930497}, {"fusion_lat": 0.0, "name": "e984ac5fc0bd62faf509b6c1fc6b2c35", "is_disabled": 0, "rental_uris": {"android": "https://dc.lft.to/lastmile_qr_scan", "ios": "https://dc.lft.to/lastmile_qr_scan"}, "fusion_lon": 0.0, "lat": 38.8971555, "bike_id": "e984ac5fc0bd62faf509b6c1fc6b2c35", "type": "electric_scooter", "is_reserved": 0, "lon": -77.0288635}, {"fusion_lat": 0.0, "name": "617e7950af2895a5fbbf6ed7e96c34fd", "is_disabled": 0, "rental_uris": {"android": "https://dc.lft.to/lastmile_qr_scan", "ios": "https://dc.lft.to/lastmile_qr_scan"}, "fusion_lon": 0.0, "lat": 38.916915333333336, "bike_id": "617e7950af2895a5fbbf6ed7e96c34fd", "type": "electric_scooter", "is_reserved": 0, "lon": -77.02873566666666}, {"fusion_lat": 0.0, "name": "eead130e5158acd5c2d5ad3ff0446950", "is_disabled": 0, "rental_uris": {"android": "https://dc.lft.to/lastmile_qr_scan", "ios": "https://dc.lft.to/lastmile_qr_scan"}, "fusion_lon": 0.0, "lat": 38.933911333333334, "bike_id": "eead130e5158acd5c2d5ad3ff0446950", "type": "electric_scooter", "is_reserved": 0, "lon": -77.02842566666666}, {"fusion_lat": 0.0, "name": "9f645ae9fea602e9b77c382c046d1c5f", "is_disabled": 0, "rental_uris": {"android": "https://dc.lft.to/lastmile_qr_scan", "ios": "https://dc.lft.to/lastmile_qr_scan"}, "fusion_lon": 0.0, "lat": 38.93354983333333, "bike_id": "9f645ae9fea602e9b77c382c046d1c5f", "type": "electric_scooter", "is_reserved": 0, "lon": -77.03438566666667}, {"fusion_lat": 0.0, "name": "aeca30f3377ffd3c3a87a3da08797b2a", "is_disabled": 0, "rental_uris": {"android": "https://dc.lft.to/lastmile_qr_scan", "ios": "https://dc.lft.to/lastmile_qr_scan"}, "fusion_lon": 0.0, "lat": 38.940854, "bike_id": "aeca30f3377ffd3c3a87a3da08797b2a", "type": "electric_scooter", "is_reserved": 0, "lon": -77.06188033333333}, {"fusion_lat": 0.0, "name": "471a5d645ba49f30f2217112b7d31443", "is_disabled": 0, "rental_uris": {"android": "https://dc.lft.to/lastmile_qr_scan", "ios": "https://dc.lft.to/lastmile_qr_scan"}, "fusion_lon": 0.0, "lat": 38.900842833333336, "bike_id": "471a5d645ba49f30f2217112b7d31443", "type": "electric_scooter", "is_reserved": 0, "lon": -77.03464116666666}, {"fusion_lat": 0.0, "name": "8937233e8e4a2d07a0f08b0529a5af21", "is_disabled": 0, "rental_uris": {"android": "https://dc.lft.to/lastmile_qr_scan", "ios": "https://dc.lft.to/lastmile_qr_scan"}, "fusion_lon": 0.0, "lat": 38.907931166666664, "bike_id": "8937233e8e4a2d07a0f08b0529a5af21", "type": "electric_scooter", "is_reserved": 0, "lon": -77.04351666666666}, {"fusion_lat": 0.0, "name": "fa2fbc6f161f1b8566734c58e99632b8", "is_disabled": 0, "rental_uris": {"android": "https://dc.lft.to/lastmile_qr_scan", "ios": "https://dc.lft.to/lastmile_qr_scan"}, "fusion_lon": 0.0, "lat": 38.944506, "bike_id": "fa2fbc6f161f1b8566734c58e99632b8", "type": "electric_scooter", "is_reserved": 0, "lon": -77.023449}, {"fusion_lat": 0.0, "name": "ce07a1d3143317e9b2516a5c63e45dd0", "is_disabled": 0, "rental_uris": {"android": "https://dc.lft.to/lastmile_qr_scan", "ios": "https://dc.lft.to/lastmile_qr_scan"}, "fusion_lon": 0.0, "lat": 38.9313105, "bike_id": "ce07a1d3143317e9b2516a5c63e45dd0", "type": "electric_scooter", "is_reserved": 0, "lon": -77.078429}, {"fusion_lat": 0.0, "name": "f3e8fc1cc69bf8f9a347e47c4aeab6d5", "is_disabled": 0, "rental_uris": {"android": "https://dc.lft.to/lastmile_qr_scan", "ios": "https://dc.lft.to/lastmile_qr_scan"}, "fusion_lon": 0.0, "lat": 38.9027205, "bike_id": "f3e8fc1cc69bf8f9a347e47c4aeab6d5", "type": "electric_scooter", "is_reserved": 0, "lon": -77.0437005}, {"fusion_lat": 0.0, "name": "40a0a52fb58483d40b7c10428fdbc0d5", "is_disabled": 0, "rental_uris": {"android": "https://dc.lft.to/lastmile_qr_scan", "ios": "https://dc.lft.to/lastmile_qr_scan"}, "fusion_lon": 0.0, "lat": 38.911022333333335, "bike_id": "40a0a52fb58483d40b7c10428fdbc0d5", "type": "electric_scooter", "is_reserved": 0, "lon": -77.00371383333334}, {"fusion_lat": 0.0, "name": "40d1e6604495b1ffadef0cadfe91a8d6", "is_disabled": 0, "rental_uris": {"android": "https://dc.lft.to/lastmile_qr_scan", "ios": "https://dc.lft.to/lastmile_qr_scan"}, "fusion_lon": 0.0, "lat": 38.90093816666667, "bike_id": "40d1e6604495b1ffadef0cadfe91a8d6", "type": "electric_scooter", "is_reserved": 0, "lon": -77.05831733333333}, {"fusion_lat": 0.0, "name": "ab7106365e49b90a17951a1f55e6cd39", "is_disabled": 0, "rental_uris": {"android": "https://dc.lft.to/lastmile_qr_scan", "ios": "https://dc.lft.to/lastmile_qr_scan"}, "fusion_lon": 0.0, "lat": 38.8662475, "bike_id": "ab7106365e49b90a17951a1f55e6cd39", "type": "electric_scooter", "is_reserved": 0, "lon": -76.98718016666666}, {"fusion_lat": 0.0, "name": "5beeff11d0c82d9d4c6b27451a56e18e", "is_disabled": 0, "rental_uris": {"android": "https://dc.lft.to/lastmile_qr_scan", "ios": "https://dc.lft.to/lastmile_qr_scan"}, "fusion_lon": 0.0, "lat": 38.92413033333333, "bike_id": "5beeff11d0c82d9d4c6b27451a56e18e", "type": "electric_scooter", "is_reserved": 0, "lon": -77.02011216666666}, {"fusion_lat": 0.0, "name": "07df7df6e916a9ede15d1e64f50a19d5", "is_disabled": 0, "rental_uris": {"android": "https://dc.lft.to/lastmile_qr_scan", "ios": "https://dc.lft.to/lastmile_qr_scan"}, "fusion_lon": 0.0, "lat": 38.88087816666667, "bike_id": "07df7df6e916a9ede15d1e64f50a19d5", "type": "electric_scooter", "is_reserved": 0, "lon": -76.99509066666667}, {"fusion_lat": 0.0, "name": "2a04a5e89d4f5c2064ad8a955d2cba47", "is_disabled": 0, "rental_uris": {"android": "https://dc.lft.to/lastmile_qr_scan", "ios": "https://dc.lft.to/lastmile_qr_scan"}, "fusion_lon": 0.0, "lat": 38.91153416666667, "bike_id": "2a04a5e89d4f5c2064ad8a955d2cba47", "type": "electric_scooter", "is_reserved": 0, "lon": -77.041472}, {"fusion_lat": 0.0, "name": "d93e79bab2b33e35b771d05f13976a79", "is_disabled": 0, "rental_uris": {"android": "https://dc.lft.to/lastmile_qr_scan", "ios": "https://dc.lft.to/lastmile_qr_scan"}, "fusion_lon": 0.0, "lat": 38.876343, "bike_id": "d93e79bab2b33e35b771d05f13976a79", "type": "electric_scooter", "is_reserved": 0, "lon": -77.00115016666666}, {"fusion_lat": 0.0, "name": "28fe2ce83da9cf1b424c6ab8bd9ddca9", "is_disabled": 0, "rental_uris": {"android": "https://dc.lft.to/lastmile_qr_scan", "ios": "https://dc.lft.to/lastmile_qr_scan"}, "fusion_lon": 0.0, "lat": 38.91956233333333, "bike_id": "28fe2ce83da9cf1b424c6ab8bd9ddca9", "type": "electric_bike", "is_reserved": 0, "lon": -77.10107716666667}, {"fusion_lat": 0.0, "name": "e5c9cd560aedfe7a4f2b770ac7b92752", "is_disabled": 0, "rental_uris": {"android": "https://dc.lft.to/lastmile_qr_scan", "ios": "https://dc.lft.to/lastmile_qr_scan"}, "fusion_lon": 0.0, "lat": 38.904056833333335, "bike_id": "e5c9cd560aedfe7a4f2b770ac7b92752", "type": "electric_scooter", "is_reserved": 0, "lon": -77.04495016666667}, {"fusion_lat": 0.0, "name": "9a77d43cc4ef76e1f934e5b5108b44dd", "is_disabled": 0, "rental_uris": {"android": "https://dc.lft.to/lastmile_qr_scan", "ios": "https://dc.lft.to/lastmile_qr_scan"}, "fusion_lon": 0.0, "lat": 38.90961633333333, "bike_id": "9a77d43cc4ef76e1f934e5b5108b44dd", "type": "electric_scooter", "is_reserved": 0, "lon": -77.0323415}, {"fusion_lat": 0.0, "name": "92826b47af597f5caebd4d9cfa0137e9", "is_disabled": 0, "rental_uris": {"android": "https://dc.lft.to/lastmile_qr_scan", "ios": "https://dc.lft.to/lastmile_qr_scan"}, "fusion_lon": 0.0, "lat": 38.90653983333333, "bike_id": "92826b47af597f5caebd4d9cfa0137e9", "type": "electric_scooter", "is_reserved": 0, "lon": -77.01417733333334}, {"fusion_lat": 0.0, "name": "5c9c2e88fadcad654a2d2c9be7bdc246", "is_disabled": 0, "rental_uris": {"android": "https://dc.lft.to/lastmile_qr_scan", "ios": "https://dc.lft.to/lastmile_qr_scan"}, "fusion_lon": 0.0, "lat": 38.90508233333333, "bike_id": "5c9c2e88fadcad654a2d2c9be7bdc246", "type": "electric_scooter", "is_reserved": 0, "lon": -77.029507}, {"fusion_lat": 0.0, "name": "faf40675a9ea105a32658d4920041f89", "is_disabled": 0, "rental_uris": {"android": "https://dc.lft.to/lastmile_qr_scan", "ios": "https://dc.lft.to/lastmile_qr_scan"}, "fusion_lon": 0.0, "lat": 38.922428833333335, "bike_id": "faf40675a9ea105a32658d4920041f89", "type": "electric_scooter", "is_reserved": 0, "lon": -76.98413083333334}, {"fusion_lat": 0.0, "name": "fd44d9f43c4aa048c53357430e84ea02", "is_disabled": 0, "rental_uris": {"android": "https://dc.lft.to/lastmile_qr_scan", "ios": "https://dc.lft.to/lastmile_qr_scan"}, "fusion_lon": 0.0, "lat": 38.908666833333335, "bike_id": "fd44d9f43c4aa048c53357430e84ea02", "type": "electric_scooter", "is_reserved": 0, "lon": -77.00931916666667}, {"fusion_lat": 0.0, "name": "fb9517655256b6eb0e4b74e9082f8d6d", "is_disabled": 0, "rental_uris": {"android": "https://dc.lft.to/lastmile_qr_scan", "ios": "https://dc.lft.to/lastmile_qr_scan"}, "fusion_lon": 0.0, "lat": 38.89820783333333, "bike_id": "fb9517655256b6eb0e4b74e9082f8d6d", "type": "electric_scooter", "is_reserved": 0, "lon": -77.03040733333333}, {"fusion_lat": 0.0, "name": "a7a330668dbd14d63810a79b16932c74", "is_disabled": 0, "rental_uris": {"android": "https://dc.lft.to/lastmile_qr_scan", "ios": "https://dc.lft.to/lastmile_qr_scan"}, "fusion_lon": 0.0, "lat": 38.90460233333334, "bike_id": "a7a330668dbd14d63810a79b16932c74", "type": "electric_scooter", "is_reserved": 0, "lon": -77.03365033333333}, {"fusion_lat": 0.0, "name": "32c50e22004858d040dadfa8f3a02632", "is_disabled": 0, "rental_uris": {"android": "https://dc.lft.to/lastmile_qr_scan", "ios": "https://dc.lft.to/lastmile_qr_scan"}, "fusion_lon": 0.0, "lat": 38.9136195, "bike_id": "32c50e22004858d040dadfa8f3a02632", "type": "electric_scooter", "is_reserved": 0, "lon": -77.04877416666666}, {"fusion_lat": 0.0, "name": "a25c8042aebea3d05eb9b130d9e80d15", "is_disabled": 0, "rental_uris": {"android": "https://dc.lft.to/lastmile_qr_scan", "ios": "https://dc.lft.to/lastmile_qr_scan"}, "fusion_lon": 0.0, "lat": 38.912547833333335, "bike_id": "a25c8042aebea3d05eb9b130d9e80d15", "type": "electric_scooter", "is_reserved": 0, "lon": -77.04920983333334}, {"fusion_lat": 0.0, "name": "d2f0be5ed1ecad7974cc4aaffdb45ebc", "is_disabled": 0, "rental_uris": {"android": "https://dc.lft.to/lastmile_qr_scan", "ios": "https://dc.lft.to/lastmile_qr_scan"}, "fusion_lon": 0.0, "lat": 38.9056815, "bike_id": "d2f0be5ed1ecad7974cc4aaffdb45ebc", "type": "electric_scooter", "is_reserved": 0, "lon": -77.043738}, {"fusion_lat": 0.0, "name": "19e85779e06a4195d7b8ff82b72b8157", "is_disabled": 0, "rental_uris": {"android": "https://dc.lft.to/lastmile_qr_scan", "ios": "https://dc.lft.to/lastmile_qr_scan"}, "fusion_lon": 0.0, "lat": 38.91948883333333, "bike_id": "19e85779e06a4195d7b8ff82b72b8157", "type": "electric_scooter", "is_reserved": 0, "lon": -77.01781233333334}, {"fusion_lat": 0.0, "name": "f73d3fd8a1aecdf5efee12e17289e6b1", "is_disabled": 0, "rental_uris": {"android": "https://dc.lft.to/lastmile_qr_scan", "ios": "https://dc.lft.to/lastmile_qr_scan"}, "fusion_lon": 0.0, "lat": 38.91402566666667, "bike_id": "f73d3fd8a1aecdf5efee12e17289e6b1", "type": "electric_scooter", "is_reserved": 0, "lon": -77.0322825}, {"fusion_lat": 0.0, "name": "b9424ddee42d90a6796d159ee7285ef2", "is_disabled": 0, "rental_uris": {"android": "https://dc.lft.to/lastmile_qr_scan", "ios": "https://dc.lft.to/lastmile_qr_scan"}, "fusion_lon": 0.0, "lat": 38.9239745, "bike_id": "b9424ddee42d90a6796d159ee7285ef2", "type": "electric_scooter", "is_reserved": 0, "lon": -77.02410666666667}, {"fusion_lat": 0.0, "name": "d8e412bb847d4dbfdd69f90330880a28", "is_disabled": 0, "rental_uris": {"android": "https://dc.lft.to/lastmile_qr_scan", "ios": "https://dc.lft.to/lastmile_qr_scan"}, "fusion_lon": 0.0, "lat": 39.0563175, "bike_id": "d8e412bb847d4dbfdd69f90330880a28", "type": "electric_bike", "is_reserved": 0, "lon": -77.12526633333333}, {"fusion_lat": 0.0, "name": "f571a2eb1142b01c6b6bc022726bfe0f", "is_disabled": 0, "rental_uris": {"android": "https://dc.lft.to/lastmile_qr_scan", "ios": "https://dc.lft.to/lastmile_qr_scan"}, "fusion_lon": 0.0, "lat": 38.93064533333333, "bike_id": "f571a2eb1142b01c6b6bc022726bfe0f", "type": "electric_scooter", "is_reserved": 0, "lon": -77.0316205}, {"fusion_lat": 0.0, "name": "18ca9f7901383fc7b234aa0c8abc6977", "is_disabled": 0, "rental_uris": {"android": "https://dc.lft.to/lastmile_qr_scan", "ios": "https://dc.lft.to/lastmile_qr_scan"}, "fusion_lon": 0.0, "lat": 38.890033333333335, "bike_id": "18ca9f7901383fc7b234aa0c8abc6977", "type": "electric_scooter", "is_reserved": 0, "lon": -76.93742883333333}, {"fusion_lat": 0.0, "name": "995b5ed3d6c90e103b1eea288cf1a35c", "is_disabled": 0, "rental_uris": {"android": "https://dc.lft.to/lastmile_qr_scan", "ios": "https://dc.lft.to/lastmile_qr_scan"}, "fusion_lon": 0.0, "lat": 38.916903833333336, "bike_id": "995b5ed3d6c90e103b1eea288cf1a35c", "type": "electric_scooter", "is_reserved": 0, "lon": -77.03586766666666}, {"fusion_lat": 0.0, "name": "fb6398bcb2a2f78c41b7a0a4c6cf6b6c", "is_disabled": 0, "rental_uris": {"android": "https://dc.lft.to/lastmile_qr_scan", "ios": "https://dc.lft.to/lastmile_qr_scan"}, "fusion_lon": 0.0, "lat": 38.9161355, "bike_id": "fb6398bcb2a2f78c41b7a0a4c6cf6b6c", "type": "electric_scooter", "is_reserved": 0, "lon": -77.029522}, {"fusion_lat": 0.0, "name": "172dc76c4cd3de66f54f35a639705dff", "is_disabled": 0, "rental_uris": {"android": "https://dc.lft.to/lastmile_qr_scan", "ios": "https://dc.lft.to/lastmile_qr_scan"}, "fusion_lon": 0.0, "lat": 38.90695216666667, "bike_id": "172dc76c4cd3de66f54f35a639705dff", "type": "electric_scooter", "is_reserved": 0, "lon": -77.0420825}, {"fusion_lat": 0.0, "name": "f8da7a956d5630f5c87511ee44df8db6", "is_disabled": 0, "rental_uris": {"android": "https://dc.lft.to/lastmile_qr_scan", "ios": "https://dc.lft.to/lastmile_qr_scan"}, "fusion_lon": 0.0, "lat": 38.910023333333335, "bike_id": "f8da7a956d5630f5c87511ee44df8db6", "type": "electric_scooter", "is_reserved": 0, "lon": -77.0120945}, {"fusion_lat": 0.0, "name": "90055aa251dfd65bcfbff37b881e3d98", "is_disabled": 0, "rental_uris": {"android": "https://dc.lft.to/lastmile_qr_scan", "ios": "https://dc.lft.to/lastmile_qr_scan"}, "fusion_lon": 0.0, "lat": 38.916712833333335, "bike_id": "90055aa251dfd65bcfbff37b881e3d98", "type": "electric_scooter", "is_reserved": 0, "lon": -77.03200666666666}, {"fusion_lat": 0.0, "name": "0cf27ace83cb3b94a7e5ead370244cd1", "is_disabled": 0, "rental_uris": {"android": "https://dc.lft.to/lastmile_qr_scan", "ios": "https://dc.lft.to/lastmile_qr_scan"}, "fusion_lon": 0.0, "lat": 38.91426883333333, "bike_id": "0cf27ace83cb3b94a7e5ead370244cd1", "type": "electric_scooter", "is_reserved": 0, "lon": -77.03183233333333}, {"fusion_lat": 0.0, "name": "1953994c2a22764a6c8eb3da20289d68", "is_disabled": 0, "rental_uris": {"android": "https://dc.lft.to/lastmile_qr_scan", "ios": "https://dc.lft.to/lastmile_qr_scan"}, "fusion_lon": 0.0, "lat": 38.92506933333333, "bike_id": "1953994c2a22764a6c8eb3da20289d68", "type": "electric_scooter", "is_reserved": 0, "lon": -77.02168733333333}, {"fusion_lat": 0.0, "name": "3d44a1ff633bb3ff2dc024bf70cbf94a", "is_disabled": 0, "rental_uris": {"android": "https://dc.lft.to/lastmile_qr_scan", "ios": "https://dc.lft.to/lastmile_qr_scan"}, "fusion_lon": 0.0, "lat": 38.90914183333334, "bike_id": "3d44a1ff633bb3ff2dc024bf70cbf94a", "type": "electric_scooter", "is_reserved": 0, "lon": -77.03861733333333}, {"fusion_lat": 0.0, "name": "298cfa04523cdf2e28ff9d189362ea41", "is_disabled": 0, "rental_uris": {"android": "https://dc.lft.to/lastmile_qr_scan", "ios": "https://dc.lft.to/lastmile_qr_scan"}, "fusion_lon": 0.0, "lat": 38.876564333333334, "bike_id": "298cfa04523cdf2e28ff9d189362ea41", "type": "electric_scooter", "is_reserved": 0, "lon": -77.00918383333334}, {"fusion_lat": 0.0, "name": "50f0506e8002295a6e7bae304a9c396c", "is_disabled": 0, "rental_uris": {"android": "https://dc.lft.to/lastmile_qr_scan", "ios": "https://dc.lft.to/lastmile_qr_scan"}, "fusion_lon": 0.0, "lat": 38.9141335, "bike_id": "50f0506e8002295a6e7bae304a9c396c", "type": "electric_scooter", "is_reserved": 0, "lon": -77.03202033333334}, {"fusion_lat": 0.0, "name": "9ede318d756511b8417d4e25689e25a1", "is_disabled": 0, "rental_uris": {"android": "https://dc.lft.to/lastmile_qr_scan", "ios": "https://dc.lft.to/lastmile_qr_scan"}, "fusion_lon": 0.0, "lat": 38.911910166666665, "bike_id": "9ede318d756511b8417d4e25689e25a1", "type": "electric_scooter", "is_reserved": 0, "lon": -77.0385615}, {"fusion_lat": 0.0, "name": "8294c4f782804d7322c0dd944a6a11bb", "is_disabled": 0, "rental_uris": {"android": "https://dc.lft.to/lastmile_qr_scan", "ios": "https://dc.lft.to/lastmile_qr_scan"}, "fusion_lon": 0.0, "lat": 38.958813, "bike_id": "8294c4f782804d7322c0dd944a6a11bb", "type": "electric_scooter", "is_reserved": 0, "lon": -77.011698}, {"fusion_lat": 0.0, "name": "714ade9974c898314d2fe1a685aee900", "is_disabled": 0, "rental_uris": {"android": "https://dc.lft.to/lastmile_qr_scan", "ios": "https://dc.lft.to/lastmile_qr_scan"}, "fusion_lon": 0.0, "lat": 38.907306, "bike_id": "714ade9974c898314d2fe1a685aee900", "type": "electric_scooter", "is_reserved": 0, "lon": -77.0450975}, {"fusion_lat": 0.0, "name": "d9ec44c7e4421d55b834cc3a8959443c", "is_disabled": 0, "rental_uris": {"android": "https://dc.lft.to/lastmile_qr_scan", "ios": "https://dc.lft.to/lastmile_qr_scan"}, "fusion_lon": 0.0, "lat": 38.89740916666667, "bike_id": "d9ec44c7e4421d55b834cc3a8959443c", "type": "electric_scooter", "is_reserved": 0, "lon": -77.02167416666667}, {"fusion_lat": 0.0, "name": "861d01973f583658eb5bd01b8fb7a9a8", "is_disabled": 0, "rental_uris": {"android": "https://dc.lft.to/lastmile_qr_scan", "ios": "https://dc.lft.to/lastmile_qr_scan"}, "fusion_lon": 0.0, "lat": 38.92255866666667, "bike_id": "861d01973f583658eb5bd01b8fb7a9a8", "type": "electric_bike", "is_reserved": 0, "lon": -77.07027733333334}, {"fusion_lat": 0.0, "name": "7efe57bea3f2fb32620614f7b9c16c29", "is_disabled": 0, "rental_uris": {"android": "https://dc.lft.to/lastmile_qr_scan", "ios": "https://dc.lft.to/lastmile_qr_scan"}, "fusion_lon": 0.0, "lat": 38.89012016666667, "bike_id": "7efe57bea3f2fb32620614f7b9c16c29", "type": "electric_scooter", "is_reserved": 0, "lon": -76.93739066666667}, {"fusion_lat": 0.0, "name": "ac519b0c8ab3d2437527fb88067b71fa", "is_disabled": 0, "rental_uris": {"android": "https://dc.lft.to/lastmile_qr_scan", "ios": "https://dc.lft.to/lastmile_qr_scan"}, "fusion_lon": 0.0, "lat": 38.92459233333334, "bike_id": "ac519b0c8ab3d2437527fb88067b71fa", "type": "electric_scooter", "is_reserved": 0, "lon": -77.02407666666667}, {"fusion_lat": 0.0, "name": "ae01dbce53350b795eed08b68eba280c", "is_disabled": 0, "rental_uris": {"android": "https://dc.lft.to/lastmile_qr_scan", "ios": "https://dc.lft.to/lastmile_qr_scan"}, "fusion_lon": 0.0, "lat": 38.88962383333333, "bike_id": "ae01dbce53350b795eed08b68eba280c", "type": "electric_scooter", "is_reserved": 0, "lon": -77.01506833333333}, {"fusion_lat": 0.0, "name": "1786968fce4f2cb5291cdaed98a72bab", "is_disabled": 0, "rental_uris": {"android": "https://dc.lft.to/lastmile_qr_scan", "ios": "https://dc.lft.to/lastmile_qr_scan"}, "fusion_lon": 0.0, "lat": 38.901788, "bike_id": "1786968fce4f2cb5291cdaed98a72bab", "type": "electric_scooter", "is_reserved": 0, "lon": -77.05902216666667}, {"fusion_lat": 0.0, "name": "fc3b6acb7a690e6a3b6bff5d75efe420", "is_disabled": 0, "rental_uris": {"android": "https://dc.lft.to/lastmile_qr_scan", "ios": "https://dc.lft.to/lastmile_qr_scan"}, "fusion_lon": 0.0, "lat": 38.884812, "bike_id": "fc3b6acb7a690e6a3b6bff5d75efe420", "type": "electric_scooter", "is_reserved": 0, "lon": -77.0243025}, {"fusion_lat": 0.0, "name": "946f48ff0f648e448bfba1b8923be1f6", "is_disabled": 0, "rental_uris": {"android": "https://dc.lft.to/lastmile_qr_scan", "ios": "https://dc.lft.to/lastmile_qr_scan"}, "fusion_lon": 0.0, "lat": 38.91417366666667, "bike_id": "946f48ff0f648e448bfba1b8923be1f6", "type": "electric_scooter", "is_reserved": 0, "lon": -77.03172}, {"fusion_lat": 0.0, "name": "0f347315ea81fb9f5e7e92dad397c5f0", "is_disabled": 0, "rental_uris": {"android": "https://dc.lft.to/lastmile_qr_scan", "ios": "https://dc.lft.to/lastmile_qr_scan"}, "fusion_lon": 0.0, "lat": 38.93459166666667, "bike_id": "0f347315ea81fb9f5e7e92dad397c5f0", "type": "electric_scooter", "is_reserved": 0, "lon": -77.05783683333334}, {"fusion_lat": 0.0, "name": "75f9b0325b7d7d90d5ba60d76d622b51", "is_disabled": 0, "rental_uris": {"android": "https://dc.lft.to/lastmile_qr_scan", "ios": "https://dc.lft.to/lastmile_qr_scan"}, "fusion_lon": 0.0, "lat": 38.90861183333333, "bike_id": "75f9b0325b7d7d90d5ba60d76d622b51", "type": "electric_scooter", "is_reserved": 0, "lon": -76.9995545}, {"fusion_lat": 0.0, "name": "0aa30fb078e938680518ff0e746605e7", "is_disabled": 0, "rental_uris": {"android": "https://dc.lft.to/lastmile_qr_scan", "ios": "https://dc.lft.to/lastmile_qr_scan"}, "fusion_lon": 0.0, "lat": 38.920702166666665, "bike_id": "0aa30fb078e938680518ff0e746605e7", "type": "electric_scooter", "is_reserved": 0, "lon": -77.0285595}, {"fusion_lat": 0.0, "name": "c343d770cf1b05ef893cb296bfd8f3c1", "is_disabled": 0, "rental_uris": {"android": "https://dc.lft.to/lastmile_qr_scan", "ios": "https://dc.lft.to/lastmile_qr_scan"}, "fusion_lon": 0.0, "lat": 38.9674835, "bike_id": "c343d770cf1b05ef893cb296bfd8f3c1", "type": "electric_bike", "is_reserved": 0, "lon": -77.02801083333334}, {"fusion_lat": 0.0, "name": "b00bfcf84431f2c05e6257ad84a0333a", "is_disabled": 0, "rental_uris": {"android": "https://dc.lft.to/lastmile_qr_scan", "ios": "https://dc.lft.to/lastmile_qr_scan"}, "fusion_lon": 0.0, "lat": 38.961273166666665, "bike_id": "b00bfcf84431f2c05e6257ad84a0333a", "type": "electric_scooter", "is_reserved": 0, "lon": -77.02787433333333}, {"fusion_lat": 0.0, "name": "14c189a1c50d58e7b956f2287cdb73cb", "is_disabled": 0, "rental_uris": {"android": "https://dc.lft.to/lastmile_qr_scan", "ios": "https://dc.lft.to/lastmile_qr_scan"}, "fusion_lon": 0.0, "lat": 38.9202815, "bike_id": "14c189a1c50d58e7b956f2287cdb73cb", "type": "electric_scooter", "is_reserved": 0, "lon": -77.030732}, {"fusion_lat": 0.0, "name": "88754e702e9efb495f7533a28884bf78", "is_disabled": 0, "rental_uris": {"android": "https://dc.lft.to/lastmile_qr_scan", "ios": "https://dc.lft.to/lastmile_qr_scan"}, "fusion_lon": 0.0, "lat": 38.915515666666664, "bike_id": "88754e702e9efb495f7533a28884bf78", "type": "electric_scooter", "is_reserved": 0, "lon": -77.03240116666667}, {"fusion_lat": 0.0, "name": "52d1a8934f392e178046e25f20b42407", "is_disabled": 0, "rental_uris": {"android": "https://dc.lft.to/lastmile_qr_scan", "ios": "https://dc.lft.to/lastmile_qr_scan"}, "fusion_lon": 0.0, "lat": 38.9210325, "bike_id": "52d1a8934f392e178046e25f20b42407", "type": "electric_scooter", "is_reserved": 0, "lon": -77.07477266666666}, {"fusion_lat": 0.0, "name": "c5c95c51b6fdba2f01444d0de46ed9b8", "is_disabled": 0, "rental_uris": {"android": "https://dc.lft.to/lastmile_qr_scan", "ios": "https://dc.lft.to/lastmile_qr_scan"}, "fusion_lon": 0.0, "lat": 38.9146155, "bike_id": "c5c95c51b6fdba2f01444d0de46ed9b8", "type": "electric_scooter", "is_reserved": 0, "lon": -77.03900966666667}, {"fusion_lat": 0.0, "name": "5ec0005edf3bab65d83ec58e00e488a8", "is_disabled": 0, "rental_uris": {"android": "https://dc.lft.to/lastmile_qr_scan", "ios": "https://dc.lft.to/lastmile_qr_scan"}, "fusion_lon": 0.0, "lat": 38.8739315, "bike_id": "5ec0005edf3bab65d83ec58e00e488a8", "type": "electric_scooter", "is_reserved": 0, "lon": -77.000285}, {"fusion_lat": 0.0, "name": "efe560d91e91fe82dc6ac5d4629fb25e", "is_disabled": 0, "rental_uris": {"android": "https://dc.lft.to/lastmile_qr_scan", "ios": "https://dc.lft.to/lastmile_qr_scan"}, "fusion_lon": 0.0, "lat": 38.917074666666664, "bike_id": "efe560d91e91fe82dc6ac5d4629fb25e", "type": "electric_scooter", "is_reserved": 0, "lon": -77.00115116666667}, {"fusion_lat": 0.0, "name": "16eade6844ea994e8d5c436f70977546", "is_disabled": 0, "rental_uris": {"android": "https://dc.lft.to/lastmile_qr_scan", "ios": "https://dc.lft.to/lastmile_qr_scan"}, "fusion_lon": 0.0, "lat": 38.922571, "bike_id": "16eade6844ea994e8d5c436f70977546", "type": "electric_scooter", "is_reserved": 0, "lon": -77.01842283333333}, {"fusion_lat": 0.0, "name": "5f600a9bcfee00ca5848678d0403654f", "is_disabled": 0, "rental_uris": {"android": "https://dc.lft.to/lastmile_qr_scan", "ios": "https://dc.lft.to/lastmile_qr_scan"}, "fusion_lon": 0.0, "lat": 38.933170833333335, "bike_id": "5f600a9bcfee00ca5848678d0403654f", "type": "electric_scooter", "is_reserved": 0, "lon": -77.0275845}, {"fusion_lat": 0.0, "name": "948a39669e1bcb5da6d37ad091076bb6", "is_disabled": 0, "rental_uris": {"android": "https://dc.lft.to/lastmile_qr_scan", "ios": "https://dc.lft.to/lastmile_qr_scan"}, "fusion_lon": 0.0, "lat": 38.900303666666666, "bike_id": "948a39669e1bcb5da6d37ad091076bb6", "type": "electric_scooter", "is_reserved": 0, "lon": -77.00024966666666}, {"fusion_lat": 0.0, "name": "054dd473c57f6a48636dab86fd6ffb11", "is_disabled": 0, "rental_uris": {"android": "https://dc.lft.to/lastmile_qr_scan", "ios": "https://dc.lft.to/lastmile_qr_scan"}, "fusion_lon": 0.0, "lat": 38.91607616666667, "bike_id": "054dd473c57f6a48636dab86fd6ffb11", "type": "electric_scooter", "is_reserved": 0, "lon": -77.03204316666667}, {"fusion_lat": 0.0, "name": "79649bf408b323368df9b628a0d43dd1", "is_disabled": 0, "rental_uris": {"android": "https://dc.lft.to/lastmile_qr_scan", "ios": "https://dc.lft.to/lastmile_qr_scan"}, "fusion_lon": 0.0, "lat": 38.90029116666667, "bike_id": "79649bf408b323368df9b628a0d43dd1", "type": "electric_scooter", "is_reserved": 0, "lon": -76.9955545}, {"fusion_lat": 0.0, "name": "26aa30c32edfd21e83001bd3b6c045e0", "is_disabled": 0, "rental_uris": {"android": "https://dc.lft.to/lastmile_qr_scan", "ios": "https://dc.lft.to/lastmile_qr_scan"}, "fusion_lon": 0.0, "lat": 38.92865533333333, "bike_id": "26aa30c32edfd21e83001bd3b6c045e0", "type": "electric_scooter", "is_reserved": 0, "lon": -77.03480833333333}, {"fusion_lat": 0.0, "name": "ced949936a545f70f6c4b3ed8dbead51", "is_disabled": 0, "rental_uris": {"android": "https://dc.lft.to/lastmile_qr_scan", "ios": "https://dc.lft.to/lastmile_qr_scan"}, "fusion_lon": 0.0, "lat": 38.905075833333335, "bike_id": "ced949936a545f70f6c4b3ed8dbead51", "type": "electric_scooter", "is_reserved": 0, "lon": -77.029514}, {"fusion_lat": 0.0, "name": "f2b0285326c6c99ec68f585e7cc4bc63", "is_disabled": 0, "rental_uris": {"android": "https://dc.lft.to/lastmile_qr_scan", "ios": "https://dc.lft.to/lastmile_qr_scan"}, "fusion_lon": 0.0, "lat": 38.92017116666667, "bike_id": "f2b0285326c6c99ec68f585e7cc4bc63", "type": "electric_scooter", "is_reserved": 0, "lon": -76.995571}, {"fusion_lat": 0.0, "name": "1912e1fcfdeb3557ca07edd99c83de5e", "is_disabled": 0, "rental_uris": {"android": "https://dc.lft.to/lastmile_qr_scan", "ios": "https://dc.lft.to/lastmile_qr_scan"}, "fusion_lon": 0.0, "lat": 38.92869316666667, "bike_id": "1912e1fcfdeb3557ca07edd99c83de5e", "type": "electric_scooter", "is_reserved": 0, "lon": -77.03793216666666}, {"fusion_lat": 0.0, "name": "b9561d4e11205c1e4203048e3082d79c", "is_disabled": 0, "rental_uris": {"android": "https://dc.lft.to/lastmile_qr_scan", "ios": "https://dc.lft.to/lastmile_qr_scan"}, "fusion_lon": 0.0, "lat": 38.922470833333335, "bike_id": "b9561d4e11205c1e4203048e3082d79c", "type": "electric_scooter", "is_reserved": 0, "lon": -77.02218716666667}, {"fusion_lat": 0.0, "name": "cbaa3d6f46d445e4a184926f025b7dc5", "is_disabled": 0, "rental_uris": {"android": "https://dc.lft.to/lastmile_qr_scan", "ios": "https://dc.lft.to/lastmile_qr_scan"}, "fusion_lon": 0.0, "lat": 39.0705115, "bike_id": "cbaa3d6f46d445e4a184926f025b7dc5", "type": "electric_bike", "is_reserved": 0, "lon": -77.1148095}, {"fusion_lat": 0.0, "name": "4b7877f6c3aaa37514ff211a008972ec", "is_disabled": 0, "rental_uris": {"android": "https://dc.lft.to/lastmile_qr_scan", "ios": "https://dc.lft.to/lastmile_qr_scan"}, "fusion_lon": 0.0, "lat": 38.92472333333333, "bike_id": "4b7877f6c3aaa37514ff211a008972ec", "type": "electric_scooter", "is_reserved": 0, "lon": -77.028907}, {"fusion_lat": 0.0, "name": "96376cd8601a4b691fecb4d8e5f5bfa4", "is_disabled": 0, "rental_uris": {"android": "https://dc.lft.to/lastmile_qr_scan", "ios": "https://dc.lft.to/lastmile_qr_scan"}, "fusion_lon": 0.0, "lat": 38.94532266666667, "bike_id": "96376cd8601a4b691fecb4d8e5f5bfa4", "type": "electric_scooter", "is_reserved": 0, "lon": -77.02534533333333}, {"fusion_lat": 0.0, "name": "9041ffdc9a31555de0e75aed3bc81de2", "is_disabled": 0, "rental_uris": {"android": "https://dc.lft.to/lastmile_qr_scan", "ios": "https://dc.lft.to/lastmile_qr_scan"}, "fusion_lon": 0.0, "lat": 38.88301883333333, "bike_id": "9041ffdc9a31555de0e75aed3bc81de2", "type": "electric_scooter", "is_reserved": 0, "lon": -76.94854716666667}, {"fusion_lat": 0.0, "name": "b5be53af93c3b903afaaabd6db9f6413", "is_disabled": 0, "rental_uris": {"android": "https://dc.lft.to/lastmile_qr_scan", "ios": "https://dc.lft.to/lastmile_qr_scan"}, "fusion_lon": 0.0, "lat": 38.920876, "bike_id": "b5be53af93c3b903afaaabd6db9f6413", "type": "electric_scooter", "is_reserved": 0, "lon": -76.99486866666666}, {"fusion_lat": 0.0, "name": "3779a504e594ff1cebc2deca218a5456", "is_disabled": 0, "rental_uris": {"android": "https://dc.lft.to/lastmile_qr_scan", "ios": "https://dc.lft.to/lastmile_qr_scan"}, "fusion_lon": 0.0, "lat": 38.93182733333333, "bike_id": "3779a504e594ff1cebc2deca218a5456", "type": "electric_scooter", "is_reserved": 0, "lon": -77.023555}, {"fusion_lat": 0.0, "name": "f0ab1a3e18f537e913ad183c9c0382d7", "is_disabled": 0, "rental_uris": {"android": "https://dc.lft.to/lastmile_qr_scan", "ios": "https://dc.lft.to/lastmile_qr_scan"}, "fusion_lon": 0.0, "lat": 38.9002685, "bike_id": "f0ab1a3e18f537e913ad183c9c0382d7", "type": "electric_scooter", "is_reserved": 0, "lon": -76.99860616666666}, {"fusion_lat": 0.0, "name": "c9dd24f1a1ccee5a7535828186927566", "is_disabled": 0, "rental_uris": {"android": "https://dc.lft.to/lastmile_qr_scan", "ios": "https://dc.lft.to/lastmile_qr_scan"}, "fusion_lon": 0.0, "lat": 38.90046683333333, "bike_id": "c9dd24f1a1ccee5a7535828186927566", "type": "electric_scooter", "is_reserved": 0, "lon": -77.000646}, {"fusion_lat": 0.0, "name": "0b4ccb5525aa77baaaefa4a5a691b133", "is_disabled": 0, "rental_uris": {"android": "https://dc.lft.to/lastmile_qr_scan", "ios": "https://dc.lft.to/lastmile_qr_scan"}, "fusion_lon": 0.0, "lat": 38.89006583333333, "bike_id": "0b4ccb5525aa77baaaefa4a5a691b133", "type": "electric_scooter", "is_reserved": 0, "lon": -76.93739716666667}, {"fusion_lat": 0.0, "name": "28719d7eb585b160c990504cc659736e", "is_disabled": 0, "rental_uris": {"android": "https://dc.lft.to/lastmile_qr_scan", "ios": "https://dc.lft.to/lastmile_qr_scan"}, "fusion_lon": 0.0, "lat": 38.897377666666664, "bike_id": "28719d7eb585b160c990504cc659736e", "type": "electric_scooter", "is_reserved": 0, "lon": -77.02761083333333}, {"fusion_lat": 0.0, "name": "b67cbd3bf80fb9bab98832e2106d4a44", "is_disabled": 0, "rental_uris": {"android": "https://dc.lft.to/lastmile_qr_scan", "ios": "https://dc.lft.to/lastmile_qr_scan"}, "fusion_lon": 0.0, "lat": 38.896052166666664, "bike_id": "b67cbd3bf80fb9bab98832e2106d4a44", "type": "electric_scooter", "is_reserved": 0, "lon": -76.98109466666666}, {"fusion_lat": 0.0, "name": "7519a3e6bd74b3b260456a64aa8b09dd", "is_disabled": 0, "rental_uris": {"android": "https://dc.lft.to/lastmile_qr_scan", "ios": "https://dc.lft.to/lastmile_qr_scan"}, "fusion_lon": 0.0, "lat": 38.913027, "bike_id": "7519a3e6bd74b3b260456a64aa8b09dd", "type": "electric_bike", "is_reserved": 0, "lon": -77.0286025}, {"fusion_lat": 0.0, "name": "c344330c4e252779ae6d44040db7c6ba", "is_disabled": 0, "rental_uris": {"android": "https://dc.lft.to/lastmile_qr_scan", "ios": "https://dc.lft.to/lastmile_qr_scan"}, "fusion_lon": 0.0, "lat": 38.89800833333334, "bike_id": "c344330c4e252779ae6d44040db7c6ba", "type": "electric_scooter", "is_reserved": 0, "lon": -77.029656}, {"fusion_lat": 0.0, "name": "b81373a60b62a87ce6121dadbc2a66df", "is_disabled": 0, "rental_uris": {"android": "https://dc.lft.to/lastmile_qr_scan", "ios": "https://dc.lft.to/lastmile_qr_scan"}, "fusion_lon": 0.0, "lat": 38.89853683333333, "bike_id": "b81373a60b62a87ce6121dadbc2a66df", "type": "electric_scooter", "is_reserved": 0, "lon": -77.0221285}, {"fusion_lat": 0.0, "name": "46e777eb64144c3b3e356e9a1ccb174b", "is_disabled": 0, "rental_uris": {"android": "https://dc.lft.to/lastmile_qr_scan", "ios": "https://dc.lft.to/lastmile_qr_scan"}, "fusion_lon": 0.0, "lat": 38.911030333333336, "bike_id": "46e777eb64144c3b3e356e9a1ccb174b", "type": "electric_scooter", "is_reserved": 0, "lon": -77.002103}, {"fusion_lat": 0.0, "name": "5de89acd33325626cc7806618cb8ae88", "is_disabled": 0, "rental_uris": {"android": "https://dc.lft.to/lastmile_qr_scan", "ios": "https://dc.lft.to/lastmile_qr_scan"}, "fusion_lon": 0.0, "lat": 38.882713833333334, "bike_id": "5de89acd33325626cc7806618cb8ae88", "type": "electric_scooter", "is_reserved": 0, "lon": -76.99015}, {"fusion_lat": 0.0, "name": "b4c7be0bef372767e5ca01addb6a14bc", "is_disabled": 0, "rental_uris": {"android": "https://dc.lft.to/lastmile_qr_scan", "ios": "https://dc.lft.to/lastmile_qr_scan"}, "fusion_lon": 0.0, "lat": 38.90670683333333, "bike_id": "b4c7be0bef372767e5ca01addb6a14bc", "type": "electric_scooter", "is_reserved": 0, "lon": -77.0712855}, {"fusion_lat": 0.0, "name": "decc1dcd3fc347299cf7247b8e60b1ae", "is_disabled": 0, "rental_uris": {"android": "https://dc.lft.to/lastmile_qr_scan", "ios": "https://dc.lft.to/lastmile_qr_scan"}, "fusion_lon": 0.0, "lat": 38.91718566666667, "bike_id": "decc1dcd3fc347299cf7247b8e60b1ae", "type": "electric_scooter", "is_reserved": 0, "lon": -77.038568}, {"fusion_lat": 0.0, "name": "39fc8c211501f606e7c03517bcd4c942", "is_disabled": 0, "rental_uris": {"android": "https://dc.lft.to/lastmile_qr_scan", "ios": "https://dc.lft.to/lastmile_qr_scan"}, "fusion_lon": 0.0, "lat": 38.88607483333333, "bike_id": "39fc8c211501f606e7c03517bcd4c942", "type": "electric_scooter", "is_reserved": 0, "lon": -77.01972533333333}, {"fusion_lat": 0.0, "name": "cb3c986fa4aa44e37ca70113c14dd1fe", "is_disabled": 0, "rental_uris": {"android": "https://dc.lft.to/lastmile_qr_scan", "ios": "https://dc.lft.to/lastmile_qr_scan"}, "fusion_lon": 0.0, "lat": 38.91769733333334, "bike_id": "cb3c986fa4aa44e37ca70113c14dd1fe", "type": "electric_scooter", "is_reserved": 0, "lon": -77.04774083333334}, {"fusion_lat": 0.0, "name": "c6862f1808ab4dcaa86f0e6ad6a962f8", "is_disabled": 0, "rental_uris": {"android": "https://dc.lft.to/lastmile_qr_scan", "ios": "https://dc.lft.to/lastmile_qr_scan"}, "fusion_lon": 0.0, "lat": 38.874590166666664, "bike_id": "c6862f1808ab4dcaa86f0e6ad6a962f8", "type": "electric_scooter", "is_reserved": 0, "lon": -77.00034183333334}, {"fusion_lat": 0.0, "name": "67229b1d8652c1d914e7bb81dd7197f0", "is_disabled": 0, "rental_uris": {"android": "https://dc.lft.to/lastmile_qr_scan", "ios": "https://dc.lft.to/lastmile_qr_scan"}, "fusion_lon": 0.0, "lat": 38.90906433333333, "bike_id": "67229b1d8652c1d914e7bb81dd7197f0", "type": "electric_scooter", "is_reserved": 0, "lon": -77.02712516666666}, {"fusion_lat": 0.0, "name": "23031c454c0519426b4cdb1d900295e7", "is_disabled": 0, "rental_uris": {"android": "https://dc.lft.to/lastmile_qr_scan", "ios": "https://dc.lft.to/lastmile_qr_scan"}, "fusion_lon": 0.0, "lat": 38.97880333333333, "bike_id": "23031c454c0519426b4cdb1d900295e7", "type": "electric_bike", "is_reserved": 0, "lon": -77.060307}, {"fusion_lat": 0.0, "name": "412afb31c017e7ac411e3f4719aad25b", "is_disabled": 0, "rental_uris": {"android": "https://dc.lft.to/lastmile_qr_scan", "ios": "https://dc.lft.to/lastmile_qr_scan"}, "fusion_lon": 0.0, "lat": 38.90134616666667, "bike_id": "412afb31c017e7ac411e3f4719aad25b", "type": "electric_scooter", "is_reserved": 0, "lon": -76.98647016666666}, {"fusion_lat": 0.0, "name": "e8bab476069acf037fdc76c007c933a2", "is_disabled": 0, "rental_uris": {"android": "https://dc.lft.to/lastmile_qr_scan", "ios": "https://dc.lft.to/lastmile_qr_scan"}, "fusion_lon": 0.0, "lat": 38.839323, "bike_id": "e8bab476069acf037fdc76c007c933a2", "type": "electric_bike", "is_reserved": 0, "lon": -77.079065}, {"fusion_lat": 0.0, "name": "391d40e8c3c69677b0417982b1e20272", "is_disabled": 0, "rental_uris": {"android": "https://dc.lft.to/lastmile_qr_scan", "ios": "https://dc.lft.to/lastmile_qr_scan"}, "fusion_lon": 0.0, "lat": 38.9112375, "bike_id": "391d40e8c3c69677b0417982b1e20272", "type": "electric_scooter", "is_reserved": 0, "lon": -77.02197466666667}, {"fusion_lat": 0.0, "name": "7a4a56570298731663bbf807e475e124", "is_disabled": 0, "rental_uris": {"android": "https://dc.lft.to/lastmile_qr_scan", "ios": "https://dc.lft.to/lastmile_qr_scan"}, "fusion_lon": 0.0, "lat": 38.881521666666664, "bike_id": "7a4a56570298731663bbf807e475e124", "type": "electric_scooter", "is_reserved": 0, "lon": -77.0274945}, {"fusion_lat": 0.0, "name": "795f590b971d5defa7739ef2bba4340c", "is_disabled": 0, "rental_uris": {"android": "https://dc.lft.to/lastmile_qr_scan", "ios": "https://dc.lft.to/lastmile_qr_scan"}, "fusion_lon": 0.0, "lat": 38.942023666666664, "bike_id": "795f590b971d5defa7739ef2bba4340c", "type": "electric_bike", "is_reserved": 0, "lon": -77.01827233333333}, {"fusion_lat": 0.0, "name": "d36e84a481cfefcede51a0f19b490bcb", "is_disabled": 0, "rental_uris": {"android": "https://dc.lft.to/lastmile_qr_scan", "ios": "https://dc.lft.to/lastmile_qr_scan"}, "fusion_lon": 0.0, "lat": 38.90391066666667, "bike_id": "d36e84a481cfefcede51a0f19b490bcb", "type": "electric_scooter", "is_reserved": 0, "lon": -77.03866883333333}, {"fusion_lat": 0.0, "name": "03592c780469d93f17f1eb62c4ea41fd", "is_disabled": 0, "rental_uris": {"android": "https://dc.lft.to/lastmile_qr_scan", "ios": "https://dc.lft.to/lastmile_qr_scan"}, "fusion_lon": 0.0, "lat": 38.935575666666665, "bike_id": "03592c780469d93f17f1eb62c4ea41fd", "type": "electric_scooter", "is_reserved": 0, "lon": -77.0348755}, {"fusion_lat": 0.0, "name": "1448b454a10b1e60118541359057ac04", "is_disabled": 0, "rental_uris": {"android": "https://dc.lft.to/lastmile_qr_scan", "ios": "https://dc.lft.to/lastmile_qr_scan"}, "fusion_lon": 0.0, "lat": 38.930634, "bike_id": "1448b454a10b1e60118541359057ac04", "type": "electric_scooter", "is_reserved": 0, "lon": -77.02977916666667}, {"fusion_lat": 0.0, "name": "726fc0a20542a78494c820df5ddbaf6f", "is_disabled": 0, "rental_uris": {"android": "https://dc.lft.to/lastmile_qr_scan", "ios": "https://dc.lft.to/lastmile_qr_scan"}, "fusion_lon": 0.0, "lat": 38.857955833333335, "bike_id": "726fc0a20542a78494c820df5ddbaf6f", "type": "electric_bike", "is_reserved": 0, "lon": -77.12010583333333}, {"fusion_lat": 0.0, "name": "6951f19e3416278155379737c17f332e", "is_disabled": 0, "rental_uris": {"android": "https://dc.lft.to/lastmile_qr_scan", "ios": "https://dc.lft.to/lastmile_qr_scan"}, "fusion_lon": 0.0, "lat": 38.90559983333333, "bike_id": "6951f19e3416278155379737c17f332e", "type": "electric_scooter", "is_reserved": 0, "lon": -77.01311983333333},