{"data": {"bikes": [{"lon": -77.055358, "bike_id": "58c7763885fbaf4335be9d526c42b0bb", "lat": 38.93432266666667, "fusion_lon": 0.0, "fusion_lat": 0.0, "type": "electric_scooter", "name": "58c7763885fbaf4335be9d526c42b0bb", "is_disabled": 0, "rental_uris": {"ios": "https://dc.lft.to/lastmile_qr_scan", "android": "https://dc.lft.to/lastmile_qr_scan"}, "is_reserved": 0}, {"lon": -77.05336566666666, "bike_id": "ab239b2b622cfac15460bb78afbe0e20", "lat": 38.9036335, "fusion_lon": 0.0, "fusion_lat": 0.0, "type": "electric_scooter", "name": "ab239b2b622cfac15460bb78afbe0e20", "is_disabled": 0, "rental_uris": {"ios": "https://dc.lft.to/lastmile_qr_scan", "android": "https://dc.lft.to/lastmile_qr_scan"}, "is_reserved": 0}, {"lon": -77.1071385, "bike_id": "28a8a4905d64f802691ecc9ef3bc2bcf", "lat": 38.85551516666666, "fusion_lon": 0.0, "fusion_lat": 0.0, "type": "electric_bike", "name": "28a8a4905d64f802691ecc9ef3bc2bcf", "is_disabled": 0, "rental_uris": {"ios": "https://dc.lft.to/lastmile_qr_scan", "android": "https://dc.lft.to/lastmile_qr_scan"}, "is_reserved": 0}, {"lon": -77.03501116666666, "bike_id": "9d5afacd525501d7083bb889b1273081", "lat": 38.9375245, "fusion_lon": 0.0, "fusion_lat": 0.0, "type": "electric_scooter", "name": "9d5afacd525501d7083bb889b1273081", "is_disabled": 0, "rental_uris": {"ios": "https://dc.lft.to/lastmile_qr_scan", "android": "https://dc.lft.to/lastmile_qr_scan"}, "is_reserved": 0}, {"lon": -77.08456933333333, "bike_id": "d08c8380aaa958de6161fdc5d8f05bdf", "lat": 38.8481885, "fusion_lon": 0.0, "fusion_lat": 0.0, "type": "electric_bike", "name": "d08c8380aaa958de6161fdc5d8f05bdf", "is_disabled": 0, "rental_uris": {"ios": "https://dc.lft.to/lastmile_qr_scan", "android": "https://dc.lft.to/lastmile_qr_scan"}, "is_reserved": 0}, {"lon": -76.98836866666667, "bike_id": "e51eb6233a27fe53fb8fbf7288665239", "lat": 38.90069316666667, "fusion_lon": 0.0, "fusion_lat": 0.0, "type": "electric_scooter", "name": "e51eb6233a27fe53fb8fbf7288665239", "is_disabled": 0, "rental_uris": {"ios": "https://dc.lft.to/lastmile_qr_scan", "android": "https://dc.lft.to/lastmile_qr_scan"}, "is_reserved": 0}, {"lon": -77.03844383333333, "bike_id": "4b2ccb673330782f983f7e9aafe237df", "lat": 38.90265316666667, "fusion_lon": 0.0, "fusion_lat": 0.0, "type": "electric_scooter", "name": "4b2ccb673330782f983f7e9aafe237df", "is_disabled": 0, "rental_uris": {"ios": "https://dc.lft.to/lastmile_qr_scan", "android": "https://dc.lft.to/lastmile_qr_scan"}, "is_reserved": 0}, {"lon": -77.02414, "bike_id": "7edb54728f69591660ec9c21e881862e", "lat": 38.909691333333335, "fusion_lon": 0.0, "fusion_lat": 0.0, "type": "electric_scooter", "name": "7edb54728f69591660ec9c21e881862e", "is_disabled": 0, "rental_uris": {"ios": "https://dc.lft.to/lastmile_qr_scan", "android": "https://dc.lft.to/lastmile_qr_scan"}, "is_reserved": 0}, {"lon": -77.0221655, "bike_id": "0617d72a60140349dbc6f01187670550", "lat": 38.935088666666665, "fusion_lon": 0.0, "fusion_lat": 0.0, "type": "electric_bike", "name": "0617d72a60140349dbc6f01187670550", "is_disabled": 0, "rental_uris": {"ios": "https://dc.lft.to/lastmile_qr_scan", "android": "https://dc.lft.to/lastmile_qr_scan"}, "is_reserved": 0}, {"lon": -77.03243016666667, "bike_id": "fbc353f68bb6efd8426e38ba1bf81e51", "lat": 38.937692166666665, "fusion_lon": 0.0, "fusion_lat": 0.0, "type": "electric_scooter", "name": "fbc353f68bb6efd8426e38ba1bf81e51", "is_disabled": 0, "rental_uris": {"ios": "https://dc.lft.to/lastmile_qr_scan", "android": "https://dc.lft.to/lastmile_qr_scan"}, "is_reserved": 0}, {"lon": -77.03399216666666, "bike_id": "273ea972ab0a98a52a21a595630e14a8", "lat": 38.922542, "fusion_lon": 0.0, "fusion_lat": 0.0, "type": "electric_scooter", "name": "273ea972ab0a98a52a21a595630e14a8", "is_disabled": 0, "rental_uris": {"ios": "https://dc.lft.to/lastmile_qr_scan", "android": "https://dc.lft.to/lastmile_qr_scan"}, "is_reserved": 0}, {"lon": -77.01380083333333, "bike_id": "febffe35ec3750cb0c3de4f5114909a4", "lat": 38.91502466666667, "fusion_lon": 0.0, "fusion_lat": 0.0, "type": "electric_scooter", "name": "febffe35ec3750cb0c3de4f5114909a4", "is_disabled": 0, "rental_uris": {"ios": "https://dc.lft.to/lastmile_qr_scan", "android": "https://dc.lft.to/lastmile_qr_scan"}, "is_reserved": 0}, {"lon": -77.02796583333334, "bike_id": "e2e9a087b9f6d8681571be4f29c99a84", "lat": 38.93298433333333, "fusion_lon": 0.0, "fusion_lat": 0.0, "type": "electric_scooter", "name": "e2e9a087b9f6d8681571be4f29c99a84", "is_disabled": 0, "rental_uris": {"ios": "https://dc.lft.to/lastmile_qr_scan", "android": "https://dc.lft.to/lastmile_qr_scan"}, "is_reserved": 0}, {"lon": -77.03260266666666, "bike_id": "91924870efa48324de4d1512144dbe8a", "lat": 38.919997333333335, "fusion_lon": 0.0, "fusion_lat": 0.0, "type": "electric_scooter", "name": "91924870efa48324de4d1512144dbe8a", "is_disabled": 0, "rental_uris": {"ios": "https://dc.lft.to/lastmile_qr_scan", "android": "https://dc.lft.to/lastmile_qr_scan"}, "is_reserved": 0}, {"lon": -77.00589083333334, "bike_id": "a113a6c510400e4435b41f76b9027ffc", "lat": 38.9061415, "fusion_lon": 0.0, "fusion_lat": 0.0, "type": "electric_scooter", "name": "a113a6c510400e4435b41f76b9027ffc", "is_disabled": 0, "rental_uris": {"ios": "https://dc.lft.to/lastmile_qr_scan", "android": "https://dc.lft.to/lastmile_qr_scan"}, "is_reserved": 0}, {"lon": -77.01316666666666, "bike_id": "d75dffe4fe2ad70593757b84c3b2075d", "lat": 38.879314, "fusion_lon": 0.0, "fusion_lat": 0.0, "type": "electric_scooter", "name": "d75dffe4fe2ad70593757b84c3b2075d", "is_disabled": 0, "rental_uris": {"ios": "https://dc.lft.to/lastmile_qr_scan", "android": "https://dc.lft.to/lastmile_qr_scan"}, "is_reserved": 0}, {"lon": -76.998353, "bike_id": "cd050c0f4435291ed399572db2ed6070", "lat": 38.9023675, "fusion_lon": 0.0, "fusion_lat": 0.0, "type": "electric_scooter", "name": "cd050c0f4435291ed399572db2ed6070", "is_disabled": 0, "rental_uris": {"ios": "https://dc.lft.to/lastmile_qr_scan", "android": "https://dc.lft.to/lastmile_qr_scan"}, "is_reserved": 0}, {"lon": -76.99472216666666, "bike_id": "0b9050cebfd3fc91ed277c8dd39063bc", "lat": 38.8621825, "fusion_lon": 0.0, "fusion_lat": 0.0, "type": "electric_scooter", "name": "0b9050cebfd3fc91ed277c8dd39063bc", "is_disabled": 0, "rental_uris": {"ios": "https://dc.lft.to/lastmile_qr_scan", "android": "https://dc.lft.to/lastmile_qr_scan"}, "is_reserved": 0}, {"lon": -77.005134, "bike_id": "740bb111c1f9742017fb3a52f23c1afc", "lat": 38.87931483333333, "fusion_lon": 0.0, "fusion_lat": 0.0, "type": "electric_scooter", "name": "740bb111c1f9742017fb3a52f23c1afc", "is_disabled": 0, "rental_uris": {"ios": "https://dc.lft.to/lastmile_qr_scan", "android": "https://dc.lft.to/lastmile_qr_scan"}, "is_reserved": 0}, {"lon": -77.01727166666667, "bike_id": "9e0b1e27d93bb8d8b8868445da360636", "lat": 38.915045666666664, "fusion_lon": 0.0, "fusion_lat": 0.0, "type": "electric_scooter", "name": "9e0b1e27d93bb8d8b8868445da360636", "is_disabled": 0, "rental_uris": {"ios": "https://dc.lft.to/lastmile_qr_scan", "android": "https://dc.lft.to/lastmile_qr_scan"}, "is_reserved": 0}, {"lon": -76.94972566666667, "bike_id": "46d52257afce87393c0cd5f60ad3e018", "lat": 38.89466933333333, "fusion_lon": 0.0, "fusion_lat": 0.0, "type": "electric_scooter", "name": "46d52257afce87393c0cd5f60ad3e018", "is_disabled": 0, "rental_uris": {"ios": "https://dc.lft.to/lastmile_qr_scan", "android": "https://dc.lft.to/lastmile_qr_scan"}, "is_reserved": 0}, {"lon": -76.95189216666667, "bike_id": "eb265d6f6b80f5a19bddb4d5618ef849", "lat": 38.90002416666667, "fusion_lon": 0.0, "fusion_lat": 0.0, "type": "electric_scooter", "name": "eb265d6f6b80f5a19bddb4d5618ef849", "is_disabled": 0, "rental_uris": {"ios": "https://dc.lft.to/lastmile_qr_scan", "android": "https://dc.lft.to/lastmile_qr_scan"}, "is_reserved": 0}, {"lon": -77.03323316666666, "bike_id": "544e3912be65a48250294a4859675448", "lat": 38.9471495, "fusion_lon": 0.0, "fusion_lat": 0.0, "type": "electric_scooter", "name": "544e3912be65a48250294a4859675448", "is_disabled": 0, "rental_uris": {"ios": "https://dc.lft.to/lastmile_qr_scan", "android": "https://dc.lft.to/lastmile_qr_scan"}, "is_reserved": 0}, {"lon": -77.041766, "bike_id": "ddc3d70ca922ca69de06e368da0a9e9e", "lat": 38.926252833333336, "fusion_lon": 0.0, "fusion_lat": 0.0, "type": "electric_scooter", "name": "ddc3d70ca922ca69de06e368da0a9e9e", "is_disabled": 0, "rental_uris": {"ios": "https://dc.lft.to/lastmile_qr_scan", "android": "https://dc.lft.to/lastmile_qr_scan"}, "is_reserved": 0}, {"lon": -77.047084, "bike_id": "89a2b5e5d0dd26e030bfb4bced1888bf", "lat": 38.922265833333334, "fusion_lon": 0.0, "fusion_lat": 0.0, "type": "electric_scooter", "name": "89a2b5e5d0dd26e030bfb4bced1888bf", "is_disabled": 0, "rental_uris": {"ios": "https://dc.lft.to/lastmile_qr_scan", "android": "https://dc.lft.to/lastmile_qr_scan"}, "is_reserved": 0}, {"lon": -76.99365733333333, "bike_id": "e11776114809d5808be29462c1a14ea5", "lat": 38.883404666666664, "fusion_lon": 0.0, "fusion_lat": 0.0, "type": "electric_scooter", "name": "e11776114809d5808be29462c1a14ea5", "is_disabled": 0, "rental_uris": {"ios": "https://dc.lft.to/lastmile_qr_scan", "android": "https://dc.lft.to/lastmile_qr_scan"}, "is_reserved": 0}, {"lon": -77.06024583333334, "bike_id": "4eddf01c124e344e0d812fdd05e46b5b", "lat": 38.9383945, "fusion_lon": 0.0, "fusion_lat": 0.0, "type": "electric_scooter", "name": "4eddf01c124e344e0d812fdd05e46b5b", "is_disabled": 0, "rental_uris": {"ios": "https://dc.lft.to/lastmile_qr_scan", "android": "https://dc.lft.to/lastmile_qr_scan"}, "is_reserved": 0}, {"lon": -77.0237755, "bike_id": "8339f27c11282a8eff083fd31d4c5873", "lat": 38.90959866666667, "fusion_lon": 0.0, "fusion_lat": 0.0, "type": "electric_scooter", "name": "8339f27c11282a8eff083fd31d4c5873", "is_disabled": 0, "rental_uris": {"ios": "https://dc.lft.to/lastmile_qr_scan", "android": "https://dc.lft.to/lastmile_qr_scan"}, "is_reserved": 0}, {"lon": -77.0410275, "bike_id": "6f511a1cbb73502944f216bf11de8178", "lat": 38.918539, "fusion_lon": 0.0, "fusion_lat": 0.0, "type": "electric_scooter", "name": "6f511a1cbb73502944f216bf11de8178", "is_disabled": 0, "rental_uris": {"ios": "https://dc.lft.to/lastmile_qr_scan", "android": "https://dc.lft.to/lastmile_qr_scan"}, "is_reserved": 0}, {"lon": -77.02385766666667, "bike_id": "17e9e8c8c76a35b4375054ff86ed60c2", "lat": 38.918254833333336, "fusion_lon": 0.0, "fusion_lat": 0.0, "type": "electric_scooter", "name": "17e9e8c8c76a35b4375054ff86ed60c2", "is_disabled": 0, "rental_uris": {"ios": "https://dc.lft.to/lastmile_qr_scan", "android": "https://dc.lft.to/lastmile_qr_scan"}, "is_reserved": 0}, {"lon": -77.02509683333334, "bike_id": "0629ca574f8b8e2bff25448f2a5215ec", "lat": 38.917596, "fusion_lon": 0.0, "fusion_lat": 0.0, "type": "electric_scooter", "name": "0629ca574f8b8e2bff25448f2a5215ec", "is_disabled": 0, "rental_uris": {"ios": "https://dc.lft.to/lastmile_qr_scan", "android": "https://dc.lft.to/lastmile_qr_scan"}, "is_reserved": 0}, {"lon": -77.02684966666666, "bike_id": "e0866b6610644eacc126a15671c74aa5", "lat": 38.904508666666665, "fusion_lon": 0.0, "fusion_lat": 0.0, "type": "electric_scooter", "name": "e0866b6610644eacc126a15671c74aa5", "is_disabled": 0, "rental_uris": {"ios": "https://dc.lft.to/lastmile_qr_scan", "android": "https://dc.lft.to/lastmile_qr_scan"}, "is_reserved": 0}, {"lon": -76.9337365, "bike_id": "2d766bb3013155ddee8a0f1bef4511c2", "lat": 38.8990795, "fusion_lon": 0.0, "fusion_lat": 0.0, "type": "electric_scooter", "name": "2d766bb3013155ddee8a0f1bef4511c2", "is_disabled": 0, "rental_uris": {"ios": "https://dc.lft.to/lastmile_qr_scan", "android": "https://dc.lft.to/lastmile_qr_scan"}, "is_reserved": 0}, {"lon": -76.9808815, "bike_id": "8b737d3960d0dd8e0d44de4151c2a6f8", "lat": 38.881328833333335, "fusion_lon": 0.0, "fusion_lat": 0.0, "type": "electric_bike", "name": "8b737d3960d0dd8e0d44de4151c2a6f8", "is_disabled": 0, "rental_uris": {"ios": "https://dc.lft.to/lastmile_qr_scan", "android": "https://dc.lft.to/lastmile_qr_scan"}, "is_reserved": 0}, {"lon": -77.03164516666666, "bike_id": "4dd2efabdb7738fdf0d785ac2c5c8a6b", "lat": 38.89216966666667, "fusion_lon": 0.0, "fusion_lat": 0.0, "type": "electric_scooter", "name": "4dd2efabdb7738fdf0d785ac2c5c8a6b", "is_disabled": 0, "rental_uris": {"ios": "https://dc.lft.to/lastmile_qr_scan", "android": "https://dc.lft.to/lastmile_qr_scan"}, "is_reserved": 0}, {"lon": -77.0334705, "bike_id": "a9ec874635f3bb5956b9638f7692d358", "lat": 38.89880616666667, "fusion_lon": 0.0, "fusion_lat": 0.0, "type": "electric_scooter", "name": "a9ec874635f3bb5956b9638f7692d358", "is_disabled": 0, "rental_uris": {"ios": "https://dc.lft.to/lastmile_qr_scan", "android": "https://dc.lft.to/lastmile_qr_scan"}, "is_reserved": 0}, {"lon": -77.0200065, "bike_id": "b2cb7931bac5e92b70483ec573dfc5c0", "lat": 38.904497166666665, "fusion_lon": 0.0, "fusion_lat": 0.0, "type": "electric_scooter", "name": "b2cb7931bac5e92b70483ec573dfc5c0", "is_disabled": 0, "rental_uris": {"ios": "https://dc.lft.to/lastmile_qr_scan", "android": "https://dc.lft.to/lastmile_qr_scan"}, "is_reserved": 0}, {"lon": -77.02435416666667, "bike_id": "47b6bf80cef9e9ec1abd1d5db4c3ee48", "lat": 38.924972333333336, "fusion_lon": 0.0, "fusion_lat": 0.0, "type": "electric_scooter", "name": "47b6bf80cef9e9ec1abd1d5db4c3ee48", "is_disabled": 0, "rental_uris": {"ios": "https://dc.lft.to/lastmile_qr_scan", "android": "https://dc.lft.to/lastmile_qr_scan"}, "is_reserved": 0}, {"lon": -77.02285783333333, "bike_id": "a6f4ab971de88515b2a778cdad625ddf", "lat": 38.911021, "fusion_lon": 0.0, "fusion_lat": 0.0, "type": "electric_scooter", "name": "a6f4ab971de88515b2a778cdad625ddf", "is_disabled": 0, "rental_uris": {"ios": "https://dc.lft.to/lastmile_qr_scan", "android": "https://dc.lft.to/lastmile_qr_scan"}, "is_reserved": 0}, {"lon": -76.98706616666666, "bike_id": "942b3b65273b2aca8d42b328ff4fe583", "lat": 38.900339, "fusion_lon": 0.0, "fusion_lat": 0.0, "type": "electric_scooter", "name": "942b3b65273b2aca8d42b328ff4fe583", "is_disabled": 0, "rental_uris": {"ios": "https://dc.lft.to/lastmile_qr_scan", "android": "https://dc.lft.to/lastmile_qr_scan"}, "is_reserved": 0}, {"lon": -77.0481385, "bike_id": "5f43ced1bd8594cd37d6bf54d2214aef", "lat": 38.91635016666667, "fusion_lon": 0.0, "fusion_lat": 0.0, "type": "electric_scooter", "name": "5f43ced1bd8594cd37d6bf54d2214aef", "is_disabled": 0, "rental_uris": {"ios": "https://dc.lft.to/lastmile_qr_scan", "android": "https://dc.lft.to/lastmile_qr_scan"}, "is_reserved": 0}, {"lon": -76.995381, "bike_id": "ec62b50b31e394c03c9b10d377faf583", "lat": 38.862596333333336, "fusion_lon": 0.0, "fusion_lat": 0.0, "type": "electric_scooter", "name": "ec62b50b31e394c03c9b10d377faf583", "is_disabled": 0, "rental_uris": {"ios": "https://dc.lft.to/lastmile_qr_scan", "android": "https://dc.lft.to/lastmile_qr_scan"}, "is_reserved": 0}, {"lon": -77.02973333333334, "bike_id": "671f7834baf9ed1985aa8d20183f07a5", "lat": 38.92194116666667, "fusion_lon": 0.0, "fusion_lat": 0.0, "type": "electric_scooter", "name": "671f7834baf9ed1985aa8d20183f07a5", "is_disabled": 0, "rental_uris": {"ios": "https://dc.lft.to/lastmile_qr_scan", "android": "https://dc.lft.to/lastmile_qr_scan"}, "is_reserved": 0}, {"lon": -77.03256533333334, "bike_id": "8161c58fffaa361f9fce5063a96f537f", "lat": 38.9426935, "fusion_lon": 0.0, "fusion_lat": 0.0, "type": "electric_scooter", "name": "8161c58fffaa361f9fce5063a96f537f", "is_disabled": 0, "rental_uris": {"ios": "https://dc.lft.to/lastmile_qr_scan", "android": "https://dc.lft.to/lastmile_qr_scan"}, "is_reserved": 0}, {"lon": -77.02677383333334, "bike_id": "a18edd132058b839b448d46e1546989c", "lat": 38.98454233333333, "fusion_lon": 0.0, "fusion_lat": 0.0, "type": "electric_scooter", "name": "a18edd132058b839b448d46e1546989c", "is_disabled": 0, "rental_uris": {"ios": "https://dc.lft.to/lastmile_qr_scan", "android": "https://dc.lft.to/lastmile_qr_scan"}, "is_reserved": 0}, {"lon": -76.96378633333333, "bike_id": "59c086c67467d53dfc8cd485965ac176", "lat": 38.9517775, "fusion_lon": 0.0, "fusion_lat": 0.0, "type": "electric_bike", "name": "59c086c67467d53dfc8cd485965ac176", "is_disabled": 0, "rental_uris": {"ios": "https://dc.lft.to/lastmile_qr_scan", "android": "https://dc.lft.to/lastmile_qr_scan"}, "is_reserved": 0}, {"lon": -77.01212283333334, "bike_id": "4c3f31477e3ad3f6f05ffa53cecc9744", "lat": 38.91437, "fusion_lon": 0.0, "fusion_lat": 0.0, "type": "electric_scooter", "name": "4c3f31477e3ad3f6f05ffa53cecc9744", "is_disabled": 0, "rental_uris": {"ios": "https://dc.lft.to/lastmile_qr_scan", "android": "https://dc.lft.to/lastmile_qr_scan"}, "is_reserved": 0}, {"lon": -77.0280515, "bike_id": "6f53aabbefc6a63d1709739b063413f6", "lat": 38.88175916666667, "fusion_lon": 0.0, "fusion_lat": 0.0, "type": "electric_scooter", "name": "6f53aabbefc6a63d1709739b063413f6", "is_disabled": 0, "rental_uris": {"ios": "https://dc.lft.to/lastmile_qr_scan", "android": "https://dc.lft.to/lastmile_qr_scan"}, "is_reserved": 0}, {"lon": -77.04133433333334, "bike_id": "b331732738bd120fbe42e8d0a45992c3", "lat": 38.930017166666666, "fusion_lon": 0.0, "fusion_lat": 0.0, "type": "electric_scooter", "name": "b331732738bd120fbe42e8d0a45992c3", "is_disabled": 0, "rental_uris": {"ios": "https://dc.lft.to/lastmile_qr_scan", "android": "https://dc.lft.to/lastmile_qr_scan"}, "is_reserved": 0}, {"lon": -77.03666033333333, "bike_id": "f1e16ff937c2b1f4eb9bf91c104f8080", "lat": 38.936267, "fusion_lon": 0.0, "fusion_lat": 0.0, "type": "electric_scooter", "name": "f1e16ff937c2b1f4eb9bf91c104f8080", "is_disabled": 0, "rental_uris": {"ios": "https://dc.lft.to/lastmile_qr_scan", "android": "https://dc.lft.to/lastmile_qr_scan"}, "is_reserved": 0}, {"lon": -76.99589466666667, "bike_id": "d15c5a55283684e7a68016df122681c3", "lat": 38.8569445, "fusion_lon": 0.0, "fusion_lat": 0.0, "type": "electric_scooter", "name": "d15c5a55283684e7a68016df122681c3", "is_disabled": 0, "rental_uris": {"ios": "https://dc.lft.to/lastmile_qr_scan", "android": "https://dc.lft.to/lastmile_qr_scan"}, "is_reserved": 0}, {"lon": -77.01356266666667, "bike_id": "7a043fbd0d62d486048881765e9ca919", "lat": 38.88702516666667, "fusion_lon": 0.0, "fusion_lat": 0.0, "type": "electric_scooter", "name": "7a043fbd0d62d486048881765e9ca919", "is_disabled": 0, "rental_uris": {"ios": "https://dc.lft.to/lastmile_qr_scan", "android": "https://dc.lft.to/lastmile_qr_scan"}, "is_reserved": 0}, {"lon": -77.0257605, "bike_id": "2003459ac7cb1ce80330da934022d694", "lat": 38.92732, "fusion_lon": 0.0, "fusion_lat": 0.0, "type": "electric_scooter", "name": "2003459ac7cb1ce80330da934022d694", "is_disabled": 0, "rental_uris": {"ios": "https://dc.lft.to/lastmile_qr_scan", "android": "https://dc.lft.to/lastmile_qr_scan"}, "is_reserved": 0}, {"lon": -77.03025316666667, "bike_id": "80cd4a773a2851f9a829aa7e1c9a52a5", "lat": 38.8980535, "fusion_lon": 0.0, "fusion_lat": 0.0, "type": "electric_scooter", "name": "80cd4a773a2851f9a829aa7e1c9a52a5", "is_disabled": 0, "rental_uris": {"ios": "https://dc.lft.to/lastmile_qr_scan", "android": "https://dc.lft.to/lastmile_qr_scan"}, "is_reserved": 0}, {"lon": -77.04391216666667, "bike_id": "e8450c12c1376e8ff2947165cc6e1e8c", "lat": 38.922273, "fusion_lon": 0.0, "fusion_lat": 0.0, "type": "electric_scooter", "name": "e8450c12c1376e8ff2947165cc6e1e8c", "is_disabled": 0, "rental_uris": {"ios": "https://dc.lft.to/lastmile_qr_scan", "android": "https://dc.lft.to/lastmile_qr_scan"}, "is_reserved": 0}, {"lon": -77.04601066666666, "bike_id": "32f5156c5d98774ad55349ed477102c4", "lat": 38.916064166666665, "fusion_lon": 0.0, "fusion_lat": 0.0, "type": "electric_scooter", "name": "32f5156c5d98774ad55349ed477102c4", "is_disabled": 0, "rental_uris": {"ios": "https://dc.lft.to/lastmile_qr_scan", "android": "https://dc.lft.to/lastmile_qr_scan"}, "is_reserved": 0}, {"lon": -77.029291, "bike_id": "470de3b5e0c6bf768f4b8ec956289448", "lat": 38.89793366666667, "fusion_lon": 0.0, "fusion_lat": 0.0, "type": "electric_scooter", "name": "470de3b5e0c6bf768f4b8ec956289448", "is_disabled": 0, "rental_uris": {"ios": "https://dc.lft.to/lastmile_qr_scan", "android": "https://dc.lft.to/lastmile_qr_scan"}, "is_reserved": 0}, {"lon": -77.02401466666667, "bike_id": "3d1ea274cfc0952c0cc33ca3dfbd9413", "lat": 38.92006133333334, "fusion_lon": 0.0, "fusion_lat": 0.0, "type": "electric_scooter", "name": "3d1ea274cfc0952c0cc33ca3dfbd9413", "is_disabled": 0, "rental_uris": {"ios": "https://dc.lft.to/lastmile_qr_scan", "android": "https://dc.lft.to/lastmile_qr_scan"}, "is_reserved": 0}, {"lon": -76.988228, "bike_id": "4b9cefbaae1406a0cec02dffac5322c0", "lat": 38.89069933333333, "fusion_lon": 0.0, "fusion_lat": 0.0, "type": "electric_scooter", "name": "4b9cefbaae1406a0cec02dffac5322c0", "is_disabled": 0, "rental_uris": {"ios": "https://dc.lft.to/lastmile_qr_scan", "android": "https://dc.lft.to/lastmile_qr_scan"}, "is_reserved": 0}, {"lon": -77.00758616666667, "bike_id": "d20a543503f19c2ba7032703ef155121", "lat": 38.87650683333333, "fusion_lon": 0.0, "fusion_lat": 0.0, "type": "electric_scooter", "name": "d20a543503f19c2ba7032703ef155121", "is_disabled": 0, "rental_uris": {"ios": "https://dc.lft.to/lastmile_qr_scan", "android": "https://dc.lft.to/lastmile_qr_scan"}, "is_reserved": 0}, {"lon": -77.005531, "bike_id": "ff22d90e1f0fc7b7966474b2bc8dcf73", "lat": 38.874652, "fusion_lon": 0.0, "fusion_lat": 0.0, "type": "electric_scooter", "name": "ff22d90e1f0fc7b7966474b2bc8dcf73", "is_disabled": 0, "rental_uris": {"ios": "https://dc.lft.to/lastmile_qr_scan", "android": "https://dc.lft.to/lastmile_qr_scan"}, "is_reserved": 0}, {"lon": -77.05105816666666, "bike_id": "13e6be2be20d9d3604f66a0d0229164c", "lat": 39.036688166666664, "fusion_lon": 0.0, "fusion_lat": 0.0, "type": "electric_bike", "name": "13e6be2be20d9d3604f66a0d0229164c", "is_disabled": 0, "rental_uris": {"ios": "https://dc.lft.to/lastmile_qr_scan", "android": "https://dc.lft.to/lastmile_qr_scan"}, "is_reserved": 0}, {"lon": -77.026053, "bike_id": "0bb8aa633e9bf974c06ee2b2d52bcb82", "lat": 38.919173, "fusion_lon": 0.0, "fusion_lat": 0.0, "type": "electric_scooter", "name": "0bb8aa633e9bf974c06ee2b2d52bcb82", "is_disabled": 0, "rental_uris": {"ios": "https://dc.lft.to/lastmile_qr_scan", "android": "https://dc.lft.to/lastmile_qr_scan"}, "is_reserved": 0}, {"lon": -76.99116116666667, "bike_id": "e12e6e142893175a7d111b625a50916d", "lat": 38.93359383333333, "fusion_lon": 0.0, "fusion_lat": 0.0, "type": "electric_scooter", "name": "e12e6e142893175a7d111b625a50916d", "is_disabled": 0, "rental_uris": {"ios": "https://dc.lft.to/lastmile_qr_scan", "android": "https://dc.lft.to/lastmile_qr_scan"}, "is_reserved": 0}, {"lon": -77.0457415, "bike_id": "54dd5b365b24432ed77da0b71b58bdbd", "lat": 38.91858766666667, "fusion_lon": 0.0, "fusion_lat": 0.0, "type": "electric_scooter", "name": "54dd5b365b24432ed77da0b71b58bdbd", "is_disabled": 0, "rental_uris": {"ios": "https://dc.lft.to/lastmile_qr_scan", "android": "https://dc.lft.to/lastmile_qr_scan"}, "is_reserved": 0}, {"lon": -77.048463, "bike_id": "d830b71e595c3289059f8134fd4ec155", "lat": 38.90426383333333, "fusion_lon": 0.0, "fusion_lat": 0.0, "type": "electric_scooter", "name": "d830b71e595c3289059f8134fd4ec155", "is_disabled": 0, "rental_uris": {"ios": "https://dc.lft.to/lastmile_qr_scan", "android": "https://dc.lft.to/lastmile_qr_scan"}, "is_reserved": 0}, {"lon": -77.04865116666667, "bike_id": "a2686a5cbeef41acf067442bf17212a6", "lat": 38.892201166666666, "fusion_lon": 0.0, "fusion_lat": 0.0, "type": "electric_scooter", "name": "a2686a5cbeef41acf067442bf17212a6", "is_disabled": 0, "rental_uris": {"ios": "https://dc.lft.to/lastmile_qr_scan", "android": "https://dc.lft.to/lastmile_qr_scan"}, "is_reserved": 0}, {"lon": -76.99820933333334, "bike_id": "d883c3db32aa5bf32b3a6f032cafac3c", "lat": 38.907125, "fusion_lon": 0.0, "fusion_lat": 0.0, "type": "electric_scooter", "name": "d883c3db32aa5bf32b3a6f032cafac3c", "is_disabled": 0, "rental_uris": {"ios": "https://dc.lft.to/lastmile_qr_scan", "android": "https://dc.lft.to/lastmile_qr_scan"}, "is_reserved": 0}, {"lon": -77.03047616666667, "bike_id": "7cf7889e7e9aee479891dc296920db2c", "lat": 38.91328433333334, "fusion_lon": 0.0, "fusion_lat": 0.0, "type": "electric_scooter", "name": "7cf7889e7e9aee479891dc296920db2c", "is_disabled": 0, "rental_uris": {"ios": "https://dc.lft.to/lastmile_qr_scan", "android": "https://dc.lft.to/lastmile_qr_scan"}, "is_reserved": 0}, {"lon": -76.9744845, "bike_id": "361f8f6a4c44ba5c5021be04e1432894", "lat": 38.86536316666667, "fusion_lon": 0.0, "fusion_lat": 0.0, "type": "electric_scooter", "name": "361f8f6a4c44ba5c5021be04e1432894", "is_disabled": 0, "rental_uris": {"ios": "https://dc.lft.to/lastmile_qr_scan", "android": "https://dc.lft.to/lastmile_qr_scan"}, "is_reserved": 0}, {"lon": -77.0219565, "bike_id": "c4e2c1d63d27419e0dc401705e2242d3", "lat": 38.899862666666664, "fusion_lon": 0.0, "fusion_lat": 0.0, "type": "electric_scooter", "name": "c4e2c1d63d27419e0dc401705e2242d3", "is_disabled": 0, "rental_uris": {"ios": "https://dc.lft.to/lastmile_qr_scan", "android": "https://dc.lft.to/lastmile_qr_scan"}, "is_reserved": 0}, {"lon": -77.02415933333333, "bike_id": "276035d72e6d21332e443a1301396ca1", "lat": 38.925003, "fusion_lon": 0.0, "fusion_lat": 0.0, "type": "electric_scooter", "name": "276035d72e6d21332e443a1301396ca1", "is_disabled": 0, "rental_uris": {"ios": "https://dc.lft.to/lastmile_qr_scan", "android": "https://dc.lft.to/lastmile_qr_scan"}, "is_reserved": 0}, {"lon": -77.03945083333333, "bike_id": "611ecca95a83b3da77d0083cdca22251", "lat": 38.8990775, "fusion_lon": 0.0, "fusion_lat": 0.0, "type": "electric_scooter", "name": "611ecca95a83b3da77d0083cdca22251", "is_disabled": 0, "rental_uris": {"ios": "https://dc.lft.to/lastmile_qr_scan", "android": "https://dc.lft.to/lastmile_qr_scan"}, "is_reserved": 0}, {"lon": -77.0383675, "bike_id": "7a893335234ffc3f54e1fbd032895572", "lat": 38.910201, "fusion_lon": 0.0, "fusion_lat": 0.0, "type": "electric_scooter", "name": "7a893335234ffc3f54e1fbd032895572", "is_disabled": 0, "rental_uris": {"ios": "https://dc.lft.to/lastmile_qr_scan", "android": "https://dc.lft.to/lastmile_qr_scan"}, "is_reserved": 0}, {"lon": -77.05106716666667, "bike_id": "4b86a001d061c34742e0691c8f3f014d", "lat": 38.923051, "fusion_lon": 0.0, "fusion_lat": 0.0, "type": "electric_scooter", "name": "4b86a001d061c34742e0691c8f3f014d", "is_disabled": 0, "rental_uris": {"ios": "https://dc.lft.to/lastmile_qr_scan", "android": "https://dc.lft.to/lastmile_qr_scan"}, "is_reserved": 0}, {"lon": -77.06787566666667, "bike_id": "587c76a2d618ed185765d289dce5c408", "lat": 38.91308183333334, "fusion_lon": 0.0, "fusion_lat": 0.0, "type": "electric_scooter", "name": "587c76a2d618ed185765d289dce5c408", "is_disabled": 0, "rental_uris": {"ios": "https://dc.lft.to/lastmile_qr_scan", "android": "https://dc.lft.to/lastmile_qr_scan"}, "is_reserved": 0}, {"lon": -77.00649166666666, "bike_id": "b3fe1e6f86f18d29f760a53bccaf1177", "lat": 38.880714, "fusion_lon": 0.0, "fusion_lat": 0.0, "type": "electric_scooter", "name": "b3fe1e6f86f18d29f760a53bccaf1177", "is_disabled": 0, "rental_uris": {"ios": "https://dc.lft.to/lastmile_qr_scan", "android": "https://dc.lft.to/lastmile_qr_scan"}, "is_reserved": 0}, {"lon": -77.02617266666667, "bike_id": "ac206cd00bd8c7e04969887460b09a75", "lat": 38.92974366666667, "fusion_lon": 0.0, "fusion_lat": 0.0, "type": "electric_scooter", "name": "ac206cd00bd8c7e04969887460b09a75", "is_disabled": 0, "rental_uris": {"ios": "https://dc.lft.to/lastmile_qr_scan", "android": "https://dc.lft.to/lastmile_qr_scan"}, "is_reserved": 0}, {"lon": -77.02398933333333, "bike_id": "c3122bd1160030d1205a80a053703976", "lat": 38.920622333333334, "fusion_lon": 0.0, "fusion_lat": 0.0, "type": "electric_scooter", "name": "c3122bd1160030d1205a80a053703976", "is_disabled": 0, "rental_uris": {"ios": "https://dc.lft.to/lastmile_qr_scan", "android": "https://dc.lft.to/lastmile_qr_scan"}, "is_reserved": 0}, {"lon": -76.99596583333333, "bike_id": "7080ad46ca6a3c0c4570c3491f0e9691", "lat": 38.9507635, "fusion_lon": 0.0, "fusion_lat": 0.0, "type": "electric_bike", "name": "7080ad46ca6a3c0c4570c3491f0e9691", "is_disabled": 0, "rental_uris": {"ios": "https://dc.lft.to/lastmile_qr_scan", "android": "https://dc.lft.to/lastmile_qr_scan"}, "is_reserved": 0}, {"lon": -77.03158083333334, "bike_id": "7274b1295f1b400f0cb24f40dd70c5c1", "lat": 38.9162835, "fusion_lon": 0.0, "fusion_lat": 0.0, "type": "electric_scooter", "name": "7274b1295f1b400f0cb24f40dd70c5c1", "is_disabled": 0, "rental_uris": {"ios": "https://dc.lft.to/lastmile_qr_scan", "android": "https://dc.lft.to/lastmile_qr_scan"}, "is_reserved": 0}, {"lon": -77.0317605, "bike_id": "1d67f6119800182a8078e4b6d0bc1a18", "lat": 38.936015, "fusion_lon": 0.0, "fusion_lat": 0.0, "type": "electric_scooter", "name": "1d67f6119800182a8078e4b6d0bc1a18", "is_disabled": 0, "rental_uris": {"ios": "https://dc.lft.to/lastmile_qr_scan", "android": "https://dc.lft.to/lastmile_qr_scan"}, "is_reserved": 0}, {"lon": -77.03165116666666, "bike_id": "69af2d7d5758aee0a7be7cf425b1dd89", "lat": 38.920914833333335, "fusion_lon": 0.0, "fusion_lat": 0.0, "type": "electric_bike", "name": "69af2d7d5758aee0a7be7cf425b1dd89", "is_disabled": 0, "rental_uris": {"ios": "https://dc.lft.to/lastmile_qr_scan", "android": "https://dc.lft.to/lastmile_qr_scan"}, "is_reserved": 0}, {"lon": -77.01875216666667, "bike_id": "84576badcd2529d50119cf28648fc647", "lat": 38.91412316666667, "fusion_lon": 0.0, "fusion_lat": 0.0, "type": "electric_scooter", "name": "84576badcd2529d50119cf28648fc647", "is_disabled": 0, "rental_uris": {"ios": "https://dc.lft.to/lastmile_qr_scan", "android": "https://dc.lft.to/lastmile_qr_scan"}, "is_reserved": 0}, {"lon": -77.18558216666666, "bike_id": "d4d6ce7db56a3b44126c2e4a1bd07929", "lat": 39.0997315, "fusion_lon": 0.0, "fusion_lat": 0.0, "type": "electric_bike", "name": "d4d6ce7db56a3b44126c2e4a1bd07929", "is_disabled": 0, "rental_uris": {"ios": "https://dc.lft.to/lastmile_qr_scan", "android": "https://dc.lft.to/lastmile_qr_scan"}, "is_reserved": 0}, {"lon": -77.07595916666666, "bike_id": "e908194de163b9131c7fcdeafcd6f5f5", "lat": 38.912154666666666, "fusion_lon": 0.0, "fusion_lat": 0.0, "type": "electric_scooter", "name": "e908194de163b9131c7fcdeafcd6f5f5", "is_disabled": 0, "rental_uris": {"ios": "https://dc.lft.to/lastmile_qr_scan", "android": "https://dc.lft.to/lastmile_qr_scan"}, "is_reserved": 0}, {"lon": -77.00435716666667, "bike_id": "b74bd8d670777ee6d66bc6fdae1056e9", "lat": 38.87764983333334, "fusion_lon": 0.0, "fusion_lat": 0.0, "type": "electric_scooter", "name": "b74bd8d670777ee6d66bc6fdae1056e9", "is_disabled": 0, "rental_uris": {"ios": "https://dc.lft.to/lastmile_qr_scan", "android": "https://dc.lft.to/lastmile_qr_scan"}, "is_reserved": 0}, {"lon": -76.97739016666667, "bike_id": "e7411cb0c317e2fa9b4fa449f10d1bbc", "lat": 38.8648795, "fusion_lon": 0.0, "fusion_lat": 0.0, "type": "electric_bike", "name": "e7411cb0c317e2fa9b4fa449f10d1bbc", "is_disabled": 0, "rental_uris": {"ios": "https://dc.lft.to/lastmile_qr_scan", "android": "https://dc.lft.to/lastmile_qr_scan"}, "is_reserved": 0}, {"lon": -77.03563116666666, "bike_id": "6c29f6674b3440bc6a65bc874dbf1f12", "lat": 38.92413633333334, "fusion_lon": 0.0, "fusion_lat": 0.0, "type": "electric_scooter", "name": "6c29f6674b3440bc6a65bc874dbf1f12", "is_disabled": 0, "rental_uris": {"ios": "https://dc.lft.to/lastmile_qr_scan", "android": "https://dc.lft.to/lastmile_qr_scan"}, "is_reserved": 0}, {"lon": -77.01347333333334, "bike_id": "579dce240b79cf74123cedbf4aa0f39c", "lat": 38.897106666666666, "fusion_lon": 0.0, "fusion_lat": 0.0, "type": "electric_scooter", "name": "579dce240b79cf74123cedbf4aa0f39c", "is_disabled": 0, "rental_uris": {"ios": "https://dc.lft.to/lastmile_qr_scan", "android": "https://dc.lft.to/lastmile_qr_scan"}, "is_reserved": 0}, {"lon": -77.02650666666666, "bike_id": "2d75c909466c2336dd9d5c5959ff7056", "lat": 38.978117833333336, "fusion_lon": 0.0, "fusion_lat": 0.0, "type": "electric_scooter", "name": "2d75c909466c2336dd9d5c5959ff7056", "is_disabled": 0, "rental_uris": {"ios": "https://dc.lft.to/lastmile_qr_scan", "android": "https://dc.lft.to/lastmile_qr_scan"}, "is_reserved": 0}, {"lon": -77.02707033333333, "bike_id": "e7108a4fad757b84101d9f55061da943", "lat": 38.89723383333333, "fusion_lon": 0.0, "fusion_lat": 0.0, "type": "electric_scooter", "name": "e7108a4fad757b84101d9f55061da943", "is_disabled": 0, "rental_uris": {"ios": "https://dc.lft.to/lastmile_qr_scan", "android": "https://dc.lft.to/lastmile_qr_scan"}, "is_reserved": 0}, {"lon": -77.02846533333333, "bike_id": "96fb920207183c0b680b3c335773c4b2", "lat": 38.927682833333336, "fusion_lon": 0.0, "fusion_lat": 0.0, "type": "electric_scooter", "name": "96fb920207183c0b680b3c335773c4b2", "is_disabled": 0, "rental_uris": {"ios": "https://dc.lft.to/lastmile_qr_scan", "android": "https://dc.lft.to/lastmile_qr_scan"}, "is_reserved": 0}, {"lon": -77.00792833333334, "bike_id": "c57b0b33f0acb5aeb703a324792ab6b7", "lat": 38.89645083333333, "fusion_lon": 0.0, "fusion_lat": 0.0, "type": "electric_scooter", "name": "c57b0b33f0acb5aeb703a324792ab6b7", "is_disabled": 0, "rental_uris": {"ios": "https://dc.lft.to/lastmile_qr_scan", "android": "https://dc.lft.to/lastmile_qr_scan"}, "is_reserved": 0}, {"lon": -77.044954, "bike_id": "9188781574df0c4c6fd23753c14e707d", "lat": 38.903460333333335, "fusion_lon": 0.0, "fusion_lat": 0.0, "type": "electric_scooter", "name": "9188781574df0c4c6fd23753c14e707d", "is_disabled": 0, "rental_uris": {"ios": "https://dc.lft.to/lastmile_qr_scan", "android": "https://dc.lft.to/lastmile_qr_scan"}, "is_reserved": 0}, {"lon": -77.0254045, "bike_id": "b2d203c025e60e35e0c7072b2a610467", "lat": 38.90327116666667, "fusion_lon": 0.0, "fusion_lat": 0.0, "type": "electric_scooter", "name": "b2d203c025e60e35e0c7072b2a610467", "is_disabled": 0, "rental_uris": {"ios": "https://dc.lft.to/lastmile_qr_scan", "android": "https://dc.lft.to/lastmile_qr_scan"}, "is_reserved": 0}, {"lon": -77.033592, "bike_id": "6511167d8c650cf8bdd971bb94b27256", "lat": 38.93579033333333, "fusion_lon": 0.0, "fusion_lat": 0.0, "type": "electric_scooter", "name": "6511167d8c650cf8bdd971bb94b27256", "is_disabled": 0, "rental_uris": {"ios": "https://dc.lft.to/lastmile_qr_scan", "android": "https://dc.lft.to/lastmile_qr_scan"}, "is_reserved": 0}, {"lon": -76.9677185, "bike_id": "b56f903a9fe4046c668280f3140d7189", "lat": 38.85920216666667, "fusion_lon": 0.0, "fusion_lat": 0.0, "type": "electric_scooter", "name": "b56f903a9fe4046c668280f3140d7189", "is_disabled": 0, "rental_uris": {"ios": "https://dc.lft.to/lastmile_qr_scan", "android": "https://dc.lft.to/lastmile_qr_scan"}, "is_reserved": 0}, {"lon": -76.97867566666666, "bike_id": "6ea0fce782f6db5922733e0c33c764a9", "lat": 38.88303333333333, "fusion_lon": 0.0, "fusion_lat": 0.0, "type": "electric_scooter", "name": "6ea0fce782f6db5922733e0c33c764a9", "is_disabled": 0, "rental_uris": {"ios": "https://dc.lft.to/lastmile_qr_scan", "android": "https://dc.lft.to/lastmile_qr_scan"}, "is_reserved": 0}, {"lon": -77.041158, "bike_id": "5be9866f16ab1e5a5075bfdf0ae2c0cc", "lat": 38.93463916666666, "fusion_lon": 0.0, "fusion_lat": 0.0, "type": "electric_scooter", "name": "5be9866f16ab1e5a5075bfdf0ae2c0cc", "is_disabled": 0, "rental_uris": {"ios": "https://dc.lft.to/lastmile_qr_scan", "android": "https://dc.lft.to/lastmile_qr_scan"}, "is_reserved": 0}, {"lon": -76.99610583333333, "bike_id": "d035c0212a1161286c6b28f4517141f7", "lat": 38.89465116666667, "fusion_lon": 0.0, "fusion_lat": 0.0, "type": "electric_scooter", "name": "d035c0212a1161286c6b28f4517141f7", "is_disabled": 0, "rental_uris": {"ios": "https://dc.lft.to/lastmile_qr_scan", "android": "https://dc.lft.to/lastmile_qr_scan"}, "is_reserved": 0}, {"lon": -77.08771683333333, "bike_id": "3465d3823171c41c354ce95442141ca3", "lat": 38.838988666666665, "fusion_lon": 0.0, "fusion_lat": 0.0, "type": "electric_bike", "name": "3465d3823171c41c354ce95442141ca3", "is_disabled": 0, "rental_uris": {"ios": "https://dc.lft.to/lastmile_qr_scan", "android": "https://dc.lft.to/lastmile_qr_scan"}, "is_reserved": 0}, {"lon": -76.977117, "bike_id": "f74b87338a3c789146f8afc86bad3b13", "lat": 38.88775433333333, "fusion_lon": 0.0, "fusion_lat": 0.0, "type": "electric_scooter", "name": "f74b87338a3c789146f8afc86bad3b13", "is_disabled": 0, "rental_uris": {"ios": "https://dc.lft.to/lastmile_qr_scan", "android": "https://dc.lft.to/lastmile_qr_scan"}, "is_reserved": 0}, {"lon": -76.976123, "bike_id": "e6a36b0570a5b8cceca915230a977545", "lat": 38.899574666666666, "fusion_lon": 0.0, "fusion_lat": 0.0, "type": "electric_scooter", "name": "e6a36b0570a5b8cceca915230a977545", "is_disabled": 0, "rental_uris": {"ios": "https://dc.lft.to/lastmile_qr_scan", "android": "https://dc.lft.to/lastmile_qr_scan"}, "is_reserved": 0}, {"lon": -77.03331683333333, "bike_id": "7f163aa7ade1aa82a861d1e9b32b9b95", "lat": 38.928861833333336, "fusion_lon": 0.0, "fusion_lat": 0.0, "type": "electric_scooter", "name": "7f163aa7ade1aa82a861d1e9b32b9b95", "is_disabled": 0, "rental_uris": {"ios": "https://dc.lft.to/lastmile_qr_scan", "android": "https://dc.lft.to/lastmile_qr_scan"}, "is_reserved": 0}, {"lon": -77.04112383333333, "bike_id": "f03c55bed328ffabb723a5f9a4abfd6b", "lat": 38.928023, "fusion_lon": 0.0, "fusion_lat": 0.0, "type": "electric_scooter", "name": "f03c55bed328ffabb723a5f9a4abfd6b", "is_disabled": 0, "rental_uris": {"ios": "https://dc.lft.to/lastmile_qr_scan", "android": "https://dc.lft.to/lastmile_qr_scan"}, "is_reserved": 0}, {"lon": -76.962566, "bike_id": "c477f46ac5f812b0ba5cfc233f84b9f2", "lat": 38.882433166666665, "fusion_lon": 0.0, "fusion_lat": 0.0, "type": "electric_bike", "name": "c477f46ac5f812b0ba5cfc233f84b9f2", "is_disabled": 0, "rental_uris": {"ios": "https://dc.lft.to/lastmile_qr_scan", "android": "https://dc.lft.to/lastmile_qr_scan"}, "is_reserved": 0}, {"lon": -76.99580483333334, "bike_id": "4250e6202677b762401d203a848a7f19", "lat": 38.8529315, "fusion_lon": 0.0, "fusion_lat": 0.0, "type": "electric_bike", "name": "4250e6202677b762401d203a848a7f19", "is_disabled": 0, "rental_uris": {"ios": "https://dc.lft.to/lastmile_qr_scan", "android": "https://dc.lft.to/lastmile_qr_scan"}, "is_reserved": 0}, {"lon": -77.04109983333333, "bike_id": "8049fa47572d80bf980d3aa8278b6382", "lat": 38.91696266666667, "fusion_lon": 0.0, "fusion_lat": 0.0, "type": "electric_scooter", "name": "8049fa47572d80bf980d3aa8278b6382", "is_disabled": 0, "rental_uris": {"ios": "https://dc.lft.to/lastmile_qr_scan", "android": "https://dc.lft.to/lastmile_qr_scan"}, "is_reserved": 0}, {"lon": -77.033443, "bike_id": "4196cee75ba59042fea2adf1b7d12718", "lat": 38.917055500000004, "fusion_lon": 0.0, "fusion_lat": 0.0, "type": "electric_scooter", "name": "4196cee75ba59042fea2adf1b7d12718", "is_disabled": 0, "rental_uris": {"ios": "https://dc.lft.to/lastmile_qr_scan", "android": "https://dc.lft.to/lastmile_qr_scan"}, "is_reserved": 0}, {"lon": -76.99833083333333, "bike_id": "b7e12ab9485a71a8b20fa1663bab5d3c", "lat": 38.90003383333333, "fusion_lon": 0.0, "fusion_lat": 0.0, "type": "electric_scooter", "name": "b7e12ab9485a71a8b20fa1663bab5d3c", "is_disabled": 0, "rental_uris": {"ios": "https://dc.lft.to/lastmile_qr_scan", "android": "https://dc.lft.to/lastmile_qr_scan"}, "is_reserved": 0}, {"lon": -77.00927316666667, "bike_id": "5a1cc61e548f6f73a131354139ba73ca", "lat": 38.883186, "fusion_lon": 0.0, "fusion_lat": 0.0, "type": "electric_scooter", "name": "5a1cc61e548f6f73a131354139ba73ca", "is_disabled": 0, "rental_uris": {"ios": "https://dc.lft.to/lastmile_qr_scan", "android": "https://dc.lft.to/lastmile_qr_scan"}, "is_reserved": 0}, {"lon": -77.03576683333333, "bike_id": "8a797d9d1189b17338ef2f0d9cd50df5", "lat": 38.90763166666667, "fusion_lon": 0.0, "fusion_lat": 0.0, "type": "electric_scooter", "name": "8a797d9d1189b17338ef2f0d9cd50df5", "is_disabled": 0, "rental_uris": {"ios": "https://dc.lft.to/lastmile_qr_scan", "android": "https://dc.lft.to/lastmile_qr_scan"}, "is_reserved": 0}, {"lon": -77.02469316666667, "bike_id": "a650b42079df10eaf35cb43ee30eba21", "lat": 38.90379166666666, "fusion_lon": 0.0, "fusion_lat": 0.0, "type": "electric_scooter", "name": "a650b42079df10eaf35cb43ee30eba21", "is_disabled": 0, "rental_uris": {"ios": "https://dc.lft.to/lastmile_qr_scan", "android": "https://dc.lft.to/lastmile_qr_scan"}, "is_reserved": 0}, {"lon": -77.02420333333333, "bike_id": "b314634759ec2c607f2d18fb638cecb8", "lat": 38.91413566666667, "fusion_lon": 0.0, "fusion_lat": 0.0, "type": "electric_scooter", "name": "b314634759ec2c607f2d18fb638cecb8", "is_disabled": 0, "rental_uris": {"ios": "https://dc.lft.to/lastmile_qr_scan", "android": "https://dc.lft.to/lastmile_qr_scan"}, "is_reserved": 0}, {"lon": -77.0073275, "bike_id": "4d5649768d753bc92137e8413a700425", "lat": 38.916269166666666, "fusion_lon": 0.0, "fusion_lat": 0.0, "type": "electric_scooter", "name": "4d5649768d753bc92137e8413a700425", "is_disabled": 0, "rental_uris": {"ios": "https://dc.lft.to/lastmile_qr_scan", "android": "https://dc.lft.to/lastmile_qr_scan"}, "is_reserved": 0}, {"lon": -77.01429816666666, "bike_id": "2fca63fef8ad4722148fbd6237b2afc3", "lat": 38.91462216666667, "fusion_lon": 0.0, "fusion_lat": 0.0, "type": "electric_scooter", "name": "2fca63fef8ad4722148fbd6237b2afc3", "is_disabled": 0, "rental_uris": {"ios": "https://dc.lft.to/lastmile_qr_scan", "android": "https://dc.lft.to/lastmile_qr_scan"}, "is_reserved": 0}, {"lon": -77.03260966666667, "bike_id": "3c5a2d0b7991fedcc4115f2dc200503b", "lat": 38.93558616666667, "fusion_lon": 0.0, "fusion_lat": 0.0, "type": "electric_scooter", "name": "3c5a2d0b7991fedcc4115f2dc200503b", "is_disabled": 0, "rental_uris": {"ios": "https://dc.lft.to/lastmile_qr_scan", "android": "https://dc.lft.to/lastmile_qr_scan"}, "is_reserved": 0}, {"lon": -76.99610083333333, "bike_id": "5fcad5b12c585a98c720f481e9bba92a", "lat": 38.90001066666667, "fusion_lon": 0.0, "fusion_lat": 0.0, "type": "electric_scooter", "name": "5fcad5b12c585a98c720f481e9bba92a", "is_disabled": 0, "rental_uris": {"ios": "https://dc.lft.to/lastmile_qr_scan", "android": "https://dc.lft.to/lastmile_qr_scan"}, "is_reserved": 0}, {"lon": -77.07431566666666, "bike_id": "07dc18fe8c31d338e1afc3e3d1ee9f97", "lat": 38.999427833333336, "fusion_lon": 0.0, "fusion_lat": 0.0, "type": "electric_bike", "name": "07dc18fe8c31d338e1afc3e3d1ee9f97", "is_disabled": 0, "rental_uris": {"ios": "https://dc.lft.to/lastmile_qr_scan", "android": "https://dc.lft.to/lastmile_qr_scan"}, "is_reserved": 0}, {"lon": -77.03216183333333, "bike_id": "37192c259b50cfab3f1b845e930f063b", "lat": 38.91402033333333, "fusion_lon": 0.0, "fusion_lat": 0.0, "type": "electric_scooter", "name": "37192c259b50cfab3f1b845e930f063b", "is_disabled": 0, "rental_uris": {"ios": "https://dc.lft.to/lastmile_qr_scan", "android": "https://dc.lft.to/lastmile_qr_scan"}, "is_reserved": 0}, {"lon": -76.98707983333334, "bike_id": "a15cee13bbbb8b10772288881039acef", "lat": 38.8662525, "fusion_lon": 0.0, "fusion_lat": 0.0, "type": "electric_scooter", "name": "a15cee13bbbb8b10772288881039acef", "is_disabled": 0, "rental_uris": {"ios": "https://dc.lft.to/lastmile_qr_scan", "android": "https://dc.lft.to/lastmile_qr_scan"}, "is_reserved": 0}, {"lon": -77.02814866666667, "bike_id": "907f0959c0f025e25b234fa0465ffbab", "lat": 38.92472716666666, "fusion_lon": 0.0, "fusion_lat": 0.0, "type": "electric_scooter", "name": "907f0959c0f025e25b234fa0465ffbab", "is_disabled": 0, "rental_uris": {"ios": "https://dc.lft.to/lastmile_qr_scan", "android": "https://dc.lft.to/lastmile_qr_scan"}, "is_reserved": 0}, {"lon": -77.02088566666667, "bike_id": "e1fbb4ee490e773b1bd4200dc2d05eb4", "lat": 38.9155375, "fusion_lon": 0.0, "fusion_lat": 0.0, "type": "electric_scooter", "name": "e1fbb4ee490e773b1bd4200dc2d05eb4", "is_disabled": 0, "rental_uris": {"ios": "https://dc.lft.to/lastmile_qr_scan", "android": "https://dc.lft.to/lastmile_qr_scan"}, "is_reserved": 0}, {"lon": -77.043097, "bike_id": "1260be472e4fbd399f254d80ec6fcc6c", "lat": 38.910289, "fusion_lon": 0.0, "fusion_lat": 0.0, "type": "electric_scooter", "name": "1260be472e4fbd399f254d80ec6fcc6c", "is_disabled": 0, "rental_uris": {"ios": "https://dc.lft.to/lastmile_qr_scan", "android": "https://dc.lft.to/lastmile_qr_scan"}, "is_reserved": 0}, {"lon": -77.03472033333334, "bike_id": "acfe5bc62de9c53e051ecfab8975bbfd", "lat": 38.9206355, "fusion_lon": 0.0, "fusion_lat": 0.0, "type": "electric_scooter", "name": "acfe5bc62de9c53e051ecfab8975bbfd", "is_disabled": 0, "rental_uris": {"ios": "https://dc.lft.to/lastmile_qr_scan", "android": "https://dc.lft.to/lastmile_qr_scan"}, "is_reserved": 0}, {"lon": -77.03233616666667, "bike_id": "b16f37ddb6540ef692cf1f637af933ba", "lat": 38.915389, "fusion_lon": 0.0, "fusion_lat": 0.0, "type": "electric_scooter", "name": "b16f37ddb6540ef692cf1f637af933ba", "is_disabled": 0, "rental_uris": {"ios": "https://dc.lft.to/lastmile_qr_scan", "android": "https://dc.lft.to/lastmile_qr_scan"}, "is_reserved": 0}, {"lon": -77.0533095, "bike_id": "4045e6251a9aa044608b90e2c70cbc3d", "lat": 38.927129666666666, "fusion_lon": 0.0, "fusion_lat": 0.0, "type": "electric_scooter", "name": "4045e6251a9aa044608b90e2c70cbc3d", "is_disabled": 0, "rental_uris": {"ios": "https://dc.lft.to/lastmile_qr_scan", "android": "https://dc.lft.to/lastmile_qr_scan"}, "is_reserved": 0}, {"lon": -77.022214, "bike_id": "1ce7bd1ce02dfcafd19542f5987a437f", "lat": 38.92612783333333, "fusion_lon": 0.0, "fusion_lat": 0.0, "type": "electric_scooter", "name": "1ce7bd1ce02dfcafd19542f5987a437f", "is_disabled": 0, "rental_uris": {"ios": "https://dc.lft.to/lastmile_qr_scan", "android": "https://dc.lft.to/lastmile_qr_scan"}, "is_reserved": 0}, {"lon": -77.0453925, "bike_id": "c299049f251a2d0b3c0fec3a6621ba44", "lat": 38.9131735, "fusion_lon": 0.0, "fusion_lat": 0.0, "type": "electric_scooter", "name": "c299049f251a2d0b3c0fec3a6621ba44", "is_disabled": 0, "rental_uris": {"ios": "https://dc.lft.to/lastmile_qr_scan", "android": "https://dc.lft.to/lastmile_qr_scan"}, "is_reserved": 0}, {"lon": -76.97969916666666, "bike_id": "1e1586a64c89b9f493bd0a8b51cc8ff9", "lat": 38.953726833333334, "fusion_lon": 0.0, "fusion_lat": 0.0, "type": "electric_bike", "name": "1e1586a64c89b9f493bd0a8b51cc8ff9", "is_disabled": 0, "rental_uris": {"ios": "https://dc.lft.to/lastmile_qr_scan", "android": "https://dc.lft.to/lastmile_qr_scan"}, "is_reserved": 0}, {"lon": -77.07915583333333, "bike_id": "98d87b865edeeb538055e4dd7f086128", "lat": 38.948085666666664, "fusion_lon": 0.0, "fusion_lat": 0.0, "type": "electric_scooter", "name": "98d87b865edeeb538055e4dd7f086128", "is_disabled": 0, "rental_uris": {"ios": "https://dc.lft.to/lastmile_qr_scan", "android": "https://dc.lft.to/lastmile_qr_scan"}, "is_reserved": 0}, {"lon": -77.04264783333333, "bike_id": "3633e1ada8286c1f5f992d26fd51f4a9", "lat": 38.92232766666667, "fusion_lon": 0.0, "fusion_lat": 0.0, "type": "electric_scooter", "name": "3633e1ada8286c1f5f992d26fd51f4a9", "is_disabled": 0, "rental_uris": {"ios": "https://dc.lft.to/lastmile_qr_scan", "android": "https://dc.lft.to/lastmile_qr_scan"}, "is_reserved": 0}, {"lon": -77.04387666666666, "bike_id": "dafce25ef2b28c76aa606f348ba47df1", "lat": 39.047182, "fusion_lon": 0.0, "fusion_lat": 0.0, "type": "electric_bike", "name": "dafce25ef2b28c76aa606f348ba47df1", "is_disabled": 0, "rental_uris": {"ios": "https://dc.lft.to/lastmile_qr_scan", "android": "https://dc.lft.to/lastmile_qr_scan"}, "is_reserved": 0}, {"lon": -77.02108266666667, "bike_id": "29d0df7336dccbeaee692429d26b498c", "lat": 38.9061285, "fusion_lon": 0.0, "fusion_lat": 0.0, "type": "electric_scooter", "name": "29d0df7336dccbeaee692429d26b498c", "is_disabled": 0, "rental_uris": {"ios": "https://dc.lft.to/lastmile_qr_scan", "android": "https://dc.lft.to/lastmile_qr_scan"}, "is_reserved": 0}, {"lon": -77.0440185, "bike_id": "38a64d17c83b292606875878d1c0e0ff", "lat": 38.92446183333333, "fusion_lon": 0.0, "fusion_lat": 0.0, "type": "electric_scooter", "name": "38a64d17c83b292606875878d1c0e0ff", "is_disabled": 0, "rental_uris": {"ios": "https://dc.lft.to/lastmile_qr_scan", "android": "https://dc.lft.to/lastmile_qr_scan"}, "is_reserved": 0}, {"lon": -77.03503466666666, "bike_id": "ce99bb520ed0ce644aeec17d899ef99d", "lat": 38.91184166666667, "fusion_lon": 0.0, "fusion_lat": 0.0, "type": "electric_scooter", "name": "ce99bb520ed0ce644aeec17d899ef99d", "is_disabled": 0, "rental_uris": {"ios": "https://dc.lft.to/lastmile_qr_scan", "android": "https://dc.lft.to/lastmile_qr_scan"}, "is_reserved": 0}, {"lon": -76.98923033333334, "bike_id": "ac07a22b7cd6d91b07ce89dac88e19eb", "lat": 38.8580935, "fusion_lon": 0.0, "fusion_lat": 0.0, "type": "electric_scooter", "name": "ac07a22b7cd6d91b07ce89dac88e19eb", "is_disabled": 0, "rental_uris": {"ios": "https://dc.lft.to/lastmile_qr_scan", "android": "https://dc.lft.to/lastmile_qr_scan"}, "is_reserved": 0}, {"lon": -77.02443333333333, "bike_id": "6da55595b842c16d1f28196b74282bc7", "lat": 38.9073475, "fusion_lon": 0.0, "fusion_lat": 0.0, "type": "electric_scooter", "name": "6da55595b842c16d1f28196b74282bc7", "is_disabled": 0, "rental_uris": {"ios": "https://dc.lft.to/lastmile_qr_scan", "android": "https://dc.lft.to/lastmile_qr_scan"}, "is_reserved": 0}, {"lon": -77.02598966666666, "bike_id": "9732fb44f9ca07f9d54da9cd28e582eb", "lat": 38.982743, "fusion_lon": 0.0, "fusion_lat": 0.0, "type": "electric_bike", "name": "9732fb44f9ca07f9d54da9cd28e582eb", "is_disabled": 0, "rental_uris": {"ios": "https://dc.lft.to/lastmile_qr_scan", "android": "https://dc.lft.to/lastmile_qr_scan"}, "is_reserved": 0}, {"lon": -77.02206216666667, "bike_id": "8d715ac01083c30bcac809ddf76c92b5", "lat": 38.91416133333333, "fusion_lon": 0.0, "fusion_lat": 0.0, "type": "electric_scooter", "name": "8d715ac01083c30bcac809ddf76c92b5", "is_disabled": 0, "rental_uris": {"ios": "https://dc.lft.to/lastmile_qr_scan", "android": "https://dc.lft.to/lastmile_qr_scan"}, "is_reserved": 0}, {"lon": -76.998335, "bike_id": "e6f350d0abe0804a23895d11581b389c", "lat": 38.90030133333333, "fusion_lon": 0.0, "fusion_lat": 0.0, "type": "electric_scooter", "name": "e6f350d0abe0804a23895d11581b389c", "is_disabled": 0, "rental_uris": {"ios": "https://dc.lft.to/lastmile_qr_scan", "android": "https://dc.lft.to/lastmile_qr_scan"}, "is_reserved": 0}, {"lon": -77.04481383333334, "bike_id": "9276dc963b0653f237e69dd25d3aeb1b", "lat": 38.91464933333334, "fusion_lon": 0.0, "fusion_lat": 0.0, "type": "electric_scooter", "name": "9276dc963b0653f237e69dd25d3aeb1b", "is_disabled": 0, "rental_uris": {"ios": "https://dc.lft.to/lastmile_qr_scan", "android": "https://dc.lft.to/lastmile_qr_scan"}, "is_reserved": 0}, {"lon": -76.985539, "bike_id": "589a72182f6ccb8bbc626c7e8458ad72", "lat": 38.910326166666664, "fusion_lon": 0.0, "fusion_lat": 0.0, "type": "electric_scooter", "name": "589a72182f6ccb8bbc626c7e8458ad72", "is_disabled": 0, "rental_uris": {"ios": "https://dc.lft.to/lastmile_qr_scan", "android": "https://dc.lft.to/lastmile_qr_scan"}, "is_reserved": 0}, {"lon": -77.08048016666666, "bike_id": "87fac36b319b9b5dff8d0f54c6f184f1", "lat": 38.9207015, "fusion_lon": 0.0, "fusion_lat": 0.0, "type": "electric_bike", "name": "87fac36b319b9b5dff8d0f54c6f184f1", "is_disabled": 0, "rental_uris": {"ios": "https://dc.lft.to/lastmile_qr_scan", "android": "https://dc.lft.to/lastmile_qr_scan"}, "is_reserved": 0}, {"lon": -77.0249795, "bike_id": "7a8cfe3059bf7276322508be225920ae", "lat": 38.932944666666664, "fusion_lon": 0.0, "fusion_lat": 0.0, "type": "electric_bike", "name": "7a8cfe3059bf7276322508be225920ae", "is_disabled": 0, "rental_uris": {"ios": "https://dc.lft.to/lastmile_qr_scan", "android": "https://dc.lft.to/lastmile_qr_scan"}, "is_reserved": 0}, {"lon": -77.0503565, "bike_id": "7266916605f4d6de3f2586a7bfdbf323", "lat": 38.92372816666666, "fusion_lon": 0.0, "fusion_lat": 0.0, "type": "electric_scooter", "name": "7266916605f4d6de3f2586a7bfdbf323", "is_disabled": 0, "rental_uris": {"ios": "https://dc.lft.to/lastmile_qr_scan", "android": "https://dc.lft.to/lastmile_qr_scan"}, "is_reserved": 0}, {"lon": -77.0380915, "bike_id": "abda54342da8bb6fdb7c2bfed3451e0c", "lat": 38.92075616666666, "fusion_lon": 0.0, "fusion_lat": 0.0, "type": "electric_scooter", "name": "abda54342da8bb6fdb7c2bfed3451e0c", "is_disabled": 0, "rental_uris": {"ios": "https://dc.lft.to/lastmile_qr_scan", "android": "https://dc.lft.to/lastmile_qr_scan"}, "is_reserved": 0}, {"lon": -77.05210783333334, "bike_id": "3d9083fd72b21d59c8a05031127e2925", "lat": 38.92480616666667, "fusion_lon": 0.0, "fusion_lat": 0.0, "type": "electric_scooter", "name": "3d9083fd72b21d59c8a05031127e2925", "is_disabled": 0, "rental_uris": {"ios": "https://dc.lft.to/lastmile_qr_scan", "android": "https://dc.lft.to/lastmile_qr_scan"}, "is_reserved": 0}, {"lon": -77.02781733333333, "bike_id": "c190594e6f13760f5e69df5625f30d49", "lat": 38.927718, "fusion_lon": 0.0, "fusion_lat": 0.0, "type": "electric_scooter", "name": "c190594e6f13760f5e69df5625f30d49", "is_disabled": 0, "rental_uris": {"ios": "https://dc.lft.to/lastmile_qr_scan", "android": "https://dc.lft.to/lastmile_qr_scan"}, "is_reserved": 0}, {"lon": -76.98527516666667, "bike_id": "9c8b5c5e61876e37e23726137bc287d7", "lat": 38.86654566666667, "fusion_lon": 0.0, "fusion_lat": 0.0, "type": "electric_scooter", "name": "9c8b5c5e61876e37e23726137bc287d7", "is_disabled": 0, "rental_uris": {"ios": "https://dc.lft.to/lastmile_qr_scan", "android": "https://dc.lft.to/lastmile_qr_scan"}, "is_reserved": 0}, {"lon": -76.92523783333333, "bike_id": "791d8aa939f0cb1ec9c8eeba022d3963", "lat": 38.88340983333333, "fusion_lon": 0.0, "fusion_lat": 0.0, "type": "electric_bike", "name": "791d8aa939f0cb1ec9c8eeba022d3963", "is_disabled": 0, "rental_uris": {"ios": "https://dc.lft.to/lastmile_qr_scan", "android": "https://dc.lft.to/lastmile_qr_scan"}, "is_reserved": 0}, {"lon": -76.93548883333334, "bike_id": "0d5c21bf13c7b9cf5d3ba7069ec99c75", "lat": 38.955606, "fusion_lon": 0.0, "fusion_lat": 0.0, "type": "electric_bike", "name": "0d5c21bf13c7b9cf5d3ba7069ec99c75", "is_disabled": 0, "rental_uris": {"ios": "https://dc.lft.to/lastmile_qr_scan", "android": "https://dc.lft.to/lastmile_qr_scan"}, "is_reserved": 0}, {"lon": -77.00653166666666, "bike_id": "57468c8813ba8b94bbe08abf5cd6a8e5", "lat": 38.944631, "fusion_lon": 0.0, "fusion_lat": 0.0, "type": "electric_scooter", "name": "57468c8813ba8b94bbe08abf5cd6a8e5", "is_disabled": 0, "rental_uris": {"ios": "https://dc.lft.to/lastmile_qr_scan", "android": "https://dc.lft.to/lastmile_qr_scan"}, "is_reserved": 0}, {"lon": -77.02925766666667, "bike_id": "617b13a0adf75538170d1d3703553b78", "lat": 38.934608, "fusion_lon": 0.0, "fusion_lat": 0.0, "type": "electric_scooter", "name": "617b13a0adf75538170d1d3703553b78", "is_disabled": 0, "rental_uris": {"ios": "https://dc.lft.to/lastmile_qr_scan", "android": "https://dc.lft.to/lastmile_qr_scan"}, "is_reserved": 0}, {"lon": -77.02867783333333, "bike_id": "70645b0c603892c87bb87ec09a16ee76", "lat": 38.885067666666664, "fusion_lon": 0.0, "fusion_lat": 0.0, "type": "electric_scooter", "name": "70645b0c603892c87bb87ec09a16ee76", "is_disabled": 0, "rental_uris": {"ios": "https://dc.lft.to/lastmile_qr_scan", "android": "https://dc.lft.to/lastmile_qr_scan"}, "is_reserved": 0}, {"lon": -77.12642933333333, "bike_id": "feaa39d2b8edf26fb26ecf546c5aa36e", "lat": 38.81510866666667, "fusion_lon": 0.0, "fusion_lat": 0.0, "type": "electric_bike", "name": "feaa39d2b8edf26fb26ecf546c5aa36e", "is_disabled": 0, "rental_uris": {"ios": "https://dc.lft.to/lastmile_qr_scan", "android": "https://dc.lft.to/lastmile_qr_scan"}, "is_reserved": 0}, {"lon": -77.01453, "bike_id": "6f0fccd28506e6084df6b60c1f60fc05", "lat": 38.8766855, "fusion_lon": 0.0, "fusion_lat": 0.0, "type": "electric_bike", "name": "6f0fccd28506e6084df6b60c1f60fc05", "is_disabled": 0, "rental_uris": {"ios": "https://dc.lft.to/lastmile_qr_scan", "android": "https://dc.lft.to/lastmile_qr_scan"}, "is_reserved": 0}, {"lon": -77.05443283333334, "bike_id": "065cbfa1314de697a683e6d0e1fc34a4", "lat": 38.855352333333336, "fusion_lon": 0.0, "fusion_lat": 0.0, "type": "electric_bike", "name": "065cbfa1314de697a683e6d0e1fc34a4", "is_disabled": 0, "rental_uris": {"ios": "https://dc.lft.to/lastmile_qr_scan", "android": "https://dc.lft.to/lastmile_qr_scan"}, "is_reserved": 0}, {"lon": -77.04327266666667, "bike_id": "ae6c026cc402799e6ad4b8a81f2dc710", "lat": 38.91330383333333, "fusion_lon": 0.0, "fusion_lat": 0.0, "type": "electric_scooter", "name": "ae6c026cc402799e6ad4b8a81f2dc710", "is_disabled": 0, "rental_uris": {"ios": "https://dc.lft.to/lastmile_qr_scan", "android": "https://dc.lft.to/lastmile_qr_scan"}, "is_reserved": 0}, {"lon": -77.0067385, "bike_id": "8a6bfe541c783fc12fefc1193d7bce4f", "lat": 38.900088, "fusion_lon": 0.0, "fusion_lat": 0.0, "type": "electric_scooter", "name": "8a6bfe541c783fc12fefc1193d7bce4f", "is_disabled": 0, "rental_uris": {"ios": "https://dc.lft.to/lastmile_qr_scan", "android": "https://dc.lft.to/lastmile_qr_scan"}, "is_reserved": 0}, {"lon": -77.03434316666667, "bike_id": "eea002ee28524c51d2f6308b31d33d37", "lat": 38.91939133333333, "fusion_lon": 0.0, "fusion_lat": 0.0, "type": "electric_scooter", "name": "eea002ee28524c51d2f6308b31d33d37", "is_disabled": 0, "rental_uris": {"ios": "https://dc.lft.to/lastmile_qr_scan", "android": "https://dc.lft.to/lastmile_qr_scan"}, "is_reserved": 0}, {"lon": -76.9723595, "bike_id": "17dba37dbd0f4334215430c0eadc035a", "lat": 38.9490285, "fusion_lon": 0.0, "fusion_lat": 0.0, "type": "electric_bike", "name": "17dba37dbd0f4334215430c0eadc035a", "is_disabled": 0, "rental_uris": {"ios": "https://dc.lft.to/lastmile_qr_scan", "android": "https://dc.lft.to/lastmile_qr_scan"}, "is_reserved": 0}, {"lon": -77.02067733333334, "bike_id": "0e6f85ba7ff9278ed203be00e4fa7767", "lat": 38.89729083333334, "fusion_lon": 0.0, "fusion_lat": 0.0, "type": "electric_scooter", "name": "0e6f85ba7ff9278ed203be00e4fa7767", "is_disabled": 0, "rental_uris": {"ios": "https://dc.lft.to/lastmile_qr_scan", "android": "https://dc.lft.to/lastmile_qr_scan"}, "is_reserved": 0}, {"lon": -77.04159066666666, "bike_id": "e62e20ed8a6f16951d5066519b8c4b70", "lat": 38.90650516666667, "fusion_lon": 0.0, "fusion_lat": 0.0, "type": "electric_scooter", "name": "e62e20ed8a6f16951d5066519b8c4b70", "is_disabled": 0, "rental_uris": {"ios": "https://dc.lft.to/lastmile_qr_scan", "android": "https://dc.lft.to/lastmile_qr_scan"}, "is_reserved": 0}, {"lon": -77.02803933333334, "bike_id": "d92452154879cd2a5a64ba3a5e0c1ce7", "lat": 38.93140866666667, "fusion_lon": 0.0, "fusion_lat": 0.0, "type": "electric_scooter", "name": "d92452154879cd2a5a64ba3a5e0c1ce7", "is_disabled": 0, "rental_uris": {"ios": "https://dc.lft.to/lastmile_qr_scan", "android": "https://dc.lft.to/lastmile_qr_scan"}, "is_reserved": 0}, {"lon": -77.00681166666666, "bike_id": "64a79603dda960f9bd3ba3a4c79f34ef", "lat": 38.90009416666667, "fusion_lon": 0.0, "fusion_lat": 0.0, "type": "electric_scooter", "name": "64a79603dda960f9bd3ba3a4c79f34ef", "is_disabled": 0, "rental_uris": {"ios": "https://dc.lft.to/lastmile_qr_scan", "android": "https://dc.lft.to/lastmile_qr_scan"}, "is_reserved": 0}, {"lon": -77.03242066666667, "bike_id": "29bc9428bacde0e5479bb6c84056ffd1", "lat": 38.917176, "fusion_lon": 0.0, "fusion_lat": 0.0, "type": "electric_scooter", "name": "29bc9428bacde0e5479bb6c84056ffd1", "is_disabled": 0, "rental_uris": {"ios": "https://dc.lft.to/lastmile_qr_scan", "android": "https://dc.lft.to/lastmile_qr_scan"}, "is_reserved": 0}, {"lon": -76.9747795, "bike_id": "04f476657e481d392d14148ff8e0d831", "lat": 38.90349, "fusion_lon": 0.0, "fusion_lat": 0.0, "type": "electric_scooter", "name": "04f476657e481d392d14148ff8e0d831", "is_disabled": 0, "rental_uris": {"ios": "https://dc.lft.to/lastmile_qr_scan", "android": "https://dc.lft.to/lastmile_qr_scan"}, "is_reserved": 0}, {"lon": -77.032806, "bike_id": "c52686e9b290fd703c487251eceddbc4", "lat": 38.93204566666667, "fusion_lon": 0.0, "fusion_lat": 0.0, "type": "electric_scooter", "name": "c52686e9b290fd703c487251eceddbc4", "is_disabled": 0, "rental_uris": {"ios": "https://dc.lft.to/lastmile_qr_scan", "android": "https://dc.lft.to/lastmile_qr_scan"}, "is_reserved": 0}, {"lon": -77.03362683333333, "bike_id": "f98e040b5594b16326ff71dd88e7a2b1", "lat": 38.89808633333333, "fusion_lon": 0.0, "fusion_lat": 0.0, "type": "electric_scooter", "name": "f98e040b5594b16326ff71dd88e7a2b1", "is_disabled": 0, "rental_uris": {"ios": "https://dc.lft.to/lastmile_qr_scan", "android": "https://dc.lft.to/lastmile_qr_scan"}, "is_reserved": 0}, {"lon": -77.039055, "bike_id": "99d3023a2cf8e2382bccff6d5e380c87", "lat": 38.91419, "fusion_lon": 0.0, "fusion_lat": 0.0, "type": "electric_scooter", "name": "99d3023a2cf8e2382bccff6d5e380c87", "is_disabled": 0, "rental_uris": {"ios": "https://dc.lft.to/lastmile_qr_scan", "android": "https://dc.lft.to/lastmile_qr_scan"}, "is_reserved": 0}, {"lon": -77.0285155, "bike_id": "0d91919939bfe445814933c5eab5638c", "lat": 38.95630833333333, "fusion_lon": 0.0, "fusion_lat": 0.0, "type": "electric_scooter", "name": "0d91919939bfe445814933c5eab5638c", "is_disabled": 0, "rental_uris": {"ios": "https://dc.lft.to/lastmile_qr_scan", "android": "https://dc.lft.to/lastmile_qr_scan"}, "is_reserved": 0}, {"lon": -77.02791483333333, "bike_id": "9aec21bc47d4a84bc806fbf640f4ccdf", "lat": 38.929729333333334, "fusion_lon": 0.0, "fusion_lat": 0.0, "type": "electric_scooter", "name": "9aec21bc47d4a84bc806fbf640f4ccdf", "is_disabled": 0, "rental_uris": {"ios": "https://dc.lft.to/lastmile_qr_scan", "android": "https://dc.lft.to/lastmile_qr_scan"}, "is_reserved": 0}, {"lon": -77.04873733333334, "bike_id": "3fb104815f833fc0706833e0ed0e4d93", "lat": 38.9155635, "fusion_lon": 0.0, "fusion_lat": 0.0, "type": "electric_scooter", "name": "3fb104815f833fc0706833e0ed0e4d93", "is_disabled": 0, "rental_uris": {"ios": "https://dc.lft.to/lastmile_qr_scan", "android": "https://dc.lft.to/lastmile_qr_scan"}, "is_reserved": 0}, {"lon": -77.02176133333333, "bike_id": "25fa56c139fa8c03ab7db82d545e3978", "lat": 38.91912266666667, "fusion_lon": 0.0, "fusion_lat": 0.0, "type": "electric_scooter", "name": "25fa56c139fa8c03ab7db82d545e3978", "is_disabled": 0, "rental_uris": {"ios": "https://dc.lft.to/lastmile_qr_scan", "android": "https://dc.lft.to/lastmile_qr_scan"}, "is_reserved": 0}, {"lon": -77.08073083333333, "bike_id": "20cc908268945c586fb689f48513c62f", "lat": 39.052785666666665, "fusion_lon": 0.0, "fusion_lat": 0.0, "type": "electric_bike", "name": "20cc908268945c586fb689f48513c62f", "is_disabled": 0, "rental_uris": {"ios": "https://dc.lft.to/lastmile_qr_scan", "android": "https://dc.lft.to/lastmile_qr_scan"}, "is_reserved": 0}, {"lon": -77.0447475, "bike_id": "1183822346a8d7181afe8bfd7e4007f5", "lat": 38.910796500000004, "fusion_lon": 0.0, "fusion_lat": 0.0, "type": "electric_scooter", "name": "1183822346a8d7181afe8bfd7e4007f5", "is_disabled": 0, "rental_uris": {"ios": "https://dc.lft.to/lastmile_qr_scan", "android": "https://dc.lft.to/lastmile_qr_scan"}, "is_reserved": 0}, {"lon": -76.99015966666667, "bike_id": "161af9189fdbed171f63d9deba05650c", "lat": 38.866428166666665, "fusion_lon": 0.0, "fusion_lat": 0.0, "type": "electric_scooter", "name": "161af9189fdbed171f63d9deba05650c", "is_disabled": 0, "rental_uris": {"ios": "https://dc.lft.to/lastmile_qr_scan", "android": "https://dc.lft.to/lastmile_qr_scan"}, "is_reserved": 0}, {"lon": -77.04149333333334, "bike_id": "fea481fb3314c1bdb87a302cdfca0bfb", "lat": 38.91809683333334, "fusion_lon": 0.0, "fusion_lat": 0.0, "type": "electric_scooter", "name": "fea481fb3314c1bdb87a302cdfca0bfb", "is_disabled": 0, "rental_uris": {"ios": "https://dc.lft.to/lastmile_qr_scan", "android": "https://dc.lft.to/lastmile_qr_scan"}, "is_reserved": 0}, {"lon": -77.04477283333334, "bike_id": "9b971cd2346aa24c25cb310d244cec8d", "lat": 38.9188925, "fusion_lon": 0.0, "fusion_lat": 0.0, "type": "electric_scooter", "name": "9b971cd2346aa24c25cb310d244cec8d", "is_disabled": 0, "rental_uris": {"ios": "https://dc.lft.to/lastmile_qr_scan", "android": "https://dc.lft.to/lastmile_qr_scan"}, "is_reserved": 0}, {"lon": -77.03317616666666, "bike_id": "b13edb20ea928f882034a3ea8b89af8c", "lat": 38.9389935, "fusion_lon": 0.0, "fusion_lat": 0.0, "type": "electric_scooter", "name": "b13edb20ea928f882034a3ea8b89af8c", "is_disabled": 0, "rental_uris": {"ios": "https://dc.lft.to/lastmile_qr_scan", "android": "https://dc.lft.to/lastmile_qr_scan"}, "is_reserved": 0}, {"lon": -77.0227395, "bike_id": "62106c2137a768fcf609174794d04e32", "lat": 38.92688883333334, "fusion_lon": 0.0, "fusion_lat": 0.0, "type": "electric_scooter", "name": "62106c2137a768fcf609174794d04e32", "is_disabled": 0, "rental_uris": {"ios": "https://dc.lft.to/lastmile_qr_scan", "android": "https://dc.lft.to/lastmile_qr_scan"}, "is_reserved": 0}, {"lon": -77.0234345, "bike_id": "8bb33ff7866f7cd52c45a5d7be542ffa", "lat": 38.91765483333333, "fusion_lon": 0.0, "fusion_lat": 0.0, "type": "electric_scooter", "name": "8bb33ff7866f7cd52c45a5d7be542ffa", "is_disabled": 0, "rental_uris": {"ios": "https://dc.lft.to/lastmile_qr_scan", "android": "https://dc.lft.to/lastmile_qr_scan"}, "is_reserved": 0}, {"lon": -77.04539133333333, "bike_id": "b8ca05c5ce3b57e52a6822c15299e67b", "lat": 38.93406733333333, "fusion_lon": 0.0, "fusion_lat": 0.0, "type": "electric_scooter", "name": "b8ca05c5ce3b57e52a6822c15299e67b", "is_disabled": 0, "rental_uris": {"ios": "https://dc.lft.to/lastmile_qr_scan", "android": "https://dc.lft.to/lastmile_qr_scan"}, "is_reserved": 0}, {"lon": -76.96214316666666, "bike_id": "8ece634e83e927f6896791cc39da9f94", "lat": 38.87783016666667, "fusion_lon": 0.0, "fusion_lat": 0.0, "type": "electric_scooter", "name": "8ece634e83e927f6896791cc39da9f94", "is_disabled": 0, "rental_uris": {"ios": "https://dc.lft.to/lastmile_qr_scan", "android": "https://dc.lft.to/lastmile_qr_scan"}, "is_reserved": 0}, {"lon": -77.03033016666667, "bike_id": "79b16f312af6e55103488f697cecabc6", "lat": 38.905779, "fusion_lon": 0.0, "fusion_lat": 0.0, "type": "electric_scooter", "name": "79b16f312af6e55103488f697cecabc6", "is_disabled": 0, "rental_uris": {"ios": "https://dc.lft.to/lastmile_qr_scan", "android": "https://dc.lft.to/lastmile_qr_scan"}, "is_reserved": 0}, {"lon": -77.07317833333333, "bike_id": "b4ade020904de0de9f81d21f322a276b", "lat": 38.9139835, "fusion_lon": 0.0, "fusion_lat": 0.0, "type": "electric_scooter", "name": "b4ade020904de0de9f81d21f322a276b", "is_disabled": 0, "rental_uris": {"ios": "https://dc.lft.to/lastmile_qr_scan", "android": "https://dc.lft.to/lastmile_qr_scan"}, "is_reserved": 0}, {"lon": -77.10838716666666, "bike_id": "a930dcbbf3d0ee5e2bcbf717338e94c9", "lat": 38.811988166666666, "fusion_lon": 0.0, "fusion_lat": 0.0, "type": "electric_bike", "name": "a930dcbbf3d0ee5e2bcbf717338e94c9", "is_disabled": 0, "rental_uris": {"ios": "https://dc.lft.to/lastmile_qr_scan", "android": "https://dc.lft.to/lastmile_qr_scan"}, "is_reserved": 0}, {"lon": -76.98834983333333, "bike_id": "c59c17a5652e31ac7aeec8b7de85be36", "lat": 38.89665633333333, "fusion_lon": 0.0, "fusion_lat": 0.0, "type": "electric_scooter", "name": "c59c17a5652e31ac7aeec8b7de85be36", "is_disabled": 0, "rental_uris": {"ios": "https://dc.lft.to/lastmile_qr_scan", "android": "https://dc.lft.to/lastmile_qr_scan"}, "is_reserved": 0}, {"lon": -77.06574566666667, "bike_id": "520f58e8b93b4a9372e62127de4d804e", "lat": 38.91136933333333, "fusion_lon": 0.0, "fusion_lat": 0.0, "type": "electric_bike", "name": "520f58e8b93b4a9372e62127de4d804e", "is_disabled": 0, "rental_uris": {"ios": "https://dc.lft.to/lastmile_qr_scan", "android": "https://dc.lft.to/lastmile_qr_scan"}, "is_reserved": 0}, {"lon": -76.9652075, "bike_id": "81c43672d8d56859bb0ea27694b688ee", "lat": 38.876283666666666, "fusion_lon": 0.0, "fusion_lat": 0.0, "type": "electric_scooter", "name": "81c43672d8d56859bb0ea27694b688ee", "is_disabled": 0, "rental_uris": {"ios": "https://dc.lft.to/lastmile_qr_scan", "android": "https://dc.lft.to/lastmile_qr_scan"}, "is_reserved": 0}, {"lon": -77.03183066666666, "bike_id": "1053285d443288379642f4203ce98127", "lat": 38.915186166666665, "fusion_lon": 0.0, "fusion_lat": 0.0, "type": "electric_scooter", "name": "1053285d443288379642f4203ce98127", "is_disabled": 0, "rental_uris": {"ios": "https://dc.lft.to/lastmile_qr_scan", "android": "https://dc.lft.to/lastmile_qr_scan"}, "is_reserved": 0}, {"lon": -77.023697, "bike_id": "368cc75f7fa94fe23eccc8fcc1a44f60", "lat": 38.920749666666666, "fusion_lon": 0.0, "fusion_lat": 0.0, "type": "electric_scooter", "name": "368cc75f7fa94fe23eccc8fcc1a44f60", "is_disabled": 0, "rental_uris": {"ios": "https://dc.lft.to/lastmile_qr_scan", "android": "https://dc.lft.to/lastmile_qr_scan"}, "is_reserved": 0}, {"lon": -76.941933, "bike_id": "a8cc58d9ae6f5c625dd848346d29374c", "lat": 38.8937255, "fusion_lon": 0.0, "fusion_lat": 0.0, "type": "electric_scooter", "name": "a8cc58d9ae6f5c625dd848346d29374c", "is_disabled": 0, "rental_uris": {"ios": "https://dc.lft.to/lastmile_qr_scan", "android": "https://dc.lft.to/lastmile_qr_scan"}, "is_reserved": 0}, {"lon": -77.02792616666666, "bike_id": "57de0958f842a5730c551ee0189fea17", "lat": 38.9073005, "fusion_lon": 0.0, "fusion_lat": 0.0, "type": "electric_scooter", "name": "57de0958f842a5730c551ee0189fea17", "is_disabled": 0, "rental_uris": {"ios": "https://dc.lft.to/lastmile_qr_scan", "android": "https://dc.lft.to/lastmile_qr_scan"}, "is_reserved": 0}, {"lon": -76.99757566666666, "bike_id": "64a872d89df98024b728d432fa0ab410", "lat": 38.887725833333334, "fusion_lon": 0.0, "fusion_lat": 0.0, "type": "electric_scooter", "name": "64a872d89df98024b728d432fa0ab410", "is_disabled": 0, "rental_uris": {"ios": "https://dc.lft.to/lastmile_qr_scan", "android": "https://dc.lft.to/lastmile_qr_scan"}, "is_reserved": 0}, {"lon": -77.02213783333333, "bike_id": "20ecb57fb0d8891f0a2055febc98cda2", "lat": 38.91563466666667, "fusion_lon": 0.0, "fusion_lat": 0.0, "type": "electric_scooter", "name": "20ecb57fb0d8891f0a2055febc98cda2", "is_disabled": 0, "rental_uris": {"ios": "https://dc.lft.to/lastmile_qr_scan", "android": "https://dc.lft.to/lastmile_qr_scan"}, "is_reserved": 0}, {"lon": -77.03426016666667, "bike_id": "9e1565d51d30ff7e1e4b30628d141590", "lat": 38.9272995, "fusion_lon": 0.0, "fusion_lat": 0.0, "type": "electric_scooter", "name": "9e1565d51d30ff7e1e4b30628d141590", "is_disabled": 0, "rental_uris": {"ios": "https://dc.lft.to/lastmile_qr_scan", "android": "https://dc.lft.to/lastmile_qr_scan"}, "is_reserved": 0}, {"lon": -77.057437, "bike_id": "0b4d6e6126595e8b408d226d8d9495c6", "lat": 38.924898666666664, "fusion_lon": 0.0, "fusion_lat": 0.0, "type": "electric_bike", "name": "0b4d6e6126595e8b408d226d8d9495c6", "is_disabled": 0, "rental_uris": {"ios": "https://dc.lft.to/lastmile_qr_scan", "android": "https://dc.lft.to/lastmile_qr_scan"}, "is_reserved": 0}, {"lon": -77.02303066666667, "bike_id": "4b07bb82c92d237d76ed8deee1aa69e2", "lat": 38.92727516666667, "fusion_lon": 0.0, "fusion_lat": 0.0, "type": "electric_scooter", "name": "4b07bb82c92d237d76ed8deee1aa69e2", "is_disabled": 0, "rental_uris": {"ios": "https://dc.lft.to/lastmile_qr_scan", "android": "https://dc.lft.to/lastmile_qr_scan"}, "is_reserved": 0}, {"lon": -77.02830816666666, "bike_id": "a90a88ef1374b344f491317791a1720c", "lat": 38.88764466666667, "fusion_lon": 0.0, "fusion_lat": 0.0, "type": "electric_scooter", "name": "a90a88ef1374b344f491317791a1720c", "is_disabled": 0, "rental_uris": {"ios": "https://dc.lft.to/lastmile_qr_scan", "android": "https://dc.lft.to/lastmile_qr_scan"}, "is_reserved": 0}, {"lon": -77.04492933333333, "bike_id": "033b07ec2548f38afa4d49ce5bf1471c", "lat": 38.9049225, "fusion_lon": 0.0, "fusion_lat": 0.0, "type": "electric_scooter", "name": "033b07ec2548f38afa4d49ce5bf1471c", "is_disabled": 0, "rental_uris": {"ios": "https://dc.lft.to/lastmile_qr_scan", "android": "https://dc.lft.to/lastmile_qr_scan"}, "is_reserved": 0}, {"lon": -77.00005733333333, "bike_id": "cb47ceef267458ce7e415b382dbb2020", "lat": 38.89743983333334, "fusion_lon": 0.0, "fusion_lat": 0.0, "type": "electric_scooter", "name": "cb47ceef267458ce7e415b382dbb2020", "is_disabled": 0, "rental_uris": {"ios": "https://dc.lft.to/lastmile_qr_scan", "android": "https://dc.lft.to/lastmile_qr_scan"}, "is_reserved": 0}, {"lon": -76.94681583333333, "bike_id": "08f34038dd85acf08cd3e0afaec1c7f4", "lat": 38.88630116666667, "fusion_lon": 0.0, "fusion_lat": 0.0, "type": "electric_scooter", "name": "08f34038dd85acf08cd3e0afaec1c7f4", "is_disabled": 0, "rental_uris": {"ios": "https://dc.lft.to/lastmile_qr_scan", "android": "https://dc.lft.to/lastmile_qr_scan"}, "is_reserved": 0}, {"lon": -77.0292595, "bike_id": "f285c78cfcdf39e571f4e31914f9f4e5", "lat": 38.934634833333334, "fusion_lon": 0.0, "fusion_lat": 0.0, "type": "electric_scooter", "name": "f285c78cfcdf39e571f4e31914f9f4e5", "is_disabled": 0, "rental_uris": {"ios": "https://dc.lft.to/lastmile_qr_scan", "android": "https://dc.lft.to/lastmile_qr_scan"}, "is_reserved": 0}, {"lon": -77.02610033333333, "bike_id": "a22884a48a6d65732f202e84e49e2c36", "lat": 38.9056195, "fusion_lon": 0.0, "fusion_lat": 0.0, "type": "electric_scooter", "name": "a22884a48a6d65732f202e84e49e2c36", "is_disabled": 0, "rental_uris": {"ios": "https://dc.lft.to/lastmile_qr_scan", "android": "https://dc.lft.to/lastmile_qr_scan"}, "is_reserved": 0}, {"lon": -76.99007716666667, "bike_id": "48771987b305ab4ae52abe0691062559", "lat": 38.8941315, "fusion_lon": 0.0, "fusion_lat": 0.0, "type": "electric_scooter", "name": "48771987b305ab4ae52abe0691062559", "is_disabled": 0, "rental_uris": {"ios": "https://dc.lft.to/lastmile_qr_scan", "android": "https://dc.lft.to/lastmile_qr_scan"}, "is_reserved": 0}, {"lon": -77.030923, "bike_id": "5fb1628333714ce4fadef8ec7abeb85f", "lat": 38.897175833333336, "fusion_lon": 0.0, "fusion_lat": 0.0, "type": "electric_scooter", "name": "5fb1628333714ce4fadef8ec7abeb85f", "is_disabled": 0, "rental_uris": {"ios": "https://dc.lft.to/lastmile_qr_scan", "android": "https://dc.lft.to/lastmile_qr_scan"}, "is_reserved": 0}, {"lon": -77.00241066666666, "bike_id": "39b4e62c149f90201b153a8403ef4762", "lat": 38.9024375, "fusion_lon": 0.0, "fusion_lat": 0.0, "type": "electric_scooter", "name": "39b4e62c149f90201b153a8403ef4762", "is_disabled": 0, "rental_uris": {"ios": "https://dc.lft.to/lastmile_qr_scan", "android": "https://dc.lft.to/lastmile_qr_scan"}, "is_reserved": 0}, {"lon": -77.03600683333333, "bike_id": "f2c3a72033d5859e865f47c219f5f650", "lat": 38.9173045, "fusion_lon": 0.0, "fusion_lat": 0.0, "type": "electric_scooter", "name": "f2c3a72033d5859e865f47c219f5f650", "is_disabled": 0, "rental_uris": {"ios": "https://dc.lft.to/lastmile_qr_scan", "android": "https://dc.lft.to/lastmile_qr_scan"}, "is_reserved": 0}, {"lon": -77.04169116666667, "bike_id": "75712ba03a986691e9243a35a0823b93", "lat": 38.9051935, "fusion_lon": 0.0, "fusion_lat": 0.0, "type": "electric_scooter", "name": "75712ba03a986691e9243a35a0823b93", "is_disabled": 0, "rental_uris": {"ios": "https://dc.lft.to/lastmile_qr_scan", "android": "https://dc.lft.to/lastmile_qr_scan"}, "is_reserved": 0}, {"lon": -77.04628966666667, "bike_id": "571a93c80ae9c7f9198b9f520e2c0e35", "lat": 38.91916, "fusion_lon": 0.0, "fusion_lat": 0.0, "type": "electric_scooter", "name": "571a93c80ae9c7f9198b9f520e2c0e35", "is_disabled": 0, "rental_uris": {"ios": "https://dc.lft.to/lastmile_qr_scan", "android": "https://dc.lft.to/lastmile_qr_scan"}, "is_reserved": 0}, {"lon": -77.00923633333333, "bike_id": "6f5873eaf2a215b91bf78720fbaa3e7c", "lat": 38.918054, "fusion_lon": 0.0, "fusion_lat": 0.0, "type": "electric_scooter", "name": "6f5873eaf2a215b91bf78720fbaa3e7c", "is_disabled": 0, "rental_uris": {"ios": "https://dc.lft.to/lastmile_qr_scan", "android": "https://dc.lft.to/lastmile_qr_scan"}, "is_reserved": 0}, {"lon": -77.05114233333333, "bike_id": "c63197f92a3826bd6844221202e567d6", "lat": 38.92341966666667, "fusion_lon": 0.0, "fusion_lat": 0.0, "type": "electric_scooter", "name": "c63197f92a3826bd6844221202e567d6", "is_disabled": 0, "rental_uris": {"ios": "https://dc.lft.to/lastmile_qr_scan", "android": "https://dc.lft.to/lastmile_qr_scan"}, "is_reserved": 0}, {"lon": -76.99561516666667, "bike_id": "29343a1fb7477f6c0180cd8506f5287a", "lat": 38.86214716666667, "fusion_lon": 0.0, "fusion_lat": 0.0, "type": "electric_scooter", "name": "29343a1fb7477f6c0180cd8506f5287a", "is_disabled": 0, "rental_uris": {"ios": "https://dc.lft.to/lastmile_qr_scan", "android": "https://dc.lft.to/lastmile_qr_scan"}, "is_reserved": 0}, {"lon": -77.02741033333334, "bike_id": "42f146ccebd0e3f9852d9e93ac34576c", "lat": 38.902514833333335, "fusion_lon": 0.0, "fusion_lat": 0.0, "type": "electric_scooter", "name": "42f146ccebd0e3f9852d9e93ac34576c", "is_disabled": 0, "rental_uris": {"ios": "https://dc.lft.to/lastmile_qr_scan", "android": "https://dc.lft.to/lastmile_qr_scan"}, "is_reserved": 0}, {"lon": -77.01192583333334, "bike_id": "1a8e5e9f0a16da33fb2981c3a7a0109d", "lat": 38.893159, "fusion_lon": 0.0, "fusion_lat": 0.0, "type": "electric_scooter", "name": "1a8e5e9f0a16da33fb2981c3a7a0109d", "is_disabled": 0, "rental_uris": {"ios": "https://dc.lft.to/lastmile_qr_scan", "android": "https://dc.lft.to/lastmile_qr_scan"}, "is_reserved": 0}, {"lon": -77.04212266666667, "bike_id": "2091ba68ddcb4fda38a07a748930f014", "lat": 38.8927055, "fusion_lon": 0.0, "fusion_lat": 0.0, "type": "electric_scooter", "name": "2091ba68ddcb4fda38a07a748930f014", "is_disabled": 0, "rental_uris": {"ios": "https://dc.lft.to/lastmile_qr_scan", "android": "https://dc.lft.to/lastmile_qr_scan"}, "is_reserved": 0}, {"lon": -77.06137833333334, "bike_id": "1e1199902d6fe30c4b3f7ea9d160334c", "lat": 38.94357183333334, "fusion_lon": 0.0, "fusion_lat": 0.0, "type": "electric_scooter", "name": "1e1199902d6fe30c4b3f7ea9d160334c", "is_disabled": 0, "rental_uris": {"ios": "https://dc.lft.to/lastmile_qr_scan", "android": "https://dc.lft.to/lastmile_qr_scan"}, "is_reserved": 0}, {"lon": -77.02484816666667, "bike_id": "59aff226eca53b45492ac386c6d03fe9", "lat": 38.9418245, "fusion_lon": 0.0, "fusion_lat": 0.0, "type": "electric_scooter", "name": "59aff226eca53b45492ac386c6d03fe9", "is_disabled": 0, "rental_uris": {"ios": "https://dc.lft.to/lastmile_qr_scan", "android": "https://dc.lft.to/lastmile_qr_scan"}, "is_reserved": 0}, {"lon": -77.00426483333334, "bike_id": "314df4b15dc2d2ca1f0824340c59503a", "lat": 38.877326833333335, "fusion_lon": 0.0, "fusion_lat": 0.0, "type": "electric_scooter", "name": "314df4b15dc2d2ca1f0824340c59503a", "is_disabled": 0, "rental_uris": {"ios": "https://dc.lft.to/lastmile_qr_scan", "android": "https://dc.lft.to/lastmile_qr_scan"}, "is_reserved": 0}, {"lon": -76.99777833333333, "bike_id": "7cb35de3ed234087a75600500b3fbe35", "lat": 38.910659833333334, "fusion_lon": 0.0, "fusion_lat": 0.0, "type": "electric_scooter", "name": "7cb35de3ed234087a75600500b3fbe35", "is_disabled": 0, "rental_uris": {"ios": "https://dc.lft.to/lastmile_qr_scan", "android": "https://dc.lft.to/lastmile_qr_scan"}, "is_reserved": 0}, {"lon": -77.0350045, "bike_id": "9571dd0d9643aedc37e6cc88e40a0caa", "lat": 38.924766166666664, "fusion_lon": 0.0, "fusion_lat": 0.0, "type": "electric_scooter", "name": "9571dd0d9643aedc37e6cc88e40a0caa", "is_disabled": 0, "rental_uris": {"ios": "https://dc.lft.to/lastmile_qr_scan", "android": "https://dc.lft.to/lastmile_qr_scan"}, "is_reserved": 0}, {"lon": -77.07790466666667, "bike_id": "b27248b80fed501e8c2be53c0dd6fe77", "lat": 38.996012, "fusion_lon": 0.0, "fusion_lat": 0.0, "type": "electric_bike", "name": "b27248b80fed501e8c2be53c0dd6fe77", "is_disabled": 0, "rental_uris": {"ios": "https://dc.lft.to/lastmile_qr_scan", "android": "https://dc.lft.to/lastmile_qr_scan"}, "is_reserved": 0}, {"lon": -77.03633983333333, "bike_id": "c3fd589657ede17dd42257e662e5b2c5", "lat": 38.9038535, "fusion_lon": 0.0, "fusion_lat": 0.0, "type": "electric_scooter", "name": "c3fd589657ede17dd42257e662e5b2c5", "is_disabled": 0, "rental_uris": {"ios": "https://dc.lft.to/lastmile_qr_scan", "android": "https://dc.lft.to/lastmile_qr_scan"}, "is_reserved": 0}, {"lon": -76.92910966666666, "bike_id": "3e6499818a13f5d64987ce879a916e0b", "lat": 38.892974333333335, "fusion_lon": 0.0, "fusion_lat": 0.0, "type": "electric_scooter", "name": "3e6499818a13f5d64987ce879a916e0b", "is_disabled": 0, "rental_uris": {"ios": "https://dc.lft.to/lastmile_qr_scan", "android": "https://dc.lft.to/lastmile_qr_scan"}, "is_reserved": 0}, {"lon": -77.02294383333333, "bike_id": "7529fd7b7c905e4dc1f3f12a0ab9bdd1", "lat": 38.92329316666667, "fusion_lon": 0.0, "fusion_lat": 0.0, "type": "electric_bike", "name": "7529fd7b7c905e4dc1f3f12a0ab9bdd1", "is_disabled": 0, "rental_uris": {"ios": "https://dc.lft.to/lastmile_qr_scan", "android": "https://dc.lft.to/lastmile_qr_scan"}, "is_reserved": 0}, {"lon": -76.98066283333333, "bike_id": "60eb23e6d297fb9801a83f3173b70174", "lat": 38.9039475, "fusion_lon": 0.0, "fusion_lat": 0.0, "type": "electric_scooter", "name": "60eb23e6d297fb9801a83f3173b70174", "is_disabled": 0, "rental_uris": {"ios": "https://dc.lft.to/lastmile_qr_scan", "android": "https://dc.lft.to/lastmile_qr_scan"}, "is_reserved": 0}, {"lon": -77.032277, "bike_id": "f8113a0c28ee34cf8031e6a876bee159", "lat": 38.926869833333335, "fusion_lon": 0.0, "fusion_lat": 0.0, "type": "electric_scooter", "name": "f8113a0c28ee34cf8031e6a876bee159", "is_disabled": 0, "rental_uris": {"ios": "https://dc.lft.to/lastmile_qr_scan", "android": "https://dc.lft.to/lastmile_qr_scan"}, "is_reserved": 0}, {"lon": -77.02646033333333, "bike_id": "5bd90b7d11685c735f2aa119253571d1", "lat": 38.97562766666667, "fusion_lon": 0.0, "fusion_lat": 0.0, "type": "electric_scooter", "name": "5bd90b7d11685c735f2aa119253571d1", "is_disabled": 0, "rental_uris": {"ios": "https://dc.lft.to/lastmile_qr_scan", "android": "https://dc.lft.to/lastmile_qr_scan"}, "is_reserved": 0}, {"lon": -77.03863983333333, "bike_id": "9d3d4648c2642507c4689f783c267dc8", "lat": 38.911717833333334, "fusion_lon": 0.0, "fusion_lat": 0.0, "type": "electric_scooter", "name": "9d3d4648c2642507c4689f783c267dc8", "is_disabled": 0, "rental_uris": {"ios": "https://dc.lft.to/lastmile_qr_scan", "android": "https://dc.lft.to/lastmile_qr_scan"}, "is_reserved": 0}, {"lon": -77.02498533333333, "bike_id": "72452f7e012ef791f134dcd5e6f36f78", "lat": 38.91907116666667, "fusion_lon": 0.0, "fusion_lat": 0.0, "type": "electric_scooter", "name": "72452f7e012ef791f134dcd5e6f36f78", "is_disabled": 0, "rental_uris": {"ios": "https://dc.lft.to/lastmile_qr_scan", "android": "https://dc.lft.to/lastmile_qr_scan"}, "is_reserved": 0}, {"lon": -76.936362, "bike_id": "3edd95e5a508dfc74a9f23718485fda5", "lat": 38.90058916666667, "fusion_lon": 0.0, "fusion_lat": 0.0, "type": "electric_scooter", "name": "3edd95e5a508dfc74a9f23718485fda5", "is_disabled": 0, "rental_uris": {"ios": "https://dc.lft.to/lastmile_qr_scan", "android": "https://dc.lft.to/lastmile_qr_scan"}, "is_reserved": 0}, {"lon": -76.98353433333334, "bike_id": "7a5914dad2e8e4e979227537f80196c0", "lat": 38.91537783333333, "fusion_lon": 0.0, "fusion_lat": 0.0, "type": "electric_scooter", "name": "7a5914dad2e8e4e979227537f80196c0", "is_disabled": 0, "rental_uris": {"ios": "https://dc.lft.to/lastmile_qr_scan", "android": "https://dc.lft.to/lastmile_qr_scan"}, "is_reserved": 0}, {"lon": -77.0250315, "bike_id": "07baa1a88112be18272002be8103f25a", "lat": 38.909695666666664, "fusion_lon": 0.0, "fusion_lat": 0.0, "type": "electric_scooter", "name": "07baa1a88112be18272002be8103f25a", "is_disabled": 0, "rental_uris": {"ios": "https://dc.lft.to/lastmile_qr_scan", "android": "https://dc.lft.to/lastmile_qr_scan"}, "is_reserved": 0}, {"lon": -76.93009416666666, "bike_id": "3da8834e91e3b100660b4dc99fc33411", "lat": 38.896545833333334, "fusion_lon": 0.0, "fusion_lat": 0.0, "type": "electric_bike", "name": "3da8834e91e3b100660b4dc99fc33411", "is_disabled": 0, "rental_uris": {"ios": "https://dc.lft.to/lastmile_qr_scan", "android": "https://dc.lft.to/lastmile_qr_scan"}, "is_reserved": 0}, {"lon": -77.012129, "bike_id": "6aa87774980e5325b1d6a5ffdb128a29", "lat": 38.8718235, "fusion_lon": 0.0, "fusion_lat": 0.0, "type": "electric_scooter", "name": "6aa87774980e5325b1d6a5ffdb128a29", "is_disabled": 0, "rental_uris": {"ios": "https://dc.lft.to/lastmile_qr_scan", "android": "https://dc.lft.to/lastmile_qr_scan"}, "is_reserved": 0}, {"lon": -77.0468735, "bike_id": "940b99fc9673679592123721f41318ff", "lat": 39.023944666666665, "fusion_lon": 0.0, "fusion_lat": 0.0, "type": "electric_bike", "name": "940b99fc9673679592123721f41318ff", "is_disabled": 0, "rental_uris": {"ios": "https://dc.lft.to/lastmile_qr_scan", "android": "https://dc.lft.to/lastmile_qr_scan"}, "is_reserved": 0}, {"lon": -76.9822795, "bike_id": "07b730d17ef307602972c3fa92bee3af", "lat": 38.88646466666667, "fusion_lon": 0.0, "fusion_lat": 0.0, "type": "electric_scooter", "name": "07b730d17ef307602972c3fa92bee3af", "is_disabled": 0, "rental_uris": {"ios": "https://dc.lft.to/lastmile_qr_scan", "android": "https://dc.lft.to/lastmile_qr_scan"}, "is_reserved": 0}, {"lon": -77.1048325, "bike_id": "c215b83ec9d7fa8c963bbadef2841160", "lat": 38.856066, "fusion_lon": 0.0, "fusion_lat": 0.0, "type": "electric_bike", "name": "c215b83ec9d7fa8c963bbadef2841160", "is_disabled": 0, "rental_uris": {"ios": "https://dc.lft.to/lastmile_qr_scan", "android": "https://dc.lft.to/lastmile_qr_scan"}, "is_reserved": 0}, {"lon": -77.05245966666666, "bike_id": "23171a110271a6f278b005e1888ad320", "lat": 38.927339333333336, "fusion_lon": 0.0, "fusion_lat": 0.0, "type": "electric_scooter", "name": "23171a110271a6f278b005e1888ad320", "is_disabled": 0, "rental_uris": {"ios": "https://dc.lft.to/lastmile_qr_scan", "android": "https://dc.lft.to/lastmile_qr_scan"}, "is_reserved": 0}, {"lon": -77.03488666666667, "bike_id": "9761ee284b9f0205bf5bb6329ce97322", "lat": 38.9248815, "fusion_lon": 0.0, "fusion_lat": 0.0, "type": "electric_scooter", "name": "9761ee284b9f0205bf5bb6329ce97322", "is_disabled": 0, "rental_uris": {"ios": "https://dc.lft.to/lastmile_qr_scan", "android": "https://dc.lft.to/lastmile_qr_scan"}, "is_reserved": 0}, {"lon": -77.111654, "bike_id": "06c46c3f3b355df88ab6c9596f3f8e8f", "lat": 38.85515566666667, "fusion_lon": 0.0, "fusion_lat": 0.0, "type": "electric_bike", "name": "06c46c3f3b355df88ab6c9596f3f8e8f", "is_disabled": 0, "rental_uris": {"ios": "https://dc.lft.to/lastmile_qr_scan", "android": "https://dc.lft.to/lastmile_qr_scan"}, "is_reserved": 0}, {"lon": -77.1662495, "bike_id": "7823ce5c6545cc074bd0a7d1a6e789c7", "lat": 38.88836233333333, "fusion_lon": 0.0, "fusion_lat": 0.0, "type": "electric_bike", "name": "7823ce5c6545cc074bd0a7d1a6e789c7", "is_disabled": 0, "rental_uris": {"ios": "https://dc.lft.to/lastmile_qr_scan", "android": "https://dc.lft.to/lastmile_qr_scan"}, "is_reserved": 0}, {"lon": -77.07287633333334, "bike_id": "2fcbdd658560e408b719b664619b64c5", "lat": 38.9246575, "fusion_lon": 0.0, "fusion_lat": 0.0, "type": "electric_scooter", "name": "2fcbdd658560e408b719b664619b64c5", "is_disabled": 0, "rental_uris": {"ios": "https://dc.lft.to/lastmile_qr_scan", "android": "https://dc.lft.to/lastmile_qr_scan"}, "is_reserved": 0}, {"lon": -77.02861016666667, "bike_id": "64720da89a88b69aa509add66467a652", "lat": 38.88769966666667, "fusion_lon": 0.0, "fusion_lat": 0.0, "type": "electric_scooter", "name": "64720da89a88b69aa509add66467a652", "is_disabled": 0, "rental_uris": {"ios": "https://dc.lft.to/lastmile_qr_scan", "android": "https://dc.lft.to/lastmile_qr_scan"}, "is_reserved": 0}, {"lon": -77.05735716666666, "bike_id": "50bf0697b482ac21f668270116d91e8e", "lat": 38.93356466666667, "fusion_lon": 0.0, "fusion_lat": 0.0, "type": "electric_scooter", "name": "50bf0697b482ac21f668270116d91e8e", "is_disabled": 0, "rental_uris": {"ios": "https://dc.lft.to/lastmile_qr_scan", "android": "https://dc.lft.to/lastmile_qr_scan"}, "is_reserved": 0}, {"lon": -76.97316583333334, "bike_id": "0c76d62d95923905b950ec2f969274d3", "lat": 38.86581433333333, "fusion_lon": 0.0, "fusion_lat": 0.0, "type": "electric_scooter", "name": "0c76d62d95923905b950ec2f969274d3", "is_disabled": 0, "rental_uris": {"ios": "https://dc.lft.to/lastmile_qr_scan", "android": "https://dc.lft.to/lastmile_qr_scan"}, "is_reserved": 0}, {"lon": -77.01579583333333, "bike_id": "0d3c0e49b2cd0faed639e9abfeac2600", "lat": 38.886135833333334, "fusion_lon": 0.0, "fusion_lat": 0.0, "type": "electric_scooter", "name": "0d3c0e49b2cd0faed639e9abfeac2600", "is_disabled": 0, "rental_uris": {"ios": "https://dc.lft.to/lastmile_qr_scan", "android": "https://dc.lft.to/lastmile_qr_scan"}, "is_reserved": 0}, {"lon": -77.029624, "bike_id": "e24ea78d6e46415f04666cf625a2bb91", "lat": 38.908007, "fusion_lon": 0.0, "fusion_lat": 0.0, "type": "electric_scooter", "name": "e24ea78d6e46415f04666cf625a2bb91", "is_disabled": 0, "rental_uris": {"ios": "https://dc.lft.to/lastmile_qr_scan", "android": "https://dc.lft.to/lastmile_qr_scan"}, "is_reserved": 0}, {"lon": -77.04478066666667, "bike_id": "9a468ba1ead95ff498afbd7bdfd292b3", "lat": 38.9157935, "fusion_lon": 0.0, "fusion_lat": 0.0, "type": "electric_scooter", "name": "9a468ba1ead95ff498afbd7bdfd292b3", "is_disabled": 0, "rental_uris": {"ios": "https://dc.lft.to/lastmile_qr_scan", "android": "https://dc.lft.to/lastmile_qr_scan"}, "is_reserved": 0}, {"lon": -77.02206683333333, "bike_id": "d8c1fd93b7d79f660afd0a49c36fdd2e", "lat": 38.914152666666666, "fusion_lon": 0.0, "fusion_lat": 0.0, "type": "electric_scooter", "name": "d8c1fd93b7d79f660afd0a49c36fdd2e", "is_disabled": 0, "rental_uris": {"ios": "https://dc.lft.to/lastmile_qr_scan", "android": "https://dc.lft.to/lastmile_qr_scan"}, "is_reserved": 0}, {"lon": -77.023919, "bike_id": "47a3011d0181d9562d444e37e4548290", "lat": 38.91141966666667, "fusion_lon": 0.0, "fusion_lat": 0.0, "type": "electric_scooter", "name": "47a3011d0181d9562d444e37e4548290", "is_disabled": 0, "rental_uris": {"ios": "https://dc.lft.to/lastmile_qr_scan", "android": "https://dc.lft.to/lastmile_qr_scan"}, "is_reserved": 0}, {"lon": -77.02781833333333, "bike_id": "5374776bf3dd70ab7cc10d763beb7146", "lat": 38.94190483333333, "fusion_lon": 0.0, "fusion_lat": 0.0, "type": "electric_scooter", "name": "5374776bf3dd70ab7cc10d763beb7146", "is_disabled": 0, "rental_uris": {"ios": "https://dc.lft.to/lastmile_qr_scan", "android": "https://dc.lft.to/lastmile_qr_scan"}, "is_reserved": 0}, {"lon": -77.000461, "bike_id": "1defd45844b9bdfbdc0a548761d94eb4", "lat": 38.8764675, "fusion_lon": 0.0, "fusion_lat": 0.0, "type": "electric_scooter", "name": "1defd45844b9bdfbdc0a548761d94eb4", "is_disabled": 0, "rental_uris": {"ios": "https://dc.lft.to/lastmile_qr_scan", "android": "https://dc.lft.to/lastmile_qr_scan"}, "is_reserved": 0}, {"lon": -76.99908833333333, "bike_id": "ee914f58f58ad5a648997c9b41963198", "lat": 38.92458283333333, "fusion_lon": 0.0, "fusion_lat": 0.0, "type": "electric_scooter", "name": "ee914f58f58ad5a648997c9b41963198", "is_disabled": 0, "rental_uris": {"ios": "https://dc.lft.to/lastmile_qr_scan", "android": "https://dc.lft.to/lastmile_qr_scan"}, "is_reserved": 0}, {"lon": -77.028026, "bike_id": "3ea725b782fecb40d25feec9615eef63", "lat": 38.8818025, "fusion_lon": 0.0, "fusion_lat": 0.0, "type": "electric_scooter", "name": "3ea725b782fecb40d25feec9615eef63", "is_disabled": 0, "rental_uris": {"ios": "https://dc.lft.to/lastmile_qr_scan", "android": "https://dc.lft.to/lastmile_qr_scan"}, "is_reserved": 0}, {"lon": -77.08574533333334, "bike_id": "4f0b01ba8c2a42837840cce3eca9f326", "lat": 38.93352266666667, "fusion_lon": 0.0, "fusion_lat": 0.0, "type": "electric_scooter", "name": "4f0b01ba8c2a42837840cce3eca9f326", "is_disabled": 0, "rental_uris": {"ios": "https://dc.lft.to/lastmile_qr_scan", "android": "https://dc.lft.to/lastmile_qr_scan"}, "is_reserved": 0}, {"lon": -76.9299645, "bike_id": "d0ddb4676e043d382032ccd36c934a3d", "lat": 38.90187916666667, "fusion_lon": 0.0, "fusion_lat": 0.0, "type": "electric_scooter", "name": "d0ddb4676e043d382032ccd36c934a3d", "is_disabled": 0, "rental_uris": {"ios": "https://dc.lft.to/lastmile_qr_scan", "android": "https://dc.lft.to/lastmile_qr_scan"}, "is_reserved": 0}, {"lon": -77.059357, "bike_id": "4186d85dbf454c97e13705eff83b8737", "lat": 38.91239183333333, "fusion_lon": 0.0, "fusion_lat": 0.0, "type": "electric_scooter", "name": "4186d85dbf454c97e13705eff83b8737", "is_disabled": 0, "rental_uris": {"ios": "https://dc.lft.to/lastmile_qr_scan", "android": "https://dc.lft.to/lastmile_qr_scan"}, "is_reserved": 0}, {"lon": -77.0082665, "bike_id": "2fd2b7b01c257d7169f9c657fe3923fb", "lat": 38.9130715, "fusion_lon": 0.0, "fusion_lat": 0.0, "type": "electric_scooter", "name": "2fd2b7b01c257d7169f9c657fe3923fb", "is_disabled": 0, "rental_uris": {"ios": "https://dc.lft.to/lastmile_qr_scan", "android": "https://dc.lft.to/lastmile_qr_scan"}, "is_reserved": 0}, {"lon": -77.059711, "bike_id": "658577c72b38262c85220fe313f668e4", "lat": 38.86193466666667, "fusion_lon": 0.0, "fusion_lat": 0.0, "type": "electric_bike", "name": "658577c72b38262c85220fe313f668e4", "is_disabled": 0, "rental_uris": {"ios": "https://dc.lft.to/lastmile_qr_scan", "android": "https://dc.lft.to/lastmile_qr_scan"}, "is_reserved": 0}, {"lon": -77.03871583333333, "bike_id": "22960892898b5def58524c92a1487c0d", "lat": 38.9096925, "fusion_lon": 0.0, "fusion_lat": 0.0, "type": "electric_scooter", "name": "22960892898b5def58524c92a1487c0d", "is_disabled": 0, "rental_uris": {"ios": "https://dc.lft.to/lastmile_qr_scan", "android": "https://dc.lft.to/lastmile_qr_scan"}, "is_reserved": 0}, {"lon": -77.01116366666666, "bike_id": "c2d36b9b88b591c7afdf317e7c4bf282", "lat": 38.885502333333335, "fusion_lon": 0.0, "fusion_lat": 0.0, "type": "electric_scooter", "name": "c2d36b9b88b591c7afdf317e7c4bf282", "is_disabled": 0, "rental_uris": {"ios": "https://dc.lft.to/lastmile_qr_scan", "android": "https://dc.lft.to/lastmile_qr_scan"}, "is_reserved": 0}, {"lon": -77.01413116666667, "bike_id": "b31e6d38fabe8466c10e782799559dba", "lat": 38.92869566666667, "fusion_lon": 0.0, "fusion_lat": 0.0, "type": "electric_scooter", "name": "b31e6d38fabe8466c10e782799559dba", "is_disabled": 0, "rental_uris": {"ios": "https://dc.lft.to/lastmile_qr_scan", "android": "https://dc.lft.to/lastmile_qr_scan"}, "is_reserved": 0}, {"lon": -77.0385565, "bike_id": "6704e1b0147fad05ab84d9b2ae009c15", "lat": 38.9089085, "fusion_lon": 0.0, "fusion_lat": 0.0, "type": "electric_scooter", "name": "6704e1b0147fad05ab84d9b2ae009c15", "is_disabled": 0, "rental_uris": {"ios": "https://dc.lft.to/lastmile_qr_scan", "android": "https://dc.lft.to/lastmile_qr_scan"}, "is_reserved": 0}, {"lon": -77.0211365, "bike_id": "17ae4d3b3da0708bfecbe8887be2d256", "lat": 38.91738766666667, "fusion_lon": 0.0, "fusion_lat": 0.0, "type": "electric_scooter", "name": "17ae4d3b3da0708bfecbe8887be2d256", "is_disabled": 0, "rental_uris": {"ios": "https://dc.lft.to/lastmile_qr_scan", "android": "https://dc.lft.to/lastmile_qr_scan"}, "is_reserved": 0}, {"lon": -77.04594666666667, "bike_id": "d33cb5792e835284185f4c79c3049ef3", "lat": 38.903797, "fusion_lon": 0.0, "fusion_lat": 0.0, "type": "electric_scooter", "name": "d33cb5792e835284185f4c79c3049ef3", "is_disabled": 0, "rental_uris": {"ios": "https://dc.lft.to/lastmile_qr_scan", "android": "https://dc.lft.to/lastmile_qr_scan"}, "is_reserved": 0}, {"lon": -76.99722616666666, "bike_id": "897d0222bb84742fc52cd3a04637b7be", "lat": 38.911103, "fusion_lon": 0.0, "fusion_lat": 0.0, "type": "electric_scooter", "name": "897d0222bb84742fc52cd3a04637b7be", "is_disabled": 0, "rental_uris": {"ios": "https://dc.lft.to/lastmile_qr_scan", "android": "https://dc.lft.to/lastmile_qr_scan"}, "is_reserved": 0}, {"lon": -77.10910033333333, "bike_id": "7bac0683cf48818d9a2295693b1f2b66", "lat": 39.0519255, "fusion_lon": 0.0, "fusion_lat": 0.0, "type": "electric_bike", "name": "7bac0683cf48818d9a2295693b1f2b66", "is_disabled": 0, "rental_uris": {"ios": "https://dc.lft.to/lastmile_qr_scan", "android": "https://dc.lft.to/lastmile_qr_scan"}, "is_reserved": 0}, {"lon": -77.1784195, "bike_id": "b4c178c8818d352a7e07cf68dccf4ab6", "lat": 39.08856683333333, "fusion_lon": 0.0, "fusion_lat": 0.0, "type": "electric_bike", "name": "b4c178c8818d352a7e07cf68dccf4ab6", "is_disabled": 0, "rental_uris": {"ios": "https://dc.lft.to/lastmile_qr_scan", "android": "https://dc.lft.to/lastmile_qr_scan"}, "is_reserved": 0}, {"lon": -77.0261295, "bike_id": "eb8b57877050d242a27b9e40b6f77c24", "lat": 38.902721, "fusion_lon": 0.0, "fusion_lat": 0.0, "type": "electric_scooter", "name": "eb8b57877050d242a27b9e40b6f77c24", "is_disabled": 0, "rental_uris": {"ios": "https://dc.lft.to/lastmile_qr_scan", "android": "https://dc.lft.to/lastmile_qr_scan"}, "is_reserved": 0}, {"lon": -77.07334683333333, "bike_id": "828449008745e4c52521e283d2dc635a", "lat": 38.934940833333336, "fusion_lon": 0.0, "fusion_lat": 0.0, "type": "electric_scooter", "name": "828449008745e4c52521e283d2dc635a", "is_disabled": 0, "rental_uris": {"ios": "https://dc.lft.to/lastmile_qr_scan", "android": "https://dc.lft.to/lastmile_qr_scan"}, "is_reserved": 0}, {"lon": -77.00054116666666, "bike_id": "30a6d8e5ef4fbcb91fe0a739355e39f0", "lat": 38.896538, "fusion_lon": 0.0, "fusion_lat": 0.0, "type": "electric_scooter", "name": "30a6d8e5ef4fbcb91fe0a739355e39f0", "is_disabled": 0, "rental_uris": {"ios": "https://dc.lft.to/lastmile_qr_scan", "android": "https://dc.lft.to/lastmile_qr_scan"}, "is_reserved": 0}, {"lon": -76.9565285, "bike_id": "f4356daf55aa5b28a49a2205838595c9", "lat": 38.895554, "fusion_lon": 0.0, "fusion_lat": 0.0, "type": "electric_scooter", "name": "f4356daf55aa5b28a49a2205838595c9", "is_disabled": 0, "rental_uris": {"ios": "https://dc.lft.to/lastmile_qr_scan", "android": "https://dc.lft.to/lastmile_qr_scan"}, "is_reserved": 0}, {"lon": -77.051777, "bike_id": "83ea965fc4571bf08b54f661a8eeacef", "lat": 38.84289733333333, "fusion_lon": 0.0, "fusion_lat": 0.0, "type": "electric_bike", "name": "83ea965fc4571bf08b54f661a8eeacef", "is_disabled": 0, "rental_uris": {"ios": "https://dc.lft.to/lastmile_qr_scan", "android": "https://dc.lft.to/lastmile_qr_scan"}, "is_reserved": 0}, {"lon": -77.0328415, "bike_id": "67c81d04a953b9e71fa4f1bc15dba839", "lat": 38.9364325, "fusion_lon": 0.0, "fusion_lat": 0.0, "type": "electric_scooter", "name": "67c81d04a953b9e71fa4f1bc15dba839", "is_disabled": 0, "rental_uris": {"ios": "https://dc.lft.to/lastmile_qr_scan", "android": "https://dc.lft.to/lastmile_qr_scan"}, "is_reserved": 0}, {"lon": -77.05940566666666, "bike_id": "72b0767a136ca8f8d75a5e613126e17e", "lat": 38.912003, "fusion_lon": 0.0, "fusion_lat": 0.0, "type": "electric_bike", "name": "72b0767a136ca8f8d75a5e613126e17e", "is_disabled": 0, "rental_uris": {"ios": "https://dc.lft.to/lastmile_qr_scan", "android": "https://dc.lft.to/lastmile_qr_scan"}, "is_reserved": 0}, {"lon": -76.99165583333334, "bike_id": "4ff791850ce2d343fdf6b698af6033c8", "lat": 38.909678, "fusion_lon": 0.0, "fusion_lat": 0.0, "type": "electric_scooter", "name": "4ff791850ce2d343fdf6b698af6033c8", "is_disabled": 0, "rental_uris": {"ios": "https://dc.lft.to/lastmile_qr_scan", "android": "https://dc.lft.to/lastmile_qr_scan"}, "is_reserved": 0}, {"lon": -77.03120133333333, "bike_id": "636dc776f8a154469ce04c13dfb85987", "lat": 38.91707733333333, "fusion_lon": 0.0, "fusion_lat": 0.0, "type": "electric_scooter", "name": "636dc776f8a154469ce04c13dfb85987", "is_disabled": 0, "rental_uris": {"ios": "https://dc.lft.to/lastmile_qr_scan", "android": "https://dc.lft.to/lastmile_qr_scan"}, "is_reserved": 0}, {"lon": -77.03335833333334, "bike_id": "9573f4a5deb7d6bea1b3b20ea3135a6a", "lat": 38.917084833333334, "fusion_lon": 0.0, "fusion_lat": 0.0, "type": "electric_scooter", "name": "9573f4a5deb7d6bea1b3b20ea3135a6a", "is_disabled": 0, "rental_uris": {"ios": "https://dc.lft.to/lastmile_qr_scan", "android": "https://dc.lft.to/lastmile_qr_scan"}, "is_reserved": 0},