{"data": {"bikes": [{"bike_id": "b6f1cf135927a58b4752f16f65f767fc", "is_reserved": 0, "fusion_lon": 0.0, "lat": 38.927858, "is_disabled": 0, "name": "b6f1cf135927a58b4752f16f65f767fc", "fusion_lat": 0.0, "rental_uris": {"ios": "https://dc.lft.to/lastmile_qr_scan", "android": "https://dc.lft.to/lastmile_qr_scan"}, "lon": -77.05544166666667, "type": "electric_scooter"}, {"bike_id": "99fbab2b21dfb2b495b6428d207f1e8c", "is_reserved": 0, "fusion_lon": 0.0, "lat": 38.9255805, "is_disabled": 0, "name": "99fbab2b21dfb2b495b6428d207f1e8c", "fusion_lat": 0.0, "rental_uris": {"ios": "https://dc.lft.to/lastmile_qr_scan", "android": "https://dc.lft.to/lastmile_qr_scan"}, "lon": -77.03930366666667, "type": "electric_scooter"}, {"bike_id": "e05a67ce30aba901ab70dc644eebca92", "is_reserved": 0, "fusion_lon": 0.0, "lat": 38.9058905, "is_disabled": 0, "name": "e05a67ce30aba901ab70dc644eebca92", "fusion_lat": 0.0, "rental_uris": {"ios": "https://dc.lft.to/lastmile_qr_scan", "android": "https://dc.lft.to/lastmile_qr_scan"}, "lon": -77.06278833333333, "type": "electric_scooter"}, {"bike_id": "0ef5076bc2a86c04a833710c5977f414", "is_reserved": 0, "fusion_lon": 0.0, "lat": 38.915600166666664, "is_disabled": 0, "name": "0ef5076bc2a86c04a833710c5977f414", "fusion_lat": 0.0, "rental_uris": {"ios": "https://dc.lft.to/lastmile_qr_scan", "android": "https://dc.lft.to/lastmile_qr_scan"}, "lon": -77.031572, "type": "electric_scooter"}, {"bike_id": "91b51605a6a57e1669b591684a2779a2", "is_reserved": 0, "fusion_lon": 0.0, "lat": 38.89812116666667, "is_disabled": 0, "name": "91b51605a6a57e1669b591684a2779a2", "fusion_lat": 0.0, "rental_uris": {"ios": "https://dc.lft.to/lastmile_qr_scan", "android": "https://dc.lft.to/lastmile_qr_scan"}, "lon": -77.02956083333333, "type": "electric_scooter"}, {"bike_id": "097114765116b027620081838596db8e", "is_reserved": 0, "fusion_lon": 0.0, "lat": 38.897773, "is_disabled": 0, "name": "097114765116b027620081838596db8e", "fusion_lat": 0.0, "rental_uris": {"ios": "https://dc.lft.to/lastmile_qr_scan", "android": "https://dc.lft.to/lastmile_qr_scan"}, "lon": -77.03167483333333, "type": "electric_scooter"}, {"bike_id": "17df3e350013a31f84da91bf78e9b422", "is_reserved": 0, "fusion_lon": 0.0, "lat": 38.91704, "is_disabled": 0, "name": "17df3e350013a31f84da91bf78e9b422", "fusion_lat": 0.0, "rental_uris": {"ios": "https://dc.lft.to/lastmile_qr_scan", "android": "https://dc.lft.to/lastmile_qr_scan"}, "lon": -77.0310875, "type": "electric_scooter"}, {"bike_id": "65bff295bf05489e5d439f1f4d111c6e", "is_reserved": 0, "fusion_lon": 0.0, "lat": 38.898432666666665, "is_disabled": 0, "name": "65bff295bf05489e5d439f1f4d111c6e", "fusion_lat": 0.0, "rental_uris": {"ios": "https://dc.lft.to/lastmile_qr_scan", "android": "https://dc.lft.to/lastmile_qr_scan"}, "lon": -77.03283366666666, "type": "electric_scooter"}, {"bike_id": "a9b5ce9897a5482219c8a8dd3a5cca7a", "is_reserved": 0, "fusion_lon": 0.0, "lat": 38.88310383333334, "is_disabled": 0, "name": "a9b5ce9897a5482219c8a8dd3a5cca7a", "fusion_lat": 0.0, "rental_uris": {"ios": "https://dc.lft.to/lastmile_qr_scan", "android": "https://dc.lft.to/lastmile_qr_scan"}, "lon": -77.01768416666667, "type": "electric_scooter"}, {"bike_id": "4424dfdf27e52aa992dad2c8006e03e6", "is_reserved": 0, "fusion_lon": 0.0, "lat": 38.88579983333333, "is_disabled": 0, "name": "4424dfdf27e52aa992dad2c8006e03e6", "fusion_lat": 0.0, "rental_uris": {"ios": "https://dc.lft.to/lastmile_qr_scan", "android": "https://dc.lft.to/lastmile_qr_scan"}, "lon": -77.0154535, "type": "electric_scooter"}, {"bike_id": "2f20742eb02acc42585b30a944b690b8", "is_reserved": 0, "fusion_lon": 0.0, "lat": 38.96391283333333, "is_disabled": 0, "name": "2f20742eb02acc42585b30a944b690b8", "fusion_lat": 0.0, "rental_uris": {"ios": "https://dc.lft.to/lastmile_qr_scan", "android": "https://dc.lft.to/lastmile_qr_scan"}, "lon": -77.02593683333333, "type": "electric_scooter"}, {"bike_id": "3db2bfa769fdb59e45a2846c576eeabd", "is_reserved": 0, "fusion_lon": 0.0, "lat": 38.857465833333336, "is_disabled": 0, "name": "3db2bfa769fdb59e45a2846c576eeabd", "fusion_lat": 0.0, "rental_uris": {"ios": "https://dc.lft.to/lastmile_qr_scan", "android": "https://dc.lft.to/lastmile_qr_scan"}, "lon": -76.988412, "type": "electric_bike"}, {"bike_id": "b2fcd90ac59434ea99bb7156862662b8", "is_reserved": 0, "fusion_lon": 0.0, "lat": 38.929928333333336, "is_disabled": 0, "name": "b2fcd90ac59434ea99bb7156862662b8", "fusion_lat": 0.0, "rental_uris": {"ios": "https://dc.lft.to/lastmile_qr_scan", "android": "https://dc.lft.to/lastmile_qr_scan"}, "lon": -77.032356, "type": "electric_scooter"}, {"bike_id": "1a29519f190db90d37d9083f7f738186", "is_reserved": 0, "fusion_lon": 0.0, "lat": 38.90554266666667, "is_disabled": 0, "name": "1a29519f190db90d37d9083f7f738186", "fusion_lat": 0.0, "rental_uris": {"ios": "https://dc.lft.to/lastmile_qr_scan", "android": "https://dc.lft.to/lastmile_qr_scan"}, "lon": -77.0381355, "type": "electric_scooter"}, {"bike_id": "baf5e950407adfb603d2501e1022e9f1", "is_reserved": 0, "fusion_lon": 0.0, "lat": 38.9211915, "is_disabled": 0, "name": "baf5e950407adfb603d2501e1022e9f1", "fusion_lat": 0.0, "rental_uris": {"ios": "https://dc.lft.to/lastmile_qr_scan", "android": "https://dc.lft.to/lastmile_qr_scan"}, "lon": -77.01805416666667, "type": "electric_scooter"}, {"bike_id": "0510b8e67137f578ad43901307d0f1f3", "is_reserved": 0, "fusion_lon": 0.0, "lat": 38.916881333333336, "is_disabled": 0, "name": "0510b8e67137f578ad43901307d0f1f3", "fusion_lat": 0.0, "rental_uris": {"ios": "https://dc.lft.to/lastmile_qr_scan", "android": "https://dc.lft.to/lastmile_qr_scan"}, "lon": -77.037681, "type": "electric_scooter"}, {"bike_id": "5a2dd82fcf80692126b275a737c85f04", "is_reserved": 0, "fusion_lon": 0.0, "lat": 38.91979766666667, "is_disabled": 0, "name": "5a2dd82fcf80692126b275a737c85f04", "fusion_lat": 0.0, "rental_uris": {"ios": "https://dc.lft.to/lastmile_qr_scan", "android": "https://dc.lft.to/lastmile_qr_scan"}, "lon": -77.04183716666667, "type": "electric_scooter"}, {"bike_id": "8375f5f6e825587d81f02d4113c6dcd1", "is_reserved": 0, "fusion_lon": 0.0, "lat": 38.842907833333335, "is_disabled": 0, "name": "8375f5f6e825587d81f02d4113c6dcd1", "fusion_lat": 0.0, "rental_uris": {"ios": "https://dc.lft.to/lastmile_qr_scan", "android": "https://dc.lft.to/lastmile_qr_scan"}, "lon": -76.99946933333334, "type": "electric_scooter"}, {"bike_id": "3bf62983d8f781655767ad0011271668", "is_reserved": 0, "fusion_lon": 0.0, "lat": 38.8848165, "is_disabled": 0, "name": "3bf62983d8f781655767ad0011271668", "fusion_lat": 0.0, "rental_uris": {"ios": "https://dc.lft.to/lastmile_qr_scan", "android": "https://dc.lft.to/lastmile_qr_scan"}, "lon": -77.01523666666667, "type": "electric_scooter"}, {"bike_id": "5c40d2307a47a3d7b1d15f541a411cc3", "is_reserved": 0, "fusion_lon": 0.0, "lat": 38.86612483333333, "is_disabled": 0, "name": "5c40d2307a47a3d7b1d15f541a411cc3", "fusion_lat": 0.0, "rental_uris": {"ios": "https://dc.lft.to/lastmile_qr_scan", "android": "https://dc.lft.to/lastmile_qr_scan"}, "lon": -76.98699683333334, "type": "electric_scooter"}, {"bike_id": "899ed2c7249460034378363fc19daaa9", "is_reserved": 0, "fusion_lon": 0.0, "lat": 38.90735133333333, "is_disabled": 0, "name": "899ed2c7249460034378363fc19daaa9", "fusion_lat": 0.0, "rental_uris": {"ios": "https://dc.lft.to/lastmile_qr_scan", "android": "https://dc.lft.to/lastmile_qr_scan"}, "lon": -77.03062433333334, "type": "electric_scooter"}, {"bike_id": "24023f9ccd75a13af2c2813bc49add41", "is_reserved": 0, "fusion_lon": 0.0, "lat": 38.91883283333333, "is_disabled": 0, "name": "24023f9ccd75a13af2c2813bc49add41", "fusion_lat": 0.0, "rental_uris": {"ios": "https://dc.lft.to/lastmile_qr_scan", "android": "https://dc.lft.to/lastmile_qr_scan"}, "lon": -77.02973, "type": "electric_scooter"}, {"bike_id": "dfca440409d31873f74a8902d092cf70", "is_reserved": 0, "fusion_lon": 0.0, "lat": 38.864405, "is_disabled": 0, "name": "dfca440409d31873f74a8902d092cf70", "fusion_lat": 0.0, "rental_uris": {"ios": "https://dc.lft.to/lastmile_qr_scan", "android": "https://dc.lft.to/lastmile_qr_scan"}, "lon": -76.97358533333333, "type": "electric_scooter"}, {"bike_id": "ffe61a569d5a56315782dbd15b6b87a9", "is_reserved": 0, "fusion_lon": 0.0, "lat": 38.892243666666666, "is_disabled": 0, "name": "ffe61a569d5a56315782dbd15b6b87a9", "fusion_lat": 0.0, "rental_uris": {"ios": "https://dc.lft.to/lastmile_qr_scan", "android": "https://dc.lft.to/lastmile_qr_scan"}, "lon": -77.0264605, "type": "electric_scooter"}, {"bike_id": "f0eed29bc0d8c53761ef1b7d847b5767", "is_reserved": 0, "fusion_lon": 0.0, "lat": 38.926177, "is_disabled": 0, "name": "f0eed29bc0d8c53761ef1b7d847b5767", "fusion_lat": 0.0, "rental_uris": {"ios": "https://dc.lft.to/lastmile_qr_scan", "android": "https://dc.lft.to/lastmile_qr_scan"}, "lon": -77.03787466666667, "type": "electric_scooter"}, {"bike_id": "0d1d5b84c64ee135f37e9649cf6e24e2", "is_reserved": 0, "fusion_lon": 0.0, "lat": 38.91556166666667, "is_disabled": 0, "name": "0d1d5b84c64ee135f37e9649cf6e24e2", "fusion_lat": 0.0, "rental_uris": {"ios": "https://dc.lft.to/lastmile_qr_scan", "android": "https://dc.lft.to/lastmile_qr_scan"}, "lon": -77.0315425, "type": "electric_scooter"}, {"bike_id": "6800bae10dedf77f2808a4711ae73387", "is_reserved": 0, "fusion_lon": 0.0, "lat": 38.9217745, "is_disabled": 0, "name": "6800bae10dedf77f2808a4711ae73387", "fusion_lat": 0.0, "rental_uris": {"ios": "https://dc.lft.to/lastmile_qr_scan", "android": "https://dc.lft.to/lastmile_qr_scan"}, "lon": -76.9979115, "type": "electric_scooter"}, {"bike_id": "afbea780e35719f43e9adae909a981c3", "is_reserved": 0, "fusion_lon": 0.0, "lat": 38.916669, "is_disabled": 0, "name": "afbea780e35719f43e9adae909a981c3", "fusion_lat": 0.0, "rental_uris": {"ios": "https://dc.lft.to/lastmile_qr_scan", "android": "https://dc.lft.to/lastmile_qr_scan"}, "lon": -77.0296545, "type": "electric_scooter"}, {"bike_id": "c3929005246e4aeaf73269815b7705c1", "is_reserved": 0, "fusion_lon": 0.0, "lat": 38.91493533333333, "is_disabled": 0, "name": "c3929005246e4aeaf73269815b7705c1", "fusion_lat": 0.0, "rental_uris": {"ios": "https://dc.lft.to/lastmile_qr_scan", "android": "https://dc.lft.to/lastmile_qr_scan"}, "lon": -77.0384385, "type": "electric_scooter"}, {"bike_id": "d6bdb792f0e4f33cdd2d720b33372d37", "is_reserved": 0, "fusion_lon": 0.0, "lat": 38.9111025, "is_disabled": 0, "name": "d6bdb792f0e4f33cdd2d720b33372d37", "fusion_lat": 0.0, "rental_uris": {"ios": "https://dc.lft.to/lastmile_qr_scan", "android": "https://dc.lft.to/lastmile_qr_scan"}, "lon": -77.02415516666667, "type": "electric_scooter"}, {"bike_id": "94609726c7757b4e79b08d0ca52243e4", "is_reserved": 0, "fusion_lon": 0.0, "lat": 38.822534833333336, "is_disabled": 0, "name": "94609726c7757b4e79b08d0ca52243e4", "fusion_lat": 0.0, "rental_uris": {"ios": "https://dc.lft.to/lastmile_qr_scan", "android": "https://dc.lft.to/lastmile_qr_scan"}, "lon": -77.00557083333334, "type": "electric_bike"}, {"bike_id": "8a9df7811774ece039dc58366abb4760", "is_reserved": 0, "fusion_lon": 0.0, "lat": 38.87471733333334, "is_disabled": 0, "name": "8a9df7811774ece039dc58366abb4760", "fusion_lat": 0.0, "rental_uris": {"ios": "https://dc.lft.to/lastmile_qr_scan", "android": "https://dc.lft.to/lastmile_qr_scan"}, "lon": -77.01072683333334, "type": "electric_scooter"}, {"bike_id": "456900f0b3089f58743e75dc22bd3303", "is_reserved": 0, "fusion_lon": 0.0, "lat": 38.905977, "is_disabled": 0, "name": "456900f0b3089f58743e75dc22bd3303", "fusion_lat": 0.0, "rental_uris": {"ios": "https://dc.lft.to/lastmile_qr_scan", "android": "https://dc.lft.to/lastmile_qr_scan"}, "lon": -77.04017316666666, "type": "electric_scooter"}, {"bike_id": "78d35283fa4155f58a5df0d75779a399", "is_reserved": 0, "fusion_lon": 0.0, "lat": 38.93344583333333, "is_disabled": 0, "name": "78d35283fa4155f58a5df0d75779a399", "fusion_lat": 0.0, "rental_uris": {"ios": "https://dc.lft.to/lastmile_qr_scan", "android": "https://dc.lft.to/lastmile_qr_scan"}, "lon": -77.057113, "type": "electric_scooter"}, {"bike_id": "a7987bde017d1dba9146a66d1bd2eb80", "is_reserved": 0, "fusion_lon": 0.0, "lat": 38.916571, "is_disabled": 0, "name": "a7987bde017d1dba9146a66d1bd2eb80", "fusion_lat": 0.0, "rental_uris": {"ios": "https://dc.lft.to/lastmile_qr_scan", "android": "https://dc.lft.to/lastmile_qr_scan"}, "lon": -77.04785283333334, "type": "electric_scooter"}, {"bike_id": "50dad04b5454c59a8fb614618be2f85b", "is_reserved": 0, "fusion_lon": 0.0, "lat": 38.90803283333333, "is_disabled": 0, "name": "50dad04b5454c59a8fb614618be2f85b", "fusion_lat": 0.0, "rental_uris": {"ios": "https://dc.lft.to/lastmile_qr_scan", "android": "https://dc.lft.to/lastmile_qr_scan"}, "lon": -76.99847483333333, "type": "electric_scooter"}, {"bike_id": "93f5eeeab766a172140a4fb60c46ffcb", "is_reserved": 0, "fusion_lon": 0.0, "lat": 38.89453533333333, "is_disabled": 0, "name": "93f5eeeab766a172140a4fb60c46ffcb", "fusion_lat": 0.0, "rental_uris": {"ios": "https://dc.lft.to/lastmile_qr_scan", "android": "https://dc.lft.to/lastmile_qr_scan"}, "lon": -76.970365, "type": "electric_bike"}, {"bike_id": "61c2af28384773a37aa367793e69977e", "is_reserved": 0, "fusion_lon": 0.0, "lat": 38.892528166666665, "is_disabled": 0, "name": "61c2af28384773a37aa367793e69977e", "fusion_lat": 0.0, "rental_uris": {"ios": "https://dc.lft.to/lastmile_qr_scan", "android": "https://dc.lft.to/lastmile_qr_scan"}, "lon": -76.94159583333334, "type": "electric_scooter"}, {"bike_id": "143aac3c80cf944b28dbcc21439b4f6a", "is_reserved": 0, "fusion_lon": 0.0, "lat": 38.90737283333333, "is_disabled": 0, "name": "143aac3c80cf944b28dbcc21439b4f6a", "fusion_lat": 0.0, "rental_uris": {"ios": "https://dc.lft.to/lastmile_qr_scan", "android": "https://dc.lft.to/lastmile_qr_scan"}, "lon": -76.98647233333334, "type": "electric_scooter"}, {"bike_id": "83c6a9647d867a2b051d3cd37c895d83", "is_reserved": 0, "fusion_lon": 0.0, "lat": 38.870027, "is_disabled": 0, "name": "83c6a9647d867a2b051d3cd37c895d83", "fusion_lat": 0.0, "rental_uris": {"ios": "https://dc.lft.to/lastmile_qr_scan", "android": "https://dc.lft.to/lastmile_qr_scan"}, "lon": -76.96021916666666, "type": "electric_bike"}, {"bike_id": "cef171f1a6e0d42fd2f7947512308c39", "is_reserved": 0, "fusion_lon": 0.0, "lat": 38.927648, "is_disabled": 0, "name": "cef171f1a6e0d42fd2f7947512308c39", "fusion_lat": 0.0, "rental_uris": {"ios": "https://dc.lft.to/lastmile_qr_scan", "android": "https://dc.lft.to/lastmile_qr_scan"}, "lon": -77.02841166666667, "type": "electric_scooter"}, {"bike_id": "fc83be212128acdc998c1e326e1160b4", "is_reserved": 0, "fusion_lon": 0.0, "lat": 38.900060333333336, "is_disabled": 0, "name": "fc83be212128acdc998c1e326e1160b4", "fusion_lat": 0.0, "rental_uris": {"ios": "https://dc.lft.to/lastmile_qr_scan", "android": "https://dc.lft.to/lastmile_qr_scan"}, "lon": -76.99780166666666, "type": "electric_scooter"}, {"bike_id": "cb05010fc3462408b273d1dac94b5a61", "is_reserved": 0, "fusion_lon": 0.0, "lat": 38.88032116666667, "is_disabled": 0, "name": "cb05010fc3462408b273d1dac94b5a61", "fusion_lat": 0.0, "rental_uris": {"ios": "https://dc.lft.to/lastmile_qr_scan", "android": "https://dc.lft.to/lastmile_qr_scan"}, "lon": -77.01929816666667, "type": "electric_scooter"}, {"bike_id": "f3f028dea50383c2cda9ec5769a64b25", "is_reserved": 0, "fusion_lon": 0.0, "lat": 38.93497816666667, "is_disabled": 0, "name": "f3f028dea50383c2cda9ec5769a64b25", "fusion_lat": 0.0, "rental_uris": {"ios": "https://dc.lft.to/lastmile_qr_scan", "android": "https://dc.lft.to/lastmile_qr_scan"}, "lon": -77.05802883333334, "type": "electric_scooter"}, {"bike_id": "526baf9458bfa2c10986c9f36d176726", "is_reserved": 0, "fusion_lon": 0.0, "lat": 38.83688333333333, "is_disabled": 0, "name": "526baf9458bfa2c10986c9f36d176726", "fusion_lat": 0.0, "rental_uris": {"ios": "https://dc.lft.to/lastmile_qr_scan", "android": "https://dc.lft.to/lastmile_qr_scan"}, "lon": -77.005826, "type": "electric_scooter"}, {"bike_id": "403173b31f9cfb3eebd6cffa27148cfe", "is_reserved": 0, "fusion_lon": 0.0, "lat": 38.9214515, "is_disabled": 0, "name": "403173b31f9cfb3eebd6cffa27148cfe", "fusion_lat": 0.0, "rental_uris": {"ios": "https://dc.lft.to/lastmile_qr_scan", "android": "https://dc.lft.to/lastmile_qr_scan"}, "lon": -77.0435535, "type": "electric_scooter"}, {"bike_id": "bb5546028601e7416181b9b1143f3bcc", "is_reserved": 0, "fusion_lon": 0.0, "lat": 38.936710833333336, "is_disabled": 0, "name": "bb5546028601e7416181b9b1143f3bcc", "fusion_lat": 0.0, "rental_uris": {"ios": "https://dc.lft.to/lastmile_qr_scan", "android": "https://dc.lft.to/lastmile_qr_scan"}, "lon": -76.95225366666666, "type": "electric_bike"}, {"bike_id": "0e9b2c952932c67719c2144fe9cc43b7", "is_reserved": 0, "fusion_lon": 0.0, "lat": 38.90252683333333, "is_disabled": 0, "name": "0e9b2c952932c67719c2144fe9cc43b7", "fusion_lat": 0.0, "rental_uris": {"ios": "https://dc.lft.to/lastmile_qr_scan", "android": "https://dc.lft.to/lastmile_qr_scan"}, "lon": -77.06009116666667, "type": "electric_scooter"}, {"bike_id": "adc51bcb0a8addce328fa67a0206c345", "is_reserved": 0, "fusion_lon": 0.0, "lat": 38.90408933333333, "is_disabled": 0, "name": "adc51bcb0a8addce328fa67a0206c345", "fusion_lat": 0.0, "rental_uris": {"ios": "https://dc.lft.to/lastmile_qr_scan", "android": "https://dc.lft.to/lastmile_qr_scan"}, "lon": -77.0404815, "type": "electric_scooter"}, {"bike_id": "eaebab3d4692ef9330236a29301b518e", "is_reserved": 0, "fusion_lon": 0.0, "lat": 38.94012683333333, "is_disabled": 0, "name": "eaebab3d4692ef9330236a29301b518e", "fusion_lat": 0.0, "rental_uris": {"ios": "https://dc.lft.to/lastmile_qr_scan", "android": "https://dc.lft.to/lastmile_qr_scan"}, "lon": -77.07165116666667, "type": "electric_scooter"}, {"bike_id": "bddc20a0579131fbae64783365126c69", "is_reserved": 0, "fusion_lon": 0.0, "lat": 38.88521516666667, "is_disabled": 0, "name": "bddc20a0579131fbae64783365126c69", "fusion_lat": 0.0, "rental_uris": {"ios": "https://dc.lft.to/lastmile_qr_scan", "android": "https://dc.lft.to/lastmile_qr_scan"}, "lon": -77.03345316666666, "type": "electric_scooter"}, {"bike_id": "a14bb0faae3b4bfce1bcd22975fda29d", "is_reserved": 0, "fusion_lon": 0.0, "lat": 38.89194883333333, "is_disabled": 0, "name": "a14bb0faae3b4bfce1bcd22975fda29d", "fusion_lat": 0.0, "rental_uris": {"ios": "https://dc.lft.to/lastmile_qr_scan", "android": "https://dc.lft.to/lastmile_qr_scan"}, "lon": -77.0238155, "type": "electric_scooter"}, {"bike_id": "5682b694bbd0c18bfb22e69dda67a37a", "is_reserved": 0, "fusion_lon": 0.0, "lat": 38.9241455, "is_disabled": 0, "name": "5682b694bbd0c18bfb22e69dda67a37a", "fusion_lat": 0.0, "rental_uris": {"ios": "https://dc.lft.to/lastmile_qr_scan", "android": "https://dc.lft.to/lastmile_qr_scan"}, "lon": -77.02240016666667, "type": "electric_scooter"}, {"bike_id": "6a3d06bd7c0d7d0ebb8c1e6b30b1ef89", "is_reserved": 0, "fusion_lon": 0.0, "lat": 38.89906233333333, "is_disabled": 0, "name": "6a3d06bd7c0d7d0ebb8c1e6b30b1ef89", "fusion_lat": 0.0, "rental_uris": {"ios": "https://dc.lft.to/lastmile_qr_scan", "android": "https://dc.lft.to/lastmile_qr_scan"}, "lon": -76.93355983333333, "type": "electric_scooter"}, {"bike_id": "0079073fd1bb48c3bdb841a5481ba13e", "is_reserved": 0, "fusion_lon": 0.0, "lat": 38.87490533333333, "is_disabled": 0, "name": "0079073fd1bb48c3bdb841a5481ba13e", "fusion_lat": 0.0, "rental_uris": {"ios": "https://dc.lft.to/lastmile_qr_scan", "android": "https://dc.lft.to/lastmile_qr_scan"}, "lon": -76.99800866666666, "type": "electric_scooter"}, {"bike_id": "1ec561db9d2749069cd7f3d5812c20f7", "is_reserved": 0, "fusion_lon": 0.0, "lat": 38.909614166666664, "is_disabled": 0, "name": "1ec561db9d2749069cd7f3d5812c20f7", "fusion_lat": 0.0, "rental_uris": {"ios": "https://dc.lft.to/lastmile_qr_scan", "android": "https://dc.lft.to/lastmile_qr_scan"}, "lon": -77.01530666666666, "type": "electric_scooter"}, {"bike_id": "fc91527786ee92dfa9dc966c04aeb584", "is_reserved": 0, "fusion_lon": 0.0, "lat": 38.858108, "is_disabled": 0, "name": "fc91527786ee92dfa9dc966c04aeb584", "fusion_lat": 0.0, "rental_uris": {"ios": "https://dc.lft.to/lastmile_qr_scan", "android": "https://dc.lft.to/lastmile_qr_scan"}, "lon": -76.98993933333334, "type": "electric_scooter"}, {"bike_id": "65d45bbd1dcb8845a1ac815d120b99aa", "is_reserved": 0, "fusion_lon": 0.0, "lat": 38.903620333333336, "is_disabled": 0, "name": "65d45bbd1dcb8845a1ac815d120b99aa", "fusion_lat": 0.0, "rental_uris": {"ios": "https://dc.lft.to/lastmile_qr_scan", "android": "https://dc.lft.to/lastmile_qr_scan"}, "lon": -77.0451195, "type": "electric_scooter"}, {"bike_id": "f44aa053a4f242b3de2e35ae2c7961c9", "is_reserved": 0, "fusion_lon": 0.0, "lat": 38.90315866666667, "is_disabled": 0, "name": "f44aa053a4f242b3de2e35ae2c7961c9", "fusion_lat": 0.0, "rental_uris": {"ios": "https://dc.lft.to/lastmile_qr_scan", "android": "https://dc.lft.to/lastmile_qr_scan"}, "lon": -77.0418815, "type": "electric_scooter"}, {"bike_id": "b355461db72c08faf727be489bc16105", "is_reserved": 0, "fusion_lon": 0.0, "lat": 38.904965833333335, "is_disabled": 0, "name": "b355461db72c08faf727be489bc16105", "fusion_lat": 0.0, "rental_uris": {"ios": "https://dc.lft.to/lastmile_qr_scan", "android": "https://dc.lft.to/lastmile_qr_scan"}, "lon": -77.06020383333333, "type": "electric_scooter"}, {"bike_id": "b3812c340fdda98e44052e89524fd5ac", "is_reserved": 0, "fusion_lon": 0.0, "lat": 38.90481916666667, "is_disabled": 0, "name": "b3812c340fdda98e44052e89524fd5ac", "fusion_lat": 0.0, "rental_uris": {"ios": "https://dc.lft.to/lastmile_qr_scan", "android": "https://dc.lft.to/lastmile_qr_scan"}, "lon": -77.05132033333334, "type": "electric_scooter"}, {"bike_id": "91147e18212e7e97a239e64644a9f190", "is_reserved": 0, "fusion_lon": 0.0, "lat": 38.916631333333335, "is_disabled": 0, "name": "91147e18212e7e97a239e64644a9f190", "fusion_lat": 0.0, "rental_uris": {"ios": "https://dc.lft.to/lastmile_qr_scan", "android": "https://dc.lft.to/lastmile_qr_scan"}, "lon": -77.04182116666667, "type": "electric_scooter"}, {"bike_id": "2520b161c09f25ab453966cb5d42c75e", "is_reserved": 0, "fusion_lon": 0.0, "lat": 38.90222983333334, "is_disabled": 0, "name": "2520b161c09f25ab453966cb5d42c75e", "fusion_lat": 0.0, "rental_uris": {"ios": "https://dc.lft.to/lastmile_qr_scan", "android": "https://dc.lft.to/lastmile_qr_scan"}, "lon": -77.03285816666667, "type": "electric_scooter"}, {"bike_id": "a52147aa114205aa7a3883e098efca3e", "is_reserved": 0, "fusion_lon": 0.0, "lat": 38.9334355, "is_disabled": 0, "name": "a52147aa114205aa7a3883e098efca3e", "fusion_lat": 0.0, "rental_uris": {"ios": "https://dc.lft.to/lastmile_qr_scan", "android": "https://dc.lft.to/lastmile_qr_scan"}, "lon": -77.06940866666666, "type": "electric_scooter"}, {"bike_id": "3c715337b82b8868c441cf2773e99773", "is_reserved": 0, "fusion_lon": 0.0, "lat": 38.9027305, "is_disabled": 0, "name": "3c715337b82b8868c441cf2773e99773", "fusion_lat": 0.0, "rental_uris": {"ios": "https://dc.lft.to/lastmile_qr_scan", "android": "https://dc.lft.to/lastmile_qr_scan"}, "lon": -77.03839183333334, "type": "electric_scooter"}, {"bike_id": "038e4d203bd062f10272181c3434a2e4", "is_reserved": 0, "fusion_lon": 0.0, "lat": 38.92864466666666, "is_disabled": 0, "name": "038e4d203bd062f10272181c3434a2e4", "fusion_lat": 0.0, "rental_uris": {"ios": "https://dc.lft.to/lastmile_qr_scan", "android": "https://dc.lft.to/lastmile_qr_scan"}, "lon": -77.03240766666667, "type": "electric_scooter"}, {"bike_id": "d56bf5a1ba9806e82ad1df7ae7487070", "is_reserved": 0, "fusion_lon": 0.0, "lat": 38.91798883333333, "is_disabled": 0, "name": "d56bf5a1ba9806e82ad1df7ae7487070", "fusion_lat": 0.0, "rental_uris": {"ios": "https://dc.lft.to/lastmile_qr_scan", "android": "https://dc.lft.to/lastmile_qr_scan"}, "lon": -77.06833383333333, "type": "electric_scooter"}, {"bike_id": "d5ac776c59dfc4abf5f21f45c015a4cc", "is_reserved": 0, "fusion_lon": 0.0, "lat": 38.8847665, "is_disabled": 0, "name": "d5ac776c59dfc4abf5f21f45c015a4cc", "fusion_lat": 0.0, "rental_uris": {"ios": "https://dc.lft.to/lastmile_qr_scan", "android": "https://dc.lft.to/lastmile_qr_scan"}, "lon": -77.03363, "type": "electric_scooter"}, {"bike_id": "427ab3817e42954f43f7d1c3a54de57e", "is_reserved": 0, "fusion_lon": 0.0, "lat": 38.8885185, "is_disabled": 0, "name": "427ab3817e42954f43f7d1c3a54de57e", "fusion_lat": 0.0, "rental_uris": {"ios": "https://dc.lft.to/lastmile_qr_scan", "android": "https://dc.lft.to/lastmile_qr_scan"}, "lon": -77.0011865, "type": "electric_scooter"}, {"bike_id": "fe9695a039fb910b8bcf14c5c68a7767", "is_reserved": 0, "fusion_lon": 0.0, "lat": 38.8922235, "is_disabled": 0, "name": "fe9695a039fb910b8bcf14c5c68a7767", "fusion_lat": 0.0, "rental_uris": {"ios": "https://dc.lft.to/lastmile_qr_scan", "android": "https://dc.lft.to/lastmile_qr_scan"}, "lon": -77.04508616666666, "type": "electric_scooter"}, {"bike_id": "ca919aa769635fe106c5ebe4236a780e", "is_reserved": 0, "fusion_lon": 0.0, "lat": 38.920996, "is_disabled": 0, "name": "ca919aa769635fe106c5ebe4236a780e", "fusion_lat": 0.0, "rental_uris": {"ios": "https://dc.lft.to/lastmile_qr_scan", "android": "https://dc.lft.to/lastmile_qr_scan"}, "lon": -77.06336233333333, "type": "electric_scooter"}, {"bike_id": "83633f3e085eca1cd97e1ac86da8b01f", "is_reserved": 0, "fusion_lon": 0.0, "lat": 38.90006016666667, "is_disabled": 0, "name": "83633f3e085eca1cd97e1ac86da8b01f", "fusion_lat": 0.0, "rental_uris": {"ios": "https://dc.lft.to/lastmile_qr_scan", "android": "https://dc.lft.to/lastmile_qr_scan"}, "lon": -77.002138, "type": "electric_scooter"}, {"bike_id": "58347372eecaeacd0c9e2f192e61f50a", "is_reserved": 0, "fusion_lon": 0.0, "lat": 38.866638333333334, "is_disabled": 0, "name": "58347372eecaeacd0c9e2f192e61f50a", "fusion_lat": 0.0, "rental_uris": {"ios": "https://dc.lft.to/lastmile_qr_scan", "android": "https://dc.lft.to/lastmile_qr_scan"}, "lon": -76.98902466666667, "type": "electric_scooter"}, {"bike_id": "7028f581d1fd7acf32d0a3f09b130805", "is_reserved": 0, "fusion_lon": 0.0, "lat": 38.91791116666667, "is_disabled": 0, "name": "7028f581d1fd7acf32d0a3f09b130805", "fusion_lat": 0.0, "rental_uris": {"ios": "https://dc.lft.to/lastmile_qr_scan", "android": "https://dc.lft.to/lastmile_qr_scan"}, "lon": -77.04162983333333, "type": "electric_scooter"}, {"bike_id": "1e37e6bc08108c8438ee427fd97c8987", "is_reserved": 0, "fusion_lon": 0.0, "lat": 38.90253833333333, "is_disabled": 0, "name": "1e37e6bc08108c8438ee427fd97c8987", "fusion_lat": 0.0, "rental_uris": {"ios": "https://dc.lft.to/lastmile_qr_scan", "android": "https://dc.lft.to/lastmile_qr_scan"}, "lon": -77.01764766666666, "type": "electric_scooter"}, {"bike_id": "501e39cb726af02e0da0153a14261a95", "is_reserved": 0, "fusion_lon": 0.0, "lat": 38.92038183333333, "is_disabled": 0, "name": "501e39cb726af02e0da0153a14261a95", "fusion_lat": 0.0, "rental_uris": {"ios": "https://dc.lft.to/lastmile_qr_scan", "android": "https://dc.lft.to/lastmile_qr_scan"}, "lon": -76.9994415, "type": "electric_scooter"}, {"bike_id": "fe2732feb9c7185f63ca7cc816ad2dc0", "is_reserved": 0, "fusion_lon": 0.0, "lat": 38.92357666666667, "is_disabled": 0, "name": "fe2732feb9c7185f63ca7cc816ad2dc0", "fusion_lat": 0.0, "rental_uris": {"ios": "https://dc.lft.to/lastmile_qr_scan", "android": "https://dc.lft.to/lastmile_qr_scan"}, "lon": -77.05128283333333, "type": "electric_scooter"}, {"bike_id": "92b28e098ab414e785cb1c805a9d7233", "is_reserved": 0, "fusion_lon": 0.0, "lat": 38.872424, "is_disabled": 0, "name": "92b28e098ab414e785cb1c805a9d7233", "fusion_lat": 0.0, "rental_uris": {"ios": "https://dc.lft.to/lastmile_qr_scan", "android": "https://dc.lft.to/lastmile_qr_scan"}, "lon": -76.9772635, "type": "electric_scooter"}, {"bike_id": "27d5ca42b9161a3a69215b209b2dccc1", "is_reserved": 0, "fusion_lon": 0.0, "lat": 38.89222, "is_disabled": 0, "name": "27d5ca42b9161a3a69215b209b2dccc1", "fusion_lat": 0.0, "rental_uris": {"ios": "https://dc.lft.to/lastmile_qr_scan", "android": "https://dc.lft.to/lastmile_qr_scan"}, "lon": -77.04330766666666, "type": "electric_scooter"}, {"bike_id": "2a70fa4177e89553e4f4cb8cefc42743", "is_reserved": 0, "fusion_lon": 0.0, "lat": 38.9015725, "is_disabled": 0, "name": "2a70fa4177e89553e4f4cb8cefc42743", "fusion_lat": 0.0, "rental_uris": {"ios": "https://dc.lft.to/lastmile_qr_scan", "android": "https://dc.lft.to/lastmile_qr_scan"}, "lon": -76.98074116666666, "type": "electric_scooter"}, {"bike_id": "2b4e1a590e93f3fae5f95dc2580b6721", "is_reserved": 0, "fusion_lon": 0.0, "lat": 38.9212295, "is_disabled": 0, "name": "2b4e1a590e93f3fae5f95dc2580b6721", "fusion_lat": 0.0, "rental_uris": {"ios": "https://dc.lft.to/lastmile_qr_scan", "android": "https://dc.lft.to/lastmile_qr_scan"}, "lon": -77.03646833333333, "type": "electric_scooter"}, {"bike_id": "7ee50fc5dfc9450021acf247a488cbb9", "is_reserved": 0, "fusion_lon": 0.0, "lat": 38.917282, "is_disabled": 0, "name": "7ee50fc5dfc9450021acf247a488cbb9", "fusion_lat": 0.0, "rental_uris": {"ios": "https://dc.lft.to/lastmile_qr_scan", "android": "https://dc.lft.to/lastmile_qr_scan"}, "lon": -77.03660733333334, "type": "electric_scooter"}, {"bike_id": "127acab8d15f34a07be442c210059327", "is_reserved": 0, "fusion_lon": 0.0, "lat": 38.921207, "is_disabled": 0, "name": "127acab8d15f34a07be442c210059327", "fusion_lat": 0.0, "rental_uris": {"ios": "https://dc.lft.to/lastmile_qr_scan", "android": "https://dc.lft.to/lastmile_qr_scan"}, "lon": -77.01791883333334, "type": "electric_scooter"}, {"bike_id": "902640efe17230ea6d167514155fb4e6", "is_reserved": 0, "fusion_lon": 0.0, "lat": 38.8788845, "is_disabled": 0, "name": "902640efe17230ea6d167514155fb4e6", "fusion_lat": 0.0, "rental_uris": {"ios": "https://dc.lft.to/lastmile_qr_scan", "android": "https://dc.lft.to/lastmile_qr_scan"}, "lon": -76.99160733333333, "type": "electric_scooter"}, {"bike_id": "146fc23ca408e8795e0a3f44a156f274", "is_reserved": 0, "fusion_lon": 0.0, "lat": 38.921574166666666, "is_disabled": 0, "name": "146fc23ca408e8795e0a3f44a156f274", "fusion_lat": 0.0, "rental_uris": {"ios": "https://dc.lft.to/lastmile_qr_scan", "android": "https://dc.lft.to/lastmile_qr_scan"}, "lon": -77.03545966666667, "type": "electric_scooter"}, {"bike_id": "d2e0d700eda062f51704304709e701f1", "is_reserved": 0, "fusion_lon": 0.0, "lat": 38.9031625, "is_disabled": 0, "name": "d2e0d700eda062f51704304709e701f1", "fusion_lat": 0.0, "rental_uris": {"ios": "https://dc.lft.to/lastmile_qr_scan", "android": "https://dc.lft.to/lastmile_qr_scan"}, "lon": -77.03748866666666, "type": "electric_scooter"}, {"bike_id": "d2a3daf0b80062d6d786b1171285aece", "is_reserved": 0, "fusion_lon": 0.0, "lat": 38.91399933333334, "is_disabled": 0, "name": "d2a3daf0b80062d6d786b1171285aece", "fusion_lat": 0.0, "rental_uris": {"ios": "https://dc.lft.to/lastmile_qr_scan", "android": "https://dc.lft.to/lastmile_qr_scan"}, "lon": -77.01844283333334, "type": "electric_scooter"}, {"bike_id": "d0e64f4e18ba84660f0c7eac0662d0b3", "is_reserved": 0, "fusion_lon": 0.0, "lat": 38.909477, "is_disabled": 0, "name": "d0e64f4e18ba84660f0c7eac0662d0b3", "fusion_lat": 0.0, "rental_uris": {"ios": "https://dc.lft.to/lastmile_qr_scan", "android": "https://dc.lft.to/lastmile_qr_scan"}, "lon": -77.04494816666667, "type": "electric_scooter"}, {"bike_id": "4d67ac71bf3b0788c21380b16608b097", "is_reserved": 0, "fusion_lon": 0.0, "lat": 38.92042033333333, "is_disabled": 0, "name": "4d67ac71bf3b0788c21380b16608b097", "fusion_lat": 0.0, "rental_uris": {"ios": "https://dc.lft.to/lastmile_qr_scan", "android": "https://dc.lft.to/lastmile_qr_scan"}, "lon": -76.97906716666667, "type": "electric_scooter"}, {"bike_id": "8605a4204acf0b81f28eca173ef60b83", "is_reserved": 0, "fusion_lon": 0.0, "lat": 38.906119333333336, "is_disabled": 0, "name": "8605a4204acf0b81f28eca173ef60b83", "fusion_lat": 0.0, "rental_uris": {"ios": "https://dc.lft.to/lastmile_qr_scan", "android": "https://dc.lft.to/lastmile_qr_scan"}, "lon": -77.03969983333333, "type": "electric_scooter"}, {"bike_id": "c1bc66a82af126ed050e3f25654f51ab", "is_reserved": 0, "fusion_lon": 0.0, "lat": 38.90264066666667, "is_disabled": 0, "name": "c1bc66a82af126ed050e3f25654f51ab", "fusion_lat": 0.0, "rental_uris": {"ios": "https://dc.lft.to/lastmile_qr_scan", "android": "https://dc.lft.to/lastmile_qr_scan"}, "lon": -77.038482, "type": "electric_scooter"}, {"bike_id": "b1716f63c38d1a60f0495dea001a715b", "is_reserved": 0, "fusion_lon": 0.0, "lat": 38.8849, "is_disabled": 0, "name": "b1716f63c38d1a60f0495dea001a715b", "fusion_lat": 0.0, "rental_uris": {"ios": "https://dc.lft.to/lastmile_qr_scan", "android": "https://dc.lft.to/lastmile_qr_scan"}, "lon": -77.00709466666666, "type": "electric_scooter"}, {"bike_id": "fdbf255b85740d71f8e176f6205b465f", "is_reserved": 0, "fusion_lon": 0.0, "lat": 38.916787166666666, "is_disabled": 0, "name": "fdbf255b85740d71f8e176f6205b465f", "fusion_lat": 0.0, "rental_uris": {"ios": "https://dc.lft.to/lastmile_qr_scan", "android": "https://dc.lft.to/lastmile_qr_scan"}, "lon": -77.03763916666666, "type": "electric_scooter"}, {"bike_id": "b190e15f1e7a29113405e5706956f93e", "is_reserved": 0, "fusion_lon": 0.0, "lat": 38.88497366666667, "is_disabled": 0, "name": "b190e15f1e7a29113405e5706956f93e", "fusion_lat": 0.0, "rental_uris": {"ios": "https://dc.lft.to/lastmile_qr_scan", "android": "https://dc.lft.to/lastmile_qr_scan"}, "lon": -77.005645, "type": "electric_scooter"}, {"bike_id": "0b04850520e0f611344c4920e76ae664", "is_reserved": 0, "fusion_lon": 0.0, "lat": 38.9037055, "is_disabled": 0, "name": "0b04850520e0f611344c4920e76ae664", "fusion_lat": 0.0, "rental_uris": {"ios": "https://dc.lft.to/lastmile_qr_scan", "android": "https://dc.lft.to/lastmile_qr_scan"}, "lon": -77.02998483333333, "type": "electric_scooter"}, {"bike_id": "c9b1ff10fc4d06c0039416eb7dca753d", "is_reserved": 0, "fusion_lon": 0.0, "lat": 38.92856483333333, "is_disabled": 0, "name": "c9b1ff10fc4d06c0039416eb7dca753d", "fusion_lat": 0.0, "rental_uris": {"ios": "https://dc.lft.to/lastmile_qr_scan", "android": "https://dc.lft.to/lastmile_qr_scan"}, "lon": -77.03713233333333, "type": "electric_scooter"}, {"bike_id": "7063583b8d93ca3a29f8f10dcbb19879", "is_reserved": 0, "fusion_lon": 0.0, "lat": 38.91728616666666, "is_disabled": 0, "name": "7063583b8d93ca3a29f8f10dcbb19879", "fusion_lat": 0.0, "rental_uris": {"ios": "https://dc.lft.to/lastmile_qr_scan", "android": "https://dc.lft.to/lastmile_qr_scan"}, "lon": -77.01712616666667, "type": "electric_scooter"}, {"bike_id": "d115c458ad571fa4499c8d739c977fb3", "is_reserved": 0, "fusion_lon": 0.0, "lat": 38.909647, "is_disabled": 0, "name": "d115c458ad571fa4499c8d739c977fb3", "fusion_lat": 0.0, "rental_uris": {"ios": "https://dc.lft.to/lastmile_qr_scan", "android": "https://dc.lft.to/lastmile_qr_scan"}, "lon": -77.03458083333334, "type": "electric_scooter"}, {"bike_id": "6713c0d9531e549f671704c271fa5676", "is_reserved": 0, "fusion_lon": 0.0, "lat": 38.906568, "is_disabled": 0, "name": "6713c0d9531e549f671704c271fa5676", "fusion_lat": 0.0, "rental_uris": {"ios": "https://dc.lft.to/lastmile_qr_scan", "android": "https://dc.lft.to/lastmile_qr_scan"}, "lon": -77.039007, "type": "electric_scooter"}, {"bike_id": "ed91e48ff970806c624accb836d02d3b", "is_reserved": 0, "fusion_lon": 0.0, "lat": 38.93856516666666, "is_disabled": 0, "name": "ed91e48ff970806c624accb836d02d3b", "fusion_lat": 0.0, "rental_uris": {"ios": "https://dc.lft.to/lastmile_qr_scan", "android": "https://dc.lft.to/lastmile_qr_scan"}, "lon": -77.024622, "type": "electric_scooter"}, {"bike_id": "ceb4652d73dd4f419cf6e9dc600cc0e3", "is_reserved": 0, "fusion_lon": 0.0, "lat": 38.909574166666665, "is_disabled": 0, "name": "ceb4652d73dd4f419cf6e9dc600cc0e3", "fusion_lat": 0.0, "rental_uris": {"ios": "https://dc.lft.to/lastmile_qr_scan", "android": "https://dc.lft.to/lastmile_qr_scan"}, "lon": -77.0402805, "type": "electric_scooter"}, {"bike_id": "b0d757b6e5c06ab61d35b18463ef8755", "is_reserved": 0, "fusion_lon": 0.0, "lat": 38.957352666666665, "is_disabled": 0, "name": "b0d757b6e5c06ab61d35b18463ef8755", "fusion_lat": 0.0, "rental_uris": {"ios": "https://dc.lft.to/lastmile_qr_scan", "android": "https://dc.lft.to/lastmile_qr_scan"}, "lon": -77.023898, "type": "electric_scooter"}, {"bike_id": "45d82cf61dea289e2ce74eb548cd6bd9", "is_reserved": 0, "fusion_lon": 0.0, "lat": 38.912138, "is_disabled": 0, "name": "45d82cf61dea289e2ce74eb548cd6bd9", "fusion_lat": 0.0, "rental_uris": {"ios": "https://dc.lft.to/lastmile_qr_scan", "android": "https://dc.lft.to/lastmile_qr_scan"}, "lon": -77.0280045, "type": "electric_scooter"}, {"bike_id": "bf48714e2f20b8317f9dd30f018e4c95", "is_reserved": 0, "fusion_lon": 0.0, "lat": 38.91549783333333, "is_disabled": 0, "name": "bf48714e2f20b8317f9dd30f018e4c95", "fusion_lat": 0.0, "rental_uris": {"ios": "https://dc.lft.to/lastmile_qr_scan", "android": "https://dc.lft.to/lastmile_qr_scan"}, "lon": -77.039305, "type": "electric_scooter"}, {"bike_id": "6f6c77563495e77364b1ef216b1d8fda", "is_reserved": 0, "fusion_lon": 0.0, "lat": 39.051875333333335, "is_disabled": 0, "name": "6f6c77563495e77364b1ef216b1d8fda", "fusion_lat": 0.0, "rental_uris": {"ios": "https://dc.lft.to/lastmile_qr_scan", "android": "https://dc.lft.to/lastmile_qr_scan"}, "lon": -77.10925316666666, "type": "electric_bike"}, {"bike_id": "3b0f56fb4db6b263888a95085021924c", "is_reserved": 0, "fusion_lon": 0.0, "lat": 38.90346383333333, "is_disabled": 0, "name": "3b0f56fb4db6b263888a95085021924c", "fusion_lat": 0.0, "rental_uris": {"ios": "https://dc.lft.to/lastmile_qr_scan", "android": "https://dc.lft.to/lastmile_qr_scan"}, "lon": -77.00906983333333, "type": "electric_scooter"}, {"bike_id": "cfe6076a05881f99a689fab7a1d6e15d", "is_reserved": 0, "fusion_lon": 0.0, "lat": 38.8960475, "is_disabled": 0, "name": "cfe6076a05881f99a689fab7a1d6e15d", "fusion_lat": 0.0, "rental_uris": {"ios": "https://dc.lft.to/lastmile_qr_scan", "android": "https://dc.lft.to/lastmile_qr_scan"}, "lon": -77.00929266666667, "type": "electric_scooter"}, {"bike_id": "f5488466abf970607bb1d9ec89732cce", "is_reserved": 0, "fusion_lon": 0.0, "lat": 38.9221035, "is_disabled": 0, "name": "f5488466abf970607bb1d9ec89732cce", "fusion_lat": 0.0, "rental_uris": {"ios": "https://dc.lft.to/lastmile_qr_scan", "android": "https://dc.lft.to/lastmile_qr_scan"}, "lon": -77.03658616666667, "type": "electric_scooter"}, {"bike_id": "9b0f3be16a26c75f01d7e883f45ab1ce", "is_reserved": 0, "fusion_lon": 0.0, "lat": 38.909887, "is_disabled": 0, "name": "9b0f3be16a26c75f01d7e883f45ab1ce", "fusion_lat": 0.0, "rental_uris": {"ios": "https://dc.lft.to/lastmile_qr_scan", "android": "https://dc.lft.to/lastmile_qr_scan"}, "lon": -77.04007016666667, "type": "electric_scooter"}, {"bike_id": "b257bf2ba336befb7b6d5518976ace70", "is_reserved": 0, "fusion_lon": 0.0, "lat": 38.901146, "is_disabled": 0, "name": "b257bf2ba336befb7b6d5518976ace70", "fusion_lat": 0.0, "rental_uris": {"ios": "https://dc.lft.to/lastmile_qr_scan", "android": "https://dc.lft.to/lastmile_qr_scan"}, "lon": -77.04240066666667, "type": "electric_scooter"}, {"bike_id": "2efc34dcfea35f6ba4507df5edcf7975", "is_reserved": 0, "fusion_lon": 0.0, "lat": 38.9279895, "is_disabled": 0, "name": "2efc34dcfea35f6ba4507df5edcf7975", "fusion_lat": 0.0, "rental_uris": {"ios": "https://dc.lft.to/lastmile_qr_scan", "android": "https://dc.lft.to/lastmile_qr_scan"}, "lon": -77.03258283333334, "type": "electric_scooter"}, {"bike_id": "b2da16a12598f65cd9b94b8fd949ef5e", "is_reserved": 0, "fusion_lon": 0.0, "lat": 38.898308166666666, "is_disabled": 0, "name": "b2da16a12598f65cd9b94b8fd949ef5e", "fusion_lat": 0.0, "rental_uris": {"ios": "https://dc.lft.to/lastmile_qr_scan", "android": "https://dc.lft.to/lastmile_qr_scan"}, "lon": -76.94637316666666, "type": "electric_scooter"}, {"bike_id": "a71568a70ff2f590d5b3b730ee89f13e", "is_reserved": 0, "fusion_lon": 0.0, "lat": 38.93437333333333, "is_disabled": 0, "name": "a71568a70ff2f590d5b3b730ee89f13e", "fusion_lat": 0.0, "rental_uris": {"ios": "https://dc.lft.to/lastmile_qr_scan", "android": "https://dc.lft.to/lastmile_qr_scan"}, "lon": -77.07253666666666, "type": "electric_scooter"}, {"bike_id": "d1b0d4fd5f77f0cad5ae48912c7a5863", "is_reserved": 0, "fusion_lon": 0.0, "lat": 38.908457, "is_disabled": 0, "name": "d1b0d4fd5f77f0cad5ae48912c7a5863", "fusion_lat": 0.0, "rental_uris": {"ios": "https://dc.lft.to/lastmile_qr_scan", "android": "https://dc.lft.to/lastmile_qr_scan"}, "lon": -77.055389, "type": "electric_bike"}, {"bike_id": "dfa45efe10f3062c8c6a5b2daa33f539", "is_reserved": 0, "fusion_lon": 0.0, "lat": 38.903030333333334, "is_disabled": 0, "name": "dfa45efe10f3062c8c6a5b2daa33f539", "fusion_lat": 0.0, "rental_uris": {"ios": "https://dc.lft.to/lastmile_qr_scan", "android": "https://dc.lft.to/lastmile_qr_scan"}, "lon": -77.05175166666666, "type": "electric_scooter"}, {"bike_id": "dc1b75fdd2061baaa8a7e95dd0173cf2", "is_reserved": 0, "fusion_lon": 0.0, "lat": 38.8972995, "is_disabled": 0, "name": "dc1b75fdd2061baaa8a7e95dd0173cf2", "fusion_lat": 0.0, "rental_uris": {"ios": "https://dc.lft.to/lastmile_qr_scan", "android": "https://dc.lft.to/lastmile_qr_scan"}, "lon": -77.05577816666667, "type": "electric_scooter"}, {"bike_id": "00996d90bb967fac508289a3248aea0d", "is_reserved": 0, "fusion_lon": 0.0, "lat": 38.926670333333334, "is_disabled": 0, "name": "00996d90bb967fac508289a3248aea0d", "fusion_lat": 0.0, "rental_uris": {"ios": "https://dc.lft.to/lastmile_qr_scan", "android": "https://dc.lft.to/lastmile_qr_scan"}, "lon": -76.9953925, "type": "electric_scooter"}, {"bike_id": "0a7f178aaed9d2ffad6f9fa4cbdf2a6f", "is_reserved": 0, "fusion_lon": 0.0, "lat": 38.903623833333334, "is_disabled": 0, "name": "0a7f178aaed9d2ffad6f9fa4cbdf2a6f", "fusion_lat": 0.0, "rental_uris": {"ios": "https://dc.lft.to/lastmile_qr_scan", "android": "https://dc.lft.to/lastmile_qr_scan"}, "lon": -77.04342533333333, "type": "electric_scooter"}, {"bike_id": "216a577db9becb3d133c283c9deb542e", "is_reserved": 0, "fusion_lon": 0.0, "lat": 38.89807866666666, "is_disabled": 0, "name": "216a577db9becb3d133c283c9deb542e", "fusion_lat": 0.0, "rental_uris": {"ios": "https://dc.lft.to/lastmile_qr_scan", "android": "https://dc.lft.to/lastmile_qr_scan"}, "lon": -77.0326575, "type": "electric_scooter"}, {"bike_id": "ad76ea8b3572bf680ccbb07effa6749b", "is_reserved": 0, "fusion_lon": 0.0, "lat": 38.89849783333333, "is_disabled": 0, "name": "ad76ea8b3572bf680ccbb07effa6749b", "fusion_lat": 0.0, "rental_uris": {"ios": "https://dc.lft.to/lastmile_qr_scan", "android": "https://dc.lft.to/lastmile_qr_scan"}, "lon": -77.0073625, "type": "electric_scooter"}, {"bike_id": "967b27c529d6dc9d8b3c05430d597095", "is_reserved": 0, "fusion_lon": 0.0, "lat": 38.87632083333333, "is_disabled": 0, "name": "967b27c529d6dc9d8b3c05430d597095", "fusion_lat": 0.0, "rental_uris": {"ios": "https://dc.lft.to/lastmile_qr_scan", "android": "https://dc.lft.to/lastmile_qr_scan"}, "lon": -76.96527716666667, "type": "electric_scooter"}, {"bike_id": "55a2a65375832078c7b62f17f238e62c", "is_reserved": 0, "fusion_lon": 0.0, "lat": 38.8738265, "is_disabled": 0, "name": "55a2a65375832078c7b62f17f238e62c", "fusion_lat": 0.0, "rental_uris": {"ios": "https://dc.lft.to/lastmile_qr_scan", "android": "https://dc.lft.to/lastmile_qr_scan"}, "lon": -77.00089283333334, "type": "electric_scooter"}, {"bike_id": "90050f66cca5c9f2e50b9986c7aa3ebc", "is_reserved": 0, "fusion_lon": 0.0, "lat": 38.89327733333333, "is_disabled": 0, "name": "90050f66cca5c9f2e50b9986c7aa3ebc", "fusion_lat": 0.0, "rental_uris": {"ios": "https://dc.lft.to/lastmile_qr_scan", "android": "https://dc.lft.to/lastmile_qr_scan"}, "lon": -76.9298625, "type": "electric_scooter"}, {"bike_id": "6179ea2c2bdfb3c9a6c72c900659faa6", "is_reserved": 0, "fusion_lon": 0.0, "lat": 38.905085666666665, "is_disabled": 0, "name": "6179ea2c2bdfb3c9a6c72c900659faa6", "fusion_lat": 0.0, "rental_uris": {"ios": "https://dc.lft.to/lastmile_qr_scan", "android": "https://dc.lft.to/lastmile_qr_scan"}, "lon": -77.051299, "type": "electric_scooter"}, {"bike_id": "6f2808b91a3e543b772f2bbfcbb3b3fe", "is_reserved": 0, "fusion_lon": 0.0, "lat": 38.91688283333333, "is_disabled": 0, "name": "6f2808b91a3e543b772f2bbfcbb3b3fe", "fusion_lat": 0.0, "rental_uris": {"ios": "https://dc.lft.to/lastmile_qr_scan", "android": "https://dc.lft.to/lastmile_qr_scan"}, "lon": -77.032106, "type": "electric_scooter"}, {"bike_id": "040f4eb5dca75db3c47d02127df6e7f2", "is_reserved": 0, "fusion_lon": 0.0, "lat": 38.915415833333334, "is_disabled": 0, "name": "040f4eb5dca75db3c47d02127df6e7f2", "fusion_lat": 0.0, "rental_uris": {"ios": "https://dc.lft.to/lastmile_qr_scan", "android": "https://dc.lft.to/lastmile_qr_scan"}, "lon": -77.02152733333334, "type": "electric_scooter"}, {"bike_id": "ffc398c2e805db53de88f4b0abdddde6", "is_reserved": 0, "fusion_lon": 0.0, "lat": 38.878611666666664, "is_disabled": 0, "name": "ffc398c2e805db53de88f4b0abdddde6", "fusion_lat": 0.0, "rental_uris": {"ios": "https://dc.lft.to/lastmile_qr_scan", "android": "https://dc.lft.to/lastmile_qr_scan"}, "lon": -76.98988016666667, "type": "electric_scooter"}, {"bike_id": "5d14ff69f28de1046ab902ea4344c2db", "is_reserved": 0, "fusion_lon": 0.0, "lat": 38.94418016666667, "is_disabled": 0, "name": "5d14ff69f28de1046ab902ea4344c2db", "fusion_lat": 0.0, "rental_uris": {"ios": "https://dc.lft.to/lastmile_qr_scan", "android": "https://dc.lft.to/lastmile_qr_scan"}, "lon": -76.992049, "type": "electric_scooter"}, {"bike_id": "d6a0d32c0b0985321bf1ad9f761ec676", "is_reserved": 0, "fusion_lon": 0.0, "lat": 38.905932666666665, "is_disabled": 0, "name": "d6a0d32c0b0985321bf1ad9f761ec676", "fusion_lat": 0.0, "rental_uris": {"ios": "https://dc.lft.to/lastmile_qr_scan", "android": "https://dc.lft.to/lastmile_qr_scan"}, "lon": -77.04120466666667, "type": "electric_scooter"}, {"bike_id": "d8bb85f22635e76ddeaa052abb29e175", "is_reserved": 0, "fusion_lon": 0.0, "lat": 38.900323666666665, "is_disabled": 0, "name": "d8bb85f22635e76ddeaa052abb29e175", "fusion_lat": 0.0, "rental_uris": {"ios": "https://dc.lft.to/lastmile_qr_scan", "android": "https://dc.lft.to/lastmile_qr_scan"}, "lon": -77.04325766666666, "type": "electric_scooter"}, {"bike_id": "c6a02b20ad3c32c9886402e8059f80fa", "is_reserved": 0, "fusion_lon": 0.0, "lat": 38.92817466666666, "is_disabled": 0, "name": "c6a02b20ad3c32c9886402e8059f80fa", "fusion_lat": 0.0, "rental_uris": {"ios": "https://dc.lft.to/lastmile_qr_scan", "android": "https://dc.lft.to/lastmile_qr_scan"}, "lon": -77.03709533333334, "type": "electric_scooter"}, {"bike_id": "e7e4dd18d628feda5fbfed0b8fa7f810", "is_reserved": 0, "fusion_lon": 0.0, "lat": 38.902874, "is_disabled": 0, "name": "e7e4dd18d628feda5fbfed0b8fa7f810", "fusion_lat": 0.0, "rental_uris": {"ios": "https://dc.lft.to/lastmile_qr_scan", "android": "https://dc.lft.to/lastmile_qr_scan"}, "lon": -77.03456533333333, "type": "electric_scooter"}, {"bike_id": "3909e996b9db46bbcffa588bdfc4d7e1", "is_reserved": 0, "fusion_lon": 0.0, "lat": 38.9225035, "is_disabled": 0, "name": "3909e996b9db46bbcffa588bdfc4d7e1", "fusion_lat": 0.0, "rental_uris": {"ios": "https://dc.lft.to/lastmile_qr_scan", "android": "https://dc.lft.to/lastmile_qr_scan"}, "lon": -77.03195416666667, "type": "electric_scooter"}, {"bike_id": "fa8d07861f6c6b5759fb2c7d601a8fc4", "is_reserved": 0, "fusion_lon": 0.0, "lat": 38.9326135, "is_disabled": 0, "name": "fa8d07861f6c6b5759fb2c7d601a8fc4", "fusion_lat": 0.0, "rental_uris": {"ios": "https://dc.lft.to/lastmile_qr_scan", "android": "https://dc.lft.to/lastmile_qr_scan"}, "lon": -77.03266483333333, "type": "electric_scooter"}, {"bike_id": "15f927e4de37ac0075c4e98de4232474", "is_reserved": 0, "fusion_lon": 0.0, "lat": 38.91733083333333, "is_disabled": 0, "name": "15f927e4de37ac0075c4e98de4232474", "fusion_lat": 0.0, "rental_uris": {"ios": "https://dc.lft.to/lastmile_qr_scan", "android": "https://dc.lft.to/lastmile_qr_scan"}, "lon": -77.00798266666666, "type": "electric_scooter"}, {"bike_id": "f1e52bec6876705e7a7442241b0c4842", "is_reserved": 0, "fusion_lon": 0.0, "lat": 38.88120266666667, "is_disabled": 0, "name": "f1e52bec6876705e7a7442241b0c4842", "fusion_lat": 0.0, "rental_uris": {"ios": "https://dc.lft.to/lastmile_qr_scan", "android": "https://dc.lft.to/lastmile_qr_scan"}, "lon": -77.0009835, "type": "electric_scooter"}, {"bike_id": "f2cc018ac9a75e64ef5754f6c76a9af8", "is_reserved": 0, "fusion_lon": 0.0, "lat": 38.921197666666664, "is_disabled": 0, "name": "f2cc018ac9a75e64ef5754f6c76a9af8", "fusion_lat": 0.0, "rental_uris": {"ios": "https://dc.lft.to/lastmile_qr_scan", "android": "https://dc.lft.to/lastmile_qr_scan"}, "lon": -77.0413475, "type": "electric_scooter"}, {"bike_id": "a5751011edd504b989ab1ef57750a725", "is_reserved": 0, "fusion_lon": 0.0, "lat": 38.900464166666666, "is_disabled": 0, "name": "a5751011edd504b989ab1ef57750a725", "fusion_lat": 0.0, "rental_uris": {"ios": "https://dc.lft.to/lastmile_qr_scan", "android": "https://dc.lft.to/lastmile_qr_scan"}, "lon": -77.00068516666667, "type": "electric_scooter"}, {"bike_id": "3d0f78ee80ae0ac563362e0671630955", "is_reserved": 0, "fusion_lon": 0.0, "lat": 38.88504066666667, "is_disabled": 0, "name": "3d0f78ee80ae0ac563362e0671630955", "fusion_lat": 0.0, "rental_uris": {"ios": "https://dc.lft.to/lastmile_qr_scan", "android": "https://dc.lft.to/lastmile_qr_scan"}, "lon": -77.00566716666667, "type": "electric_scooter"}, {"bike_id": "4856845964e3bb3f18f0be96ec057a49", "is_reserved": 0, "fusion_lon": 0.0, "lat": 38.89342033333333, "is_disabled": 0, "name": "4856845964e3bb3f18f0be96ec057a49", "fusion_lat": 0.0, "rental_uris": {"ios": "https://dc.lft.to/lastmile_qr_scan", "android": "https://dc.lft.to/lastmile_qr_scan"}, "lon": -76.94934483333333, "type": "electric_scooter"}, {"bike_id": "4e75d74b9cbbda5f2c92eff51286b610", "is_reserved": 0, "fusion_lon": 0.0, "lat": 38.90270233333333, "is_disabled": 0, "name": "4e75d74b9cbbda5f2c92eff51286b610", "fusion_lat": 0.0, "rental_uris": {"ios": "https://dc.lft.to/lastmile_qr_scan", "android": "https://dc.lft.to/lastmile_qr_scan"}, "lon": -77.03858533333333, "type": "electric_scooter"}, {"bike_id": "33b7495180205f5e473f1aa59d3648de", "is_reserved": 0, "fusion_lon": 0.0, "lat": 38.919442, "is_disabled": 0, "name": "33b7495180205f5e473f1aa59d3648de", "fusion_lat": 0.0, "rental_uris": {"ios": "https://dc.lft.to/lastmile_qr_scan", "android": "https://dc.lft.to/lastmile_qr_scan"}, "lon": -77.0414675, "type": "electric_scooter"}, {"bike_id": "77cbd91c80e91fbce6a13f2f10422d15", "is_reserved": 0, "fusion_lon": 0.0, "lat": 38.8737325, "is_disabled": 0, "name": "77cbd91c80e91fbce6a13f2f10422d15", "fusion_lat": 0.0, "rental_uris": {"ios": "https://dc.lft.to/lastmile_qr_scan", "android": "https://dc.lft.to/lastmile_qr_scan"}, "lon": -77.11805716666667, "type": "electric_bike"}, {"bike_id": "de197938f28ddd44cec0cc130299cdea", "is_reserved": 0, "fusion_lon": 0.0, "lat": 38.92102916666666, "is_disabled": 0, "name": "de197938f28ddd44cec0cc130299cdea", "fusion_lat": 0.0, "rental_uris": {"ios": "https://dc.lft.to/lastmile_qr_scan", "android": "https://dc.lft.to/lastmile_qr_scan"}, "lon": -77.04377816666667, "type": "electric_scooter"}, {"bike_id": "415afaedd0af422d01761e9647596d64", "is_reserved": 0, "fusion_lon": 0.0, "lat": 38.965587166666666, "is_disabled": 0, "name": "415afaedd0af422d01761e9647596d64", "fusion_lat": 0.0, "rental_uris": {"ios": "https://dc.lft.to/lastmile_qr_scan", "android": "https://dc.lft.to/lastmile_qr_scan"}, "lon": -77.023001, "type": "electric_bike"}, {"bike_id": "650c9ab3a95db2673655973dbc429dbb", "is_reserved": 0, "fusion_lon": 0.0, "lat": 38.923772166666666, "is_disabled": 0, "name": "650c9ab3a95db2673655973dbc429dbb", "fusion_lat": 0.0, "rental_uris": {"ios": "https://dc.lft.to/lastmile_qr_scan", "android": "https://dc.lft.to/lastmile_qr_scan"}, "lon": -77.027434, "type": "electric_bike"}, {"bike_id": "96958d9d674be3d310d6c5a54abe52c7", "is_reserved": 0, "fusion_lon": 0.0, "lat": 38.934281666666664, "is_disabled": 0, "name": "96958d9d674be3d310d6c5a54abe52c7", "fusion_lat": 0.0, "rental_uris": {"ios": "https://dc.lft.to/lastmile_qr_scan", "android": "https://dc.lft.to/lastmile_qr_scan"}, "lon": -76.96508483333334, "type": "electric_scooter"}, {"bike_id": "c9ec015712c0600ed8e34579aecb1b0c", "is_reserved": 0, "fusion_lon": 0.0, "lat": 38.9066365, "is_disabled": 0, "name": "c9ec015712c0600ed8e34579aecb1b0c", "fusion_lat": 0.0, "rental_uris": {"ios": "https://dc.lft.to/lastmile_qr_scan", "android": "https://dc.lft.to/lastmile_qr_scan"}, "lon": -77.02716, "type": "electric_scooter"}, {"bike_id": "8c83a816b1b55a6b8bc2a5d2a86ed560", "is_reserved": 0, "fusion_lon": 0.0, "lat": 38.922129, "is_disabled": 0, "name": "8c83a816b1b55a6b8bc2a5d2a86ed560", "fusion_lat": 0.0, "rental_uris": {"ios": "https://dc.lft.to/lastmile_qr_scan", "android": "https://dc.lft.to/lastmile_qr_scan"}, "lon": -77.0365685, "type": "electric_scooter"}, {"bike_id": "f7c1d67803818b83cce5e3efcac81043", "is_reserved": 0, "fusion_lon": 0.0, "lat": 38.891665833333334, "is_disabled": 0, "name": "f7c1d67803818b83cce5e3efcac81043", "fusion_lat": 0.0, "rental_uris": {"ios": "https://dc.lft.to/lastmile_qr_scan", "android": "https://dc.lft.to/lastmile_qr_scan"}, "lon": -77.01544, "type": "electric_scooter"}, {"bike_id": "51f9e4f1f250dca26d335a312a4c2d12", "is_reserved": 0, "fusion_lon": 0.0, "lat": 38.9016555, "is_disabled": 0, "name": "51f9e4f1f250dca26d335a312a4c2d12", "fusion_lat": 0.0, "rental_uris": {"ios": "https://dc.lft.to/lastmile_qr_scan", "android": "https://dc.lft.to/lastmile_qr_scan"}, "lon": -77.02488783333334, "type": "electric_scooter"}, {"bike_id": "0f2ca1f7962bcd0d4db36176a9d00f4b", "is_reserved": 0, "fusion_lon": 0.0, "lat": 38.87635133333333, "is_disabled": 0, "name": "0f2ca1f7962bcd0d4db36176a9d00f4b", "fusion_lat": 0.0, "rental_uris": {"ios": "https://dc.lft.to/lastmile_qr_scan", "android": "https://dc.lft.to/lastmile_qr_scan"}, "lon": -76.99589916666666, "type": "electric_scooter"}, {"bike_id": "b87a804e2d3377a3b89c445557635f84", "is_reserved": 0, "fusion_lon": 0.0, "lat": 38.8981215, "is_disabled": 0, "name": "b87a804e2d3377a3b89c445557635f84", "fusion_lat": 0.0, "rental_uris": {"ios": "https://dc.lft.to/lastmile_qr_scan", "android": "https://dc.lft.to/lastmile_qr_scan"}, "lon": -77.03320566666666, "type": "electric_scooter"}, {"bike_id": "2a06c1d405cff5940c457136bcf6baab", "is_reserved": 0, "fusion_lon": 0.0, "lat": 38.9967435, "is_disabled": 0, "name": "2a06c1d405cff5940c457136bcf6baab", "fusion_lat": 0.0, "rental_uris": {"ios": "https://dc.lft.to/lastmile_qr_scan", "android": "https://dc.lft.to/lastmile_qr_scan"}, "lon": -77.03780083333334, "type": "electric_bike"}, {"bike_id": "35238ab9b58c9296bafd38b5e569fdf3", "is_reserved": 0, "fusion_lon": 0.0, "lat": 38.88544533333334, "is_disabled": 0, "name": "35238ab9b58c9296bafd38b5e569fdf3", "fusion_lat": 0.0, "rental_uris": {"ios": "https://dc.lft.to/lastmile_qr_scan", "android": "https://dc.lft.to/lastmile_qr_scan"}, "lon": -77.11783866666667, "type": "electric_bike"}, {"bike_id": "211ab77811dcf3aafd69cb2d1b3dae97", "is_reserved": 0, "fusion_lon": 0.0, "lat": 38.918593666666666, "is_disabled": 0, "name": "211ab77811dcf3aafd69cb2d1b3dae97", "fusion_lat": 0.0, "rental_uris": {"ios": "https://dc.lft.to/lastmile_qr_scan", "android": "https://dc.lft.to/lastmile_qr_scan"}, "lon": -77.04175916666667, "type": "electric_scooter"}, {"bike_id": "d89c2b0e5aaea804b40ba36923326513", "is_reserved": 0, "fusion_lon": 0.0, "lat": 38.92547366666667, "is_disabled": 0, "name": "d89c2b0e5aaea804b40ba36923326513", "fusion_lat": 0.0, "rental_uris": {"ios": "https://dc.lft.to/lastmile_qr_scan", "android": "https://dc.lft.to/lastmile_qr_scan"}, "lon": -77.02578616666666, "type": "electric_scooter"}, {"bike_id": "335f9740f57f4485edc6b36ed91f1289", "is_reserved": 0, "fusion_lon": 0.0, "lat": 38.87084383333333, "is_disabled": 0, "name": "335f9740f57f4485edc6b36ed91f1289", "fusion_lat": 0.0, "rental_uris": {"ios": "https://dc.lft.to/lastmile_qr_scan", "android": "https://dc.lft.to/lastmile_qr_scan"}, "lon": -77.01200016666667, "type": "electric_bike"}, {"bike_id": "1878fd026a97863df1cfcac0a001e6a7", "is_reserved": 0, "fusion_lon": 0.0, "lat": 38.87913733333333, "is_disabled": 0, "name": "1878fd026a97863df1cfcac0a001e6a7", "fusion_lat": 0.0, "rental_uris": {"ios": "https://dc.lft.to/lastmile_qr_scan", "android": "https://dc.lft.to/lastmile_qr_scan"}, "lon": -76.995075, "type": "electric_scooter"}, {"bike_id": "20326941fd63d55482dd63c744422293", "is_reserved": 0, "fusion_lon": 0.0, "lat": 38.89683466666666, "is_disabled": 0, "name": "20326941fd63d55482dd63c744422293", "fusion_lat": 0.0, "rental_uris": {"ios": "https://dc.lft.to/lastmile_qr_scan", "android": "https://dc.lft.to/lastmile_qr_scan"}, "lon": -76.99620483333334, "type": "electric_scooter"}, {"bike_id": "42e520b488deb4000bc4c2d98b9e6e06", "is_reserved": 0, "fusion_lon": 0.0, "lat": 38.86816616666667, "is_disabled": 0, "name": "42e520b488deb4000bc4c2d98b9e6e06", "fusion_lat": 0.0, "rental_uris": {"ios": "https://dc.lft.to/lastmile_qr_scan", "android": "https://dc.lft.to/lastmile_qr_scan"}, "lon": -76.98031266666666, "type": "electric_bike"}, {"bike_id": "efece52cb8ca9cdfb25e3513d539ef4a", "is_reserved": 0, "fusion_lon": 0.0, "lat": 38.884486333333335, "is_disabled": 0, "name": "efece52cb8ca9cdfb25e3513d539ef4a", "fusion_lat": 0.0, "rental_uris": {"ios": "https://dc.lft.to/lastmile_qr_scan", "android": "https://dc.lft.to/lastmile_qr_scan"}, "lon": -76.9509655, "type": "electric_scooter"}, {"bike_id": "46a5b38fac727feb6c9cbafdf07153d3", "is_reserved": 0, "fusion_lon": 0.0, "lat": 38.8921895, "is_disabled": 0, "name": "46a5b38fac727feb6c9cbafdf07153d3", "fusion_lat": 0.0, "rental_uris": {"ios": "https://dc.lft.to/lastmile_qr_scan", "android": "https://dc.lft.to/lastmile_qr_scan"}, "lon": -77.04193116666667, "type": "electric_scooter"}, {"bike_id": "7b3e73ef355900cf19c890a3a9a29e69", "is_reserved": 0, "fusion_lon": 0.0, "lat": 38.92874283333333, "is_disabled": 0, "name": "7b3e73ef355900cf19c890a3a9a29e69", "fusion_lat": 0.0, "rental_uris": {"ios": "https://dc.lft.to/lastmile_qr_scan", "android": "https://dc.lft.to/lastmile_qr_scan"}, "lon": -77.01376816666667, "type": "electric_scooter"}, {"bike_id": "4051df63c92f27780ccf288f353da001", "is_reserved": 0, "fusion_lon": 0.0, "lat": 38.896027, "is_disabled": 0, "name": "4051df63c92f27780ccf288f353da001", "fusion_lat": 0.0, "rental_uris": {"ios": "https://dc.lft.to/lastmile_qr_scan", "android": "https://dc.lft.to/lastmile_qr_scan"}, "lon": -77.00927533333333, "type": "electric_scooter"}, {"bike_id": "05d22c97aed13df5bae54fa90b6672f6", "is_reserved": 0, "fusion_lon": 0.0, "lat": 38.92412916666667, "is_disabled": 0, "name": "05d22c97aed13df5bae54fa90b6672f6", "fusion_lat": 0.0, "rental_uris": {"ios": "https://dc.lft.to/lastmile_qr_scan", "android": "https://dc.lft.to/lastmile_qr_scan"}, "lon": -77.036392, "type": "electric_scooter"}, {"bike_id": "1ed06e1400354e3177c7a8d94f41b4ab", "is_reserved": 0, "fusion_lon": 0.0, "lat": 38.89103333333333, "is_disabled": 0, "name": "1ed06e1400354e3177c7a8d94f41b4ab", "fusion_lat": 0.0, "rental_uris": {"ios": "https://dc.lft.to/lastmile_qr_scan", "android": "https://dc.lft.to/lastmile_qr_scan"}, "lon": -76.9870315, "type": "electric_scooter"}, {"bike_id": "30917881a37adc43d1675cb3f2bde918", "is_reserved": 0, "fusion_lon": 0.0, "lat": 38.911311166666664, "is_disabled": 0, "name": "30917881a37adc43d1675cb3f2bde918", "fusion_lat": 0.0, "rental_uris": {"ios": "https://dc.lft.to/lastmile_qr_scan", "android": "https://dc.lft.to/lastmile_qr_scan"}, "lon": -77.03839083333334, "type": "electric_scooter"}, {"bike_id": "99ecb1e770d16cd9a054167d525dd1da", "is_reserved": 0, "fusion_lon": 0.0, "lat": 38.9138965, "is_disabled": 0, "name": "99ecb1e770d16cd9a054167d525dd1da", "fusion_lat": 0.0, "rental_uris": {"ios": "https://dc.lft.to/lastmile_qr_scan", "android": "https://dc.lft.to/lastmile_qr_scan"}, "lon": -77.0045, "type": "electric_scooter"}, {"bike_id": "fb7fa93038a19b20e12baec4e7239056", "is_reserved": 0, "fusion_lon": 0.0, "lat": 38.950990166666664, "is_disabled": 0, "name": "fb7fa93038a19b20e12baec4e7239056", "fusion_lat": 0.0, "rental_uris": {"ios": "https://dc.lft.to/lastmile_qr_scan", "android": "https://dc.lft.to/lastmile_qr_scan"}, "lon": -77.0233725, "type": "electric_scooter"}, {"bike_id": "b7402b8d153aa7e7effc164ab070826d", "is_reserved": 0, "fusion_lon": 0.0, "lat": 38.897172166666664, "is_disabled": 0, "name": "b7402b8d153aa7e7effc164ab070826d", "fusion_lat": 0.0, "rental_uris": {"ios": "https://dc.lft.to/lastmile_qr_scan", "android": "https://dc.lft.to/lastmile_qr_scan"}, "lon": -76.92597083333334, "type": "electric_scooter"}, {"bike_id": "d5a7d92de3e7ba313c1725c585e208c5", "is_reserved": 0, "fusion_lon": 0.0, "lat": 38.89610233333333, "is_disabled": 0, "name": "d5a7d92de3e7ba313c1725c585e208c5", "fusion_lat": 0.0, "rental_uris": {"ios": "https://dc.lft.to/lastmile_qr_scan", "android": "https://dc.lft.to/lastmile_qr_scan"}, "lon": -76.9812365, "type": "electric_scooter"}, {"bike_id": "048c48fa8fb01f964e3861fcfec05a4a", "is_reserved": 0, "fusion_lon": 0.0, "lat": 38.91562, "is_disabled": 0, "name": "048c48fa8fb01f964e3861fcfec05a4a", "fusion_lat": 0.0, "rental_uris": {"ios": "https://dc.lft.to/lastmile_qr_scan", "android": "https://dc.lft.to/lastmile_qr_scan"}, "lon": -77.03155183333334, "type": "electric_scooter"}, {"bike_id": "7713649dccac2567bcd4db518aa463e0", "is_reserved": 0, "fusion_lon": 0.0, "lat": 38.90511816666667, "is_disabled": 0, "name": "7713649dccac2567bcd4db518aa463e0", "fusion_lat": 0.0, "rental_uris": {"ios": "https://dc.lft.to/lastmile_qr_scan", "android": "https://dc.lft.to/lastmile_qr_scan"}, "lon": -77.06221133333334, "type": "electric_scooter"}, {"bike_id": "d071adc811730e5883ead0d10b39c2c5", "is_reserved": 0, "fusion_lon": 0.0, "lat": 38.892480166666665, "is_disabled": 0, "name": "d071adc811730e5883ead0d10b39c2c5", "fusion_lat": 0.0, "rental_uris": {"ios": "https://dc.lft.to/lastmile_qr_scan", "android": "https://dc.lft.to/lastmile_qr_scan"}, "lon": -77.03958183333333, "type": "electric_scooter"}, {"bike_id": "f2c1b41e4e6fee6e7ab93150dffea36d", "is_reserved": 0, "fusion_lon": 0.0, "lat": 38.900080833333334, "is_disabled": 0, "name": "f2c1b41e4e6fee6e7ab93150dffea36d", "fusion_lat": 0.0, "rental_uris": {"ios": "https://dc.lft.to/lastmile_qr_scan", "android": "https://dc.lft.to/lastmile_qr_scan"}, "lon": -76.99016283333333, "type": "electric_scooter"}, {"bike_id": "6edc2acd8a32bb894927ed5fb610ac14", "is_reserved": 0, "fusion_lon": 0.0, "lat": 38.865665166666666, "is_disabled": 0, "name": "6edc2acd8a32bb894927ed5fb610ac14", "fusion_lat": 0.0, "rental_uris": {"ios": "https://dc.lft.to/lastmile_qr_scan", "android": "https://dc.lft.to/lastmile_qr_scan"}, "lon": -76.989461, "type": "electric_scooter"}, {"bike_id": "83362a25415ae9a77cc72e51da7c6bd1", "is_reserved": 0, "fusion_lon": 0.0, "lat": 38.8947625, "is_disabled": 0, "name": "83362a25415ae9a77cc72e51da7c6bd1", "fusion_lat": 0.0, "rental_uris": {"ios": "https://dc.lft.to/lastmile_qr_scan", "android": "https://dc.lft.to/lastmile_qr_scan"}, "lon": -76.98400616666666, "type": "electric_scooter"}, {"bike_id": "228f6460c2b7052b6d53315789001ac6", "is_reserved": 0, "fusion_lon": 0.0, "lat": 38.8515815, "is_disabled": 0, "name": "228f6460c2b7052b6d53315789001ac6", "fusion_lat": 0.0, "rental_uris": {"ios": "https://dc.lft.to/lastmile_qr_scan", "android": "https://dc.lft.to/lastmile_qr_scan"}, "lon": -77.12877366666666, "type": "electric_bike"}, {"bike_id": "c8e624d23b40780f4ccd4964f5f7085e", "is_reserved": 0, "fusion_lon": 0.0, "lat": 38.88640866666667, "is_disabled": 0, "name": "c8e624d23b40780f4ccd4964f5f7085e", "fusion_lat": 0.0, "rental_uris": {"ios": "https://dc.lft.to/lastmile_qr_scan", "android": "https://dc.lft.to/lastmile_qr_scan"}, "lon": -77.021409, "type": "electric_scooter"}, {"bike_id": "55a2d416bfce84a2ed7a0e3ea0537fcf", "is_reserved": 0, "fusion_lon": 0.0, "lat": 38.91039583333333, "is_disabled": 0, "name": "55a2d416bfce84a2ed7a0e3ea0537fcf", "fusion_lat": 0.0, "rental_uris": {"ios": "https://dc.lft.to/lastmile_qr_scan", "android": "https://dc.lft.to/lastmile_qr_scan"}, "lon": -77.02218916666666, "type": "electric_scooter"}, {"bike_id": "b9e0f787d2240c1f90ea9308578f8656", "is_reserved": 0, "fusion_lon": 0.0, "lat": 38.91971383333333, "is_disabled": 0, "name": "b9e0f787d2240c1f90ea9308578f8656", "fusion_lat": 0.0, "rental_uris": {"ios": "https://dc.lft.to/lastmile_qr_scan", "android": "https://dc.lft.to/lastmile_qr_scan"}, "lon": -77.04171666666667, "type": "electric_scooter"}, {"bike_id": "8c3cae6450b78fd48a9ef06f465054e4", "is_reserved": 0, "fusion_lon": 0.0, "lat": 38.82043766666666, "is_disabled": 0, "name": "8c3cae6450b78fd48a9ef06f465054e4", "fusion_lat": 0.0, "rental_uris": {"ios": "https://dc.lft.to/lastmile_qr_scan", "android": "https://dc.lft.to/lastmile_qr_scan"}, "lon": -77.05312383333333, "type": "electric_bike"}, {"bike_id": "70dcf25eb2dbf7a841f3b431da14ee5c", "is_reserved": 0, "fusion_lon": 0.0, "lat": 38.95073566666667, "is_disabled": 0, "name": "70dcf25eb2dbf7a841f3b431da14ee5c", "fusion_lat": 0.0, "rental_uris": {"ios": "https://dc.lft.to/lastmile_qr_scan", "android": "https://dc.lft.to/lastmile_qr_scan"}, "lon": -77.01196016666667, "type": "electric_bike"}, {"bike_id": "647bd606fe42a15fce38c1226045ea06", "is_reserved": 0, "fusion_lon": 0.0, "lat": 38.91711766666667, "is_disabled": 0, "name": "647bd606fe42a15fce38c1226045ea06", "fusion_lat": 0.0, "rental_uris": {"ios": "https://dc.lft.to/lastmile_qr_scan", "android": "https://dc.lft.to/lastmile_qr_scan"}, "lon": -77.02392716666667, "type": "electric_scooter"}, {"bike_id": "d3ca5ec83fe589cf74979efc228b0354", "is_reserved": 0, "fusion_lon": 0.0, "lat": 38.90336966666667, "is_disabled": 0, "name": "d3ca5ec83fe589cf74979efc228b0354", "fusion_lat": 0.0, "rental_uris": {"ios": "https://dc.lft.to/lastmile_qr_scan", "android": "https://dc.lft.to/lastmile_qr_scan"}, "lon": -77.03902283333333, "type": "electric_scooter"}, {"bike_id": "d811ec8b985bff9211c1eee6eac2f82d", "is_reserved": 0, "fusion_lon": 0.0, "lat": 38.9110685, "is_disabled": 0, "name": "d811ec8b985bff9211c1eee6eac2f82d", "fusion_lat": 0.0, "rental_uris": {"ios": "https://dc.lft.to/lastmile_qr_scan", "android": "https://dc.lft.to/lastmile_qr_scan"}, "lon": -76.99707933333333, "type": "electric_scooter"}, {"bike_id": "3ab4f69b33f53c894c6f27cd0fef4bc1", "is_reserved": 0, "fusion_lon": 0.0, "lat": 38.919852, "is_disabled": 0, "name": "3ab4f69b33f53c894c6f27cd0fef4bc1", "fusion_lat": 0.0, "rental_uris": {"ios": "https://dc.lft.to/lastmile_qr_scan", "android": "https://dc.lft.to/lastmile_qr_scan"}, "lon": -76.97308116666666, "type": "electric_scooter"}, {"bike_id": "493af18efdb86652aa9edb3fac4b780e", "is_reserved": 0, "fusion_lon": 0.0, "lat": 38.90595833333333, "is_disabled": 0, "name": "493af18efdb86652aa9edb3fac4b780e", "fusion_lat": 0.0, "rental_uris": {"ios": "https://dc.lft.to/lastmile_qr_scan", "android": "https://dc.lft.to/lastmile_qr_scan"}, "lon": -77.06299783333333, "type": "electric_scooter"}, {"bike_id": "3c79c7580a4f9a8315b0f37c841e1f6e", "is_reserved": 0, "fusion_lon": 0.0, "lat": 38.89832666666667, "is_disabled": 0, "name": "3c79c7580a4f9a8315b0f37c841e1f6e", "fusion_lat": 0.0, "rental_uris": {"ios": "https://dc.lft.to/lastmile_qr_scan", "android": "https://dc.lft.to/lastmile_qr_scan"}, "lon": -76.94634366666666, "type": "electric_scooter"}, {"bike_id": "7dcca36584c06c96d25e8b68820eb2bb", "is_reserved": 0, "fusion_lon": 0.0, "lat": 38.917485, "is_disabled": 0, "name": "7dcca36584c06c96d25e8b68820eb2bb", "fusion_lat": 0.0, "rental_uris": {"ios": "https://dc.lft.to/lastmile_qr_scan", "android": "https://dc.lft.to/lastmile_qr_scan"}, "lon": -77.04154633333333, "type": "electric_scooter"}, {"bike_id": "b52eae1b3e6ee2f0fb9e5e0fc89ddf63", "is_reserved": 0, "fusion_lon": 0.0, "lat": 38.95246433333333, "is_disabled": 0, "name": "b52eae1b3e6ee2f0fb9e5e0fc89ddf63", "fusion_lat": 0.0, "rental_uris": {"ios": "https://dc.lft.to/lastmile_qr_scan", "android": "https://dc.lft.to/lastmile_qr_scan"}, "lon": -77.06987516666666, "type": "electric_scooter"}, {"bike_id": "3c7de851ccd858c7518197405f266fef", "is_reserved": 0, "fusion_lon": 0.0, "lat": 38.91623333333333, "is_disabled": 0, "name": "3c7de851ccd858c7518197405f266fef", "fusion_lat": 0.0, "rental_uris": {"ios": "https://dc.lft.to/lastmile_qr_scan", "android": "https://dc.lft.to/lastmile_qr_scan"}, "lon": -77.03154, "type": "electric_scooter"}, {"bike_id": "eae92e6c861274c7bd53bd9a9be44acd", "is_reserved": 0, "fusion_lon": 0.0, "lat": 38.8922355, "is_disabled": 0, "name": "eae92e6c861274c7bd53bd9a9be44acd", "fusion_lat": 0.0, "rental_uris": {"ios": "https://dc.lft.to/lastmile_qr_scan", "android": "https://dc.lft.to/lastmile_qr_scan"}, "lon": -77.04365266666667, "type": "electric_scooter"}, {"bike_id": "421a40629e705f7bd74d14076f6a9274", "is_reserved": 0, "fusion_lon": 0.0, "lat": 38.9002055, "is_disabled": 0, "name": "421a40629e705f7bd74d14076f6a9274", "fusion_lat": 0.0, "rental_uris": {"ios": "https://dc.lft.to/lastmile_qr_scan", "android": "https://dc.lft.to/lastmile_qr_scan"}, "lon": -77.00183983333334, "type": "electric_scooter"}, {"bike_id": "5bba59661355ec2057c9611ee16fbf8c", "is_reserved": 0, "fusion_lon": 0.0, "lat": 38.945474833333336, "is_disabled": 0, "name": "5bba59661355ec2057c9611ee16fbf8c", "fusion_lat": 0.0, "rental_uris": {"ios": "https://dc.lft.to/lastmile_qr_scan", "android": "https://dc.lft.to/lastmile_qr_scan"}, "lon": -76.89537, "type": "electric_bike"}, {"bike_id": "c7931d9e7ba77e7119d92c3838b2573c", "is_reserved": 0, "fusion_lon": 0.0, "lat": 38.91116383333333, "is_disabled": 0, "name": "c7931d9e7ba77e7119d92c3838b2573c", "fusion_lat": 0.0, "rental_uris": {"ios": "https://dc.lft.to/lastmile_qr_scan", "android": "https://dc.lft.to/lastmile_qr_scan"}, "lon": -77.03593983333333, "type": "electric_scooter"}, {"bike_id": "d29e81483aadb9f375c27247de7fe6c0", "is_reserved": 0, "fusion_lon": 0.0, "lat": 38.86561433333333, "is_disabled": 0, "name": "d29e81483aadb9f375c27247de7fe6c0", "fusion_lat": 0.0, "rental_uris": {"ios": "https://dc.lft.to/lastmile_qr_scan", "android": "https://dc.lft.to/lastmile_qr_scan"}, "lon": -76.98951116666667, "type": "electric_scooter"}, {"bike_id": "3316608684e622bdc0c89ccddbc5ab2c", "is_reserved": 0, "fusion_lon": 0.0, "lat": 38.861763, "is_disabled": 0, "name": "3316608684e622bdc0c89ccddbc5ab2c", "fusion_lat": 0.0, "rental_uris": {"ios": "https://dc.lft.to/lastmile_qr_scan", "android": "https://dc.lft.to/lastmile_qr_scan"}, "lon": -76.9691215, "type": "electric_scooter"}, {"bike_id": "b681f50c7bc5283b9ebe16fef02cbc1b", "is_reserved": 0, "fusion_lon": 0.0, "lat": 38.898231333333335, "is_disabled": 0, "name": "b681f50c7bc5283b9ebe16fef02cbc1b", "fusion_lat": 0.0, "rental_uris": {"ios": "https://dc.lft.to/lastmile_qr_scan", "android": "https://dc.lft.to/lastmile_qr_scan"}, "lon": -77.03344566666667, "type": "electric_scooter"}, {"bike_id": "26809746a4726d2494440de5ef63c2c9", "is_reserved": 0, "fusion_lon": 0.0, "lat": 38.88324083333333, "is_disabled": 0, "name": "26809746a4726d2494440de5ef63c2c9", "fusion_lat": 0.0, "rental_uris": {"ios": "https://dc.lft.to/lastmile_qr_scan", "android": "https://dc.lft.to/lastmile_qr_scan"}, "lon": -77.02039583333334, "type": "electric_scooter"}, {"bike_id": "a0ee366a7081ffa3631ccce7d500037e", "is_reserved": 0, "fusion_lon": 0.0, "lat": 38.9170225, "is_disabled": 0, "name": "a0ee366a7081ffa3631ccce7d500037e", "fusion_lat": 0.0, "rental_uris": {"ios": "https://dc.lft.to/lastmile_qr_scan", "android": "https://dc.lft.to/lastmile_qr_scan"}, "lon": -77.02243066666666, "type": "electric_scooter"}, {"bike_id": "90c0309f1b9998f8a8a9756d4ac24a8b", "is_reserved": 0, "fusion_lon": 0.0, "lat": 38.90294633333333, "is_disabled": 0, "name": "90c0309f1b9998f8a8a9756d4ac24a8b", "fusion_lat": 0.0, "rental_uris": {"ios": "https://dc.lft.to/lastmile_qr_scan", "android": "https://dc.lft.to/lastmile_qr_scan"}, "lon": -76.99248466666667, "type": "electric_scooter"}, {"bike_id": "b1631cd3ef8b1f186642aed413a8d6e5", "is_reserved": 0, "fusion_lon": 0.0, "lat": 38.97326966666667, "is_disabled": 0, "name": "b1631cd3ef8b1f186642aed413a8d6e5", "fusion_lat": 0.0, "rental_uris": {"ios": "https://dc.lft.to/lastmile_qr_scan", "android": "https://dc.lft.to/lastmile_qr_scan"}, "lon": -77.02151083333334, "type": "electric_bike"}, {"bike_id": "d63d510a121513d718598483173d7d1c", "is_reserved": 0, "fusion_lon": 0.0, "lat": 38.949492, "is_disabled": 0, "name": "d63d510a121513d718598483173d7d1c", "fusion_lat": 0.0, "rental_uris": {"ios": "https://dc.lft.to/lastmile_qr_scan", "android": "https://dc.lft.to/lastmile_qr_scan"}, "lon": -77.01607433333334, "type": "electric_bike"}, {"bike_id": "280e195d8d554bf9f9951be26a6ad4c5", "is_reserved": 0, "fusion_lon": 0.0, "lat": 38.84413966666666, "is_disabled": 0, "name": "280e195d8d554bf9f9951be26a6ad4c5", "fusion_lat": 0.0, "rental_uris": {"ios": "https://dc.lft.to/lastmile_qr_scan", "android": "https://dc.lft.to/lastmile_qr_scan"}, "lon": -76.99776383333334, "type": "electric_scooter"}, {"bike_id": "b9246972ac36d182e9b4c925fbb9438e", "is_reserved": 0, "fusion_lon": 0.0, "lat": 38.8661095, "is_disabled": 0, "name": "b9246972ac36d182e9b4c925fbb9438e", "fusion_lat": 0.0, "rental_uris": {"ios": "https://dc.lft.to/lastmile_qr_scan", "android": "https://dc.lft.to/lastmile_qr_scan"}, "lon": -76.9867455, "type": "electric_scooter"}, {"bike_id": "e0ad6cf0fb2d8e2a94bbfdd4fa1eba1f", "is_reserved": 0, "fusion_lon": 0.0, "lat": 38.908573, "is_disabled": 0, "name": "e0ad6cf0fb2d8e2a94bbfdd4fa1eba1f", "fusion_lat": 0.0, "rental_uris": {"ios": "https://dc.lft.to/lastmile_qr_scan", "android": "https://dc.lft.to/lastmile_qr_scan"}, "lon": -77.02538866666667, "type": "electric_scooter"}, {"bike_id": "977ab3a4f7a26fd033da7b4760fe83e3", "is_reserved": 0, "fusion_lon": 0.0, "lat": 38.91328983333333, "is_disabled": 0, "name": "977ab3a4f7a26fd033da7b4760fe83e3", "fusion_lat": 0.0, "rental_uris": {"ios": "https://dc.lft.to/lastmile_qr_scan", "android": "https://dc.lft.to/lastmile_qr_scan"}, "lon": -77.048425, "type": "electric_scooter"}, {"bike_id": "6827d5199f27846fdfbc7bc263964c34", "is_reserved": 0, "fusion_lon": 0.0, "lat": 38.90477283333333, "is_disabled": 0, "name": "6827d5199f27846fdfbc7bc263964c34", "fusion_lat": 0.0, "rental_uris": {"ios": "https://dc.lft.to/lastmile_qr_scan", "android": "https://dc.lft.to/lastmile_qr_scan"}, "lon": -77.0346565, "type": "electric_bike"}, {"bike_id": "255510e727a00639d0feb3d82c429233", "is_reserved": 0, "fusion_lon": 0.0, "lat": 38.901393666666664, "is_disabled": 0, "name": "255510e727a00639d0feb3d82c429233", "fusion_lat": 0.0, "rental_uris": {"ios": "https://dc.lft.to/lastmile_qr_scan", "android": "https://dc.lft.to/lastmile_qr_scan"}, "lon": -76.9785695, "type": "electric_scooter"}, {"bike_id": "b5533e6f93e852a757e6f7ac5bbdb22d", "is_reserved": 0, "fusion_lon": 0.0, "lat": 38.882685, "is_disabled": 0, "name": "b5533e6f93e852a757e6f7ac5bbdb22d", "fusion_lat": 0.0, "rental_uris": {"ios": "https://dc.lft.to/lastmile_qr_scan", "android": "https://dc.lft.to/lastmile_qr_scan"}, "lon": -76.99518866666666, "type": "electric_scooter"}, {"bike_id": "7e0e4b3480b2b8b6991d02f7d9225e52", "is_reserved": 0, "fusion_lon": 0.0, "lat": 38.90214683333333, "is_disabled": 0, "name": "7e0e4b3480b2b8b6991d02f7d9225e52", "fusion_lat": 0.0, "rental_uris": {"ios": "https://dc.lft.to/lastmile_qr_scan", "android": "https://dc.lft.to/lastmile_qr_scan"}, "lon": -77.02373516666667, "type": "electric_scooter"}, {"bike_id": "6d97131119d92ed54679264ef57ccfac", "is_reserved": 0, "fusion_lon": 0.0, "lat": 38.9012005, "is_disabled": 0, "name": "6d97131119d92ed54679264ef57ccfac", "fusion_lat": 0.0, "rental_uris": {"ios": "https://dc.lft.to/lastmile_qr_scan", "android": "https://dc.lft.to/lastmile_qr_scan"}, "lon": -77.03309216666666, "type": "electric_scooter"}, {"bike_id": "73eec37518425ce573b3aadd11a69d4e", "is_reserved": 0, "fusion_lon": 0.0, "lat": 38.924082, "is_disabled": 0, "name": "73eec37518425ce573b3aadd11a69d4e", "fusion_lat": 0.0, "rental_uris": {"ios": "https://dc.lft.to/lastmile_qr_scan", "android": "https://dc.lft.to/lastmile_qr_scan"}, "lon": -77.03539133333334, "type": "electric_bike"}, {"bike_id": "562bd7a96ab783fd95942d6051379885", "is_reserved": 0, "fusion_lon": 0.0, "lat": 38.9055, "is_disabled": 0, "name": "562bd7a96ab783fd95942d6051379885", "fusion_lat": 0.0, "rental_uris": {"ios": "https://dc.lft.to/lastmile_qr_scan", "android": "https://dc.lft.to/lastmile_qr_scan"}, "lon": -77.038406, "type": "electric_scooter"}, {"bike_id": "77a4b99bb171230f1b2c07b9216fa8b8", "is_reserved": 0, "fusion_lon": 0.0, "lat": 38.90181116666667, "is_disabled": 0, "name": "77a4b99bb171230f1b2c07b9216fa8b8", "fusion_lat": 0.0, "rental_uris": {"ios": "https://dc.lft.to/lastmile_qr_scan", "android": "https://dc.lft.to/lastmile_qr_scan"}, "lon": -76.9346815, "type": "electric_scooter"}, {"bike_id": "bf60b4c0ff72d8b26fee8bec984964c8", "is_reserved": 0, "fusion_lon": 0.0, "lat": 38.90450466666667, "is_disabled": 0, "name": "bf60b4c0ff72d8b26fee8bec984964c8", "fusion_lat": 0.0, "rental_uris": {"ios": "https://dc.lft.to/lastmile_qr_scan", "android": "https://dc.lft.to/lastmile_qr_scan"}, "lon": -77.05922433333333, "type": "electric_scooter"}, {"bike_id": "7b4a8148a00f32a46de24374bd85cc7f", "is_reserved": 0, "fusion_lon": 0.0, "lat": 38.91251533333333, "is_disabled": 0, "name": "7b4a8148a00f32a46de24374bd85cc7f", "fusion_lat": 0.0, "rental_uris": {"ios": "https://dc.lft.to/lastmile_qr_scan", "android": "https://dc.lft.to/lastmile_qr_scan"}, "lon": -77.03499083333334, "type": "electric_scooter"}, {"bike_id": "ac5663442af02d1a5136ffbf0a82073b", "is_reserved": 0, "fusion_lon": 0.0, "lat": 38.9014065, "is_disabled": 0, "name": "ac5663442af02d1a5136ffbf0a82073b", "fusion_lat": 0.0, "rental_uris": {"ios": "https://dc.lft.to/lastmile_qr_scan", "android": "https://dc.lft.to/lastmile_qr_scan"}, "lon": -77.0272155, "type": "electric_scooter"}, {"bike_id": "dd37ed6ca2d01ce44e3e12942053d153", "is_reserved": 0, "fusion_lon": 0.0, "lat": 38.86557416666667, "is_disabled": 0, "name": "dd37ed6ca2d01ce44e3e12942053d153", "fusion_lat": 0.0, "rental_uris": {"ios": "https://dc.lft.to/lastmile_qr_scan", "android": "https://dc.lft.to/lastmile_qr_scan"}, "lon": -76.98953166666666, "type": "electric_scooter"}, {"bike_id": "78601af3c1762de432142282d2eae0d8", "is_reserved": 0, "fusion_lon": 0.0, "lat": 38.900099, "is_disabled": 0, "name": "78601af3c1762de432142282d2eae0d8", "fusion_lat": 0.0, "rental_uris": {"ios": "https://dc.lft.to/lastmile_qr_scan", "android": "https://dc.lft.to/lastmile_qr_scan"}, "lon": -77.0021875, "type": "electric_scooter"}, {"bike_id": "7d36daa99257be5a2af6cb72a2d93e11", "is_reserved": 0, "fusion_lon": 0.0, "lat": 38.905513666666664, "is_disabled": 0, "name": "7d36daa99257be5a2af6cb72a2d93e11", "fusion_lat": 0.0, "rental_uris": {"ios": "https://dc.lft.to/lastmile_qr_scan", "android": "https://dc.lft.to/lastmile_qr_scan"}, "lon": -77.02488466666667, "type": "electric_scooter"}, {"bike_id": "903be0ad5e5812157323aa8551975ba3", "is_reserved": 0, "fusion_lon": 0.0, "lat": 38.908067, "is_disabled": 0, "name": "903be0ad5e5812157323aa8551975ba3", "fusion_lat": 0.0, "rental_uris": {"ios": "https://dc.lft.to/lastmile_qr_scan", "android": "https://dc.lft.to/lastmile_qr_scan"}, "lon": -77.0185, "type": "electric_scooter"}, {"bike_id": "9cdc5ee54061fdf7c15e31497a57c95f", "is_reserved": 0, "fusion_lon": 0.0, "lat": 38.9038165, "is_disabled": 0, "name": "9cdc5ee54061fdf7c15e31497a57c95f", "fusion_lat": 0.0, "rental_uris": {"ios": "https://dc.lft.to/lastmile_qr_scan", "android": "https://dc.lft.to/lastmile_qr_scan"}, "lon": -77.0437915, "type": "electric_scooter"}, {"bike_id": "30557082e44a37732721a7622fb236e4", "is_reserved": 0, "fusion_lon": 0.0, "lat": 38.932355, "is_disabled": 0, "name": "30557082e44a37732721a7622fb236e4", "fusion_lat": 0.0, "rental_uris": {"ios": "https://dc.lft.to/lastmile_qr_scan", "android": "https://dc.lft.to/lastmile_qr_scan"}, "lon": -77.032641, "type": "electric_scooter"}, {"bike_id": "8e9cfb2883b01ad22c3a134e2743641c", "is_reserved": 0, "fusion_lon": 0.0, "lat": 38.959204, "is_disabled": 0, "name": "8e9cfb2883b01ad22c3a134e2743641c", "fusion_lat": 0.0, "rental_uris": {"ios": "https://dc.lft.to/lastmile_qr_scan", "android": "https://dc.lft.to/lastmile_qr_scan"}, "lon": -77.0332455, "type": "electric_scooter"}, {"bike_id": "964c19da32ee02c29e6f067d439aaf3e", "is_reserved": 0, "fusion_lon": 0.0, "lat": 38.89470433333334, "is_disabled": 0, "name": "964c19da32ee02c29e6f067d439aaf3e", "fusion_lat": 0.0, "rental_uris": {"ios": "https://dc.lft.to/lastmile_qr_scan", "android": "https://dc.lft.to/lastmile_qr_scan"}, "lon": -77.00067716666666, "type": "electric_scooter"}, {"bike_id": "a362582558870e889e5a56cd2ddde885", "is_reserved": 0, "fusion_lon": 0.0, "lat": 38.90424866666667, "is_disabled": 0, "name": "a362582558870e889e5a56cd2ddde885", "fusion_lat": 0.0, "rental_uris": {"ios": "https://dc.lft.to/lastmile_qr_scan", "android": "https://dc.lft.to/lastmile_qr_scan"}, "lon": -77.04356683333333, "type": "electric_scooter"}, {"bike_id": "d61eb31106be1e1581078efc6c3ff827", "is_reserved": 0, "fusion_lon": 0.0, "lat": 38.91701316666666, "is_disabled": 0, "name": "d61eb31106be1e1581078efc6c3ff827", "fusion_lat": 0.0, "rental_uris": {"ios": "https://dc.lft.to/lastmile_qr_scan", "android": "https://dc.lft.to/lastmile_qr_scan"}, "lon": -77.0349775, "type": "electric_scooter"}, {"bike_id": "373df27801f53e258fa6318eae1a9039", "is_reserved": 0, "fusion_lon": 0.0, "lat": 38.90006266666666, "is_disabled": 0, "name": "373df27801f53e258fa6318eae1a9039", "fusion_lat": 0.0, "rental_uris": {"ios": "https://dc.lft.to/lastmile_qr_scan", "android": "https://dc.lft.to/lastmile_qr_scan"}, "lon": -76.98681816666667, "type": "electric_scooter"}, {"bike_id": "6c442f45cfe014f971fdc370532517c6", "is_reserved": 0, "fusion_lon": 0.0, "lat": 38.8843295, "is_disabled": 0, "name": "6c442f45cfe014f971fdc370532517c6", "fusion_lat": 0.0, "rental_uris": {"ios": "https://dc.lft.to/lastmile_qr_scan", "android": "https://dc.lft.to/lastmile_qr_scan"}, "lon": -77.0304135, "type": "electric_scooter"}, {"bike_id": "cb87bce5d86507adb26da12d6ddf9cf6", "is_reserved": 0, "fusion_lon": 0.0, "lat": 38.925777333333336, "is_disabled": 0, "name": "cb87bce5d86507adb26da12d6ddf9cf6", "fusion_lat": 0.0, "rental_uris": {"ios": "https://dc.lft.to/lastmile_qr_scan", "android": "https://dc.lft.to/lastmile_qr_scan"}, "lon": -77.0576855, "type": "electric_scooter"}, {"bike_id": "9395b99af54ec3853da832edfcbcb08d", "is_reserved": 0, "fusion_lon": 0.0, "lat": 38.9030675, "is_disabled": 0, "name": "9395b99af54ec3853da832edfcbcb08d", "fusion_lat": 0.0, "rental_uris": {"ios": "https://dc.lft.to/lastmile_qr_scan", "android": "https://dc.lft.to/lastmile_qr_scan"}, "lon": -77.03468933333333, "type": "electric_scooter"}, {"bike_id": "6048f66f37953a0e8397abdcda742fbb", "is_reserved": 0, "fusion_lon": 0.0, "lat": 38.919064166666665, "is_disabled": 0, "name": "6048f66f37953a0e8397abdcda742fbb", "fusion_lat": 0.0, "rental_uris": {"ios": "https://dc.lft.to/lastmile_qr_scan", "android": "https://dc.lft.to/lastmile_qr_scan"}, "lon": -77.03390583333334, "type": "electric_scooter"}, {"bike_id": "388d8e2e6468ce514a924499aae4c356", "is_reserved": 0, "fusion_lon": 0.0, "lat": 38.864115166666664, "is_disabled": 0, "name": "388d8e2e6468ce514a924499aae4c356", "fusion_lat": 0.0, "rental_uris": {"ios": "https://dc.lft.to/lastmile_qr_scan", "android": "https://dc.lft.to/lastmile_qr_scan"}, "lon": -77.013616, "type": "electric_scooter"}, {"bike_id": "1218dbb9afdad9556883ba990885b563", "is_reserved": 0, "fusion_lon": 0.0, "lat": 38.901744, "is_disabled": 0, "name": "1218dbb9afdad9556883ba990885b563", "fusion_lat": 0.0, "rental_uris": {"ios": "https://dc.lft.to/lastmile_qr_scan", "android": "https://dc.lft.to/lastmile_qr_scan"}, "lon": -77.00024366666666, "type": "electric_scooter"}, {"bike_id": "7d744fb445155d4bc00c666594fcb27f", "is_reserved": 0, "fusion_lon": 0.0, "lat": 38.896219333333335, "is_disabled": 0, "name": "7d744fb445155d4bc00c666594fcb27f", "fusion_lat": 0.0, "rental_uris": {"ios": "https://dc.lft.to/lastmile_qr_scan", "android": "https://dc.lft.to/lastmile_qr_scan"}, "lon": -76.99840016666667, "type": "electric_scooter"}, {"bike_id": "6f10722e130ea32468fac1502d1f7e3e", "is_reserved": 0, "fusion_lon": 0.0, "lat": 38.925222166666664, "is_disabled": 0, "name": "6f10722e130ea32468fac1502d1f7e3e", "fusion_lat": 0.0, "rental_uris": {"ios": "https://dc.lft.to/lastmile_qr_scan", "android": "https://dc.lft.to/lastmile_qr_scan"}, "lon": -77.0385445, "type": "electric_scooter"}, {"bike_id": "d6b2f6fd3e3eb0fc746a2ac956d721a4", "is_reserved": 0, "fusion_lon": 0.0, "lat": 39.0563375, "is_disabled": 0, "name": "d6b2f6fd3e3eb0fc746a2ac956d721a4", "fusion_lat": 0.0, "rental_uris": {"ios": "https://dc.lft.to/lastmile_qr_scan", "android": "https://dc.lft.to/lastmile_qr_scan"}, "lon": -77.12529416666666, "type": "electric_bike"}, {"bike_id": "810815d57116893221f585e9c1af6af4", "is_reserved": 0, "fusion_lon": 0.0, "lat": 38.9170265, "is_disabled": 0, "name": "810815d57116893221f585e9c1af6af4", "fusion_lat": 0.0, "rental_uris": {"ios": "https://dc.lft.to/lastmile_qr_scan", "android": "https://dc.lft.to/lastmile_qr_scan"}, "lon": -77.03215383333334, "type": "electric_scooter"}, {"bike_id": "a1b42e81c2f8d02ad4a173f1fbf713df", "is_reserved": 0, "fusion_lon": 0.0, "lat": 38.91710333333333, "is_disabled": 0, "name": "a1b42e81c2f8d02ad4a173f1fbf713df", "fusion_lat": 0.0, "rental_uris": {"ios": "https://dc.lft.to/lastmile_qr_scan", "android": "https://dc.lft.to/lastmile_qr_scan"}, "lon": -77.038547, "type": "electric_scooter"}, {"bike_id": "a6eb95832e4c8fd7b4978d82420c0aab", "is_reserved": 0, "fusion_lon": 0.0, "lat": 38.92354433333333, "is_disabled": 0, "name": "a6eb95832e4c8fd7b4978d82420c0aab", "fusion_lat": 0.0, "rental_uris": {"ios": "https://dc.lft.to/lastmile_qr_scan", "android": "https://dc.lft.to/lastmile_qr_scan"}, "lon": -77.04131166666667, "type": "electric_scooter"}, {"bike_id": "253edf20acbd9aeb3f376054912cccea", "is_reserved": 0, "fusion_lon": 0.0, "lat": 38.896067, "is_disabled": 0, "name": "253edf20acbd9aeb3f376054912cccea", "fusion_lat": 0.0, "rental_uris": {"ios": "https://dc.lft.to/lastmile_qr_scan", "android": "https://dc.lft.to/lastmile_qr_scan"}, "lon": -77.031688, "type": "electric_scooter"}, {"bike_id": "5dfba3b6694da307a14e1162c466201b", "is_reserved": 0, "fusion_lon": 0.0, "lat": 38.88508733333333, "is_disabled": 0, "name": "5dfba3b6694da307a14e1162c466201b", "fusion_lat": 0.0, "rental_uris": {"ios": "https://dc.lft.to/lastmile_qr_scan", "android": "https://dc.lft.to/lastmile_qr_scan"}, "lon": -77.0057115, "type": "electric_scooter"}, {"bike_id": "26a8e5616fad9f46fec335989dc231d6", "is_reserved": 0, "fusion_lon": 0.0, "lat": 38.89354866666667, "is_disabled": 0, "name": "26a8e5616fad9f46fec335989dc231d6", "fusion_lat": 0.0, "rental_uris": {"ios": "https://dc.lft.to/lastmile_qr_scan", "android": "https://dc.lft.to/lastmile_qr_scan"}, "lon": -77.03197133333333, "type": "electric_scooter"}, {"bike_id": "d1dbe4fc1b25db21a33c863d44330278", "is_reserved": 0, "fusion_lon": 0.0, "lat": 38.92223233333333, "is_disabled": 0, "name": "d1dbe4fc1b25db21a33c863d44330278", "fusion_lat": 0.0, "rental_uris": {"ios": "https://dc.lft.to/lastmile_qr_scan", "android": "https://dc.lft.to/lastmile_qr_scan"}, "lon": -77.04392766666666, "type": "electric_scooter"}, {"bike_id": "95d5d5441554cc6cef6c677d0c190e43", "is_reserved": 0, "fusion_lon": 0.0, "lat": 38.8874535, "is_disabled": 0, "name": "95d5d5441554cc6cef6c677d0c190e43", "fusion_lat": 0.0, "rental_uris": {"ios": "https://dc.lft.to/lastmile_qr_scan", "android": "https://dc.lft.to/lastmile_qr_scan"}, "lon": -77.03182483333333, "type": "electric_scooter"}, {"bike_id": "c2714e36e1137b58832aec1aa0593d53", "is_reserved": 0, "fusion_lon": 0.0, "lat": 38.92354316666667, "is_disabled": 0, "name": "c2714e36e1137b58832aec1aa0593d53", "fusion_lat": 0.0, "rental_uris": {"ios": "https://dc.lft.to/lastmile_qr_scan", "android": "https://dc.lft.to/lastmile_qr_scan"}, "lon": -77.04133866666666, "type": "electric_scooter"}, {"bike_id": "bd31631f7af888ecfbe2f9f0b6a037ac", "is_reserved": 0, "fusion_lon": 0.0, "lat": 38.878939333333335, "is_disabled": 0, "name": "bd31631f7af888ecfbe2f9f0b6a037ac", "fusion_lat": 0.0, "rental_uris": {"ios": "https://dc.lft.to/lastmile_qr_scan", "android": "https://dc.lft.to/lastmile_qr_scan"}, "lon": -77.00573116666666, "type": "electric_scooter"}, {"bike_id": "60d0449d446fd686be7504d3064da6b4", "is_reserved": 0, "fusion_lon": 0.0, "lat": 38.91258833333333, "is_disabled": 0, "name": "60d0449d446fd686be7504d3064da6b4", "fusion_lat": 0.0, "rental_uris": {"ios": "https://dc.lft.to/lastmile_qr_scan", "android": "https://dc.lft.to/lastmile_qr_scan"}, "lon": -77.0315, "type": "electric_scooter"}, {"bike_id": "84e4dc8d5638337fe60a5dd979470c3b", "is_reserved": 0, "fusion_lon": 0.0, "lat": 38.89945733333333, "is_disabled": 0, "name": "84e4dc8d5638337fe60a5dd979470c3b", "fusion_lat": 0.0, "rental_uris": {"ios": "https://dc.lft.to/lastmile_qr_scan", "android": "https://dc.lft.to/lastmile_qr_scan"}, "lon": -77.02199216666666, "type": "electric_scooter"}, {"bike_id": "5234a84f60dd731b1784cb978442019a", "is_reserved": 0, "fusion_lon": 0.0, "lat": 38.866619, "is_disabled": 0, "name": "5234a84f60dd731b1784cb978442019a", "fusion_lat": 0.0, "rental_uris": {"ios": "https://dc.lft.to/lastmile_qr_scan", "android": "https://dc.lft.to/lastmile_qr_scan"}, "lon": -76.98887366666666, "type": "electric_scooter"}, {"bike_id": "ef1b4e8288af105c8f1505c5e5ad4b6f", "is_reserved": 0, "fusion_lon": 0.0, "lat": 38.95486233333333, "is_disabled": 0, "name": "ef1b4e8288af105c8f1505c5e5ad4b6f", "fusion_lat": 0.0, "rental_uris": {"ios": "https://dc.lft.to/lastmile_qr_scan", "android": "https://dc.lft.to/lastmile_qr_scan"}, "lon": -77.06562466666666, "type": "electric_scooter"}, {"bike_id": "dfcf9fce4822882863be06779eb47afd", "is_reserved": 0, "fusion_lon": 0.0, "lat": 38.865334, "is_disabled": 0, "name": "dfcf9fce4822882863be06779eb47afd", "fusion_lat": 0.0, "rental_uris": {"ios": "https://dc.lft.to/lastmile_qr_scan", "android": "https://dc.lft.to/lastmile_qr_scan"}, "lon": -76.9871065, "type": "electric_scooter"}, {"bike_id": "48829ab91f78f2ef6b7260877eb213ea", "is_reserved": 0, "fusion_lon": 0.0, "lat": 38.81244, "is_disabled": 0, "name": "48829ab91f78f2ef6b7260877eb213ea", "fusion_lat": 0.0, "rental_uris": {"ios": "https://dc.lft.to/lastmile_qr_scan", "android": "https://dc.lft.to/lastmile_qr_scan"}, "lon": -77.11756083333333, "type": "electric_bike"}, {"bike_id": "11b70fd7e4ac3b2931e60599bea0e814", "is_reserved": 0, "fusion_lon": 0.0, "lat": 38.9232485, "is_disabled": 0, "name": "11b70fd7e4ac3b2931e60599bea0e814", "fusion_lat": 0.0, "rental_uris": {"ios": "https://dc.lft.to/lastmile_qr_scan", "android": "https://dc.lft.to/lastmile_qr_scan"}, "lon": -77.029693, "type": "electric_scooter"}, {"bike_id": "b8eb921e25d1a8af3911be26075ce5d5", "is_reserved": 0, "fusion_lon": 0.0, "lat": 38.872372166666665, "is_disabled": 0, "name": "b8eb921e25d1a8af3911be26075ce5d5", "fusion_lat": 0.0, "rental_uris": {"ios": "https://dc.lft.to/lastmile_qr_scan", "android": "https://dc.lft.to/lastmile_qr_scan"}, "lon": -77.01627616666667, "type": "electric_scooter"}, {"bike_id": "ed948a70dd46fe2646455d09c46147c3", "is_reserved": 0, "fusion_lon": 0.0, "lat": 38.90503733333333, "is_disabled": 0, "name": "ed948a70dd46fe2646455d09c46147c3", "fusion_lat": 0.0, "rental_uris": {"ios": "https://dc.lft.to/lastmile_qr_scan", "android": "https://dc.lft.to/lastmile_qr_scan"}, "lon": -77.05914783333333, "type": "electric_scooter"}, {"bike_id": "06d7a58acf4e7caa916be08e27337976", "is_reserved": 0, "fusion_lon": 0.0, "lat": 38.90360016666666, "is_disabled": 0, "name": "06d7a58acf4e7caa916be08e27337976", "fusion_lat": 0.0, "rental_uris": {"ios": "https://dc.lft.to/lastmile_qr_scan", "android": "https://dc.lft.to/lastmile_qr_scan"}, "lon": -77.0434975, "type": "electric_scooter"}, {"bike_id": "d3bb8713cc34aded6b228795cf16a6fb", "is_reserved": 0, "fusion_lon": 0.0, "lat": 38.902172166666666, "is_disabled": 0, "name": "d3bb8713cc34aded6b228795cf16a6fb", "fusion_lat": 0.0, "rental_uris": {"ios": "https://dc.lft.to/lastmile_qr_scan", "android": "https://dc.lft.to/lastmile_qr_scan"}, "lon": -77.06064533333333, "type": "electric_scooter"}, {"bike_id": "858f78bb71dcf44381e30d7e2530f570", "is_reserved": 0, "fusion_lon": 0.0, "lat": 38.904873, "is_disabled": 0, "name": "858f78bb71dcf44381e30d7e2530f570", "fusion_lat": 0.0, "rental_uris": {"ios": "https://dc.lft.to/lastmile_qr_scan", "android": "https://dc.lft.to/lastmile_qr_scan"}, "lon": -77.067887, "type": "electric_scooter"}, {"bike_id": "fc170fcabe4081a74742e864a6bef986", "is_reserved": 0, "fusion_lon": 0.0, "lat": 38.900769, "is_disabled": 0, "name": "fc170fcabe4081a74742e864a6bef986", "fusion_lat": 0.0, "rental_uris": {"ios": "https://dc.lft.to/lastmile_qr_scan", "android": "https://dc.lft.to/lastmile_qr_scan"}, "lon": -77.05011683333333, "type": "electric_scooter"}, {"bike_id": "1247a68ffbd1b8d7ac3bcd372bbac5fd", "is_reserved": 0, "fusion_lon": 0.0, "lat": 38.93358816666667, "is_disabled": 0, "name": "1247a68ffbd1b8d7ac3bcd372bbac5fd", "fusion_lat": 0.0, "rental_uris": {"ios": "https://dc.lft.to/lastmile_qr_scan", "android": "https://dc.lft.to/lastmile_qr_scan"}, "lon": -77.05717533333333, "type": "electric_scooter"}, {"bike_id": "8e7cfb019a8a405bf3cf91069b107857", "is_reserved": 0, "fusion_lon": 0.0, "lat": 38.874891833333336, "is_disabled": 0, "name": "8e7cfb019a8a405bf3cf91069b107857", "fusion_lat": 0.0, "rental_uris": {"ios": "https://dc.lft.to/lastmile_qr_scan", "android": "https://dc.lft.to/lastmile_qr_scan"}, "lon": -77.00117983333334, "type": "electric_scooter"}, {"bike_id": "1524a2f23fe0b503a8b9c7229bf8279f", "is_reserved": 0, "fusion_lon": 0.0, "lat": 38.87671266666667, "is_disabled": 0, "name": "1524a2f23fe0b503a8b9c7229bf8279f", "fusion_lat": 0.0, "rental_uris": {"ios": "https://dc.lft.to/lastmile_qr_scan", "android": "https://dc.lft.to/lastmile_qr_scan"}, "lon": -77.01789033333333, "type": "electric_scooter"}, {"bike_id": "c8012ec9c71bede979f0229323e291df", "is_reserved": 0, "fusion_lon": 0.0, "lat": 38.905038833333336, "is_disabled": 0, "name": "c8012ec9c71bede979f0229323e291df", "fusion_lat": 0.0, "rental_uris": {"ios": "https://dc.lft.to/lastmile_qr_scan", "android": "https://dc.lft.to/lastmile_qr_scan"}, "lon": -77.0665925, "type": "electric_scooter"}, {"bike_id": "fb49ff068832a8ce034926507ca8f94d", "is_reserved": 0, "fusion_lon": 0.0, "lat": 38.892132833333335, "is_disabled": 0, "name": "fb49ff068832a8ce034926507ca8f94d", "fusion_lat": 0.0, "rental_uris": {"ios": "https://dc.lft.to/lastmile_qr_scan", "android": "https://dc.lft.to/lastmile_qr_scan"}, "lon": -77.03978883333333, "type": "electric_scooter"}, {"bike_id": "e691e3fc03faa16005fa7a0d3d2a0b2c", "is_reserved": 0, "fusion_lon": 0.0, "lat": 38.907856833333334, "is_disabled": 0, "name": "e691e3fc03faa16005fa7a0d3d2a0b2c", "fusion_lat": 0.0, "rental_uris": {"ios": "https://dc.lft.to/lastmile_qr_scan", "android": "https://dc.lft.to/lastmile_qr_scan"}, "lon": -77.03197683333333, "type": "electric_scooter"}, {"bike_id": "b07c73e7b1d47f486bf935b08edd5f82", "is_reserved": 0, "fusion_lon": 0.0, "lat": 38.91411633333333, "is_disabled": 0, "name": "b07c73e7b1d47f486bf935b08edd5f82", "fusion_lat": 0.0, "rental_uris": {"ios": "https://dc.lft.to/lastmile_qr_scan", "android": "https://dc.lft.to/lastmile_qr_scan"}, "lon": -77.03179233333333, "type": "electric_scooter"}, {"bike_id": "69f0a18985716945371804b736ec93d6", "is_reserved": 0, "fusion_lon": 0.0, "lat": 38.902943666666665, "is_disabled": 0, "name": "69f0a18985716945371804b736ec93d6", "fusion_lat": 0.0, "rental_uris": {"ios": "https://dc.lft.to/lastmile_qr_scan", "android": "https://dc.lft.to/lastmile_qr_scan"}, "lon": -77.04369366666667, "type": "electric_scooter"}, {"bike_id": "ea4618b6c2b8f434ca89280805989cfc", "is_reserved": 0, "fusion_lon": 0.0, "lat": 38.917573166666664, "is_disabled": 0, "name": "ea4618b6c2b8f434ca89280805989cfc", "fusion_lat": 0.0, "rental_uris": {"ios": "https://dc.lft.to/lastmile_qr_scan", "android": "https://dc.lft.to/lastmile_qr_scan"}, "lon": -77.0399805, "type": "electric_scooter"}, {"bike_id": "f392e56ce1ee344a2284d540e097aec4", "is_reserved": 0, "fusion_lon": 0.0, "lat": 38.9053015, "is_disabled": 0, "name": "f392e56ce1ee344a2284d540e097aec4", "fusion_lat": 0.0, "rental_uris": {"ios": "https://dc.lft.to/lastmile_qr_scan", "android": "https://dc.lft.to/lastmile_qr_scan"}, "lon": -77.03991133333334, "type": "electric_scooter"}, {"bike_id": "b1bf48ded9e5b7b6b7be1e8a0f2dab9c", "is_reserved": 0, "fusion_lon": 0.0, "lat": 38.883957833333334, "is_disabled": 0, "name": "b1bf48ded9e5b7b6b7be1e8a0f2dab9c", "fusion_lat": 0.0, "rental_uris": {"ios": "https://dc.lft.to/lastmile_qr_scan", "android": "https://dc.lft.to/lastmile_qr_scan"}, "lon": -77.01537666666667, "type": "electric_scooter"}, {"bike_id": "593d5ad24b487cd88a14ece3f4a48d25", "is_reserved": 0, "fusion_lon": 0.0, "lat": 38.93603366666667, "is_disabled": 0, "name": "593d5ad24b487cd88a14ece3f4a48d25", "fusion_lat": 0.0, "rental_uris": {"ios": "https://dc.lft.to/lastmile_qr_scan", "android": "https://dc.lft.to/lastmile_qr_scan"}, "lon": -77.05858716666667, "type": "electric_scooter"}, {"bike_id": "ed4ba1b1572b3831ed2d76424307fbda", "is_reserved": 0, "fusion_lon": 0.0, "lat": 38.922336666666666, "is_disabled": 0, "name": "ed4ba1b1572b3831ed2d76424307fbda", "fusion_lat": 0.0, "rental_uris": {"ios": "https://dc.lft.to/lastmile_qr_scan", "android": "https://dc.lft.to/lastmile_qr_scan"}, "lon": -77.02717333333334, "type": "electric_scooter"}, {"bike_id": "e7444dda1f05d18b43e3f09ebb88e7db", "is_reserved": 0, "fusion_lon": 0.0, "lat": 38.90821283333333, "is_disabled": 0, "name": "e7444dda1f05d18b43e3f09ebb88e7db", "fusion_lat": 0.0, "rental_uris": {"ios": "https://dc.lft.to/lastmile_qr_scan", "android": "https://dc.lft.to/lastmile_qr_scan"}, "lon": -77.0338395, "type": "electric_scooter"}, {"bike_id": "bd52eaba786903f47b56a5bab510081b", "is_reserved": 0, "fusion_lon": 0.0, "lat": 38.990683833333335, "is_disabled": 0, "name": "bd52eaba786903f47b56a5bab510081b", "fusion_lat": 0.0, "rental_uris": {"ios": "https://dc.lft.to/lastmile_qr_scan", "android": "https://dc.lft.to/lastmile_qr_scan"}, "lon": -76.87469583333333, "type": "electric_bike"}, {"bike_id": "ef7a7fccece0086df63c97da3e31ed1f", "is_reserved": 0, "fusion_lon": 0.0, "lat": 38.90235, "is_disabled": 0, "name": "ef7a7fccece0086df63c97da3e31ed1f", "fusion_lat": 0.0, "rental_uris": {"ios": "https://dc.lft.to/lastmile_qr_scan", "android": "https://dc.lft.to/lastmile_qr_scan"}, "lon": -77.02647466666667, "type": "electric_scooter"}, {"bike_id": "e1734085f95d79671d4665f3e759b99b", "is_reserved": 0, "fusion_lon": 0.0, "lat": 38.828694666666664, "is_disabled": 0, "name": "e1734085f95d79671d4665f3e759b99b", "fusion_lat": 0.0, "rental_uris": {"ios": "https://dc.lft.to/lastmile_qr_scan", "android": "https://dc.lft.to/lastmile_qr_scan"}, "lon": -77.11221266666666, "type": "electric_bike"}, {"bike_id": "ff31d8656c4411a8a6b9b0fdeb2b94f8", "is_reserved": 0, "fusion_lon": 0.0, "lat": 38.907832666666664, "is_disabled": 0, "name": "ff31d8656c4411a8a6b9b0fdeb2b94f8", "fusion_lat": 0.0, "rental_uris": {"ios": "https://dc.lft.to/lastmile_qr_scan", "android": "https://dc.lft.to/lastmile_qr_scan"}, "lon": -77.03867116666666, "type": "electric_scooter"}, {"bike_id": "5e950ca7fd5b6db71a50a20bdd54bdff", "is_reserved": 0, "fusion_lon": 0.0, "lat": 38.95350216666667, "is_disabled": 0, "name": "5e950ca7fd5b6db71a50a20bdd54bdff", "fusion_lat": 0.0, "rental_uris": {"ios": "https://dc.lft.to/lastmile_qr_scan", "android": "https://dc.lft.to/lastmile_qr_scan"}, "lon": -76.98092766666667, "type": "electric_bike"},