{"data": {"bikes": [{"is_disabled": 0, "fusion_lon": 0.0, "fusion_lat": 0.0, "lat": 38.901951, "type": "electric_scooter", "lon": -77.03954716666667, "bike_id": "a5dc0870d71cb504174d776d7b60c774", "rental_uris": {"android": "https://dc.lft.to/lastmile_qr_scan", "ios": "https://dc.lft.to/lastmile_qr_scan"}, "name": "a5dc0870d71cb504174d776d7b60c774", "is_reserved": 0}, {"is_disabled": 0, "fusion_lon": 0.0, "fusion_lat": 0.0, "lat": 38.866268, "type": "electric_scooter", "lon": -76.98715816666666, "bike_id": "6cb1f2f2cb3edb07d73350e44632af31", "rental_uris": {"android": "https://dc.lft.to/lastmile_qr_scan", "ios": "https://dc.lft.to/lastmile_qr_scan"}, "name": "6cb1f2f2cb3edb07d73350e44632af31", "is_reserved": 0}, {"is_disabled": 0, "fusion_lon": 0.0, "fusion_lat": 0.0, "lat": 38.915545, "type": "electric_scooter", "lon": -77.0339845, "bike_id": "1991bcfce411c16bf2c17b5b51d717a8", "rental_uris": {"android": "https://dc.lft.to/lastmile_qr_scan", "ios": "https://dc.lft.to/lastmile_qr_scan"}, "name": "1991bcfce411c16bf2c17b5b51d717a8", "is_reserved": 0}, {"is_disabled": 0, "fusion_lon": 0.0, "fusion_lat": 0.0, "lat": 38.90157933333333, "type": "electric_scooter", "lon": -77.0248985, "bike_id": "2b2dcd97edd4b477b14cf10655fd2d18", "rental_uris": {"android": "https://dc.lft.to/lastmile_qr_scan", "ios": "https://dc.lft.to/lastmile_qr_scan"}, "name": "2b2dcd97edd4b477b14cf10655fd2d18", "is_reserved": 0}, {"is_disabled": 0, "fusion_lon": 0.0, "fusion_lat": 0.0, "lat": 38.90873283333333, "type": "electric_scooter", "lon": -77.03243466666666, "bike_id": "cd8d37f9827c3db25cb744b998feafce", "rental_uris": {"android": "https://dc.lft.to/lastmile_qr_scan", "ios": "https://dc.lft.to/lastmile_qr_scan"}, "name": "cd8d37f9827c3db25cb744b998feafce", "is_reserved": 0}, {"is_disabled": 0, "fusion_lon": 0.0, "fusion_lat": 0.0, "lat": 38.84518666666666, "type": "electric_bike", "lon": -77.07798016666666, "bike_id": "ae04c8845ec4b8b9bb2c38b4db5004ce", "rental_uris": {"android": "https://dc.lft.to/lastmile_qr_scan", "ios": "https://dc.lft.to/lastmile_qr_scan"}, "name": "ae04c8845ec4b8b9bb2c38b4db5004ce", "is_reserved": 0}, {"is_disabled": 0, "fusion_lon": 0.0, "fusion_lat": 0.0, "lat": 38.90573233333333, "type": "electric_scooter", "lon": -77.047252, "bike_id": "a9c2689134350ba0ff7623853024f73d", "rental_uris": {"android": "https://dc.lft.to/lastmile_qr_scan", "ios": "https://dc.lft.to/lastmile_qr_scan"}, "name": "a9c2689134350ba0ff7623853024f73d", "is_reserved": 0}, {"is_disabled": 0, "fusion_lon": 0.0, "fusion_lat": 0.0, "lat": 38.906849333333334, "type": "electric_scooter", "lon": -77.02694016666666, "bike_id": "c3604189eb5c33eb696cb5fb62ce78e1", "rental_uris": {"android": "https://dc.lft.to/lastmile_qr_scan", "ios": "https://dc.lft.to/lastmile_qr_scan"}, "name": "c3604189eb5c33eb696cb5fb62ce78e1", "is_reserved": 0}, {"is_disabled": 0, "fusion_lon": 0.0, "fusion_lat": 0.0, "lat": 38.9083805, "type": "electric_scooter", "lon": -76.99700466666667, "bike_id": "43bd4bef3eb75eda82bbe01cdd9f8aa1", "rental_uris": {"android": "https://dc.lft.to/lastmile_qr_scan", "ios": "https://dc.lft.to/lastmile_qr_scan"}, "name": "43bd4bef3eb75eda82bbe01cdd9f8aa1", "is_reserved": 0}, {"is_disabled": 0, "fusion_lon": 0.0, "fusion_lat": 0.0, "lat": 38.9115025, "type": "electric_scooter", "lon": -77.04166116666667, "bike_id": "142910f5f431606001d4d4baa7e0782a", "rental_uris": {"android": "https://dc.lft.to/lastmile_qr_scan", "ios": "https://dc.lft.to/lastmile_qr_scan"}, "name": "142910f5f431606001d4d4baa7e0782a", "is_reserved": 0}, {"is_disabled": 0, "fusion_lon": 0.0, "fusion_lat": 0.0, "lat": 38.91821083333333, "type": "electric_scooter", "lon": -77.04518866666666, "bike_id": "755bc3ad56d6a6efc050a10db6c83bdf", "rental_uris": {"android": "https://dc.lft.to/lastmile_qr_scan", "ios": "https://dc.lft.to/lastmile_qr_scan"}, "name": "755bc3ad56d6a6efc050a10db6c83bdf", "is_reserved": 0}, {"is_disabled": 0, "fusion_lon": 0.0, "fusion_lat": 0.0, "lat": 38.93235683333333, "type": "electric_scooter", "lon": -76.99936, "bike_id": "bb7aa12b948b15898ed87aea4554a552", "rental_uris": {"android": "https://dc.lft.to/lastmile_qr_scan", "ios": "https://dc.lft.to/lastmile_qr_scan"}, "name": "bb7aa12b948b15898ed87aea4554a552", "is_reserved": 0}, {"is_disabled": 0, "fusion_lon": 0.0, "fusion_lat": 0.0, "lat": 38.831240666666666, "type": "electric_bike", "lon": -77.04329266666667, "bike_id": "50b6ccc089063af1e28d18584ffa5499", "rental_uris": {"android": "https://dc.lft.to/lastmile_qr_scan", "ios": "https://dc.lft.to/lastmile_qr_scan"}, "name": "50b6ccc089063af1e28d18584ffa5499", "is_reserved": 0}, {"is_disabled": 0, "fusion_lon": 0.0, "fusion_lat": 0.0, "lat": 38.905955166666665, "type": "electric_scooter", "lon": -77.04675033333334, "bike_id": "65f7a8366c1101f512ad73948a0827f7", "rental_uris": {"android": "https://dc.lft.to/lastmile_qr_scan", "ios": "https://dc.lft.to/lastmile_qr_scan"}, "name": "65f7a8366c1101f512ad73948a0827f7", "is_reserved": 0}, {"is_disabled": 0, "fusion_lon": 0.0, "fusion_lat": 0.0, "lat": 38.936680833333334, "type": "electric_scooter", "lon": -77.03634783333334, "bike_id": "73e89b8c7ade85d15aff9d9eb122ab86", "rental_uris": {"android": "https://dc.lft.to/lastmile_qr_scan", "ios": "https://dc.lft.to/lastmile_qr_scan"}, "name": "73e89b8c7ade85d15aff9d9eb122ab86", "is_reserved": 0}, {"is_disabled": 0, "fusion_lon": 0.0, "fusion_lat": 0.0, "lat": 38.94892016666667, "type": "electric_bike", "lon": -76.963771, "bike_id": "13698d441a63bc0f394349d4d9f3d22e", "rental_uris": {"android": "https://dc.lft.to/lastmile_qr_scan", "ios": "https://dc.lft.to/lastmile_qr_scan"}, "name": "13698d441a63bc0f394349d4d9f3d22e", "is_reserved": 0}, {"is_disabled": 0, "fusion_lon": 0.0, "fusion_lat": 0.0, "lat": 38.939298, "type": "electric_bike", "lon": -76.9951615, "bike_id": "d9af9313783259f3d31589bb36f13aab", "rental_uris": {"android": "https://dc.lft.to/lastmile_qr_scan", "ios": "https://dc.lft.to/lastmile_qr_scan"}, "name": "d9af9313783259f3d31589bb36f13aab", "is_reserved": 0}, {"is_disabled": 0, "fusion_lon": 0.0, "fusion_lat": 0.0, "lat": 38.9178665, "type": "electric_scooter", "lon": -77.0435285, "bike_id": "5824b687579fec39156b75a963897d48", "rental_uris": {"android": "https://dc.lft.to/lastmile_qr_scan", "ios": "https://dc.lft.to/lastmile_qr_scan"}, "name": "5824b687579fec39156b75a963897d48", "is_reserved": 0}, {"is_disabled": 0, "fusion_lon": 0.0, "fusion_lat": 0.0, "lat": 38.9370035, "type": "electric_scooter", "lon": -77.05598283333333, "bike_id": "0366199d126b396c9fb13adbc7b037bf", "rental_uris": {"android": "https://dc.lft.to/lastmile_qr_scan", "ios": "https://dc.lft.to/lastmile_qr_scan"}, "name": "0366199d126b396c9fb13adbc7b037bf", "is_reserved": 0}, {"is_disabled": 0, "fusion_lon": 0.0, "fusion_lat": 0.0, "lat": 38.88836516666667, "type": "electric_scooter", "lon": -76.91788383333333, "bike_id": "17650a673ba0c54ebf99e81e6dfc12f2", "rental_uris": {"android": "https://dc.lft.to/lastmile_qr_scan", "ios": "https://dc.lft.to/lastmile_qr_scan"}, "name": "17650a673ba0c54ebf99e81e6dfc12f2", "is_reserved": 0}, {"is_disabled": 0, "fusion_lon": 0.0, "fusion_lat": 0.0, "lat": 38.904955, "type": "electric_scooter", "lon": -77.06837266666666, "bike_id": "962332149b3b56d2c429634108ab5ff5", "rental_uris": {"android": "https://dc.lft.to/lastmile_qr_scan", "ios": "https://dc.lft.to/lastmile_qr_scan"}, "name": "962332149b3b56d2c429634108ab5ff5", "is_reserved": 0}, {"is_disabled": 0, "fusion_lon": 0.0, "fusion_lat": 0.0, "lat": 38.931416166666665, "type": "electric_scooter", "lon": -77.032397, "bike_id": "b8cccd4bb062b8d95afa9cd346881bcf", "rental_uris": {"android": "https://dc.lft.to/lastmile_qr_scan", "ios": "https://dc.lft.to/lastmile_qr_scan"}, "name": "b8cccd4bb062b8d95afa9cd346881bcf", "is_reserved": 0}, {"is_disabled": 0, "fusion_lon": 0.0, "fusion_lat": 0.0, "lat": 38.9449095, "type": "electric_bike", "lon": -76.98662533333334, "bike_id": "b133c53daf97cb553e1227cc884eebd1", "rental_uris": {"android": "https://dc.lft.to/lastmile_qr_scan", "ios": "https://dc.lft.to/lastmile_qr_scan"}, "name": "b133c53daf97cb553e1227cc884eebd1", "is_reserved": 0}, {"is_disabled": 0, "fusion_lon": 0.0, "fusion_lat": 0.0, "lat": 38.90840816666667, "type": "electric_scooter", "lon": -77.026992, "bike_id": "87e63846f0d004ae659a231eb76afed4", "rental_uris": {"android": "https://dc.lft.to/lastmile_qr_scan", "ios": "https://dc.lft.to/lastmile_qr_scan"}, "name": "87e63846f0d004ae659a231eb76afed4", "is_reserved": 0}, {"is_disabled": 0, "fusion_lon": 0.0, "fusion_lat": 0.0, "lat": 38.917227833333335, "type": "electric_scooter", "lon": -77.0346115, "bike_id": "61c61eaf3e56efce097fbdeffd59da03", "rental_uris": {"android": "https://dc.lft.to/lastmile_qr_scan", "ios": "https://dc.lft.to/lastmile_qr_scan"}, "name": "61c61eaf3e56efce097fbdeffd59da03", "is_reserved": 0}, {"is_disabled": 0, "fusion_lon": 0.0, "fusion_lat": 0.0, "lat": 38.902220166666666, "type": "electric_scooter", "lon": -77.02373433333334, "bike_id": "ad31950794847d11bd5e50708d0785e5", "rental_uris": {"android": "https://dc.lft.to/lastmile_qr_scan", "ios": "https://dc.lft.to/lastmile_qr_scan"}, "name": "ad31950794847d11bd5e50708d0785e5", "is_reserved": 0}, {"is_disabled": 0, "fusion_lon": 0.0, "fusion_lat": 0.0, "lat": 38.909687, "type": "electric_scooter", "lon": -77.0323435, "bike_id": "87e7906378bcd7c9db0a474533021ac2", "rental_uris": {"android": "https://dc.lft.to/lastmile_qr_scan", "ios": "https://dc.lft.to/lastmile_qr_scan"}, "name": "87e7906378bcd7c9db0a474533021ac2", "is_reserved": 0}, {"is_disabled": 0, "fusion_lon": 0.0, "fusion_lat": 0.0, "lat": 38.912815, "type": "electric_scooter", "lon": -77.032117, "bike_id": "4a0ad309b0c18a311b6bee0d5366300e", "rental_uris": {"android": "https://dc.lft.to/lastmile_qr_scan", "ios": "https://dc.lft.to/lastmile_qr_scan"}, "name": "4a0ad309b0c18a311b6bee0d5366300e", "is_reserved": 0}, {"is_disabled": 0, "fusion_lon": 0.0, "fusion_lat": 0.0, "lat": 38.889663, "type": "electric_scooter", "lon": -76.92737816666667, "bike_id": "bdadf8871ce34d64bc1a2ff327682428", "rental_uris": {"android": "https://dc.lft.to/lastmile_qr_scan", "ios": "https://dc.lft.to/lastmile_qr_scan"}, "name": "bdadf8871ce34d64bc1a2ff327682428", "is_reserved": 0}, {"is_disabled": 0, "fusion_lon": 0.0, "fusion_lat": 0.0, "lat": 38.90727833333333, "type": "electric_scooter", "lon": -77.02416266666667, "bike_id": "49397932eabe30c00f7f06eb4058082d", "rental_uris": {"android": "https://dc.lft.to/lastmile_qr_scan", "ios": "https://dc.lft.to/lastmile_qr_scan"}, "name": "49397932eabe30c00f7f06eb4058082d", "is_reserved": 0}, {"is_disabled": 0, "fusion_lon": 0.0, "fusion_lat": 0.0, "lat": 38.874993333333336, "type": "electric_scooter", "lon": -76.99794766666666, "bike_id": "aacfd69afd44bac7e3b7575fd616f6fd", "rental_uris": {"android": "https://dc.lft.to/lastmile_qr_scan", "ios": "https://dc.lft.to/lastmile_qr_scan"}, "name": "aacfd69afd44bac7e3b7575fd616f6fd", "is_reserved": 0}, {"is_disabled": 0, "fusion_lon": 0.0, "fusion_lat": 0.0, "lat": 38.84524233333333, "type": "electric_scooter", "lon": -76.981505, "bike_id": "cf63f6e5be3e786919dbb3ebbe58b6e3", "rental_uris": {"android": "https://dc.lft.to/lastmile_qr_scan", "ios": "https://dc.lft.to/lastmile_qr_scan"}, "name": "cf63f6e5be3e786919dbb3ebbe58b6e3", "is_reserved": 0}, {"is_disabled": 0, "fusion_lon": 0.0, "fusion_lat": 0.0, "lat": 38.887239666666666, "type": "electric_scooter", "lon": -77.02202966666667, "bike_id": "42932a90e93eddd348c00ba8463f2a9f", "rental_uris": {"android": "https://dc.lft.to/lastmile_qr_scan", "ios": "https://dc.lft.to/lastmile_qr_scan"}, "name": "42932a90e93eddd348c00ba8463f2a9f", "is_reserved": 0}, {"is_disabled": 0, "fusion_lon": 0.0, "fusion_lat": 0.0, "lat": 38.91824916666667, "type": "electric_scooter", "lon": -77.03528766666666, "bike_id": "3e0faa633734ddb325125d54abca10f0", "rental_uris": {"android": "https://dc.lft.to/lastmile_qr_scan", "ios": "https://dc.lft.to/lastmile_qr_scan"}, "name": "3e0faa633734ddb325125d54abca10f0", "is_reserved": 0}, {"is_disabled": 0, "fusion_lon": 0.0, "fusion_lat": 0.0, "lat": 38.9310045, "type": "electric_scooter", "lon": -77.0245195, "bike_id": "12543d7e9e5af9a7b0c4ccfed6698273", "rental_uris": {"android": "https://dc.lft.to/lastmile_qr_scan", "ios": "https://dc.lft.to/lastmile_qr_scan"}, "name": "12543d7e9e5af9a7b0c4ccfed6698273", "is_reserved": 0}, {"is_disabled": 0, "fusion_lon": 0.0, "fusion_lat": 0.0, "lat": 38.9320025, "type": "electric_scooter", "lon": -77.03854083333333, "bike_id": "93475c36899883d5ce7dbf298258fb9c", "rental_uris": {"android": "https://dc.lft.to/lastmile_qr_scan", "ios": "https://dc.lft.to/lastmile_qr_scan"}, "name": "93475c36899883d5ce7dbf298258fb9c", "is_reserved": 0}, {"is_disabled": 0, "fusion_lon": 0.0, "fusion_lat": 0.0, "lat": 38.864671333333334, "type": "electric_scooter", "lon": -76.9961115, "bike_id": "03928df60f829daf43c2184f6ea0c844", "rental_uris": {"android": "https://dc.lft.to/lastmile_qr_scan", "ios": "https://dc.lft.to/lastmile_qr_scan"}, "name": "03928df60f829daf43c2184f6ea0c844", "is_reserved": 0}, {"is_disabled": 0, "fusion_lon": 0.0, "fusion_lat": 0.0, "lat": 38.900630166666666, "type": "electric_scooter", "lon": -76.93384933333333, "bike_id": "2460ce7b908ec64a144494b2a033491b", "rental_uris": {"android": "https://dc.lft.to/lastmile_qr_scan", "ios": "https://dc.lft.to/lastmile_qr_scan"}, "name": "2460ce7b908ec64a144494b2a033491b", "is_reserved": 0}, {"is_disabled": 0, "fusion_lon": 0.0, "fusion_lat": 0.0, "lat": 38.87896166666667, "type": "electric_scooter", "lon": -76.93523416666666, "bike_id": "3ea59282c090a5b8f49987c408667e06", "rental_uris": {"android": "https://dc.lft.to/lastmile_qr_scan", "ios": "https://dc.lft.to/lastmile_qr_scan"}, "name": "3ea59282c090a5b8f49987c408667e06", "is_reserved": 0}, {"is_disabled": 0, "fusion_lon": 0.0, "fusion_lat": 0.0, "lat": 38.899668, "type": "electric_scooter", "lon": -77.05143483333333, "bike_id": "5729cc8531d8392e5f753468db02f932", "rental_uris": {"android": "https://dc.lft.to/lastmile_qr_scan", "ios": "https://dc.lft.to/lastmile_qr_scan"}, "name": "5729cc8531d8392e5f753468db02f932", "is_reserved": 0}, {"is_disabled": 0, "fusion_lon": 0.0, "fusion_lat": 0.0, "lat": 38.93607316666667, "type": "electric_scooter", "lon": -77.05858733333334, "bike_id": "05bee56bb22ed462ca5f9a691e9307d7", "rental_uris": {"android": "https://dc.lft.to/lastmile_qr_scan", "ios": "https://dc.lft.to/lastmile_qr_scan"}, "name": "05bee56bb22ed462ca5f9a691e9307d7", "is_reserved": 0}, {"is_disabled": 0, "fusion_lon": 0.0, "fusion_lat": 0.0, "lat": 38.90705, "type": "electric_scooter", "lon": -77.046642, "bike_id": "e2d128d546e678f5a5e959e75ec4031f", "rental_uris": {"android": "https://dc.lft.to/lastmile_qr_scan", "ios": "https://dc.lft.to/lastmile_qr_scan"}, "name": "e2d128d546e678f5a5e959e75ec4031f", "is_reserved": 0}, {"is_disabled": 0, "fusion_lon": 0.0, "fusion_lat": 0.0, "lat": 38.923271, "type": "electric_scooter", "lon": -77.04183783333333, "bike_id": "d20570c212fc9291a28c9757f88009c7", "rental_uris": {"android": "https://dc.lft.to/lastmile_qr_scan", "ios": "https://dc.lft.to/lastmile_qr_scan"}, "name": "d20570c212fc9291a28c9757f88009c7", "is_reserved": 0}, {"is_disabled": 0, "fusion_lon": 0.0, "fusion_lat": 0.0, "lat": 38.871606666666665, "type": "electric_scooter", "lon": -77.0135335, "bike_id": "80bd38377b7170280236e8060dfaebe9", "rental_uris": {"android": "https://dc.lft.to/lastmile_qr_scan", "ios": "https://dc.lft.to/lastmile_qr_scan"}, "name": "80bd38377b7170280236e8060dfaebe9", "is_reserved": 0}, {"is_disabled": 0, "fusion_lon": 0.0, "fusion_lat": 0.0, "lat": 38.90391783333333, "type": "electric_scooter", "lon": -77.03453533333334, "bike_id": "3d362ca6966f62985bf1b699a367e61d", "rental_uris": {"android": "https://dc.lft.to/lastmile_qr_scan", "ios": "https://dc.lft.to/lastmile_qr_scan"}, "name": "3d362ca6966f62985bf1b699a367e61d", "is_reserved": 0}, {"is_disabled": 0, "fusion_lon": 0.0, "fusion_lat": 0.0, "lat": 38.89522633333333, "type": "electric_scooter", "lon": -77.0091765, "bike_id": "7a7e8442661fcd205418b39ae543203e", "rental_uris": {"android": "https://dc.lft.to/lastmile_qr_scan", "ios": "https://dc.lft.to/lastmile_qr_scan"}, "name": "7a7e8442661fcd205418b39ae543203e", "is_reserved": 0}, {"is_disabled": 0, "fusion_lon": 0.0, "fusion_lat": 0.0, "lat": 38.8649945, "type": "electric_scooter", "lon": -76.98977616666667, "bike_id": "79a27e67da467e91d897e0a5175093cf", "rental_uris": {"android": "https://dc.lft.to/lastmile_qr_scan", "ios": "https://dc.lft.to/lastmile_qr_scan"}, "name": "79a27e67da467e91d897e0a5175093cf", "is_reserved": 0}, {"is_disabled": 0, "fusion_lon": 0.0, "fusion_lat": 0.0, "lat": 38.9255615, "type": "electric_scooter", "lon": -77.025619, "bike_id": "6df4acd7f41becf5cf8061f416e69e94", "rental_uris": {"android": "https://dc.lft.to/lastmile_qr_scan", "ios": "https://dc.lft.to/lastmile_qr_scan"}, "name": "6df4acd7f41becf5cf8061f416e69e94", "is_reserved": 0}, {"is_disabled": 0, "fusion_lon": 0.0, "fusion_lat": 0.0, "lat": 38.9249885, "type": "electric_scooter", "lon": -77.03529316666666, "bike_id": "1c8015b895136fbf480f486f886c5441", "rental_uris": {"android": "https://dc.lft.to/lastmile_qr_scan", "ios": "https://dc.lft.to/lastmile_qr_scan"}, "name": "1c8015b895136fbf480f486f886c5441", "is_reserved": 0}, {"is_disabled": 0, "fusion_lon": 0.0, "fusion_lat": 0.0, "lat": 38.8974025, "type": "electric_scooter", "lon": -77.03183033333333, "bike_id": "8dbdf073d941450073937c7f9b782061", "rental_uris": {"android": "https://dc.lft.to/lastmile_qr_scan", "ios": "https://dc.lft.to/lastmile_qr_scan"}, "name": "8dbdf073d941450073937c7f9b782061", "is_reserved": 0}, {"is_disabled": 0, "fusion_lon": 0.0, "fusion_lat": 0.0, "lat": 38.91415933333333, "type": "electric_scooter", "lon": -77.01880083333333, "bike_id": "d89564ad37ee14ebfe105263be28db96", "rental_uris": {"android": "https://dc.lft.to/lastmile_qr_scan", "ios": "https://dc.lft.to/lastmile_qr_scan"}, "name": "d89564ad37ee14ebfe105263be28db96", "is_reserved": 0}, {"is_disabled": 0, "fusion_lon": 0.0, "fusion_lat": 0.0, "lat": 38.91201433333333, "type": "electric_scooter", "lon": -77.03178566666666, "bike_id": "275da39f20d01e9f137249d514a1cecc", "rental_uris": {"android": "https://dc.lft.to/lastmile_qr_scan", "ios": "https://dc.lft.to/lastmile_qr_scan"}, "name": "275da39f20d01e9f137249d514a1cecc", "is_reserved": 0}, {"is_disabled": 0, "fusion_lon": 0.0, "fusion_lat": 0.0, "lat": 39.088462666666665, "type": "electric_bike", "lon": -77.17798966666666, "bike_id": "9d69d0eb34f30a01b0580f5719f7de0a", "rental_uris": {"android": "https://dc.lft.to/lastmile_qr_scan", "ios": "https://dc.lft.to/lastmile_qr_scan"}, "name": "9d69d0eb34f30a01b0580f5719f7de0a", "is_reserved": 0}, {"is_disabled": 0, "fusion_lon": 0.0, "fusion_lat": 0.0, "lat": 38.892064500000004, "type": "electric_scooter", "lon": -76.98807316666667, "bike_id": "f01ebf666a22e70e9357444a0e4846e6", "rental_uris": {"android": "https://dc.lft.to/lastmile_qr_scan", "ios": "https://dc.lft.to/lastmile_qr_scan"}, "name": "f01ebf666a22e70e9357444a0e4846e6", "is_reserved": 0}, {"is_disabled": 0, "fusion_lon": 0.0, "fusion_lat": 0.0, "lat": 38.884253666666666, "type": "electric_scooter", "lon": -76.95415583333333, "bike_id": "3e2f0173bc813b71b1dac2ec453d2635", "rental_uris": {"android": "https://dc.lft.to/lastmile_qr_scan", "ios": "https://dc.lft.to/lastmile_qr_scan"}, "name": "3e2f0173bc813b71b1dac2ec453d2635", "is_reserved": 0}, {"is_disabled": 0, "fusion_lon": 0.0, "fusion_lat": 0.0, "lat": 38.91111883333333, "type": "electric_scooter", "lon": -77.06611333333333, "bike_id": "ddf70a7b8501d68461824f995ae69e27", "rental_uris": {"android": "https://dc.lft.to/lastmile_qr_scan", "ios": "https://dc.lft.to/lastmile_qr_scan"}, "name": "ddf70a7b8501d68461824f995ae69e27", "is_reserved": 0}, {"is_disabled": 0, "fusion_lon": 0.0, "fusion_lat": 0.0, "lat": 38.914331833333335, "type": "electric_scooter", "lon": -77.03468233333334, "bike_id": "9041812ba1c496594353251d4ec94a8e", "rental_uris": {"android": "https://dc.lft.to/lastmile_qr_scan", "ios": "https://dc.lft.to/lastmile_qr_scan"}, "name": "9041812ba1c496594353251d4ec94a8e", "is_reserved": 0}, {"is_disabled": 0, "fusion_lon": 0.0, "fusion_lat": 0.0, "lat": 38.889643, "type": "electric_scooter", "lon": -76.9359785, "bike_id": "dde3ab036767760808b08fb1aec97fa6", "rental_uris": {"android": "https://dc.lft.to/lastmile_qr_scan", "ios": "https://dc.lft.to/lastmile_qr_scan"}, "name": "dde3ab036767760808b08fb1aec97fa6", "is_reserved": 0}, {"is_disabled": 0, "fusion_lon": 0.0, "fusion_lat": 0.0, "lat": 38.88746183333333, "type": "electric_scooter", "lon": -77.01533383333333, "bike_id": "40ef560027d1be3f82e6ac90b230988e", "rental_uris": {"android": "https://dc.lft.to/lastmile_qr_scan", "ios": "https://dc.lft.to/lastmile_qr_scan"}, "name": "40ef560027d1be3f82e6ac90b230988e", "is_reserved": 0}, {"is_disabled": 0, "fusion_lon": 0.0, "fusion_lat": 0.0, "lat": 38.8948465, "type": "electric_bike", "lon": -76.99520233333334, "bike_id": "c9843c42fe547e74d0534bd57f144d05", "rental_uris": {"android": "https://dc.lft.to/lastmile_qr_scan", "ios": "https://dc.lft.to/lastmile_qr_scan"}, "name": "c9843c42fe547e74d0534bd57f144d05", "is_reserved": 0}, {"is_disabled": 0, "fusion_lon": 0.0, "fusion_lat": 0.0, "lat": 38.922633, "type": "electric_scooter", "lon": -77.04128016666667, "bike_id": "d4b05c637bd09cf4c07af703794a81be", "rental_uris": {"android": "https://dc.lft.to/lastmile_qr_scan", "ios": "https://dc.lft.to/lastmile_qr_scan"}, "name": "d4b05c637bd09cf4c07af703794a81be", "is_reserved": 0}, {"is_disabled": 0, "fusion_lon": 0.0, "fusion_lat": 0.0, "lat": 38.93783483333333, "type": "electric_scooter", "lon": -77.01882366666666, "bike_id": "32514da63908902f4b54b0e041accc90", "rental_uris": {"android": "https://dc.lft.to/lastmile_qr_scan", "ios": "https://dc.lft.to/lastmile_qr_scan"}, "name": "32514da63908902f4b54b0e041accc90", "is_reserved": 0}, {"is_disabled": 0, "fusion_lon": 0.0, "fusion_lat": 0.0, "lat": 38.907694166666666, "type": "electric_scooter", "lon": -77.03468866666667, "bike_id": "22d5da5cdc29d5a106f34bd082261f92", "rental_uris": {"android": "https://dc.lft.to/lastmile_qr_scan", "ios": "https://dc.lft.to/lastmile_qr_scan"}, "name": "22d5da5cdc29d5a106f34bd082261f92", "is_reserved": 0}, {"is_disabled": 0, "fusion_lon": 0.0, "fusion_lat": 0.0, "lat": 38.961308, "type": "electric_scooter", "lon": -77.08534566666667, "bike_id": "a9d9a09323740942eff3f16f3e1b5843", "rental_uris": {"android": "https://dc.lft.to/lastmile_qr_scan", "ios": "https://dc.lft.to/lastmile_qr_scan"}, "name": "a9d9a09323740942eff3f16f3e1b5843", "is_reserved": 0}, {"is_disabled": 0, "fusion_lon": 0.0, "fusion_lat": 0.0, "lat": 38.89565183333333, "type": "electric_bike", "lon": -77.1273835, "bike_id": "1635acbd1482469f101f707d2aeee593", "rental_uris": {"android": "https://dc.lft.to/lastmile_qr_scan", "ios": "https://dc.lft.to/lastmile_qr_scan"}, "name": "1635acbd1482469f101f707d2aeee593", "is_reserved": 0}, {"is_disabled": 0, "fusion_lon": 0.0, "fusion_lat": 0.0, "lat": 38.92220233333333, "type": "electric_scooter", "lon": -77.03295783333333, "bike_id": "e4b56b3dd7295632fc68d52554339ac2", "rental_uris": {"android": "https://dc.lft.to/lastmile_qr_scan", "ios": "https://dc.lft.to/lastmile_qr_scan"}, "name": "e4b56b3dd7295632fc68d52554339ac2", "is_reserved": 0}, {"is_disabled": 0, "fusion_lon": 0.0, "fusion_lat": 0.0, "lat": 38.90837783333333, "type": "electric_scooter", "lon": -76.99704566666666, "bike_id": "237421ff0f02731978977551af694acc", "rental_uris": {"android": "https://dc.lft.to/lastmile_qr_scan", "ios": "https://dc.lft.to/lastmile_qr_scan"}, "name": "237421ff0f02731978977551af694acc", "is_reserved": 0}, {"is_disabled": 0, "fusion_lon": 0.0, "fusion_lat": 0.0, "lat": 38.92370283333333, "type": "electric_scooter", "lon": -77.050329, "bike_id": "ba41f0e8e49065bd1f6079915f31d71e", "rental_uris": {"android": "https://dc.lft.to/lastmile_qr_scan", "ios": "https://dc.lft.to/lastmile_qr_scan"}, "name": "ba41f0e8e49065bd1f6079915f31d71e", "is_reserved": 0}, {"is_disabled": 0, "fusion_lon": 0.0, "fusion_lat": 0.0, "lat": 38.902631, "type": "electric_scooter", "lon": -77.0345995, "bike_id": "b32c433d1071a6c6fae1603dae1483a8", "rental_uris": {"android": "https://dc.lft.to/lastmile_qr_scan", "ios": "https://dc.lft.to/lastmile_qr_scan"}, "name": "b32c433d1071a6c6fae1603dae1483a8", "is_reserved": 0}, {"is_disabled": 0, "fusion_lon": 0.0, "fusion_lat": 0.0, "lat": 38.872760666666665, "type": "electric_scooter", "lon": -76.9691565, "bike_id": "6ec239782f4027bf1299700303320344", "rental_uris": {"android": "https://dc.lft.to/lastmile_qr_scan", "ios": "https://dc.lft.to/lastmile_qr_scan"}, "name": "6ec239782f4027bf1299700303320344", "is_reserved": 0}, {"is_disabled": 0, "fusion_lon": 0.0, "fusion_lat": 0.0, "lat": 38.888737166666665, "type": "electric_scooter", "lon": -77.0399505, "bike_id": "c08cc174be56df2aec29adc496db931f", "rental_uris": {"android": "https://dc.lft.to/lastmile_qr_scan", "ios": "https://dc.lft.to/lastmile_qr_scan"}, "name": "c08cc174be56df2aec29adc496db931f", "is_reserved": 0}, {"is_disabled": 0, "fusion_lon": 0.0, "fusion_lat": 0.0, "lat": 38.918414, "type": "electric_scooter", "lon": -77.072141, "bike_id": "a89c2a732e1ce2ec8df28fc04241b90b", "rental_uris": {"android": "https://dc.lft.to/lastmile_qr_scan", "ios": "https://dc.lft.to/lastmile_qr_scan"}, "name": "a89c2a732e1ce2ec8df28fc04241b90b", "is_reserved": 0}, {"is_disabled": 0, "fusion_lon": 0.0, "fusion_lat": 0.0, "lat": 38.909499, "type": "electric_scooter", "lon": -77.0344415, "bike_id": "ce910219ec176cc6341d65f1ddf6e29f", "rental_uris": {"android": "https://dc.lft.to/lastmile_qr_scan", "ios": "https://dc.lft.to/lastmile_qr_scan"}, "name": "ce910219ec176cc6341d65f1ddf6e29f", "is_reserved": 0}, {"is_disabled": 0, "fusion_lon": 0.0, "fusion_lat": 0.0, "lat": 38.92850966666666, "type": "electric_scooter", "lon": -77.01423266666667, "bike_id": "d008859c95aba093c359205f2d612654", "rental_uris": {"android": "https://dc.lft.to/lastmile_qr_scan", "ios": "https://dc.lft.to/lastmile_qr_scan"}, "name": "d008859c95aba093c359205f2d612654", "is_reserved": 0}, {"is_disabled": 0, "fusion_lon": 0.0, "fusion_lat": 0.0, "lat": 38.91044816666667, "type": "electric_scooter", "lon": -77.038493, "bike_id": "f1d170903ecf1995343961df549984c7", "rental_uris": {"android": "https://dc.lft.to/lastmile_qr_scan", "ios": "https://dc.lft.to/lastmile_qr_scan"}, "name": "f1d170903ecf1995343961df549984c7", "is_reserved": 0}, {"is_disabled": 0, "fusion_lon": 0.0, "fusion_lat": 0.0, "lat": 38.84435933333334, "type": "electric_scooter", "lon": -76.99776016666667, "bike_id": "99fbafba9449a1507317b03a493ba8e9", "rental_uris": {"android": "https://dc.lft.to/lastmile_qr_scan", "ios": "https://dc.lft.to/lastmile_qr_scan"}, "name": "99fbafba9449a1507317b03a493ba8e9", "is_reserved": 0}, {"is_disabled": 0, "fusion_lon": 0.0, "fusion_lat": 0.0, "lat": 38.925347, "type": "electric_scooter", "lon": -77.076543, "bike_id": "97807b15d343282069811ff3f5f13df0", "rental_uris": {"android": "https://dc.lft.to/lastmile_qr_scan", "ios": "https://dc.lft.to/lastmile_qr_scan"}, "name": "97807b15d343282069811ff3f5f13df0", "is_reserved": 0}, {"is_disabled": 0, "fusion_lon": 0.0, "fusion_lat": 0.0, "lat": 38.91799183333333, "type": "electric_scooter", "lon": -77.0343735, "bike_id": "2070e816f9f436dfa919b552db9a3726", "rental_uris": {"android": "https://dc.lft.to/lastmile_qr_scan", "ios": "https://dc.lft.to/lastmile_qr_scan"}, "name": "2070e816f9f436dfa919b552db9a3726", "is_reserved": 0}, {"is_disabled": 0, "fusion_lon": 0.0, "fusion_lat": 0.0, "lat": 38.9134835, "type": "electric_scooter", "lon": -77.04239416666667, "bike_id": "def7c04ec6aa550689ecf141c99f49bf", "rental_uris": {"android": "https://dc.lft.to/lastmile_qr_scan", "ios": "https://dc.lft.to/lastmile_qr_scan"}, "name": "def7c04ec6aa550689ecf141c99f49bf", "is_reserved": 0}, {"is_disabled": 0, "fusion_lon": 0.0, "fusion_lat": 0.0, "lat": 38.89730566666667, "type": "electric_bike", "lon": -76.90543033333333, "bike_id": "054613eebd2b95f6c318d08ddd3c6621", "rental_uris": {"android": "https://dc.lft.to/lastmile_qr_scan", "ios": "https://dc.lft.to/lastmile_qr_scan"}, "name": "054613eebd2b95f6c318d08ddd3c6621", "is_reserved": 0}, {"is_disabled": 0, "fusion_lon": 0.0, "fusion_lat": 0.0, "lat": 38.939106333333335, "type": "electric_scooter", "lon": -77.07800533333334, "bike_id": "d4b2a97c0e221baa964fddd121388fda", "rental_uris": {"android": "https://dc.lft.to/lastmile_qr_scan", "ios": "https://dc.lft.to/lastmile_qr_scan"}, "name": "d4b2a97c0e221baa964fddd121388fda", "is_reserved": 0}, {"is_disabled": 0, "fusion_lon": 0.0, "fusion_lat": 0.0, "lat": 38.929191333333335, "type": "electric_scooter", "lon": -77.02634816666666, "bike_id": "f739cc0875bdd60496926d23b116ca86", "rental_uris": {"android": "https://dc.lft.to/lastmile_qr_scan", "ios": "https://dc.lft.to/lastmile_qr_scan"}, "name": "f739cc0875bdd60496926d23b116ca86", "is_reserved": 0}, {"is_disabled": 0, "fusion_lon": 0.0, "fusion_lat": 0.0, "lat": 38.90039766666666, "type": "electric_scooter", "lon": -76.9902885, "bike_id": "1fc9154ac528d9a56170c337b2ca8e44", "rental_uris": {"android": "https://dc.lft.to/lastmile_qr_scan", "ios": "https://dc.lft.to/lastmile_qr_scan"}, "name": "1fc9154ac528d9a56170c337b2ca8e44", "is_reserved": 0}, {"is_disabled": 0, "fusion_lon": 0.0, "fusion_lat": 0.0, "lat": 38.886888166666665, "type": "electric_scooter", "lon": -77.013833, "bike_id": "ad253f8d1baf39b8342d702762e678fe", "rental_uris": {"android": "https://dc.lft.to/lastmile_qr_scan", "ios": "https://dc.lft.to/lastmile_qr_scan"}, "name": "ad253f8d1baf39b8342d702762e678fe", "is_reserved": 0}, {"is_disabled": 0, "fusion_lon": 0.0, "fusion_lat": 0.0, "lat": 38.927347166666664, "type": "electric_scooter", "lon": -77.02707183333334, "bike_id": "967a55780c3670dff1658c943aa017c2", "rental_uris": {"android": "https://dc.lft.to/lastmile_qr_scan", "ios": "https://dc.lft.to/lastmile_qr_scan"}, "name": "967a55780c3670dff1658c943aa017c2", "is_reserved": 0}, {"is_disabled": 0, "fusion_lon": 0.0, "fusion_lat": 0.0, "lat": 39.052062166666666, "type": "electric_bike", "lon": -77.0440915, "bike_id": "b87252a6051fbbeef08639634b6870b8", "rental_uris": {"android": "https://dc.lft.to/lastmile_qr_scan", "ios": "https://dc.lft.to/lastmile_qr_scan"}, "name": "b87252a6051fbbeef08639634b6870b8", "is_reserved": 0}, {"is_disabled": 0, "fusion_lon": 0.0, "fusion_lat": 0.0, "lat": 38.886652833333336, "type": "electric_scooter", "lon": -77.00359966666667, "bike_id": "7de3f6962a91aa55f8dcbc5bb2fdacaa", "rental_uris": {"android": "https://dc.lft.to/lastmile_qr_scan", "ios": "https://dc.lft.to/lastmile_qr_scan"}, "name": "7de3f6962a91aa55f8dcbc5bb2fdacaa", "is_reserved": 0}, {"is_disabled": 0, "fusion_lon": 0.0, "fusion_lat": 0.0, "lat": 38.90035833333334, "type": "electric_scooter", "lon": -77.04682016666666, "bike_id": "2a1b0ee24605b79a03e265268dc4d3ee", "rental_uris": {"android": "https://dc.lft.to/lastmile_qr_scan", "ios": "https://dc.lft.to/lastmile_qr_scan"}, "name": "2a1b0ee24605b79a03e265268dc4d3ee", "is_reserved": 0}, {"is_disabled": 0, "fusion_lon": 0.0, "fusion_lat": 0.0, "lat": 38.9681965, "type": "electric_scooter", "lon": -77.00892516666667, "bike_id": "7f176a5a1b82562e9f810d467e053fce", "rental_uris": {"android": "https://dc.lft.to/lastmile_qr_scan", "ios": "https://dc.lft.to/lastmile_qr_scan"}, "name": "7f176a5a1b82562e9f810d467e053fce", "is_reserved": 0}, {"is_disabled": 0, "fusion_lon": 0.0, "fusion_lat": 0.0, "lat": 38.927528833333334, "type": "electric_bike", "lon": -76.99087216666666, "bike_id": "40895599520180ead1c2b35494584223", "rental_uris": {"android": "https://dc.lft.to/lastmile_qr_scan", "ios": "https://dc.lft.to/lastmile_qr_scan"}, "name": "40895599520180ead1c2b35494584223", "is_reserved": 0}, {"is_disabled": 0, "fusion_lon": 0.0, "fusion_lat": 0.0, "lat": 38.904399833333336, "type": "electric_scooter", "lon": -77.03181266666667, "bike_id": "cf0fe2e881b81af7b6377e461901b7e2", "rental_uris": {"android": "https://dc.lft.to/lastmile_qr_scan", "ios": "https://dc.lft.to/lastmile_qr_scan"}, "name": "cf0fe2e881b81af7b6377e461901b7e2", "is_reserved": 0}, {"is_disabled": 0, "fusion_lon": 0.0, "fusion_lat": 0.0, "lat": 38.9028245, "type": "electric_scooter", "lon": -77.03434833333333, "bike_id": "ef8f9e12a1f061e3b9b01dc9b1fe1769", "rental_uris": {"android": "https://dc.lft.to/lastmile_qr_scan", "ios": "https://dc.lft.to/lastmile_qr_scan"}, "name": "ef8f9e12a1f061e3b9b01dc9b1fe1769", "is_reserved": 0}, {"is_disabled": 0, "fusion_lon": 0.0, "fusion_lat": 0.0, "lat": 38.91288483333334, "type": "electric_scooter", "lon": -76.98697066666666, "bike_id": "32d461df75214aca8c42122181e43c51", "rental_uris": {"android": "https://dc.lft.to/lastmile_qr_scan", "ios": "https://dc.lft.to/lastmile_qr_scan"}, "name": "32d461df75214aca8c42122181e43c51", "is_reserved": 0}, {"is_disabled": 0, "fusion_lon": 0.0, "fusion_lat": 0.0, "lat": 38.897288833333334, "type": "electric_scooter", "lon": -77.03073566666667, "bike_id": "fe3b58ac7badff3444791bb67d96842c", "rental_uris": {"android": "https://dc.lft.to/lastmile_qr_scan", "ios": "https://dc.lft.to/lastmile_qr_scan"}, "name": "fe3b58ac7badff3444791bb67d96842c", "is_reserved": 0}, {"is_disabled": 0, "fusion_lon": 0.0, "fusion_lat": 0.0, "lat": 38.836084166666666, "type": "electric_bike", "lon": -77.00386833333333, "bike_id": "376265f45081e137dc7c52df391ddedc", "rental_uris": {"android": "https://dc.lft.to/lastmile_qr_scan", "ios": "https://dc.lft.to/lastmile_qr_scan"}, "name": "376265f45081e137dc7c52df391ddedc", "is_reserved": 0}, {"is_disabled": 0, "fusion_lon": 0.0, "fusion_lat": 0.0, "lat": 38.91351016666667, "type": "electric_scooter", "lon": -77.03179466666667, "bike_id": "c23555a483bab2c46e9a7fb4a3839a45", "rental_uris": {"android": "https://dc.lft.to/lastmile_qr_scan", "ios": "https://dc.lft.to/lastmile_qr_scan"}, "name": "c23555a483bab2c46e9a7fb4a3839a45", "is_reserved": 0}, {"is_disabled": 0, "fusion_lon": 0.0, "fusion_lat": 0.0, "lat": 38.899106833333335, "type": "electric_scooter", "lon": -76.93395433333333, "bike_id": "04239fd752c85b75db05496e94d5f6d7", "rental_uris": {"android": "https://dc.lft.to/lastmile_qr_scan", "ios": "https://dc.lft.to/lastmile_qr_scan"}, "name": "04239fd752c85b75db05496e94d5f6d7", "is_reserved": 0}, {"is_disabled": 0, "fusion_lon": 0.0, "fusion_lat": 0.0, "lat": 38.91699216666667, "type": "electric_scooter", "lon": -77.02177416666666, "bike_id": "1ee5b248d623e7ce47c1e78904bc5a4e", "rental_uris": {"android": "https://dc.lft.to/lastmile_qr_scan", "ios": "https://dc.lft.to/lastmile_qr_scan"}, "name": "1ee5b248d623e7ce47c1e78904bc5a4e", "is_reserved": 0}, {"is_disabled": 0, "fusion_lon": 0.0, "fusion_lat": 0.0, "lat": 38.924195, "type": "electric_scooter", "lon": -77.056232, "bike_id": "6a9bc9611a8ee5daac926f7cbfb9896e", "rental_uris": {"android": "https://dc.lft.to/lastmile_qr_scan", "ios": "https://dc.lft.to/lastmile_qr_scan"}, "name": "6a9bc9611a8ee5daac926f7cbfb9896e", "is_reserved": 0}, {"is_disabled": 0, "fusion_lon": 0.0, "fusion_lat": 0.0, "lat": 38.91858783333333, "type": "electric_scooter", "lon": -77.02955483333334, "bike_id": "1498a03e8aaae12e49e9d202a0aaf033", "rental_uris": {"android": "https://dc.lft.to/lastmile_qr_scan", "ios": "https://dc.lft.to/lastmile_qr_scan"}, "name": "1498a03e8aaae12e49e9d202a0aaf033", "is_reserved": 0}, {"is_disabled": 0, "fusion_lon": 0.0, "fusion_lat": 0.0, "lat": 38.9146765, "type": "electric_scooter", "lon": -77.04387316666667, "bike_id": "ad5bd5833277f26defc3c0900a820c50", "rental_uris": {"android": "https://dc.lft.to/lastmile_qr_scan", "ios": "https://dc.lft.to/lastmile_qr_scan"}, "name": "ad5bd5833277f26defc3c0900a820c50", "is_reserved": 0}, {"is_disabled": 0, "fusion_lon": 0.0, "fusion_lat": 0.0, "lat": 38.897083333333335, "type": "electric_scooter", "lon": -77.02463666666667, "bike_id": "92c876b38e42f0941b83f1c24e786025", "rental_uris": {"android": "https://dc.lft.to/lastmile_qr_scan", "ios": "https://dc.lft.to/lastmile_qr_scan"}, "name": "92c876b38e42f0941b83f1c24e786025", "is_reserved": 0}, {"is_disabled": 0, "fusion_lon": 0.0, "fusion_lat": 0.0, "lat": 38.9111095, "type": "electric_scooter", "lon": -77.03254, "bike_id": "685575a4326f496f148f1e6ebc20aac2", "rental_uris": {"android": "https://dc.lft.to/lastmile_qr_scan", "ios": "https://dc.lft.to/lastmile_qr_scan"}, "name": "685575a4326f496f148f1e6ebc20aac2", "is_reserved": 0}, {"is_disabled": 0, "fusion_lon": 0.0, "fusion_lat": 0.0, "lat": 38.91824483333333, "type": "electric_scooter", "lon": -77.03184066666667, "bike_id": "a7dfb341a01b14009af5f647eda8c132", "rental_uris": {"android": "https://dc.lft.to/lastmile_qr_scan", "ios": "https://dc.lft.to/lastmile_qr_scan"}, "name": "a7dfb341a01b14009af5f647eda8c132", "is_reserved": 0}, {"is_disabled": 0, "fusion_lon": 0.0, "fusion_lat": 0.0, "lat": 38.90740483333333, "type": "electric_scooter", "lon": -77.04192816666666, "bike_id": "3e28a28fe846d32580870e04c9b90c27", "rental_uris": {"android": "https://dc.lft.to/lastmile_qr_scan", "ios": "https://dc.lft.to/lastmile_qr_scan"}, "name": "3e28a28fe846d32580870e04c9b90c27", "is_reserved": 0}, {"is_disabled": 0, "fusion_lon": 0.0, "fusion_lat": 0.0, "lat": 38.905448666666665, "type": "electric_scooter", "lon": -77.02205416666666, "bike_id": "768fe64168731a7060b22137fd824f27", "rental_uris": {"android": "https://dc.lft.to/lastmile_qr_scan", "ios": "https://dc.lft.to/lastmile_qr_scan"}, "name": "768fe64168731a7060b22137fd824f27", "is_reserved": 0}, {"is_disabled": 0, "fusion_lon": 0.0, "fusion_lat": 0.0, "lat": 38.892115, "type": "electric_scooter", "lon": -76.98797683333333, "bike_id": "a601478f2aefd02cc8ca3023a3cabad0", "rental_uris": {"android": "https://dc.lft.to/lastmile_qr_scan", "ios": "https://dc.lft.to/lastmile_qr_scan"}, "name": "a601478f2aefd02cc8ca3023a3cabad0", "is_reserved": 0}, {"is_disabled": 0, "fusion_lon": 0.0, "fusion_lat": 0.0, "lat": 38.96912116666667, "type": "electric_bike", "lon": -77.0258775, "bike_id": "936dc8b283f6a401ea2e17f5cf58364e", "rental_uris": {"android": "https://dc.lft.to/lastmile_qr_scan", "ios": "https://dc.lft.to/lastmile_qr_scan"}, "name": "936dc8b283f6a401ea2e17f5cf58364e", "is_reserved": 0}, {"is_disabled": 0, "fusion_lon": 0.0, "fusion_lat": 0.0, "lat": 38.89944883333333, "type": "electric_scooter", "lon": -77.00205766666667, "bike_id": "731eb6c5f793ca9e7cf2c2c708f1d531", "rental_uris": {"android": "https://dc.lft.to/lastmile_qr_scan", "ios": "https://dc.lft.to/lastmile_qr_scan"}, "name": "731eb6c5f793ca9e7cf2c2c708f1d531", "is_reserved": 0}, {"is_disabled": 0, "fusion_lon": 0.0, "fusion_lat": 0.0, "lat": 38.935190666666664, "type": "electric_scooter", "lon": -77.02372833333334, "bike_id": "7ada862543a929358451be079508f804", "rental_uris": {"android": "https://dc.lft.to/lastmile_qr_scan", "ios": "https://dc.lft.to/lastmile_qr_scan"}, "name": "7ada862543a929358451be079508f804", "is_reserved": 0}, {"is_disabled": 0, "fusion_lon": 0.0, "fusion_lat": 0.0, "lat": 38.8719505, "type": "electric_scooter", "lon": -76.978248, "bike_id": "ff46876c560e35d3cd9e49d4c89a2acf", "rental_uris": {"android": "https://dc.lft.to/lastmile_qr_scan", "ios": "https://dc.lft.to/lastmile_qr_scan"}, "name": "ff46876c560e35d3cd9e49d4c89a2acf", "is_reserved": 0}, {"is_disabled": 0, "fusion_lon": 0.0, "fusion_lat": 0.0, "lat": 38.905923, "type": "electric_scooter", "lon": -77.069105, "bike_id": "a8a64abc15ee113ad36ade1c1eb13d7b", "rental_uris": {"android": "https://dc.lft.to/lastmile_qr_scan", "ios": "https://dc.lft.to/lastmile_qr_scan"}, "name": "a8a64abc15ee113ad36ade1c1eb13d7b", "is_reserved": 0}, {"is_disabled": 0, "fusion_lon": 0.0, "fusion_lat": 0.0, "lat": 38.96149833333333, "type": "electric_scooter", "lon": -77.028016, "bike_id": "c99ae09a069476f76b4e4594056db992", "rental_uris": {"android": "https://dc.lft.to/lastmile_qr_scan", "ios": "https://dc.lft.to/lastmile_qr_scan"}, "name": "c99ae09a069476f76b4e4594056db992", "is_reserved": 0}, {"is_disabled": 0, "fusion_lon": 0.0, "fusion_lat": 0.0, "lat": 38.896839666666665, "type": "electric_scooter", "lon": -77.01160433333334, "bike_id": "6e66503ba4040041c20188af8b62d16c", "rental_uris": {"android": "https://dc.lft.to/lastmile_qr_scan", "ios": "https://dc.lft.to/lastmile_qr_scan"}, "name": "6e66503ba4040041c20188af8b62d16c", "is_reserved": 0}, {"is_disabled": 0, "fusion_lon": 0.0, "fusion_lat": 0.0, "lat": 38.904192, "type": "electric_scooter", "lon": -77.068659, "bike_id": "fcd59ec7bcdb5dac5abbc560026a6401", "rental_uris": {"android": "https://dc.lft.to/lastmile_qr_scan", "ios": "https://dc.lft.to/lastmile_qr_scan"}, "name": "fcd59ec7bcdb5dac5abbc560026a6401", "is_reserved": 0}, {"is_disabled": 0, "fusion_lon": 0.0, "fusion_lat": 0.0, "lat": 38.907959, "type": "electric_scooter", "lon": -77.00150466666666, "bike_id": "4e4ebfb5f83e2c771f44c27e21d119aa", "rental_uris": {"android": "https://dc.lft.to/lastmile_qr_scan", "ios": "https://dc.lft.to/lastmile_qr_scan"}, "name": "4e4ebfb5f83e2c771f44c27e21d119aa", "is_reserved": 0}, {"is_disabled": 0, "fusion_lon": 0.0, "fusion_lat": 0.0, "lat": 38.889236333333336, "type": "electric_scooter", "lon": -76.980089, "bike_id": "5dd6cc61a9a2a373151b33edd9486dc2", "rental_uris": {"android": "https://dc.lft.to/lastmile_qr_scan", "ios": "https://dc.lft.to/lastmile_qr_scan"}, "name": "5dd6cc61a9a2a373151b33edd9486dc2", "is_reserved": 0}, {"is_disabled": 0, "fusion_lon": 0.0, "fusion_lat": 0.0, "lat": 38.924368, "type": "electric_bike", "lon": -76.90758616666666, "bike_id": "90dcdf23b44bc508b650de90f16ad72b", "rental_uris": {"android": "https://dc.lft.to/lastmile_qr_scan", "ios": "https://dc.lft.to/lastmile_qr_scan"}, "name": "90dcdf23b44bc508b650de90f16ad72b", "is_reserved": 0}, {"is_disabled": 0, "fusion_lon": 0.0, "fusion_lat": 0.0, "lat": 38.903468333333336, "type": "electric_scooter", "lon": -77.03867883333334, "bike_id": "0629c7fd33baa74929ca108c11d0eee3", "rental_uris": {"android": "https://dc.lft.to/lastmile_qr_scan", "ios": "https://dc.lft.to/lastmile_qr_scan"}, "name": "0629c7fd33baa74929ca108c11d0eee3", "is_reserved": 0}, {"is_disabled": 0, "fusion_lon": 0.0, "fusion_lat": 0.0, "lat": 38.90030333333333, "type": "electric_scooter", "lon": -77.03395566666667, "bike_id": "e75ffdc749aa02efdf934ab4a785684e", "rental_uris": {"android": "https://dc.lft.to/lastmile_qr_scan", "ios": "https://dc.lft.to/lastmile_qr_scan"}, "name": "e75ffdc749aa02efdf934ab4a785684e", "is_reserved": 0}, {"is_disabled": 0, "fusion_lon": 0.0, "fusion_lat": 0.0, "lat": 38.897879333333336, "type": "electric_scooter", "lon": -77.01022516666667, "bike_id": "4bfb78c7199dbf7cd5aa8641a6627313", "rental_uris": {"android": "https://dc.lft.to/lastmile_qr_scan", "ios": "https://dc.lft.to/lastmile_qr_scan"}, "name": "4bfb78c7199dbf7cd5aa8641a6627313", "is_reserved": 0}, {"is_disabled": 0, "fusion_lon": 0.0, "fusion_lat": 0.0, "lat": 38.909331, "type": "electric_scooter", "lon": -77.0446435, "bike_id": "7031de3b677a20a55df1be1d0df0cd96", "rental_uris": {"android": "https://dc.lft.to/lastmile_qr_scan", "ios": "https://dc.lft.to/lastmile_qr_scan"}, "name": "7031de3b677a20a55df1be1d0df0cd96", "is_reserved": 0}, {"is_disabled": 0, "fusion_lon": 0.0, "fusion_lat": 0.0, "lat": 38.942190333333336, "type": "electric_scooter", "lon": -77.025015, "bike_id": "404e0ec6d4fb197517f030067e0b0a51", "rental_uris": {"android": "https://dc.lft.to/lastmile_qr_scan", "ios": "https://dc.lft.to/lastmile_qr_scan"}, "name": "404e0ec6d4fb197517f030067e0b0a51", "is_reserved": 0}, {"is_disabled": 0, "fusion_lon": 0.0, "fusion_lat": 0.0, "lat": 38.9301305, "type": "electric_scooter", "lon": -77.02089683333334, "bike_id": "8431b0abc5a3f6e64fb057ac6914b60f", "rental_uris": {"android": "https://dc.lft.to/lastmile_qr_scan", "ios": "https://dc.lft.to/lastmile_qr_scan"}, "name": "8431b0abc5a3f6e64fb057ac6914b60f", "is_reserved": 0}, {"is_disabled": 0, "fusion_lon": 0.0, "fusion_lat": 0.0, "lat": 38.90853516666667, "type": "electric_scooter", "lon": -77.02066566666667, "bike_id": "25ca539d1f865baf42bd29f10dd14c71", "rental_uris": {"android": "https://dc.lft.to/lastmile_qr_scan", "ios": "https://dc.lft.to/lastmile_qr_scan"}, "name": "25ca539d1f865baf42bd29f10dd14c71", "is_reserved": 0}, {"is_disabled": 0, "fusion_lon": 0.0, "fusion_lat": 0.0, "lat": 38.855122333333334, "type": "electric_bike", "lon": -76.95841033333333, "bike_id": "19728f4f17411e56b06e13a9b3d2dc8b", "rental_uris": {"android": "https://dc.lft.to/lastmile_qr_scan", "ios": "https://dc.lft.to/lastmile_qr_scan"}, "name": "19728f4f17411e56b06e13a9b3d2dc8b", "is_reserved": 0}, {"is_disabled": 0, "fusion_lon": 0.0, "fusion_lat": 0.0, "lat": 38.92761266666667, "type": "electric_scooter", "lon": -77.005925, "bike_id": "b48ab707e9334554025c7babc39442ae", "rental_uris": {"android": "https://dc.lft.to/lastmile_qr_scan", "ios": "https://dc.lft.to/lastmile_qr_scan"}, "name": "b48ab707e9334554025c7babc39442ae", "is_reserved": 0}, {"is_disabled": 0, "fusion_lon": 0.0, "fusion_lat": 0.0, "lat": 38.90393566666667, "type": "electric_scooter", "lon": -76.99007683333333, "bike_id": "9a9d2762e05cbdfad152afc73352abfa", "rental_uris": {"android": "https://dc.lft.to/lastmile_qr_scan", "ios": "https://dc.lft.to/lastmile_qr_scan"}, "name": "9a9d2762e05cbdfad152afc73352abfa", "is_reserved": 0}, {"is_disabled": 0, "fusion_lon": 0.0, "fusion_lat": 0.0, "lat": 38.92966166666667, "type": "electric_scooter", "lon": -77.00709583333334, "bike_id": "e86898a56bb0602b1fad1effb719bb69", "rental_uris": {"android": "https://dc.lft.to/lastmile_qr_scan", "ios": "https://dc.lft.to/lastmile_qr_scan"}, "name": "e86898a56bb0602b1fad1effb719bb69", "is_reserved": 0}, {"is_disabled": 0, "fusion_lon": 0.0, "fusion_lat": 0.0, "lat": 38.908671166666664, "type": "electric_scooter", "lon": -77.0451495, "bike_id": "52d11f428f8ff785a35c82821d6d405d", "rental_uris": {"android": "https://dc.lft.to/lastmile_qr_scan", "ios": "https://dc.lft.to/lastmile_qr_scan"}, "name": "52d11f428f8ff785a35c82821d6d405d", "is_reserved": 0}, {"is_disabled": 0, "fusion_lon": 0.0, "fusion_lat": 0.0, "lat": 38.92336316666667, "type": "electric_scooter", "lon": -77.04185733333334, "bike_id": "e902a1fd02ae4e1332f40f967ba00950", "rental_uris": {"android": "https://dc.lft.to/lastmile_qr_scan", "ios": "https://dc.lft.to/lastmile_qr_scan"}, "name": "e902a1fd02ae4e1332f40f967ba00950", "is_reserved": 0}, {"is_disabled": 0, "fusion_lon": 0.0, "fusion_lat": 0.0, "lat": 38.91935483333334, "type": "electric_scooter", "lon": -76.98072316666666, "bike_id": "1a05d1df326c85b0c3cb7f7111f88b10", "rental_uris": {"android": "https://dc.lft.to/lastmile_qr_scan", "ios": "https://dc.lft.to/lastmile_qr_scan"}, "name": "1a05d1df326c85b0c3cb7f7111f88b10", "is_reserved": 0}, {"is_disabled": 0, "fusion_lon": 0.0, "fusion_lat": 0.0, "lat": 38.924762333333334, "type": "electric_scooter", "lon": -77.0348175, "bike_id": "607e275bb285ebcefd6b53b88124b1cd", "rental_uris": {"android": "https://dc.lft.to/lastmile_qr_scan", "ios": "https://dc.lft.to/lastmile_qr_scan"}, "name": "607e275bb285ebcefd6b53b88124b1cd", "is_reserved": 0}, {"is_disabled": 0, "fusion_lon": 0.0, "fusion_lat": 0.0, "lat": 38.914053, "type": "electric_scooter", "lon": -77.01225933333333, "bike_id": "7bcef38b729fce1fb1cf66ee5a63cf9b", "rental_uris": {"android": "https://dc.lft.to/lastmile_qr_scan", "ios": "https://dc.lft.to/lastmile_qr_scan"}, "name": "7bcef38b729fce1fb1cf66ee5a63cf9b", "is_reserved": 0}, {"is_disabled": 0, "fusion_lon": 0.0, "fusion_lat": 0.0, "lat": 38.921074833333336, "type": "electric_scooter", "lon": -77.01763383333333, "bike_id": "3dfa0c610400abf55065b762fa39aa26", "rental_uris": {"android": "https://dc.lft.to/lastmile_qr_scan", "ios": "https://dc.lft.to/lastmile_qr_scan"}, "name": "3dfa0c610400abf55065b762fa39aa26", "is_reserved": 0}, {"is_disabled": 0, "fusion_lon": 0.0, "fusion_lat": 0.0, "lat": 38.9040945, "type": "electric_scooter", "lon": -77.02213283333333, "bike_id": "b2e9af87a63010e110076bd11f6f163f", "rental_uris": {"android": "https://dc.lft.to/lastmile_qr_scan", "ios": "https://dc.lft.to/lastmile_qr_scan"}, "name": "b2e9af87a63010e110076bd11f6f163f", "is_reserved": 0}, {"is_disabled": 0, "fusion_lon": 0.0, "fusion_lat": 0.0, "lat": 39.000183666666665, "type": "electric_bike", "lon": -76.8728415, "bike_id": "4cd4696e88ab4bca18c51d2907844e0f", "rental_uris": {"android": "https://dc.lft.to/lastmile_qr_scan", "ios": "https://dc.lft.to/lastmile_qr_scan"}, "name": "4cd4696e88ab4bca18c51d2907844e0f", "is_reserved": 0}, {"is_disabled": 0, "fusion_lon": 0.0, "fusion_lat": 0.0, "lat": 38.912654833333335, "type": "electric_scooter", "lon": -77.031504, "bike_id": "aba9dd28762445c9896c4fab8f2d9f72", "rental_uris": {"android": "https://dc.lft.to/lastmile_qr_scan", "ios": "https://dc.lft.to/lastmile_qr_scan"}, "name": "aba9dd28762445c9896c4fab8f2d9f72", "is_reserved": 0}, {"is_disabled": 0, "fusion_lon": 0.0, "fusion_lat": 0.0, "lat": 38.828764666666665, "type": "electric_bike", "lon": -77.11217716666667, "bike_id": "f04e016e005554f860d0c4788ba635d1", "rental_uris": {"android": "https://dc.lft.to/lastmile_qr_scan", "ios": "https://dc.lft.to/lastmile_qr_scan"}, "name": "f04e016e005554f860d0c4788ba635d1", "is_reserved": 0}, {"is_disabled": 0, "fusion_lon": 0.0, "fusion_lat": 0.0, "lat": 38.898789666666666, "type": "electric_scooter", "lon": -77.03314216666666, "bike_id": "8e5bcee9c6b43d543996b1cf9e994cee", "rental_uris": {"android": "https://dc.lft.to/lastmile_qr_scan", "ios": "https://dc.lft.to/lastmile_qr_scan"}, "name": "8e5bcee9c6b43d543996b1cf9e994cee", "is_reserved": 0}, {"is_disabled": 0, "fusion_lon": 0.0, "fusion_lat": 0.0, "lat": 38.912674, "type": "electric_scooter", "lon": -77.02150283333333, "bike_id": "226046b3e82d67a06ae3f01f25786d31", "rental_uris": {"android": "https://dc.lft.to/lastmile_qr_scan", "ios": "https://dc.lft.to/lastmile_qr_scan"}, "name": "226046b3e82d67a06ae3f01f25786d31", "is_reserved": 0}, {"is_disabled": 0, "fusion_lon": 0.0, "fusion_lat": 0.0, "lat": 38.90030383333333, "type": "electric_scooter", "lon": -77.04673016666666, "bike_id": "6d8416e7cfab6d763bd10c3570294052", "rental_uris": {"android": "https://dc.lft.to/lastmile_qr_scan", "ios": "https://dc.lft.to/lastmile_qr_scan"}, "name": "6d8416e7cfab6d763bd10c3570294052", "is_reserved": 0}, {"is_disabled": 0, "fusion_lon": 0.0, "fusion_lat": 0.0, "lat": 38.94554766666667, "type": "electric_bike", "lon": -77.0511955, "bike_id": "e0f07c6780bf711e235a5c195a983f50", "rental_uris": {"android": "https://dc.lft.to/lastmile_qr_scan", "ios": "https://dc.lft.to/lastmile_qr_scan"}, "name": "e0f07c6780bf711e235a5c195a983f50", "is_reserved": 0}, {"is_disabled": 0, "fusion_lon": 0.0, "fusion_lat": 0.0, "lat": 38.924829833333334, "type": "electric_scooter", "lon": -77.0378135, "bike_id": "903cc12ab7e30ceb21b03044c2a6c0c3", "rental_uris": {"android": "https://dc.lft.to/lastmile_qr_scan", "ios": "https://dc.lft.to/lastmile_qr_scan"}, "name": "903cc12ab7e30ceb21b03044c2a6c0c3", "is_reserved": 0}, {"is_disabled": 0, "fusion_lon": 0.0, "fusion_lat": 0.0, "lat": 38.8554635, "type": "electric_bike", "lon": -77.10720216666667, "bike_id": "f2bb627b1c533e31468f9f1d313eb50e", "rental_uris": {"android": "https://dc.lft.to/lastmile_qr_scan", "ios": "https://dc.lft.to/lastmile_qr_scan"}, "name": "f2bb627b1c533e31468f9f1d313eb50e", "is_reserved": 0}, {"is_disabled": 0, "fusion_lon": 0.0, "fusion_lat": 0.0, "lat": 38.91349183333333, "type": "electric_scooter", "lon": -77.06416283333333, "bike_id": "92f3368aa41098b37df00693bd2d4579", "rental_uris": {"android": "https://dc.lft.to/lastmile_qr_scan", "ios": "https://dc.lft.to/lastmile_qr_scan"}, "name": "92f3368aa41098b37df00693bd2d4579", "is_reserved": 0}, {"is_disabled": 0, "fusion_lon": 0.0, "fusion_lat": 0.0, "lat": 38.91125066666667, "type": "electric_scooter", "lon": -77.0219965, "bike_id": "d79e841667d6f6894f0ec035d6913e04", "rental_uris": {"android": "https://dc.lft.to/lastmile_qr_scan", "ios": "https://dc.lft.to/lastmile_qr_scan"}, "name": "d79e841667d6f6894f0ec035d6913e04", "is_reserved": 0}, {"is_disabled": 0, "fusion_lon": 0.0, "fusion_lat": 0.0, "lat": 38.886265, "type": "electric_scooter", "lon": -76.95512066666667, "bike_id": "197dfbfc51a152e85f0f083b870d014f", "rental_uris": {"android": "https://dc.lft.to/lastmile_qr_scan", "ios": "https://dc.lft.to/lastmile_qr_scan"}, "name": "197dfbfc51a152e85f0f083b870d014f", "is_reserved": 0}, {"is_disabled": 0, "fusion_lon": 0.0, "fusion_lat": 0.0, "lat": 38.9239265, "type": "electric_scooter", "lon": -77.02963016666666, "bike_id": "1d761105635f44d22ee063dcd3c36e86", "rental_uris": {"android": "https://dc.lft.to/lastmile_qr_scan", "ios": "https://dc.lft.to/lastmile_qr_scan"}, "name": "1d761105635f44d22ee063dcd3c36e86", "is_reserved": 0}, {"is_disabled": 0, "fusion_lon": 0.0, "fusion_lat": 0.0, "lat": 38.946996, "type": "electric_scooter", "lon": -77.01938583333333, "bike_id": "642979a7a9adc3344fb9b99013e4a534", "rental_uris": {"android": "https://dc.lft.to/lastmile_qr_scan", "ios": "https://dc.lft.to/lastmile_qr_scan"}, "name": "642979a7a9adc3344fb9b99013e4a534", "is_reserved": 0}, {"is_disabled": 0, "fusion_lon": 0.0, "fusion_lat": 0.0, "lat": 38.8847075, "type": "electric_scooter", "lon": -76.9523255, "bike_id": "a4aae8f719687c268b9df26c21b1428c", "rental_uris": {"android": "https://dc.lft.to/lastmile_qr_scan", "ios": "https://dc.lft.to/lastmile_qr_scan"}, "name": "a4aae8f719687c268b9df26c21b1428c", "is_reserved": 0}, {"is_disabled": 0, "fusion_lon": 0.0, "fusion_lat": 0.0, "lat": 38.9123035, "type": "electric_scooter", "lon": -76.9843765, "bike_id": "e149c97eacd77f49f258039fb217d738", "rental_uris": {"android": "https://dc.lft.to/lastmile_qr_scan", "ios": "https://dc.lft.to/lastmile_qr_scan"}, "name": "e149c97eacd77f49f258039fb217d738", "is_reserved": 0}, {"is_disabled": 0, "fusion_lon": 0.0, "fusion_lat": 0.0, "lat": 38.92233266666667, "type": "electric_scooter", "lon": -76.9753055, "bike_id": "a3771331c9121e8d078a76b587bb5e40", "rental_uris": {"android": "https://dc.lft.to/lastmile_qr_scan", "ios": "https://dc.lft.to/lastmile_qr_scan"}, "name": "a3771331c9121e8d078a76b587bb5e40", "is_reserved": 0}, {"is_disabled": 0, "fusion_lon": 0.0, "fusion_lat": 0.0, "lat": 38.92461466666666, "type": "electric_scooter", "lon": -77.02153433333334, "bike_id": "a8d82667ce266be345e1c923007fca6b", "rental_uris": {"android": "https://dc.lft.to/lastmile_qr_scan", "ios": "https://dc.lft.to/lastmile_qr_scan"}, "name": "a8d82667ce266be345e1c923007fca6b", "is_reserved": 0}, {"is_disabled": 0, "fusion_lon": 0.0, "fusion_lat": 0.0, "lat": 38.91317933333333, "type": "electric_scooter", "lon": -77.031937, "bike_id": "8a6f4546b7e695ad82c7b56f9db1fad7", "rental_uris": {"android": "https://dc.lft.to/lastmile_qr_scan", "ios": "https://dc.lft.to/lastmile_qr_scan"}, "name": "8a6f4546b7e695ad82c7b56f9db1fad7", "is_reserved": 0}, {"is_disabled": 0, "fusion_lon": 0.0, "fusion_lat": 0.0, "lat": 38.902224333333336, "type": "electric_scooter", "lon": -77.04018733333334, "bike_id": "8593a6a7a46da9278d4da9ba782bb7a6", "rental_uris": {"android": "https://dc.lft.to/lastmile_qr_scan", "ios": "https://dc.lft.to/lastmile_qr_scan"}, "name": "8593a6a7a46da9278d4da9ba782bb7a6", "is_reserved": 0}, {"is_disabled": 0, "fusion_lon": 0.0, "fusion_lat": 0.0, "lat": 38.90608833333334, "type": "electric_scooter", "lon": -77.0572405, "bike_id": "0101a4a4bf06f86ccd34a805b808f7d0", "rental_uris": {"android": "https://dc.lft.to/lastmile_qr_scan", "ios": "https://dc.lft.to/lastmile_qr_scan"}, "name": "0101a4a4bf06f86ccd34a805b808f7d0", "is_reserved": 0}, {"is_disabled": 0, "fusion_lon": 0.0, "fusion_lat": 0.0, "lat": 38.92171733333333, "type": "electric_scooter", "lon": -77.055309, "bike_id": "919685400d736b8c39f87b1e1422d6c6", "rental_uris": {"android": "https://dc.lft.to/lastmile_qr_scan", "ios": "https://dc.lft.to/lastmile_qr_scan"}, "name": "919685400d736b8c39f87b1e1422d6c6", "is_reserved": 0}, {"is_disabled": 0, "fusion_lon": 0.0, "fusion_lat": 0.0, "lat": 38.91136733333333, "type": "electric_scooter", "lon": -77.02201733333334, "bike_id": "250fa14287aa92f1f7b21f4c029b99d9", "rental_uris": {"android": "https://dc.lft.to/lastmile_qr_scan", "ios": "https://dc.lft.to/lastmile_qr_scan"}, "name": "250fa14287aa92f1f7b21f4c029b99d9", "is_reserved": 0}, {"is_disabled": 0, "fusion_lon": 0.0, "fusion_lat": 0.0, "lat": 38.91959766666667, "type": "electric_scooter", "lon": -77.02705133333333, "bike_id": "24436e3922120d82b87d32bd946ce63f", "rental_uris": {"android": "https://dc.lft.to/lastmile_qr_scan", "ios": "https://dc.lft.to/lastmile_qr_scan"}, "name": "24436e3922120d82b87d32bd946ce63f", "is_reserved": 0}, {"is_disabled": 0, "fusion_lon": 0.0, "fusion_lat": 0.0, "lat": 38.926367166666665, "type": "electric_scooter", "lon": -77.042673, "bike_id": "9ceb368825bb01dc116bbda57cb7393d", "rental_uris": {"android": "https://dc.lft.to/lastmile_qr_scan", "ios": "https://dc.lft.to/lastmile_qr_scan"}, "name": "9ceb368825bb01dc116bbda57cb7393d", "is_reserved": 0}, {"is_disabled": 0, "fusion_lon": 0.0, "fusion_lat": 0.0, "lat": 38.8442815, "type": "electric_scooter", "lon": -76.99784716666667, "bike_id": "7cc46213115d608d71f2d033d7f46bda", "rental_uris": {"android": "https://dc.lft.to/lastmile_qr_scan", "ios": "https://dc.lft.to/lastmile_qr_scan"}, "name": "7cc46213115d608d71f2d033d7f46bda", "is_reserved": 0}, {"is_disabled": 0, "fusion_lon": 0.0, "fusion_lat": 0.0, "lat": 38.9461225, "type": "electric_scooter", "lon": -77.0346295, "bike_id": "80efdc8693d583f30afd65d9a321faba", "rental_uris": {"android": "https://dc.lft.to/lastmile_qr_scan", "ios": "https://dc.lft.to/lastmile_qr_scan"}, "name": "80efdc8693d583f30afd65d9a321faba", "is_reserved": 0}, {"is_disabled": 0, "fusion_lon": 0.0, "fusion_lat": 0.0, "lat": 38.913030666666664, "type": "electric_scooter", "lon": -77.04663783333334, "bike_id": "1cda8a2005d9cf4fe6f03754a4067a5f", "rental_uris": {"android": "https://dc.lft.to/lastmile_qr_scan", "ios": "https://dc.lft.to/lastmile_qr_scan"}, "name": "1cda8a2005d9cf4fe6f03754a4067a5f", "is_reserved": 0}, {"is_disabled": 0, "fusion_lon": 0.0, "fusion_lat": 0.0, "lat": 38.893543333333334, "type": "electric_scooter", "lon": -77.02183066666667, "bike_id": "e5cc4d18284576038d0255d711bf900f", "rental_uris": {"android": "https://dc.lft.to/lastmile_qr_scan", "ios": "https://dc.lft.to/lastmile_qr_scan"}, "name": "e5cc4d18284576038d0255d711bf900f", "is_reserved": 0}, {"is_disabled": 0, "fusion_lon": 0.0, "fusion_lat": 0.0, "lat": 38.91562616666667, "type": "electric_scooter", "lon": -77.020034, "bike_id": "a0d6174eb6818f2ecae6ba78adcc077c", "rental_uris": {"android": "https://dc.lft.to/lastmile_qr_scan", "ios": "https://dc.lft.to/lastmile_qr_scan"}, "name": "a0d6174eb6818f2ecae6ba78adcc077c", "is_reserved": 0}, {"is_disabled": 0, "fusion_lon": 0.0, "fusion_lat": 0.0, "lat": 38.895036, "type": "electric_scooter", "lon": -76.94878183333333, "bike_id": "60b7a95407d021e140e51cacb3740e7c", "rental_uris": {"android": "https://dc.lft.to/lastmile_qr_scan", "ios": "https://dc.lft.to/lastmile_qr_scan"}, "name": "60b7a95407d021e140e51cacb3740e7c", "is_reserved": 0}, {"is_disabled": 0, "fusion_lon": 0.0, "fusion_lat": 0.0, "lat": 38.91453666666666, "type": "electric_bike", "lon": -77.02072816666667, "bike_id": "115eb446bc326a340088525748155888", "rental_uris": {"android": "https://dc.lft.to/lastmile_qr_scan", "ios": "https://dc.lft.to/lastmile_qr_scan"}, "name": "115eb446bc326a340088525748155888", "is_reserved": 0}, {"is_disabled": 0, "fusion_lon": 0.0, "fusion_lat": 0.0, "lat": 38.92968883333333, "type": "electric_scooter", "lon": -77.04113783333334, "bike_id": "59fad494cf78641c9664366a7cb02186", "rental_uris": {"android": "https://dc.lft.to/lastmile_qr_scan", "ios": "https://dc.lft.to/lastmile_qr_scan"}, "name": "59fad494cf78641c9664366a7cb02186", "is_reserved": 0}, {"is_disabled": 0, "fusion_lon": 0.0, "fusion_lat": 0.0, "lat": 38.965697666666664, "type": "electric_scooter", "lon": -77.01566583333333, "bike_id": "0013a7183fc499f22a5b672a16722766", "rental_uris": {"android": "https://dc.lft.to/lastmile_qr_scan", "ios": "https://dc.lft.to/lastmile_qr_scan"}, "name": "0013a7183fc499f22a5b672a16722766", "is_reserved": 0}, {"is_disabled": 0, "fusion_lon": 0.0, "fusion_lat": 0.0, "lat": 38.951798, "type": "electric_scooter", "lon": -77.05653233333334, "bike_id": "e5c1ff2d28a349accd87d8052ff1b216", "rental_uris": {"android": "https://dc.lft.to/lastmile_qr_scan", "ios": "https://dc.lft.to/lastmile_qr_scan"}, "name": "e5c1ff2d28a349accd87d8052ff1b216", "is_reserved": 0}, {"is_disabled": 0, "fusion_lon": 0.0, "fusion_lat": 0.0, "lat": 38.903886166666666, "type": "electric_scooter", "lon": -77.04141733333333, "bike_id": "cbd9ffb27a50175871de6e4f544f792e", "rental_uris": {"android": "https://dc.lft.to/lastmile_qr_scan", "ios": "https://dc.lft.to/lastmile_qr_scan"}, "name": "cbd9ffb27a50175871de6e4f544f792e", "is_reserved": 0}, {"is_disabled": 0, "fusion_lon": 0.0, "fusion_lat": 0.0, "lat": 38.909398333333336, "type": "electric_scooter", "lon": -77.05363833333334, "bike_id": "592660ca144cd0a25abbbcf8337f1cf7", "rental_uris": {"android": "https://dc.lft.to/lastmile_qr_scan", "ios": "https://dc.lft.to/lastmile_qr_scan"}, "name": "592660ca144cd0a25abbbcf8337f1cf7", "is_reserved": 0}, {"is_disabled": 0, "fusion_lon": 0.0, "fusion_lat": 0.0, "lat": 38.83194016666667, "type": "electric_bike", "lon": -77.07680116666667, "bike_id": "2d7a663349997fd6c4295a7f1e70e089", "rental_uris": {"android": "https://dc.lft.to/lastmile_qr_scan", "ios": "https://dc.lft.to/lastmile_qr_scan"}, "name": "2d7a663349997fd6c4295a7f1e70e089", "is_reserved": 0}, {"is_disabled": 0, "fusion_lon": 0.0, "fusion_lat": 0.0, "lat": 38.920630333333335, "type": "electric_scooter", "lon": -77.02711616666667, "bike_id": "d5eb44eb50c9c35c6589e482145276f5", "rental_uris": {"android": "https://dc.lft.to/lastmile_qr_scan", "ios": "https://dc.lft.to/lastmile_qr_scan"}, "name": "d5eb44eb50c9c35c6589e482145276f5", "is_reserved": 0}, {"is_disabled": 0, "fusion_lon": 0.0, "fusion_lat": 0.0, "lat": 38.88773116666667, "type": "electric_bike", "lon": -77.12259183333333, "bike_id": "a5f8d2b03d7c2d390939390f6bda323c", "rental_uris": {"android": "https://dc.lft.to/lastmile_qr_scan", "ios": "https://dc.lft.to/lastmile_qr_scan"}, "name": "a5f8d2b03d7c2d390939390f6bda323c", "is_reserved": 0}, {"is_disabled": 0, "fusion_lon": 0.0, "fusion_lat": 0.0, "lat": 38.91105666666667, "type": "electric_scooter", "lon": -77.0237995, "bike_id": "6e5bdae64d7007f7fac338ada9b5b9e8", "rental_uris": {"android": "https://dc.lft.to/lastmile_qr_scan", "ios": "https://dc.lft.to/lastmile_qr_scan"}, "name": "6e5bdae64d7007f7fac338ada9b5b9e8", "is_reserved": 0}, {"is_disabled": 0, "fusion_lon": 0.0, "fusion_lat": 0.0, "lat": 38.872436666666665, "type": "electric_scooter", "lon": -76.97725133333333, "bike_id": "2527eb4584d3a5f882fe068a83c9dfc1", "rental_uris": {"android": "https://dc.lft.to/lastmile_qr_scan", "ios": "https://dc.lft.to/lastmile_qr_scan"}, "name": "2527eb4584d3a5f882fe068a83c9dfc1", "is_reserved": 0}, {"is_disabled": 0, "fusion_lon": 0.0, "fusion_lat": 0.0, "lat": 38.8826765, "type": "electric_scooter", "lon": -76.98544766666667, "bike_id": "09075ada6f02eda335a6f93224a0c9f5", "rental_uris": {"android": "https://dc.lft.to/lastmile_qr_scan", "ios": "https://dc.lft.to/lastmile_qr_scan"}, "name": "09075ada6f02eda335a6f93224a0c9f5", "is_reserved": 0}, {"is_disabled": 0, "fusion_lon": 0.0, "fusion_lat": 0.0, "lat": 38.828742, "type": "electric_bike", "lon": -77.11222233333334, "bike_id": "34cc791e84b0207564e60f4fc5a690df", "rental_uris": {"android": "https://dc.lft.to/lastmile_qr_scan", "ios": "https://dc.lft.to/lastmile_qr_scan"}, "name": "34cc791e84b0207564e60f4fc5a690df", "is_reserved": 0}, {"is_disabled": 0, "fusion_lon": 0.0, "fusion_lat": 0.0, "lat": 38.901233833333336, "type": "electric_scooter", "lon": -77.02405716666667, "bike_id": "bdb9b03088cc45db629c910c6e4e13e8", "rental_uris": {"android": "https://dc.lft.to/lastmile_qr_scan", "ios": "https://dc.lft.to/lastmile_qr_scan"}, "name": "bdb9b03088cc45db629c910c6e4e13e8", "is_reserved": 0}, {"is_disabled": 0, "fusion_lon": 0.0, "fusion_lat": 0.0, "lat": 38.87631566666667, "type": "electric_scooter", "lon": -77.00942416666666, "bike_id": "0d09d13e21eb87abcfcbba994cb148a5", "rental_uris": {"android": "https://dc.lft.to/lastmile_qr_scan", "ios": "https://dc.lft.to/lastmile_qr_scan"}, "name": "0d09d13e21eb87abcfcbba994cb148a5", "is_reserved": 0}, {"is_disabled": 0, "fusion_lon": 0.0, "fusion_lat": 0.0, "lat": 38.9555115, "type": "electric_bike", "lon": -76.9353915, "bike_id": "f782ce5a4421e26a1ca7f115b5999a93", "rental_uris": {"android": "https://dc.lft.to/lastmile_qr_scan", "ios": "https://dc.lft.to/lastmile_qr_scan"}, "name": "f782ce5a4421e26a1ca7f115b5999a93", "is_reserved": 0}, {"is_disabled": 0, "fusion_lon": 0.0, "fusion_lat": 0.0, "lat": 38.902868833333336, "type": "electric_scooter", "lon": -77.0181915, "bike_id": "3859f7b819c33bd259f63e7707983ee2", "rental_uris": {"android": "https://dc.lft.to/lastmile_qr_scan", "ios": "https://dc.lft.to/lastmile_qr_scan"}, "name": "3859f7b819c33bd259f63e7707983ee2", "is_reserved": 0}, {"is_disabled": 0, "fusion_lon": 0.0, "fusion_lat": 0.0, "lat": 38.9070495, "type": "electric_scooter", "lon": -77.02690466666667, "bike_id": "dda9f1fba7c0f4f5fa5c5e2da172c36b", "rental_uris": {"android": "https://dc.lft.to/lastmile_qr_scan", "ios": "https://dc.lft.to/lastmile_qr_scan"}, "name": "dda9f1fba7c0f4f5fa5c5e2da172c36b", "is_reserved": 0}, {"is_disabled": 0, "fusion_lon": 0.0, "fusion_lat": 0.0, "lat": 38.929939833333336, "type": "electric_scooter", "lon": -77.02182483333333, "bike_id": "1108e4ebed6c25d9bd03fe1d96fbc8d6", "rental_uris": {"android": "https://dc.lft.to/lastmile_qr_scan", "ios": "https://dc.lft.to/lastmile_qr_scan"}, "name": "1108e4ebed6c25d9bd03fe1d96fbc8d6", "is_reserved": 0}, {"is_disabled": 0, "fusion_lon": 0.0, "fusion_lat": 0.0, "lat": 38.93397683333333, "type": "electric_scooter", "lon": -77.02728683333333, "bike_id": "2392d80810dc3a3dc232e0f705762b71", "rental_uris": {"android": "https://dc.lft.to/lastmile_qr_scan", "ios": "https://dc.lft.to/lastmile_qr_scan"}, "name": "2392d80810dc3a3dc232e0f705762b71", "is_reserved": 0}, {"is_disabled": 0, "fusion_lon": 0.0, "fusion_lat": 0.0, "lat": 38.91774683333333, "type": "electric_scooter", "lon": -77.02344116666667, "bike_id": "f8ef75eaa47301bb8652fcd2c8d55288", "rental_uris": {"android": "https://dc.lft.to/lastmile_qr_scan", "ios": "https://dc.lft.to/lastmile_qr_scan"}, "name": "f8ef75eaa47301bb8652fcd2c8d55288", "is_reserved": 0}, {"is_disabled": 0, "fusion_lon": 0.0, "fusion_lat": 0.0, "lat": 38.876247666666664, "type": "electric_scooter", "lon": -76.96536966666666, "bike_id": "4e85c01e07831527a3cb7894205aedac", "rental_uris": {"android": "https://dc.lft.to/lastmile_qr_scan", "ios": "https://dc.lft.to/lastmile_qr_scan"}, "name": "4e85c01e07831527a3cb7894205aedac", "is_reserved": 0}, {"is_disabled": 0, "fusion_lon": 0.0, "fusion_lat": 0.0, "lat": 38.97054383333333, "type": "electric_bike", "lon": -77.03085816666666, "bike_id": "ad62db1bafd5299e1f9658be80c92083", "rental_uris": {"android": "https://dc.lft.to/lastmile_qr_scan", "ios": "https://dc.lft.to/lastmile_qr_scan"}, "name": "ad62db1bafd5299e1f9658be80c92083", "is_reserved": 0}, {"is_disabled": 0, "fusion_lon": 0.0, "fusion_lat": 0.0, "lat": 38.8848905, "type": "electric_scooter", "lon": -77.022148, "bike_id": "4d341cce1c476a0c20e852e087105fbc", "rental_uris": {"android": "https://dc.lft.to/lastmile_qr_scan", "ios": "https://dc.lft.to/lastmile_qr_scan"}, "name": "4d341cce1c476a0c20e852e087105fbc", "is_reserved": 0}, {"is_disabled": 0, "fusion_lon": 0.0, "fusion_lat": 0.0, "lat": 38.90243916666667, "type": "electric_bike", "lon": -76.9701405, "bike_id": "5d6545d15873ee25742980824c2118da", "rental_uris": {"android": "https://dc.lft.to/lastmile_qr_scan", "ios": "https://dc.lft.to/lastmile_qr_scan"}, "name": "5d6545d15873ee25742980824c2118da", "is_reserved": 0}, {"is_disabled": 0, "fusion_lon": 0.0, "fusion_lat": 0.0, "lat": 38.90064233333333, "type": "electric_scooter", "lon": -77.03455866666667, "bike_id": "2234711a736d0089292511a380a46cc7", "rental_uris": {"android": "https://dc.lft.to/lastmile_qr_scan", "ios": "https://dc.lft.to/lastmile_qr_scan"}, "name": "2234711a736d0089292511a380a46cc7", "is_reserved": 0}, {"is_disabled": 0, "fusion_lon": 0.0, "fusion_lat": 0.0, "lat": 38.84845516666667, "type": "electric_bike", "lon": -77.08040433333333, "bike_id": "9e957c2d5b133a5951d9354a833fd8f3", "rental_uris": {"android": "https://dc.lft.to/lastmile_qr_scan", "ios": "https://dc.lft.to/lastmile_qr_scan"}, "name": "9e957c2d5b133a5951d9354a833fd8f3", "is_reserved": 0}, {"is_disabled": 0, "fusion_lon": 0.0, "fusion_lat": 0.0, "lat": 38.92270533333333, "type": "electric_scooter", "lon": -77.04220633333334, "bike_id": "73b3086dcbceb2e610267f47e56adfb2", "rental_uris": {"android": "https://dc.lft.to/lastmile_qr_scan", "ios": "https://dc.lft.to/lastmile_qr_scan"}, "name": "73b3086dcbceb2e610267f47e56adfb2", "is_reserved": 0}, {"is_disabled": 0, "fusion_lon": 0.0, "fusion_lat": 0.0, "lat": 38.9306065, "type": "electric_scooter", "lon": -77.02662416666666, "bike_id": "1d8ed5c056bab0bfb96db58a6f4ae2dd", "rental_uris": {"android": "https://dc.lft.to/lastmile_qr_scan", "ios": "https://dc.lft.to/lastmile_qr_scan"}, "name": "1d8ed5c056bab0bfb96db58a6f4ae2dd", "is_reserved": 0}, {"is_disabled": 0, "fusion_lon": 0.0, "fusion_lat": 0.0, "lat": 38.8951795, "type": "electric_scooter", "lon": -77.02810216666667, "bike_id": "fb1668aa2b68aea6061240588acf7c62", "rental_uris": {"android": "https://dc.lft.to/lastmile_qr_scan", "ios": "https://dc.lft.to/lastmile_qr_scan"}, "name": "fb1668aa2b68aea6061240588acf7c62", "is_reserved": 0}, {"is_disabled": 0, "fusion_lon": 0.0, "fusion_lat": 0.0, "lat": 38.914893166666666, "type": "electric_scooter", "lon": -77.028163, "bike_id": "9248196522ffab547c254dde735f8f21", "rental_uris": {"android": "https://dc.lft.to/lastmile_qr_scan", "ios": "https://dc.lft.to/lastmile_qr_scan"}, "name": "9248196522ffab547c254dde735f8f21", "is_reserved": 0}, {"is_disabled": 0, "fusion_lon": 0.0, "fusion_lat": 0.0, "lat": 38.949239, "type": "electric_scooter", "lon": -77.0229875, "bike_id": "13cd89e175772af41dc49c7375710dc7", "rental_uris": {"android": "https://dc.lft.to/lastmile_qr_scan", "ios": "https://dc.lft.to/lastmile_qr_scan"}, "name": "13cd89e175772af41dc49c7375710dc7", "is_reserved": 0}, {"is_disabled": 0, "fusion_lon": 0.0, "fusion_lat": 0.0, "lat": 38.903319833333335, "type": "electric_scooter", "lon": -77.02601616666666, "bike_id": "b2317f16e7b5b646a729d32e13f0cfb6", "rental_uris": {"android": "https://dc.lft.to/lastmile_qr_scan", "ios": "https://dc.lft.to/lastmile_qr_scan"}, "name": "b2317f16e7b5b646a729d32e13f0cfb6", "is_reserved": 0}, {"is_disabled": 0, "fusion_lon": 0.0, "fusion_lat": 0.0, "lat": 38.880474666666665, "type": "electric_scooter", "lon": -77.00373766666667, "bike_id": "461ce26a1792d3dc5091561ec1559fce", "rental_uris": {"android": "https://dc.lft.to/lastmile_qr_scan", "ios": "https://dc.lft.to/lastmile_qr_scan"}, "name": "461ce26a1792d3dc5091561ec1559fce", "is_reserved": 0}, {"is_disabled": 0, "fusion_lon": 0.0, "fusion_lat": 0.0, "lat": 38.899944166666664, "type": "electric_scooter", "lon": -77.03974016666666, "bike_id": "801f2dc6356b197ebb8a80b910656277", "rental_uris": {"android": "https://dc.lft.to/lastmile_qr_scan", "ios": "https://dc.lft.to/lastmile_qr_scan"}, "name": "801f2dc6356b197ebb8a80b910656277", "is_reserved": 0}, {"is_disabled": 0, "fusion_lon": 0.0, "fusion_lat": 0.0, "lat": 38.90577733333333, "type": "electric_scooter", "lon": -77.0466205, "bike_id": "c71fa546a0f638b6a2ce1bbe5b2c56cb", "rental_uris": {"android": "https://dc.lft.to/lastmile_qr_scan", "ios": "https://dc.lft.to/lastmile_qr_scan"}, "name": "c71fa546a0f638b6a2ce1bbe5b2c56cb", "is_reserved": 0}, {"is_disabled": 0, "fusion_lon": 0.0, "fusion_lat": 0.0, "lat": 38.905683, "type": "electric_scooter", "lon": -77.03414533333333, "bike_id": "e852726067d7668c84d215581124a7db", "rental_uris": {"android": "https://dc.lft.to/lastmile_qr_scan", "ios": "https://dc.lft.to/lastmile_qr_scan"}, "name": "e852726067d7668c84d215581124a7db", "is_reserved": 0}, {"is_disabled": 0, "fusion_lon": 0.0, "fusion_lat": 0.0, "lat": 38.9240935, "type": "electric_scooter", "lon": -77.05171483333334, "bike_id": "643df34b03ae4efa50a9bd488e1cac14", "rental_uris": {"android": "https://dc.lft.to/lastmile_qr_scan", "ios": "https://dc.lft.to/lastmile_qr_scan"}, "name": "643df34b03ae4efa50a9bd488e1cac14", "is_reserved": 0}, {"is_disabled": 0, "fusion_lon": 0.0, "fusion_lat": 0.0, "lat": 38.92605533333333, "type": "electric_scooter", "lon": -77.02154366666667, "bike_id": "43f8347399243b70fadeb223ad64b259", "rental_uris": {"android": "https://dc.lft.to/lastmile_qr_scan", "ios": "https://dc.lft.to/lastmile_qr_scan"}, "name": "43f8347399243b70fadeb223ad64b259", "is_reserved": 0}, {"is_disabled": 0, "fusion_lon": 0.0, "fusion_lat": 0.0, "lat": 38.910422833333335, "type": "electric_scooter", "lon": -77.03840566666666, "bike_id": "7cffed3d38df9af4ae1cd65b7bc98c59", "rental_uris": {"android": "https://dc.lft.to/lastmile_qr_scan", "ios": "https://dc.lft.to/lastmile_qr_scan"}, "name": "7cffed3d38df9af4ae1cd65b7bc98c59", "is_reserved": 0}, {"is_disabled": 0, "fusion_lon": 0.0, "fusion_lat": 0.0, "lat": 38.902688833333336, "type": "electric_scooter", "lon": -77.017081, "bike_id": "b598210731be87b2c89106971761955c", "rental_uris": {"android": "https://dc.lft.to/lastmile_qr_scan", "ios": "https://dc.lft.to/lastmile_qr_scan"}, "name": "b598210731be87b2c89106971761955c", "is_reserved": 0}, {"is_disabled": 0, "fusion_lon": 0.0, "fusion_lat": 0.0, "lat": 38.92849783333333, "type": "electric_scooter", "lon": -77.0140895, "bike_id": "7f74d908a28e41d3e106565569d6b9eb", "rental_uris": {"android": "https://dc.lft.to/lastmile_qr_scan", "ios": "https://dc.lft.to/lastmile_qr_scan"}, "name": "7f74d908a28e41d3e106565569d6b9eb", "is_reserved": 0}, {"is_disabled": 0, "fusion_lon": 0.0, "fusion_lat": 0.0, "lat": 38.9297835, "type": "electric_scooter", "lon": -77.0347065, "bike_id": "a98eb5b1c38ec10980c31f5a24adc895", "rental_uris": {"android": "https://dc.lft.to/lastmile_qr_scan", "ios": "https://dc.lft.to/lastmile_qr_scan"}, "name": "a98eb5b1c38ec10980c31f5a24adc895", "is_reserved": 0}, {"is_disabled": 0, "fusion_lon": 0.0, "fusion_lat": 0.0, "lat": 38.91334066666667, "type": "electric_scooter", "lon": -77.03659183333333, "bike_id": "ab62613f110dc2ca1ad01d464d46fb97", "rental_uris": {"android": "https://dc.lft.to/lastmile_qr_scan", "ios": "https://dc.lft.to/lastmile_qr_scan"}, "name": "ab62613f110dc2ca1ad01d464d46fb97", "is_reserved": 0}, {"is_disabled": 0, "fusion_lon": 0.0, "fusion_lat": 0.0, "lat": 38.9231485, "type": "electric_scooter", "lon": -77.04516166666667, "bike_id": "8a0f43544b5d80957bbf6f37ee7700be", "rental_uris": {"android": "https://dc.lft.to/lastmile_qr_scan", "ios": "https://dc.lft.to/lastmile_qr_scan"}, "name": "8a0f43544b5d80957bbf6f37ee7700be", "is_reserved": 0}, {"is_disabled": 0, "fusion_lon": 0.0, "fusion_lat": 0.0, "lat": 38.897396666666666, "type": "electric_scooter", "lon": -77.02581966666666, "bike_id": "5e7086e17811866ff04b12d804f7b8df", "rental_uris": {"android": "https://dc.lft.to/lastmile_qr_scan", "ios": "https://dc.lft.to/lastmile_qr_scan"}, "name": "5e7086e17811866ff04b12d804f7b8df", "is_reserved": 0}, {"is_disabled": 0, "fusion_lon": 0.0, "fusion_lat": 0.0, "lat": 38.8591655, "type": "electric_scooter", "lon": -76.98783166666666, "bike_id": "cc82fc90f1478662c2e829c405ac6349", "rental_uris": {"android": "https://dc.lft.to/lastmile_qr_scan", "ios": "https://dc.lft.to/lastmile_qr_scan"}, "name": "cc82fc90f1478662c2e829c405ac6349", "is_reserved": 0}, {"is_disabled": 0, "fusion_lon": 0.0, "fusion_lat": 0.0, "lat": 38.88683366666667, "type": "electric_scooter", "lon": -77.00177016666666, "bike_id": "566f0c251f038e39569e3f76c6a1c041", "rental_uris": {"android": "https://dc.lft.to/lastmile_qr_scan", "ios": "https://dc.lft.to/lastmile_qr_scan"}, "name": "566f0c251f038e39569e3f76c6a1c041", "is_reserved": 0}, {"is_disabled": 0, "fusion_lon": 0.0, "fusion_lat": 0.0, "lat": 38.90594333333333, "type": "electric_scooter", "lon": -77.07062833333333, "bike_id": "6b3cf800cfd47dc7e2b350d904b615bf", "rental_uris": {"android": "https://dc.lft.to/lastmile_qr_scan", "ios": "https://dc.lft.to/lastmile_qr_scan"}, "name": "6b3cf800cfd47dc7e2b350d904b615bf", "is_reserved": 0}, {"is_disabled": 0, "fusion_lon": 0.0, "fusion_lat": 0.0, "lat": 38.9171045, "type": "electric_scooter", "lon": -77.09813416666667, "bike_id": "c254090803508d30d75a3f822553948a", "rental_uris": {"android": "https://dc.lft.to/lastmile_qr_scan", "ios": "https://dc.lft.to/lastmile_qr_scan"}, "name": "c254090803508d30d75a3f822553948a", "is_reserved": 0}, {"is_disabled": 0, "fusion_lon": 0.0, "fusion_lat": 0.0, "lat": 39.0268735, "type": "electric_bike", "lon": -77.12596633333334, "bike_id": "2b62d96f70fd1334a511b7024ba7d1b5", "rental_uris": {"android": "https://dc.lft.to/lastmile_qr_scan", "ios": "https://dc.lft.to/lastmile_qr_scan"}, "name": "2b62d96f70fd1334a511b7024ba7d1b5", "is_reserved": 0}, {"is_disabled": 0, "fusion_lon": 0.0, "fusion_lat": 0.0, "lat": 38.914561, "type": "electric_scooter", "lon": -77.03203666666667, "bike_id": "31e067d38f43f9505c9b14c97e68bd54", "rental_uris": {"android": "https://dc.lft.to/lastmile_qr_scan", "ios": "https://dc.lft.to/lastmile_qr_scan"}, "name": "31e067d38f43f9505c9b14c97e68bd54", "is_reserved": 0}, {"is_disabled": 0, "fusion_lon": 0.0, "fusion_lat": 0.0, "lat": 38.8898525, "type": "electric_scooter", "lon": -77.00246333333334, "bike_id": "32ae62f6d5debb8e8f46c8745dd8254d", "rental_uris": {"android": "https://dc.lft.to/lastmile_qr_scan", "ios": "https://dc.lft.to/lastmile_qr_scan"}, "name": "32ae62f6d5debb8e8f46c8745dd8254d", "is_reserved": 0}, {"is_disabled": 0, "fusion_lon": 0.0, "fusion_lat": 0.0, "lat": 38.91415383333333, "type": "electric_scooter", "lon": -77.04279883333334, "bike_id": "0061b3b57656e0e257361a874c780f6b", "rental_uris": {"android": "https://dc.lft.to/lastmile_qr_scan", "ios": "https://dc.lft.to/lastmile_qr_scan"}, "name": "0061b3b57656e0e257361a874c780f6b", "is_reserved": 0}, {"is_disabled": 0, "fusion_lon": 0.0, "fusion_lat": 0.0, "lat": 38.906348, "type": "electric_scooter", "lon": -76.98569366666666, "bike_id": "3983da97180b5132ab68127581c9a6f9", "rental_uris": {"android": "https://dc.lft.to/lastmile_qr_scan", "ios": "https://dc.lft.to/lastmile_qr_scan"}, "name": "3983da97180b5132ab68127581c9a6f9", "is_reserved": 0}, {"is_disabled": 0, "fusion_lon": 0.0, "fusion_lat": 0.0, "lat": 38.93192, "type": "electric_scooter", "lon": -77.028357, "bike_id": "dafe41733476390f1bea1b25b9633306", "rental_uris": {"android": "https://dc.lft.to/lastmile_qr_scan", "ios": "https://dc.lft.to/lastmile_qr_scan"}, "name": "dafe41733476390f1bea1b25b9633306", "is_reserved": 0}, {"is_disabled": 0, "fusion_lon": 0.0, "fusion_lat": 0.0, "lat": 38.89743266666667, "type": "electric_scooter", "lon": -77.03050466666667, "bike_id": "98ecdeae322607d26af96c1e79b1921b", "rental_uris": {"android": "https://dc.lft.to/lastmile_qr_scan", "ios": "https://dc.lft.to/lastmile_qr_scan"}, "name": "98ecdeae322607d26af96c1e79b1921b", "is_reserved": 0}, {"is_disabled": 0, "fusion_lon": 0.0, "fusion_lat": 0.0, "lat": 38.90820766666667, "type": "electric_scooter", "lon": -77.03209933333333, "bike_id": "ea98b32aa67540886ce630fb0de3915a", "rental_uris": {"android": "https://dc.lft.to/lastmile_qr_scan", "ios": "https://dc.lft.to/lastmile_qr_scan"}, "name": "ea98b32aa67540886ce630fb0de3915a", "is_reserved": 0}, {"is_disabled": 0, "fusion_lon": 0.0, "fusion_lat": 0.0, "lat": 38.935876, "type": "electric_bike", "lon": -77.08254033333333, "bike_id": "1a79a9af4b587ae56d605e56c4aca8e7", "rental_uris": {"android": "https://dc.lft.to/lastmile_qr_scan", "ios": "https://dc.lft.to/lastmile_qr_scan"}, "name": "1a79a9af4b587ae56d605e56c4aca8e7", "is_reserved": 0}, {"is_disabled": 0, "fusion_lon": 0.0, "fusion_lat": 0.0, "lat": 38.91991083333333, "type": "electric_bike", "lon": -76.97315, "bike_id": "9ba2d208ec1f718da845f5a11d1fb843", "rental_uris": {"android": "https://dc.lft.to/lastmile_qr_scan", "ios": "https://dc.lft.to/lastmile_qr_scan"}, "name": "9ba2d208ec1f718da845f5a11d1fb843", "is_reserved": 0}, {"is_disabled": 0, "fusion_lon": 0.0, "fusion_lat": 0.0, "lat": 38.908431, "type": "electric_scooter", "lon": -77.0269415, "bike_id": "c93335f210dc2a91b7150ceba607674a", "rental_uris": {"android": "https://dc.lft.to/lastmile_qr_scan", "ios": "https://dc.lft.to/lastmile_qr_scan"}, "name": "c93335f210dc2a91b7150ceba607674a", "is_reserved": 0}, {"is_disabled": 0, "fusion_lon": 0.0, "fusion_lat": 0.0, "lat": 38.911075, "type": "electric_scooter", "lon": -77.003365, "bike_id": "0ab3a419d6ea8e01d678279975261889", "rental_uris": {"android": "https://dc.lft.to/lastmile_qr_scan", "ios": "https://dc.lft.to/lastmile_qr_scan"}, "name": "0ab3a419d6ea8e01d678279975261889", "is_reserved": 0}, {"is_disabled": 0, "fusion_lon": 0.0, "fusion_lat": 0.0, "lat": 38.978331833333336, "type": "electric_bike", "lon": -77.0914555, "bike_id": "242f3015870d601123cc8902f3f7626a", "rental_uris": {"android": "https://dc.lft.to/lastmile_qr_scan", "ios": "https://dc.lft.to/lastmile_qr_scan"}, "name": "242f3015870d601123cc8902f3f7626a", "is_reserved": 0}, {"is_disabled": 0, "fusion_lon": 0.0, "fusion_lat": 0.0, "lat": 38.87740733333333, "type": "electric_scooter", "lon": -77.007167, "bike_id": "25b747a4c9693f9f5ce63a7e1a8ac4bb", "rental_uris": {"android": "https://dc.lft.to/lastmile_qr_scan", "ios": "https://dc.lft.to/lastmile_qr_scan"}, "name": "25b747a4c9693f9f5ce63a7e1a8ac4bb", "is_reserved": 0}, {"is_disabled": 0, "fusion_lon": 0.0, "fusion_lat": 0.0, "lat": 38.922604, "type": "electric_bike", "lon": -76.99777116666667, "bike_id": "cd3e910daf354c6b88bdc44e43613323", "rental_uris": {"android": "https://dc.lft.to/lastmile_qr_scan", "ios": "https://dc.lft.to/lastmile_qr_scan"}, "name": "cd3e910daf354c6b88bdc44e43613323", "is_reserved": 0}, {"is_disabled": 0, "fusion_lon": 0.0, "fusion_lat": 0.0, "lat": 38.89625066666667, "type": "electric_scooter", "lon": -77.00894733333334, "bike_id": "458f25fded046f94937b3c1aa120511a", "rental_uris": {"android": "https://dc.lft.to/lastmile_qr_scan", "ios": "https://dc.lft.to/lastmile_qr_scan"}, "name": "458f25fded046f94937b3c1aa120511a", "is_reserved": 0}, {"is_disabled": 0, "fusion_lon": 0.0, "fusion_lat": 0.0, "lat": 38.92463883333333, "type": "electric_scooter", "lon": -77.02966883333333, "bike_id": "b54c1f476a942209fe82aa664e2ad699", "rental_uris": {"android": "https://dc.lft.to/lastmile_qr_scan", "ios": "https://dc.lft.to/lastmile_qr_scan"}, "name": "b54c1f476a942209fe82aa664e2ad699", "is_reserved": 0}, {"is_disabled": 0, "fusion_lon": 0.0, "fusion_lat": 0.0, "lat": 38.869087, "type": "electric_bike", "lon": -77.13182083333334, "bike_id": "f0fe0515cf3e28c3583ba8cb3f0c6262", "rental_uris": {"android": "https://dc.lft.to/lastmile_qr_scan", "ios": "https://dc.lft.to/lastmile_qr_scan"}, "name": "f0fe0515cf3e28c3583ba8cb3f0c6262", "is_reserved": 0}, {"is_disabled": 0, "fusion_lon": 0.0, "fusion_lat": 0.0, "lat": 38.933771666666665, "type": "electric_scooter", "lon": -77.0724775, "bike_id": "fbe90fefe2c268935a38e2889e1ecaa8", "rental_uris": {"android": "https://dc.lft.to/lastmile_qr_scan", "ios": "https://dc.lft.to/lastmile_qr_scan"}, "name": "fbe90fefe2c268935a38e2889e1ecaa8", "is_reserved": 0}, {"is_disabled": 0, "fusion_lon": 0.0, "fusion_lat": 0.0, "lat": 38.975409, "type": "electric_bike", "lon": -76.99530516666667, "bike_id": "a8ab2b3c08a62e77bb166cd18a21e99d", "rental_uris": {"android": "https://dc.lft.to/lastmile_qr_scan", "ios": "https://dc.lft.to/lastmile_qr_scan"}, "name": "a8ab2b3c08a62e77bb166cd18a21e99d", "is_reserved": 0}, {"is_disabled": 0, "fusion_lon": 0.0, "fusion_lat": 0.0, "lat": 38.897277333333335, "type": "electric_scooter", "lon": -77.02169783333333, "bike_id": "95d884758556433638f07e84aef8f7c3", "rental_uris": {"android": "https://dc.lft.to/lastmile_qr_scan", "ios": "https://dc.lft.to/lastmile_qr_scan"}, "name": "95d884758556433638f07e84aef8f7c3", "is_reserved": 0}, {"is_disabled": 0, "fusion_lon": 0.0, "fusion_lat": 0.0, "lat": 38.915910833333335, "type": "electric_bike", "lon": -76.97150416666666, "bike_id": "3a0e37ccbad645b15710888c835e4e4e", "rental_uris": {"android": "https://dc.lft.to/lastmile_qr_scan", "ios": "https://dc.lft.to/lastmile_qr_scan"}, "name": "3a0e37ccbad645b15710888c835e4e4e", "is_reserved": 0}, {"is_disabled": 0, "fusion_lon": 0.0, "fusion_lat": 0.0, "lat": 38.9036155, "type": "electric_scooter", "lon": -77.0331275, "bike_id": "3f471fb8cf1e8307b9e0152b7a0d3cb0", "rental_uris": {"android": "https://dc.lft.to/lastmile_qr_scan", "ios": "https://dc.lft.to/lastmile_qr_scan"}, "name": "3f471fb8cf1e8307b9e0152b7a0d3cb0", "is_reserved": 0}, {"is_disabled": 0, "fusion_lon": 0.0, "fusion_lat": 0.0, "lat": 38.893156166666664, "type": "electric_scooter", "lon": -77.02117683333333, "bike_id": "6e4f0efcf1d8d0ceaddea9d220551087", "rental_uris": {"android": "https://dc.lft.to/lastmile_qr_scan", "ios": "https://dc.lft.to/lastmile_qr_scan"}, "name": "6e4f0efcf1d8d0ceaddea9d220551087", "is_reserved": 0}, {"is_disabled": 0, "fusion_lon": 0.0, "fusion_lat": 0.0, "lat": 38.949828833333335, "type": "electric_scooter", "lon": -77.02704333333334, "bike_id": "8ec1cb1524aa29bd04c73850ef859e3a", "rental_uris": {"android": "https://dc.lft.to/lastmile_qr_scan", "ios": "https://dc.lft.to/lastmile_qr_scan"}, "name": "8ec1cb1524aa29bd04c73850ef859e3a", "is_reserved": 0}, {"is_disabled": 0, "fusion_lon": 0.0, "fusion_lat": 0.0, "lat": 38.8933475, "type": "electric_scooter", "lon": -77.02074483333334, "bike_id": "13a3fe02d48d8b4840a521c4fa47fa7a", "rental_uris": {"android": "https://dc.lft.to/lastmile_qr_scan", "ios": "https://dc.lft.to/lastmile_qr_scan"}, "name": "13a3fe02d48d8b4840a521c4fa47fa7a", "is_reserved": 0}, {"is_disabled": 0, "fusion_lon": 0.0, "fusion_lat": 0.0, "lat": 38.90776066666667, "type": "electric_scooter", "lon": -77.03543366666666, "bike_id": "0390971d1664773aa95ebff0b0d41439", "rental_uris": {"android": "https://dc.lft.to/lastmile_qr_scan", "ios": "https://dc.lft.to/lastmile_qr_scan"}, "name": "0390971d1664773aa95ebff0b0d41439", "is_reserved": 0}, {"is_disabled": 0, "fusion_lon": 0.0, "fusion_lat": 0.0, "lat": 38.85813266666667, "type": "electric_scooter", "lon": -76.98963833333333, "bike_id": "e23c1496802c3d4f1b9d56c5f259a146", "rental_uris": {"android": "https://dc.lft.to/lastmile_qr_scan", "ios": "https://dc.lft.to/lastmile_qr_scan"}, "name": "e23c1496802c3d4f1b9d56c5f259a146", "is_reserved": 0}, {"is_disabled": 0, "fusion_lon": 0.0, "fusion_lat": 0.0, "lat": 38.9621845, "type": "electric_scooter", "lon": -77.027957, "bike_id": "f41a4237d075493375da518f84266b31", "rental_uris": {"android": "https://dc.lft.to/lastmile_qr_scan", "ios": "https://dc.lft.to/lastmile_qr_scan"}, "name": "f41a4237d075493375da518f84266b31", "is_reserved": 0}, {"is_disabled": 0, "fusion_lon": 0.0, "fusion_lat": 0.0, "lat": 38.8948485, "type": "electric_scooter", "lon": -76.99522533333334, "bike_id": "fadfd18bee29978e44cd038bc7ef4937", "rental_uris": {"android": "https://dc.lft.to/lastmile_qr_scan", "ios": "https://dc.lft.to/lastmile_qr_scan"}, "name": "fadfd18bee29978e44cd038bc7ef4937", "is_reserved": 0}, {"is_disabled": 0, "fusion_lon": 0.0, "fusion_lat": 0.0, "lat": 38.86041316666667, "type": "electric_scooter", "lon": -76.983736, "bike_id": "df18b7180987d85a72ffbd536ad2a21a", "rental_uris": {"android": "https://dc.lft.to/lastmile_qr_scan", "ios": "https://dc.lft.to/lastmile_qr_scan"}, "name": "df18b7180987d85a72ffbd536ad2a21a", "is_reserved": 0}, {"is_disabled": 0, "fusion_lon": 0.0, "fusion_lat": 0.0, "lat": 38.92678933333333, "type": "electric_scooter", "lon": -77.02687883333333, "bike_id": "1609482fff02bc646fa29a7d1daa01a9", "rental_uris": {"android": "https://dc.lft.to/lastmile_qr_scan", "ios": "https://dc.lft.to/lastmile_qr_scan"}, "name": "1609482fff02bc646fa29a7d1daa01a9", "is_reserved": 0}, {"is_disabled": 0, "fusion_lon": 0.0, "fusion_lat": 0.0, "lat": 38.961431, "type": "electric_scooter", "lon": -77.02806033333333, "bike_id": "68f978e67a000173343379c0ad7c8b4c", "rental_uris": {"android": "https://dc.lft.to/lastmile_qr_scan", "ios": "https://dc.lft.to/lastmile_qr_scan"}, "name": "68f978e67a000173343379c0ad7c8b4c", "is_reserved": 0}, {"is_disabled": 0, "fusion_lon": 0.0, "fusion_lat": 0.0, "lat": 38.921219666666666, "type": "electric_scooter", "lon": -77.01767116666667, "bike_id": "23af3e1c5b2d16db9c4d176f94486f05", "rental_uris": {"android": "https://dc.lft.to/lastmile_qr_scan", "ios": "https://dc.lft.to/lastmile_qr_scan"}, "name": "23af3e1c5b2d16db9c4d176f94486f05", "is_reserved": 0}, {"is_disabled": 0, "fusion_lon": 0.0, "fusion_lat": 0.0, "lat": 38.865187, "type": "electric_scooter", "lon": -76.97332016666667, "bike_id": "8a72bfd93ce7a58fef8acd0a0c11db13", "rental_uris": {"android": "https://dc.lft.to/lastmile_qr_scan", "ios": "https://dc.lft.to/lastmile_qr_scan"}, "name": "8a72bfd93ce7a58fef8acd0a0c11db13", "is_reserved": 0}, {"is_disabled": 0, "fusion_lon": 0.0, "fusion_lat": 0.0, "lat": 38.914353166666665, "type": "electric_scooter", "lon": -77.02816116666666, "bike_id": "ec7c6dae71642a7d0bdcf0b213d38289", "rental_uris": {"android": "https://dc.lft.to/lastmile_qr_scan", "ios": "https://dc.lft.to/lastmile_qr_scan"}, "name": "ec7c6dae71642a7d0bdcf0b213d38289", "is_reserved": 0}, {"is_disabled": 0, "fusion_lon": 0.0, "fusion_lat": 0.0, "lat": 38.92258066666667, "type": "electric_scooter", "lon": -77.07130433333333, "bike_id": "7b05c2cf7d3d120efc8e80255c4feecf", "rental_uris": {"android": "https://dc.lft.to/lastmile_qr_scan", "ios": "https://dc.lft.to/lastmile_qr_scan"}, "name": "7b05c2cf7d3d120efc8e80255c4feecf", "is_reserved": 0}, {"is_disabled": 0, "fusion_lon": 0.0, "fusion_lat": 0.0, "lat": 38.91109816666667, "type": "electric_scooter", "lon": -77.0326165, "bike_id": "8593b6f3dd486a73b686daaaf7c2dd1d", "rental_uris": {"android": "https://dc.lft.to/lastmile_qr_scan", "ios": "https://dc.lft.to/lastmile_qr_scan"}, "name": "8593b6f3dd486a73b686daaaf7c2dd1d", "is_reserved": 0}, {"is_disabled": 0, "fusion_lon": 0.0, "fusion_lat": 0.0, "lat": 38.906839166666664, "type": "electric_scooter", "lon": -76.984863, "bike_id": "f5f2689cbf972efd36ead9d1f2800cbf", "rental_uris": {"android": "https://dc.lft.to/lastmile_qr_scan", "ios": "https://dc.lft.to/lastmile_qr_scan"}, "name": "f5f2689cbf972efd36ead9d1f2800cbf", "is_reserved": 0}, {"is_disabled": 0, "fusion_lon": 0.0, "fusion_lat": 0.0, "lat": 38.904682, "type": "electric_scooter", "lon": -76.9921305, "bike_id": "c9015048a541202fba64860d6781afc5", "rental_uris": {"android": "https://dc.lft.to/lastmile_qr_scan", "ios": "https://dc.lft.to/lastmile_qr_scan"}, "name": "c9015048a541202fba64860d6781afc5", "is_reserved": 0}, {"is_disabled": 0, "fusion_lon": 0.0, "fusion_lat": 0.0, "lat": 38.930462166666665, "type": "electric_scooter", "lon": -76.99632083333333, "bike_id": "524274fc862d5a4ad32a10261a52b8df", "rental_uris": {"android": "https://dc.lft.to/lastmile_qr_scan", "ios": "https://dc.lft.to/lastmile_qr_scan"}, "name": "524274fc862d5a4ad32a10261a52b8df", "is_reserved": 0}, {"is_disabled": 0, "fusion_lon": 0.0, "fusion_lat": 0.0, "lat": 38.922304833333335, "type": "electric_scooter", "lon": -77.023335, "bike_id": "f31e1d3c2a72fccaaa33916b9315a4cc", "rental_uris": {"android": "https://dc.lft.to/lastmile_qr_scan", "ios": "https://dc.lft.to/lastmile_qr_scan"}, "name": "f31e1d3c2a72fccaaa33916b9315a4cc", "is_reserved": 0}, {"is_disabled": 0, "fusion_lon": 0.0, "fusion_lat": 0.0, "lat": 38.896758166666665, "type": "electric_scooter", "lon": -77.0116225, "bike_id": "0d642b3a217b2fc90968ff345a1e54fd", "rental_uris": {"android": "https://dc.lft.to/lastmile_qr_scan", "ios": "https://dc.lft.to/lastmile_qr_scan"}, "name": "0d642b3a217b2fc90968ff345a1e54fd", "is_reserved": 0}, {"is_disabled": 0, "fusion_lon": 0.0, "fusion_lat": 0.0, "lat": 38.9100205, "type": "electric_scooter", "lon": -77.03739533333334, "bike_id": "1f634d138dc6a9187a6eb67cdab6c8cb", "rental_uris": {"android": "https://dc.lft.to/lastmile_qr_scan", "ios": "https://dc.lft.to/lastmile_qr_scan"}, "name": "1f634d138dc6a9187a6eb67cdab6c8cb", "is_reserved": 0}, {"is_disabled": 0, "fusion_lon": 0.0, "fusion_lat": 0.0, "lat": 38.921545, "type": "electric_scooter", "lon": -77.03406116666666, "bike_id": "4d2a0bdd5e85eac5ceda52483848232c", "rental_uris": {"android": "https://dc.lft.to/lastmile_qr_scan", "ios": "https://dc.lft.to/lastmile_qr_scan"}, "name": "4d2a0bdd5e85eac5ceda52483848232c", "is_reserved": 0}, {"is_disabled": 0, "fusion_lon": 0.0, "fusion_lat": 0.0, "lat": 38.9039195, "type": "electric_scooter", "lon": -77.04355283333334, "bike_id": "ebffa3ef5850245f9b35fd6e26c767d2", "rental_uris": {"android": "https://dc.lft.to/lastmile_qr_scan", "ios": "https://dc.lft.to/lastmile_qr_scan"}, "name": "ebffa3ef5850245f9b35fd6e26c767d2", "is_reserved": 0}, {"is_disabled": 0, "fusion_lon": 0.0, "fusion_lat": 0.0, "lat": 38.90343333333333, "type": "electric_scooter", "lon": -77.02612416666666, "bike_id": "2a723893678267b41a197ccecd1247d0", "rental_uris": {"android": "https://dc.lft.to/lastmile_qr_scan", "ios": "https://dc.lft.to/lastmile_qr_scan"}, "name": "2a723893678267b41a197ccecd1247d0", "is_reserved": 0}, {"is_disabled": 0, "fusion_lon": 0.0, "fusion_lat": 0.0, "lat": 38.872936333333335, "type": "electric_scooter", "lon": -77.00985733333333, "bike_id": "03a06fd03c0c9e2e38eb0b108f0786e6", "rental_uris": {"android": "https://dc.lft.to/lastmile_qr_scan", "ios": "https://dc.lft.to/lastmile_qr_scan"}, "name": "03a06fd03c0c9e2e38eb0b108f0786e6", "is_reserved": 0}, {"is_disabled": 0, "fusion_lon": 0.0, "fusion_lat": 0.0, "lat": 38.884863333333335, "type": "electric_scooter", "lon": -76.92998083333333, "bike_id": "0700eaeeea9d9c4d66c6a3ac2b87673d", "rental_uris": {"android": "https://dc.lft.to/lastmile_qr_scan", "ios": "https://dc.lft.to/lastmile_qr_scan"}, "name": "0700eaeeea9d9c4d66c6a3ac2b87673d", "is_reserved": 0}, {"is_disabled": 0, "fusion_lon": 0.0, "fusion_lat": 0.0, "lat": 38.918985, "type": "electric_scooter", "lon": -77.07118966666667, "bike_id": "4d3ff29001e38e36e6f8de7f4d068447", "rental_uris": {"android": "https://dc.lft.to/lastmile_qr_scan", "ios": "https://dc.lft.to/lastmile_qr_scan"}, "name": "4d3ff29001e38e36e6f8de7f4d068447", "is_reserved": 0}, {"is_disabled": 0, "fusion_lon": 0.0, "fusion_lat": 0.0, "lat": 38.894103333333334, "type": "electric_scooter", "lon": -77.01082816666667, "bike_id": "c1217db897da250d3e1ac4a0de799f01", "rental_uris": {"android": "https://dc.lft.to/lastmile_qr_scan", "ios": "https://dc.lft.to/lastmile_qr_scan"}, "name": "c1217db897da250d3e1ac4a0de799f01", "is_reserved": 0}, {"is_disabled": 0, "fusion_lon": 0.0, "fusion_lat": 0.0, "lat": 38.915408166666666, "type": "electric_scooter", "lon": -77.03208933333333, "bike_id": "7bf072f17e09163f7592884a85e0b918", "rental_uris": {"android": "https://dc.lft.to/lastmile_qr_scan", "ios": "https://dc.lft.to/lastmile_qr_scan"}, "name": "7bf072f17e09163f7592884a85e0b918", "is_reserved": 0}, {"is_disabled": 0, "fusion_lon": 0.0, "fusion_lat": 0.0, "lat": 38.905275, "type": "electric_scooter", "lon": -77.0532585, "bike_id": "b2b8771b11e54e83f6cf83c506362c91", "rental_uris": {"android": "https://dc.lft.to/lastmile_qr_scan", "ios": "https://dc.lft.to/lastmile_qr_scan"}, "name": "b2b8771b11e54e83f6cf83c506362c91", "is_reserved": 0}, {"is_disabled": 0, "fusion_lon": 0.0, "fusion_lat": 0.0, "lat": 38.94303766666667, "type": "electric_scooter", "lon": -77.02761633333333, "bike_id": "897ae957ab380196d721232d1a3ac917", "rental_uris": {"android": "https://dc.lft.to/lastmile_qr_scan", "ios": "https://dc.lft.to/lastmile_qr_scan"}, "name": "897ae957ab380196d721232d1a3ac917", "is_reserved": 0}, {"is_disabled": 0, "fusion_lon": 0.0, "fusion_lat": 0.0, "lat": 38.920677833333336, "type": "electric_scooter", "lon": -77.04378066666666, "bike_id": "e10476faa77b43b48951ff45fb69acba", "rental_uris": {"android": "https://dc.lft.to/lastmile_qr_scan", "ios": "https://dc.lft.to/lastmile_qr_scan"}, "name": "e10476faa77b43b48951ff45fb69acba", "is_reserved": 0}, {"is_disabled": 0, "fusion_lon": 0.0, "fusion_lat": 0.0, "lat": 38.81029616666667, "type": "electric_bike", "lon": -77.0843935, "bike_id": "cb15c656569f460633716a871335ed4f", "rental_uris": {"android": "https://dc.lft.to/lastmile_qr_scan", "ios": "https://dc.lft.to/lastmile_qr_scan"}, "name": "cb15c656569f460633716a871335ed4f", "is_reserved": 0}, {"is_disabled": 0, "fusion_lon": 0.0, "fusion_lat": 0.0, "lat": 38.869588666666665, "type": "electric_scooter", "lon": -76.96031916666666, "bike_id": "953aaf7162bdc75e2418f4c7b4750bfa", "rental_uris": {"android": "https://dc.lft.to/lastmile_qr_scan", "ios": "https://dc.lft.to/lastmile_qr_scan"}, "name": "953aaf7162bdc75e2418f4c7b4750bfa", "is_reserved": 0}, {"is_disabled": 0, "fusion_lon": 0.0, "fusion_lat": 0.0, "lat": 38.9183995, "type": "electric_scooter", "lon": -77.072064, "bike_id": "d71ae75931b0e3f7ac5f05e29a6abdd8", "rental_uris": {"android": "https://dc.lft.to/lastmile_qr_scan", "ios": "https://dc.lft.to/lastmile_qr_scan"}, "name": "d71ae75931b0e3f7ac5f05e29a6abdd8", "is_reserved": 0}, {"is_disabled": 0, "fusion_lon": 0.0, "fusion_lat": 0.0, "lat": 38.91943466666667, "type": "electric_bike", "lon": -76.974981, "bike_id": "3fc05247a1c0ebeedeb4422db4d5a8f1", "rental_uris": {"android": "https://dc.lft.to/lastmile_qr_scan", "ios": "https://dc.lft.to/lastmile_qr_scan"}, "name": "3fc05247a1c0ebeedeb4422db4d5a8f1", "is_reserved": 0}, {"is_disabled": 0, "fusion_lon": 0.0, "fusion_lat": 0.0, "lat": 38.9233465, "type": "electric_scooter", "lon": -77.04187033333334, "bike_id": "86c0753d8af5c09af8c294ccaef8169f", "rental_uris": {"android": "https://dc.lft.to/lastmile_qr_scan", "ios": "https://dc.lft.to/lastmile_qr_scan"}, "name": "86c0753d8af5c09af8c294ccaef8169f", "is_reserved": 0}, {"is_disabled": 0, "fusion_lon": 0.0, "fusion_lat": 0.0, "lat": 38.900159333333335, "type": "electric_scooter", "lon": -77.033329, "bike_id": "28ec247123d6ab61a50011f005aca1b8", "rental_uris": {"android": "https://dc.lft.to/lastmile_qr_scan", "ios": "https://dc.lft.to/lastmile_qr_scan"}, "name": "28ec247123d6ab61a50011f005aca1b8", "is_reserved": 0}, {"is_disabled": 0, "fusion_lon": 0.0, "fusion_lat": 0.0, "lat": 38.90706683333333, "type": "electric_scooter", "lon": -77.02696133333333, "bike_id": "690c7404b9d3e4648b3f7f2b88d8eba3", "rental_uris": {"android": "https://dc.lft.to/lastmile_qr_scan", "ios": "https://dc.lft.to/lastmile_qr_scan"}, "name": "690c7404b9d3e4648b3f7f2b88d8eba3", "is_reserved": 0}, {"is_disabled": 0, "fusion_lon": 0.0, "fusion_lat": 0.0, "lat": 38.903303666666666, "type": "electric_scooter", "lon": -76.98019366666666, "bike_id": "35a2e51b895384e4f4e3271d94fdd58f", "rental_uris": {"android": "https://dc.lft.to/lastmile_qr_scan", "ios": "https://dc.lft.to/lastmile_qr_scan"}, "name": "35a2e51b895384e4f4e3271d94fdd58f", "is_reserved": 0}, {"is_disabled": 0, "fusion_lon": 0.0, "fusion_lat": 0.0, "lat": 38.9276815, "type": "electric_scooter", "lon": -77.02787983333333, "bike_id": "c2bc4e595bec6221d8e1afe601036df0", "rental_uris": {"android": "https://dc.lft.to/lastmile_qr_scan", "ios": "https://dc.lft.to/lastmile_qr_scan"}, "name": "c2bc4e595bec6221d8e1afe601036df0", "is_reserved": 0}, {"is_disabled": 0, "fusion_lon": 0.0, "fusion_lat": 0.0, "lat": 38.8461765, "type": "electric_scooter", "lon": -76.99629516666667, "bike_id": "a8ec1400f0e19c3fae87ed73adf65dc9", "rental_uris": {"android": "https://dc.lft.to/lastmile_qr_scan", "ios": "https://dc.lft.to/lastmile_qr_scan"}, "name": "a8ec1400f0e19c3fae87ed73adf65dc9", "is_reserved": 0},