{"data": {"bikes": [{"fusion_lon": 0.0, "name": "e78b3a9d3690a4b4984eca226f48d60d", "rental_uris": {"android": "https://dc.lft.to/lastmile_qr_scan", "ios": "https://dc.lft.to/lastmile_qr_scan"}, "lat": 38.910031333333336, "bike_id": "e78b3a9d3690a4b4984eca226f48d60d", "is_disabled": 0, "lon": -77.0218105, "is_reserved": 0, "fusion_lat": 0.0, "type": "electric_scooter"}, {"fusion_lon": 0.0, "name": "744ed141fd76a1767c792ec2a3d3e848", "rental_uris": {"android": "https://dc.lft.to/lastmile_qr_scan", "ios": "https://dc.lft.to/lastmile_qr_scan"}, "lat": 38.886916166666666, "bike_id": "744ed141fd76a1767c792ec2a3d3e848", "is_disabled": 0, "lon": -76.97638933333333, "is_reserved": 0, "fusion_lat": 0.0, "type": "electric_scooter"}, {"fusion_lon": 0.0, "name": "1930308c8a979cac0d933f9d1b5d5eac", "rental_uris": {"android": "https://dc.lft.to/lastmile_qr_scan", "ios": "https://dc.lft.to/lastmile_qr_scan"}, "lat": 38.9002825, "bike_id": "1930308c8a979cac0d933f9d1b5d5eac", "is_disabled": 0, "lon": -77.03623583333334, "is_reserved": 0, "fusion_lat": 0.0, "type": "electric_scooter"}, {"fusion_lon": 0.0, "name": "cff809fb24b033bf6ef2fe579b774c92", "rental_uris": {"android": "https://dc.lft.to/lastmile_qr_scan", "ios": "https://dc.lft.to/lastmile_qr_scan"}, "lat": 38.909616666666665, "bike_id": "cff809fb24b033bf6ef2fe579b774c92", "is_disabled": 0, "lon": -77.022817, "is_reserved": 0, "fusion_lat": 0.0, "type": "electric_scooter"}, {"fusion_lon": 0.0, "name": "fc281cde3970cdd68b338d0f9134ce31", "rental_uris": {"android": "https://dc.lft.to/lastmile_qr_scan", "ios": "https://dc.lft.to/lastmile_qr_scan"}, "lat": 38.9141585, "bike_id": "fc281cde3970cdd68b338d0f9134ce31", "is_disabled": 0, "lon": -77.03998633333333, "is_reserved": 0, "fusion_lat": 0.0, "type": "electric_scooter"}, {"fusion_lon": 0.0, "name": "0a80607cee3247d9c14ea5392e3879b7", "rental_uris": {"android": "https://dc.lft.to/lastmile_qr_scan", "ios": "https://dc.lft.to/lastmile_qr_scan"}, "lat": 38.89923833333334, "bike_id": "0a80607cee3247d9c14ea5392e3879b7", "is_disabled": 0, "lon": -77.04566333333334, "is_reserved": 0, "fusion_lat": 0.0, "type": "electric_scooter"}, {"fusion_lon": 0.0, "name": "066e2acbc36ccded8db0dc21cbd674a8", "rental_uris": {"android": "https://dc.lft.to/lastmile_qr_scan", "ios": "https://dc.lft.to/lastmile_qr_scan"}, "lat": 38.8950085, "bike_id": "066e2acbc36ccded8db0dc21cbd674a8", "is_disabled": 0, "lon": -76.9922635, "is_reserved": 0, "fusion_lat": 0.0, "type": "electric_scooter"}, {"fusion_lon": 0.0, "name": "0f4ff5609218b5953d2966060a24fea1", "rental_uris": {"android": "https://dc.lft.to/lastmile_qr_scan", "ios": "https://dc.lft.to/lastmile_qr_scan"}, "lat": 38.944949333333334, "bike_id": "0f4ff5609218b5953d2966060a24fea1", "is_disabled": 0, "lon": -77.0638905, "is_reserved": 0, "fusion_lat": 0.0, "type": "electric_scooter"}, {"fusion_lon": 0.0, "name": "ba3d5e181e1bf5781dde3233f8a123b1", "rental_uris": {"android": "https://dc.lft.to/lastmile_qr_scan", "ios": "https://dc.lft.to/lastmile_qr_scan"}, "lat": 38.913204, "bike_id": "ba3d5e181e1bf5781dde3233f8a123b1", "is_disabled": 0, "lon": -77.02267666666667, "is_reserved": 0, "fusion_lat": 0.0, "type": "electric_scooter"}, {"fusion_lon": 0.0, "name": "99362fbae5f0040450697b48763bc895", "rental_uris": {"android": "https://dc.lft.to/lastmile_qr_scan", "ios": "https://dc.lft.to/lastmile_qr_scan"}, "lat": 38.9156695, "bike_id": "99362fbae5f0040450697b48763bc895", "is_disabled": 0, "lon": -77.04452, "is_reserved": 0, "fusion_lat": 0.0, "type": "electric_scooter"}, {"fusion_lon": 0.0, "name": "8e052de99dd6432ff8d2240c324d6657", "rental_uris": {"android": "https://dc.lft.to/lastmile_qr_scan", "ios": "https://dc.lft.to/lastmile_qr_scan"}, "lat": 38.912612333333335, "bike_id": "8e052de99dd6432ff8d2240c324d6657", "is_disabled": 0, "lon": -76.97207666666667, "is_reserved": 0, "fusion_lat": 0.0, "type": "electric_scooter"}, {"fusion_lon": 0.0, "name": "4878cd620b96278ee5b6ff898a0a880a", "rental_uris": {"android": "https://dc.lft.to/lastmile_qr_scan", "ios": "https://dc.lft.to/lastmile_qr_scan"}, "lat": 38.93905133333333, "bike_id": "4878cd620b96278ee5b6ff898a0a880a", "is_disabled": 0, "lon": -77.03264216666666, "is_reserved": 0, "fusion_lat": 0.0, "type": "electric_scooter"}, {"fusion_lon": 0.0, "name": "90050680d84c8911910c8fc8b757cc9d", "rental_uris": {"android": "https://dc.lft.to/lastmile_qr_scan", "ios": "https://dc.lft.to/lastmile_qr_scan"}, "lat": 38.92795016666667, "bike_id": "90050680d84c8911910c8fc8b757cc9d", "is_disabled": 0, "lon": -77.05332933333334, "is_reserved": 0, "fusion_lat": 0.0, "type": "electric_scooter"}, {"fusion_lon": 0.0, "name": "aff445809eebfb1c0f3af29466d2e0f7", "rental_uris": {"android": "https://dc.lft.to/lastmile_qr_scan", "ios": "https://dc.lft.to/lastmile_qr_scan"}, "lat": 38.930967833333334, "bike_id": "aff445809eebfb1c0f3af29466d2e0f7", "is_disabled": 0, "lon": -77.024784, "is_reserved": 0, "fusion_lat": 0.0, "type": "electric_scooter"}, {"fusion_lon": 0.0, "name": "f188b50524a4cb4b8bf12b7fa5dde8ac", "rental_uris": {"android": "https://dc.lft.to/lastmile_qr_scan", "ios": "https://dc.lft.to/lastmile_qr_scan"}, "lat": 38.889019166666664, "bike_id": "f188b50524a4cb4b8bf12b7fa5dde8ac", "is_disabled": 0, "lon": -76.95231816666667, "is_reserved": 0, "fusion_lat": 0.0, "type": "electric_scooter"}, {"fusion_lon": 0.0, "name": "988eb0fca496c3b2d907178e1bf37659", "rental_uris": {"android": "https://dc.lft.to/lastmile_qr_scan", "ios": "https://dc.lft.to/lastmile_qr_scan"}, "lat": 38.915507, "bike_id": "988eb0fca496c3b2d907178e1bf37659", "is_disabled": 0, "lon": -77.03512866666667, "is_reserved": 0, "fusion_lat": 0.0, "type": "electric_scooter"}, {"fusion_lon": 0.0, "name": "ef4fb91c752f123bb0227aee2fcc30fb", "rental_uris": {"android": "https://dc.lft.to/lastmile_qr_scan", "ios": "https://dc.lft.to/lastmile_qr_scan"}, "lat": 38.92446266666666, "bike_id": "ef4fb91c752f123bb0227aee2fcc30fb", "is_disabled": 0, "lon": -77.040321, "is_reserved": 0, "fusion_lat": 0.0, "type": "electric_scooter"}, {"fusion_lon": 0.0, "name": "5613cbc9b1615625ef3617c9e988db7f", "rental_uris": {"android": "https://dc.lft.to/lastmile_qr_scan", "ios": "https://dc.lft.to/lastmile_qr_scan"}, "lat": 38.9072475, "bike_id": "5613cbc9b1615625ef3617c9e988db7f", "is_disabled": 0, "lon": -77.03207983333333, "is_reserved": 0, "fusion_lat": 0.0, "type": "electric_scooter"}, {"fusion_lon": 0.0, "name": "4718547c0e28580b135c19164b84e76f", "rental_uris": {"android": "https://dc.lft.to/lastmile_qr_scan", "ios": "https://dc.lft.to/lastmile_qr_scan"}, "lat": 38.92497266666667, "bike_id": "4718547c0e28580b135c19164b84e76f", "is_disabled": 0, "lon": -77.0764925, "is_reserved": 0, "fusion_lat": 0.0, "type": "electric_scooter"}, {"fusion_lon": 0.0, "name": "f9b6a1a3fc9bf60dce11e02fccf7b186", "rental_uris": {"android": "https://dc.lft.to/lastmile_qr_scan", "ios": "https://dc.lft.to/lastmile_qr_scan"}, "lat": 38.90139333333333, "bike_id": "f9b6a1a3fc9bf60dce11e02fccf7b186", "is_disabled": 0, "lon": -76.98967083333334, "is_reserved": 0, "fusion_lat": 0.0, "type": "electric_scooter"}, {"fusion_lon": 0.0, "name": "875f0280582b15676f99a4976884a0de", "rental_uris": {"android": "https://dc.lft.to/lastmile_qr_scan", "ios": "https://dc.lft.to/lastmile_qr_scan"}, "lat": 38.9074235, "bike_id": "875f0280582b15676f99a4976884a0de", "is_disabled": 0, "lon": -76.98342733333334, "is_reserved": 0, "fusion_lat": 0.0, "type": "electric_scooter"}, {"fusion_lon": 0.0, "name": "8ec7c5271758a216467598f6ae75d8e5", "rental_uris": {"android": "https://dc.lft.to/lastmile_qr_scan", "ios": "https://dc.lft.to/lastmile_qr_scan"}, "lat": 38.886193166666665, "bike_id": "8ec7c5271758a216467598f6ae75d8e5", "is_disabled": 0, "lon": -77.03208966666666, "is_reserved": 0, "fusion_lat": 0.0, "type": "electric_scooter"}, {"fusion_lon": 0.0, "name": "fbf63d3be23e61cc825e3086cb982d6c", "rental_uris": {"android": "https://dc.lft.to/lastmile_qr_scan", "ios": "https://dc.lft.to/lastmile_qr_scan"}, "lat": 38.92432683333333, "bike_id": "fbf63d3be23e61cc825e3086cb982d6c", "is_disabled": 0, "lon": -77.00320833333333, "is_reserved": 0, "fusion_lat": 0.0, "type": "electric_scooter"}, {"fusion_lon": 0.0, "name": "57efc1cbbd3d0096f871711519021158", "rental_uris": {"android": "https://dc.lft.to/lastmile_qr_scan", "ios": "https://dc.lft.to/lastmile_qr_scan"}, "lat": 38.956033, "bike_id": "57efc1cbbd3d0096f871711519021158", "is_disabled": 0, "lon": -76.96476166666666, "is_reserved": 0, "fusion_lat": 0.0, "type": "electric_bike"}, {"fusion_lon": 0.0, "name": "0f6c5b690fa4e194e7345fe8d0661dd1", "rental_uris": {"android": "https://dc.lft.to/lastmile_qr_scan", "ios": "https://dc.lft.to/lastmile_qr_scan"}, "lat": 38.865646, "bike_id": "0f6c5b690fa4e194e7345fe8d0661dd1", "is_disabled": 0, "lon": -76.9784475, "is_reserved": 0, "fusion_lat": 0.0, "type": "electric_scooter"}, {"fusion_lon": 0.0, "name": "c192164aed7319500c1205a3fa43c4f4", "rental_uris": {"android": "https://dc.lft.to/lastmile_qr_scan", "ios": "https://dc.lft.to/lastmile_qr_scan"}, "lat": 38.8746075, "bike_id": "c192164aed7319500c1205a3fa43c4f4", "is_disabled": 0, "lon": -77.00047766666667, "is_reserved": 0, "fusion_lat": 0.0, "type": "electric_scooter"}, {"fusion_lon": 0.0, "name": "11b12707616ec3d75f928330a101630c", "rental_uris": {"android": "https://dc.lft.to/lastmile_qr_scan", "ios": "https://dc.lft.to/lastmile_qr_scan"}, "lat": 38.89722883333334, "bike_id": "11b12707616ec3d75f928330a101630c", "is_disabled": 0, "lon": -77.024793, "is_reserved": 0, "fusion_lat": 0.0, "type": "electric_scooter"}, {"fusion_lon": 0.0, "name": "6c101f0720dc4f90f453da3bd07af2cf", "rental_uris": {"android": "https://dc.lft.to/lastmile_qr_scan", "ios": "https://dc.lft.to/lastmile_qr_scan"}, "lat": 38.93476116666667, "bike_id": "6c101f0720dc4f90f453da3bd07af2cf", "is_disabled": 0, "lon": -77.086645, "is_reserved": 0, "fusion_lat": 0.0, "type": "electric_scooter"}, {"fusion_lon": 0.0, "name": "a21cee5a06269ef4c6467b1b2ba2ebce", "rental_uris": {"android": "https://dc.lft.to/lastmile_qr_scan", "ios": "https://dc.lft.to/lastmile_qr_scan"}, "lat": 38.893368333333335, "bike_id": "a21cee5a06269ef4c6467b1b2ba2ebce", "is_disabled": 0, "lon": -77.04867833333333, "is_reserved": 0, "fusion_lat": 0.0, "type": "electric_scooter"}, {"fusion_lon": 0.0, "name": "4a422898452ae88583011610c028ec2e", "rental_uris": {"android": "https://dc.lft.to/lastmile_qr_scan", "ios": "https://dc.lft.to/lastmile_qr_scan"}, "lat": 38.8982365, "bike_id": "4a422898452ae88583011610c028ec2e", "is_disabled": 0, "lon": -76.930112, "is_reserved": 0, "fusion_lat": 0.0, "type": "electric_scooter"}, {"fusion_lon": 0.0, "name": "2e4d8f6bfcac350648cc06ca62fb831c", "rental_uris": {"android": "https://dc.lft.to/lastmile_qr_scan", "ios": "https://dc.lft.to/lastmile_qr_scan"}, "lat": 38.89616916666667, "bike_id": "2e4d8f6bfcac350648cc06ca62fb831c", "is_disabled": 0, "lon": -76.99418, "is_reserved": 0, "fusion_lat": 0.0, "type": "electric_scooter"}, {"fusion_lon": 0.0, "name": "a11d4c6e86f0661556f7ccd3637572d2", "rental_uris": {"android": "https://dc.lft.to/lastmile_qr_scan", "ios": "https://dc.lft.to/lastmile_qr_scan"}, "lat": 38.9261745, "bike_id": "a11d4c6e86f0661556f7ccd3637572d2", "is_disabled": 0, "lon": -77.0216045, "is_reserved": 0, "fusion_lat": 0.0, "type": "electric_scooter"}, {"fusion_lon": 0.0, "name": "fb221d015a7f73857ef376b66483d1c1", "rental_uris": {"android": "https://dc.lft.to/lastmile_qr_scan", "ios": "https://dc.lft.to/lastmile_qr_scan"}, "lat": 38.9016765, "bike_id": "fb221d015a7f73857ef376b66483d1c1", "is_disabled": 0, "lon": -77.04996816666667, "is_reserved": 0, "fusion_lat": 0.0, "type": "electric_scooter"}, {"fusion_lon": 0.0, "name": "9f9906ebe083d64c7587062ff630652a", "rental_uris": {"android": "https://dc.lft.to/lastmile_qr_scan", "ios": "https://dc.lft.to/lastmile_qr_scan"}, "lat": 38.89219833333333, "bike_id": "9f9906ebe083d64c7587062ff630652a", "is_disabled": 0, "lon": -77.013988, "is_reserved": 0, "fusion_lat": 0.0, "type": "electric_scooter"}, {"fusion_lon": 0.0, "name": "19f9c763575898967fd90da72ab7176a", "rental_uris": {"android": "https://dc.lft.to/lastmile_qr_scan", "ios": "https://dc.lft.to/lastmile_qr_scan"}, "lat": 38.9078025, "bike_id": "19f9c763575898967fd90da72ab7176a", "is_disabled": 0, "lon": -77.0352055, "is_reserved": 0, "fusion_lat": 0.0, "type": "electric_scooter"}, {"fusion_lon": 0.0, "name": "d59007e6a81d01b03eb918fa46713110", "rental_uris": {"android": "https://dc.lft.to/lastmile_qr_scan", "ios": "https://dc.lft.to/lastmile_qr_scan"}, "lat": 38.8622035, "bike_id": "d59007e6a81d01b03eb918fa46713110", "is_disabled": 0, "lon": -76.9946415, "is_reserved": 0, "fusion_lat": 0.0, "type": "electric_scooter"}, {"fusion_lon": 0.0, "name": "c1e56fc37afa7eff956c9f2e6d24192f", "rental_uris": {"android": "https://dc.lft.to/lastmile_qr_scan", "ios": "https://dc.lft.to/lastmile_qr_scan"}, "lat": 38.894771, "bike_id": "c1e56fc37afa7eff956c9f2e6d24192f", "is_disabled": 0, "lon": -77.020797, "is_reserved": 0, "fusion_lat": 0.0, "type": "electric_scooter"}, {"fusion_lon": 0.0, "name": "c35bbfd188169ec838585ed1d25adb0b", "rental_uris": {"android": "https://dc.lft.to/lastmile_qr_scan", "ios": "https://dc.lft.to/lastmile_qr_scan"}, "lat": 38.904338, "bike_id": "c35bbfd188169ec838585ed1d25adb0b", "is_disabled": 0, "lon": -77.02845, "is_reserved": 0, "fusion_lat": 0.0, "type": "electric_scooter"}, {"fusion_lon": 0.0, "name": "eb9746afa6379fb50f9d382f071e6547", "rental_uris": {"android": "https://dc.lft.to/lastmile_qr_scan", "ios": "https://dc.lft.to/lastmile_qr_scan"}, "lat": 38.83582066666666, "bike_id": "eb9746afa6379fb50f9d382f071e6547", "is_disabled": 0, "lon": -76.9902025, "is_reserved": 0, "fusion_lat": 0.0, "type": "electric_bike"}, {"fusion_lon": 0.0, "name": "cb96e7208c7aa39656108817f7c482f9", "rental_uris": {"android": "https://dc.lft.to/lastmile_qr_scan", "ios": "https://dc.lft.to/lastmile_qr_scan"}, "lat": 38.89455066666667, "bike_id": "cb96e7208c7aa39656108817f7c482f9", "is_disabled": 0, "lon": -77.02106016666667, "is_reserved": 0, "fusion_lat": 0.0, "type": "electric_scooter"}, {"fusion_lon": 0.0, "name": "f9995c20fe6c58e792de785b93c9fe54", "rental_uris": {"android": "https://dc.lft.to/lastmile_qr_scan", "ios": "https://dc.lft.to/lastmile_qr_scan"}, "lat": 38.932947, "bike_id": "f9995c20fe6c58e792de785b93c9fe54", "is_disabled": 0, "lon": -77.08529233333333, "is_reserved": 0, "fusion_lat": 0.0, "type": "electric_scooter"}, {"fusion_lon": 0.0, "name": "a655d6beb9ffa1746ac09649acfa9769", "rental_uris": {"android": "https://dc.lft.to/lastmile_qr_scan", "ios": "https://dc.lft.to/lastmile_qr_scan"}, "lat": 38.957782, "bike_id": "a655d6beb9ffa1746ac09649acfa9769", "is_disabled": 0, "lon": -77.02465516666666, "is_reserved": 0, "fusion_lat": 0.0, "type": "electric_scooter"}, {"fusion_lon": 0.0, "name": "43bbae6c94e9930a340a0f8f39e7cd92", "rental_uris": {"android": "https://dc.lft.to/lastmile_qr_scan", "ios": "https://dc.lft.to/lastmile_qr_scan"}, "lat": 38.906650666666664, "bike_id": "43bbae6c94e9930a340a0f8f39e7cd92", "is_disabled": 0, "lon": -77.03429466666667, "is_reserved": 0, "fusion_lat": 0.0, "type": "electric_scooter"}, {"fusion_lon": 0.0, "name": "e831678379f306d6734df327174536c3", "rental_uris": {"android": "https://dc.lft.to/lastmile_qr_scan", "ios": "https://dc.lft.to/lastmile_qr_scan"}, "lat": 38.9203795, "bike_id": "e831678379f306d6734df327174536c3", "is_disabled": 0, "lon": -77.0481965, "is_reserved": 0, "fusion_lat": 0.0, "type": "electric_scooter"}, {"fusion_lon": 0.0, "name": "ce6f1e904aac47543190b80fd4a7e742", "rental_uris": {"android": "https://dc.lft.to/lastmile_qr_scan", "ios": "https://dc.lft.to/lastmile_qr_scan"}, "lat": 38.91120516666667, "bike_id": "ce6f1e904aac47543190b80fd4a7e742", "is_disabled": 0, "lon": -77.0383185, "is_reserved": 0, "fusion_lat": 0.0, "type": "electric_scooter"}, {"fusion_lon": 0.0, "name": "74553c52f4f8a8e9a2f01ef41e92018c", "rental_uris": {"android": "https://dc.lft.to/lastmile_qr_scan", "ios": "https://dc.lft.to/lastmile_qr_scan"}, "lat": 38.93057116666667, "bike_id": "74553c52f4f8a8e9a2f01ef41e92018c", "is_disabled": 0, "lon": -77.02327366666667, "is_reserved": 0, "fusion_lat": 0.0, "type": "electric_scooter"}, {"fusion_lon": 0.0, "name": "83f9d95796acc7ff2c51a53144466c67", "rental_uris": {"android": "https://dc.lft.to/lastmile_qr_scan", "ios": "https://dc.lft.to/lastmile_qr_scan"}, "lat": 38.92848216666667, "bike_id": "83f9d95796acc7ff2c51a53144466c67", "is_disabled": 0, "lon": -77.05443283333334, "is_reserved": 0, "fusion_lat": 0.0, "type": "electric_scooter"}, {"fusion_lon": 0.0, "name": "3d0fb95b059c6ad92557a8474dd5f6d8", "rental_uris": {"android": "https://dc.lft.to/lastmile_qr_scan", "ios": "https://dc.lft.to/lastmile_qr_scan"}, "lat": 38.926453333333335, "bike_id": "3d0fb95b059c6ad92557a8474dd5f6d8", "is_disabled": 0, "lon": -77.03711066666666, "is_reserved": 0, "fusion_lat": 0.0, "type": "electric_scooter"}, {"fusion_lon": 0.0, "name": "ba7bfb525cbfd553cf63cb8d7f8f2506", "rental_uris": {"android": "https://dc.lft.to/lastmile_qr_scan", "ios": "https://dc.lft.to/lastmile_qr_scan"}, "lat": 38.92619716666667, "bike_id": "ba7bfb525cbfd553cf63cb8d7f8f2506", "is_disabled": 0, "lon": -77.03676266666666, "is_reserved": 0, "fusion_lat": 0.0, "type": "electric_scooter"}, {"fusion_lon": 0.0, "name": "3fe937eae536cc354d046bd16bb46c85", "rental_uris": {"android": "https://dc.lft.to/lastmile_qr_scan", "ios": "https://dc.lft.to/lastmile_qr_scan"}, "lat": 38.903627166666666, "bike_id": "3fe937eae536cc354d046bd16bb46c85", "is_disabled": 0, "lon": -77.0262175, "is_reserved": 0, "fusion_lat": 0.0, "type": "electric_scooter"}, {"fusion_lon": 0.0, "name": "d39e66b4564a370c55990de1cc003853", "rental_uris": {"android": "https://dc.lft.to/lastmile_qr_scan", "ios": "https://dc.lft.to/lastmile_qr_scan"}, "lat": 38.9246545, "bike_id": "d39e66b4564a370c55990de1cc003853", "is_disabled": 0, "lon": -77.0524315, "is_reserved": 0, "fusion_lat": 0.0, "type": "electric_scooter"}, {"fusion_lon": 0.0, "name": "0647436dea2641ef12ad901e80440290", "rental_uris": {"android": "https://dc.lft.to/lastmile_qr_scan", "ios": "https://dc.lft.to/lastmile_qr_scan"}, "lat": 38.926439333333335, "bike_id": "0647436dea2641ef12ad901e80440290", "is_disabled": 0, "lon": -77.02508783333333, "is_reserved": 0, "fusion_lat": 0.0, "type": "electric_scooter"}, {"fusion_lon": 0.0, "name": "57142523c1f56e51a78efb9efb4edcba", "rental_uris": {"android": "https://dc.lft.to/lastmile_qr_scan", "ios": "https://dc.lft.to/lastmile_qr_scan"}, "lat": 38.886003, "bike_id": "57142523c1f56e51a78efb9efb4edcba", "is_disabled": 0, "lon": -77.04513683333333, "is_reserved": 0, "fusion_lat": 0.0, "type": "electric_scooter"}, {"fusion_lon": 0.0, "name": "a1bb6743446a87b06f897e95fecaf0cc", "rental_uris": {"android": "https://dc.lft.to/lastmile_qr_scan", "ios": "https://dc.lft.to/lastmile_qr_scan"}, "lat": 38.9236755, "bike_id": "a1bb6743446a87b06f897e95fecaf0cc", "is_disabled": 0, "lon": -77.01957816666666, "is_reserved": 0, "fusion_lat": 0.0, "type": "electric_scooter"}, {"fusion_lon": 0.0, "name": "646e1568383b4c0b0f26507473ec6e90", "rental_uris": {"android": "https://dc.lft.to/lastmile_qr_scan", "ios": "https://dc.lft.to/lastmile_qr_scan"}, "lat": 38.8969125, "bike_id": "646e1568383b4c0b0f26507473ec6e90", "is_disabled": 0, "lon": -77.0049555, "is_reserved": 0, "fusion_lat": 0.0, "type": "electric_scooter"}, {"fusion_lon": 0.0, "name": "e4fcd647d41c8694e8ff5dc0eec267c3", "rental_uris": {"android": "https://dc.lft.to/lastmile_qr_scan", "ios": "https://dc.lft.to/lastmile_qr_scan"}, "lat": 38.923508, "bike_id": "e4fcd647d41c8694e8ff5dc0eec267c3", "is_disabled": 0, "lon": -77.054268, "is_reserved": 0, "fusion_lat": 0.0, "type": "electric_scooter"}, {"fusion_lon": 0.0, "name": "88eb6a691a58e09f22290113c6ebf0cf", "rental_uris": {"android": "https://dc.lft.to/lastmile_qr_scan", "ios": "https://dc.lft.to/lastmile_qr_scan"}, "lat": 38.951806, "bike_id": "88eb6a691a58e09f22290113c6ebf0cf", "is_disabled": 0, "lon": -77.02614166666666, "is_reserved": 0, "fusion_lat": 0.0, "type": "electric_scooter"}, {"fusion_lon": 0.0, "name": "239fa93d6cdc168c036bbc332e197128", "rental_uris": {"android": "https://dc.lft.to/lastmile_qr_scan", "ios": "https://dc.lft.to/lastmile_qr_scan"}, "lat": 38.92060216666667, "bike_id": "239fa93d6cdc168c036bbc332e197128", "is_disabled": 0, "lon": -77.0418465, "is_reserved": 0, "fusion_lat": 0.0, "type": "electric_scooter"}, {"fusion_lon": 0.0, "name": "32d13eb102a53d83618e3b3554c638a3", "rental_uris": {"android": "https://dc.lft.to/lastmile_qr_scan", "ios": "https://dc.lft.to/lastmile_qr_scan"}, "lat": 38.93483616666666, "bike_id": "32d13eb102a53d83618e3b3554c638a3", "is_disabled": 0, "lon": -77.0446115, "is_reserved": 0, "fusion_lat": 0.0, "type": "electric_scooter"}, {"fusion_lon": 0.0, "name": "e82da40a39cd58ea945eee6b62a9de35", "rental_uris": {"android": "https://dc.lft.to/lastmile_qr_scan", "ios": "https://dc.lft.to/lastmile_qr_scan"}, "lat": 38.91798933333333, "bike_id": "e82da40a39cd58ea945eee6b62a9de35", "is_disabled": 0, "lon": -77.0314995, "is_reserved": 0, "fusion_lat": 0.0, "type": "electric_scooter"}, {"fusion_lon": 0.0, "name": "2b53aa67de73fea79c316a20a7539f4e", "rental_uris": {"android": "https://dc.lft.to/lastmile_qr_scan", "ios": "https://dc.lft.to/lastmile_qr_scan"}, "lat": 38.901102, "bike_id": "2b53aa67de73fea79c316a20a7539f4e", "is_disabled": 0, "lon": -77.0449065, "is_reserved": 0, "fusion_lat": 0.0, "type": "electric_scooter"}, {"fusion_lon": 0.0, "name": "7c9da569e93605f11c79e8320fb5dcd3", "rental_uris": {"android": "https://dc.lft.to/lastmile_qr_scan", "ios": "https://dc.lft.to/lastmile_qr_scan"}, "lat": 38.86244116666667, "bike_id": "7c9da569e93605f11c79e8320fb5dcd3", "is_disabled": 0, "lon": -76.99498766666666, "is_reserved": 0, "fusion_lat": 0.0, "type": "electric_scooter"}, {"fusion_lon": 0.0, "name": "1ce33b9ff501c42bdf17d54ae3cb1b44", "rental_uris": {"android": "https://dc.lft.to/lastmile_qr_scan", "ios": "https://dc.lft.to/lastmile_qr_scan"}, "lat": 38.90486116666667, "bike_id": "1ce33b9ff501c42bdf17d54ae3cb1b44", "is_disabled": 0, "lon": -77.04867433333334, "is_reserved": 0, "fusion_lat": 0.0, "type": "electric_scooter"}, {"fusion_lon": 0.0, "name": "232b0473ddee07e6c103f24964dbaa26", "rental_uris": {"android": "https://dc.lft.to/lastmile_qr_scan", "ios": "https://dc.lft.to/lastmile_qr_scan"}, "lat": 38.92330483333333, "bike_id": "232b0473ddee07e6c103f24964dbaa26", "is_disabled": 0, "lon": -77.01954233333333, "is_reserved": 0, "fusion_lat": 0.0, "type": "electric_scooter"}, {"fusion_lon": 0.0, "name": "44de9acefb633d614041dc1558d122e7", "rental_uris": {"android": "https://dc.lft.to/lastmile_qr_scan", "ios": "https://dc.lft.to/lastmile_qr_scan"}, "lat": 38.928661166666664, "bike_id": "44de9acefb633d614041dc1558d122e7", "is_disabled": 0, "lon": -77.0333825, "is_reserved": 0, "fusion_lat": 0.0, "type": "electric_scooter"}, {"fusion_lon": 0.0, "name": "54024950081bec909377c3a4e743257c", "rental_uris": {"android": "https://dc.lft.to/lastmile_qr_scan", "ios": "https://dc.lft.to/lastmile_qr_scan"}, "lat": 38.925906166666664, "bike_id": "54024950081bec909377c3a4e743257c", "is_disabled": 0, "lon": -77.02442116666667, "is_reserved": 0, "fusion_lat": 0.0, "type": "electric_bike"}, {"fusion_lon": 0.0, "name": "8c9cf1a2ff4a5140c5d1b8cd945cafb3", "rental_uris": {"android": "https://dc.lft.to/lastmile_qr_scan", "ios": "https://dc.lft.to/lastmile_qr_scan"}, "lat": 38.898774, "bike_id": "8c9cf1a2ff4a5140c5d1b8cd945cafb3", "is_disabled": 0, "lon": -76.98838116666667, "is_reserved": 0, "fusion_lat": 0.0, "type": "electric_scooter"}, {"fusion_lon": 0.0, "name": "a10463b776e112a28418548b313110f1", "rental_uris": {"android": "https://dc.lft.to/lastmile_qr_scan", "ios": "https://dc.lft.to/lastmile_qr_scan"}, "lat": 38.8971025, "bike_id": "a10463b776e112a28418548b313110f1", "is_disabled": 0, "lon": -76.99122566666667, "is_reserved": 0, "fusion_lat": 0.0, "type": "electric_scooter"}, {"fusion_lon": 0.0, "name": "430fa5df64b4cfe83cd2cc530acc8fbb", "rental_uris": {"android": "https://dc.lft.to/lastmile_qr_scan", "ios": "https://dc.lft.to/lastmile_qr_scan"}, "lat": 38.989881, "bike_id": "430fa5df64b4cfe83cd2cc530acc8fbb", "is_disabled": 0, "lon": -77.0336375, "is_reserved": 0, "fusion_lat": 0.0, "type": "electric_scooter"}, {"fusion_lon": 0.0, "name": "62a34308695a315fe3a03c6b9058a53e", "rental_uris": {"android": "https://dc.lft.to/lastmile_qr_scan", "ios": "https://dc.lft.to/lastmile_qr_scan"}, "lat": 38.8982605, "bike_id": "62a34308695a315fe3a03c6b9058a53e", "is_disabled": 0, "lon": -76.99059083333333, "is_reserved": 0, "fusion_lat": 0.0, "type": "electric_bike"}, {"fusion_lon": 0.0, "name": "25fc050a7dc1c0c9c803175863994395", "rental_uris": {"android": "https://dc.lft.to/lastmile_qr_scan", "ios": "https://dc.lft.to/lastmile_qr_scan"}, "lat": 38.898787666666664, "bike_id": "25fc050a7dc1c0c9c803175863994395", "is_disabled": 0, "lon": -77.032816, "is_reserved": 0, "fusion_lat": 0.0, "type": "electric_scooter"}, {"fusion_lon": 0.0, "name": "a0baee50e80e8c97addc72330125a133", "rental_uris": {"android": "https://dc.lft.to/lastmile_qr_scan", "ios": "https://dc.lft.to/lastmile_qr_scan"}, "lat": 38.9612, "bike_id": "a0baee50e80e8c97addc72330125a133", "is_disabled": 0, "lon": -77.0279045, "is_reserved": 0, "fusion_lat": 0.0, "type": "electric_scooter"}, {"fusion_lon": 0.0, "name": "1fd03889264d25f574af6cad115c8530", "rental_uris": {"android": "https://dc.lft.to/lastmile_qr_scan", "ios": "https://dc.lft.to/lastmile_qr_scan"}, "lat": 38.886202, "bike_id": "1fd03889264d25f574af6cad115c8530", "is_disabled": 0, "lon": -76.990203, "is_reserved": 0, "fusion_lat": 0.0, "type": "electric_scooter"}, {"fusion_lon": 0.0, "name": "5ef41f6132c0ce00dfd5b004b8c5125a", "rental_uris": {"android": "https://dc.lft.to/lastmile_qr_scan", "ios": "https://dc.lft.to/lastmile_qr_scan"}, "lat": 38.93528116666667, "bike_id": "5ef41f6132c0ce00dfd5b004b8c5125a", "is_disabled": 0, "lon": -77.028475, "is_reserved": 0, "fusion_lat": 0.0, "type": "electric_scooter"}, {"fusion_lon": 0.0, "name": "b81d7a37319fa2d0b98c93324e599dea", "rental_uris": {"android": "https://dc.lft.to/lastmile_qr_scan", "ios": "https://dc.lft.to/lastmile_qr_scan"}, "lat": 38.897407, "bike_id": "b81d7a37319fa2d0b98c93324e599dea", "is_disabled": 0, "lon": -77.02612683333334, "is_reserved": 0, "fusion_lat": 0.0, "type": "electric_scooter"}, {"fusion_lon": 0.0, "name": "b925bf2051325aa385c4b4c9a39180c7", "rental_uris": {"android": "https://dc.lft.to/lastmile_qr_scan", "ios": "https://dc.lft.to/lastmile_qr_scan"}, "lat": 38.905707166666666, "bike_id": "b925bf2051325aa385c4b4c9a39180c7", "is_disabled": 0, "lon": -77.00558516666666, "is_reserved": 0, "fusion_lat": 0.0, "type": "electric_scooter"}, {"fusion_lon": 0.0, "name": "0ca933d029ad4fed97c72016b32f5f38", "rental_uris": {"android": "https://dc.lft.to/lastmile_qr_scan", "ios": "https://dc.lft.to/lastmile_qr_scan"}, "lat": 38.919490833333334, "bike_id": "0ca933d029ad4fed97c72016b32f5f38", "is_disabled": 0, "lon": -77.01781433333333, "is_reserved": 0, "fusion_lat": 0.0, "type": "electric_scooter"}, {"fusion_lon": 0.0, "name": "ce74e9d8e223d9a44d9789e85c857e40", "rental_uris": {"android": "https://dc.lft.to/lastmile_qr_scan", "ios": "https://dc.lft.to/lastmile_qr_scan"}, "lat": 38.918094833333335, "bike_id": "ce74e9d8e223d9a44d9789e85c857e40", "is_disabled": 0, "lon": -77.03446266666667, "is_reserved": 0, "fusion_lat": 0.0, "type": "electric_scooter"}, {"fusion_lon": 0.0, "name": "6525c2eaaae2efa8aff129ed3a9ccd6b", "rental_uris": {"android": "https://dc.lft.to/lastmile_qr_scan", "ios": "https://dc.lft.to/lastmile_qr_scan"}, "lat": 38.92933416666666, "bike_id": "6525c2eaaae2efa8aff129ed3a9ccd6b", "is_disabled": 0, "lon": -76.99577316666667, "is_reserved": 0, "fusion_lat": 0.0, "type": "electric_scooter"}, {"fusion_lon": 0.0, "name": "86d9e88d012750ebb34ec719d4192b5e", "rental_uris": {"android": "https://dc.lft.to/lastmile_qr_scan", "ios": "https://dc.lft.to/lastmile_qr_scan"}, "lat": 38.838114833333336, "bike_id": "86d9e88d012750ebb34ec719d4192b5e", "is_disabled": 0, "lon": -77.095247, "is_reserved": 0, "fusion_lat": 0.0, "type": "electric_bike"}, {"fusion_lon": 0.0, "name": "b3ae6e95718dcda1ac589649ab139ef2", "rental_uris": {"android": "https://dc.lft.to/lastmile_qr_scan", "ios": "https://dc.lft.to/lastmile_qr_scan"}, "lat": 38.8960275, "bike_id": "b3ae6e95718dcda1ac589649ab139ef2", "is_disabled": 0, "lon": -77.01170083333334, "is_reserved": 0, "fusion_lat": 0.0, "type": "electric_scooter"}, {"fusion_lon": 0.0, "name": "45fa7c7dba55baf439cb705ee9a7fb57", "rental_uris": {"android": "https://dc.lft.to/lastmile_qr_scan", "ios": "https://dc.lft.to/lastmile_qr_scan"}, "lat": 38.87632683333333, "bike_id": "45fa7c7dba55baf439cb705ee9a7fb57", "is_disabled": 0, "lon": -77.01658333333333, "is_reserved": 0, "fusion_lat": 0.0, "type": "electric_scooter"}, {"fusion_lon": 0.0, "name": "9a4942b1c48bf51450ae9a9abc2789e2", "rental_uris": {"android": "https://dc.lft.to/lastmile_qr_scan", "ios": "https://dc.lft.to/lastmile_qr_scan"}, "lat": 38.9006105, "bike_id": "9a4942b1c48bf51450ae9a9abc2789e2", "is_disabled": 0, "lon": -76.92745416666666, "is_reserved": 0, "fusion_lat": 0.0, "type": "electric_scooter"}, {"fusion_lon": 0.0, "name": "f93a50a22a04ab5a50e0a466aaebce31", "rental_uris": {"android": "https://dc.lft.to/lastmile_qr_scan", "ios": "https://dc.lft.to/lastmile_qr_scan"}, "lat": 38.878564833333336, "bike_id": "f93a50a22a04ab5a50e0a466aaebce31", "is_disabled": 0, "lon": -76.991666, "is_reserved": 0, "fusion_lat": 0.0, "type": "electric_scooter"}, {"fusion_lon": 0.0, "name": "5c349e1a0990db34dee98815d53018b5", "rental_uris": {"android": "https://dc.lft.to/lastmile_qr_scan", "ios": "https://dc.lft.to/lastmile_qr_scan"}, "lat": 38.8995905, "bike_id": "5c349e1a0990db34dee98815d53018b5", "is_disabled": 0, "lon": -77.04791833333333, "is_reserved": 0, "fusion_lat": 0.0, "type": "electric_scooter"}, {"fusion_lon": 0.0, "name": "f570a78b051cbf2b7ec27d2e0c4ffcb2", "rental_uris": {"android": "https://dc.lft.to/lastmile_qr_scan", "ios": "https://dc.lft.to/lastmile_qr_scan"}, "lat": 38.9003445, "bike_id": "f570a78b051cbf2b7ec27d2e0c4ffcb2", "is_disabled": 0, "lon": -77.04090283333333, "is_reserved": 0, "fusion_lat": 0.0, "type": "electric_scooter"}, {"fusion_lon": 0.0, "name": "e1e80fbcef61395a22363b208a97855d", "rental_uris": {"android": "https://dc.lft.to/lastmile_qr_scan", "ios": "https://dc.lft.to/lastmile_qr_scan"}, "lat": 38.947247833333336, "bike_id": "e1e80fbcef61395a22363b208a97855d", "is_disabled": 0, "lon": -77.06548283333333, "is_reserved": 0, "fusion_lat": 0.0, "type": "electric_scooter"}, {"fusion_lon": 0.0, "name": "ccaf0829bc80237dd735b7cac7a9a70d", "rental_uris": {"android": "https://dc.lft.to/lastmile_qr_scan", "ios": "https://dc.lft.to/lastmile_qr_scan"}, "lat": 38.904249166666666, "bike_id": "ccaf0829bc80237dd735b7cac7a9a70d", "is_disabled": 0, "lon": -77.053462, "is_reserved": 0, "fusion_lat": 0.0, "type": "electric_scooter"}, {"fusion_lon": 0.0, "name": "d12219e4fbacb2986bcd8c07f47a9e53", "rental_uris": {"android": "https://dc.lft.to/lastmile_qr_scan", "ios": "https://dc.lft.to/lastmile_qr_scan"}, "lat": 38.930384333333336, "bike_id": "d12219e4fbacb2986bcd8c07f47a9e53", "is_disabled": 0, "lon": -77.02970833333333, "is_reserved": 0, "fusion_lat": 0.0, "type": "electric_scooter"}, {"fusion_lon": 0.0, "name": "21b08ece31f4dbcbc4eea9f5feb8b7d9", "rental_uris": {"android": "https://dc.lft.to/lastmile_qr_scan", "ios": "https://dc.lft.to/lastmile_qr_scan"}, "lat": 38.929585333333335, "bike_id": "21b08ece31f4dbcbc4eea9f5feb8b7d9", "is_disabled": 0, "lon": -77.042069, "is_reserved": 0, "fusion_lat": 0.0, "type": "electric_scooter"}, {"fusion_lon": 0.0, "name": "b3fc647e151a276e2bdeffff74e677a3", "rental_uris": {"android": "https://dc.lft.to/lastmile_qr_scan", "ios": "https://dc.lft.to/lastmile_qr_scan"}, "lat": 38.925995, "bike_id": "b3fc647e151a276e2bdeffff74e677a3", "is_disabled": 0, "lon": -77.02154183333333, "is_reserved": 0, "fusion_lat": 0.0, "type": "electric_scooter"}, {"fusion_lon": 0.0, "name": "0a83c205d7ec304b786e8ae361a9b0a7", "rental_uris": {"android": "https://dc.lft.to/lastmile_qr_scan", "ios": "https://dc.lft.to/lastmile_qr_scan"}, "lat": 38.90755333333333, "bike_id": "0a83c205d7ec304b786e8ae361a9b0a7", "is_disabled": 0, "lon": -77.03576466666667, "is_reserved": 0, "fusion_lat": 0.0, "type": "electric_scooter"}, {"fusion_lon": 0.0, "name": "8d7d5040bc1b0f41091609ed1e82d289", "rental_uris": {"android": "https://dc.lft.to/lastmile_qr_scan", "ios": "https://dc.lft.to/lastmile_qr_scan"}, "lat": 38.922377166666664, "bike_id": "8d7d5040bc1b0f41091609ed1e82d289", "is_disabled": 0, "lon": -77.0285065, "is_reserved": 0, "fusion_lat": 0.0, "type": "electric_scooter"}, {"fusion_lon": 0.0, "name": "ed37925fcb3f6639d69f59dc8201a969", "rental_uris": {"android": "https://dc.lft.to/lastmile_qr_scan", "ios": "https://dc.lft.to/lastmile_qr_scan"}, "lat": 38.9264135, "bike_id": "ed37925fcb3f6639d69f59dc8201a969", "is_disabled": 0, "lon": -77.025068, "is_reserved": 0, "fusion_lat": 0.0, "type": "electric_scooter"}, {"fusion_lon": 0.0, "name": "cc7b850eda1fe40210d4a6cae80dcc8a", "rental_uris": {"android": "https://dc.lft.to/lastmile_qr_scan", "ios": "https://dc.lft.to/lastmile_qr_scan"}, "lat": 38.87707283333334, "bike_id": "cc7b850eda1fe40210d4a6cae80dcc8a", "is_disabled": 0, "lon": -77.01651683333333, "is_reserved": 0, "fusion_lat": 0.0, "type": "electric_scooter"}, {"fusion_lon": 0.0, "name": "d6d121c40ca4049eec0523d7d540a469", "rental_uris": {"android": "https://dc.lft.to/lastmile_qr_scan", "ios": "https://dc.lft.to/lastmile_qr_scan"}, "lat": 38.9165505, "bike_id": "d6d121c40ca4049eec0523d7d540a469", "is_disabled": 0, "lon": -77.02960433333334, "is_reserved": 0, "fusion_lat": 0.0, "type": "electric_scooter"}, {"fusion_lon": 0.0, "name": "bd698f26c1e06a86017d7d8db2f44dc8", "rental_uris": {"android": "https://dc.lft.to/lastmile_qr_scan", "ios": "https://dc.lft.to/lastmile_qr_scan"}, "lat": 38.91532733333333, "bike_id": "bd698f26c1e06a86017d7d8db2f44dc8", "is_disabled": 0, "lon": -77.0446965, "is_reserved": 0, "fusion_lat": 0.0, "type": "electric_scooter"}, {"fusion_lon": 0.0, "name": "5ade714ee65f5946176492efa134ba48", "rental_uris": {"android": "https://dc.lft.to/lastmile_qr_scan", "ios": "https://dc.lft.to/lastmile_qr_scan"}, "lat": 38.9285585, "bike_id": "5ade714ee65f5946176492efa134ba48", "is_disabled": 0, "lon": -77.02877483333333, "is_reserved": 0, "fusion_lat": 0.0, "type": "electric_scooter"}, {"fusion_lon": 0.0, "name": "3832ed1c61eab927e766fe8dbf911fa2", "rental_uris": {"android": "https://dc.lft.to/lastmile_qr_scan", "ios": "https://dc.lft.to/lastmile_qr_scan"}, "lat": 38.89461416666666, "bike_id": "3832ed1c61eab927e766fe8dbf911fa2", "is_disabled": 0, "lon": -77.02210883333333, "is_reserved": 0, "fusion_lat": 0.0, "type": "electric_scooter"}, {"fusion_lon": 0.0, "name": "2b768076fe544ff4414ed0f9df5cafb7", "rental_uris": {"android": "https://dc.lft.to/lastmile_qr_scan", "ios": "https://dc.lft.to/lastmile_qr_scan"}, "lat": 38.90057933333333, "bike_id": "2b768076fe544ff4414ed0f9df5cafb7", "is_disabled": 0, "lon": -77.04937383333333, "is_reserved": 0, "fusion_lat": 0.0, "type": "electric_scooter"}, {"fusion_lon": 0.0, "name": "5498ef2f9d2fa3fb1a84c2fff3e94ab5", "rental_uris": {"android": "https://dc.lft.to/lastmile_qr_scan", "ios": "https://dc.lft.to/lastmile_qr_scan"}, "lat": 38.91198933333333, "bike_id": "5498ef2f9d2fa3fb1a84c2fff3e94ab5", "is_disabled": 0, "lon": -77.03209933333333, "is_reserved": 0, "fusion_lat": 0.0, "type": "electric_scooter"}, {"fusion_lon": 0.0, "name": "ac7f1bf287ce596e10761c32d2c4be98", "rental_uris": {"android": "https://dc.lft.to/lastmile_qr_scan", "ios": "https://dc.lft.to/lastmile_qr_scan"}, "lat": 38.91614466666667, "bike_id": "ac7f1bf287ce596e10761c32d2c4be98", "is_disabled": 0, "lon": -77.04859583333334, "is_reserved": 0, "fusion_lat": 0.0, "type": "electric_scooter"}, {"fusion_lon": 0.0, "name": "b745df0dc524a2e028ebc7282dd4315c", "rental_uris": {"android": "https://dc.lft.to/lastmile_qr_scan", "ios": "https://dc.lft.to/lastmile_qr_scan"}, "lat": 38.9156045, "bike_id": "b745df0dc524a2e028ebc7282dd4315c", "is_disabled": 0, "lon": -77.006812, "is_reserved": 0, "fusion_lat": 0.0, "type": "electric_scooter"}, {"fusion_lon": 0.0, "name": "1db6d0ba64c9d41d55ec4bda22b7ee08", "rental_uris": {"android": "https://dc.lft.to/lastmile_qr_scan", "ios": "https://dc.lft.to/lastmile_qr_scan"}, "lat": 38.9158505, "bike_id": "1db6d0ba64c9d41d55ec4bda22b7ee08", "is_disabled": 0, "lon": -77.029555, "is_reserved": 0, "fusion_lat": 0.0, "type": "electric_scooter"}, {"fusion_lon": 0.0, "name": "10436b973a4e0aa3e6604e19123e0e84", "rental_uris": {"android": "https://dc.lft.to/lastmile_qr_scan", "ios": "https://dc.lft.to/lastmile_qr_scan"}, "lat": 38.92459066666667, "bike_id": "10436b973a4e0aa3e6604e19123e0e84", "is_disabled": 0, "lon": -77.03834766666667, "is_reserved": 0, "fusion_lat": 0.0, "type": "electric_scooter"}, {"fusion_lon": 0.0, "name": "12de7bde972abeb9eed0fba04b39118b", "rental_uris": {"android": "https://dc.lft.to/lastmile_qr_scan", "ios": "https://dc.lft.to/lastmile_qr_scan"}, "lat": 38.91361883333333, "bike_id": "12de7bde972abeb9eed0fba04b39118b", "is_disabled": 0, "lon": -77.03349016666667, "is_reserved": 0, "fusion_lat": 0.0, "type": "electric_scooter"}, {"fusion_lon": 0.0, "name": "62a9f6a8bb5ce575809090d5c9ce2d39", "rental_uris": {"android": "https://dc.lft.to/lastmile_qr_scan", "ios": "https://dc.lft.to/lastmile_qr_scan"}, "lat": 38.891249333333334, "bike_id": "62a9f6a8bb5ce575809090d5c9ce2d39", "is_disabled": 0, "lon": -76.94061666666667, "is_reserved": 0, "fusion_lat": 0.0, "type": "electric_bike"}, {"fusion_lon": 0.0, "name": "6b149ec7618d3bd874f03a33e90afbcb", "rental_uris": {"android": "https://dc.lft.to/lastmile_qr_scan", "ios": "https://dc.lft.to/lastmile_qr_scan"}, "lat": 38.90781066666667, "bike_id": "6b149ec7618d3bd874f03a33e90afbcb", "is_disabled": 0, "lon": -77.00971616666666, "is_reserved": 0, "fusion_lat": 0.0, "type": "electric_scooter"}, {"fusion_lon": 0.0, "name": "7a5d4753e3060b2e5d7461b55d861b5d", "rental_uris": {"android": "https://dc.lft.to/lastmile_qr_scan", "ios": "https://dc.lft.to/lastmile_qr_scan"}, "lat": 38.910978, "bike_id": "7a5d4753e3060b2e5d7461b55d861b5d", "is_disabled": 0, "lon": -77.0200095, "is_reserved": 0, "fusion_lat": 0.0, "type": "electric_scooter"}, {"fusion_lon": 0.0, "name": "5ea7e92955177e5e0293a5542bf0d6ea", "rental_uris": {"android": "https://dc.lft.to/lastmile_qr_scan", "ios": "https://dc.lft.to/lastmile_qr_scan"}, "lat": 38.923342, "bike_id": "5ea7e92955177e5e0293a5542bf0d6ea", "is_disabled": 0, "lon": -77.05678533333334, "is_reserved": 0, "fusion_lat": 0.0, "type": "electric_scooter"}, {"fusion_lon": 0.0, "name": "6f25b800eb74ee8fda891bb8bab58154", "rental_uris": {"android": "https://dc.lft.to/lastmile_qr_scan", "ios": "https://dc.lft.to/lastmile_qr_scan"}, "lat": 38.918351666666666, "bike_id": "6f25b800eb74ee8fda891bb8bab58154", "is_disabled": 0, "lon": -77.0230205, "is_reserved": 0, "fusion_lat": 0.0, "type": "electric_scooter"}, {"fusion_lon": 0.0, "name": "3841a23137fe4c438891d40e40af100d", "rental_uris": {"android": "https://dc.lft.to/lastmile_qr_scan", "ios": "https://dc.lft.to/lastmile_qr_scan"}, "lat": 38.9034875, "bike_id": "3841a23137fe4c438891d40e40af100d", "is_disabled": 0, "lon": -77.02623316666667, "is_reserved": 0, "fusion_lat": 0.0, "type": "electric_scooter"}, {"fusion_lon": 0.0, "name": "c4e1fdcd744db93b2406fc21d7a32749", "rental_uris": {"android": "https://dc.lft.to/lastmile_qr_scan", "ios": "https://dc.lft.to/lastmile_qr_scan"}, "lat": 38.902361666666664, "bike_id": "c4e1fdcd744db93b2406fc21d7a32749", "is_disabled": 0, "lon": -77.05340333333334, "is_reserved": 0, "fusion_lat": 0.0, "type": "electric_scooter"}, {"fusion_lon": 0.0, "name": "de22537a285598447f8f1ecd9c75a0d6", "rental_uris": {"android": "https://dc.lft.to/lastmile_qr_scan", "ios": "https://dc.lft.to/lastmile_qr_scan"}, "lat": 38.87891716666667, "bike_id": "de22537a285598447f8f1ecd9c75a0d6", "is_disabled": 0, "lon": -77.00606583333334, "is_reserved": 0, "fusion_lat": 0.0, "type": "electric_scooter"}, {"fusion_lon": 0.0, "name": "d6691e5eb7c39c4c57406ac5e2161e75", "rental_uris": {"android": "https://dc.lft.to/lastmile_qr_scan", "ios": "https://dc.lft.to/lastmile_qr_scan"}, "lat": 38.91787883333333, "bike_id": "d6691e5eb7c39c4c57406ac5e2161e75", "is_disabled": 0, "lon": -77.040246, "is_reserved": 0, "fusion_lat": 0.0, "type": "electric_scooter"}, {"fusion_lon": 0.0, "name": "6fb4044c243591a3a7cd266f496226dd", "rental_uris": {"android": "https://dc.lft.to/lastmile_qr_scan", "ios": "https://dc.lft.to/lastmile_qr_scan"}, "lat": 38.93716216666667, "bike_id": "6fb4044c243591a3a7cd266f496226dd", "is_disabled": 0, "lon": -77.03292166666667, "is_reserved": 0, "fusion_lat": 0.0, "type": "electric_scooter"}, {"fusion_lon": 0.0, "name": "ec72c7929de305e182cc3fa90c195e00", "rental_uris": {"android": "https://dc.lft.to/lastmile_qr_scan", "ios": "https://dc.lft.to/lastmile_qr_scan"}, "lat": 38.90948, "bike_id": "ec72c7929de305e182cc3fa90c195e00", "is_disabled": 0, "lon": -77.038645, "is_reserved": 0, "fusion_lat": 0.0, "type": "electric_scooter"}, {"fusion_lon": 0.0, "name": "a4b7315eeb1344834127c69fba7b59a2", "rental_uris": {"android": "https://dc.lft.to/lastmile_qr_scan", "ios": "https://dc.lft.to/lastmile_qr_scan"}, "lat": 38.92724283333333, "bike_id": "a4b7315eeb1344834127c69fba7b59a2", "is_disabled": 0, "lon": -77.035554, "is_reserved": 0, "fusion_lat": 0.0, "type": "electric_scooter"}, {"fusion_lon": 0.0, "name": "a388a31f9b7083a420ecfc80db16a24f", "rental_uris": {"android": "https://dc.lft.to/lastmile_qr_scan", "ios": "https://dc.lft.to/lastmile_qr_scan"}, "lat": 38.9182265, "bike_id": "a388a31f9b7083a420ecfc80db16a24f", "is_disabled": 0, "lon": -77.04179516666666, "is_reserved": 0, "fusion_lat": 0.0, "type": "electric_scooter"}, {"fusion_lon": 0.0, "name": "408e1d7988256770765716aecbc00be0", "rental_uris": {"android": "https://dc.lft.to/lastmile_qr_scan", "ios": "https://dc.lft.to/lastmile_qr_scan"}, "lat": 38.94489433333333, "bike_id": "408e1d7988256770765716aecbc00be0", "is_disabled": 0, "lon": -77.06385616666667, "is_reserved": 0, "fusion_lat": 0.0, "type": "electric_scooter"}, {"fusion_lon": 0.0, "name": "f176d07cd407383ebecbb6016065b0da", "rental_uris": {"android": "https://dc.lft.to/lastmile_qr_scan", "ios": "https://dc.lft.to/lastmile_qr_scan"}, "lat": 38.941642, "bike_id": "f176d07cd407383ebecbb6016065b0da", "is_disabled": 0, "lon": -77.02558066666667, "is_reserved": 0, "fusion_lat": 0.0, "type": "electric_scooter"}, {"fusion_lon": 0.0, "name": "f8bee316409453b98d287c8676a8d592", "rental_uris": {"android": "https://dc.lft.to/lastmile_qr_scan", "ios": "https://dc.lft.to/lastmile_qr_scan"}, "lat": 38.89848283333333, "bike_id": "f8bee316409453b98d287c8676a8d592", "is_disabled": 0, "lon": -77.04366866666666, "is_reserved": 0, "fusion_lat": 0.0, "type": "electric_scooter"}, {"fusion_lon": 0.0, "name": "2698c47d48a9700bc31ec992e0810cd3", "rental_uris": {"android": "https://dc.lft.to/lastmile_qr_scan", "ios": "https://dc.lft.to/lastmile_qr_scan"}, "lat": 38.90938666666667, "bike_id": "2698c47d48a9700bc31ec992e0810cd3", "is_disabled": 0, "lon": -77.03848766666667, "is_reserved": 0, "fusion_lat": 0.0, "type": "electric_scooter"}, {"fusion_lon": 0.0, "name": "6115a4a5e1e6b5aad4a9ad67d434088d", "rental_uris": {"android": "https://dc.lft.to/lastmile_qr_scan", "ios": "https://dc.lft.to/lastmile_qr_scan"}, "lat": 38.8887075, "bike_id": "6115a4a5e1e6b5aad4a9ad67d434088d", "is_disabled": 0, "lon": -76.99034216666666, "is_reserved": 0, "fusion_lat": 0.0, "type": "electric_scooter"}, {"fusion_lon": 0.0, "name": "e195c9e915e4747086901ac4686d7354", "rental_uris": {"android": "https://dc.lft.to/lastmile_qr_scan", "ios": "https://dc.lft.to/lastmile_qr_scan"}, "lat": 38.924797166666664, "bike_id": "e195c9e915e4747086901ac4686d7354", "is_disabled": 0, "lon": -77.02247766666666, "is_reserved": 0, "fusion_lat": 0.0, "type": "electric_scooter"}, {"fusion_lon": 0.0, "name": "2fa16bd6fe772362204fbefd7c17f73e", "rental_uris": {"android": "https://dc.lft.to/lastmile_qr_scan", "ios": "https://dc.lft.to/lastmile_qr_scan"}, "lat": 38.905847333333334, "bike_id": "2fa16bd6fe772362204fbefd7c17f73e", "is_disabled": 0, "lon": -77.0057775, "is_reserved": 0, "fusion_lat": 0.0, "type": "electric_scooter"}, {"fusion_lon": 0.0, "name": "4e629b40f5a8b1d63a7b51f09ab0b224", "rental_uris": {"android": "https://dc.lft.to/lastmile_qr_scan", "ios": "https://dc.lft.to/lastmile_qr_scan"}, "lat": 38.92064333333333, "bike_id": "4e629b40f5a8b1d63a7b51f09ab0b224", "is_disabled": 0, "lon": -77.034653, "is_reserved": 0, "fusion_lat": 0.0, "type": "electric_scooter"}, {"fusion_lon": 0.0, "name": "7d186547ddc37b1147df1901251774a7", "rental_uris": {"android": "https://dc.lft.to/lastmile_qr_scan", "ios": "https://dc.lft.to/lastmile_qr_scan"}, "lat": 38.918609833333335, "bike_id": "7d186547ddc37b1147df1901251774a7", "is_disabled": 0, "lon": -77.0318305, "is_reserved": 0, "fusion_lat": 0.0, "type": "electric_scooter"}, {"fusion_lon": 0.0, "name": "3ba6e9d06728cc1ef9f382e15ff7351b", "rental_uris": {"android": "https://dc.lft.to/lastmile_qr_scan", "ios": "https://dc.lft.to/lastmile_qr_scan"}, "lat": 38.90863483333333, "bike_id": "3ba6e9d06728cc1ef9f382e15ff7351b", "is_disabled": 0, "lon": -77.080815, "is_reserved": 0, "fusion_lat": 0.0, "type": "electric_bike"}, {"fusion_lon": 0.0, "name": "37e923a625a8d8beff13f8b8ebb52ea8", "rental_uris": {"android": "https://dc.lft.to/lastmile_qr_scan", "ios": "https://dc.lft.to/lastmile_qr_scan"}, "lat": 38.9055925, "bike_id": "37e923a625a8d8beff13f8b8ebb52ea8", "is_disabled": 0, "lon": -77.00211316666666, "is_reserved": 0, "fusion_lat": 0.0, "type": "electric_scooter"}, {"fusion_lon": 0.0, "name": "e3d89cdb2267faa397c408d2f2745563", "rental_uris": {"android": "https://dc.lft.to/lastmile_qr_scan", "ios": "https://dc.lft.to/lastmile_qr_scan"}, "lat": 38.86336383333333, "bike_id": "e3d89cdb2267faa397c408d2f2745563", "is_disabled": 0, "lon": -76.98714733333334, "is_reserved": 0, "fusion_lat": 0.0, "type": "electric_bike"}, {"fusion_lon": 0.0, "name": "4fecd9e3002f5e106bd001974d88f9e7", "rental_uris": {"android": "https://dc.lft.to/lastmile_qr_scan", "ios": "https://dc.lft.to/lastmile_qr_scan"}, "lat": 38.9079975, "bike_id": "4fecd9e3002f5e106bd001974d88f9e7", "is_disabled": 0, "lon": -77.0840395, "is_reserved": 0, "fusion_lat": 0.0, "type": "electric_scooter"}, {"fusion_lon": 0.0, "name": "55f06daf58c903789294c016dedcae39", "rental_uris": {"android": "https://dc.lft.to/lastmile_qr_scan", "ios": "https://dc.lft.to/lastmile_qr_scan"}, "lat": 38.8939075, "bike_id": "55f06daf58c903789294c016dedcae39", "is_disabled": 0, "lon": -77.02254983333333, "is_reserved": 0, "fusion_lat": 0.0, "type": "electric_scooter"}, {"fusion_lon": 0.0, "name": "6770e9848ecf596fd2e51a9dc94666fd", "rental_uris": {"android": "https://dc.lft.to/lastmile_qr_scan", "ios": "https://dc.lft.to/lastmile_qr_scan"}, "lat": 38.900718833333336, "bike_id": "6770e9848ecf596fd2e51a9dc94666fd", "is_disabled": 0, "lon": -77.04909466666666, "is_reserved": 0, "fusion_lat": 0.0, "type": "electric_scooter"}, {"fusion_lon": 0.0, "name": "8f12899e4b0a5d50fdb41988d861d652", "rental_uris": {"android": "https://dc.lft.to/lastmile_qr_scan", "ios": "https://dc.lft.to/lastmile_qr_scan"}, "lat": 38.920690666666665, "bike_id": "8f12899e4b0a5d50fdb41988d861d652", "is_disabled": 0, "lon": -77.01819133333333, "is_reserved": 0, "fusion_lat": 0.0, "type": "electric_scooter"}, {"fusion_lon": 0.0, "name": "645b9e582edb8834bd8edccb25bcb809", "rental_uris": {"android": "https://dc.lft.to/lastmile_qr_scan", "ios": "https://dc.lft.to/lastmile_qr_scan"}, "lat": 38.97259666666667, "bike_id": "645b9e582edb8834bd8edccb25bcb809", "is_disabled": 0, "lon": -76.99278633333333, "is_reserved": 0, "fusion_lat": 0.0, "type": "electric_bike"}, {"fusion_lon": 0.0, "name": "10a95882e92b703674b016a6b3df1eb0", "rental_uris": {"android": "https://dc.lft.to/lastmile_qr_scan", "ios": "https://dc.lft.to/lastmile_qr_scan"}, "lat": 38.92504433333333, "bike_id": "10a95882e92b703674b016a6b3df1eb0", "is_disabled": 0, "lon": -77.02577633333334, "is_reserved": 0, "fusion_lat": 0.0, "type": "electric_scooter"}, {"fusion_lon": 0.0, "name": "0732d6d59ea6959cf2a0f30aa77ae1dd", "rental_uris": {"android": "https://dc.lft.to/lastmile_qr_scan", "ios": "https://dc.lft.to/lastmile_qr_scan"}, "lat": 38.89721766666667, "bike_id": "0732d6d59ea6959cf2a0f30aa77ae1dd", "is_disabled": 0, "lon": -77.0314935, "is_reserved": 0, "fusion_lat": 0.0, "type": "electric_scooter"}, {"fusion_lon": 0.0, "name": "92f3beae54719ed209be3bce25da0e5b", "rental_uris": {"android": "https://dc.lft.to/lastmile_qr_scan", "ios": "https://dc.lft.to/lastmile_qr_scan"}, "lat": 38.924114, "bike_id": "92f3beae54719ed209be3bce25da0e5b", "is_disabled": 0, "lon": -77.019662, "is_reserved": 0, "fusion_lat": 0.0, "type": "electric_scooter"}, {"fusion_lon": 0.0, "name": "36e9421e2362811435d9e1f199e24e21", "rental_uris": {"android": "https://dc.lft.to/lastmile_qr_scan", "ios": "https://dc.lft.to/lastmile_qr_scan"}, "lat": 38.924337, "bike_id": "36e9421e2362811435d9e1f199e24e21", "is_disabled": 0, "lon": -77.05223783333334, "is_reserved": 0, "fusion_lat": 0.0, "type": "electric_scooter"}, {"fusion_lon": 0.0, "name": "0c2fb3cc2b2c299f543ce717e941baef", "rental_uris": {"android": "https://dc.lft.to/lastmile_qr_scan", "ios": "https://dc.lft.to/lastmile_qr_scan"}, "lat": 38.924639166666665, "bike_id": "0c2fb3cc2b2c299f543ce717e941baef", "is_disabled": 0, "lon": -77.02207316666667, "is_reserved": 0, "fusion_lat": 0.0, "type": "electric_scooter"}, {"fusion_lon": 0.0, "name": "6de70a6b806150a630aaa553e3ec4bf3", "rental_uris": {"android": "https://dc.lft.to/lastmile_qr_scan", "ios": "https://dc.lft.to/lastmile_qr_scan"}, "lat": 38.9136165, "bike_id": "6de70a6b806150a630aaa553e3ec4bf3", "is_disabled": 0, "lon": -77.02003516666667, "is_reserved": 0, "fusion_lat": 0.0, "type": "electric_scooter"}, {"fusion_lon": 0.0, "name": "74bff4ffce38b58edd83fed142057926", "rental_uris": {"android": "https://dc.lft.to/lastmile_qr_scan", "ios": "https://dc.lft.to/lastmile_qr_scan"}, "lat": 38.87868, "bike_id": "74bff4ffce38b58edd83fed142057926", "is_disabled": 0, "lon": -77.00467116666667, "is_reserved": 0, "fusion_lat": 0.0, "type": "electric_scooter"}, {"fusion_lon": 0.0, "name": "82d4f90c738cfbaa2ec2eb02ef905b0c", "rental_uris": {"android": "https://dc.lft.to/lastmile_qr_scan", "ios": "https://dc.lft.to/lastmile_qr_scan"}, "lat": 38.919867833333335, "bike_id": "82d4f90c738cfbaa2ec2eb02ef905b0c", "is_disabled": 0, "lon": -77.03268266666667, "is_reserved": 0, "fusion_lat": 0.0, "type": "electric_scooter"}, {"fusion_lon": 0.0, "name": "c06b0c3bb7cd3b9aecb6196e24bf4d2f", "rental_uris": {"android": "https://dc.lft.to/lastmile_qr_scan", "ios": "https://dc.lft.to/lastmile_qr_scan"}, "lat": 38.91974666666667, "bike_id": "c06b0c3bb7cd3b9aecb6196e24bf4d2f", "is_disabled": 0, "lon": -77.02180366666667, "is_reserved": 0, "fusion_lat": 0.0, "type": "electric_scooter"}, {"fusion_lon": 0.0, "name": "06604b1180141a6275abe48b3fb89e08", "rental_uris": {"android": "https://dc.lft.to/lastmile_qr_scan", "ios": "https://dc.lft.to/lastmile_qr_scan"}, "lat": 38.926087333333335, "bike_id": "06604b1180141a6275abe48b3fb89e08", "is_disabled": 0, "lon": -77.02242233333334, "is_reserved": 0, "fusion_lat": 0.0, "type": "electric_scooter"}, {"fusion_lon": 0.0, "name": "131837ddb33b5be33d12176498f1d761", "rental_uris": {"android": "https://dc.lft.to/lastmile_qr_scan", "ios": "https://dc.lft.to/lastmile_qr_scan"}, "lat": 38.91822883333333, "bike_id": "131837ddb33b5be33d12176498f1d761", "is_disabled": 0, "lon": -77.04174833333333, "is_reserved": 0, "fusion_lat": 0.0, "type": "electric_scooter"}, {"fusion_lon": 0.0, "name": "6ef7f6fe3171994a6822c409cef82eaf", "rental_uris": {"android": "https://dc.lft.to/lastmile_qr_scan", "ios": "https://dc.lft.to/lastmile_qr_scan"}, "lat": 38.93375233333333, "bike_id": "6ef7f6fe3171994a6822c409cef82eaf", "is_disabled": 0, "lon": -77.03252633333334, "is_reserved": 0, "fusion_lat": 0.0, "type": "electric_scooter"}, {"fusion_lon": 0.0, "name": "6bdb865f635614503a04373b90ec9ccd", "rental_uris": {"android": "https://dc.lft.to/lastmile_qr_scan", "ios": "https://dc.lft.to/lastmile_qr_scan"}, "lat": 38.91844433333333, "bike_id": "6bdb865f635614503a04373b90ec9ccd", "is_disabled": 0, "lon": -77.03859483333333, "is_reserved": 0, "fusion_lat": 0.0, "type": "electric_scooter"}, {"fusion_lon": 0.0, "name": "0a2900d0c1fa9416a5f689f7c95edf77", "rental_uris": {"android": "https://dc.lft.to/lastmile_qr_scan", "ios": "https://dc.lft.to/lastmile_qr_scan"}, "lat": 38.91879133333333, "bike_id": "0a2900d0c1fa9416a5f689f7c95edf77", "is_disabled": 0, "lon": -77.03506216666666, "is_reserved": 0, "fusion_lat": 0.0, "type": "electric_scooter"}, {"fusion_lon": 0.0, "name": "b0d38e38d405a85cc2a0af28f2099ad7", "rental_uris": {"android": "https://dc.lft.to/lastmile_qr_scan", "ios": "https://dc.lft.to/lastmile_qr_scan"}, "lat": 38.924451833333336, "bike_id": "b0d38e38d405a85cc2a0af28f2099ad7", "is_disabled": 0, "lon": -77.0215795, "is_reserved": 0, "fusion_lat": 0.0, "type": "electric_scooter"}, {"fusion_lon": 0.0, "name": "a14c6b6d30129e2c84d927fc5ecf3148", "rental_uris": {"android": "https://dc.lft.to/lastmile_qr_scan", "ios": "https://dc.lft.to/lastmile_qr_scan"}, "lat": 38.99675033333333, "bike_id": "a14c6b6d30129e2c84d927fc5ecf3148", "is_disabled": 0, "lon": -77.03801566666667, "is_reserved": 0, "fusion_lat": 0.0, "type": "electric_bike"}, {"fusion_lon": 0.0, "name": "1a285137ff9ba8b2af52dfc81440646e", "rental_uris": {"android": "https://dc.lft.to/lastmile_qr_scan", "ios": "https://dc.lft.to/lastmile_qr_scan"}, "lat": 38.90378166666667, "bike_id": "1a285137ff9ba8b2af52dfc81440646e", "is_disabled": 0, "lon": -77.031937, "is_reserved": 0, "fusion_lat": 0.0, "type": "electric_scooter"}, {"fusion_lon": 0.0, "name": "4a41cb9e2090fd7182e60f80ad09621f", "rental_uris": {"android": "https://dc.lft.to/lastmile_qr_scan", "ios": "https://dc.lft.to/lastmile_qr_scan"}, "lat": 38.96916316666667, "bike_id": "4a41cb9e2090fd7182e60f80ad09621f", "is_disabled": 0, "lon": -76.9949215, "is_reserved": 0, "fusion_lat": 0.0, "type": "electric_bike"}, {"fusion_lon": 0.0, "name": "0e4b898db2ae99e773882fd438a85265", "rental_uris": {"android": "https://dc.lft.to/lastmile_qr_scan", "ios": "https://dc.lft.to/lastmile_qr_scan"}, "lat": 38.90186416666667, "bike_id": "0e4b898db2ae99e773882fd438a85265", "is_disabled": 0, "lon": -77.02182966666666, "is_reserved": 0, "fusion_lat": 0.0, "type": "electric_scooter"}, {"fusion_lon": 0.0, "name": "f293959dbf69efb878d4a761d7bf6cc6", "rental_uris": {"android": "https://dc.lft.to/lastmile_qr_scan", "ios": "https://dc.lft.to/lastmile_qr_scan"}, "lat": 38.876939666666665, "bike_id": "f293959dbf69efb878d4a761d7bf6cc6", "is_disabled": 0, "lon": -77.0006045, "is_reserved": 0, "fusion_lat": 0.0, "type": "electric_scooter"}, {"fusion_lon": 0.0, "name": "2e579e642e3666f9fa8d93c6df519e8b", "rental_uris": {"android": "https://dc.lft.to/lastmile_qr_scan", "ios": "https://dc.lft.to/lastmile_qr_scan"}, "lat": 38.88966383333333, "bike_id": "2e579e642e3666f9fa8d93c6df519e8b", "is_disabled": 0, "lon": -76.92736233333333, "is_reserved": 0, "fusion_lat": 0.0, "type": "electric_scooter"}, {"fusion_lon": 0.0, "name": "26c7d36e3cc57ec8376eec4cddec39f8", "rental_uris": {"android": "https://dc.lft.to/lastmile_qr_scan", "ios": "https://dc.lft.to/lastmile_qr_scan"}, "lat": 38.91859216666667, "bike_id": "26c7d36e3cc57ec8376eec4cddec39f8", "is_disabled": 0, "lon": -77.04482816666666, "is_reserved": 0, "fusion_lat": 0.0, "type": "electric_scooter"}, {"fusion_lon": 0.0, "name": "bb4fd467fb57c7ebce81cc5a5d545cf4", "rental_uris": {"android": "https://dc.lft.to/lastmile_qr_scan", "ios": "https://dc.lft.to/lastmile_qr_scan"}, "lat": 38.9180195, "bike_id": "bb4fd467fb57c7ebce81cc5a5d545cf4", "is_disabled": 0, "lon": -77.03339116666666, "is_reserved": 0, "fusion_lat": 0.0, "type": "electric_scooter"}, {"fusion_lon": 0.0, "name": "56970c1e892ee982e5ea74b9bb1bd766", "rental_uris": {"android": "https://dc.lft.to/lastmile_qr_scan", "ios": "https://dc.lft.to/lastmile_qr_scan"}, "lat": 38.89889066666667, "bike_id": "56970c1e892ee982e5ea74b9bb1bd766", "is_disabled": 0, "lon": -77.02179266666667, "is_reserved": 0, "fusion_lat": 0.0, "type": "electric_scooter"}, {"fusion_lon": 0.0, "name": "67680d08512f9de4a58052a6e849ad68", "rental_uris": {"android": "https://dc.lft.to/lastmile_qr_scan", "ios": "https://dc.lft.to/lastmile_qr_scan"}, "lat": 38.9041305, "bike_id": "67680d08512f9de4a58052a6e849ad68", "is_disabled": 0, "lon": -77.04350933333333, "is_reserved": 0, "fusion_lat": 0.0, "type": "electric_scooter"}, {"fusion_lon": 0.0, "name": "3a9335be057f5946ecb3d4e644f8858e", "rental_uris": {"android": "https://dc.lft.to/lastmile_qr_scan", "ios": "https://dc.lft.to/lastmile_qr_scan"}, "lat": 38.928321, "bike_id": "3a9335be057f5946ecb3d4e644f8858e", "is_disabled": 0, "lon": -77.01414916666667, "is_reserved": 0, "fusion_lat": 0.0, "type": "electric_scooter"}, {"fusion_lon": 0.0, "name": "ff543f7a1011b413f41691d1cc86a212", "rental_uris": {"android": "https://dc.lft.to/lastmile_qr_scan", "ios": "https://dc.lft.to/lastmile_qr_scan"}, "lat": 38.9156245, "bike_id": "ff543f7a1011b413f41691d1cc86a212", "is_disabled": 0, "lon": -77.0678785, "is_reserved": 0, "fusion_lat": 0.0, "type": "electric_scooter"}, {"fusion_lon": 0.0, "name": "a939ced842b735239c0a34941ffdf2c7", "rental_uris": {"android": "https://dc.lft.to/lastmile_qr_scan", "ios": "https://dc.lft.to/lastmile_qr_scan"}, "lat": 38.90101533333333, "bike_id": "a939ced842b735239c0a34941ffdf2c7", "is_disabled": 0, "lon": -77.04177933333334, "is_reserved": 0, "fusion_lat": 0.0, "type": "electric_scooter"}, {"fusion_lon": 0.0, "name": "e6f34a0e2834f7ed93205897e1190a8b", "rental_uris": {"android": "https://dc.lft.to/lastmile_qr_scan", "ios": "https://dc.lft.to/lastmile_qr_scan"}, "lat": 38.918948666666665, "bike_id": "e6f34a0e2834f7ed93205897e1190a8b", "is_disabled": 0, "lon": -77.10166583333333, "is_reserved": 0, "fusion_lat": 0.0, "type": "electric_bike"}, {"fusion_lon": 0.0, "name": "894acecae14abfd799e8274de2ed36ac", "rental_uris": {"android": "https://dc.lft.to/lastmile_qr_scan", "ios": "https://dc.lft.to/lastmile_qr_scan"}, "lat": 38.93060083333334, "bike_id": "894acecae14abfd799e8274de2ed36ac", "is_disabled": 0, "lon": -77.02788266666667, "is_reserved": 0, "fusion_lat": 0.0, "type": "electric_scooter"}, {"fusion_lon": 0.0, "name": "95fa71f75cede56ff0feb7269b128449", "rental_uris": {"android": "https://dc.lft.to/lastmile_qr_scan", "ios": "https://dc.lft.to/lastmile_qr_scan"}, "lat": 38.89143216666667, "bike_id": "95fa71f75cede56ff0feb7269b128449", "is_disabled": 0, "lon": -76.99948016666667, "is_reserved": 0, "fusion_lat": 0.0, "type": "electric_scooter"}, {"fusion_lon": 0.0, "name": "91e4d025d03cf16fea8088097a9bb84e", "rental_uris": {"android": "https://dc.lft.to/lastmile_qr_scan", "ios": "https://dc.lft.to/lastmile_qr_scan"}, "lat": 38.916317666666664, "bike_id": "91e4d025d03cf16fea8088097a9bb84e", "is_disabled": 0, "lon": -77.04574, "is_reserved": 0, "fusion_lat": 0.0, "type": "electric_scooter"}, {"fusion_lon": 0.0, "name": "bd0555677efdf070f6b0ccab3fe29236", "rental_uris": {"android": "https://dc.lft.to/lastmile_qr_scan", "ios": "https://dc.lft.to/lastmile_qr_scan"}, "lat": 38.964025666666664, "bike_id": "bd0555677efdf070f6b0ccab3fe29236", "is_disabled": 0, "lon": -77.0258885, "is_reserved": 0, "fusion_lat": 0.0, "type": "electric_scooter"}, {"fusion_lon": 0.0, "name": "a5e5cae19f4877194e5247271708b0fe", "rental_uris": {"android": "https://dc.lft.to/lastmile_qr_scan", "ios": "https://dc.lft.to/lastmile_qr_scan"}, "lat": 38.90012866666667, "bike_id": "a5e5cae19f4877194e5247271708b0fe", "is_disabled": 0, "lon": -77.0271295, "is_reserved": 0, "fusion_lat": 0.0, "type": "electric_scooter"}, {"fusion_lon": 0.0, "name": "5d0faf1b479680eabfb1d9fd52c48587", "rental_uris": {"android": "https://dc.lft.to/lastmile_qr_scan", "ios": "https://dc.lft.to/lastmile_qr_scan"}, "lat": 38.95717066666667, "bike_id": "5d0faf1b479680eabfb1d9fd52c48587", "is_disabled": 0, "lon": -77.00232466666667, "is_reserved": 0, "fusion_lat": 0.0, "type": "electric_scooter"}, {"fusion_lon": 0.0, "name": "ae32caae9e16824be9235eaff98b120e", "rental_uris": {"android": "https://dc.lft.to/lastmile_qr_scan", "ios": "https://dc.lft.to/lastmile_qr_scan"}, "lat": 38.92602566666667, "bike_id": "ae32caae9e16824be9235eaff98b120e", "is_disabled": 0, "lon": -77.02158466666667, "is_reserved": 0, "fusion_lat": 0.0, "type": "electric_scooter"}, {"fusion_lon": 0.0, "name": "d54d3105d58245c48598e42a53d03321", "rental_uris": {"android": "https://dc.lft.to/lastmile_qr_scan", "ios": "https://dc.lft.to/lastmile_qr_scan"}, "lat": 38.9215335, "bike_id": "d54d3105d58245c48598e42a53d03321", "is_disabled": 0, "lon": -77.035314, "is_reserved": 0, "fusion_lat": 0.0, "type": "electric_scooter"}, {"fusion_lon": 0.0, "name": "c584bbae319959c7332567fd8cb06329", "rental_uris": {"android": "https://dc.lft.to/lastmile_qr_scan", "ios": "https://dc.lft.to/lastmile_qr_scan"}, "lat": 38.91273066666667, "bike_id": "c584bbae319959c7332567fd8cb06329", "is_disabled": 0, "lon": -77.033389, "is_reserved": 0, "fusion_lat": 0.0, "type": "electric_scooter"}, {"fusion_lon": 0.0, "name": "42f88102dae86114b790dc7e083a4e03", "rental_uris": {"android": "https://dc.lft.to/lastmile_qr_scan", "ios": "https://dc.lft.to/lastmile_qr_scan"}, "lat": 38.839350833333334, "bike_id": "42f88102dae86114b790dc7e083a4e03", "is_disabled": 0, "lon": -77.07905133333334, "is_reserved": 0, "fusion_lat": 0.0, "type": "electric_bike"}, {"fusion_lon": 0.0, "name": "4641e4f5c83a1b94b4f4dbae6bc6c459", "rental_uris": {"android": "https://dc.lft.to/lastmile_qr_scan", "ios": "https://dc.lft.to/lastmile_qr_scan"}, "lat": 38.88883, "bike_id": "4641e4f5c83a1b94b4f4dbae6bc6c459", "is_disabled": 0, "lon": -76.9903295, "is_reserved": 0, "fusion_lat": 0.0, "type": "electric_scooter"}, {"fusion_lon": 0.0, "name": "58aa804128002dac118e730cec2849e2", "rental_uris": {"android": "https://dc.lft.to/lastmile_qr_scan", "ios": "https://dc.lft.to/lastmile_qr_scan"}, "lat": 38.923418166666664, "bike_id": "58aa804128002dac118e730cec2849e2", "is_disabled": 0, "lon": -77.05095, "is_reserved": 0, "fusion_lat": 0.0, "type": "electric_scooter"}, {"fusion_lon": 0.0, "name": "29850b6f26c4d6a7588d775fb72ca0cd", "rental_uris": {"android": "https://dc.lft.to/lastmile_qr_scan", "ios": "https://dc.lft.to/lastmile_qr_scan"}, "lat": 38.926420666666665, "bike_id": "29850b6f26c4d6a7588d775fb72ca0cd", "is_disabled": 0, "lon": -77.037109, "is_reserved": 0, "fusion_lat": 0.0, "type": "electric_scooter"}, {"fusion_lon": 0.0, "name": "393c418eb7f5f558508ceb37a156eb2e", "rental_uris": {"android": "https://dc.lft.to/lastmile_qr_scan", "ios": "https://dc.lft.to/lastmile_qr_scan"}, "lat": 38.9033395, "bike_id": "393c418eb7f5f558508ceb37a156eb2e", "is_disabled": 0, "lon": -76.9761425, "is_reserved": 0, "fusion_lat": 0.0, "type": "electric_scooter"}, {"fusion_lon": 0.0, "name": "4d80653e41a6ad3a43d9a39ee2269f77", "rental_uris": {"android": "https://dc.lft.to/lastmile_qr_scan", "ios": "https://dc.lft.to/lastmile_qr_scan"}, "lat": 38.8910005, "bike_id": "4d80653e41a6ad3a43d9a39ee2269f77", "is_disabled": 0, "lon": -77.00208866666667, "is_reserved": 0, "fusion_lat": 0.0, "type": "electric_scooter"}, {"fusion_lon": 0.0, "name": "c3467fb009c19058588244c7775720f2", "rental_uris": {"android": "https://dc.lft.to/lastmile_qr_scan", "ios": "https://dc.lft.to/lastmile_qr_scan"}, "lat": 38.83590933333333, "bike_id": "c3467fb009c19058588244c7775720f2", "is_disabled": 0, "lon": -76.99029983333334, "is_reserved": 0, "fusion_lat": 0.0, "type": "electric_bike"}, {"fusion_lon": 0.0, "name": "545575339b242eae3cc51a1ea1297ec2", "rental_uris": {"android": "https://dc.lft.to/lastmile_qr_scan", "ios": "https://dc.lft.to/lastmile_qr_scan"}, "lat": 38.905729, "bike_id": "545575339b242eae3cc51a1ea1297ec2", "is_disabled": 0, "lon": -77.00607466666666, "is_reserved": 0, "fusion_lat": 0.0, "type": "electric_scooter"}, {"fusion_lon": 0.0, "name": "c428f0d82a72debed06f258ed05c7f81", "rental_uris": {"android": "https://dc.lft.to/lastmile_qr_scan", "ios": "https://dc.lft.to/lastmile_qr_scan"}, "lat": 38.9053035, "bike_id": "c428f0d82a72debed06f258ed05c7f81", "is_disabled": 0, "lon": -77.06524016666667, "is_reserved": 0, "fusion_lat": 0.0, "type": "electric_scooter"}, {"fusion_lon": 0.0, "name": "de4ab67510ccd1203673ac82875a089d", "rental_uris": {"android": "https://dc.lft.to/lastmile_qr_scan", "ios": "https://dc.lft.to/lastmile_qr_scan"}, "lat": 38.94536733333333, "bike_id": "de4ab67510ccd1203673ac82875a089d", "is_disabled": 0, "lon": -77.34464466666667, "is_reserved": 0, "fusion_lat": 0.0, "type": "electric_bike"}, {"fusion_lon": 0.0, "name": "1d29cc0d237796d0fd5b2e06010b4042", "rental_uris": {"android": "https://dc.lft.to/lastmile_qr_scan", "ios": "https://dc.lft.to/lastmile_qr_scan"}, "lat": 38.892258, "bike_id": "1d29cc0d237796d0fd5b2e06010b4042", "is_disabled": 0, "lon": -77.0450795, "is_reserved": 0, "fusion_lat": 0.0, "type": "electric_scooter"}, {"fusion_lon": 0.0, "name": "1b70b2eddd9b15f47b09a09916e6ea3a", "rental_uris": {"android": "https://dc.lft.to/lastmile_qr_scan", "ios": "https://dc.lft.to/lastmile_qr_scan"}, "lat": 38.89573333333333, "bike_id": "1b70b2eddd9b15f47b09a09916e6ea3a", "is_disabled": 0, "lon": -77.02517116666667, "is_reserved": 0, "fusion_lat": 0.0, "type": "electric_scooter"}, {"fusion_lon": 0.0, "name": "8b9c635988b64f97c85e14a022d5f46b", "rental_uris": {"android": "https://dc.lft.to/lastmile_qr_scan", "ios": "https://dc.lft.to/lastmile_qr_scan"}, "lat": 38.919208833333336, "bike_id": "8b9c635988b64f97c85e14a022d5f46b", "is_disabled": 0, "lon": -77.009969, "is_reserved": 0, "fusion_lat": 0.0, "type": "electric_scooter"}, {"fusion_lon": 0.0, "name": "0800395127caffab283b1419bcbd3f1d", "rental_uris": {"android": "https://dc.lft.to/lastmile_qr_scan", "ios": "https://dc.lft.to/lastmile_qr_scan"}, "lat": 38.9312005, "bike_id": "0800395127caffab283b1419bcbd3f1d", "is_disabled": 0, "lon": -77.03608833333334, "is_reserved": 0, "fusion_lat": 0.0, "type": "electric_scooter"}, {"fusion_lon": 0.0, "name": "04e7277d9798412c8272cbde7a4efe6d", "rental_uris": {"android": "https://dc.lft.to/lastmile_qr_scan", "ios": "https://dc.lft.to/lastmile_qr_scan"}, "lat": 38.909663, "bike_id": "04e7277d9798412c8272cbde7a4efe6d", "is_disabled": 0, "lon": -77.03214216666667, "is_reserved": 0, "fusion_lat": 0.0, "type": "electric_scooter"}, {"fusion_lon": 0.0, "name": "06d53f73d2c968fa4ca85b407231e77f", "rental_uris": {"android": "https://dc.lft.to/lastmile_qr_scan", "ios": "https://dc.lft.to/lastmile_qr_scan"}, "lat": 38.924481666666665, "bike_id": "06d53f73d2c968fa4ca85b407231e77f", "is_disabled": 0, "lon": -77.02165166666667, "is_reserved": 0, "fusion_lat": 0.0, "type": "electric_scooter"}, {"fusion_lon": 0.0, "name": "062fed603bce2b4a4c78ccb86dbed40d", "rental_uris": {"android": "https://dc.lft.to/lastmile_qr_scan", "ios": "https://dc.lft.to/lastmile_qr_scan"}, "lat": 38.8865965, "bike_id": "062fed603bce2b4a4c78ccb86dbed40d", "is_disabled": 0, "lon": -76.93674866666667, "is_reserved": 0, "fusion_lat": 0.0, "type": "electric_scooter"}, {"fusion_lon": 0.0, "name": "a5c4857a5c8b5f7cc29bf7190eea0211", "rental_uris": {"android": "https://dc.lft.to/lastmile_qr_scan", "ios": "https://dc.lft.to/lastmile_qr_scan"}, "lat": 38.9181475, "bike_id": "a5c4857a5c8b5f7cc29bf7190eea0211", "is_disabled": 0, "lon": -77.0247915, "is_reserved": 0, "fusion_lat": 0.0, "type": "electric_scooter"}, {"fusion_lon": 0.0, "name": "7c1f9d754c5824d7dad20a198d38dcce", "rental_uris": {"android": "https://dc.lft.to/lastmile_qr_scan", "ios": "https://dc.lft.to/lastmile_qr_scan"}, "lat": 39.0842725, "bike_id": "7c1f9d754c5824d7dad20a198d38dcce", "is_disabled": 0, "lon": -76.951501, "is_reserved": 0, "fusion_lat": 0.0, "type": "electric_bike"}, {"fusion_lon": 0.0, "name": "109dd5e394876d733e8ecb65ba78bb0b", "rental_uris": {"android": "https://dc.lft.to/lastmile_qr_scan", "ios": "https://dc.lft.to/lastmile_qr_scan"}, "lat": 38.91855733333333, "bike_id": "109dd5e394876d733e8ecb65ba78bb0b", "is_disabled": 0, "lon": -77.02544616666667, "is_reserved": 0, "fusion_lat": 0.0, "type": "electric_scooter"}, {"fusion_lon": 0.0, "name": "0c9e1ee7b49050c7a0b6aa706e22fdbf", "rental_uris": {"android": "https://dc.lft.to/lastmile_qr_scan", "ios": "https://dc.lft.to/lastmile_qr_scan"}, "lat": 38.9247595, "bike_id": "0c9e1ee7b49050c7a0b6aa706e22fdbf", "is_disabled": 0, "lon": -77.02220366666667, "is_reserved": 0, "fusion_lat": 0.0, "type": "electric_scooter"}, {"fusion_lon": 0.0, "name": "de754058841da927c1aff81355463b43", "rental_uris": {"android": "https://dc.lft.to/lastmile_qr_scan", "ios": "https://dc.lft.to/lastmile_qr_scan"}, "lat": 38.9207085, "bike_id": "de754058841da927c1aff81355463b43", "is_disabled": 0, "lon": -77.024229, "is_reserved": 0, "fusion_lat": 0.0, "type": "electric_scooter"}, {"fusion_lon": 0.0, "name": "081466c826f1df73d8196714ebc71ad5", "rental_uris": {"android": "https://dc.lft.to/lastmile_qr_scan", "ios": "https://dc.lft.to/lastmile_qr_scan"}, "lat": 38.91113583333333, "bike_id": "081466c826f1df73d8196714ebc71ad5", "is_disabled": 0, "lon": -77.03832616666666, "is_reserved": 0, "fusion_lat": 0.0, "type": "electric_scooter"}, {"fusion_lon": 0.0, "name": "9b0c3ffb19763db6e861ac0fed9ebd2c", "rental_uris": {"android": "https://dc.lft.to/lastmile_qr_scan", "ios": "https://dc.lft.to/lastmile_qr_scan"}, "lat": 38.913380833333335, "bike_id": "9b0c3ffb19763db6e861ac0fed9ebd2c", "is_disabled": 0, "lon": -77.01607266666667, "is_reserved": 0, "fusion_lat": 0.0, "type": "electric_scooter"}, {"fusion_lon": 0.0, "name": "4a20e9bce17e6cb9a216be0e67b0dea2", "rental_uris": {"android": "https://dc.lft.to/lastmile_qr_scan", "ios": "https://dc.lft.to/lastmile_qr_scan"}, "lat": 38.95466733333333, "bike_id": "4a20e9bce17e6cb9a216be0e67b0dea2", "is_disabled": 0, "lon": -77.0701015, "is_reserved": 0, "fusion_lat": 0.0, "type": "electric_scooter"}, {"fusion_lon": 0.0, "name": "fbbfe2e04e84c70cce2c3327fcb150b4", "rental_uris": {"android": "https://dc.lft.to/lastmile_qr_scan", "ios": "https://dc.lft.to/lastmile_qr_scan"}, "lat": 38.90861316666667, "bike_id": "fbbfe2e04e84c70cce2c3327fcb150b4", "is_disabled": 0, "lon": -77.03559983333334, "is_reserved": 0, "fusion_lat": 0.0, "type": "electric_scooter"}, {"fusion_lon": 0.0, "name": "926d32040a4fa869892d660af5f2a9a2", "rental_uris": {"android": "https://dc.lft.to/lastmile_qr_scan", "ios": "https://dc.lft.to/lastmile_qr_scan"}, "lat": 38.90420966666667, "bike_id": "926d32040a4fa869892d660af5f2a9a2", "is_disabled": 0, "lon": -77.0258695, "is_reserved": 0, "fusion_lat": 0.0, "type": "electric_scooter"}, {"fusion_lon": 0.0, "name": "99e98d3bdb8261727c847e47c1ae83fb", "rental_uris": {"android": "https://dc.lft.to/lastmile_qr_scan", "ios": "https://dc.lft.to/lastmile_qr_scan"}, "lat": 38.91298333333334, "bike_id": "99e98d3bdb8261727c847e47c1ae83fb", "is_disabled": 0, "lon": -76.9854575, "is_reserved": 0, "fusion_lat": 0.0, "type": "electric_scooter"}, {"fusion_lon": 0.0, "name": "33bf5bbcaed908917921a8b7515b1f7e", "rental_uris": {"android": "https://dc.lft.to/lastmile_qr_scan", "ios": "https://dc.lft.to/lastmile_qr_scan"}, "lat": 38.9557365, "bike_id": "33bf5bbcaed908917921a8b7515b1f7e", "is_disabled": 0, "lon": -77.07011233333333, "is_reserved": 0, "fusion_lat": 0.0, "type": "electric_scooter"}, {"fusion_lon": 0.0, "name": "5a82b097369c73e1bc88efc738022d15", "rental_uris": {"android": "https://dc.lft.to/lastmile_qr_scan", "ios": "https://dc.lft.to/lastmile_qr_scan"}, "lat": 38.8922105, "bike_id": "5a82b097369c73e1bc88efc738022d15", "is_disabled": 0, "lon": -77.0400055, "is_reserved": 0, "fusion_lat": 0.0, "type": "electric_scooter"}, {"fusion_lon": 0.0, "name": "9ef70f5655133a6a0aec409fcb3db181", "rental_uris": {"android": "https://dc.lft.to/lastmile_qr_scan", "ios": "https://dc.lft.to/lastmile_qr_scan"}, "lat": 38.876810666666664, "bike_id": "9ef70f5655133a6a0aec409fcb3db181", "is_disabled": 0, "lon": -77.00578216666666, "is_reserved": 0, "fusion_lat": 0.0, "type": "electric_scooter"}, {"fusion_lon": 0.0, "name": "8c82b0cfb23d570fc4366f93c36fa173", "rental_uris": {"android": "https://dc.lft.to/lastmile_qr_scan", "ios": "https://dc.lft.to/lastmile_qr_scan"}, "lat": 38.92249283333334, "bike_id": "8c82b0cfb23d570fc4366f93c36fa173", "is_disabled": 0, "lon": -77.03073733333333, "is_reserved": 0, "fusion_lat": 0.0, "type": "electric_scooter"}, {"fusion_lon": 0.0, "name": "b9d996776ad9f775df373ee2ae4cbe1f", "rental_uris": {"android": "https://dc.lft.to/lastmile_qr_scan", "ios": "https://dc.lft.to/lastmile_qr_scan"}, "lat": 38.8790175, "bike_id": "b9d996776ad9f775df373ee2ae4cbe1f", "is_disabled": 0, "lon": -77.01003383333334, "is_reserved": 0, "fusion_lat": 0.0, "type": "electric_scooter"}, {"fusion_lon": 0.0, "name": "0b21276a5b6f91ec4ab07e64b293b63d", "rental_uris": {"android": "https://dc.lft.to/lastmile_qr_scan", "ios": "https://dc.lft.to/lastmile_qr_scan"}, "lat": 38.90846666666667, "bike_id": "0b21276a5b6f91ec4ab07e64b293b63d", "is_disabled": 0, "lon": -77.03467433333333, "is_reserved": 0, "fusion_lat": 0.0, "type": "electric_scooter"}, {"fusion_lon": 0.0, "name": "2ad719086e9d3b8875315ac141d1839e", "rental_uris": {"android": "https://dc.lft.to/lastmile_qr_scan", "ios": "https://dc.lft.to/lastmile_qr_scan"}, "lat": 38.930602, "bike_id": "2ad719086e9d3b8875315ac141d1839e", "is_disabled": 0, "lon": -77.027878, "is_reserved": 0, "fusion_lat": 0.0, "type": "electric_scooter"}, {"fusion_lon": 0.0, "name": "452798d135bfc2f708a2b30e3579335d", "rental_uris": {"android": "https://dc.lft.to/lastmile_qr_scan", "ios": "https://dc.lft.to/lastmile_qr_scan"}, "lat": 38.896035, "bike_id": "452798d135bfc2f708a2b30e3579335d", "is_disabled": 0, "lon": -77.02385316666667, "is_reserved": 0, "fusion_lat": 0.0, "type": "electric_scooter"}, {"fusion_lon": 0.0, "name": "36987b0055b32d380237e09274d7f6d4", "rental_uris": {"android": "https://dc.lft.to/lastmile_qr_scan", "ios": "https://dc.lft.to/lastmile_qr_scan"}, "lat": 38.913648333333335, "bike_id": "36987b0055b32d380237e09274d7f6d4", "is_disabled": 0, "lon": -77.0919125, "is_reserved": 0, "fusion_lat": 0.0, "type": "electric_scooter"}, {"fusion_lon": 0.0, "name": "58f72998849bd24a15ad1e982d1013f5", "rental_uris": {"android": "https://dc.lft.to/lastmile_qr_scan", "ios": "https://dc.lft.to/lastmile_qr_scan"}, "lat": 38.899749666666665, "bike_id": "58f72998849bd24a15ad1e982d1013f5", "is_disabled": 0, "lon": -77.04196216666666, "is_reserved": 0, "fusion_lat": 0.0, "type": "electric_scooter"}, {"fusion_lon": 0.0, "name": "0e63038b1203dec546c36dc01be61967", "rental_uris": {"android": "https://dc.lft.to/lastmile_qr_scan", "ios": "https://dc.lft.to/lastmile_qr_scan"}, "lat": 38.881350166666664, "bike_id": "0e63038b1203dec546c36dc01be61967", "is_disabled": 0, "lon": -77.02236516666666, "is_reserved": 0, "fusion_lat": 0.0, "type": "electric_scooter"}, {"fusion_lon": 0.0, "name": "d57b1607f94bcb408dfa127e00b09423", "rental_uris": {"android": "https://dc.lft.to/lastmile_qr_scan", "ios": "https://dc.lft.to/lastmile_qr_scan"}, "lat": 38.9125085, "bike_id": "d57b1607f94bcb408dfa127e00b09423", "is_disabled": 0, "lon": -77.03868516666667, "is_reserved": 0, "fusion_lat": 0.0, "type": "electric_scooter"}, {"fusion_lon": 0.0, "name": "b959b0d832d59ead8cefc6adbcc519d5", "rental_uris": {"android": "https://dc.lft.to/lastmile_qr_scan", "ios": "https://dc.lft.to/lastmile_qr_scan"}, "lat": 38.902190833333336, "bike_id": "b959b0d832d59ead8cefc6adbcc519d5", "is_disabled": 0, "lon": -77.02368066666666, "is_reserved": 0, "fusion_lat": 0.0, "type": "electric_scooter"}, {"fusion_lon": 0.0, "name": "a0b4e557535fffacc4a57af10deeb441", "rental_uris": {"android": "https://dc.lft.to/lastmile_qr_scan", "ios": "https://dc.lft.to/lastmile_qr_scan"}, "lat": 38.89212, "bike_id": "a0b4e557535fffacc4a57af10deeb441", "is_disabled": 0, "lon": -76.99569683333333, "is_reserved": 0, "fusion_lat": 0.0, "type": "electric_scooter"}, {"fusion_lon": 0.0, "name": "ba6fd3353fe3bc5f2a7130cb39e25b97", "rental_uris": {"android": "https://dc.lft.to/lastmile_qr_scan", "ios": "https://dc.lft.to/lastmile_qr_scan"}, "lat": 38.937634833333334, "bike_id": "ba6fd3353fe3bc5f2a7130cb39e25b97", "is_disabled": 0, "lon": -77.02454683333333, "is_reserved": 0, "fusion_lat": 0.0, "type": "electric_scooter"}, {"fusion_lon": 0.0, "name": "bc5439fc71ac8ab88a85766266ccbf23", "rental_uris": {"android": "https://dc.lft.to/lastmile_qr_scan", "ios": "https://dc.lft.to/lastmile_qr_scan"}, "lat": 38.84638266666666, "bike_id": "bc5439fc71ac8ab88a85766266ccbf23", "is_disabled": 0, "lon": -76.970728, "is_reserved": 0, "fusion_lat": 0.0, "type": "electric_bike"}, {"fusion_lon": 0.0, "name": "ea78fe2711d2abd8721b209204e11244", "rental_uris": {"android": "https://dc.lft.to/lastmile_qr_scan", "ios": "https://dc.lft.to/lastmile_qr_scan"}, "lat": 38.93418116666667, "bike_id": "ea78fe2711d2abd8721b209204e11244", "is_disabled": 0, "lon": -77.0250755, "is_reserved": 0, "fusion_lat": 0.0, "type": "electric_bike"}, {"fusion_lon": 0.0, "name": "c22410a3d2df080e0f793e9ef14e3c0b", "rental_uris": {"android": "https://dc.lft.to/lastmile_qr_scan", "ios": "https://dc.lft.to/lastmile_qr_scan"}, "lat": 38.882274833333334, "bike_id": "c22410a3d2df080e0f793e9ef14e3c0b", "is_disabled": 0, "lon": -76.99093566666667, "is_reserved": 0, "fusion_lat": 0.0, "type": "electric_scooter"}, {"fusion_lon": 0.0, "name": "c3ee7bba84dfa6aa0aa456f97e10aee8", "rental_uris": {"android": "https://dc.lft.to/lastmile_qr_scan", "ios": "https://dc.lft.to/lastmile_qr_scan"}, "lat": 38.915655666666666, "bike_id": "c3ee7bba84dfa6aa0aa456f97e10aee8", "is_disabled": 0, "lon": -77.03171716666667, "is_reserved": 0, "fusion_lat": 0.0, "type": "electric_scooter"}, {"fusion_lon": 0.0, "name": "f276dd7f4e4776d7058b7fa18d2ae6a1", "rental_uris": {"android": "https://dc.lft.to/lastmile_qr_scan", "ios": "https://dc.lft.to/lastmile_qr_scan"}, "lat": 38.8467485, "bike_id": "f276dd7f4e4776d7058b7fa18d2ae6a1", "is_disabled": 0, "lon": -77.13922833333334, "is_reserved": 0, "fusion_lat": 0.0, "type": "electric_bike"}, {"fusion_lon": 0.0, "name": "b3362c2244e9c18ea80a6812c0b5466c", "rental_uris": {"android": "https://dc.lft.to/lastmile_qr_scan", "ios": "https://dc.lft.to/lastmile_qr_scan"}, "lat": 38.913239, "bike_id": "b3362c2244e9c18ea80a6812c0b5466c", "is_disabled": 0, "lon": -77.04549166666666, "is_reserved": 0, "fusion_lat": 0.0, "type": "electric_scooter"}, {"fusion_lon": 0.0, "name": "05623b35614ea743eeb3b602692a43c2", "rental_uris": {"android": "https://dc.lft.to/lastmile_qr_scan", "ios": "https://dc.lft.to/lastmile_qr_scan"}, "lat": 38.930459166666665, "bike_id": "05623b35614ea743eeb3b602692a43c2", "is_disabled": 0, "lon": -76.958366, "is_reserved": 0, "fusion_lat": 0.0, "type": "electric_scooter"}, {"fusion_lon": 0.0, "name": "c4e6b27c77c794e3fc493ef58acc5d44", "rental_uris": {"android": "https://dc.lft.to/lastmile_qr_scan", "ios": "https://dc.lft.to/lastmile_qr_scan"}, "lat": 38.91657216666667, "bike_id": "c4e6b27c77c794e3fc493ef58acc5d44", "is_disabled": 0, "lon": -77.03189866666666, "is_reserved": 0, "fusion_lat": 0.0, "type": "electric_scooter"}, {"fusion_lon": 0.0, "name": "3fefb1c88c5a429e41f71cd17ee019ed", "rental_uris": {"android": "https://dc.lft.to/lastmile_qr_scan", "ios": "https://dc.lft.to/lastmile_qr_scan"}, "lat": 38.92972133333333, "bike_id": "3fefb1c88c5a429e41f71cd17ee019ed", "is_disabled": 0, "lon": -77.02793966666667, "is_reserved": 0, "fusion_lat": 0.0, "type": "electric_scooter"}, {"fusion_lon": 0.0, "name": "2431bfac37ff8c012424ead84475ff5b", "rental_uris": {"android": "https://dc.lft.to/lastmile_qr_scan", "ios": "https://dc.lft.to/lastmile_qr_scan"}, "lat": 38.9208195, "bike_id": "2431bfac37ff8c012424ead84475ff5b", "is_disabled": 0, "lon": -77.03564966666667, "is_reserved": 0, "fusion_lat": 0.0, "type": "electric_scooter"}, {"fusion_lon": 0.0, "name": "02d53acc018822049d06b252d356ec0c", "rental_uris": {"android": "https://dc.lft.to/lastmile_qr_scan", "ios": "https://dc.lft.to/lastmile_qr_scan"}, "lat": 38.9234295, "bike_id": "02d53acc018822049d06b252d356ec0c", "is_disabled": 0, "lon": -77.0485125, "is_reserved": 0, "fusion_lat": 0.0, "type": "electric_scooter"}, {"fusion_lon": 0.0, "name": "c65fa4dc58591e8c773b9819ce540e58", "rental_uris": {"android": "https://dc.lft.to/lastmile_qr_scan", "ios": "https://dc.lft.to/lastmile_qr_scan"}, "lat": 38.906808833333336, "bike_id": "c65fa4dc58591e8c773b9819ce540e58", "is_disabled": 0, "lon": -77.02694033333333, "is_reserved": 0, "fusion_lat": 0.0, "type": "electric_scooter"}, {"fusion_lon": 0.0, "name": "b83d132dae60e4965bbd7092a8c5a3fd", "rental_uris": {"android": "https://dc.lft.to/lastmile_qr_scan", "ios": "https://dc.lft.to/lastmile_qr_scan"}, "lat": 38.9595165, "bike_id": "b83d132dae60e4965bbd7092a8c5a3fd", "is_disabled": 0, "lon": -77.03052833333334, "is_reserved": 0, "fusion_lat": 0.0, "type": "electric_bike"}, {"fusion_lon": 0.0, "name": "7f6763e6658be323d68e21590ed43159", "rental_uris": {"android": "https://dc.lft.to/lastmile_qr_scan", "ios": "https://dc.lft.to/lastmile_qr_scan"}, "lat": 38.9312125, "bike_id": "7f6763e6658be323d68e21590ed43159", "is_disabled": 0, "lon": -77.02262833333333, "is_reserved": 0, "fusion_lat": 0.0, "type": "electric_scooter"}, {"fusion_lon": 0.0, "name": "fe5af1de2bf271ae6333c517d2c7023b", "rental_uris": {"android": "https://dc.lft.to/lastmile_qr_scan", "ios": "https://dc.lft.to/lastmile_qr_scan"}, "lat": 38.90772466666667, "bike_id": "fe5af1de2bf271ae6333c517d2c7023b", "is_disabled": 0, "lon": -77.0454385, "is_reserved": 0, "fusion_lat": 0.0, "type": "electric_scooter"}, {"fusion_lon": 0.0, "name": "0c6993d8d5e437f3128062acacbb51fa", "rental_uris": {"android": "https://dc.lft.to/lastmile_qr_scan", "ios": "https://dc.lft.to/lastmile_qr_scan"}, "lat": 38.902316166666665, "bike_id": "0c6993d8d5e437f3128062acacbb51fa", "is_disabled": 0, "lon": -77.01743583333334, "is_reserved": 0, "fusion_lat": 0.0, "type": "electric_scooter"}, {"fusion_lon": 0.0, "name": "a8eb0395dd41e611ab083bd3f95b2136", "rental_uris": {"android": "https://dc.lft.to/lastmile_qr_scan", "ios": "https://dc.lft.to/lastmile_qr_scan"}, "lat": 38.90266166666667, "bike_id": "a8eb0395dd41e611ab083bd3f95b2136", "is_disabled": 0, "lon": -77.00327716666666, "is_reserved": 0, "fusion_lat": 0.0, "type": "electric_scooter"}, {"fusion_lon": 0.0, "name": "63134aab5f8a2c42dd20b9bd44bdd7e3", "rental_uris": {"android": "https://dc.lft.to/lastmile_qr_scan", "ios": "https://dc.lft.to/lastmile_qr_scan"}, "lat": 38.892322666666665, "bike_id": "63134aab5f8a2c42dd20b9bd44bdd7e3", "is_disabled": 0, "lon": -77.0500435, "is_reserved": 0, "fusion_lat": 0.0, "type": "electric_scooter"}, {"fusion_lon": 0.0, "name": "d9a7af6080aca75ae6b58e8a23df644a", "rental_uris": {"android": "https://dc.lft.to/lastmile_qr_scan", "ios": "https://dc.lft.to/lastmile_qr_scan"}, "lat": 38.92046583333333, "bike_id": "d9a7af6080aca75ae6b58e8a23df644a", "is_disabled": 0, "lon": -77.0418685, "is_reserved": 0, "fusion_lat": 0.0, "type": "electric_scooter"}, {"fusion_lon": 0.0, "name": "7cd8ea031d4f225fc7ce394b0f5c1201", "rental_uris": {"android": "https://dc.lft.to/lastmile_qr_scan", "ios": "https://dc.lft.to/lastmile_qr_scan"}, "lat": 38.88375333333333, "bike_id": "7cd8ea031d4f225fc7ce394b0f5c1201", "is_disabled": 0, "lon": -76.9242035, "is_reserved": 0, "fusion_lat": 0.0, "type": "electric_scooter"}, {"fusion_lon": 0.0, "name": "0f96e0ca0fc9b1a8ddec49662d9a7665", "rental_uris": {"android": "https://dc.lft.to/lastmile_qr_scan", "ios": "https://dc.lft.to/lastmile_qr_scan"}, "lat": 38.908379333333336, "bike_id": "0f96e0ca0fc9b1a8ddec49662d9a7665", "is_disabled": 0, "lon": -77.073088, "is_reserved": 0, "fusion_lat": 0.0, "type": "electric_scooter"}, {"fusion_lon": 0.0, "name": "0185f5d3bddc20c8dff12b9f13209326", "rental_uris": {"android": "https://dc.lft.to/lastmile_qr_scan", "ios": "https://dc.lft.to/lastmile_qr_scan"}, "lat": 38.9236035, "bike_id": "0185f5d3bddc20c8dff12b9f13209326", "is_disabled": 0, "lon": -77.05055833333333, "is_reserved": 0, "fusion_lat": 0.0, "type": "electric_scooter"}, {"fusion_lon": 0.0, "name": "e98fabc9a2eacd0fcc73f09ea1013021", "rental_uris": {"android": "https://dc.lft.to/lastmile_qr_scan", "ios": "https://dc.lft.to/lastmile_qr_scan"}, "lat": 38.914867, "bike_id": "e98fabc9a2eacd0fcc73f09ea1013021", "is_disabled": 0, "lon": -77.02190516666667, "is_reserved": 0, "fusion_lat": 0.0, "type": "electric_scooter"}, {"fusion_lon": 0.0, "name": "ae5af0c8f363c019560aca17b2a4d330", "rental_uris": {"android": "https://dc.lft.to/lastmile_qr_scan", "ios": "https://dc.lft.to/lastmile_qr_scan"}, "lat": 38.92335383333333, "bike_id": "ae5af0c8f363c019560aca17b2a4d330", "is_disabled": 0, "lon": -77.036133, "is_reserved": 0, "fusion_lat": 0.0, "type": "electric_scooter"}, {"fusion_lon": 0.0, "name": "7da6b656c6395ce98e248538a3ed1d67", "rental_uris": {"android": "https://dc.lft.to/lastmile_qr_scan", "ios": "https://dc.lft.to/lastmile_qr_scan"}, "lat": 38.922325, "bike_id": "7da6b656c6395ce98e248538a3ed1d67", "is_disabled": 0, "lon": -77.02149066666666, "is_reserved": 0, "fusion_lat": 0.0, "type": "electric_scooter"}, {"fusion_lon": 0.0, "name": "f54946008afb2054f63a1777b5ebf14d", "rental_uris": {"android": "https://dc.lft.to/lastmile_qr_scan", "ios": "https://dc.lft.to/lastmile_qr_scan"}, "lat": 38.92486183333333, "bike_id": "f54946008afb2054f63a1777b5ebf14d", "is_disabled": 0, "lon": -77.00894266666667, "is_reserved": 0, "fusion_lat": 0.0, "type": "electric_scooter"}, {"fusion_lon": 0.0, "name": "0d3e9fa1a65e599d838762282f794f89", "rental_uris": {"android": "https://dc.lft.to/lastmile_qr_scan", "ios": "https://dc.lft.to/lastmile_qr_scan"}, "lat": 38.891918, "bike_id": "0d3e9fa1a65e599d838762282f794f89", "is_disabled": 0, "lon": -76.9581275, "is_reserved": 0, "fusion_lat": 0.0, "type": "electric_scooter"}, {"fusion_lon": 0.0, "name": "ce95f6572e94cca3344b26d244f24d17", "rental_uris": {"android": "https://dc.lft.to/lastmile_qr_scan", "ios": "https://dc.lft.to/lastmile_qr_scan"}, "lat": 38.928863, "bike_id": "ce95f6572e94cca3344b26d244f24d17", "is_disabled": 0, "lon": -77.03332083333333, "is_reserved": 0, "fusion_lat": 0.0, "type": "electric_scooter"}, {"fusion_lon": 0.0, "name": "4ccaa32312bd2bff5219188b267f078e", "rental_uris": {"android": "https://dc.lft.to/lastmile_qr_scan", "ios": "https://dc.lft.to/lastmile_qr_scan"}, "lat": 38.9232005, "bike_id": "4ccaa32312bd2bff5219188b267f078e", "is_disabled": 0, "lon": -77.03607016666666, "is_reserved": 0, "fusion_lat": 0.0, "type": "electric_scooter"}, {"fusion_lon": 0.0, "name": "661e22733253f92eb38aa6b25e0369dd", "rental_uris": {"android": "https://dc.lft.to/lastmile_qr_scan", "ios": "https://dc.lft.to/lastmile_qr_scan"}, "lat": 38.840535, "bike_id": "661e22733253f92eb38aa6b25e0369dd", "is_disabled": 0, "lon": -76.976674, "is_reserved": 0, "fusion_lat": 0.0, "type": "electric_scooter"}, {"fusion_lon": 0.0, "name": "9632fb367bbd2734b69566bc9f47f8b8", "rental_uris": {"android": "https://dc.lft.to/lastmile_qr_scan", "ios": "https://dc.lft.to/lastmile_qr_scan"}, "lat": 38.91694416666667, "bike_id": "9632fb367bbd2734b69566bc9f47f8b8", "is_disabled": 0, "lon": -77.04229566666666, "is_reserved": 0, "fusion_lat": 0.0, "type": "electric_scooter"}, {"fusion_lon": 0.0, "name": "520c39a9dfc727dc5ccbe23c3f31afb5", "rental_uris": {"android": "https://dc.lft.to/lastmile_qr_scan", "ios": "https://dc.lft.to/lastmile_qr_scan"}, "lat": 38.900212833333335, "bike_id": "520c39a9dfc727dc5ccbe23c3f31afb5", "is_disabled": 0, "lon": -76.98833916666666, "is_reserved": 0, "fusion_lat": 0.0, "type": "electric_scooter"}, {"fusion_lon": 0.0, "name": "0f1147b0ca2194f74bd9e2226aa05d7c", "rental_uris": {"android": "https://dc.lft.to/lastmile_qr_scan", "ios": "https://dc.lft.to/lastmile_qr_scan"}, "lat": 38.918262166666665, "bike_id": "0f1147b0ca2194f74bd9e2226aa05d7c", "is_disabled": 0, "lon": -77.04176633333333, "is_reserved": 0, "fusion_lat": 0.0, "type": "electric_scooter"}, {"fusion_lon": 0.0, "name": "418837cb2cf1819240b80c087f4583ed", "rental_uris": {"android": "https://dc.lft.to/lastmile_qr_scan", "ios": "https://dc.lft.to/lastmile_qr_scan"}, "lat": 38.9073055, "bike_id": "418837cb2cf1819240b80c087f4583ed", "is_disabled": 0, "lon": -77.02797466666667, "is_reserved": 0, "fusion_lat": 0.0, "type": "electric_scooter"}, {"fusion_lon": 0.0, "name": "9793b3ae7ad02e6c17226a9a047806bf", "rental_uris": {"android": "https://dc.lft.to/lastmile_qr_scan", "ios": "https://dc.lft.to/lastmile_qr_scan"}, "lat": 38.901781166666666, "bike_id": "9793b3ae7ad02e6c17226a9a047806bf", "is_disabled": 0, "lon": -77.02400583333333, "is_reserved": 0, "fusion_lat": 0.0, "type": "electric_scooter"}, {"fusion_lon": 0.0, "name": "ecdb4c196b85d647b9c9515be6ce376d", "rental_uris": {"android": "https://dc.lft.to/lastmile_qr_scan", "ios": "https://dc.lft.to/lastmile_qr_scan"}, "lat": 38.898829, "bike_id": "ecdb4c196b85d647b9c9515be6ce376d", "is_disabled": 0, "lon": -77.03279083333334, "is_reserved": 0, "fusion_lat": 0.0, "type": "electric_scooter"}, {"fusion_lon": 0.0, "name": "c888bd2fc7242b0685b2316eb2dcefe1", "rental_uris": {"android": "https://dc.lft.to/lastmile_qr_scan", "ios": "https://dc.lft.to/lastmile_qr_scan"}, "lat": 38.9639805, "bike_id": "c888bd2fc7242b0685b2316eb2dcefe1", "is_disabled": 0, "lon": -77.02769033333334, "is_reserved": 0, "fusion_lat": 0.0, "type": "electric_scooter"}, {"fusion_lon": 0.0, "name": "a316b66ed42385b6b24fbb8f71499132", "rental_uris": {"android": "https://dc.lft.to/lastmile_qr_scan", "ios": "https://dc.lft.to/lastmile_qr_scan"}, "lat": 38.91667966666667, "bike_id": "a316b66ed42385b6b24fbb8f71499132", "is_disabled": 0, "lon": -77.04619366666667, "is_reserved": 0, "fusion_lat": 0.0, "type": "electric_scooter"}, {"fusion_lon": 0.0, "name": "389a4f66bb83ae0212e9609aeac07fc7", "rental_uris": {"android": "https://dc.lft.to/lastmile_qr_scan", "ios": "https://dc.lft.to/lastmile_qr_scan"}, "lat": 38.90368816666667, "bike_id": "389a4f66bb83ae0212e9609aeac07fc7", "is_disabled": 0, "lon": -77.01760066666667, "is_reserved": 0, "fusion_lat": 0.0, "type": "electric_scooter"}, {"fusion_lon": 0.0, "name": "33fd720f30f6b646e4acf23beba356b3", "rental_uris": {"android": "https://dc.lft.to/lastmile_qr_scan", "ios": "https://dc.lft.to/lastmile_qr_scan"}, "lat": 38.94260033333333, "bike_id": "33fd720f30f6b646e4acf23beba356b3", "is_disabled": 0, "lon": -76.9907095, "is_reserved": 0, "fusion_lat": 0.0, "type": "electric_bike"}, {"fusion_lon": 0.0, "name": "bf2d2d14694cf3acb3de8febbc933c6c", "rental_uris": {"android": "https://dc.lft.to/lastmile_qr_scan", "ios": "https://dc.lft.to/lastmile_qr_scan"}, "lat": 38.928131666666665, "bike_id": "bf2d2d14694cf3acb3de8febbc933c6c", "is_disabled": 0, "lon": -77.03146633333333, "is_reserved": 0, "fusion_lat": 0.0, "type": "electric_scooter"}, {"fusion_lon": 0.0, "name": "f342d22cf46df2456eb87ff35d6e0d0d", "rental_uris": {"android": "https://dc.lft.to/lastmile_qr_scan", "ios": "https://dc.lft.to/lastmile_qr_scan"}, "lat": 38.8068705, "bike_id": "f342d22cf46df2456eb87ff35d6e0d0d", "is_disabled": 0, "lon": -77.13383766666666, "is_reserved": 0, "fusion_lat": 0.0, "type": "electric_bike"}, {"fusion_lon": 0.0, "name": "04856bf4eb95d1c50723a89586fd2a66", "rental_uris": {"android": "https://dc.lft.to/lastmile_qr_scan", "ios": "https://dc.lft.to/lastmile_qr_scan"}, "lat": 38.926072, "bike_id": "04856bf4eb95d1c50723a89586fd2a66", "is_disabled": 0, "lon": -77.02162166666666, "is_reserved": 0, "fusion_lat": 0.0, "type": "electric_scooter"}, {"fusion_lon": 0.0, "name": "e73135c1a14d2ebb46f14483f4f29115", "rental_uris": {"android": "https://dc.lft.to/lastmile_qr_scan", "ios": "https://dc.lft.to/lastmile_qr_scan"}, "lat": 38.93557583333333, "bike_id": "e73135c1a14d2ebb46f14483f4f29115", "is_disabled": 0, "lon": -77.03480716666667, "is_reserved": 0, "fusion_lat": 0.0, "type": "electric_scooter"}, {"fusion_lon": 0.0, "name": "60549ef93d4aed90a0481ff03fcea8b6", "rental_uris": {"android": "https://dc.lft.to/lastmile_qr_scan", "ios": "https://dc.lft.to/lastmile_qr_scan"}, "lat": 38.92912666666667, "bike_id": "60549ef93d4aed90a0481ff03fcea8b6", "is_disabled": 0, "lon": -76.99817633333333, "is_reserved": 0, "fusion_lat": 0.0, "type": "electric_scooter"}, {"fusion_lon": 0.0, "name": "b1f2df28bcbed48a14b6c253471e3cbe", "rental_uris": {"android": "https://dc.lft.to/lastmile_qr_scan", "ios": "https://dc.lft.to/lastmile_qr_scan"}, "lat": 38.934992333333334, "bike_id": "b1f2df28bcbed48a14b6c253471e3cbe", "is_disabled": 0, "lon": -77.0201175, "is_reserved": 0, "fusion_lat": 0.0, "type": "electric_scooter"}, {"fusion_lon": 0.0, "name": "366ab1416908e23fd382ef71365882c2", "rental_uris": {"android": "https://dc.lft.to/lastmile_qr_scan", "ios": "https://dc.lft.to/lastmile_qr_scan"}, "lat": 38.92240983333333, "bike_id": "366ab1416908e23fd382ef71365882c2", "is_disabled": 0, "lon": -77.0436315, "is_reserved": 0, "fusion_lat": 0.0, "type": "electric_scooter"}, {"fusion_lon": 0.0, "name": "a921bb66972cd58493d521f57ccc18db", "rental_uris": {"android": "https://dc.lft.to/lastmile_qr_scan", "ios": "https://dc.lft.to/lastmile_qr_scan"}, "lat": 38.900516, "bike_id": "a921bb66972cd58493d521f57ccc18db", "is_disabled": 0, "lon": -77.048932, "is_reserved": 0, "fusion_lat": 0.0, "type": "electric_scooter"}, {"fusion_lon": 0.0, "name": "637287549eee0dac23847da2087d536b", "rental_uris": {"android": "https://dc.lft.to/lastmile_qr_scan", "ios": "https://dc.lft.to/lastmile_qr_scan"}, "lat": 38.91417466666667, "bike_id": "637287549eee0dac23847da2087d536b", "is_disabled": 0, "lon": -77.018001, "is_reserved": 0, "fusion_lat": 0.0, "type": "electric_scooter"}, {"fusion_lon": 0.0, "name": "d05d18f06cf6ae24be064e957fe06d90", "rental_uris": {"android": "https://dc.lft.to/lastmile_qr_scan", "ios": "https://dc.lft.to/lastmile_qr_scan"}, "lat": 38.8967505, "bike_id": "d05d18f06cf6ae24be064e957fe06d90", "is_disabled": 0, "lon": -77.04357, "is_reserved": 0, "fusion_lat": 0.0, "type": "electric_scooter"}, {"fusion_lon": 0.0, "name": "a943046a470a117faa24e7b9f7e125c0", "rental_uris": {"android": "https://dc.lft.to/lastmile_qr_scan", "ios": "https://dc.lft.to/lastmile_qr_scan"}, "lat": 38.912515166666665, "bike_id": "a943046a470a117faa24e7b9f7e125c0", "is_disabled": 0, "lon": -77.01150033333333, "is_reserved": 0, "fusion_lat": 0.0, "type": "electric_scooter"}, {"fusion_lon": 0.0, "name": "e45b8c9108db177affec99f2c39f3bf8", "rental_uris": {"android": "https://dc.lft.to/lastmile_qr_scan", "ios": "https://dc.lft.to/lastmile_qr_scan"}, "lat": 38.964796, "bike_id": "e45b8c9108db177affec99f2c39f3bf8", "is_disabled": 0, "lon": -77.03169966666667, "is_reserved": 0, "fusion_lat": 0.0, "type": "electric_bike"}, {"fusion_lon": 0.0, "name": "6be5fd1466e2821d73c03f4f7f821f01", "rental_uris": {"android": "https://dc.lft.to/lastmile_qr_scan", "ios": "https://dc.lft.to/lastmile_qr_scan"}, "lat": 38.89344633333333, "bike_id": "6be5fd1466e2821d73c03f4f7f821f01", "is_disabled": 0, "lon": -76.95248566666666, "is_reserved": 0, "fusion_lat": 0.0, "type": "electric_scooter"}, {"fusion_lon": 0.0, "name": "0ca206364622482dfbc72e10311ef395", "rental_uris": {"android": "https://dc.lft.to/lastmile_qr_scan", "ios": "https://dc.lft.to/lastmile_qr_scan"}, "lat": 38.919206, "bike_id": "0ca206364622482dfbc72e10311ef395", "is_disabled": 0, "lon": -77.03342066666667, "is_reserved": 0, "fusion_lat": 0.0, "type": "electric_scooter"}, {"fusion_lon": 0.0, "name": "f5804bb5ae920380728f0cb375a3b409", "rental_uris": {"android": "https://dc.lft.to/lastmile_qr_scan", "ios": "https://dc.lft.to/lastmile_qr_scan"}, "lat": 38.926157833333335, "bike_id": "f5804bb5ae920380728f0cb375a3b409", "is_disabled": 0, "lon": -77.02160716666667, "is_reserved": 0, "fusion_lat": 0.0, "type": "electric_scooter"}, {"fusion_lon": 0.0, "name": "0264c682a2e8a75395d0aa50d188cdee", "rental_uris": {"android": "https://dc.lft.to/lastmile_qr_scan", "ios": "https://dc.lft.to/lastmile_qr_scan"}, "lat": 38.900819166666665, "bike_id": "0264c682a2e8a75395d0aa50d188cdee", "is_disabled": 0, "lon": -77.03351333333333, "is_reserved": 0, "fusion_lat": 0.0, "type": "electric_scooter"}, {"fusion_lon": 0.0, "name": "4bf33b7a4f4c9dba295c8492bd579bd8", "rental_uris": {"android": "https://dc.lft.to/lastmile_qr_scan", "ios": "https://dc.lft.to/lastmile_qr_scan"}, "lat": 38.91129183333334, "bike_id": "4bf33b7a4f4c9dba295c8492bd579bd8", "is_disabled": 0, "lon": -77.02198883333334, "is_reserved": 0, "fusion_lat": 0.0, "type": "electric_scooter"}, {"fusion_lon": 0.0, "name": "022b0c6e7e3d30465de9c032d9008057", "rental_uris": {"android": "https://dc.lft.to/lastmile_qr_scan", "ios": "https://dc.lft.to/lastmile_qr_scan"}, "lat": 38.90340333333333, "bike_id": "022b0c6e7e3d30465de9c032d9008057", "is_disabled": 0, "lon": -76.98276483333333, "is_reserved": 0, "fusion_lat": 0.0, "type": "electric_scooter"}, {"fusion_lon": 0.0, "name": "79b05813df3caf40e5634d375453b2f9", "rental_uris": {"android": "https://dc.lft.to/lastmile_qr_scan", "ios": "https://dc.lft.to/lastmile_qr_scan"}, "lat": 38.923387166666664, "bike_id": "79b05813df3caf40e5634d375453b2f9", "is_disabled": 0, "lon": -77.0546805, "is_reserved": 0, "fusion_lat": 0.0, "type": "electric_scooter"}, {"fusion_lon": 0.0, "name": "ae649c1b7612d4333be0a29accf99883", "rental_uris": {"android": "https://dc.lft.to/lastmile_qr_scan", "ios": "https://dc.lft.to/lastmile_qr_scan"}, "lat": 38.9354535, "bike_id": "ae649c1b7612d4333be0a29accf99883", "is_disabled": 0, "lon": -77.03427033333334, "is_reserved": 0, "fusion_lat": 0.0, "type": "electric_scooter"}, {"fusion_lon": 0.0, "name": "72ebfd66591250a8b4c5c76e2527a381", "rental_uris": {"android": "https://dc.lft.to/lastmile_qr_scan", "ios": "https://dc.lft.to/lastmile_qr_scan"}, "lat": 38.922500166666666, "bike_id": "72ebfd66591250a8b4c5c76e2527a381", "is_disabled": 0, "lon": -77.03074783333334, "is_reserved": 0, "fusion_lat": 0.0, "type": "electric_scooter"}, {"fusion_lon": 0.0, "name": "f9bd703395e5920ecaea281f9c1e5f3d", "rental_uris": {"android": "https://dc.lft.to/lastmile_qr_scan", "ios": "https://dc.lft.to/lastmile_qr_scan"}, "lat": 38.92968583333333, "bike_id": "f9bd703395e5920ecaea281f9c1e5f3d", "is_disabled": 0, "lon": -77.01977516666666, "is_reserved": 0, "fusion_lat": 0.0, "type": "electric_scooter"}, {"fusion_lon": 0.0, "name": "ca0ed0b4fa9594e0c959c87efce30da3", "rental_uris": {"android": "https://dc.lft.to/lastmile_qr_scan", "ios": "https://dc.lft.to/lastmile_qr_scan"}, "lat": 38.90390516666667, "bike_id": "ca0ed0b4fa9594e0c959c87efce30da3", "is_disabled": 0, "lon": -77.06866683333334, "is_reserved": 0, "fusion_lat": 0.0, "type": "electric_scooter"}, {"fusion_lon": 0.0, "name": "c2d19e808c563c8b883879d51691c78d", "rental_uris": {"android": "https://dc.lft.to/lastmile_qr_scan", "ios": "https://dc.lft.to/lastmile_qr_scan"}, "lat": 38.917867333333334, "bike_id": "c2d19e808c563c8b883879d51691c78d", "is_disabled": 0, "lon": -77.04021433333334, "is_reserved": 0, "fusion_lat": 0.0, "type": "electric_scooter"}, {"fusion_lon": 0.0, "name": "dd41708c9717ba8a3e75027267440d80", "rental_uris": {"android": "https://dc.lft.to/lastmile_qr_scan", "ios": "https://dc.lft.to/lastmile_qr_scan"}, "lat": 38.919943833333335, "bike_id": "dd41708c9717ba8a3e75027267440d80", "is_disabled": 0, "lon": -77.07100883333334, "is_reserved": 0, "fusion_lat": 0.0, "type": "electric_scooter"}, {"fusion_lon": 0.0, "name": "f664fc50ab1ea4c200514c05403b3cc5", "rental_uris": {"android": "https://dc.lft.to/lastmile_qr_scan", "ios": "https://dc.lft.to/lastmile_qr_scan"},