{"data": {"bikes": [{"name": "d8dce5366a0d060d5f4db8f7f15296f5", "fusion_lon": 0.0, "lat": 38.900143666666665, "is_reserved": 0, "type": "electric_scooter", "bike_id": "d8dce5366a0d060d5f4db8f7f15296f5", "is_disabled": 0, "rental_uris": {"android": "https://dc.lft.to/lastmile_qr_scan", "ios": "https://dc.lft.to/lastmile_qr_scan"}, "lon": -77.00687516666666, "fusion_lat": 0.0}, {"name": "12ea5899bdccb14c30f95023a0370581", "fusion_lon": 0.0, "lat": 38.928687333333336, "is_reserved": 0, "type": "electric_scooter", "bike_id": "12ea5899bdccb14c30f95023a0370581", "is_disabled": 0, "rental_uris": {"android": "https://dc.lft.to/lastmile_qr_scan", "ios": "https://dc.lft.to/lastmile_qr_scan"}, "lon": -77.02169266666667, "fusion_lat": 0.0}, {"name": "ccf54c1d53affa151b1b3e9f079a0894", "fusion_lon": 0.0, "lat": 38.85441016666667, "is_reserved": 0, "type": "electric_bike", "bike_id": "ccf54c1d53affa151b1b3e9f079a0894", "is_disabled": 0, "rental_uris": {"android": "https://dc.lft.to/lastmile_qr_scan", "ios": "https://dc.lft.to/lastmile_qr_scan"}, "lon": -77.083046, "fusion_lat": 0.0}, {"name": "7acb8ec61c0f2f46c40e15fcdf0ccf92", "fusion_lon": 0.0, "lat": 38.907092666666664, "is_reserved": 0, "type": "electric_scooter", "bike_id": "7acb8ec61c0f2f46c40e15fcdf0ccf92", "is_disabled": 0, "rental_uris": {"android": "https://dc.lft.to/lastmile_qr_scan", "ios": "https://dc.lft.to/lastmile_qr_scan"}, "lon": -77.035273, "fusion_lat": 0.0}, {"name": "74f38116d2f0fc16ff76f8daf856fe1c", "fusion_lon": 0.0, "lat": 38.923262333333334, "is_reserved": 0, "type": "electric_scooter", "bike_id": "74f38116d2f0fc16ff76f8daf856fe1c", "is_disabled": 0, "rental_uris": {"android": "https://dc.lft.to/lastmile_qr_scan", "ios": "https://dc.lft.to/lastmile_qr_scan"}, "lon": -77.0195845, "fusion_lat": 0.0}, {"name": "72a16b0fbf0836653a73f368aaa1f737", "fusion_lon": 0.0, "lat": 38.901148166666665, "is_reserved": 0, "type": "electric_scooter", "bike_id": "72a16b0fbf0836653a73f368aaa1f737", "is_disabled": 0, "rental_uris": {"android": "https://dc.lft.to/lastmile_qr_scan", "ios": "https://dc.lft.to/lastmile_qr_scan"}, "lon": -77.04406283333333, "fusion_lat": 0.0}, {"name": "e20b29835dc4bf2083ea4e38b878e240", "fusion_lon": 0.0, "lat": 38.87600883333333, "is_reserved": 0, "type": "electric_scooter", "bike_id": "e20b29835dc4bf2083ea4e38b878e240", "is_disabled": 0, "rental_uris": {"android": "https://dc.lft.to/lastmile_qr_scan", "ios": "https://dc.lft.to/lastmile_qr_scan"}, "lon": -77.00092883333333, "fusion_lat": 0.0}, {"name": "3a3f178aeda6f675b387b9dbd34037c4", "fusion_lon": 0.0, "lat": 38.918314333333335, "is_reserved": 0, "type": "electric_scooter", "bike_id": "3a3f178aeda6f675b387b9dbd34037c4", "is_disabled": 0, "rental_uris": {"android": "https://dc.lft.to/lastmile_qr_scan", "ios": "https://dc.lft.to/lastmile_qr_scan"}, "lon": -77.03172733333334, "fusion_lat": 0.0}, {"name": "9dea968d9e5e32adf9c99fd036b491f9", "fusion_lon": 0.0, "lat": 38.93319866666667, "is_reserved": 0, "type": "electric_scooter", "bike_id": "9dea968d9e5e32adf9c99fd036b491f9", "is_disabled": 0, "rental_uris": {"android": "https://dc.lft.to/lastmile_qr_scan", "ios": "https://dc.lft.to/lastmile_qr_scan"}, "lon": -77.034366, "fusion_lat": 0.0}, {"name": "09649845038d24fc4627fd3f6a9c7559", "fusion_lon": 0.0, "lat": 38.92112066666667, "is_reserved": 0, "type": "electric_scooter", "bike_id": "09649845038d24fc4627fd3f6a9c7559", "is_disabled": 0, "rental_uris": {"android": "https://dc.lft.to/lastmile_qr_scan", "ios": "https://dc.lft.to/lastmile_qr_scan"}, "lon": -77.0204665, "fusion_lat": 0.0}, {"name": "4ed2a80bb4492fc4be9e6073ae6db9c2", "fusion_lon": 0.0, "lat": 38.942239, "is_reserved": 0, "type": "electric_bike", "bike_id": "4ed2a80bb4492fc4be9e6073ae6db9c2", "is_disabled": 0, "rental_uris": {"android": "https://dc.lft.to/lastmile_qr_scan", "ios": "https://dc.lft.to/lastmile_qr_scan"}, "lon": -76.966152, "fusion_lat": 0.0}, {"name": "d60d1b57efc5de052de4db8fcf535d46", "fusion_lon": 0.0, "lat": 38.9296755, "is_reserved": 0, "type": "electric_bike", "bike_id": "d60d1b57efc5de052de4db8fcf535d46", "is_disabled": 0, "rental_uris": {"android": "https://dc.lft.to/lastmile_qr_scan", "ios": "https://dc.lft.to/lastmile_qr_scan"}, "lon": -77.18563666666667, "fusion_lat": 0.0}, {"name": "081c7f5d5abcc9a7b9d75f7cc34aa5cd", "fusion_lon": 0.0, "lat": 38.920357333333335, "is_reserved": 0, "type": "electric_scooter", "bike_id": "081c7f5d5abcc9a7b9d75f7cc34aa5cd", "is_disabled": 0, "rental_uris": {"android": "https://dc.lft.to/lastmile_qr_scan", "ios": "https://dc.lft.to/lastmile_qr_scan"}, "lon": -77.025863, "fusion_lat": 0.0}, {"name": "5a90fc0013a51a135195d3f185dc47bd", "fusion_lon": 0.0, "lat": 38.92894616666667, "is_reserved": 0, "type": "electric_scooter", "bike_id": "5a90fc0013a51a135195d3f185dc47bd", "is_disabled": 0, "rental_uris": {"android": "https://dc.lft.to/lastmile_qr_scan", "ios": "https://dc.lft.to/lastmile_qr_scan"}, "lon": -77.03256433333334, "fusion_lat": 0.0}, {"name": "d8ceb0f7222578c5fafa15efbba0f73d", "fusion_lon": 0.0, "lat": 39.055011666666665, "is_reserved": 0, "type": "electric_bike", "bike_id": "d8ceb0f7222578c5fafa15efbba0f73d", "is_disabled": 0, "rental_uris": {"android": "https://dc.lft.to/lastmile_qr_scan", "ios": "https://dc.lft.to/lastmile_qr_scan"}, "lon": -77.04650783333334, "fusion_lat": 0.0}, {"name": "02feea9f79dcbfb50caa2ceeac30791d", "fusion_lon": 0.0, "lat": 38.92460533333333, "is_reserved": 0, "type": "electric_scooter", "bike_id": "02feea9f79dcbfb50caa2ceeac30791d", "is_disabled": 0, "rental_uris": {"android": "https://dc.lft.to/lastmile_qr_scan", "ios": "https://dc.lft.to/lastmile_qr_scan"}, "lon": -77.07820816666667, "fusion_lat": 0.0}, {"name": "14cc94bf507192e6b44eb4030ee8925c", "fusion_lon": 0.0, "lat": 38.8880895, "is_reserved": 0, "type": "electric_bike", "bike_id": "14cc94bf507192e6b44eb4030ee8925c", "is_disabled": 0, "rental_uris": {"android": "https://dc.lft.to/lastmile_qr_scan", "ios": "https://dc.lft.to/lastmile_qr_scan"}, "lon": -77.12635683333333, "fusion_lat": 0.0}, {"name": "68671f02b5e37c824f20a859721c5fdc", "fusion_lon": 0.0, "lat": 38.90496316666667, "is_reserved": 0, "type": "electric_scooter", "bike_id": "68671f02b5e37c824f20a859721c5fdc", "is_disabled": 0, "rental_uris": {"android": "https://dc.lft.to/lastmile_qr_scan", "ios": "https://dc.lft.to/lastmile_qr_scan"}, "lon": -77.019991, "fusion_lat": 0.0}, {"name": "a6594ddf50abe731127e73f6aa004eef", "fusion_lon": 0.0, "lat": 38.886066166666666, "is_reserved": 0, "type": "electric_scooter", "bike_id": "a6594ddf50abe731127e73f6aa004eef", "is_disabled": 0, "rental_uris": {"android": "https://dc.lft.to/lastmile_qr_scan", "ios": "https://dc.lft.to/lastmile_qr_scan"}, "lon": -76.99508866666666, "fusion_lat": 0.0}, {"name": "cbe59b99001ec1c40bc1f1209f80a696", "fusion_lon": 0.0, "lat": 38.90264, "is_reserved": 0, "type": "electric_scooter", "bike_id": "cbe59b99001ec1c40bc1f1209f80a696", "is_disabled": 0, "rental_uris": {"android": "https://dc.lft.to/lastmile_qr_scan", "ios": "https://dc.lft.to/lastmile_qr_scan"}, "lon": -77.05790816666666, "fusion_lat": 0.0}, {"name": "06b11f9482a99b9d7c477540fc15cbb4", "fusion_lon": 0.0, "lat": 38.896214666666665, "is_reserved": 0, "type": "electric_scooter", "bike_id": "06b11f9482a99b9d7c477540fc15cbb4", "is_disabled": 0, "rental_uris": {"android": "https://dc.lft.to/lastmile_qr_scan", "ios": "https://dc.lft.to/lastmile_qr_scan"}, "lon": -77.04468716666666, "fusion_lat": 0.0}, {"name": "496b504d1cd47ee420438e1e79dce61e", "fusion_lon": 0.0, "lat": 38.911085166666666, "is_reserved": 0, "type": "electric_scooter", "bike_id": "496b504d1cd47ee420438e1e79dce61e", "is_disabled": 0, "rental_uris": {"android": "https://dc.lft.to/lastmile_qr_scan", "ios": "https://dc.lft.to/lastmile_qr_scan"}, "lon": -77.04353333333333, "fusion_lat": 0.0}, {"name": "2945a8d96864441b85d65196c78db19e", "fusion_lon": 0.0, "lat": 38.92818316666666, "is_reserved": 0, "type": "electric_scooter", "bike_id": "2945a8d96864441b85d65196c78db19e", "is_disabled": 0, "rental_uris": {"android": "https://dc.lft.to/lastmile_qr_scan", "ios": "https://dc.lft.to/lastmile_qr_scan"}, "lon": -77.03641983333333, "fusion_lat": 0.0}, {"name": "5d5dcb62c5810f81848ff6752de1e7e2", "fusion_lon": 0.0, "lat": 38.903825, "is_reserved": 0, "type": "electric_scooter", "bike_id": "5d5dcb62c5810f81848ff6752de1e7e2", "is_disabled": 0, "rental_uris": {"android": "https://dc.lft.to/lastmile_qr_scan", "ios": "https://dc.lft.to/lastmile_qr_scan"}, "lon": -77.02601566666667, "fusion_lat": 0.0}, {"name": "acd6ca9b53e284a60902afc79b1b19cd", "fusion_lon": 0.0, "lat": 38.892957333333335, "is_reserved": 0, "type": "electric_scooter", "bike_id": "acd6ca9b53e284a60902afc79b1b19cd", "is_disabled": 0, "rental_uris": {"android": "https://dc.lft.to/lastmile_qr_scan", "ios": "https://dc.lft.to/lastmile_qr_scan"}, "lon": -76.939283, "fusion_lat": 0.0}, {"name": "a777ecfc6b87f1bd7fdf3b93103693f5", "fusion_lon": 0.0, "lat": 38.87236466666667, "is_reserved": 0, "type": "electric_scooter", "bike_id": "a777ecfc6b87f1bd7fdf3b93103693f5", "is_disabled": 0, "rental_uris": {"android": "https://dc.lft.to/lastmile_qr_scan", "ios": "https://dc.lft.to/lastmile_qr_scan"}, "lon": -77.01171983333333, "fusion_lat": 0.0}, {"name": "5cbbda847149de9bd8c727840da8d3c6", "fusion_lon": 0.0, "lat": 38.921576333333334, "is_reserved": 0, "type": "electric_scooter", "bike_id": "5cbbda847149de9bd8c727840da8d3c6", "is_disabled": 0, "rental_uris": {"android": "https://dc.lft.to/lastmile_qr_scan", "ios": "https://dc.lft.to/lastmile_qr_scan"}, "lon": -77.03461383333334, "fusion_lat": 0.0}, {"name": "6d2938acf90cb345f28436a2503fa49d", "fusion_lon": 0.0, "lat": 38.928791833333335, "is_reserved": 0, "type": "electric_scooter", "bike_id": "6d2938acf90cb345f28436a2503fa49d", "is_disabled": 0, "rental_uris": {"android": "https://dc.lft.to/lastmile_qr_scan", "ios": "https://dc.lft.to/lastmile_qr_scan"}, "lon": -77.0423295, "fusion_lat": 0.0}, {"name": "e90468bcb889381c157bd66b9d7478fe", "fusion_lon": 0.0, "lat": 38.898816, "is_reserved": 0, "type": "electric_scooter", "bike_id": "e90468bcb889381c157bd66b9d7478fe", "is_disabled": 0, "rental_uris": {"android": "https://dc.lft.to/lastmile_qr_scan", "ios": "https://dc.lft.to/lastmile_qr_scan"}, "lon": -77.03282283333333, "fusion_lat": 0.0}, {"name": "b892cc6d0acb3e3d44b690bfa48c0999", "fusion_lon": 0.0, "lat": 38.90000833333333, "is_reserved": 0, "type": "electric_scooter", "bike_id": "b892cc6d0acb3e3d44b690bfa48c0999", "is_disabled": 0, "rental_uris": {"android": "https://dc.lft.to/lastmile_qr_scan", "ios": "https://dc.lft.to/lastmile_qr_scan"}, "lon": -77.00133016666666, "fusion_lat": 0.0}, {"name": "454b4dbe6f80ea9539f4f33cc662a5ed", "fusion_lon": 0.0, "lat": 38.956336666666665, "is_reserved": 0, "type": "electric_bike", "bike_id": "454b4dbe6f80ea9539f4f33cc662a5ed", "is_disabled": 0, "rental_uris": {"android": "https://dc.lft.to/lastmile_qr_scan", "ios": "https://dc.lft.to/lastmile_qr_scan"}, "lon": -76.9387375, "fusion_lat": 0.0}, {"name": "1003ac634d2be0400e5ddb11e75ff7d8", "fusion_lon": 0.0, "lat": 38.90382316666667, "is_reserved": 0, "type": "electric_scooter", "bike_id": "1003ac634d2be0400e5ddb11e75ff7d8", "is_disabled": 0, "rental_uris": {"android": "https://dc.lft.to/lastmile_qr_scan", "ios": "https://dc.lft.to/lastmile_qr_scan"}, "lon": -77.01719016666667, "fusion_lat": 0.0}, {"name": "cb40de3b2e60d1a53d7159c47729c6c8", "fusion_lon": 0.0, "lat": 38.984300166666664, "is_reserved": 0, "type": "electric_scooter", "bike_id": "cb40de3b2e60d1a53d7159c47729c6c8", "is_disabled": 0, "rental_uris": {"android": "https://dc.lft.to/lastmile_qr_scan", "ios": "https://dc.lft.to/lastmile_qr_scan"}, "lon": -77.02672083333333, "fusion_lat": 0.0}, {"name": "eb3ad5e59651cd0561bd59bbc7c1bd21", "fusion_lon": 0.0, "lat": 38.894767333333334, "is_reserved": 0, "type": "electric_scooter", "bike_id": "eb3ad5e59651cd0561bd59bbc7c1bd21", "is_disabled": 0, "rental_uris": {"android": "https://dc.lft.to/lastmile_qr_scan", "ios": "https://dc.lft.to/lastmile_qr_scan"}, "lon": -77.04653183333333, "fusion_lat": 0.0}, {"name": "937837412a86a16c16d7d2a1e452be24", "fusion_lon": 0.0, "lat": 38.892222, "is_reserved": 0, "type": "electric_scooter", "bike_id": "937837412a86a16c16d7d2a1e452be24", "is_disabled": 0, "rental_uris": {"android": "https://dc.lft.to/lastmile_qr_scan", "ios": "https://dc.lft.to/lastmile_qr_scan"}, "lon": -77.04864983333333, "fusion_lat": 0.0}, {"name": "2a9e85d249f89815e4d1c4a7d6abde54", "fusion_lon": 0.0, "lat": 38.90105233333333, "is_reserved": 0, "type": "electric_scooter", "bike_id": "2a9e85d249f89815e4d1c4a7d6abde54", "is_disabled": 0, "rental_uris": {"android": "https://dc.lft.to/lastmile_qr_scan", "ios": "https://dc.lft.to/lastmile_qr_scan"}, "lon": -77.0064895, "fusion_lat": 0.0}, {"name": "4e269ccba74988f69a7ed09c30a05e9a", "fusion_lon": 0.0, "lat": 38.892380333333335, "is_reserved": 0, "type": "electric_scooter", "bike_id": "4e269ccba74988f69a7ed09c30a05e9a", "is_disabled": 0, "rental_uris": {"android": "https://dc.lft.to/lastmile_qr_scan", "ios": "https://dc.lft.to/lastmile_qr_scan"}, "lon": -77.02406233333333, "fusion_lat": 0.0}, {"name": "f2c1a329ef4302e4699f2db8378f9941", "fusion_lon": 0.0, "lat": 38.878310666666664, "is_reserved": 0, "type": "electric_scooter", "bike_id": "f2c1a329ef4302e4699f2db8378f9941", "is_disabled": 0, "rental_uris": {"android": "https://dc.lft.to/lastmile_qr_scan", "ios": "https://dc.lft.to/lastmile_qr_scan"}, "lon": -77.015913, "fusion_lat": 0.0}, {"name": "ecefaeff32f5624c36ad8e4651135bb0", "fusion_lon": 0.0, "lat": 38.917224, "is_reserved": 0, "type": "electric_scooter", "bike_id": "ecefaeff32f5624c36ad8e4651135bb0", "is_disabled": 0, "rental_uris": {"android": "https://dc.lft.to/lastmile_qr_scan", "ios": "https://dc.lft.to/lastmile_qr_scan"}, "lon": -77.03199733333334, "fusion_lat": 0.0}, {"name": "3d8d2e3541cd37ceb139ea2d0c77efb7", "fusion_lon": 0.0, "lat": 38.90756366666667, "is_reserved": 0, "type": "electric_scooter", "bike_id": "3d8d2e3541cd37ceb139ea2d0c77efb7", "is_disabled": 0, "rental_uris": {"android": "https://dc.lft.to/lastmile_qr_scan", "ios": "https://dc.lft.to/lastmile_qr_scan"}, "lon": -77.02599966666666, "fusion_lat": 0.0}, {"name": "7ee0bfa07d26e0493b643599e35c0b62", "fusion_lon": 0.0, "lat": 38.90270783333333, "is_reserved": 0, "type": "electric_scooter", "bike_id": "7ee0bfa07d26e0493b643599e35c0b62", "is_disabled": 0, "rental_uris": {"android": "https://dc.lft.to/lastmile_qr_scan", "ios": "https://dc.lft.to/lastmile_qr_scan"}, "lon": -77.048813, "fusion_lat": 0.0}, {"name": "7f603c3eba6a65cb433fb8a2a9620c9f", "fusion_lon": 0.0, "lat": 38.9203365, "is_reserved": 0, "type": "electric_scooter", "bike_id": "7f603c3eba6a65cb433fb8a2a9620c9f", "is_disabled": 0, "rental_uris": {"android": "https://dc.lft.to/lastmile_qr_scan", "ios": "https://dc.lft.to/lastmile_qr_scan"}, "lon": -77.02583833333334, "fusion_lat": 0.0}, {"name": "3e5ac8607f9cc46fd23b15d0d5050b51", "fusion_lon": 0.0, "lat": 38.929695833333334, "is_reserved": 0, "type": "electric_scooter", "bike_id": "3e5ac8607f9cc46fd23b15d0d5050b51", "is_disabled": 0, "rental_uris": {"android": "https://dc.lft.to/lastmile_qr_scan", "ios": "https://dc.lft.to/lastmile_qr_scan"}, "lon": -77.02748866666667, "fusion_lat": 0.0}, {"name": "37b7a9cf2200b573c8bfc7c7dc398139", "fusion_lon": 0.0, "lat": 38.87104166666667, "is_reserved": 0, "type": "electric_scooter", "bike_id": "37b7a9cf2200b573c8bfc7c7dc398139", "is_disabled": 0, "rental_uris": {"android": "https://dc.lft.to/lastmile_qr_scan", "ios": "https://dc.lft.to/lastmile_qr_scan"}, "lon": -76.965726, "fusion_lat": 0.0}, {"name": "f8fc0900897fa3071015d03d95fbdc80", "fusion_lon": 0.0, "lat": 38.94086316666667, "is_reserved": 0, "type": "electric_scooter", "bike_id": "f8fc0900897fa3071015d03d95fbdc80", "is_disabled": 0, "rental_uris": {"android": "https://dc.lft.to/lastmile_qr_scan", "ios": "https://dc.lft.to/lastmile_qr_scan"}, "lon": -77.02720366666667, "fusion_lat": 0.0}, {"name": "13d84a238f9d3fd7fa2705a94d567106", "fusion_lon": 0.0, "lat": 38.92428016666667, "is_reserved": 0, "type": "electric_scooter", "bike_id": "13d84a238f9d3fd7fa2705a94d567106", "is_disabled": 0, "rental_uris": {"android": "https://dc.lft.to/lastmile_qr_scan", "ios": "https://dc.lft.to/lastmile_qr_scan"}, "lon": -77.04247383333333, "fusion_lat": 0.0}, {"name": "c8c46b893601a71479d52fb4480cd939", "fusion_lon": 0.0, "lat": 38.86695, "is_reserved": 0, "type": "electric_scooter", "bike_id": "c8c46b893601a71479d52fb4480cd939", "is_disabled": 0, "rental_uris": {"android": "https://dc.lft.to/lastmile_qr_scan", "ios": "https://dc.lft.to/lastmile_qr_scan"}, "lon": -76.98715516666667, "fusion_lat": 0.0}, {"name": "598d40a4fc352217bf7559b7d0148b50", "fusion_lon": 0.0, "lat": 39.05284316666667, "is_reserved": 0, "type": "electric_bike", "bike_id": "598d40a4fc352217bf7559b7d0148b50", "is_disabled": 0, "rental_uris": {"android": "https://dc.lft.to/lastmile_qr_scan", "ios": "https://dc.lft.to/lastmile_qr_scan"}, "lon": -77.08070966666666, "fusion_lat": 0.0}, {"name": "d3021b62b9e8af1b704693f64114af2f", "fusion_lon": 0.0, "lat": 38.947895833333334, "is_reserved": 0, "type": "electric_scooter", "bike_id": "d3021b62b9e8af1b704693f64114af2f", "is_disabled": 0, "rental_uris": {"android": "https://dc.lft.to/lastmile_qr_scan", "ios": "https://dc.lft.to/lastmile_qr_scan"}, "lon": -77.08021983333333, "fusion_lat": 0.0}, {"name": "207dbb51be534bb90f85330fc6a50bd1", "fusion_lon": 0.0, "lat": 38.899604333333336, "is_reserved": 0, "type": "electric_scooter", "bike_id": "207dbb51be534bb90f85330fc6a50bd1", "is_disabled": 0, "rental_uris": {"android": "https://dc.lft.to/lastmile_qr_scan", "ios": "https://dc.lft.to/lastmile_qr_scan"}, "lon": -77.01617916666666, "fusion_lat": 0.0}, {"name": "a160cba2e8ac75d8a8526a42ea2b06bc", "fusion_lon": 0.0, "lat": 38.914674833333336, "is_reserved": 0, "type": "electric_scooter", "bike_id": "a160cba2e8ac75d8a8526a42ea2b06bc", "is_disabled": 0, "rental_uris": {"android": "https://dc.lft.to/lastmile_qr_scan", "ios": "https://dc.lft.to/lastmile_qr_scan"}, "lon": -76.98406083333333, "fusion_lat": 0.0}, {"name": "0419467c13e4ed29497dee597bb26fe9", "fusion_lon": 0.0, "lat": 38.915953333333334, "is_reserved": 0, "type": "electric_scooter", "bike_id": "0419467c13e4ed29497dee597bb26fe9", "is_disabled": 0, "rental_uris": {"android": "https://dc.lft.to/lastmile_qr_scan", "ios": "https://dc.lft.to/lastmile_qr_scan"}, "lon": -76.98378683333334, "fusion_lat": 0.0}, {"name": "6898d9c625da8a74f0926fbb96f3c9c4", "fusion_lon": 0.0, "lat": 38.901299, "is_reserved": 0, "type": "electric_scooter", "bike_id": "6898d9c625da8a74f0926fbb96f3c9c4", "is_disabled": 0, "rental_uris": {"android": "https://dc.lft.to/lastmile_qr_scan", "ios": "https://dc.lft.to/lastmile_qr_scan"}, "lon": -77.041323, "fusion_lat": 0.0}, {"name": "3f9c2bd87dc4a2b8018d989beef94644", "fusion_lon": 0.0, "lat": 38.91838816666667, "is_reserved": 0, "type": "electric_scooter", "bike_id": "3f9c2bd87dc4a2b8018d989beef94644", "is_disabled": 0, "rental_uris": {"android": "https://dc.lft.to/lastmile_qr_scan", "ios": "https://dc.lft.to/lastmile_qr_scan"}, "lon": -77.0318095, "fusion_lat": 0.0}, {"name": "790b86bce37d1fa9a5f5165511a18669", "fusion_lon": 0.0, "lat": 38.86215083333333, "is_reserved": 0, "type": "electric_scooter", "bike_id": "790b86bce37d1fa9a5f5165511a18669", "is_disabled": 0, "rental_uris": {"android": "https://dc.lft.to/lastmile_qr_scan", "ios": "https://dc.lft.to/lastmile_qr_scan"}, "lon": -76.99476733333333, "fusion_lat": 0.0}, {"name": "9fa320153989599e02e8e83b2b225bde", "fusion_lon": 0.0, "lat": 38.91112366666667, "is_reserved": 0, "type": "electric_scooter", "bike_id": "9fa320153989599e02e8e83b2b225bde", "is_disabled": 0, "rental_uris": {"android": "https://dc.lft.to/lastmile_qr_scan", "ios": "https://dc.lft.to/lastmile_qr_scan"}, "lon": -77.00363133333333, "fusion_lat": 0.0}, {"name": "af40f1e2619109416be04f480055eee2", "fusion_lon": 0.0, "lat": 38.921312, "is_reserved": 0, "type": "electric_scooter", "bike_id": "af40f1e2619109416be04f480055eee2", "is_disabled": 0, "rental_uris": {"android": "https://dc.lft.to/lastmile_qr_scan", "ios": "https://dc.lft.to/lastmile_qr_scan"}, "lon": -76.9956995, "fusion_lat": 0.0}, {"name": "20ac599c6d01c235d63298a48a93a9de", "fusion_lon": 0.0, "lat": 38.8666035, "is_reserved": 0, "type": "electric_scooter", "bike_id": "20ac599c6d01c235d63298a48a93a9de", "is_disabled": 0, "rental_uris": {"android": "https://dc.lft.to/lastmile_qr_scan", "ios": "https://dc.lft.to/lastmile_qr_scan"}, "lon": -76.988833, "fusion_lat": 0.0}, {"name": "9de2544d41c77fdee6a6f584c358c302", "fusion_lon": 0.0, "lat": 38.8783055, "is_reserved": 0, "type": "electric_scooter", "bike_id": "9de2544d41c77fdee6a6f584c358c302", "is_disabled": 0, "rental_uris": {"android": "https://dc.lft.to/lastmile_qr_scan", "ios": "https://dc.lft.to/lastmile_qr_scan"}, "lon": -76.96303783333333, "fusion_lat": 0.0}, {"name": "9b030cfdd0a454a9fd952d5ea1206415", "fusion_lon": 0.0, "lat": 38.895289166666664, "is_reserved": 0, "type": "electric_scooter", "bike_id": "9b030cfdd0a454a9fd952d5ea1206415", "is_disabled": 0, "rental_uris": {"android": "https://dc.lft.to/lastmile_qr_scan", "ios": "https://dc.lft.to/lastmile_qr_scan"}, "lon": -77.028514, "fusion_lat": 0.0}, {"name": "bed948c2774986ebd4b03c2218dd344c", "fusion_lon": 0.0, "lat": 38.9147905, "is_reserved": 0, "type": "electric_scooter", "bike_id": "bed948c2774986ebd4b03c2218dd344c", "is_disabled": 0, "rental_uris": {"android": "https://dc.lft.to/lastmile_qr_scan", "ios": "https://dc.lft.to/lastmile_qr_scan"}, "lon": -77.0450235, "fusion_lat": 0.0}, {"name": "a668aee00f7ac1df10dc5857920209f2", "fusion_lon": 0.0, "lat": 38.929695, "is_reserved": 0, "type": "electric_scooter", "bike_id": "a668aee00f7ac1df10dc5857920209f2", "is_disabled": 0, "rental_uris": {"android": "https://dc.lft.to/lastmile_qr_scan", "ios": "https://dc.lft.to/lastmile_qr_scan"}, "lon": -77.03118316666666, "fusion_lat": 0.0}, {"name": "1074d0324140a418c057959cc5140553", "fusion_lon": 0.0, "lat": 38.922469, "is_reserved": 0, "type": "electric_scooter", "bike_id": "1074d0324140a418c057959cc5140553", "is_disabled": 0, "rental_uris": {"android": "https://dc.lft.to/lastmile_qr_scan", "ios": "https://dc.lft.to/lastmile_qr_scan"}, "lon": -77.01834083333334, "fusion_lat": 0.0}, {"name": "99daaabf96345f52b77d2362effb4d9c", "fusion_lon": 0.0, "lat": 38.98136183333333, "is_reserved": 0, "type": "electric_scooter", "bike_id": "99daaabf96345f52b77d2362effb4d9c", "is_disabled": 0, "rental_uris": {"android": "https://dc.lft.to/lastmile_qr_scan", "ios": "https://dc.lft.to/lastmile_qr_scan"}, "lon": -77.022321, "fusion_lat": 0.0}, {"name": "d3ccc2db6f8ea93f71e677069fd71307", "fusion_lon": 0.0, "lat": 38.91061283333333, "is_reserved": 0, "type": "electric_scooter", "bike_id": "d3ccc2db6f8ea93f71e677069fd71307", "is_disabled": 0, "rental_uris": {"android": "https://dc.lft.to/lastmile_qr_scan", "ios": "https://dc.lft.to/lastmile_qr_scan"}, "lon": -77.0308885, "fusion_lat": 0.0}, {"name": "8d8b8744d14d111a9b5ef96662de07a2", "fusion_lon": 0.0, "lat": 38.9191155, "is_reserved": 0, "type": "electric_scooter", "bike_id": "8d8b8744d14d111a9b5ef96662de07a2", "is_disabled": 0, "rental_uris": {"android": "https://dc.lft.to/lastmile_qr_scan", "ios": "https://dc.lft.to/lastmile_qr_scan"}, "lon": -77.03180683333333, "fusion_lat": 0.0}, {"name": "da160e3f05a2f72f125c2feae7b8e921", "fusion_lon": 0.0, "lat": 38.90250116666667, "is_reserved": 0, "type": "electric_scooter", "bike_id": "da160e3f05a2f72f125c2feae7b8e921", "is_disabled": 0, "rental_uris": {"android": "https://dc.lft.to/lastmile_qr_scan", "ios": "https://dc.lft.to/lastmile_qr_scan"}, "lon": -77.02807983333334, "fusion_lat": 0.0}, {"name": "41be871d0f659c29712016d4c0686e78", "fusion_lon": 0.0, "lat": 38.903693, "is_reserved": 0, "type": "electric_scooter", "bike_id": "41be871d0f659c29712016d4c0686e78", "is_disabled": 0, "rental_uris": {"android": "https://dc.lft.to/lastmile_qr_scan", "ios": "https://dc.lft.to/lastmile_qr_scan"}, "lon": -77.04503016666666, "fusion_lat": 0.0}, {"name": "0ff8376c40658f1828a96ef3dc0f9976", "fusion_lon": 0.0, "lat": 38.903854, "is_reserved": 0, "type": "electric_scooter", "bike_id": "0ff8376c40658f1828a96ef3dc0f9976", "is_disabled": 0, "rental_uris": {"android": "https://dc.lft.to/lastmile_qr_scan", "ios": "https://dc.lft.to/lastmile_qr_scan"}, "lon": -77.01993916666666, "fusion_lat": 0.0}, {"name": "872e8a07e86f723315e4188a3b60de86", "fusion_lon": 0.0, "lat": 38.933577166666666, "is_reserved": 0, "type": "electric_scooter", "bike_id": "872e8a07e86f723315e4188a3b60de86", "is_disabled": 0, "rental_uris": {"android": "https://dc.lft.to/lastmile_qr_scan", "ios": "https://dc.lft.to/lastmile_qr_scan"}, "lon": -77.08856166666666, "fusion_lat": 0.0}, {"name": "b75480bf32da9b04a1f59753ee2bdc83", "fusion_lon": 0.0, "lat": 38.893551, "is_reserved": 0, "type": "electric_scooter", "bike_id": "b75480bf32da9b04a1f59753ee2bdc83", "is_disabled": 0, "rental_uris": {"android": "https://dc.lft.to/lastmile_qr_scan", "ios": "https://dc.lft.to/lastmile_qr_scan"}, "lon": -77.00332466666667, "fusion_lat": 0.0}, {"name": "cbe2ac84b8d154548b08fb1903218384", "fusion_lon": 0.0, "lat": 38.907760333333336, "is_reserved": 0, "type": "electric_scooter", "bike_id": "cbe2ac84b8d154548b08fb1903218384", "is_disabled": 0, "rental_uris": {"android": "https://dc.lft.to/lastmile_qr_scan", "ios": "https://dc.lft.to/lastmile_qr_scan"}, "lon": -77.01106666666666, "fusion_lat": 0.0}, {"name": "924af231fd3a72d5b3cc1fc05d52ba1b", "fusion_lon": 0.0, "lat": 38.91206, "is_reserved": 0, "type": "electric_scooter", "bike_id": "924af231fd3a72d5b3cc1fc05d52ba1b", "is_disabled": 0, "rental_uris": {"android": "https://dc.lft.to/lastmile_qr_scan", "ios": "https://dc.lft.to/lastmile_qr_scan"}, "lon": -77.00201733333333, "fusion_lat": 0.0}, {"name": "9c2d2ad6bafdc28db97e4404d8f734ac", "fusion_lon": 0.0, "lat": 38.90271716666667, "is_reserved": 0, "type": "electric_scooter", "bike_id": "9c2d2ad6bafdc28db97e4404d8f734ac", "is_disabled": 0, "rental_uris": {"android": "https://dc.lft.to/lastmile_qr_scan", "ios": "https://dc.lft.to/lastmile_qr_scan"}, "lon": -77.0396865, "fusion_lat": 0.0}, {"name": "f41702d78998fccf7afe080095651af1", "fusion_lon": 0.0, "lat": 38.909418333333335, "is_reserved": 0, "type": "electric_scooter", "bike_id": "f41702d78998fccf7afe080095651af1", "is_disabled": 0, "rental_uris": {"android": "https://dc.lft.to/lastmile_qr_scan", "ios": "https://dc.lft.to/lastmile_qr_scan"}, "lon": -77.03198983333333, "fusion_lat": 0.0}, {"name": "a26cc8df1ce64fb1471e4966e6041728", "fusion_lon": 0.0, "lat": 38.90286666666667, "is_reserved": 0, "type": "electric_scooter", "bike_id": "a26cc8df1ce64fb1471e4966e6041728", "is_disabled": 0, "rental_uris": {"android": "https://dc.lft.to/lastmile_qr_scan", "ios": "https://dc.lft.to/lastmile_qr_scan"}, "lon": -77.03447683333333, "fusion_lat": 0.0}, {"name": "430d40f3d7cfa7c339823610f18c0468", "fusion_lon": 0.0, "lat": 38.903625166666664, "is_reserved": 0, "type": "electric_scooter", "bike_id": "430d40f3d7cfa7c339823610f18c0468", "is_disabled": 0, "rental_uris": {"android": "https://dc.lft.to/lastmile_qr_scan", "ios": "https://dc.lft.to/lastmile_qr_scan"}, "lon": -77.0449245, "fusion_lat": 0.0}, {"name": "ec484c99bd2be9ad81eed27e951516b9", "fusion_lon": 0.0, "lat": 38.93384533333333, "is_reserved": 0, "type": "electric_scooter", "bike_id": "ec484c99bd2be9ad81eed27e951516b9", "is_disabled": 0, "rental_uris": {"android": "https://dc.lft.to/lastmile_qr_scan", "ios": "https://dc.lft.to/lastmile_qr_scan"}, "lon": -77.03095416666666, "fusion_lat": 0.0}, {"name": "dc4f7f77deb3e5bfbe23c77848bb3ae1", "fusion_lon": 0.0, "lat": 38.90279666666667, "is_reserved": 0, "type": "electric_scooter", "bike_id": "dc4f7f77deb3e5bfbe23c77848bb3ae1", "is_disabled": 0, "rental_uris": {"android": "https://dc.lft.to/lastmile_qr_scan", "ios": "https://dc.lft.to/lastmile_qr_scan"}, "lon": -77.01741583333333, "fusion_lat": 0.0}, {"name": "efce3eef797ff09989bf32c56a3129dd", "fusion_lon": 0.0, "lat": 38.9223755, "is_reserved": 0, "type": "electric_scooter", "bike_id": "efce3eef797ff09989bf32c56a3129dd", "is_disabled": 0, "rental_uris": {"android": "https://dc.lft.to/lastmile_qr_scan", "ios": "https://dc.lft.to/lastmile_qr_scan"}, "lon": -77.04248383333334, "fusion_lat": 0.0}, {"name": "92160f967c18604e185464e413d77f4e", "fusion_lon": 0.0, "lat": 38.90552816666667, "is_reserved": 0, "type": "electric_scooter", "bike_id": "92160f967c18604e185464e413d77f4e", "is_disabled": 0, "rental_uris": {"android": "https://dc.lft.to/lastmile_qr_scan", "ios": "https://dc.lft.to/lastmile_qr_scan"}, "lon": -77.00281416666667, "fusion_lat": 0.0}, {"name": "09c9d923f9017acddf6701aba446dfc7", "fusion_lon": 0.0, "lat": 38.914555666666665, "is_reserved": 0, "type": "electric_scooter", "bike_id": "09c9d923f9017acddf6701aba446dfc7", "is_disabled": 0, "rental_uris": {"android": "https://dc.lft.to/lastmile_qr_scan", "ios": "https://dc.lft.to/lastmile_qr_scan"}, "lon": -77.07130283333333, "fusion_lat": 0.0}, {"name": "01729955dd468acd4b29f74440f143d9", "fusion_lon": 0.0, "lat": 38.92407566666667, "is_reserved": 0, "type": "electric_scooter", "bike_id": "01729955dd468acd4b29f74440f143d9", "is_disabled": 0, "rental_uris": {"android": "https://dc.lft.to/lastmile_qr_scan", "ios": "https://dc.lft.to/lastmile_qr_scan"}, "lon": -77.05165216666667, "fusion_lat": 0.0}, {"name": "72a3e0f15aa2028a3c1783ecbfbb524c", "fusion_lon": 0.0, "lat": 38.9056495, "is_reserved": 0, "type": "electric_scooter", "bike_id": "72a3e0f15aa2028a3c1783ecbfbb524c", "is_disabled": 0, "rental_uris": {"android": "https://dc.lft.to/lastmile_qr_scan", "ios": "https://dc.lft.to/lastmile_qr_scan"}, "lon": -77.025001, "fusion_lat": 0.0}, {"name": "79fa5461313a501d53041a0ac7200f66", "fusion_lon": 0.0, "lat": 38.90822633333333, "is_reserved": 0, "type": "electric_scooter", "bike_id": "79fa5461313a501d53041a0ac7200f66", "is_disabled": 0, "rental_uris": {"android": "https://dc.lft.to/lastmile_qr_scan", "ios": "https://dc.lft.to/lastmile_qr_scan"}, "lon": -77.02378216666666, "fusion_lat": 0.0}, {"name": "cf4052f5e547d6ffac1dfde6828c44a0", "fusion_lon": 0.0, "lat": 38.9193515, "is_reserved": 0, "type": "electric_scooter", "bike_id": "cf4052f5e547d6ffac1dfde6828c44a0", "is_disabled": 0, "rental_uris": {"android": "https://dc.lft.to/lastmile_qr_scan", "ios": "https://dc.lft.to/lastmile_qr_scan"}, "lon": -77.03175133333333, "fusion_lat": 0.0}, {"name": "3d80cc604f25fd65b8b8314cad4b506b", "fusion_lon": 0.0, "lat": 38.916186, "is_reserved": 0, "type": "electric_scooter", "bike_id": "3d80cc604f25fd65b8b8314cad4b506b", "is_disabled": 0, "rental_uris": {"android": "https://dc.lft.to/lastmile_qr_scan", "ios": "https://dc.lft.to/lastmile_qr_scan"}, "lon": -77.03978316666667, "fusion_lat": 0.0}, {"name": "4eeee94e67b9090a88e546f663e23739", "fusion_lon": 0.0, "lat": 38.88268433333333, "is_reserved": 0, "type": "electric_scooter", "bike_id": "4eeee94e67b9090a88e546f663e23739", "is_disabled": 0, "rental_uris": {"android": "https://dc.lft.to/lastmile_qr_scan", "ios": "https://dc.lft.to/lastmile_qr_scan"}, "lon": -76.99253533333334, "fusion_lat": 0.0}, {"name": "622245fc1601693da7508a8c6217fa99", "fusion_lon": 0.0, "lat": 38.93634566666667, "is_reserved": 0, "type": "electric_scooter", "bike_id": "622245fc1601693da7508a8c6217fa99", "is_disabled": 0, "rental_uris": {"android": "https://dc.lft.to/lastmile_qr_scan", "ios": "https://dc.lft.to/lastmile_qr_scan"}, "lon": -77.058839, "fusion_lat": 0.0}, {"name": "c0370c0358e41b23eca125d2775401b9", "fusion_lon": 0.0, "lat": 38.90057866666667, "is_reserved": 0, "type": "electric_scooter", "bike_id": "c0370c0358e41b23eca125d2775401b9", "is_disabled": 0, "rental_uris": {"android": "https://dc.lft.to/lastmile_qr_scan", "ios": "https://dc.lft.to/lastmile_qr_scan"}, "lon": -77.01791316666667, "fusion_lat": 0.0}, {"name": "d5f29b31f33f39249bf1e86bbf4732bd", "fusion_lon": 0.0, "lat": 38.90610083333333, "is_reserved": 0, "type": "electric_scooter", "bike_id": "d5f29b31f33f39249bf1e86bbf4732bd", "is_disabled": 0, "rental_uris": {"android": "https://dc.lft.to/lastmile_qr_scan", "ios": "https://dc.lft.to/lastmile_qr_scan"}, "lon": -77.0404685, "fusion_lat": 0.0}, {"name": "d6aafd27a125f809a20ef7405579458e", "fusion_lon": 0.0, "lat": 38.903059999999996, "is_reserved": 0, "type": "electric_scooter", "bike_id": "d6aafd27a125f809a20ef7405579458e", "is_disabled": 0, "rental_uris": {"android": "https://dc.lft.to/lastmile_qr_scan", "ios": "https://dc.lft.to/lastmile_qr_scan"}, "lon": -76.9907435, "fusion_lat": 0.0}, {"name": "fd473fed409faca7e3a855b14371cb79", "fusion_lon": 0.0, "lat": 38.90433216666667, "is_reserved": 0, "type": "electric_scooter", "bike_id": "fd473fed409faca7e3a855b14371cb79", "is_disabled": 0, "rental_uris": {"android": "https://dc.lft.to/lastmile_qr_scan", "ios": "https://dc.lft.to/lastmile_qr_scan"}, "lon": -76.98486766666667, "fusion_lat": 0.0}, {"name": "74902c7dedd391bd468944142f275b0e", "fusion_lon": 0.0, "lat": 38.9002395, "is_reserved": 0, "type": "electric_scooter", "bike_id": "74902c7dedd391bd468944142f275b0e", "is_disabled": 0, "rental_uris": {"android": "https://dc.lft.to/lastmile_qr_scan", "ios": "https://dc.lft.to/lastmile_qr_scan"}, "lon": -76.98050783333333, "fusion_lat": 0.0}, {"name": "70210a71da7a5a6f2cfe1527234d7cb7", "fusion_lon": 0.0, "lat": 38.95182766666667, "is_reserved": 0, "type": "electric_scooter", "bike_id": "70210a71da7a5a6f2cfe1527234d7cb7", "is_disabled": 0, "rental_uris": {"android": "https://dc.lft.to/lastmile_qr_scan", "ios": "https://dc.lft.to/lastmile_qr_scan"}, "lon": -77.02727416666667, "fusion_lat": 0.0}, {"name": "e82ad073aaa5b531cb156453cde69310", "fusion_lon": 0.0, "lat": 38.9286985, "is_reserved": 0, "type": "electric_scooter", "bike_id": "e82ad073aaa5b531cb156453cde69310", "is_disabled": 0, "rental_uris": {"android": "https://dc.lft.to/lastmile_qr_scan", "ios": "https://dc.lft.to/lastmile_qr_scan"}, "lon": -77.03224683333333, "fusion_lat": 0.0}, {"name": "555d89b8f33957d153abe4d09bb39ef7", "fusion_lon": 0.0, "lat": 38.9575855, "is_reserved": 0, "type": "electric_scooter", "bike_id": "555d89b8f33957d153abe4d09bb39ef7", "is_disabled": 0, "rental_uris": {"android": "https://dc.lft.to/lastmile_qr_scan", "ios": "https://dc.lft.to/lastmile_qr_scan"}, "lon": -77.02095616666666, "fusion_lat": 0.0}, {"name": "93875b5788c5f9c607da50479773cfd9", "fusion_lon": 0.0, "lat": 38.896085666666664, "is_reserved": 0, "type": "electric_scooter", "bike_id": "93875b5788c5f9c607da50479773cfd9", "is_disabled": 0, "rental_uris": {"android": "https://dc.lft.to/lastmile_qr_scan", "ios": "https://dc.lft.to/lastmile_qr_scan"}, "lon": -77.02968766666666, "fusion_lat": 0.0}, {"name": "48d76ba1c116c415ddfec224f4100818", "fusion_lon": 0.0, "lat": 38.901777, "is_reserved": 0, "type": "electric_scooter", "bike_id": "48d76ba1c116c415ddfec224f4100818", "is_disabled": 0, "rental_uris": {"android": "https://dc.lft.to/lastmile_qr_scan", "ios": "https://dc.lft.to/lastmile_qr_scan"}, "lon": -77.02477183333333, "fusion_lat": 0.0}, {"name": "85e086a452374b1c0316515c582b8fea", "fusion_lon": 0.0, "lat": 38.834534166666664, "is_reserved": 0, "type": "electric_scooter", "bike_id": "85e086a452374b1c0316515c582b8fea", "is_disabled": 0, "rental_uris": {"android": "https://dc.lft.to/lastmile_qr_scan", "ios": "https://dc.lft.to/lastmile_qr_scan"}, "lon": -76.99076883333333, "fusion_lat": 0.0}, {"name": "d057f496ce62221ae466200ed23c9db4", "fusion_lon": 0.0, "lat": 38.90370216666667, "is_reserved": 0, "type": "electric_scooter", "bike_id": "d057f496ce62221ae466200ed23c9db4", "is_disabled": 0, "rental_uris": {"android": "https://dc.lft.to/lastmile_qr_scan", "ios": "https://dc.lft.to/lastmile_qr_scan"}, "lon": -77.0400375, "fusion_lat": 0.0}, {"name": "efa0a7f6f268feace29d8d1ae5c47002", "fusion_lon": 0.0, "lat": 38.9119275, "is_reserved": 0, "type": "electric_scooter", "bike_id": "efa0a7f6f268feace29d8d1ae5c47002", "is_disabled": 0, "rental_uris": {"android": "https://dc.lft.to/lastmile_qr_scan", "ios": "https://dc.lft.to/lastmile_qr_scan"}, "lon": -77.01779116666667, "fusion_lat": 0.0}, {"name": "c3bb923203dd129146dfff80af2a4842", "fusion_lon": 0.0, "lat": 38.92598433333333, "is_reserved": 0, "type": "electric_scooter", "bike_id": "c3bb923203dd129146dfff80af2a4842", "is_disabled": 0, "rental_uris": {"android": "https://dc.lft.to/lastmile_qr_scan", "ios": "https://dc.lft.to/lastmile_qr_scan"}, "lon": -77.06628316666666, "fusion_lat": 0.0}, {"name": "07dbc87ceffb4484c65aba955ad24f08", "fusion_lon": 0.0, "lat": 38.919843, "is_reserved": 0, "type": "electric_scooter", "bike_id": "07dbc87ceffb4484c65aba955ad24f08", "is_disabled": 0, "rental_uris": {"android": "https://dc.lft.to/lastmile_qr_scan", "ios": "https://dc.lft.to/lastmile_qr_scan"}, "lon": -77.041665, "fusion_lat": 0.0}, {"name": "4229aba128a466fbe00ca1df8a39c079", "fusion_lon": 0.0, "lat": 38.9013335, "is_reserved": 0, "type": "electric_scooter", "bike_id": "4229aba128a466fbe00ca1df8a39c079", "is_disabled": 0, "rental_uris": {"android": "https://dc.lft.to/lastmile_qr_scan", "ios": "https://dc.lft.to/lastmile_qr_scan"}, "lon": -77.050099, "fusion_lat": 0.0}, {"name": "641a7d78d056d0e24335fcacde69ef80", "fusion_lon": 0.0, "lat": 38.882438, "is_reserved": 0, "type": "electric_scooter", "bike_id": "641a7d78d056d0e24335fcacde69ef80", "is_disabled": 0, "rental_uris": {"android": "https://dc.lft.to/lastmile_qr_scan", "ios": "https://dc.lft.to/lastmile_qr_scan"}, "lon": -76.9911875, "fusion_lat": 0.0}, {"name": "0262afca2e65992da189ba51473746ed", "fusion_lon": 0.0, "lat": 38.9040965, "is_reserved": 0, "type": "electric_scooter", "bike_id": "0262afca2e65992da189ba51473746ed", "is_disabled": 0, "rental_uris": {"android": "https://dc.lft.to/lastmile_qr_scan", "ios": "https://dc.lft.to/lastmile_qr_scan"}, "lon": -76.97332216666666, "fusion_lat": 0.0}, {"name": "71250d1d13c729d4e2107e6ceccb5d5b", "fusion_lon": 0.0, "lat": 38.896047333333335, "is_reserved": 0, "type": "electric_scooter", "bike_id": "71250d1d13c729d4e2107e6ceccb5d5b", "is_disabled": 0, "rental_uris": {"android": "https://dc.lft.to/lastmile_qr_scan", "ios": "https://dc.lft.to/lastmile_qr_scan"}, "lon": -77.04558, "fusion_lat": 0.0}, {"name": "f540d32b0feb852c634902045eb09afa", "fusion_lon": 0.0, "lat": 38.91871483333333, "is_reserved": 0, "type": "electric_scooter", "bike_id": "f540d32b0feb852c634902045eb09afa", "is_disabled": 0, "rental_uris": {"android": "https://dc.lft.to/lastmile_qr_scan", "ios": "https://dc.lft.to/lastmile_qr_scan"}, "lon": -77.04758116666666, "fusion_lat": 0.0}, {"name": "bc2c5b82a48e71d55d9672bfd3cc9f40", "fusion_lon": 0.0, "lat": 38.9251405, "is_reserved": 0, "type": "electric_scooter", "bike_id": "bc2c5b82a48e71d55d9672bfd3cc9f40", "is_disabled": 0, "rental_uris": {"android": "https://dc.lft.to/lastmile_qr_scan", "ios": "https://dc.lft.to/lastmile_qr_scan"}, "lon": -77.03889116666667, "fusion_lat": 0.0}, {"name": "a946d16e9a21f304be5da91e7fb5f9ea", "fusion_lon": 0.0, "lat": 38.91171083333333, "is_reserved": 0, "type": "electric_scooter", "bike_id": "a946d16e9a21f304be5da91e7fb5f9ea", "is_disabled": 0, "rental_uris": {"android": "https://dc.lft.to/lastmile_qr_scan", "ios": "https://dc.lft.to/lastmile_qr_scan"}, "lon": -77.03832416666667, "fusion_lat": 0.0}, {"name": "8855e9e737ebf95fce83d691a9447b62", "fusion_lon": 0.0, "lat": 38.90371616666667, "is_reserved": 0, "type": "electric_scooter", "bike_id": "8855e9e737ebf95fce83d691a9447b62", "is_disabled": 0, "rental_uris": {"android": "https://dc.lft.to/lastmile_qr_scan", "ios": "https://dc.lft.to/lastmile_qr_scan"}, "lon": -77.039816, "fusion_lat": 0.0}, {"name": "031e5286345a0b0dab71c36c7ea60b60", "fusion_lon": 0.0, "lat": 38.906298, "is_reserved": 0, "type": "electric_scooter", "bike_id": "031e5286345a0b0dab71c36c7ea60b60", "is_disabled": 0, "rental_uris": {"android": "https://dc.lft.to/lastmile_qr_scan", "ios": "https://dc.lft.to/lastmile_qr_scan"}, "lon": -77.04139116666667, "fusion_lat": 0.0}, {"name": "4f0c886fd52791a3eacd5d5f0a33102c", "fusion_lon": 0.0, "lat": 38.915522333333335, "is_reserved": 0, "type": "electric_scooter", "bike_id": "4f0c886fd52791a3eacd5d5f0a33102c", "is_disabled": 0, "rental_uris": {"android": "https://dc.lft.to/lastmile_qr_scan", "ios": "https://dc.lft.to/lastmile_qr_scan"}, "lon": -77.04177766666666, "fusion_lat": 0.0}, {"name": "a8a141e64cad8943c57ebd1686ad39b3", "fusion_lon": 0.0, "lat": 38.95734233333334, "is_reserved": 0, "type": "electric_scooter", "bike_id": "a8a141e64cad8943c57ebd1686ad39b3", "is_disabled": 0, "rental_uris": {"android": "https://dc.lft.to/lastmile_qr_scan", "ios": "https://dc.lft.to/lastmile_qr_scan"}, "lon": -77.023974, "fusion_lat": 0.0}, {"name": "e612fd50c53716cf5556a57097f555ea", "fusion_lon": 0.0, "lat": 38.9071935, "is_reserved": 0, "type": "electric_scooter", "bike_id": "e612fd50c53716cf5556a57097f555ea", "is_disabled": 0, "rental_uris": {"android": "https://dc.lft.to/lastmile_qr_scan", "ios": "https://dc.lft.to/lastmile_qr_scan"}, "lon": -77.07613833333333, "fusion_lat": 0.0}, {"name": "71ec3b52a913dd091bfd1a522f704ace", "fusion_lon": 0.0, "lat": 38.888479833333335, "is_reserved": 0, "type": "electric_scooter", "bike_id": "71ec3b52a913dd091bfd1a522f704ace", "is_disabled": 0, "rental_uris": {"android": "https://dc.lft.to/lastmile_qr_scan", "ios": "https://dc.lft.to/lastmile_qr_scan"}, "lon": -76.92677016666667, "fusion_lat": 0.0}, {"name": "9c7e226902c2066b1eb73b2b77e05425", "fusion_lon": 0.0, "lat": 38.89846416666666, "is_reserved": 0, "type": "electric_scooter", "bike_id": "9c7e226902c2066b1eb73b2b77e05425", "is_disabled": 0, "rental_uris": {"android": "https://dc.lft.to/lastmile_qr_scan", "ios": "https://dc.lft.to/lastmile_qr_scan"}, "lon": -77.02869516666667, "fusion_lat": 0.0}, {"name": "656c9c95167d053e583295ce135c6ce2", "fusion_lon": 0.0, "lat": 38.928704833333335, "is_reserved": 0, "type": "electric_scooter", "bike_id": "656c9c95167d053e583295ce135c6ce2", "is_disabled": 0, "rental_uris": {"android": "https://dc.lft.to/lastmile_qr_scan", "ios": "https://dc.lft.to/lastmile_qr_scan"}, "lon": -77.028532, "fusion_lat": 0.0}, {"name": "abc07d582d2f64168ff58cc0ce01145f", "fusion_lon": 0.0, "lat": 38.92514933333333, "is_reserved": 0, "type": "electric_scooter", "bike_id": "abc07d582d2f64168ff58cc0ce01145f", "is_disabled": 0, "rental_uris": {"android": "https://dc.lft.to/lastmile_qr_scan", "ios": "https://dc.lft.to/lastmile_qr_scan"}, "lon": -77.02365533333334, "fusion_lat": 0.0}, {"name": "02f46cd678b375e7f4bc863306e7cf57", "fusion_lon": 0.0, "lat": 38.8843195, "is_reserved": 0, "type": "electric_scooter", "bike_id": "02f46cd678b375e7f4bc863306e7cf57", "is_disabled": 0, "rental_uris": {"android": "https://dc.lft.to/lastmile_qr_scan", "ios": "https://dc.lft.to/lastmile_qr_scan"}, "lon": -76.95747166666666, "fusion_lat": 0.0}, {"name": "51a7f6887bb9b9a761d53d5de143dee8", "fusion_lon": 0.0, "lat": 38.93580383333333, "is_reserved": 0, "type": "electric_scooter", "bike_id": "51a7f6887bb9b9a761d53d5de143dee8", "is_disabled": 0, "rental_uris": {"android": "https://dc.lft.to/lastmile_qr_scan", "ios": "https://dc.lft.to/lastmile_qr_scan"}, "lon": -77.02125066666666, "fusion_lat": 0.0}, {"name": "f030907e707268d069a375f27c2f1811", "fusion_lon": 0.0, "lat": 38.9365365, "is_reserved": 0, "type": "electric_scooter", "bike_id": "f030907e707268d069a375f27c2f1811", "is_disabled": 0, "rental_uris": {"android": "https://dc.lft.to/lastmile_qr_scan", "ios": "https://dc.lft.to/lastmile_qr_scan"}, "lon": -77.02636066666666, "fusion_lat": 0.0}, {"name": "4738efff87a6331b6ab31dcbf68325fb", "fusion_lon": 0.0, "lat": 38.90740783333333, "is_reserved": 0, "type": "electric_scooter", "bike_id": "4738efff87a6331b6ab31dcbf68325fb", "is_disabled": 0, "rental_uris": {"android": "https://dc.lft.to/lastmile_qr_scan", "ios": "https://dc.lft.to/lastmile_qr_scan"}, "lon": -77.00931783333333, "fusion_lat": 0.0}, {"name": "61b2060fab6359abd34f4d2e99d3374f", "fusion_lon": 0.0, "lat": 38.918412833333335, "is_reserved": 0, "type": "electric_scooter", "bike_id": "61b2060fab6359abd34f4d2e99d3374f", "is_disabled": 0, "rental_uris": {"android": "https://dc.lft.to/lastmile_qr_scan", "ios": "https://dc.lft.to/lastmile_qr_scan"}, "lon": -77.040271, "fusion_lat": 0.0}, {"name": "46d549bd111250355ae03f8b178b6625", "fusion_lon": 0.0, "lat": 38.900441666666666, "is_reserved": 0, "type": "electric_bike", "bike_id": "46d549bd111250355ae03f8b178b6625", "is_disabled": 0, "rental_uris": {"android": "https://dc.lft.to/lastmile_qr_scan", "ios": "https://dc.lft.to/lastmile_qr_scan"}, "lon": -77.0271935, "fusion_lat": 0.0}, {"name": "af0b1fa37bee1afaf7796cf23d93cf4f", "fusion_lon": 0.0, "lat": 38.91971, "is_reserved": 0, "type": "electric_scooter", "bike_id": "af0b1fa37bee1afaf7796cf23d93cf4f", "is_disabled": 0, "rental_uris": {"android": "https://dc.lft.to/lastmile_qr_scan", "ios": "https://dc.lft.to/lastmile_qr_scan"}, "lon": -77.019116, "fusion_lat": 0.0}, {"name": "e31a1d9c941ae94d7092f678114b6d0a", "fusion_lon": 0.0, "lat": 38.8717885, "is_reserved": 0, "type": "electric_scooter", "bike_id": "e31a1d9c941ae94d7092f678114b6d0a", "is_disabled": 0, "rental_uris": {"android": "https://dc.lft.to/lastmile_qr_scan", "ios": "https://dc.lft.to/lastmile_qr_scan"}, "lon": -77.006116, "fusion_lat": 0.0}, {"name": "0fcb62451ff0ed2ba245347c2d478710", "fusion_lon": 0.0, "lat": 38.9248735, "is_reserved": 0, "type": "electric_scooter", "bike_id": "0fcb62451ff0ed2ba245347c2d478710", "is_disabled": 0, "rental_uris": {"android": "https://dc.lft.to/lastmile_qr_scan", "ios": "https://dc.lft.to/lastmile_qr_scan"}, "lon": -77.02133033333334, "fusion_lat": 0.0}, {"name": "ebe1abec7e82fdf555819144522b520c", "fusion_lon": 0.0, "lat": 38.90192, "is_reserved": 0, "type": "electric_scooter", "bike_id": "ebe1abec7e82fdf555819144522b520c", "is_disabled": 0, "rental_uris": {"android": "https://dc.lft.to/lastmile_qr_scan", "ios": "https://dc.lft.to/lastmile_qr_scan"}, "lon": -77.01301116666667, "fusion_lat": 0.0}, {"name": "32577b6b219ba6051ae7fa9f74b77b11", "fusion_lon": 0.0, "lat": 38.88745816666667, "is_reserved": 0, "type": "electric_scooter", "bike_id": "32577b6b219ba6051ae7fa9f74b77b11", "is_disabled": 0, "rental_uris": {"android": "https://dc.lft.to/lastmile_qr_scan", "ios": "https://dc.lft.to/lastmile_qr_scan"}, "lon": -77.0284355, "fusion_lat": 0.0}, {"name": "71652a9aa694685d9df6f977cd0c5f7c", "fusion_lon": 0.0, "lat": 38.86936983333333, "is_reserved": 0, "type": "electric_bike", "bike_id": "71652a9aa694685d9df6f977cd0c5f7c", "is_disabled": 0, "rental_uris": {"android": "https://dc.lft.to/lastmile_qr_scan", "ios": "https://dc.lft.to/lastmile_qr_scan"}, "lon": -77.09464516666667, "fusion_lat": 0.0}, {"name": "19a5eca9a87ff83c1ec6efd6cd7b4c8c", "fusion_lon": 0.0, "lat": 38.883698333333335, "is_reserved": 0, "type": "electric_scooter", "bike_id": "19a5eca9a87ff83c1ec6efd6cd7b4c8c", "is_disabled": 0, "rental_uris": {"android": "https://dc.lft.to/lastmile_qr_scan", "ios": "https://dc.lft.to/lastmile_qr_scan"}, "lon": -76.99509066666667, "fusion_lat": 0.0}, {"name": "9ec3fe88783c36c92ec6a37234afb21a", "fusion_lon": 0.0, "lat": 38.89313833333333, "is_reserved": 0, "type": "electric_scooter", "bike_id": "9ec3fe88783c36c92ec6a37234afb21a", "is_disabled": 0, "rental_uris": {"android": "https://dc.lft.to/lastmile_qr_scan", "ios": "https://dc.lft.to/lastmile_qr_scan"}, "lon": -77.0500095, "fusion_lat": 0.0}, {"name": "7f13da914ea423740e488b442144dabf", "fusion_lon": 0.0, "lat": 38.9280105, "is_reserved": 0, "type": "electric_scooter", "bike_id": "7f13da914ea423740e488b442144dabf", "is_disabled": 0, "rental_uris": {"android": "https://dc.lft.to/lastmile_qr_scan", "ios": "https://dc.lft.to/lastmile_qr_scan"}, "lon": -77.01416283333333, "fusion_lat": 0.0}, {"name": "701cecf8940834be399f3a4f788755db", "fusion_lon": 0.0, "lat": 38.903537666666665, "is_reserved": 0, "type": "electric_scooter", "bike_id": "701cecf8940834be399f3a4f788755db", "is_disabled": 0, "rental_uris": {"android": "https://dc.lft.to/lastmile_qr_scan", "ios": "https://dc.lft.to/lastmile_qr_scan"}, "lon": -76.97480116666667, "fusion_lat": 0.0}, {"name": "5b87cb1a837cee6e9771eae1ac3456e7", "fusion_lon": 0.0, "lat": 38.9211955, "is_reserved": 0, "type": "electric_scooter", "bike_id": "5b87cb1a837cee6e9771eae1ac3456e7", "is_disabled": 0, "rental_uris": {"android": "https://dc.lft.to/lastmile_qr_scan", "ios": "https://dc.lft.to/lastmile_qr_scan"}, "lon": -77.04564866666666, "fusion_lat": 0.0}, {"name": "91d3a54a76beef6dce79304224885f6b", "fusion_lon": 0.0, "lat": 38.90035366666667, "is_reserved": 0, "type": "electric_scooter", "bike_id": "91d3a54a76beef6dce79304224885f6b", "is_disabled": 0, "rental_uris": {"android": "https://dc.lft.to/lastmile_qr_scan", "ios": "https://dc.lft.to/lastmile_qr_scan"}, "lon": -77.029042, "fusion_lat": 0.0}, {"name": "0c31443565c421df30191ed2b1abd76c", "fusion_lon": 0.0, "lat": 38.905708833333335, "is_reserved": 0, "type": "electric_scooter", "bike_id": "0c31443565c421df30191ed2b1abd76c", "is_disabled": 0, "rental_uris": {"android": "https://dc.lft.to/lastmile_qr_scan", "ios": "https://dc.lft.to/lastmile_qr_scan"}, "lon": -77.043356, "fusion_lat": 0.0}, {"name": "117f4490eb69ecd9abef436bf5447e89", "fusion_lon": 0.0, "lat": 38.925148166666666, "is_reserved": 0, "type": "electric_scooter", "bike_id": "117f4490eb69ecd9abef436bf5447e89", "is_disabled": 0, "rental_uris": {"android": "https://dc.lft.to/lastmile_qr_scan", "ios": "https://dc.lft.to/lastmile_qr_scan"}, "lon": -77.05257383333333, "fusion_lat": 0.0}, {"name": "9bd63d744f575eaa188a3f734d8f63cb", "fusion_lon": 0.0, "lat": 38.9181615, "is_reserved": 0, "type": "electric_scooter", "bike_id": "9bd63d744f575eaa188a3f734d8f63cb", "is_disabled": 0, "rental_uris": {"android": "https://dc.lft.to/lastmile_qr_scan", "ios": "https://dc.lft.to/lastmile_qr_scan"}, "lon": -77.02491183333333, "fusion_lat": 0.0}, {"name": "1c954c9eee64c3aabfe56193345d5274", "fusion_lon": 0.0, "lat": 38.919347, "is_reserved": 0, "type": "electric_scooter", "bike_id": "1c954c9eee64c3aabfe56193345d5274", "is_disabled": 0, "rental_uris": {"android": "https://dc.lft.to/lastmile_qr_scan", "ios": "https://dc.lft.to/lastmile_qr_scan"}, "lon": -77.025086, "fusion_lat": 0.0}, {"name": "7f4fda4b52ce1840f3fe9578198cdb7e", "fusion_lon": 0.0, "lat": 38.8952605, "is_reserved": 0, "type": "electric_scooter", "bike_id": "7f4fda4b52ce1840f3fe9578198cdb7e", "is_disabled": 0, "rental_uris": {"android": "https://dc.lft.to/lastmile_qr_scan", "ios": "https://dc.lft.to/lastmile_qr_scan"}, "lon": -77.002008, "fusion_lat": 0.0}, {"name": "09c6410935d2fd64cfdbeb671a1d6809", "fusion_lon": 0.0, "lat": 38.90712716666667, "is_reserved": 0, "type": "electric_scooter", "bike_id": "09c6410935d2fd64cfdbeb671a1d6809", "is_disabled": 0, "rental_uris": {"android": "https://dc.lft.to/lastmile_qr_scan", "ios": "https://dc.lft.to/lastmile_qr_scan"}, "lon": -77.01014683333334, "fusion_lat": 0.0}, {"name": "ef524ec13a8a472b6fb7d4ae4b015314", "fusion_lon": 0.0, "lat": 38.906641, "is_reserved": 0, "type": "electric_scooter", "bike_id": "ef524ec13a8a472b6fb7d4ae4b015314", "is_disabled": 0, "rental_uris": {"android": "https://dc.lft.to/lastmile_qr_scan", "ios": "https://dc.lft.to/lastmile_qr_scan"}, "lon": -77.04498383333333, "fusion_lat": 0.0}, {"name": "7005484c41329e546f5c9548ce0c913e", "fusion_lon": 0.0, "lat": 38.9009255, "is_reserved": 0, "type": "electric_scooter", "bike_id": "7005484c41329e546f5c9548ce0c913e", "is_disabled": 0, "rental_uris": {"android": "https://dc.lft.to/lastmile_qr_scan", "ios": "https://dc.lft.to/lastmile_qr_scan"}, "lon": -76.97646983333334, "fusion_lat": 0.0}, {"name": "5d239c23640c891e6ca0332933816a36", "fusion_lon": 0.0, "lat": 38.924929666666664, "is_reserved": 0, "type": "electric_scooter", "bike_id": "5d239c23640c891e6ca0332933816a36", "is_disabled": 0, "rental_uris": {"android": "https://dc.lft.to/lastmile_qr_scan", "ios": "https://dc.lft.to/lastmile_qr_scan"}, "lon": -77.02179183333334, "fusion_lat": 0.0}, {"name": "200822a11434bca7275e459534e4e528", "fusion_lon": 0.0, "lat": 38.8650465, "is_reserved": 0, "type": "electric_scooter", "bike_id": "200822a11434bca7275e459534e4e528", "is_disabled": 0, "rental_uris": {"android": "https://dc.lft.to/lastmile_qr_scan", "ios": "https://dc.lft.to/lastmile_qr_scan"}, "lon": -76.99, "fusion_lat": 0.0}, {"name": "f88ec1e6d5d5e58ebfb4d130cc8da611", "fusion_lon": 0.0, "lat": 38.905966166666666, "is_reserved": 0, "type": "electric_scooter", "bike_id": "f88ec1e6d5d5e58ebfb4d130cc8da611", "is_disabled": 0, "rental_uris": {"android": "https://dc.lft.to/lastmile_qr_scan", "ios": "https://dc.lft.to/lastmile_qr_scan"}, "lon": -77.02203233333333, "fusion_lat": 0.0}, {"name": "dccedde25618a7292bc59655fd503f60", "fusion_lon": 0.0, "lat": 38.898279333333335, "is_reserved": 0, "type": "electric_bike", "bike_id": "dccedde25618a7292bc59655fd503f60", "is_disabled": 0, "rental_uris": {"android": "https://dc.lft.to/lastmile_qr_scan", "ios": "https://dc.lft.to/lastmile_qr_scan"}, "lon": -77.02467183333333, "fusion_lat": 0.0}, {"name": "bcabb404d57346ebd5113c1809b35952", "fusion_lon": 0.0, "lat": 38.882462, "is_reserved": 0, "type": "electric_bike", "bike_id": "bcabb404d57346ebd5113c1809b35952", "is_disabled": 0, "rental_uris": {"android": "https://dc.lft.to/lastmile_qr_scan", "ios": "https://dc.lft.to/lastmile_qr_scan"}, "lon": -76.96252466666667, "fusion_lat": 0.0}, {"name": "a22b4422a4500a9602c033ee50354c73", "fusion_lon": 0.0, "lat": 38.882138, "is_reserved": 0, "type": "electric_scooter", "bike_id": "a22b4422a4500a9602c033ee50354c73", "is_disabled": 0, "rental_uris": {"android": "https://dc.lft.to/lastmile_qr_scan", "ios": "https://dc.lft.to/lastmile_qr_scan"}, "lon": -76.98918666666667, "fusion_lat": 0.0}, {"name": "4819cc7357c504168b9f4d0ca2edc46b", "fusion_lon": 0.0, "lat": 38.90786, "is_reserved": 0, "type": "electric_scooter", "bike_id": "4819cc7357c504168b9f4d0ca2edc46b", "is_disabled": 0, "rental_uris": {"android": "https://dc.lft.to/lastmile_qr_scan", "ios": "https://dc.lft.to/lastmile_qr_scan"}, "lon": -77.03205816666667, "fusion_lat": 0.0}, {"name": "465d92bda7d1ad13cbc54d2a9ce017ee", "fusion_lon": 0.0, "lat": 38.90829433333333, "is_reserved": 0, "type": "electric_scooter", "bike_id": "465d92bda7d1ad13cbc54d2a9ce017ee", "is_disabled": 0, "rental_uris": {"android": "https://dc.lft.to/lastmile_qr_scan", "ios": "https://dc.lft.to/lastmile_qr_scan"}, "lon": -76.934437, "fusion_lat": 0.0}, {"name": "b32756ce67629a32835a3c8269df9a4d", "fusion_lon": 0.0, "lat": 38.91549533333333, "is_reserved": 0, "type": "electric_scooter", "bike_id": "b32756ce67629a32835a3c8269df9a4d", "is_disabled": 0, "rental_uris": {"android": "https://dc.lft.to/lastmile_qr_scan", "ios": "https://dc.lft.to/lastmile_qr_scan"}, "lon": -77.05318966666667, "fusion_lat": 0.0}, {"name": "1e5de747de3d81532b04ecd0388607c1", "fusion_lon": 0.0, "lat": 38.9148225, "is_reserved": 0, "type": "electric_scooter", "bike_id": "1e5de747de3d81532b04ecd0388607c1", "is_disabled": 0, "rental_uris": {"android": "https://dc.lft.to/lastmile_qr_scan", "ios": "https://dc.lft.to/lastmile_qr_scan"}, "lon": -77.03233766666666, "fusion_lat": 0.0}, {"name": "4d9df66aef8de2bf0b0ce5dc5ae2305d", "fusion_lon": 0.0, "lat": 38.921083833333334, "is_reserved": 0, "type": "electric_scooter", "bike_id": "4d9df66aef8de2bf0b0ce5dc5ae2305d", "is_disabled": 0, "rental_uris": {"android": "https://dc.lft.to/lastmile_qr_scan", "ios": "https://dc.lft.to/lastmile_qr_scan"}, "lon": -77.039282, "fusion_lat": 0.0}, {"name": "874b74d346af6da0edf25a1065c8c89c", "fusion_lon": 0.0, "lat": 38.920116166666666, "is_reserved": 0, "type": "electric_scooter", "bike_id": "874b74d346af6da0edf25a1065c8c89c", "is_disabled": 0, "rental_uris": {"android": "https://dc.lft.to/lastmile_qr_scan", "ios": "https://dc.lft.to/lastmile_qr_scan"}, "lon": -77.02139983333333, "fusion_lat": 0.0}, {"name": "5eeaa5197d0565651bbf41354e61352f", "fusion_lon": 0.0, "lat": 38.90221366666667, "is_reserved": 0, "type": "electric_scooter", "bike_id": "5eeaa5197d0565651bbf41354e61352f", "is_disabled": 0, "rental_uris": {"android": "https://dc.lft.to/lastmile_qr_scan", "ios": "https://dc.lft.to/lastmile_qr_scan"}, "lon": -77.02390116666666, "fusion_lat": 0.0}, {"name": "1fc1eaf87624a51bab195750205ce1ef", "fusion_lon": 0.0, "lat": 38.901478, "is_reserved": 0, "type": "electric_scooter", "bike_id": "1fc1eaf87624a51bab195750205ce1ef", "is_disabled": 0, "rental_uris": {"android": "https://dc.lft.to/lastmile_qr_scan", "ios": "https://dc.lft.to/lastmile_qr_scan"}, "lon": -76.92980666666666, "fusion_lat": 0.0}, {"name": "5433942ca29737be39fae22fe043cc58", "fusion_lon": 0.0, "lat": 38.91769466666667, "is_reserved": 0, "type": "electric_scooter", "bike_id": "5433942ca29737be39fae22fe043cc58", "is_disabled": 0, "rental_uris": {"android": "https://dc.lft.to/lastmile_qr_scan", "ios": "https://dc.lft.to/lastmile_qr_scan"}, "lon": -77.04768933333334, "fusion_lat": 0.0}, {"name": "e651e01a2408ee49eeb80f4e1159e2d0", "fusion_lon": 0.0, "lat": 38.9078075, "is_reserved": 0, "type": "electric_scooter", "bike_id": "e651e01a2408ee49eeb80f4e1159e2d0", "is_disabled": 0, "rental_uris": {"android": "https://dc.lft.to/lastmile_qr_scan", "ios": "https://dc.lft.to/lastmile_qr_scan"}, "lon": -77.03828016666667, "fusion_lat": 0.0}, {"name": "bad217d79feb9412bcfd7adc4ad7327d", "fusion_lon": 0.0, "lat": 38.879985, "is_reserved": 0, "type": "electric_scooter", "bike_id": "bad217d79feb9412bcfd7adc4ad7327d", "is_disabled": 0, "rental_uris": {"android": "https://dc.lft.to/lastmile_qr_scan", "ios": "https://dc.lft.to/lastmile_qr_scan"}, "lon": -76.9854635, "fusion_lat": 0.0}, {"name": "94a53821f5d8d05e08235af6a943773b", "fusion_lon": 0.0, "lat": 38.924761, "is_reserved": 0, "type": "electric_scooter", "bike_id": "94a53821f5d8d05e08235af6a943773b", "is_disabled": 0, "rental_uris": {"android": "https://dc.lft.to/lastmile_qr_scan", "ios": "https://dc.lft.to/lastmile_qr_scan"}, "lon": -77.03175033333333, "fusion_lat": 0.0}, {"name": "bbd33e6904b38c57bd46f39cf7644538", "fusion_lon": 0.0, "lat": 38.916824166666665, "is_reserved": 0, "type": "electric_scooter", "bike_id": "bbd33e6904b38c57bd46f39cf7644538", "is_disabled": 0, "rental_uris": {"android": "https://dc.lft.to/lastmile_qr_scan", "ios": "https://dc.lft.to/lastmile_qr_scan"}, "lon": -77.02387316666666, "fusion_lat": 0.0}, {"name": "1426ec2154ac55f84b2d6b8f43017ba8", "fusion_lon": 0.0, "lat": 38.874189666666666, "is_reserved": 0, "type": "electric_scooter", "bike_id": "1426ec2154ac55f84b2d6b8f43017ba8", "is_disabled": 0, "rental_uris": {"android": "https://dc.lft.to/lastmile_qr_scan", "ios": "https://dc.lft.to/lastmile_qr_scan"}, "lon": -76.96773066666667, "fusion_lat": 0.0}, {"name": "a122754c91187d100010e720d20690d2", "fusion_lon": 0.0, "lat": 38.97394766666667, "is_reserved": 0, "type": "electric_bike", "bike_id": "a122754c91187d100010e720d20690d2", "is_disabled": 0, "rental_uris": {"android": "https://dc.lft.to/lastmile_qr_scan", "ios": "https://dc.lft.to/lastmile_qr_scan"}, "lon": -77.06448533333334, "fusion_lat": 0.0}, {"name": "eceb53183b91612383a52a5f4dca024d", "fusion_lon": 0.0, "lat": 38.927691833333334, "is_reserved": 0, "type": "electric_scooter", "bike_id": "eceb53183b91612383a52a5f4dca024d", "is_disabled": 0, "rental_uris": {"android": "https://dc.lft.to/lastmile_qr_scan", "ios": "https://dc.lft.to/lastmile_qr_scan"}, "lon": -77.04063983333333, "fusion_lat": 0.0}, {"name": "1f756ca104defec53d194ee5ba87624d", "fusion_lon": 0.0, "lat": 38.90527633333333, "is_reserved": 0, "type": "electric_scooter", "bike_id": "1f756ca104defec53d194ee5ba87624d", "is_disabled": 0, "rental_uris": {"android": "https://dc.lft.to/lastmile_qr_scan", "ios": "https://dc.lft.to/lastmile_qr_scan"}, "lon": -77.00182233333334, "fusion_lat": 0.0}, {"name": "a825e07638ef66b643c0c2676156c1b9", "fusion_lon": 0.0, "lat": 38.906417833333336, "is_reserved": 0, "type": "electric_scooter", "bike_id": "a825e07638ef66b643c0c2676156c1b9", "is_disabled": 0, "rental_uris": {"android": "https://dc.lft.to/lastmile_qr_scan", "ios": "https://dc.lft.to/lastmile_qr_scan"}, "lon": -77.01008433333334, "fusion_lat": 0.0}, {"name": "2145d03cd6b3c66596989f9d73042ed4", "fusion_lon": 0.0, "lat": 38.9524475, "is_reserved": 0, "type": "electric_bike", "bike_id": "2145d03cd6b3c66596989f9d73042ed4", "is_disabled": 0, "rental_uris": {"android": "https://dc.lft.to/lastmile_qr_scan", "ios": "https://dc.lft.to/lastmile_qr_scan"}, "lon": -76.97671233333334, "fusion_lat": 0.0}, {"name": "e96882fdef948f8365f12db5f40a8ce4", "fusion_lon": 0.0, "lat": 38.932704666666666, "is_reserved": 0, "type": "electric_scooter", "bike_id": "e96882fdef948f8365f12db5f40a8ce4", "is_disabled": 0, "rental_uris": {"android": "https://dc.lft.to/lastmile_qr_scan", "ios": "https://dc.lft.to/lastmile_qr_scan"}, "lon": -77.01918083333334, "fusion_lat": 0.0}, {"name": "79203f647687d25c163f5c1941e8513b", "fusion_lon": 0.0, "lat": 38.91891583333334, "is_reserved": 0, "type": "electric_scooter", "bike_id": "79203f647687d25c163f5c1941e8513b", "is_disabled": 0, "rental_uris": {"android": "https://dc.lft.to/lastmile_qr_scan", "ios": "https://dc.lft.to/lastmile_qr_scan"}, "lon": -77.04821566666666, "fusion_lat": 0.0}, {"name": "aa856027bdd6d2bacb789abd88dff3d7", "fusion_lon": 0.0, "lat": 38.928898833333335, "is_reserved": 0, "type": "electric_bike", "bike_id": "aa856027bdd6d2bacb789abd88dff3d7", "is_disabled": 0, "rental_uris": {"android": "https://dc.lft.to/lastmile_qr_scan", "ios": "https://dc.lft.to/lastmile_qr_scan"}, "lon": -77.08394316666667, "fusion_lat": 0.0}, {"name": "ecf2df79a8ea8ed0bce882f18bdebb68", "fusion_lon": 0.0, "lat": 38.9021875, "is_reserved": 0, "type": "electric_scooter", "bike_id": "ecf2df79a8ea8ed0bce882f18bdebb68", "is_disabled": 0, "rental_uris": {"android": "https://dc.lft.to/lastmile_qr_scan", "ios": "https://dc.lft.to/lastmile_qr_scan"}, "lon": -77.023733, "fusion_lat": 0.0}, {"name": "55d32aef78a847f10e4e712ac77d1a77", "fusion_lon": 0.0, "lat": 38.91922433333333, "is_reserved": 0, "type": "electric_scooter", "bike_id": "55d32aef78a847f10e4e712ac77d1a77", "is_disabled": 0, "rental_uris": {"android": "https://dc.lft.to/lastmile_qr_scan", "ios": "https://dc.lft.to/lastmile_qr_scan"}, "lon": -77.02500366666666, "fusion_lat": 0.0}, {"name": "32151e4e50c5d63f1210c2516440671a", "fusion_lon": 0.0, "lat": 38.898253833333335, "is_reserved": 0, "type": "electric_scooter", "bike_id": "32151e4e50c5d63f1210c2516440671a", "is_disabled": 0, "rental_uris": {"android": "https://dc.lft.to/lastmile_qr_scan", "ios": "https://dc.lft.to/lastmile_qr_scan"}, "lon": -77.04338533333333, "fusion_lat": 0.0}, {"name": "9b35510af5b65b6b0e753ee44901b68d", "fusion_lon": 0.0, "lat": 38.9159655, "is_reserved": 0, "type": "electric_scooter", "bike_id": "9b35510af5b65b6b0e753ee44901b68d", "is_disabled": 0, "rental_uris": {"android": "https://dc.lft.to/lastmile_qr_scan", "ios": "https://dc.lft.to/lastmile_qr_scan"}, "lon": -76.98377733333334, "fusion_lat": 0.0}, {"name": "a48c749822085f67c4299d2d4fa79a2f", "fusion_lon": 0.0, "lat": 38.99629216666666, "is_reserved": 0, "type": "electric_scooter", "bike_id": "a48c749822085f67c4299d2d4fa79a2f", "is_disabled": 0, "rental_uris": {"android": "https://dc.lft.to/lastmile_qr_scan", "ios": "https://dc.lft.to/lastmile_qr_scan"}, "lon": -77.03150116666667, "fusion_lat": 0.0}, {"name": "490743479ce4c04b1464e230f51d507c", "fusion_lon": 0.0, "lat": 38.923357, "is_reserved": 0, "type": "electric_scooter", "bike_id": "490743479ce4c04b1464e230f51d507c", "is_disabled": 0, "rental_uris": {"android": "https://dc.lft.to/lastmile_qr_scan", "ios": "https://dc.lft.to/lastmile_qr_scan"}, "lon": -77.05243833333333, "fusion_lat": 0.0}, {"name": "b953d968ab4295f47334750c973e2659", "fusion_lon": 0.0, "lat": 38.87161916666667, "is_reserved": 0, "type": "electric_scooter", "bike_id": "b953d968ab4295f47334750c973e2659", "is_disabled": 0, "rental_uris": {"android": "https://dc.lft.to/lastmile_qr_scan", "ios": "https://dc.lft.to/lastmile_qr_scan"}, "lon": -76.977473, "fusion_lat": 0.0}, {"name": "a441bda57e7f9f64eb06a1f06ce4410f", "fusion_lon": 0.0, "lat": 38.89606033333333, "is_reserved": 0, "type": "electric_scooter", "bike_id": "a441bda57e7f9f64eb06a1f06ce4410f", "is_disabled": 0, "rental_uris": {"android": "https://dc.lft.to/lastmile_qr_scan", "ios": "https://dc.lft.to/lastmile_qr_scan"}, "lon": -77.0256605, "fusion_lat": 0.0}, {"name": "4dd2ce7dee33f8201cd87bc8dd0431ac", "fusion_lon": 0.0, "lat": 38.89178666666667, "is_reserved": 0, "type": "electric_scooter", "bike_id": "4dd2ce7dee33f8201cd87bc8dd0431ac", "is_disabled": 0, "rental_uris": {"android": "https://dc.lft.to/lastmile_qr_scan", "ios": "https://dc.lft.to/lastmile_qr_scan"}, "lon": -76.9118525, "fusion_lat": 0.0}, {"name": "38191fc015684dccd5dacaa73c5b555a", "fusion_lon": 0.0, "lat": 38.915902, "is_reserved": 0, "type": "electric_scooter", "bike_id": "38191fc015684dccd5dacaa73c5b555a", "is_disabled": 0, "rental_uris": {"android": "https://dc.lft.to/lastmile_qr_scan", "ios": "https://dc.lft.to/lastmile_qr_scan"}, "lon": -77.02196966666666, "fusion_lat": 0.0}, {"name": "f928fa289c0d4a9f019d5c66f4340410", "fusion_lon": 0.0, "lat": 38.92584866666667, "is_reserved": 0, "type": "electric_scooter", "bike_id": "f928fa289c0d4a9f019d5c66f4340410", "is_disabled": 0, "rental_uris": {"android": "https://dc.lft.to/lastmile_qr_scan", "ios": "https://dc.lft.to/lastmile_qr_scan"}, "lon": -77.026063, "fusion_lat": 0.0}, {"name": "b84189ca55ab31ca940986f05baa168a", "fusion_lon": 0.0, "lat": 38.898152, "is_reserved": 0, "type": "electric_scooter", "bike_id": "b84189ca55ab31ca940986f05baa168a", "is_disabled": 0, "rental_uris": {"android": "https://dc.lft.to/lastmile_qr_scan", "ios": "https://dc.lft.to/lastmile_qr_scan"}, "lon": -77.03323016666667, "fusion_lat": 0.0}, {"name": "3c9844ecd587476bb86b2886c4a9a992", "fusion_lon": 0.0, "lat": 38.94105883333334, "is_reserved": 0, "type": "electric_scooter", "bike_id": "3c9844ecd587476bb86b2886c4a9a992", "is_disabled": 0, "rental_uris": {"android": "https://dc.lft.to/lastmile_qr_scan", "ios": "https://dc.lft.to/lastmile_qr_scan"}, "lon": -77.07738666666667, "fusion_lat": 0.0}, {"name": "6f9643545254ec0f22ddc5a0d9fdaded", "fusion_lon": 0.0, "lat": 38.91553916666667, "is_reserved": 0, "type": "electric_scooter", "bike_id": "6f9643545254ec0f22ddc5a0d9fdaded", "is_disabled": 0, "rental_uris": {"android": "https://dc.lft.to/lastmile_qr_scan", "ios": "https://dc.lft.to/lastmile_qr_scan"}, "lon": -77.02423833333333, "fusion_lat": 0.0}, {"name": "67e23ffe9e763547db4024e948889400", "fusion_lon": 0.0, "lat": 38.916252166666666, "is_reserved": 0, "type": "electric_scooter", "bike_id": "67e23ffe9e763547db4024e948889400", "is_disabled": 0, "rental_uris": {"android": "https://dc.lft.to/lastmile_qr_scan", "ios": "https://dc.lft.to/lastmile_qr_scan"}, "lon": -77.03855733333333, "fusion_lat": 0.0}, {"name": "6ee03d173a66f237693bb24039e49cd4", "fusion_lon": 0.0, "lat": 38.92898366666667, "is_reserved": 0, "type": "electric_scooter", "bike_id": "6ee03d173a66f237693bb24039e49cd4", "is_disabled": 0, "rental_uris": {"android": "https://dc.lft.to/lastmile_qr_scan", "ios": "https://dc.lft.to/lastmile_qr_scan"}, "lon": -77.02748516666666, "fusion_lat": 0.0}, {"name": "426016ffc13f888709e1dc284ead25e4", "fusion_lon": 0.0, "lat": 38.90333433333333, "is_reserved": 0, "type": "electric_scooter", "bike_id": "426016ffc13f888709e1dc284ead25e4", "is_disabled": 0, "rental_uris": {"android": "https://dc.lft.to/lastmile_qr_scan", "ios": "https://dc.lft.to/lastmile_qr_scan"}, "lon": -76.97589116666667, "fusion_lat": 0.0}, {"name": "9192ce90b269e39598adb3130d02db35", "fusion_lon": 0.0, "lat": 38.921117, "is_reserved": 0, "type": "electric_scooter", "bike_id": "9192ce90b269e39598adb3130d02db35", "is_disabled": 0, "rental_uris": {"android": "https://dc.lft.to/lastmile_qr_scan", "ios": "https://dc.lft.to/lastmile_qr_scan"}, "lon": -77.03175933333333, "fusion_lat": 0.0}, {"name": "093cf46aa1799530f9505152a140a247", "fusion_lon": 0.0, "lat": 38.92035516666667, "is_reserved": 0, "type": "electric_scooter", "bike_id": "093cf46aa1799530f9505152a140a247", "is_disabled": 0, "rental_uris": {"android": "https://dc.lft.to/lastmile_qr_scan", "ios": "https://dc.lft.to/lastmile_qr_scan"}, "lon": -77.02582183333334, "fusion_lat": 0.0}, {"name": "bd469c664f89b5144b2054891bc5ae90", "fusion_lon": 0.0, "lat": 38.92254883333333, "is_reserved": 0, "type": "electric_scooter", "bike_id": "bd469c664f89b5144b2054891bc5ae90", "is_disabled": 0, "rental_uris": {"android": "https://dc.lft.to/lastmile_qr_scan", "ios": "https://dc.lft.to/lastmile_qr_scan"}, "lon": -77.038896, "fusion_lat": 0.0}, {"name": "d36e4820713774cc7dfc521c5ec8f2a3", "fusion_lon": 0.0, "lat": 38.937500166666666, "is_reserved": 0, "type": "electric_scooter", "bike_id": "d36e4820713774cc7dfc521c5ec8f2a3", "is_disabled": 0, "rental_uris": {"android": "https://dc.lft.to/lastmile_qr_scan", "ios": "https://dc.lft.to/lastmile_qr_scan"}, "lon": -77.024449, "fusion_lat": 0.0}, {"name": "8e121cf50c18ab8037a84a9a0b395a59", "fusion_lon": 0.0, "lat": 38.8707845, "is_reserved": 0, "type": "electric_scooter", "bike_id": "8e121cf50c18ab8037a84a9a0b395a59", "is_disabled": 0, "rental_uris": {"android": "https://dc.lft.to/lastmile_qr_scan", "ios": "https://dc.lft.to/lastmile_qr_scan"}, "lon": -76.988899, "fusion_lat": 0.0}, {"name": "015707991a65b1d1bff0c102cb2cbbe8", "fusion_lon": 0.0, "lat": 38.90683966666667, "is_reserved": 0, "type": "electric_scooter", "bike_id": "015707991a65b1d1bff0c102cb2cbbe8", "is_disabled": 0, "rental_uris": {"android": "https://dc.lft.to/lastmile_qr_scan", "ios": "https://dc.lft.to/lastmile_qr_scan"}, "lon": -77.07168283333333, "fusion_lat": 0.0}, {"name": "38c018ed9cbb1d505bec18dac6ff484c", "fusion_lon": 0.0, "lat": 38.92027783333333, "is_reserved": 0, "type": "electric_scooter", "bike_id": "38c018ed9cbb1d505bec18dac6ff484c", "is_disabled": 0, "rental_uris": {"android": "https://dc.lft.to/lastmile_qr_scan", "ios": "https://dc.lft.to/lastmile_qr_scan"}, "lon": -77.03108866666666, "fusion_lat": 0.0}, {"name": "b31a763397bdf57b86b5be859b0f9ff0", "fusion_lon": 0.0, "lat": 38.923081833333335, "is_reserved": 0, "type": "electric_scooter", "bike_id": "b31a763397bdf57b86b5be859b0f9ff0", "is_disabled": 0, "rental_uris": {"android": "https://dc.lft.to/lastmile_qr_scan", "ios": "https://dc.lft.to/lastmile_qr_scan"}, "lon": -77.029725, "fusion_lat": 0.0}, {"name": "7ba0a8f69d04a941c5184c215f913da8", "fusion_lon": 0.0, "lat": 38.892168, "is_reserved": 0, "type": "electric_scooter", "bike_id": "7ba0a8f69d04a941c5184c215f913da8", "is_disabled": 0, "rental_uris": {"android": "https://dc.lft.to/lastmile_qr_scan", "ios": "https://dc.lft.to/lastmile_qr_scan"}, "lon": -77.025074, "fusion_lat": 0.0}, {"name": "6d5cae4ae2c9d19fba4ca7678be6aef4", "fusion_lon": 0.0, "lat": 38.91090466666667, "is_reserved": 0, "type": "electric_scooter", "bike_id": "6d5cae4ae2c9d19fba4ca7678be6aef4", "is_disabled": 0, "rental_uris": {"android": "https://dc.lft.to/lastmile_qr_scan", "ios": "https://dc.lft.to/lastmile_qr_scan"}, "lon": -77.03185683333334, "fusion_lat": 0.0}, {"name": "1029df1e33103f21de74d83876f5ebef", "fusion_lon": 0.0, "lat": 38.9176715, "is_reserved": 0, "type": "electric_scooter", "bike_id": "1029df1e33103f21de74d83876f5ebef", "is_disabled": 0, "rental_uris": {"android": "https://dc.lft.to/lastmile_qr_scan", "ios": "https://dc.lft.to/lastmile_qr_scan"}, "lon": -77.04057866666666, "fusion_lat": 0.0}, {"name": "330fa5b9726c41c7439761112e99ad12", "fusion_lon": 0.0, "lat": 38.92307616666667, "is_reserved": 0, "type": "electric_scooter", "bike_id": "330fa5b9726c41c7439761112e99ad12", "is_disabled": 0, "rental_uris": {"android": "https://dc.lft.to/lastmile_qr_scan", "ios": "https://dc.lft.to/lastmile_qr_scan"}, "lon": -77.03117233333333, "fusion_lat": 0.0}, {"name": "b0441e5afb3f4ba5f7bc42f4e8535892", "fusion_lon": 0.0, "lat": 38.8966785, "is_reserved": 0, "type": "electric_scooter", "bike_id": "b0441e5afb3f4ba5f7bc42f4e8535892", "is_disabled": 0, "rental_uris": {"android": "https://dc.lft.to/lastmile_qr_scan", "ios": "https://dc.lft.to/lastmile_qr_scan"}, "lon": -76.98810516666667, "fusion_lat": 0.0}, {"name": "d99643bf66a3af98c6aab0ad6053ce2e", "fusion_lon": 0.0, "lat": 38.91913366666667, "is_reserved": 0, "type": "electric_scooter", "bike_id": "d99643bf66a3af98c6aab0ad6053ce2e", "is_disabled": 0, "rental_uris": {"android": "https://dc.lft.to/lastmile_qr_scan", "ios": "https://dc.lft.to/lastmile_qr_scan"}, "lon": -77.026139, "fusion_lat": 0.0}, {"name": "9ab46d90f90fcb97f3bb98d4e879d4c8", "fusion_lon": 0.0, "lat": 38.93675533333333, "is_reserved": 0, "type": "electric_scooter", "bike_id": "9ab46d90f90fcb97f3bb98d4e879d4c8", "is_disabled": 0, "rental_uris": {"android": "https://dc.lft.to/lastmile_qr_scan", "ios": "https://dc.lft.to/lastmile_qr_scan"}, "lon": -77.03586216666666, "fusion_lat": 0.0}, {"name": "6d5fe51d75847743c811d733673b46c2", "fusion_lon": 0.0, "lat": 38.929111, "is_reserved": 0, "type": "electric_scooter", "bike_id": "6d5fe51d75847743c811d733673b46c2", "is_disabled": 0, "rental_uris": {"android": "https://dc.lft.to/lastmile_qr_scan", "ios": "https://dc.lft.to/lastmile_qr_scan"}, "lon": -77.03477216666667, "fusion_lat": 0.0}, {"name": "ff256157ad126402c5c42ee1d8f8c6ee", "fusion_lon": 0.0, "lat": 38.89797883333333, "is_reserved": 0, "type": "electric_scooter", "bike_id": "ff256157ad126402c5c42ee1d8f8c6ee", "is_disabled": 0, "rental_uris": {"android": "https://dc.lft.to/lastmile_qr_scan", "ios": "https://dc.lft.to/lastmile_qr_scan"}, "lon": -77.011952, "fusion_lat": 0.0}, {"name": "837ca553705e53606c639a567b831d0d", "fusion_lon": 0.0, "lat": 38.9244325, "is_reserved": 0, "type": "electric_scooter", "bike_id": "837ca553705e53606c639a567b831d0d", "is_disabled": 0, "rental_uris": {"android": "https://dc.lft.to/lastmile_qr_scan", "ios": "https://dc.lft.to/lastmile_qr_scan"}, "lon": -77.041153, "fusion_lat": 0.0}, {"name": "e05f56366ee3b9117189596a7c551910", "fusion_lon": 0.0, "lat": 38.899975, "is_reserved": 0, "type": "electric_scooter", "bike_id": "e05f56366ee3b9117189596a7c551910", "is_disabled": 0, "rental_uris": {"android": "https://dc.lft.to/lastmile_qr_scan", "ios": "https://dc.lft.to/lastmile_qr_scan"}, "lon": -77.00682216666667, "fusion_lat": 0.0}, {"name": "5958e2d3e6c1f2fc964a609a547945c4", "fusion_lon": 0.0, "lat": 38.90140133333333, "is_reserved": 0, "type": "electric_scooter", "bike_id": "5958e2d3e6c1f2fc964a609a547945c4", "is_disabled": 0, "rental_uris": {"android": "https://dc.lft.to/lastmile_qr_scan", "ios": "https://dc.lft.to/lastmile_qr_scan"}, "lon": -77.02477433333334, "fusion_lat": 0.0}, {"name": "5af480124149917d514940026e7b08a3", "fusion_lon": 0.0, "lat": 38.91781816666666, "is_reserved": 0, "type": "electric_scooter", "bike_id": "5af480124149917d514940026e7b08a3", "is_disabled": 0, "rental_uris": {"android": "https://dc.lft.to/lastmile_qr_scan", "ios": "https://dc.lft.to/lastmile_qr_scan"}, "lon": -77.0179185, "fusion_lat": 0.0}, {"name": "b96ec36e9f9ed90e7928b18364d716f3", "fusion_lon": 0.0, "lat": 38.9428125, "is_reserved": 0, "type": "electric_bike", "bike_id": "b96ec36e9f9ed90e7928b18364d716f3", "is_disabled": 0, "rental_uris": {"android": "https://dc.lft.to/lastmile_qr_scan", "ios": "https://dc.lft.to/lastmile_qr_scan"}, "lon": -76.98794983333333, "fusion_lat": 0.0}, {"name": "7e32a875c25e15cc2b9906d9770a0ab1", "fusion_lon": 0.0, "lat": 38.882796666666664, "is_reserved": 0, "type": "electric_scooter", "bike_id": "7e32a875c25e15cc2b9906d9770a0ab1", "is_disabled": 0, "rental_uris": {"android": "https://dc.lft.to/lastmile_qr_scan", "ios": "https://dc.lft.to/lastmile_qr_scan"}, "lon": -77.00869933333334, "fusion_lat": 0.0}, {"name": "a282387ef90e9f4ce81b04fe27c92964", "fusion_lon": 0.0, "lat": 38.91963716666667, "is_reserved": 0, "type": "electric_scooter", "bike_id": "a282387ef90e9f4ce81b04fe27c92964", "is_disabled": 0, "rental_uris": {"android": "https://dc.lft.to/lastmile_qr_scan", "ios": "https://dc.lft.to/lastmile_qr_scan"}, "lon": -77.03853083333334, "fusion_lat": 0.0}, {"name": "1f380669085f351ffd2bc4eefd377847", "fusion_lon": 0.0, "lat": 38.88872, "is_reserved": 0, "type": "electric_scooter", "bike_id": "1f380669085f351ffd2bc4eefd377847", "is_disabled": 0, "rental_uris": {"android": "https://dc.lft.to/lastmile_qr_scan", "ios": "https://dc.lft.to/lastmile_qr_scan"}, "lon": -76.99023183333334, "fusion_lat": 0.0}, {"name": "69052a6b421d255259257d8d4b1f3316", "fusion_lon": 0.0, "lat": 38.90080233333333, "is_reserved": 0, "type": "electric_scooter", "bike_id": "69052a6b421d255259257d8d4b1f3316", "is_disabled": 0, "rental_uris": {"android": "https://dc.lft.to/lastmile_qr_scan", "ios": "https://dc.lft.to/lastmile_qr_scan"}, "lon": -77.04747066666667, "fusion_lat": 0.0}, {"name": "51ec48ec3f570a525a208052ffadb0e7", "fusion_lon": 0.0, "lat": 38.917073333333335, "is_reserved": 0, "type": "electric_scooter", "bike_id": "51ec48ec3f570a525a208052ffadb0e7", "is_disabled": 0, "rental_uris": {"android": "https://dc.lft.to/lastmile_qr_scan", "ios": "https://dc.lft.to/lastmile_qr_scan"}, "lon": -77.023287, "fusion_lat": 0.0}, {"name": "0cc0b9495264262dc72fdb45a9bff698", "fusion_lon": 0.0, "lat": 38.90983416666667, "is_reserved": 0, "type": "electric_scooter", "bike_id": "0cc0b9495264262dc72fdb45a9bff698", "is_disabled": 0, "rental_uris": {"android": "https://dc.lft.to/lastmile_qr_scan", "ios": "https://dc.lft.to/lastmile_qr_scan"}, "lon": -77.04237016666667, "fusion_lat": 0.0}, {"name": "1ef8e169d8c62bfeb06c44ba800b0bee", "fusion_lon": 0.0, "lat": 38.9235135, "is_reserved": 0, "type": "electric_scooter", "bike_id": "1ef8e169d8c62bfeb06c44ba800b0bee", "is_disabled": 0, "rental_uris": {"android": "https://dc.lft.to/lastmile_qr_scan", "ios": "https://dc.lft.to/lastmile_qr_scan"}, "lon": -77.050815, "fusion_lat": 0.0}, {"name": "ac8608e4acd496657f2dc98a738437c7", "fusion_lon": 0.0, "lat": 39.013722666666666, "is_reserved": 0, "type": "electric_bike", "bike_id": "ac8608e4acd496657f2dc98a738437c7", "is_disabled": 0, "rental_uris": {"android": "https://dc.lft.to/lastmile_qr_scan", "ios": "https://dc.lft.to/lastmile_qr_scan"}, "lon": -76.92134233333333, "fusion_lat": 0.0}, {"name": "853228cb3d6dbaf3e9fbdd27559f1929", "fusion_lon": 0.0, "lat": 38.89218483333333, "is_reserved": 0, "type": "electric_scooter", "bike_id": "853228cb3d6dbaf3e9fbdd27559f1929", "is_disabled": 0, "rental_uris": {"android": "https://dc.lft.to/lastmile_qr_scan", "ios": "https://dc.lft.to/lastmile_qr_scan"}, "lon": -77.04801466666666, "fusion_lat": 0.0}, {"name": "d19b0eb5e354d53a35802eba9e661f03", "fusion_lon": 0.0, "lat": 38.89656866666667, "is_reserved": 0, "type": "electric_scooter", "bike_id": "d19b0eb5e354d53a35802eba9e661f03", "is_disabled": 0, "rental_uris": {"android": "https://dc.lft.to/lastmile_qr_scan", "ios": "https://dc.lft.to/lastmile_qr_scan"}, "lon": -77.0273645, "fusion_lat": 0.0}, {"name": "563c816534529bee354310efa0b53d1b", "fusion_lon": 0.0, "lat": 38.919101833333336, "is_reserved": 0, "type": "electric_scooter", "bike_id": "563c816534529bee354310efa0b53d1b", "is_disabled": 0, "rental_uris": {"android": "https://dc.lft.to/lastmile_qr_scan", "ios": "https://dc.lft.to/lastmile_qr_scan"}, "lon": -77.02130916666667, "fusion_lat": 0.0}, {"name": "826145511ca8692c941fb803e73e8d50", "fusion_lon": 0.0, "lat": 38.92312733333333, "is_reserved": 0, "type": "electric_scooter", "bike_id": "826145511ca8692c941fb803e73e8d50", "is_disabled": 0, "rental_uris": {"android": "https://dc.lft.to/lastmile_qr_scan", "ios": "https://dc.lft.to/lastmile_qr_scan"}, "lon": -77.041784, "fusion_lat": 0.0}, {"name": "b6b6e1fc8285513c804d3aac818b5d11", "fusion_lon": 0.0, "lat": 39.000278333333334, "is_reserved": 0, "type": "electric_bike", "bike_id": "b6b6e1fc8285513c804d3aac818b5d11", "is_disabled": 0, "rental_uris": {"android": "https://dc.lft.to/lastmile_qr_scan", "ios": "https://dc.lft.to/lastmile_qr_scan"}, "lon": -77.04741983333334, "fusion_lat": 0.0}, {"name": "ee0b99777820d9da0f36f57def8493e5", "fusion_lon": 0.0, "lat": 38.883971, "is_reserved": 0, "type": "electric_scooter", "bike_id": "ee0b99777820d9da0f36f57def8493e5", "is_disabled": 0, "rental_uris": {"android": "https://dc.lft.to/lastmile_qr_scan", "ios": "https://dc.lft.to/lastmile_qr_scan"}, "lon": -77.02593466666667, "fusion_lat": 0.0}, {"name": "0502fde5708627f2ad4a9bb7f282a8a9", "fusion_lon": 0.0, "lat": 38.8781725, "is_reserved": 0, "type": "electric_scooter", "bike_id": "0502fde5708627f2ad4a9bb7f282a8a9", "is_disabled": 0, "rental_uris": {"android": "https://dc.lft.to/lastmile_qr_scan", "ios": "https://dc.lft.to/lastmile_qr_scan"}, "lon": -76.931039, "fusion_lat": 0.0}, {"name": "6282c9379538a96b4fbc14a8540604e8", "fusion_lon": 0.0, "lat": 38.904093333333336, "is_reserved": 0, "type": "electric_scooter", "bike_id": "6282c9379538a96b4fbc14a8540604e8", "is_disabled": 0, "rental_uris": {"android": "https://dc.lft.to/lastmile_qr_scan", "ios": "https://dc.lft.to/lastmile_qr_scan"}, "lon": -76.97325833333333, "fusion_lat": 0.0}, {"name": "6c5bac032e820bd379b3a840e0a57421", "fusion_lon": 0.0, "lat": 38.905814166666666, "is_reserved": 0, "type": "electric_scooter", "bike_id": "6c5bac032e820bd379b3a840e0a57421", "is_disabled": 0, "rental_uris": {"android": "https://dc.lft.to/lastmile_qr_scan", "ios": "https://dc.lft.to/lastmile_qr_scan"}, "lon": -77.04345183333334, "fusion_lat": 0.0}, {"name": "d87cb07839d6fc31b58c61ccf22a18f8", "fusion_lon": 0.0, "lat": 38.92879833333333, "is_reserved": 0, "type": "electric_scooter", "bike_id": "d87cb07839d6fc31b58c61ccf22a18f8", "is_disabled": 0, "rental_uris": {"android": "https://dc.lft.to/lastmile_qr_scan", "ios": "https://dc.lft.to/lastmile_qr_scan"}, "lon": -77.0136235, "fusion_lat": 0.0}, {"name": "69695e534c8ae4ba32979f27e6746374", "fusion_lon": 0.0, "lat": 38.9155975, "is_reserved": 0, "type": "electric_scooter", "bike_id": "69695e534c8ae4ba32979f27e6746374", "is_disabled": 0, "rental_uris": {"android": "https://dc.lft.to/lastmile_qr_scan", "ios": "https://dc.lft.to/lastmile_qr_scan"}, "lon": -77.03168316666667, "fusion_lat": 0.0}, {"name": "f3dbdc6976155582434c692f7868e6dd", "fusion_lon": 0.0, "lat": 38.94988016666667, "is_reserved": 0, "type": "electric_scooter", "bike_id": "f3dbdc6976155582434c692f7868e6dd", "is_disabled": 0, "rental_uris": {"android": "https://dc.lft.to/lastmile_qr_scan", "ios": "https://dc.lft.to/lastmile_qr_scan"}, "lon": -77.02698033333333, "fusion_lat": 0.0}, {"name": "6a36375284ccd730bd90b528b5ef24c2", "fusion_lon": 0.0, "lat": 38.87298916666667, "is_reserved": 0, "type": "electric_bike", "bike_id": "6a36375284ccd730bd90b528b5ef24c2", "is_disabled": 0, "rental_uris": {"android": "https://dc.lft.to/lastmile_qr_scan", "ios": "https://dc.lft.to/lastmile_qr_scan"}, "lon": -76.96978416666667, "fusion_lat": 0.0}, {"name": "986d7bb3cbb9416b25b9ff93d0b0597d", "fusion_lon": 0.0, "lat": 38.951863333333336, "is_reserved": 0, "type": "electric_scooter", "bike_id": "986d7bb3cbb9416b25b9ff93d0b0597d", "is_disabled": 0, "rental_uris": {"android": "https://dc.lft.to/lastmile_qr_scan", "ios": "https://dc.lft.to/lastmile_qr_scan"}, "lon": -77.02606516666667, "fusion_lat": 0.0}, {"name": "4ee398fc06f6bd2e75732ae209540888", "fusion_lon": 0.0, "lat": 38.918144, "is_reserved": 0, "type": "electric_scooter", "bike_id": "4ee398fc06f6bd2e75732ae209540888", "is_disabled": 0, "rental_uris": {"android": "https://dc.lft.to/lastmile_qr_scan", "ios": "https://dc.lft.to/lastmile_qr_scan"}, "lon": -77.03661333333334, "fusion_lat": 0.0}, {"name": "08119c75fc593e46b6dde21c87b6d58c", "fusion_lon": 0.0, "lat": 38.91471883333333, "is_reserved": 0, "type": "electric_scooter", "bike_id": "08119c75fc593e46b6dde21c87b6d58c", "is_disabled": 0, "rental_uris": {"android": "https://dc.lft.to/lastmile_qr_scan", "ios": "https://dc.lft.to/lastmile_qr_scan"}, "lon": -77.03181133333334, "fusion_lat": 0.0}, {"name": "b2954f6c0856f03c788035af46e66fba", "fusion_lon": 0.0, "lat": 38.925043, "is_reserved": 0, "type": "electric_scooter", "bike_id": "b2954f6c0856f03c788035af46e66fba", "is_disabled": 0, "rental_uris": {"android": "https://dc.lft.to/lastmile_qr_scan", "ios": "https://dc.lft.to/lastmile_qr_scan"}, "lon": -77.023511, "fusion_lat": 0.0}, {"name": "7839cf98c5ea16400fe296f3f4b68f46", "fusion_lon": 0.0, "lat": 38.89833083333333, "is_reserved": 0, "type": "electric_scooter", "bike_id": "7839cf98c5ea16400fe296f3f4b68f46", "is_disabled": 0, "rental_uris": {"android": "https://dc.lft.to/lastmile_qr_scan", "ios": "https://dc.lft.to/lastmile_qr_scan"}, "lon": -77.0281065, "fusion_lat": 0.0}, {"name": "24b9fd94b92113edf7ea6a559a88fddd", "fusion_lon": 0.0, "lat": 38.896170833333336, "is_reserved": 0, "type": "electric_scooter", "bike_id": "24b9fd94b92113edf7ea6a559a88fddd", "is_disabled": 0, "rental_uris": {"android": "https://dc.lft.to/lastmile_qr_scan", "ios": "https://dc.lft.to/lastmile_qr_scan"}, "lon": -76.98168433333333, "fusion_lat": 0.0}, {"name": "2a9c86e1b14401e8ccc2ca2adb221a2d", "fusion_lon": 0.0, "lat": 38.908655833333334, "is_reserved": 0, "type": "electric_scooter", "bike_id": "2a9c86e1b14401e8ccc2ca2adb221a2d", "is_disabled": 0, "rental_uris": {"android": "https://dc.lft.to/lastmile_qr_scan", "ios": "https://dc.lft.to/lastmile_qr_scan"}, "lon": -76.99957116666667, "fusion_lat": 0.0}, {"name": "e1de55bec5f741c44c50363067d59ed1", "fusion_lon": 0.0, "lat": 38.90335566666667, "is_reserved": 0, "type": "electric_scooter", "bike_id": "e1de55bec5f741c44c50363067d59ed1", "is_disabled": 0, "rental_uris": {"android": "https://dc.lft.to/lastmile_qr_scan", "ios": "https://dc.lft.to/lastmile_qr_scan"}, "lon": -77.01105783333334, "fusion_lat": 0.0}, {"name": "f10f036908bab016c7817d6cd86b0c1b", "fusion_lon": 0.0, "lat": 38.903723666666664, "is_reserved": 0, "type": "electric_scooter", "bike_id": "f10f036908bab016c7817d6cd86b0c1b", "is_disabled": 0, "rental_uris": {"android": "https://dc.lft.to/lastmile_qr_scan", "ios": "https://dc.lft.to/lastmile_qr_scan"}, "lon": -77.04180733333334, "fusion_lat": 0.0}, {"name": "920e211d93662076940b1a63afab4d25", "fusion_lon": 0.0, "lat": 38.903208666666664, "is_reserved": 0, "type": "electric_scooter", "bike_id": "920e211d93662076940b1a63afab4d25", "is_disabled": 0, "rental_uris": {"android": "https://dc.lft.to/lastmile_qr_scan", "ios": "https://dc.lft.to/lastmile_qr_scan"}, "lon": -77.01889216666666, "fusion_lat": 0.0}, {"name": "55c00381c54fb2aaedbaac1df409736c", "fusion_lon": 0.0, "lat": 38.900948666666665, "is_reserved": 0, "type": "electric_scooter", "bike_id": "55c00381c54fb2aaedbaac1df409736c", "is_disabled": 0, "rental_uris": {"android": "https://dc.lft.to/lastmile_qr_scan", "ios": "https://dc.lft.to/lastmile_qr_scan"}, "lon": -77.05069366666666, "fusion_lat": 0.0}, {"name": "4f760abeae93b4c263315c1e1f72f681", "fusion_lon": 0.0, "lat": 38.907785, "is_reserved": 0, "type": "electric_scooter", "bike_id": "4f760abeae93b4c263315c1e1f72f681", "is_disabled": 0, "rental_uris": {"android": "https://dc.lft.to/lastmile_qr_scan", "ios": "https://dc.lft.to/lastmile_qr_scan"}, "lon": -77.038237, "fusion_lat": 0.0}, {"name": "803e19018c2ddabae4ad71c9e7f76a87", "fusion_lon": 0.0, "lat": 38.88393033333333, "is_reserved": 0, "type": "electric_scooter", "bike_id": "803e19018c2ddabae4ad71c9e7f76a87", "is_disabled": 0, "rental_uris": {"android": "https://dc.lft.to/lastmile_qr_scan", "ios": "https://dc.lft.to/lastmile_qr_scan"}, "lon": -76.954441, "fusion_lat": 0.0}, {"name": "05beabf854c05b014ff5dcfe01ca6f6c", "fusion_lon": 0.0, "lat": 38.8847225, "is_reserved": 0, "type": "electric_scooter", "bike_id": "05beabf854c05b014ff5dcfe01ca6f6c", "is_disabled": 0, "rental_uris": {"android": "https://dc.lft.to/lastmile_qr_scan", "ios": "https://dc.lft.to/lastmile_qr_scan"}, "lon": -77.02655483333334, "fusion_lat": 0.0}, {"name": "4e610ff5c98f2eaf71f9d318bcf08b00", "fusion_lon": 0.0, "lat": 38.91273916666667, "is_reserved": 0, "type": "electric_scooter", "bike_id": "4e610ff5c98f2eaf71f9d318bcf08b00", "is_disabled": 0, "rental_uris": {"android": "https://dc.lft.to/lastmile_qr_scan", "ios": "https://dc.lft.to/lastmile_qr_scan"}, "lon": -77.03139366666667, "fusion_lat": 0.0}, {"name": "8301e8cbb79cb11d01acaaca6a6d7516", "fusion_lon": 0.0, "lat": 38.90551633333333, "is_reserved": 0, "type": "electric_scooter", "bike_id": "8301e8cbb79cb11d01acaaca6a6d7516", "is_disabled": 0, "rental_uris": {"android": "https://dc.lft.to/lastmile_qr_scan", "ios": "https://dc.lft.to/lastmile_qr_scan"}, "lon": -77.0344505, "fusion_lat": 0.0}, {"name": "9c581fc67cdb4a1679b95517aeb79a97", "fusion_lon": 0.0, "lat": 38.902716, "is_reserved": 0, "type": "electric_bike", "bike_id": "9c581fc67cdb4a1679b95517aeb79a97", "is_disabled": 0, "rental_uris": {"android": "https://dc.lft.to/lastmile_qr_scan", "ios": "https://dc.lft.to/lastmile_qr_scan"}, "lon": -77.03270266666667, "fusion_lat": 0.0}, {"name": "730744076086a31318e1ce7dd0333368", "fusion_lon": 0.0, "lat": 38.93482483333333, "is_reserved": 0, "type": "electric_scooter", "bike_id": "730744076086a31318e1ce7dd0333368", "is_disabled": 0, "rental_uris": {"android": "https://dc.lft.to/lastmile_qr_scan", "ios": "https://dc.lft.to/lastmile_qr_scan"}, "lon": -77.03593783333334, "fusion_lat": 0.0}, {"name": "7e524bafbc2e6d671c4d84e0f1beebfe", "fusion_lon": 0.0, "lat": 38.928679333333335, "is_reserved": 0, "type": "electric_scooter", "bike_id": "7e524bafbc2e6d671c4d84e0f1beebfe", "is_disabled": 0, "rental_uris": {"android": "https://dc.lft.to/lastmile_qr_scan", "ios": "https://dc.lft.to/lastmile_qr_scan"}, "lon": -77.02726666666666, "fusion_lat": 0.0}, {"name": "43d304b57f73fb09dbe352aef461538c", "fusion_lon": 0.0, "lat": 38.92891383333333, "is_reserved": 0, "type": "electric_scooter", "bike_id": "43d304b57f73fb09dbe352aef461538c", "is_disabled": 0, "rental_uris": {"android": "https://dc.lft.to/lastmile_qr_scan", "ios": "https://dc.lft.to/lastmile_qr_scan"}, "lon": -77.033123, "fusion_lat": 0.0}, {"name": "c6aad3914fbc6683bae7f134c7f90c36", "fusion_lon": 0.0, "lat": 38.91912683333334, "is_reserved": 0, "type": "electric_scooter", "bike_id": "c6aad3914fbc6683bae7f134c7f90c36", "is_disabled": 0, "rental_uris": {"android": "https://dc.lft.to/lastmile_qr_scan", "ios": "https://dc.lft.to/lastmile_qr_scan"}, "lon": -77.04464466666667, "fusion_lat": 0.0}, {"name": "f1f9d6587090fb46703a1eed59428b3a", "fusion_lon": 0.0, "lat": 38.922394, "is_reserved": 0, "type": "electric_scooter", "bike_id": "f1f9d6587090fb46703a1eed59428b3a", "is_disabled": 0, "rental_uris": {"android": "https://dc.lft.to/lastmile_qr_scan", "ios": "https://dc.lft.to/lastmile_qr_scan"}, "lon": -77.0426785, "fusion_lat": 0.0}, {"name": "93fb148f60bf1c47415aae3ba7f24357", "fusion_lon": 0.0, "lat": 38.8553915, "is_reserved": 0, "type": "electric_bike", "bike_id": "93fb148f60bf1c47415aae3ba7f24357", "is_disabled": 0, "rental_uris": {"android": "https://dc.lft.to/lastmile_qr_scan", "ios": "https://dc.lft.to/lastmile_qr_scan"}, "lon": -77.12013766666666, "fusion_lat": 0.0}, {"name": "e94835f8a5ba91bf5205493e0be5e32d", "fusion_lon": 0.0, "lat": 38.9029615, "is_reserved": 0, "type": "electric_scooter", "bike_id": "e94835f8a5ba91bf5205493e0be5e32d", "is_disabled": 0, "rental_uris": {"android": "https://dc.lft.to/lastmile_qr_scan", "ios": "https://dc.lft.to/lastmile_qr_scan"}, "lon": -77.04880433333334, "fusion_lat": 0.0}, {"name": "5789feb6046d052d488aa43208fcb294", "fusion_lon": 0.0, "lat": 38.99327666666667, "is_reserved": 0, "type": "electric_bike", "bike_id": "5789feb6046d052d488aa43208fcb294", "is_disabled": 0, "rental_uris": {"android": "https://dc.lft.to/lastmile_qr_scan", "ios": "https://dc.lft.to/lastmile_qr_scan"}, "lon": -76.946143, "fusion_lat": 0.0}, {"name": "3b5a9a46a19ca2c3e3868f56190f300f", "fusion_lon": 0.0, "lat": 38.88608266666667, "is_reserved": 0, "type": "electric_scooter", "bike_id": "3b5a9a46a19ca2c3e3868f56190f300f", "is_disabled": 0, "rental_uris": {"android": "https://dc.lft.to/lastmile_qr_scan", "ios": "https://dc.lft.to/lastmile_qr_scan"}, "lon": -76.99511116666666, "fusion_lat": 0.0}, {"name": "2e0d784ae5262f01115dc4d3009b710b", "fusion_lon": 0.0, "lat": 38.90865483333333, "is_reserved": 0, "type": "electric_scooter", "bike_id": "2e0d784ae5262f01115dc4d3009b710b", "is_disabled": 0, "rental_uris": {"android": "https://dc.lft.to/lastmile_qr_scan", "ios": "https://dc.lft.to/lastmile_qr_scan"}, "lon": -77.02420966666666, "fusion_lat": 0.0}, {"name": "eda8f1d4d9a3f0d6fd072f86ecafe271", "fusion_lon": 0.0, "lat": 38.91796733333334, "is_reserved": 0, "type": "electric_scooter", "bike_id": "eda8f1d4d9a3f0d6fd072f86ecafe271", "is_disabled": 0, "rental_uris": {"android": "https://dc.lft.to/lastmile_qr_scan", "ios": "https://dc.lft.to/lastmile_qr_scan"}, "lon": -77.03444166666667, "fusion_lat": 0.0}, {"name": "f1603662b709334b1d2212140fb2ed1e", "fusion_lon": 0.0, "lat": 38.90576083333333, "is_reserved": 0, "type": "electric_scooter", "bike_id": "f1603662b709334b1d2212140fb2ed1e", "is_disabled": 0, "rental_uris": {"android": "https://dc.lft.to/lastmile_qr_scan", "ios": "https://dc.lft.to/lastmile_qr_scan"}, "lon": -77.00569233333333, "fusion_lat": 0.0}, {"name": "51bc95c7477e8e4a5960c8a295912ff7", "fusion_lon": 0.0, "lat": 38.9449555, "is_reserved": 0, "type": "electric_scooter", "bike_id": "51bc95c7477e8e4a5960c8a295912ff7", "is_disabled": 0, "rental_uris": {"android": "https://dc.lft.to/lastmile_qr_scan", "ios": "https://dc.lft.to/lastmile_qr_scan"}, "lon": -77.03876716666667, "fusion_lat": 0.0}, {"name": "9aa6487e5dee7d680cd2f9f465b4fbf7", "fusion_lon": 0.0, "lat": 38.878213833333334, "is_reserved": 0, "type": "electric_scooter", "bike_id": "9aa6487e5dee7d680cd2f9f465b4fbf7", "is_disabled": 0, "rental_uris": {"android": "https://dc.lft.to/lastmile_qr_scan", "ios": "https://dc.lft.to/lastmile_qr_scan"}, "lon": -77.02242183333334, "fusion_lat": 0.0}, {"name": "fac24f1d15ae913d6f0e967c0494335d", "fusion_lon": 0.0, "lat": 38.920364666666664, "is_reserved": 0, "type": "electric_scooter", "bike_id": "fac24f1d15ae913d6f0e967c0494335d", "is_disabled": 0, "rental_uris": {"android": "https://dc.lft.to/lastmile_qr_scan", "ios": "https://dc.lft.to/lastmile_qr_scan"}, "lon": -77.02588483333334, "fusion_lat": 0.0}, {"name": "336df1e3212ecb31ce0f2a88c8c6439a", "fusion_lon": 0.0, "lat": 38.892265, "is_reserved": 0, "type": "electric_scooter", "bike_id": "336df1e3212ecb31ce0f2a88c8c6439a", "is_disabled": 0, "rental_uris": {"android": "https://dc.lft.to/lastmile_qr_scan", "ios": "https://dc.lft.to/lastmile_qr_scan"}, "lon": -77.01279933333333, "fusion_lat": 0.0}, {"name": "a3cef44033ba1ef1f39e97bc34ef23e7", "fusion_lon": 0.0, "lat": 38.8991745, "is_reserved": 0, "type": "electric_scooter", "bike_id": "a3cef44033ba1ef1f39e97bc34ef23e7", "is_disabled": 0, "rental_uris": {"android": "https://dc.lft.to/lastmile_qr_scan", "ios": "https://dc.lft.to/lastmile_qr_scan"}, "lon": -76.9338315, "fusion_lat": 0.0}, {"name": "0229558eae2bab510fe59288e25bd72b", "fusion_lon": 0.0, "lat": 38.923409166666666, "is_reserved": 0, "type": "electric_scooter", "bike_id": "0229558eae2bab510fe59288e25bd72b", "is_disabled": 0, "rental_uris": {"android": "https://dc.lft.to/lastmile_qr_scan", "ios": "https://dc.lft.to/lastmile_qr_scan"}, "lon": -77.05243516666667, "fusion_lat": 0.0}, {"name": "a4a56a48b7fc187ae3b39bb03e5e7933", "fusion_lon": 0.0, "lat": 38.903358833333336, "is_reserved": 0, "type": "electric_scooter", "bike_id": "a4a56a48b7fc187ae3b39bb03e5e7933", "is_disabled": 0, "rental_uris": {"android": "https://dc.lft.to/lastmile_qr_scan", "ios": "https://dc.lft.to/lastmile_qr_scan"}, "lon": -76.9758235, "fusion_lat": 0.0}, {"name": "602506bb6f98b80d569330ca1801865d", "fusion_lon": 0.0, "lat": 38.93061516666667, "is_reserved": 0, "type": "electric_scooter", "bike_id": "602506bb6f98b80d569330ca1801865d", "is_disabled": 0, "rental_uris": {"android": "https://dc.lft.to/lastmile_qr_scan", "ios": "https://dc.lft.to/lastmile_qr_scan"}, "lon": -77.03813983333333, "fusion_lat": 0.0}, {"name": "5ec7b775b42dd4821a819155acffa417", "fusion_lon": 0.0, "lat": 38.84730716666667, "is_reserved": 0, "type": "electric_bike", "bike_id": "5ec7b775b42dd4821a819155acffa417", "is_disabled": 0, "rental_uris": {"android": "https://dc.lft.to/lastmile_qr_scan", "ios": "https://dc.lft.to/lastmile_qr_scan"}, "lon": -77.11986716666667, "fusion_lat": 0.0}, {"name": "90f651ac6780e6f6e4c6efe0048fee99", "fusion_lon": 0.0, "lat": 38.90151316666667, "is_reserved": 0, "type": "electric_scooter", "bike_id": "90f651ac6780e6f6e4c6efe0048fee99", "is_disabled": 0, "rental_uris": {"android": "https://dc.lft.to/lastmile_qr_scan", "ios": "https://dc.lft.to/lastmile_qr_scan"}, "lon": -76.92138, "fusion_lat": 0.0}, {"name": "16796fac3ede6f491c4c591f516487c5", "fusion_lon": 0.0, "lat": 38.93131866666667, "is_reserved": 0, "type": "electric_scooter", "bike_id": "16796fac3ede6f491c4c591f516487c5", "is_disabled": 0, "rental_uris": {"android": "https://dc.lft.to/lastmile_qr_scan", "ios": "https://dc.lft.to/lastmile_qr_scan"}, "lon": -77.03294016666666, "fusion_lat": 0.0}, {"name": "f6aa7793b94931da23e8a3fc066adcb2", "fusion_lon": 0.0, "lat": 38.90268183333333, "is_reserved": 0, "type": "electric_scooter", "bike_id": "f6aa7793b94931da23e8a3fc066adcb2", "is_disabled": 0, "rental_uris": {"android": "https://dc.lft.to/lastmile_qr_scan", "ios": "https://dc.lft.to/lastmile_qr_scan"}, "lon": -77.03971616666666, "fusion_lat": 0.0}, {"name": "7a35a2150d6df74ed5a73f8563fa6476", "fusion_lon": 0.0, "lat": 38.862401, "is_reserved": 0, "type": "electric_scooter", "bike_id": "7a35a2150d6df74ed5a73f8563fa6476", "is_disabled": 0, "rental_uris": {"android": "https://dc.lft.to/lastmile_qr_scan", "ios": "https://dc.lft.to/lastmile_qr_scan"}, "lon": -76.994942, "fusion_lat": 0.0}, {"name": "07532ea108bf979fbcf14a95dcf2261a", "fusion_lon": 0.0, "lat": 38.90075816666667, "is_reserved": 0, "type": "electric_scooter", "bike_id": "07532ea108bf979fbcf14a95dcf2261a", "is_disabled": 0, "rental_uris": {"android": "https://dc.lft.to/lastmile_qr_scan", "ios": "https://dc.lft.to/lastmile_qr_scan"}, "lon": -77.04331133333334, "fusion_lat": 0.0}, {"name": "2097f0122f6bb8a5c548baab49ff3686", "fusion_lon": 0.0, "lat": 38.935333166666666, "is_reserved": 0, "type": "electric_scooter", "bike_id": "2097f0122f6bb8a5c548baab49ff3686", "is_disabled": 0, "rental_uris": {"android": "https://dc.lft.to/lastmile_qr_scan", "ios": "https://dc.lft.to/lastmile_qr_scan"}, "lon": -77.023545, "fusion_lat": 0.0}, {"name": "73215f2a7213c58cfad9e10d7e9d3abc", "fusion_lon": 0.0, "lat": 38.92009316666667, "is_reserved": 0, "type": "electric_scooter", "bike_id": "73215f2a7213c58cfad9e10d7e9d3abc", "is_disabled": 0, "rental_uris": {"android": "https://dc.lft.to/lastmile_qr_scan", "ios": "https://dc.lft.to/lastmile_qr_scan"}, "lon": -77.03885766666667, "fusion_lat": 0.0}, {"name": "ede32d9f10a22163c060e02ac4b16086", "fusion_lon": 0.0, "lat": 38.956858833333335, "is_reserved": 0, "type": "electric_scooter", "bike_id": "ede32d9f10a22163c060e02ac4b16086", "is_disabled": 0, "rental_uris": {"android": "https://dc.lft.to/lastmile_qr_scan", "ios": "https://dc.lft.to/lastmile_qr_scan"}, "lon": -77.02230333333333, "fusion_lat": 0.0}, {"name": "75ff712bcc6364058caaf074d26d55d0", "fusion_lon": 0.0, "lat": 38.90420966666667, "is_reserved": 0, "type": "electric_scooter", "bike_id": "75ff712bcc6364058caaf074d26d55d0", "is_disabled": 0, "rental_uris": {"android": "https://dc.lft.to/lastmile_qr_scan", "ios": "https://dc.lft.to/lastmile_qr_scan"}, "lon": -77.049821, "fusion_lat": 0.0}, {"name": "1278cfefdd31013b23171b550e44b1b4", "fusion_lon": 0.0, "lat": 38.876635, "is_reserved": 0, "type": "electric_scooter", "bike_id": "1278cfefdd31013b23171b550e44b1b4", "is_disabled": 0, "rental_uris": {"android": "https://dc.lft.to/lastmile_qr_scan", "ios": "https://dc.lft.to/lastmile_qr_scan"}, "lon": -77.01825966666667, "fusion_lat": 0.0},