{"data": {"bikes": [{"lat": 38.92883766666667, "is_disabled": 0, "type": "electric_scooter", "lon": -77.03327716666666, "bike_id": "e8a792f3c4409b2938fab697fcd0a51a", "fusion_lat": 0.0, "name": "e8a792f3c4409b2938fab697fcd0a51a", "is_reserved": 0, "rental_uris": {"android": "https://dc.lft.to/lastmile_qr_scan", "ios": "https://dc.lft.to/lastmile_qr_scan"}, "fusion_lon": 0.0}, {"lat": 38.893277833333336, "is_disabled": 0, "type": "electric_scooter", "lon": -76.92995416666666, "bike_id": "a2c534d6d2b67bb53bcc18ed30d93361", "fusion_lat": 0.0, "name": "a2c534d6d2b67bb53bcc18ed30d93361", "is_reserved": 0, "rental_uris": {"android": "https://dc.lft.to/lastmile_qr_scan", "ios": "https://dc.lft.to/lastmile_qr_scan"}, "fusion_lon": 0.0}, {"lat": 38.897229333333335, "is_disabled": 0, "type": "electric_scooter", "lon": -77.026346, "bike_id": "8b3a39d2ab2095bc09d837e9fb0d240b", "fusion_lat": 0.0, "name": "8b3a39d2ab2095bc09d837e9fb0d240b", "is_reserved": 0, "rental_uris": {"android": "https://dc.lft.to/lastmile_qr_scan", "ios": "https://dc.lft.to/lastmile_qr_scan"}, "fusion_lon": 0.0}, {"lat": 38.9170595, "is_disabled": 0, "type": "electric_scooter", "lon": -77.03500866666667, "bike_id": "23bc12d365a3fbbe53447c186e602321", "fusion_lat": 0.0, "name": "23bc12d365a3fbbe53447c186e602321", "is_reserved": 0, "rental_uris": {"android": "https://dc.lft.to/lastmile_qr_scan", "ios": "https://dc.lft.to/lastmile_qr_scan"}, "fusion_lon": 0.0}, {"lat": 38.898162666666664, "is_disabled": 0, "type": "electric_scooter", "lon": -77.04343366666667, "bike_id": "7d4c1edba68410dcd683eeae721cfac6", "fusion_lat": 0.0, "name": "7d4c1edba68410dcd683eeae721cfac6", "is_reserved": 0, "rental_uris": {"android": "https://dc.lft.to/lastmile_qr_scan", "ios": "https://dc.lft.to/lastmile_qr_scan"}, "fusion_lon": 0.0}, {"lat": 38.89618016666667, "is_disabled": 0, "type": "electric_scooter", "lon": -76.99850266666667, "bike_id": "4025f25104aa2891dcc3503426a0092f", "fusion_lat": 0.0, "name": "4025f25104aa2891dcc3503426a0092f", "is_reserved": 0, "rental_uris": {"android": "https://dc.lft.to/lastmile_qr_scan", "ios": "https://dc.lft.to/lastmile_qr_scan"}, "fusion_lon": 0.0}, {"lat": 39.03402033333333, "is_disabled": 0, "type": "electric_bike", "lon": -77.04208733333333, "bike_id": "2ce3efd38ad0e29288392898f35bdb06", "fusion_lat": 0.0, "name": "2ce3efd38ad0e29288392898f35bdb06", "is_reserved": 0, "rental_uris": {"android": "https://dc.lft.to/lastmile_qr_scan", "ios": "https://dc.lft.to/lastmile_qr_scan"}, "fusion_lon": 0.0}, {"lat": 38.91699883333333, "is_disabled": 0, "type": "electric_scooter", "lon": -77.03312966666667, "bike_id": "67753519cf71ae53e2c21684001d434a", "fusion_lat": 0.0, "name": "67753519cf71ae53e2c21684001d434a", "is_reserved": 0, "rental_uris": {"android": "https://dc.lft.to/lastmile_qr_scan", "ios": "https://dc.lft.to/lastmile_qr_scan"}, "fusion_lon": 0.0}, {"lat": 38.92269816666666, "is_disabled": 0, "type": "electric_scooter", "lon": -77.03636783333333, "bike_id": "df53018e531a036388bd777f37b764f5", "fusion_lat": 0.0, "name": "df53018e531a036388bd777f37b764f5", "is_reserved": 0, "rental_uris": {"android": "https://dc.lft.to/lastmile_qr_scan", "ios": "https://dc.lft.to/lastmile_qr_scan"}, "fusion_lon": 0.0}, {"lat": 38.8989845, "is_disabled": 0, "type": "electric_scooter", "lon": -77.03322633333333, "bike_id": "8715b436cf1bb10373e76d2ccee43e42", "fusion_lat": 0.0, "name": "8715b436cf1bb10373e76d2ccee43e42", "is_reserved": 0, "rental_uris": {"android": "https://dc.lft.to/lastmile_qr_scan", "ios": "https://dc.lft.to/lastmile_qr_scan"}, "fusion_lon": 0.0}, {"lat": 38.93859633333334, "is_disabled": 0, "type": "electric_scooter", "lon": -77.026522, "bike_id": "9c71e995f53f1f63dc05567573f9be5d", "fusion_lat": 0.0, "name": "9c71e995f53f1f63dc05567573f9be5d", "is_reserved": 0, "rental_uris": {"android": "https://dc.lft.to/lastmile_qr_scan", "ios": "https://dc.lft.to/lastmile_qr_scan"}, "fusion_lon": 0.0}, {"lat": 38.87632516666667, "is_disabled": 0, "type": "electric_scooter", "lon": -76.96527416666666, "bike_id": "8f1041e3f90e152af96571d12f39d1ff", "fusion_lat": 0.0, "name": "8f1041e3f90e152af96571d12f39d1ff", "is_reserved": 0, "rental_uris": {"android": "https://dc.lft.to/lastmile_qr_scan", "ios": "https://dc.lft.to/lastmile_qr_scan"}, "fusion_lon": 0.0}, {"lat": 38.90745066666667, "is_disabled": 0, "type": "electric_scooter", "lon": -77.0037615, "bike_id": "dd2fdece24b738061550f188824169bf", "fusion_lat": 0.0, "name": "dd2fdece24b738061550f188824169bf", "is_reserved": 0, "rental_uris": {"android": "https://dc.lft.to/lastmile_qr_scan", "ios": "https://dc.lft.to/lastmile_qr_scan"}, "fusion_lon": 0.0}, {"lat": 38.93260566666667, "is_disabled": 0, "type": "electric_scooter", "lon": -77.0326575, "bike_id": "c74ee877d8baffe0f0bb2cf6443edd98", "fusion_lat": 0.0, "name": "c74ee877d8baffe0f0bb2cf6443edd98", "is_reserved": 0, "rental_uris": {"android": "https://dc.lft.to/lastmile_qr_scan", "ios": "https://dc.lft.to/lastmile_qr_scan"}, "fusion_lon": 0.0}, {"lat": 38.89262866666667, "is_disabled": 0, "type": "electric_scooter", "lon": -76.941566, "bike_id": "5a04d0f9e14f999b0f7cbc005fb29021", "fusion_lat": 0.0, "name": "5a04d0f9e14f999b0f7cbc005fb29021", "is_reserved": 0, "rental_uris": {"android": "https://dc.lft.to/lastmile_qr_scan", "ios": "https://dc.lft.to/lastmile_qr_scan"}, "fusion_lon": 0.0}, {"lat": 38.806817333333335, "is_disabled": 0, "type": "electric_bike", "lon": -77.0812055, "bike_id": "8344383fad664ad3ab5411a94e8fce0c", "fusion_lat": 0.0, "name": "8344383fad664ad3ab5411a94e8fce0c", "is_reserved": 0, "rental_uris": {"android": "https://dc.lft.to/lastmile_qr_scan", "ios": "https://dc.lft.to/lastmile_qr_scan"}, "fusion_lon": 0.0}, {"lat": 38.90403516666667, "is_disabled": 0, "type": "electric_scooter", "lon": -77.02076733333334, "bike_id": "810e9dcf76c20029e60f6e53d75ad5a1", "fusion_lat": 0.0, "name": "810e9dcf76c20029e60f6e53d75ad5a1", "is_reserved": 0, "rental_uris": {"android": "https://dc.lft.to/lastmile_qr_scan", "ios": "https://dc.lft.to/lastmile_qr_scan"}, "fusion_lon": 0.0}, {"lat": 38.897512666666664, "is_disabled": 0, "type": "electric_scooter", "lon": -77.03214133333333, "bike_id": "478b1c3d9e478bc87165505be68160f9", "fusion_lat": 0.0, "name": "478b1c3d9e478bc87165505be68160f9", "is_reserved": 0, "rental_uris": {"android": "https://dc.lft.to/lastmile_qr_scan", "ios": "https://dc.lft.to/lastmile_qr_scan"}, "fusion_lon": 0.0}, {"lat": 38.858121, "is_disabled": 0, "type": "electric_scooter", "lon": -76.98990233333333, "bike_id": "2a3574b96df13c31e7f96eeb99e32123", "fusion_lat": 0.0, "name": "2a3574b96df13c31e7f96eeb99e32123", "is_reserved": 0, "rental_uris": {"android": "https://dc.lft.to/lastmile_qr_scan", "ios": "https://dc.lft.to/lastmile_qr_scan"}, "fusion_lon": 0.0}, {"lat": 38.927615833333334, "is_disabled": 0, "type": "electric_scooter", "lon": -77.023216, "bike_id": "bdbfaae8161112f345b95c3ee5ca5cee", "fusion_lat": 0.0, "name": "bdbfaae8161112f345b95c3ee5ca5cee", "is_reserved": 0, "rental_uris": {"android": "https://dc.lft.to/lastmile_qr_scan", "ios": "https://dc.lft.to/lastmile_qr_scan"}, "fusion_lon": 0.0}, {"lat": 38.922891166666666, "is_disabled": 0, "type": "electric_scooter", "lon": -77.029669, "bike_id": "59b97cb8bb4a45471e3e8e5437ec08c6", "fusion_lat": 0.0, "name": "59b97cb8bb4a45471e3e8e5437ec08c6", "is_reserved": 0, "rental_uris": {"android": "https://dc.lft.to/lastmile_qr_scan", "ios": "https://dc.lft.to/lastmile_qr_scan"}, "fusion_lon": 0.0}, {"lat": 38.91651616666667, "is_disabled": 0, "type": "electric_scooter", "lon": -77.04389633333334, "bike_id": "9d70bcc30ce69b6f6d5ed7098c3c4968", "fusion_lat": 0.0, "name": "9d70bcc30ce69b6f6d5ed7098c3c4968", "is_reserved": 0, "rental_uris": {"android": "https://dc.lft.to/lastmile_qr_scan", "ios": "https://dc.lft.to/lastmile_qr_scan"}, "fusion_lon": 0.0}, {"lat": 38.92804066666667, "is_disabled": 0, "type": "electric_scooter", "lon": -77.0431645, "bike_id": "4348f73307b7dfa97fa35ae8a6b2ff4c", "fusion_lat": 0.0, "name": "4348f73307b7dfa97fa35ae8a6b2ff4c", "is_reserved": 0, "rental_uris": {"android": "https://dc.lft.to/lastmile_qr_scan", "ios": "https://dc.lft.to/lastmile_qr_scan"}, "fusion_lon": 0.0}, {"lat": 38.86660366666667, "is_disabled": 0, "type": "electric_scooter", "lon": -76.98886416666667, "bike_id": "18665673cafd87e3a58d9bf22dde0c47", "fusion_lat": 0.0, "name": "18665673cafd87e3a58d9bf22dde0c47", "is_reserved": 0, "rental_uris": {"android": "https://dc.lft.to/lastmile_qr_scan", "ios": "https://dc.lft.to/lastmile_qr_scan"}, "fusion_lon": 0.0}, {"lat": 38.90732, "is_disabled": 0, "type": "electric_scooter", "lon": -77.04286883333333, "bike_id": "6209d561557a891b030f437d1c8b4e64", "fusion_lat": 0.0, "name": "6209d561557a891b030f437d1c8b4e64", "is_reserved": 0, "rental_uris": {"android": "https://dc.lft.to/lastmile_qr_scan", "ios": "https://dc.lft.to/lastmile_qr_scan"}, "fusion_lon": 0.0}, {"lat": 38.9398755, "is_disabled": 0, "type": "electric_scooter", "lon": -77.071765, "bike_id": "ec3217f874165030d66bb5c0ce96865c", "fusion_lat": 0.0, "name": "ec3217f874165030d66bb5c0ce96865c", "is_reserved": 0, "rental_uris": {"android": "https://dc.lft.to/lastmile_qr_scan", "ios": "https://dc.lft.to/lastmile_qr_scan"}, "fusion_lon": 0.0}, {"lat": 38.97366616666667, "is_disabled": 0, "type": "electric_scooter", "lon": -77.018522, "bike_id": "a5e63a1f4746e6f663df5e3c08197884", "fusion_lat": 0.0, "name": "a5e63a1f4746e6f663df5e3c08197884", "is_reserved": 0, "rental_uris": {"android": "https://dc.lft.to/lastmile_qr_scan", "ios": "https://dc.lft.to/lastmile_qr_scan"}, "fusion_lon": 0.0}, {"lat": 38.9015775, "is_disabled": 0, "type": "electric_scooter", "lon": -77.0257065, "bike_id": "c32e0d6d93500b0e5df75e1e2ca32eea", "fusion_lat": 0.0, "name": "c32e0d6d93500b0e5df75e1e2ca32eea", "is_reserved": 0, "rental_uris": {"android": "https://dc.lft.to/lastmile_qr_scan", "ios": "https://dc.lft.to/lastmile_qr_scan"}, "fusion_lon": 0.0}, {"lat": 38.925799166666664, "is_disabled": 0, "type": "electric_scooter", "lon": -77.05757933333334, "bike_id": "3fec6778091091e0dde9757fb8403669", "fusion_lat": 0.0, "name": "3fec6778091091e0dde9757fb8403669", "is_reserved": 0, "rental_uris": {"android": "https://dc.lft.to/lastmile_qr_scan", "ios": "https://dc.lft.to/lastmile_qr_scan"}, "fusion_lon": 0.0}, {"lat": 38.898915833333334, "is_disabled": 0, "type": "electric_scooter", "lon": -77.039301, "bike_id": "0044834391fe1d44de3cf9e1ec85690c", "fusion_lat": 0.0, "name": "0044834391fe1d44de3cf9e1ec85690c", "is_reserved": 0, "rental_uris": {"android": "https://dc.lft.to/lastmile_qr_scan", "ios": "https://dc.lft.to/lastmile_qr_scan"}, "fusion_lon": 0.0}, {"lat": 38.897384, "is_disabled": 0, "type": "electric_scooter", "lon": -77.0453275, "bike_id": "6f1fc7373dd7c63f515d7b126808dfd5", "fusion_lat": 0.0, "name": "6f1fc7373dd7c63f515d7b126808dfd5", "is_reserved": 0, "rental_uris": {"android": "https://dc.lft.to/lastmile_qr_scan", "ios": "https://dc.lft.to/lastmile_qr_scan"}, "fusion_lon": 0.0}, {"lat": 38.89907916666667, "is_disabled": 0, "type": "electric_scooter", "lon": -76.9335095, "bike_id": "05a1fb15d9900e01160e199c88549864", "fusion_lat": 0.0, "name": "05a1fb15d9900e01160e199c88549864", "is_reserved": 0, "rental_uris": {"android": "https://dc.lft.to/lastmile_qr_scan", "ios": "https://dc.lft.to/lastmile_qr_scan"}, "fusion_lon": 0.0}, {"lat": 38.88002733333333, "is_disabled": 0, "type": "electric_scooter", "lon": -76.98543666666667, "bike_id": "b5f0fb9b230ec90ff73d7a07b6699bd2", "fusion_lat": 0.0, "name": "b5f0fb9b230ec90ff73d7a07b6699bd2", "is_reserved": 0, "rental_uris": {"android": "https://dc.lft.to/lastmile_qr_scan", "ios": "https://dc.lft.to/lastmile_qr_scan"}, "fusion_lon": 0.0}, {"lat": 38.866192, "is_disabled": 0, "type": "electric_scooter", "lon": -76.98646266666667, "bike_id": "f91220c3c7c8342a45117ae73a646d43", "fusion_lat": 0.0, "name": "f91220c3c7c8342a45117ae73a646d43", "is_reserved": 0, "rental_uris": {"android": "https://dc.lft.to/lastmile_qr_scan", "ios": "https://dc.lft.to/lastmile_qr_scan"}, "fusion_lon": 0.0}, {"lat": 38.9064395, "is_disabled": 0, "type": "electric_scooter", "lon": -76.9902545, "bike_id": "e1c1f254237b30ba90941aa674418d2c", "fusion_lat": 0.0, "name": "e1c1f254237b30ba90941aa674418d2c", "is_reserved": 0, "rental_uris": {"android": "https://dc.lft.to/lastmile_qr_scan", "ios": "https://dc.lft.to/lastmile_qr_scan"}, "fusion_lon": 0.0}, {"lat": 38.85209366666667, "is_disabled": 0, "type": "electric_bike", "lon": -76.99578316666667, "bike_id": "86af23f1ab7df86fc01f51af823b61e4", "fusion_lat": 0.0, "name": "86af23f1ab7df86fc01f51af823b61e4", "is_reserved": 0, "rental_uris": {"android": "https://dc.lft.to/lastmile_qr_scan", "ios": "https://dc.lft.to/lastmile_qr_scan"}, "fusion_lon": 0.0}, {"lat": 38.8442875, "is_disabled": 0, "type": "electric_scooter", "lon": -76.99782, "bike_id": "984afffd65020ce039571bc96187e9cb", "fusion_lat": 0.0, "name": "984afffd65020ce039571bc96187e9cb", "is_reserved": 0, "rental_uris": {"android": "https://dc.lft.to/lastmile_qr_scan", "ios": "https://dc.lft.to/lastmile_qr_scan"}, "fusion_lon": 0.0}, {"lat": 38.915591666666664, "is_disabled": 0, "type": "electric_scooter", "lon": -77.032457, "bike_id": "8fa7f38f315a61965ebbd1338b233e2f", "fusion_lat": 0.0, "name": "8fa7f38f315a61965ebbd1338b233e2f", "is_reserved": 0, "rental_uris": {"android": "https://dc.lft.to/lastmile_qr_scan", "ios": "https://dc.lft.to/lastmile_qr_scan"}, "fusion_lon": 0.0}, {"lat": 38.9026515, "is_disabled": 0, "type": "electric_scooter", "lon": -77.03431983333333, "bike_id": "cf81ebceb56c2835d398c9fe6edc41ff", "fusion_lat": 0.0, "name": "cf81ebceb56c2835d398c9fe6edc41ff", "is_reserved": 0, "rental_uris": {"android": "https://dc.lft.to/lastmile_qr_scan", "ios": "https://dc.lft.to/lastmile_qr_scan"}, "fusion_lon": 0.0}, {"lat": 38.914139, "is_disabled": 0, "type": "electric_scooter", "lon": -77.03166716666667, "bike_id": "54f5d05e80db48d044eb50315376a41c", "fusion_lat": 0.0, "name": "54f5d05e80db48d044eb50315376a41c", "is_reserved": 0, "rental_uris": {"android": "https://dc.lft.to/lastmile_qr_scan", "ios": "https://dc.lft.to/lastmile_qr_scan"}, "fusion_lon": 0.0}, {"lat": 38.804967500000004, "is_disabled": 0, "type": "electric_bike", "lon": -77.04129683333333, "bike_id": "f80ff9353ae71777a90639f3205dc786", "fusion_lat": 0.0, "name": "f80ff9353ae71777a90639f3205dc786", "is_reserved": 0, "rental_uris": {"android": "https://dc.lft.to/lastmile_qr_scan", "ios": "https://dc.lft.to/lastmile_qr_scan"}, "fusion_lon": 0.0}, {"lat": 38.917050833333334, "is_disabled": 0, "type": "electric_scooter", "lon": -77.01101766666666, "bike_id": "38168915358138bb7085d1dc3a99b355", "fusion_lat": 0.0, "name": "38168915358138bb7085d1dc3a99b355", "is_reserved": 0, "rental_uris": {"android": "https://dc.lft.to/lastmile_qr_scan", "ios": "https://dc.lft.to/lastmile_qr_scan"}, "fusion_lon": 0.0}, {"lat": 38.9311445, "is_disabled": 0, "type": "electric_scooter", "lon": -77.02092366666666, "bike_id": "c8a7924966dc9a7554ed60c303cf7298", "fusion_lat": 0.0, "name": "c8a7924966dc9a7554ed60c303cf7298", "is_reserved": 0, "rental_uris": {"android": "https://dc.lft.to/lastmile_qr_scan", "ios": "https://dc.lft.to/lastmile_qr_scan"}, "fusion_lon": 0.0}, {"lat": 38.876594833333336, "is_disabled": 0, "type": "electric_scooter", "lon": -77.00397133333334, "bike_id": "d0861b1bc3a4e9c1fb46d975f484fe6d", "fusion_lat": 0.0, "name": "d0861b1bc3a4e9c1fb46d975f484fe6d", "is_reserved": 0, "rental_uris": {"android": "https://dc.lft.to/lastmile_qr_scan", "ios": "https://dc.lft.to/lastmile_qr_scan"}, "fusion_lon": 0.0}, {"lat": 38.953291, "is_disabled": 0, "type": "electric_bike", "lon": -76.9882065, "bike_id": "544cd2e979e6aadd0a52e74e8932bd89", "fusion_lat": 0.0, "name": "544cd2e979e6aadd0a52e74e8932bd89", "is_reserved": 0, "rental_uris": {"android": "https://dc.lft.to/lastmile_qr_scan", "ios": "https://dc.lft.to/lastmile_qr_scan"}, "fusion_lon": 0.0}, {"lat": 38.91819433333333, "is_disabled": 0, "type": "electric_scooter", "lon": -77.03075833333334, "bike_id": "a7600ab22d09f1d553a7b0ba8fddaf3c", "fusion_lat": 0.0, "name": "a7600ab22d09f1d553a7b0ba8fddaf3c", "is_reserved": 0, "rental_uris": {"android": "https://dc.lft.to/lastmile_qr_scan", "ios": "https://dc.lft.to/lastmile_qr_scan"}, "fusion_lon": 0.0}, {"lat": 38.91810066666667, "is_disabled": 0, "type": "electric_scooter", "lon": -77.02863516666666, "bike_id": "bd1d35f9fe0d89a710db525d9466b071", "fusion_lat": 0.0, "name": "bd1d35f9fe0d89a710db525d9466b071", "is_reserved": 0, "rental_uris": {"android": "https://dc.lft.to/lastmile_qr_scan", "ios": "https://dc.lft.to/lastmile_qr_scan"}, "fusion_lon": 0.0}, {"lat": 38.89512383333334, "is_disabled": 0, "type": "electric_scooter", "lon": -77.04365733333333, "bike_id": "e39bdad9da1364fa52c3151dd1fa0f36", "fusion_lat": 0.0, "name": "e39bdad9da1364fa52c3151dd1fa0f36", "is_reserved": 0, "rental_uris": {"android": "https://dc.lft.to/lastmile_qr_scan", "ios": "https://dc.lft.to/lastmile_qr_scan"}, "fusion_lon": 0.0}, {"lat": 38.88513316666667, "is_disabled": 0, "type": "electric_scooter", "lon": -77.00679783333334, "bike_id": "ec31cf1818c621d28b4ecd17b6701749", "fusion_lat": 0.0, "name": "ec31cf1818c621d28b4ecd17b6701749", "is_reserved": 0, "rental_uris": {"android": "https://dc.lft.to/lastmile_qr_scan", "ios": "https://dc.lft.to/lastmile_qr_scan"}, "fusion_lon": 0.0}, {"lat": 38.923247833333335, "is_disabled": 0, "type": "electric_scooter", "lon": -77.03908083333333, "bike_id": "6f4575738c30421209570f4bb967ac78", "fusion_lat": 0.0, "name": "6f4575738c30421209570f4bb967ac78", "is_reserved": 0, "rental_uris": {"android": "https://dc.lft.to/lastmile_qr_scan", "ios": "https://dc.lft.to/lastmile_qr_scan"}, "fusion_lon": 0.0}, {"lat": 38.928869, "is_disabled": 0, "type": "electric_scooter", "lon": -77.032678, "bike_id": "33c9412053dd6a671193a448066fd101", "fusion_lat": 0.0, "name": "33c9412053dd6a671193a448066fd101", "is_reserved": 0, "rental_uris": {"android": "https://dc.lft.to/lastmile_qr_scan", "ios": "https://dc.lft.to/lastmile_qr_scan"}, "fusion_lon": 0.0}, {"lat": 38.90727033333334, "is_disabled": 0, "type": "electric_scooter", "lon": -77.04828383333333, "bike_id": "c8d65a4f6a0d636e57731f8fed1bcda7", "fusion_lat": 0.0, "name": "c8d65a4f6a0d636e57731f8fed1bcda7", "is_reserved": 0, "rental_uris": {"android": "https://dc.lft.to/lastmile_qr_scan", "ios": "https://dc.lft.to/lastmile_qr_scan"}, "fusion_lon": 0.0}, {"lat": 39.030443166666664, "is_disabled": 0, "type": "electric_bike", "lon": -77.09485433333333, "bike_id": "7af0a4d8a360b2e06b7d3213acaa3a6b", "fusion_lat": 0.0, "name": "7af0a4d8a360b2e06b7d3213acaa3a6b", "is_reserved": 0, "rental_uris": {"android": "https://dc.lft.to/lastmile_qr_scan", "ios": "https://dc.lft.to/lastmile_qr_scan"}, "fusion_lon": 0.0}, {"lat": 38.90973483333333, "is_disabled": 0, "type": "electric_scooter", "lon": -77.04521216666667, "bike_id": "5ec7fc238be2c21ecd7c3ab4bc39a9cb", "fusion_lat": 0.0, "name": "5ec7fc238be2c21ecd7c3ab4bc39a9cb", "is_reserved": 0, "rental_uris": {"android": "https://dc.lft.to/lastmile_qr_scan", "ios": "https://dc.lft.to/lastmile_qr_scan"}, "fusion_lon": 0.0}, {"lat": 38.9270825, "is_disabled": 0, "type": "electric_scooter", "lon": -77.0232385, "bike_id": "bcb9a4f0f7b132ba7da294b87f9102a9", "fusion_lat": 0.0, "name": "bcb9a4f0f7b132ba7da294b87f9102a9", "is_reserved": 0, "rental_uris": {"android": "https://dc.lft.to/lastmile_qr_scan", "ios": "https://dc.lft.to/lastmile_qr_scan"}, "fusion_lon": 0.0}, {"lat": 38.91116016666667, "is_disabled": 0, "type": "electric_scooter", "lon": -77.02220916666667, "bike_id": "4c7adfa0adc33521a2c0626017bf9152", "fusion_lat": 0.0, "name": "4c7adfa0adc33521a2c0626017bf9152", "is_reserved": 0, "rental_uris": {"android": "https://dc.lft.to/lastmile_qr_scan", "ios": "https://dc.lft.to/lastmile_qr_scan"}, "fusion_lon": 0.0}, {"lat": 38.9045175, "is_disabled": 0, "type": "electric_scooter", "lon": -76.9946155, "bike_id": "c3260ef65dd439dccb5af2783921e810", "fusion_lat": 0.0, "name": "c3260ef65dd439dccb5af2783921e810", "is_reserved": 0, "rental_uris": {"android": "https://dc.lft.to/lastmile_qr_scan", "ios": "https://dc.lft.to/lastmile_qr_scan"}, "fusion_lon": 0.0}, {"lat": 38.9096975, "is_disabled": 0, "type": "electric_scooter", "lon": -77.03381216666666, "bike_id": "ea3e4362614b3d5f8b40478c8e3a46b7", "fusion_lat": 0.0, "name": "ea3e4362614b3d5f8b40478c8e3a46b7", "is_reserved": 0, "rental_uris": {"android": "https://dc.lft.to/lastmile_qr_scan", "ios": "https://dc.lft.to/lastmile_qr_scan"}, "fusion_lon": 0.0}, {"lat": 38.88765583333333, "is_disabled": 0, "type": "electric_scooter", "lon": -76.955784, "bike_id": "ce82107b8fd79747c9b4cf6c4eabd654", "fusion_lat": 0.0, "name": "ce82107b8fd79747c9b4cf6c4eabd654", "is_reserved": 0, "rental_uris": {"android": "https://dc.lft.to/lastmile_qr_scan", "ios": "https://dc.lft.to/lastmile_qr_scan"}, "fusion_lon": 0.0}, {"lat": 38.877942166666664, "is_disabled": 0, "type": "electric_bike", "lon": -77.02328516666667, "bike_id": "1b3ce1de2f2230148ed4780508340e75", "fusion_lat": 0.0, "name": "1b3ce1de2f2230148ed4780508340e75", "is_reserved": 0, "rental_uris": {"android": "https://dc.lft.to/lastmile_qr_scan", "ios": "https://dc.lft.to/lastmile_qr_scan"}, "fusion_lon": 0.0}, {"lat": 38.923351, "is_disabled": 0, "type": "electric_scooter", "lon": -77.043483, "bike_id": "8b17703ecee59861efe488195148cd99", "fusion_lat": 0.0, "name": "8b17703ecee59861efe488195148cd99", "is_reserved": 0, "rental_uris": {"android": "https://dc.lft.to/lastmile_qr_scan", "ios": "https://dc.lft.to/lastmile_qr_scan"}, "fusion_lon": 0.0}, {"lat": 38.89751066666667, "is_disabled": 0, "type": "electric_scooter", "lon": -77.02689483333333, "bike_id": "b3e9375540bc1dc1b9a35a22cba7b2a9", "fusion_lat": 0.0, "name": "b3e9375540bc1dc1b9a35a22cba7b2a9", "is_reserved": 0, "rental_uris": {"android": "https://dc.lft.to/lastmile_qr_scan", "ios": "https://dc.lft.to/lastmile_qr_scan"}, "fusion_lon": 0.0}, {"lat": 38.92078683333333, "is_disabled": 0, "type": "electric_scooter", "lon": -77.0242305, "bike_id": "6f0dd655dbe96eaf53d651a8530ded19", "fusion_lat": 0.0, "name": "6f0dd655dbe96eaf53d651a8530ded19", "is_reserved": 0, "rental_uris": {"android": "https://dc.lft.to/lastmile_qr_scan", "ios": "https://dc.lft.to/lastmile_qr_scan"}, "fusion_lon": 0.0}, {"lat": 38.902254, "is_disabled": 0, "type": "electric_scooter", "lon": -77.04348833333333, "bike_id": "fcc7b956a6416741dde12aa02e452f76", "fusion_lat": 0.0, "name": "fcc7b956a6416741dde12aa02e452f76", "is_reserved": 0, "rental_uris": {"android": "https://dc.lft.to/lastmile_qr_scan", "ios": "https://dc.lft.to/lastmile_qr_scan"}, "fusion_lon": 0.0}, {"lat": 38.8732435, "is_disabled": 0, "type": "electric_bike", "lon": -77.10626, "bike_id": "894b185d2c15f0b46c62256e5bc03820", "fusion_lat": 0.0, "name": "894b185d2c15f0b46c62256e5bc03820", "is_reserved": 0, "rental_uris": {"android": "https://dc.lft.to/lastmile_qr_scan", "ios": "https://dc.lft.to/lastmile_qr_scan"}, "fusion_lon": 0.0}, {"lat": 38.903035833333334, "is_disabled": 0, "type": "electric_scooter", "lon": -77.02881533333333, "bike_id": "39d9b27abe64b9abb5dc7aa207f4c52c", "fusion_lat": 0.0, "name": "39d9b27abe64b9abb5dc7aa207f4c52c", "is_reserved": 0, "rental_uris": {"android": "https://dc.lft.to/lastmile_qr_scan", "ios": "https://dc.lft.to/lastmile_qr_scan"}, "fusion_lon": 0.0}, {"lat": 38.91637466666667, "is_disabled": 0, "type": "electric_scooter", "lon": -77.04622266666667, "bike_id": "4ac783e8fb137c820578fdaf11488361", "fusion_lat": 0.0, "name": "4ac783e8fb137c820578fdaf11488361", "is_reserved": 0, "rental_uris": {"android": "https://dc.lft.to/lastmile_qr_scan", "ios": "https://dc.lft.to/lastmile_qr_scan"}, "fusion_lon": 0.0}, {"lat": 39.088559833333335, "is_disabled": 0, "type": "electric_bike", "lon": -77.17844466666666, "bike_id": "1e5eb408a5ac856f5ba428627c54ee86", "fusion_lat": 0.0, "name": "1e5eb408a5ac856f5ba428627c54ee86", "is_reserved": 0, "rental_uris": {"android": "https://dc.lft.to/lastmile_qr_scan", "ios": "https://dc.lft.to/lastmile_qr_scan"}, "fusion_lon": 0.0}, {"lat": 38.928549333333336, "is_disabled": 0, "type": "electric_bike", "lon": -77.22227983333333, "bike_id": "1240dc14a7f586d7d948ee586813540a", "fusion_lat": 0.0, "name": "1240dc14a7f586d7d948ee586813540a", "is_reserved": 0, "rental_uris": {"android": "https://dc.lft.to/lastmile_qr_scan", "ios": "https://dc.lft.to/lastmile_qr_scan"}, "fusion_lon": 0.0}, {"lat": 38.91774616666667, "is_disabled": 0, "type": "electric_scooter", "lon": -77.02879, "bike_id": "92574842cdafacc1b85cea5561108b32", "fusion_lat": 0.0, "name": "92574842cdafacc1b85cea5561108b32", "is_reserved": 0, "rental_uris": {"android": "https://dc.lft.to/lastmile_qr_scan", "ios": "https://dc.lft.to/lastmile_qr_scan"}, "fusion_lon": 0.0}, {"lat": 38.8763975, "is_disabled": 0, "type": "electric_scooter", "lon": -76.99323716666666, "bike_id": "0e0d729b374059c303df1dab796c685e", "fusion_lat": 0.0, "name": "0e0d729b374059c303df1dab796c685e", "is_reserved": 0, "rental_uris": {"android": "https://dc.lft.to/lastmile_qr_scan", "ios": "https://dc.lft.to/lastmile_qr_scan"}, "fusion_lon": 0.0}, {"lat": 38.92148816666667, "is_disabled": 0, "type": "electric_scooter", "lon": -77.035122, "bike_id": "094da6cf98b637fa706dd6c14801751b", "fusion_lat": 0.0, "name": "094da6cf98b637fa706dd6c14801751b", "is_reserved": 0, "rental_uris": {"android": "https://dc.lft.to/lastmile_qr_scan", "ios": "https://dc.lft.to/lastmile_qr_scan"}, "fusion_lon": 0.0}, {"lat": 38.90804933333333, "is_disabled": 0, "type": "electric_scooter", "lon": -77.0445125, "bike_id": "3c77beac89c33322a56f024a38b73579", "fusion_lat": 0.0, "name": "3c77beac89c33322a56f024a38b73579", "is_reserved": 0, "rental_uris": {"android": "https://dc.lft.to/lastmile_qr_scan", "ios": "https://dc.lft.to/lastmile_qr_scan"}, "fusion_lon": 0.0}, {"lat": 39.051979833333334, "is_disabled": 0, "type": "electric_bike", "lon": -77.10919983333334, "bike_id": "f5d2e90ebc6606978018529e8c9c9161", "fusion_lat": 0.0, "name": "f5d2e90ebc6606978018529e8c9c9161", "is_reserved": 0, "rental_uris": {"android": "https://dc.lft.to/lastmile_qr_scan", "ios": "https://dc.lft.to/lastmile_qr_scan"}, "fusion_lon": 0.0}, {"lat": 38.912602, "is_disabled": 0, "type": "electric_scooter", "lon": -77.03749883333333, "bike_id": "7a60ea2949346de9bb939a340f65d7c3", "fusion_lat": 0.0, "name": "7a60ea2949346de9bb939a340f65d7c3", "is_reserved": 0, "rental_uris": {"android": "https://dc.lft.to/lastmile_qr_scan", "ios": "https://dc.lft.to/lastmile_qr_scan"}, "fusion_lon": 0.0}, {"lat": 38.9124345, "is_disabled": 0, "type": "electric_scooter", "lon": -77.03213233333334, "bike_id": "a3c4763b265b1458c5bf753b054865aa", "fusion_lat": 0.0, "name": "a3c4763b265b1458c5bf753b054865aa", "is_reserved": 0, "rental_uris": {"android": "https://dc.lft.to/lastmile_qr_scan", "ios": "https://dc.lft.to/lastmile_qr_scan"}, "fusion_lon": 0.0}, {"lat": 38.90013016666666, "is_disabled": 0, "type": "electric_scooter", "lon": -77.04488916666666, "bike_id": "e64c21b4d6edde56cf30235e2a281851", "fusion_lat": 0.0, "name": "e64c21b4d6edde56cf30235e2a281851", "is_reserved": 0, "rental_uris": {"android": "https://dc.lft.to/lastmile_qr_scan", "ios": "https://dc.lft.to/lastmile_qr_scan"}, "fusion_lon": 0.0}, {"lat": 38.900602166666665, "is_disabled": 0, "type": "electric_scooter", "lon": -77.02594733333333, "bike_id": "1f94f97a790005a2289f38113a52e364", "fusion_lat": 0.0, "name": "1f94f97a790005a2289f38113a52e364", "is_reserved": 0, "rental_uris": {"android": "https://dc.lft.to/lastmile_qr_scan", "ios": "https://dc.lft.to/lastmile_qr_scan"}, "fusion_lon": 0.0}, {"lat": 38.902671166666664, "is_disabled": 0, "type": "electric_scooter", "lon": -77.03874133333333, "bike_id": "9f4f4c70ca3c68f5d3923025b4d2605b", "fusion_lat": 0.0, "name": "9f4f4c70ca3c68f5d3923025b4d2605b", "is_reserved": 0, "rental_uris": {"android": "https://dc.lft.to/lastmile_qr_scan", "ios": "https://dc.lft.to/lastmile_qr_scan"}, "fusion_lon": 0.0}, {"lat": 38.8874235, "is_disabled": 0, "type": "electric_scooter", "lon": -77.015364, "bike_id": "11404d24872b3440830c275088ea24ed", "fusion_lat": 0.0, "name": "11404d24872b3440830c275088ea24ed", "is_reserved": 0, "rental_uris": {"android": "https://dc.lft.to/lastmile_qr_scan", "ios": "https://dc.lft.to/lastmile_qr_scan"}, "fusion_lon": 0.0}, {"lat": 38.91561166666666, "is_disabled": 0, "type": "electric_scooter", "lon": -77.0324095, "bike_id": "364d5ed8ec44681924deb809642aa916", "fusion_lat": 0.0, "name": "364d5ed8ec44681924deb809642aa916", "is_reserved": 0, "rental_uris": {"android": "https://dc.lft.to/lastmile_qr_scan", "ios": "https://dc.lft.to/lastmile_qr_scan"}, "fusion_lon": 0.0}, {"lat": 38.91793, "is_disabled": 0, "type": "electric_scooter", "lon": -77.04027216666667, "bike_id": "beb5e37e4a2c11a9b5fea6cfa8c120ce", "fusion_lat": 0.0, "name": "beb5e37e4a2c11a9b5fea6cfa8c120ce", "is_reserved": 0, "rental_uris": {"android": "https://dc.lft.to/lastmile_qr_scan", "ios": "https://dc.lft.to/lastmile_qr_scan"}, "fusion_lon": 0.0}, {"lat": 38.91927916666667, "is_disabled": 0, "type": "electric_scooter", "lon": -77.0313155, "bike_id": "53e8369edbb825832b9f4e1f47fb6e79", "fusion_lat": 0.0, "name": "53e8369edbb825832b9f4e1f47fb6e79", "is_reserved": 0, "rental_uris": {"android": "https://dc.lft.to/lastmile_qr_scan", "ios": "https://dc.lft.to/lastmile_qr_scan"}, "fusion_lon": 0.0}, {"lat": 38.9295175, "is_disabled": 0, "type": "electric_scooter", "lon": -77.0189375, "bike_id": "b034dbd768accc87d43ff068eba17efc", "fusion_lat": 0.0, "name": "b034dbd768accc87d43ff068eba17efc", "is_reserved": 0, "rental_uris": {"android": "https://dc.lft.to/lastmile_qr_scan", "ios": "https://dc.lft.to/lastmile_qr_scan"}, "fusion_lon": 0.0}, {"lat": 38.91484616666666, "is_disabled": 0, "type": "electric_scooter", "lon": -77.02186316666666, "bike_id": "046f0855f5b575e84bc950f84a039956", "fusion_lat": 0.0, "name": "046f0855f5b575e84bc950f84a039956", "is_reserved": 0, "rental_uris": {"android": "https://dc.lft.to/lastmile_qr_scan", "ios": "https://dc.lft.to/lastmile_qr_scan"}, "fusion_lon": 0.0}, {"lat": 38.89966833333333, "is_disabled": 0, "type": "electric_scooter", "lon": -76.9264325, "bike_id": "c5e03518fe3efdc3734949807a367faa", "fusion_lat": 0.0, "name": "c5e03518fe3efdc3734949807a367faa", "is_reserved": 0, "rental_uris": {"android": "https://dc.lft.to/lastmile_qr_scan", "ios": "https://dc.lft.to/lastmile_qr_scan"}, "fusion_lon": 0.0}, {"lat": 38.849505666666666, "is_disabled": 0, "type": "electric_bike", "lon": -77.10028766666667, "bike_id": "23a2541e92eb6ee6ffee3983b3b379b4", "fusion_lat": 0.0, "name": "23a2541e92eb6ee6ffee3983b3b379b4", "is_reserved": 0, "rental_uris": {"android": "https://dc.lft.to/lastmile_qr_scan", "ios": "https://dc.lft.to/lastmile_qr_scan"}, "fusion_lon": 0.0}, {"lat": 38.8609005, "is_disabled": 0, "type": "electric_scooter", "lon": -76.983793, "bike_id": "3c68cdbdccc142860376d9b9508df54a", "fusion_lat": 0.0, "name": "3c68cdbdccc142860376d9b9508df54a", "is_reserved": 0, "rental_uris": {"android": "https://dc.lft.to/lastmile_qr_scan", "ios": "https://dc.lft.to/lastmile_qr_scan"}, "fusion_lon": 0.0}, {"lat": 38.8638215, "is_disabled": 0, "type": "electric_scooter", "lon": -76.992538, "bike_id": "586303ed9f36320bec159da9761a8d8a", "fusion_lat": 0.0, "name": "586303ed9f36320bec159da9761a8d8a", "is_reserved": 0, "rental_uris": {"android": "https://dc.lft.to/lastmile_qr_scan", "ios": "https://dc.lft.to/lastmile_qr_scan"}, "fusion_lon": 0.0}, {"lat": 38.91261866666667, "is_disabled": 0, "type": "electric_scooter", "lon": -77.032439, "bike_id": "dc647bd2491a27fa690525ae457bf6c0", "fusion_lat": 0.0, "name": "dc647bd2491a27fa690525ae457bf6c0", "is_reserved": 0, "rental_uris": {"android": "https://dc.lft.to/lastmile_qr_scan", "ios": "https://dc.lft.to/lastmile_qr_scan"}, "fusion_lon": 0.0}, {"lat": 38.899963166666666, "is_disabled": 0, "type": "electric_scooter", "lon": -77.02148116666666, "bike_id": "4c49a9e445ed1de4f8efe2a395016dca", "fusion_lat": 0.0, "name": "4c49a9e445ed1de4f8efe2a395016dca", "is_reserved": 0, "rental_uris": {"android": "https://dc.lft.to/lastmile_qr_scan", "ios": "https://dc.lft.to/lastmile_qr_scan"}, "fusion_lon": 0.0}, {"lat": 38.92789633333334, "is_disabled": 0, "type": "electric_bike", "lon": -76.97220533333333, "bike_id": "5260c8e752a6bb1c004f2681525de5c4", "fusion_lat": 0.0, "name": "5260c8e752a6bb1c004f2681525de5c4", "is_reserved": 0, "rental_uris": {"android": "https://dc.lft.to/lastmile_qr_scan", "ios": "https://dc.lft.to/lastmile_qr_scan"}, "fusion_lon": 0.0}, {"lat": 38.92457383333333, "is_disabled": 0, "type": "electric_scooter", "lon": -77.0202325, "bike_id": "5941b8cc0c7f40612800664bcf0fd1d3", "fusion_lat": 0.0, "name": "5941b8cc0c7f40612800664bcf0fd1d3", "is_reserved": 0, "rental_uris": {"android": "https://dc.lft.to/lastmile_qr_scan", "ios": "https://dc.lft.to/lastmile_qr_scan"}, "fusion_lon": 0.0}, {"lat": 38.97835383333334, "is_disabled": 0, "type": "electric_bike", "lon": -77.02647283333333, "bike_id": "757eeb35b0ba034e4de3e5ccc7ec742d", "fusion_lat": 0.0, "name": "757eeb35b0ba034e4de3e5ccc7ec742d", "is_reserved": 0, "rental_uris": {"android": "https://dc.lft.to/lastmile_qr_scan", "ios": "https://dc.lft.to/lastmile_qr_scan"}, "fusion_lon": 0.0}, {"lat": 38.94307283333333, "is_disabled": 0, "type": "electric_scooter", "lon": -77.05928316666666, "bike_id": "3a3d3c2cc3d4c610583c8b5f641f8484", "fusion_lat": 0.0, "name": "3a3d3c2cc3d4c610583c8b5f641f8484", "is_reserved": 0, "rental_uris": {"android": "https://dc.lft.to/lastmile_qr_scan", "ios": "https://dc.lft.to/lastmile_qr_scan"}, "fusion_lon": 0.0}, {"lat": 38.901469666666664, "is_disabled": 0, "type": "electric_scooter", "lon": -77.04452533333334, "bike_id": "889016fb3ca6e1a7ed357953535f4c55", "fusion_lat": 0.0, "name": "889016fb3ca6e1a7ed357953535f4c55", "is_reserved": 0, "rental_uris": {"android": "https://dc.lft.to/lastmile_qr_scan", "ios": "https://dc.lft.to/lastmile_qr_scan"}, "fusion_lon": 0.0}, {"lat": 38.867213, "is_disabled": 0, "type": "electric_scooter", "lon": -77.0101295, "bike_id": "296c9ab2189b2c4d9e4e5e1b1fb745ba", "fusion_lat": 0.0, "name": "296c9ab2189b2c4d9e4e5e1b1fb745ba", "is_reserved": 0, "rental_uris": {"android": "https://dc.lft.to/lastmile_qr_scan", "ios": "https://dc.lft.to/lastmile_qr_scan"}, "fusion_lon": 0.0}, {"lat": 38.909781333333335, "is_disabled": 0, "type": "electric_scooter", "lon": -77.0337505, "bike_id": "7bfb4241e172b86e0eb7cc251f7ff4f2", "fusion_lat": 0.0, "name": "7bfb4241e172b86e0eb7cc251f7ff4f2", "is_reserved": 0, "rental_uris": {"android": "https://dc.lft.to/lastmile_qr_scan", "ios": "https://dc.lft.to/lastmile_qr_scan"}, "fusion_lon": 0.0}, {"lat": 38.92366833333333, "is_disabled": 0, "type": "electric_scooter", "lon": -77.040314, "bike_id": "ae707c2c10a774e549775a692e5e0f35", "fusion_lat": 0.0, "name": "ae707c2c10a774e549775a692e5e0f35", "is_reserved": 0, "rental_uris": {"android": "https://dc.lft.to/lastmile_qr_scan", "ios": "https://dc.lft.to/lastmile_qr_scan"}, "fusion_lon": 0.0}, {"lat": 38.904319666666666, "is_disabled": 0, "type": "electric_scooter", "lon": -77.025114, "bike_id": "3b253f5b1d9c4cd5dfb7e4a9bbb2e044", "fusion_lat": 0.0, "name": "3b253f5b1d9c4cd5dfb7e4a9bbb2e044", "is_reserved": 0, "rental_uris": {"android": "https://dc.lft.to/lastmile_qr_scan", "ios": "https://dc.lft.to/lastmile_qr_scan"}, "fusion_lon": 0.0}, {"lat": 38.904551, "is_disabled": 0, "type": "electric_scooter", "lon": -77.032253, "bike_id": "a4b7d80f13088103e0ebf3914e03acaa", "fusion_lat": 0.0, "name": "a4b7d80f13088103e0ebf3914e03acaa", "is_reserved": 0, "rental_uris": {"android": "https://dc.lft.to/lastmile_qr_scan", "ios": "https://dc.lft.to/lastmile_qr_scan"}, "fusion_lon": 0.0}, {"lat": 38.89970616666667, "is_disabled": 0, "type": "electric_scooter", "lon": -77.01842916666666, "bike_id": "25f1f1a777ad3db71be30ef4251a33b3", "fusion_lat": 0.0, "name": "25f1f1a777ad3db71be30ef4251a33b3", "is_reserved": 0, "rental_uris": {"android": "https://dc.lft.to/lastmile_qr_scan", "ios": "https://dc.lft.to/lastmile_qr_scan"}, "fusion_lon": 0.0}, {"lat": 38.86565366666667, "is_disabled": 0, "type": "electric_scooter", "lon": -76.9895145, "bike_id": "9e5f5b940ffb3f2a6c99eabd4c7b3dec", "fusion_lat": 0.0, "name": "9e5f5b940ffb3f2a6c99eabd4c7b3dec", "is_reserved": 0, "rental_uris": {"android": "https://dc.lft.to/lastmile_qr_scan", "ios": "https://dc.lft.to/lastmile_qr_scan"}, "fusion_lon": 0.0}, {"lat": 38.932201666666664, "is_disabled": 0, "type": "electric_scooter", "lon": -77.02733216666667, "bike_id": "2a946bcfa1267d53bd6aab888892a5a4", "fusion_lat": 0.0, "name": "2a946bcfa1267d53bd6aab888892a5a4", "is_reserved": 0, "rental_uris": {"android": "https://dc.lft.to/lastmile_qr_scan", "ios": "https://dc.lft.to/lastmile_qr_scan"}, "fusion_lon": 0.0}, {"lat": 38.8842775, "is_disabled": 0, "type": "electric_scooter", "lon": -76.95760166666666, "bike_id": "1a398d21dcb0de95864b58bbdb1f6e1d", "fusion_lat": 0.0, "name": "1a398d21dcb0de95864b58bbdb1f6e1d", "is_reserved": 0, "rental_uris": {"android": "https://dc.lft.to/lastmile_qr_scan", "ios": "https://dc.lft.to/lastmile_qr_scan"}, "fusion_lon": 0.0}, {"lat": 38.8661825, "is_disabled": 0, "type": "electric_bike", "lon": -76.94569733333333, "bike_id": "26a892cedecc4119542f02ab3ea5e84f", "fusion_lat": 0.0, "name": "26a892cedecc4119542f02ab3ea5e84f", "is_reserved": 0, "rental_uris": {"android": "https://dc.lft.to/lastmile_qr_scan", "ios": "https://dc.lft.to/lastmile_qr_scan"}, "fusion_lon": 0.0}, {"lat": 38.889973499999996, "is_disabled": 0, "type": "electric_scooter", "lon": -77.04902433333334, "bike_id": "9e3977b7ccbdc95ea90f7c33aa5fe30c", "fusion_lat": 0.0, "name": "9e3977b7ccbdc95ea90f7c33aa5fe30c", "is_reserved": 0, "rental_uris": {"android": "https://dc.lft.to/lastmile_qr_scan", "ios": "https://dc.lft.to/lastmile_qr_scan"}, "fusion_lon": 0.0}, {"lat": 38.911822, "is_disabled": 0, "type": "electric_bike", "lon": -77.0114705, "bike_id": "acafec73a9d3d93420780e548d2cdb3a", "fusion_lat": 0.0, "name": "acafec73a9d3d93420780e548d2cdb3a", "is_reserved": 0, "rental_uris": {"android": "https://dc.lft.to/lastmile_qr_scan", "ios": "https://dc.lft.to/lastmile_qr_scan"}, "fusion_lon": 0.0}, {"lat": 38.922568, "is_disabled": 0, "type": "electric_scooter", "lon": -77.04193433333333, "bike_id": "3ec4c66d8593e4f00c3610175c4117fb", "fusion_lat": 0.0, "name": "3ec4c66d8593e4f00c3610175c4117fb", "is_reserved": 0, "rental_uris": {"android": "https://dc.lft.to/lastmile_qr_scan", "ios": "https://dc.lft.to/lastmile_qr_scan"}, "fusion_lon": 0.0}, {"lat": 38.892222, "is_disabled": 0, "type": "electric_scooter", "lon": -76.932979, "bike_id": "e3e8cb89cddb369bc0180a59cab2191a", "fusion_lat": 0.0, "name": "e3e8cb89cddb369bc0180a59cab2191a", "is_reserved": 0, "rental_uris": {"android": "https://dc.lft.to/lastmile_qr_scan", "ios": "https://dc.lft.to/lastmile_qr_scan"}, "fusion_lon": 0.0}, {"lat": 38.88972116666667, "is_disabled": 0, "type": "electric_scooter", "lon": -76.93744783333334, "bike_id": "2f2e1a95f420bda24c546c07ca79b332", "fusion_lat": 0.0, "name": "2f2e1a95f420bda24c546c07ca79b332", "is_reserved": 0, "rental_uris": {"android": "https://dc.lft.to/lastmile_qr_scan", "ios": "https://dc.lft.to/lastmile_qr_scan"}, "fusion_lon": 0.0}, {"lat": 38.91063116666667, "is_disabled": 0, "type": "electric_scooter", "lon": -77.020869, "bike_id": "40683e21540d4972a1cd8244a39eb221", "fusion_lat": 0.0, "name": "40683e21540d4972a1cd8244a39eb221", "is_reserved": 0, "rental_uris": {"android": "https://dc.lft.to/lastmile_qr_scan", "ios": "https://dc.lft.to/lastmile_qr_scan"}, "fusion_lon": 0.0}, {"lat": 38.945110666666665, "is_disabled": 0, "type": "electric_scooter", "lon": -77.021723, "bike_id": "a10f8ffa886a33e58713e5269a2787a8", "fusion_lat": 0.0, "name": "a10f8ffa886a33e58713e5269a2787a8", "is_reserved": 0, "rental_uris": {"android": "https://dc.lft.to/lastmile_qr_scan", "ios": "https://dc.lft.to/lastmile_qr_scan"}, "fusion_lon": 0.0}, {"lat": 38.91423416666667, "is_disabled": 0, "type": "electric_scooter", "lon": -77.03208566666666, "bike_id": "6c2cfdb9130ae1f1ceb7baff026e73c6", "fusion_lat": 0.0, "name": "6c2cfdb9130ae1f1ceb7baff026e73c6", "is_reserved": 0, "rental_uris": {"android": "https://dc.lft.to/lastmile_qr_scan", "ios": "https://dc.lft.to/lastmile_qr_scan"}, "fusion_lon": 0.0}, {"lat": 38.922201666666666, "is_disabled": 0, "type": "electric_scooter", "lon": -77.07310516666666, "bike_id": "52896e597186d0aa0fc0fca489e9061d", "fusion_lat": 0.0, "name": "52896e597186d0aa0fc0fca489e9061d", "is_reserved": 0, "rental_uris": {"android": "https://dc.lft.to/lastmile_qr_scan", "ios": "https://dc.lft.to/lastmile_qr_scan"}, "fusion_lon": 0.0}, {"lat": 38.922513, "is_disabled": 0, "type": "electric_scooter", "lon": -77.02702, "bike_id": "819b19b253e6d530e41f6ea18745e6a2", "fusion_lat": 0.0, "name": "819b19b253e6d530e41f6ea18745e6a2", "is_reserved": 0, "rental_uris": {"android": "https://dc.lft.to/lastmile_qr_scan", "ios": "https://dc.lft.to/lastmile_qr_scan"}, "fusion_lon": 0.0}, {"lat": 38.89288716666667, "is_disabled": 0, "type": "electric_scooter", "lon": -76.95852783333333, "bike_id": "190119459aafb676aafcb6ae6d6d73ad", "fusion_lat": 0.0, "name": "190119459aafb676aafcb6ae6d6d73ad", "is_reserved": 0, "rental_uris": {"android": "https://dc.lft.to/lastmile_qr_scan", "ios": "https://dc.lft.to/lastmile_qr_scan"}, "fusion_lon": 0.0}, {"lat": 38.89828083333333, "is_disabled": 0, "type": "electric_scooter", "lon": -77.03225283333333, "bike_id": "1da92af21f70caad3edd2b03720dfc92", "fusion_lat": 0.0, "name": "1da92af21f70caad3edd2b03720dfc92", "is_reserved": 0, "rental_uris": {"android": "https://dc.lft.to/lastmile_qr_scan", "ios": "https://dc.lft.to/lastmile_qr_scan"}, "fusion_lon": 0.0}, {"lat": 38.922751833333336, "is_disabled": 0, "type": "electric_scooter", "lon": -77.0224775, "bike_id": "f2dd7b9037d684e8dfa6684189a22027", "fusion_lat": 0.0, "name": "f2dd7b9037d684e8dfa6684189a22027", "is_reserved": 0, "rental_uris": {"android": "https://dc.lft.to/lastmile_qr_scan", "ios": "https://dc.lft.to/lastmile_qr_scan"}, "fusion_lon": 0.0}, {"lat": 38.87673216666666, "is_disabled": 0, "type": "electric_scooter", "lon": -77.00412083333333, "bike_id": "6ce358af99d16f22a57fd10381e10623", "fusion_lat": 0.0, "name": "6ce358af99d16f22a57fd10381e10623", "is_reserved": 0, "rental_uris": {"android": "https://dc.lft.to/lastmile_qr_scan", "ios": "https://dc.lft.to/lastmile_qr_scan"}, "fusion_lon": 0.0}, {"lat": 38.890003166666666, "is_disabled": 0, "type": "electric_scooter", "lon": -77.04900433333333, "bike_id": "beb828a678fc755d9d772f2d2d0b1856", "fusion_lat": 0.0, "name": "beb828a678fc755d9d772f2d2d0b1856", "is_reserved": 0, "rental_uris": {"android": "https://dc.lft.to/lastmile_qr_scan", "ios": "https://dc.lft.to/lastmile_qr_scan"}, "fusion_lon": 0.0}, {"lat": 38.90029633333333, "is_disabled": 0, "type": "electric_scooter", "lon": -76.99628533333333, "bike_id": "90df12b38671140e0b1fb8fad2316c5d", "fusion_lat": 0.0, "name": "90df12b38671140e0b1fb8fad2316c5d", "is_reserved": 0, "rental_uris": {"android": "https://dc.lft.to/lastmile_qr_scan", "ios": "https://dc.lft.to/lastmile_qr_scan"}, "fusion_lon": 0.0}, {"lat": 38.90363983333334, "is_disabled": 0, "type": "electric_scooter", "lon": -77.06029766666667, "bike_id": "62d9459e24d42b3a2ae988ee19c010e7", "fusion_lat": 0.0, "name": "62d9459e24d42b3a2ae988ee19c010e7", "is_reserved": 0, "rental_uris": {"android": "https://dc.lft.to/lastmile_qr_scan", "ios": "https://dc.lft.to/lastmile_qr_scan"}, "fusion_lon": 0.0}, {"lat": 38.8968995, "is_disabled": 0, "type": "electric_scooter", "lon": -76.935335, "bike_id": "95b13a22225affb11996c8076675d436", "fusion_lat": 0.0, "name": "95b13a22225affb11996c8076675d436", "is_reserved": 0, "rental_uris": {"android": "https://dc.lft.to/lastmile_qr_scan", "ios": "https://dc.lft.to/lastmile_qr_scan"}, "fusion_lon": 0.0}, {"lat": 38.9170915, "is_disabled": 0, "type": "electric_scooter", "lon": -77.0386975, "bike_id": "d1f753e0e5f9fd1c485a6d4ae5946663", "fusion_lat": 0.0, "name": "d1f753e0e5f9fd1c485a6d4ae5946663", "is_reserved": 0, "rental_uris": {"android": "https://dc.lft.to/lastmile_qr_scan", "ios": "https://dc.lft.to/lastmile_qr_scan"}, "fusion_lon": 0.0}, {"lat": 38.918579, "is_disabled": 0, "type": "electric_scooter", "lon": -77.04594233333333, "bike_id": "db08c2d02f89e86f11ce7f2630d4e3ba", "fusion_lat": 0.0, "name": "db08c2d02f89e86f11ce7f2630d4e3ba", "is_reserved": 0, "rental_uris": {"android": "https://dc.lft.to/lastmile_qr_scan", "ios": "https://dc.lft.to/lastmile_qr_scan"}, "fusion_lon": 0.0}, {"lat": 38.917694, "is_disabled": 0, "type": "electric_scooter", "lon": -77.02313816666667, "bike_id": "48035393bdb80e38000eeba6d47d4947", "fusion_lat": 0.0, "name": "48035393bdb80e38000eeba6d47d4947", "is_reserved": 0, "rental_uris": {"android": "https://dc.lft.to/lastmile_qr_scan", "ios": "https://dc.lft.to/lastmile_qr_scan"}, "fusion_lon": 0.0}, {"lat": 38.9132625, "is_disabled": 0, "type": "electric_scooter", "lon": -77.03264333333334, "bike_id": "268fb464c55387ceb64494e911281c2c", "fusion_lat": 0.0, "name": "268fb464c55387ceb64494e911281c2c", "is_reserved": 0, "rental_uris": {"android": "https://dc.lft.to/lastmile_qr_scan", "ios": "https://dc.lft.to/lastmile_qr_scan"}, "fusion_lon": 0.0}, {"lat": 38.917121333333334, "is_disabled": 0, "type": "electric_scooter", "lon": -77.02489633333333, "bike_id": "41c7013e263eb98bafa7521ff5d1c3b0", "fusion_lat": 0.0, "name": "41c7013e263eb98bafa7521ff5d1c3b0", "is_reserved": 0, "rental_uris": {"android": "https://dc.lft.to/lastmile_qr_scan", "ios": "https://dc.lft.to/lastmile_qr_scan"}, "fusion_lon": 0.0}, {"lat": 38.884410333333335, "is_disabled": 0, "type": "electric_scooter", "lon": -77.030371, "bike_id": "33741eec4625bc81b9456869ec6adc43", "fusion_lat": 0.0, "name": "33741eec4625bc81b9456869ec6adc43", "is_reserved": 0, "rental_uris": {"android": "https://dc.lft.to/lastmile_qr_scan", "ios": "https://dc.lft.to/lastmile_qr_scan"}, "fusion_lon": 0.0}, {"lat": 38.920651, "is_disabled": 0, "type": "electric_scooter", "lon": -77.04335683333333, "bike_id": "f7a42860f77caba82ebaf5c07e453a41", "fusion_lat": 0.0, "name": "f7a42860f77caba82ebaf5c07e453a41", "is_reserved": 0, "rental_uris": {"android": "https://dc.lft.to/lastmile_qr_scan", "ios": "https://dc.lft.to/lastmile_qr_scan"}, "fusion_lon": 0.0}, {"lat": 38.9614765, "is_disabled": 0, "type": "electric_scooter", "lon": -77.02805766666667, "bike_id": "2fa742b994172b145af3d70957026743", "fusion_lat": 0.0, "name": "2fa742b994172b145af3d70957026743", "is_reserved": 0, "rental_uris": {"android": "https://dc.lft.to/lastmile_qr_scan", "ios": "https://dc.lft.to/lastmile_qr_scan"}, "fusion_lon": 0.0}, {"lat": 38.91120766666667, "is_disabled": 0, "type": "electric_scooter", "lon": -77.04458433333333, "bike_id": "7574de91a51c97ecc7025684f1bfebac", "fusion_lat": 0.0, "name": "7574de91a51c97ecc7025684f1bfebac", "is_reserved": 0, "rental_uris": {"android": "https://dc.lft.to/lastmile_qr_scan", "ios": "https://dc.lft.to/lastmile_qr_scan"}, "fusion_lon": 0.0}, {"lat": 38.864354, "is_disabled": 0, "type": "electric_scooter", "lon": -77.01369133333333, "bike_id": "09508d5b2eb069259fe275f273cbdf7e", "fusion_lat": 0.0, "name": "09508d5b2eb069259fe275f273cbdf7e", "is_reserved": 0, "rental_uris": {"android": "https://dc.lft.to/lastmile_qr_scan", "ios": "https://dc.lft.to/lastmile_qr_scan"}, "fusion_lon": 0.0}, {"lat": 38.9170165, "is_disabled": 0, "type": "electric_scooter", "lon": -77.03230366666666, "bike_id": "5ec5b07a2b1496c0f37cba9f232a910f", "fusion_lat": 0.0, "name": "5ec5b07a2b1496c0f37cba9f232a910f", "is_reserved": 0, "rental_uris": {"android": "https://dc.lft.to/lastmile_qr_scan", "ios": "https://dc.lft.to/lastmile_qr_scan"}, "fusion_lon": 0.0}, {"lat": 38.89872016666666, "is_disabled": 0, "type": "electric_scooter", "lon": -77.023753, "bike_id": "deffd74c759323347ebc891cdf6a63aa", "fusion_lat": 0.0, "name": "deffd74c759323347ebc891cdf6a63aa", "is_reserved": 0, "rental_uris": {"android": "https://dc.lft.to/lastmile_qr_scan", "ios": "https://dc.lft.to/lastmile_qr_scan"}, "fusion_lon": 0.0}, {"lat": 38.95958183333333, "is_disabled": 0, "type": "electric_bike", "lon": -77.10094783333334, "bike_id": "2aeeee522e17d2629458bc3fc4d0b96f", "fusion_lat": 0.0, "name": "2aeeee522e17d2629458bc3fc4d0b96f", "is_reserved": 0, "rental_uris": {"android": "https://dc.lft.to/lastmile_qr_scan", "ios": "https://dc.lft.to/lastmile_qr_scan"}, "fusion_lon": 0.0}, {"lat": 38.915686, "is_disabled": 0, "type": "electric_scooter", "lon": -77.03151483333333, "bike_id": "738791672cc7f615831b84480c888ae5", "fusion_lat": 0.0, "name": "738791672cc7f615831b84480c888ae5", "is_reserved": 0, "rental_uris": {"android": "https://dc.lft.to/lastmile_qr_scan", "ios": "https://dc.lft.to/lastmile_qr_scan"}, "fusion_lon": 0.0}, {"lat": 38.916519, "is_disabled": 0, "type": "electric_scooter", "lon": -76.98227333333334, "bike_id": "75528f044c505de666a546c252648268", "fusion_lat": 0.0, "name": "75528f044c505de666a546c252648268", "is_reserved": 0, "rental_uris": {"android": "https://dc.lft.to/lastmile_qr_scan", "ios": "https://dc.lft.to/lastmile_qr_scan"}, "fusion_lon": 0.0}, {"lat": 39.03422033333333, "is_disabled": 0, "type": "electric_bike", "lon": -77.0430375, "bike_id": "d60fa912790c9b8cbaa7c13790ce592e", "fusion_lat": 0.0, "name": "d60fa912790c9b8cbaa7c13790ce592e", "is_reserved": 0, "rental_uris": {"android": "https://dc.lft.to/lastmile_qr_scan", "ios": "https://dc.lft.to/lastmile_qr_scan"}, "fusion_lon": 0.0}, {"lat": 38.85187166666667, "is_disabled": 0, "type": "electric_scooter", "lon": -76.97621833333334, "bike_id": "b4907413d26486942654c260e333bdbb", "fusion_lat": 0.0, "name": "b4907413d26486942654c260e333bdbb", "is_reserved": 0, "rental_uris": {"android": "https://dc.lft.to/lastmile_qr_scan", "ios": "https://dc.lft.to/lastmile_qr_scan"}, "fusion_lon": 0.0}, {"lat": 38.91689383333333, "is_disabled": 0, "type": "electric_scooter", "lon": -77.02515933333333, "bike_id": "b5f116bd1e9190342639419d91142bc2", "fusion_lat": 0.0, "name": "b5f116bd1e9190342639419d91142bc2", "is_reserved": 0, "rental_uris": {"android": "https://dc.lft.to/lastmile_qr_scan", "ios": "https://dc.lft.to/lastmile_qr_scan"}, "fusion_lon": 0.0}, {"lat": 38.936557, "is_disabled": 0, "type": "electric_bike", "lon": -76.952208, "bike_id": "ada6195f7c3a223306c61ef381d3e566", "fusion_lat": 0.0, "name": "ada6195f7c3a223306c61ef381d3e566", "is_reserved": 0, "rental_uris": {"android": "https://dc.lft.to/lastmile_qr_scan", "ios": "https://dc.lft.to/lastmile_qr_scan"}, "fusion_lon": 0.0}, {"lat": 38.919758, "is_disabled": 0, "type": "electric_scooter", "lon": -77.0239515, "bike_id": "3fcbab3de541c87be7b4df88dcf8885b", "fusion_lat": 0.0, "name": "3fcbab3de541c87be7b4df88dcf8885b", "is_reserved": 0, "rental_uris": {"android": "https://dc.lft.to/lastmile_qr_scan", "ios": "https://dc.lft.to/lastmile_qr_scan"}, "fusion_lon": 0.0}, {"lat": 38.91343333333333, "is_disabled": 0, "type": "electric_scooter", "lon": -77.030224, "bike_id": "33e0fea18decf3ddfbaf034b073543be", "fusion_lat": 0.0, "name": "33e0fea18decf3ddfbaf034b073543be", "is_reserved": 0, "rental_uris": {"android": "https://dc.lft.to/lastmile_qr_scan", "ios": "https://dc.lft.to/lastmile_qr_scan"}, "fusion_lon": 0.0}, {"lat": 38.844237666666665, "is_disabled": 0, "type": "electric_scooter", "lon": -76.99778816666667, "bike_id": "0eec280f12ad629e71f9d033f589d641", "fusion_lat": 0.0, "name": "0eec280f12ad629e71f9d033f589d641", "is_reserved": 0, "rental_uris": {"android": "https://dc.lft.to/lastmile_qr_scan", "ios": "https://dc.lft.to/lastmile_qr_scan"}, "fusion_lon": 0.0}, {"lat": 38.87391133333333, "is_disabled": 0, "type": "electric_scooter", "lon": -77.00033666666667, "bike_id": "9e7a571c2dfeb110a92b21a15f979ac3", "fusion_lat": 0.0, "name": "9e7a571c2dfeb110a92b21a15f979ac3", "is_reserved": 0, "rental_uris": {"android": "https://dc.lft.to/lastmile_qr_scan", "ios": "https://dc.lft.to/lastmile_qr_scan"}, "fusion_lon": 0.0}, {"lat": 38.89857516666667, "is_disabled": 0, "type": "electric_scooter", "lon": -77.02321083333334, "bike_id": "5ac5b439c17bd06ec031de1b1f314ba0", "fusion_lat": 0.0, "name": "5ac5b439c17bd06ec031de1b1f314ba0", "is_reserved": 0, "rental_uris": {"android": "https://dc.lft.to/lastmile_qr_scan", "ios": "https://dc.lft.to/lastmile_qr_scan"}, "fusion_lon": 0.0}, {"lat": 38.91259516666667, "is_disabled": 0, "type": "electric_scooter", "lon": -77.03237833333333, "bike_id": "dacb7df33acbc5996ed4d63bfeb33278", "fusion_lat": 0.0, "name": "dacb7df33acbc5996ed4d63bfeb33278", "is_reserved": 0, "rental_uris": {"android": "https://dc.lft.to/lastmile_qr_scan", "ios": "https://dc.lft.to/lastmile_qr_scan"}, "fusion_lon": 0.0}, {"lat": 38.873460666666666, "is_disabled": 0, "type": "electric_scooter", "lon": -77.00882483333334, "bike_id": "164da06c71fbf7e78692b155e231867b", "fusion_lat": 0.0, "name": "164da06c71fbf7e78692b155e231867b", "is_reserved": 0, "rental_uris": {"android": "https://dc.lft.to/lastmile_qr_scan", "ios": "https://dc.lft.to/lastmile_qr_scan"}, "fusion_lon": 0.0}, {"lat": 38.937510833333334, "is_disabled": 0, "type": "electric_scooter", "lon": -77.0362995, "bike_id": "6e566d578f94c2e6e960f6c3cf9bb4da", "fusion_lat": 0.0, "name": "6e566d578f94c2e6e960f6c3cf9bb4da", "is_reserved": 0, "rental_uris": {"android": "https://dc.lft.to/lastmile_qr_scan", "ios": "https://dc.lft.to/lastmile_qr_scan"}, "fusion_lon": 0.0}, {"lat": 38.90032433333333, "is_disabled": 0, "type": "electric_scooter", "lon": -76.9962435, "bike_id": "c391f42bc441217ece792d8d89204867", "fusion_lat": 0.0, "name": "c391f42bc441217ece792d8d89204867", "is_reserved": 0, "rental_uris": {"android": "https://dc.lft.to/lastmile_qr_scan", "ios": "https://dc.lft.to/lastmile_qr_scan"}, "fusion_lon": 0.0}, {"lat": 38.97330933333333, "is_disabled": 0, "type": "electric_bike", "lon": -77.0214705, "bike_id": "353b96b7254894bc96910a82aa6324a7", "fusion_lat": 0.0, "name": "353b96b7254894bc96910a82aa6324a7", "is_reserved": 0, "rental_uris": {"android": "https://dc.lft.to/lastmile_qr_scan", "ios": "https://dc.lft.to/lastmile_qr_scan"}, "fusion_lon": 0.0}, {"lat": 38.91409316666667, "is_disabled": 0, "type": "electric_scooter", "lon": -77.00805283333334, "bike_id": "d28f0dcf1c5d815bf16ffd9012cc5aaa", "fusion_lat": 0.0, "name": "d28f0dcf1c5d815bf16ffd9012cc5aaa", "is_reserved": 0, "rental_uris": {"android": "https://dc.lft.to/lastmile_qr_scan", "ios": "https://dc.lft.to/lastmile_qr_scan"}, "fusion_lon": 0.0}, {"lat": 38.91902283333334, "is_disabled": 0, "type": "electric_scooter", "lon": -77.03926766666666, "bike_id": "f456e35504ecb03b7d85d9c6e3072b93", "fusion_lat": 0.0, "name": "f456e35504ecb03b7d85d9c6e3072b93", "is_reserved": 0, "rental_uris": {"android": "https://dc.lft.to/lastmile_qr_scan", "ios": "https://dc.lft.to/lastmile_qr_scan"}, "fusion_lon": 0.0}, {"lat": 38.9068125, "is_disabled": 0, "type": "electric_scooter", "lon": -77.02699116666666, "bike_id": "15e57b7b602fe5f69720f3ce0052aaf5", "fusion_lat": 0.0, "name": "15e57b7b602fe5f69720f3ce0052aaf5", "is_reserved": 0, "rental_uris": {"android": "https://dc.lft.to/lastmile_qr_scan", "ios": "https://dc.lft.to/lastmile_qr_scan"}, "fusion_lon": 0.0}, {"lat": 38.916727333333334, "is_disabled": 0, "type": "electric_scooter", "lon": -77.0239195, "bike_id": "fea150aadae8918d1f1e109e0bd005f4", "fusion_lat": 0.0, "name": "fea150aadae8918d1f1e109e0bd005f4", "is_reserved": 0, "rental_uris": {"android": "https://dc.lft.to/lastmile_qr_scan", "ios": "https://dc.lft.to/lastmile_qr_scan"}, "fusion_lon": 0.0}, {"lat": 38.93897483333333, "is_disabled": 0, "type": "electric_scooter", "lon": -77.0849135, "bike_id": "72c4388d37f3f3cd03dbc427f638cece", "fusion_lat": 0.0, "name": "72c4388d37f3f3cd03dbc427f638cece", "is_reserved": 0, "rental_uris": {"android": "https://dc.lft.to/lastmile_qr_scan", "ios": "https://dc.lft.to/lastmile_qr_scan"}, "fusion_lon": 0.0}, {"lat": 38.92006333333333, "is_disabled": 0, "type": "electric_scooter", "lon": -77.01730566666667, "bike_id": "5ea9e25ce4d16a13d1ce9a6e1f6f1c4e", "fusion_lat": 0.0, "name": "5ea9e25ce4d16a13d1ce9a6e1f6f1c4e", "is_reserved": 0, "rental_uris": {"android": "https://dc.lft.to/lastmile_qr_scan", "ios": "https://dc.lft.to/lastmile_qr_scan"}, "fusion_lon": 0.0}, {"lat": 38.897711666666666, "is_disabled": 0, "type": "electric_scooter", "lon": -77.00916533333333, "bike_id": "c6b506f5c25e2391f436e936590f5691", "fusion_lat": 0.0, "name": "c6b506f5c25e2391f436e936590f5691", "is_reserved": 0, "rental_uris": {"android": "https://dc.lft.to/lastmile_qr_scan", "ios": "https://dc.lft.to/lastmile_qr_scan"}, "fusion_lon": 0.0}, {"lat": 38.8876815, "is_disabled": 0, "type": "electric_scooter", "lon": -76.95597566666666, "bike_id": "6763ed59e9e7aa9441fb2e0494696708", "fusion_lat": 0.0, "name": "6763ed59e9e7aa9441fb2e0494696708", "is_reserved": 0, "rental_uris": {"android": "https://dc.lft.to/lastmile_qr_scan", "ios": "https://dc.lft.to/lastmile_qr_scan"}, "fusion_lon": 0.0}, {"lat": 38.952656, "is_disabled": 0, "type": "electric_bike", "lon": -77.06977083333334, "bike_id": "06b203dc272c1510d50119616b76ba12", "fusion_lat": 0.0, "name": "06b203dc272c1510d50119616b76ba12", "is_reserved": 0, "rental_uris": {"android": "https://dc.lft.to/lastmile_qr_scan", "ios": "https://dc.lft.to/lastmile_qr_scan"}, "fusion_lon": 0.0}, {"lat": 38.90367366666667, "is_disabled": 0, "type": "electric_scooter", "lon": -77.062847, "bike_id": "f3e8cd1b19378d177cf71d2dfde905bf", "fusion_lat": 0.0, "name": "f3e8cd1b19378d177cf71d2dfde905bf", "is_reserved": 0, "rental_uris": {"android": "https://dc.lft.to/lastmile_qr_scan", "ios": "https://dc.lft.to/lastmile_qr_scan"}, "fusion_lon": 0.0}, {"lat": 38.904138833333334, "is_disabled": 0, "type": "electric_scooter", "lon": -76.99073333333334, "bike_id": "52843da0332497cdcbe86c9f5184aba6", "fusion_lat": 0.0, "name": "52843da0332497cdcbe86c9f5184aba6", "is_reserved": 0, "rental_uris": {"android": "https://dc.lft.to/lastmile_qr_scan", "ios": "https://dc.lft.to/lastmile_qr_scan"}, "fusion_lon": 0.0}, {"lat": 38.90042183333333, "is_disabled": 0, "type": "electric_scooter", "lon": -76.99012633333334, "bike_id": "2bc34497576fb7bc32bf180ddccb675c", "fusion_lat": 0.0, "name": "2bc34497576fb7bc32bf180ddccb675c", "is_reserved": 0, "rental_uris": {"android": "https://dc.lft.to/lastmile_qr_scan", "ios": "https://dc.lft.to/lastmile_qr_scan"}, "fusion_lon": 0.0}, {"lat": 38.904027666666664, "is_disabled": 0, "type": "electric_scooter", "lon": -77.04330233333333, "bike_id": "9a0be30015faa0d4bcbaa989c8700328", "fusion_lat": 0.0, "name": "9a0be30015faa0d4bcbaa989c8700328", "is_reserved": 0, "rental_uris": {"android": "https://dc.lft.to/lastmile_qr_scan", "ios": "https://dc.lft.to/lastmile_qr_scan"}, "fusion_lon": 0.0}, {"lat": 38.90141916666666, "is_disabled": 0, "type": "electric_scooter", "lon": -76.98056566666666, "bike_id": "67e62859973900e69afce0008dbae035", "fusion_lat": 0.0, "name": "67e62859973900e69afce0008dbae035", "is_reserved": 0, "rental_uris": {"android": "https://dc.lft.to/lastmile_qr_scan", "ios": "https://dc.lft.to/lastmile_qr_scan"}, "fusion_lon": 0.0}, {"lat": 38.908546666666666, "is_disabled": 0, "type": "electric_scooter", "lon": -77.00626616666666, "bike_id": "f1b6862353072804ab36a9b4dd65e7d0", "fusion_lat": 0.0, "name": "f1b6862353072804ab36a9b4dd65e7d0", "is_reserved": 0, "rental_uris": {"android": "https://dc.lft.to/lastmile_qr_scan", "ios": "https://dc.lft.to/lastmile_qr_scan"}, "fusion_lon": 0.0}, {"lat": 38.84611816666666, "is_disabled": 0, "type": "electric_bike", "lon": -76.969043, "bike_id": "6f7f818838e743535f98ae3c39a20735", "fusion_lat": 0.0, "name": "6f7f818838e743535f98ae3c39a20735", "is_reserved": 0, "rental_uris": {"android": "https://dc.lft.to/lastmile_qr_scan", "ios": "https://dc.lft.to/lastmile_qr_scan"}, "fusion_lon": 0.0}, {"lat": 38.919807166666665, "is_disabled": 0, "type": "electric_scooter", "lon": -77.00022966666667, "bike_id": "b7b4d1d6db0beba1d27964c3befa02d5", "fusion_lat": 0.0, "name": "b7b4d1d6db0beba1d27964c3befa02d5", "is_reserved": 0, "rental_uris": {"android": "https://dc.lft.to/lastmile_qr_scan", "ios": "https://dc.lft.to/lastmile_qr_scan"}, "fusion_lon": 0.0}, {"lat": 38.92223633333333, "is_disabled": 0, "type": "electric_scooter", "lon": -77.0424235, "bike_id": "7ab7fc57b72492de62f8f08950b4f961", "fusion_lat": 0.0, "name": "7ab7fc57b72492de62f8f08950b4f961", "is_reserved": 0, "rental_uris": {"android": "https://dc.lft.to/lastmile_qr_scan", "ios": "https://dc.lft.to/lastmile_qr_scan"}, "fusion_lon": 0.0}, {"lat": 38.909581, "is_disabled": 0, "type": "electric_scooter", "lon": -77.018339, "bike_id": "d439f98dc782c2ca6597d251317c99ca", "fusion_lat": 0.0, "name": "d439f98dc782c2ca6597d251317c99ca", "is_reserved": 0, "rental_uris": {"android": "https://dc.lft.to/lastmile_qr_scan", "ios": "https://dc.lft.to/lastmile_qr_scan"}, "fusion_lon": 0.0}, {"lat": 38.823375666666664, "is_disabled": 0, "type": "electric_bike", "lon": -77.05822483333333, "bike_id": "965ca9dfe4bd52f25fa5eb83154ede23", "fusion_lat": 0.0, "name": "965ca9dfe4bd52f25fa5eb83154ede23", "is_reserved": 0, "rental_uris": {"android": "https://dc.lft.to/lastmile_qr_scan", "ios": "https://dc.lft.to/lastmile_qr_scan"}, "fusion_lon": 0.0}, {"lat": 38.927540666666665, "is_disabled": 0, "type": "electric_scooter", "lon": -77.03694133333333, "bike_id": "5fbec77abe0419b1f7a32c2ab7fcbe03", "fusion_lat": 0.0, "name": "5fbec77abe0419b1f7a32c2ab7fcbe03", "is_reserved": 0, "rental_uris": {"android": "https://dc.lft.to/lastmile_qr_scan", "ios": "https://dc.lft.to/lastmile_qr_scan"}, "fusion_lon": 0.0}, {"lat": 38.94234, "is_disabled": 0, "type": "electric_scooter", "lon": -77.0138855, "bike_id": "07810337bac88959cefe491b32e2380e", "fusion_lat": 0.0, "name": "07810337bac88959cefe491b32e2380e", "is_reserved": 0, "rental_uris": {"android": "https://dc.lft.to/lastmile_qr_scan", "ios": "https://dc.lft.to/lastmile_qr_scan"}, "fusion_lon": 0.0}, {"lat": 38.931158833333335, "is_disabled": 0, "type": "electric_scooter", "lon": -77.03031616666667, "bike_id": "5f9d3c1c99aca993403ea5d8ef32d33c", "fusion_lat": 0.0, "name": "5f9d3c1c99aca993403ea5d8ef32d33c", "is_reserved": 0, "rental_uris": {"android": "https://dc.lft.to/lastmile_qr_scan", "ios": "https://dc.lft.to/lastmile_qr_scan"}, "fusion_lon": 0.0}, {"lat": 38.97226766666667, "is_disabled": 0, "type": "electric_bike", "lon": -76.99345833333334, "bike_id": "378bf35cdecaebdc5eac30005f1b7ff3", "fusion_lat": 0.0, "name": "378bf35cdecaebdc5eac30005f1b7ff3", "is_reserved": 0, "rental_uris": {"android": "https://dc.lft.to/lastmile_qr_scan", "ios": "https://dc.lft.to/lastmile_qr_scan"}, "fusion_lon": 0.0}, {"lat": 38.92243366666667, "is_disabled": 0, "type": "electric_scooter", "lon": -77.04569916666667, "bike_id": "56b63e4a8fe7d0077d94541c9c415ecf", "fusion_lat": 0.0, "name": "56b63e4a8fe7d0077d94541c9c415ecf", "is_reserved": 0, "rental_uris": {"android": "https://dc.lft.to/lastmile_qr_scan", "ios": "https://dc.lft.to/lastmile_qr_scan"}, "fusion_lon": 0.0}, {"lat": 38.915799166666666, "is_disabled": 0, "type": "electric_scooter", "lon": -77.031991, "bike_id": "228486c72b41f88d21171e6bf8749b48", "fusion_lat": 0.0, "name": "228486c72b41f88d21171e6bf8749b48", "is_reserved": 0, "rental_uris": {"android": "https://dc.lft.to/lastmile_qr_scan", "ios": "https://dc.lft.to/lastmile_qr_scan"}, "fusion_lon": 0.0}, {"lat": 38.91952333333333, "is_disabled": 0, "type": "electric_scooter", "lon": -76.98077666666667, "bike_id": "13285eff875e66a10d8ced5d3fcd6b0a", "fusion_lat": 0.0, "name": "13285eff875e66a10d8ced5d3fcd6b0a", "is_reserved": 0, "rental_uris": {"android": "https://dc.lft.to/lastmile_qr_scan", "ios": "https://dc.lft.to/lastmile_qr_scan"}, "fusion_lon": 0.0}, {"lat": 38.9337605, "is_disabled": 0, "type": "electric_scooter", "lon": -77.0379435, "bike_id": "502b16e552f091245e11f28771eef269", "fusion_lat": 0.0, "name": "502b16e552f091245e11f28771eef269", "is_reserved": 0, "rental_uris": {"android": "https://dc.lft.to/lastmile_qr_scan", "ios": "https://dc.lft.to/lastmile_qr_scan"}, "fusion_lon": 0.0}, {"lat": 38.91156566666667, "is_disabled": 0, "type": "electric_scooter", "lon": -77.04494466666667, "bike_id": "5e4d739bd3fa3d4de06d96c66ab553fa", "fusion_lat": 0.0, "name": "5e4d739bd3fa3d4de06d96c66ab553fa", "is_reserved": 0, "rental_uris": {"android": "https://dc.lft.to/lastmile_qr_scan", "ios": "https://dc.lft.to/lastmile_qr_scan"}, "fusion_lon": 0.0}, {"lat": 38.90339266666667, "is_disabled": 0, "type": "electric_scooter", "lon": -77.037823, "bike_id": "3bb54aebc209c5ebfd6559a28eecb705", "fusion_lat": 0.0, "name": "3bb54aebc209c5ebfd6559a28eecb705", "is_reserved": 0, "rental_uris": {"android": "https://dc.lft.to/lastmile_qr_scan", "ios": "https://dc.lft.to/lastmile_qr_scan"}, "fusion_lon": 0.0}, {"lat": 38.860513, "is_disabled": 0, "type": "electric_scooter", "lon": -77.057364, "bike_id": "8b1d561979e9982aad249e9cff381e68", "fusion_lat": 0.0, "name": "8b1d561979e9982aad249e9cff381e68", "is_reserved": 0, "rental_uris": {"android": "https://dc.lft.to/lastmile_qr_scan", "ios": "https://dc.lft.to/lastmile_qr_scan"}, "fusion_lon": 0.0}, {"lat": 38.94494983333333, "is_disabled": 0, "type": "electric_scooter", "lon": -77.01551083333334, "bike_id": "f766e32c7d5434832c1be0a77474a261", "fusion_lat": 0.0, "name": "f766e32c7d5434832c1be0a77474a261", "is_reserved": 0, "rental_uris": {"android": "https://dc.lft.to/lastmile_qr_scan", "ios": "https://dc.lft.to/lastmile_qr_scan"}, "fusion_lon": 0.0}, {"lat": 38.9162455, "is_disabled": 0, "type": "electric_scooter", "lon": -77.03179433333334, "bike_id": "134b1ef5b548c9cc3004fc1eaae7dd38", "fusion_lat": 0.0, "name": "134b1ef5b548c9cc3004fc1eaae7dd38", "is_reserved": 0, "rental_uris": {"android": "https://dc.lft.to/lastmile_qr_scan", "ios": "https://dc.lft.to/lastmile_qr_scan"}, "fusion_lon": 0.0}, {"lat": 38.91901566666667, "is_disabled": 0, "type": "electric_scooter", "lon": -77.00240366666667, "bike_id": "9b13703e1aab3d4b0e4518ee56cad2c2", "fusion_lat": 0.0, "name": "9b13703e1aab3d4b0e4518ee56cad2c2", "is_reserved": 0, "rental_uris": {"android": "https://dc.lft.to/lastmile_qr_scan", "ios": "https://dc.lft.to/lastmile_qr_scan"}, "fusion_lon": 0.0}, {"lat": 38.918155166666665, "is_disabled": 0, "type": "electric_scooter", "lon": -77.03092633333333, "bike_id": "646527bad61fc962ba9eeb18896b5690", "fusion_lat": 0.0, "name": "646527bad61fc962ba9eeb18896b5690", "is_reserved": 0, "rental_uris": {"android": "https://dc.lft.to/lastmile_qr_scan", "ios": "https://dc.lft.to/lastmile_qr_scan"}, "fusion_lon": 0.0}, {"lat": 38.930671, "is_disabled": 0, "type": "electric_scooter", "lon": -77.028218, "bike_id": "f087040d07fba0da806e655c54ddf9cb", "fusion_lat": 0.0, "name": "f087040d07fba0da806e655c54ddf9cb", "is_reserved": 0, "rental_uris": {"android": "https://dc.lft.to/lastmile_qr_scan", "ios": "https://dc.lft.to/lastmile_qr_scan"}, "fusion_lon": 0.0}, {"lat": 38.90960466666667, "is_disabled": 0, "type": "electric_scooter", "lon": -77.02280816666666, "bike_id": "e5f6754dbb0a1d5cad926ffdbdcad94d", "fusion_lat": 0.0, "name": "e5f6754dbb0a1d5cad926ffdbdcad94d", "is_reserved": 0, "rental_uris": {"android": "https://dc.lft.to/lastmile_qr_scan", "ios": "https://dc.lft.to/lastmile_qr_scan"}, "fusion_lon": 0.0}, {"lat": 38.9103865, "is_disabled": 0, "type": "electric_scooter", "lon": -77.03830033333334, "bike_id": "18cc77ab29f847c466db78e18a0921f2", "fusion_lat": 0.0, "name": "18cc77ab29f847c466db78e18a0921f2", "is_reserved": 0, "rental_uris": {"android": "https://dc.lft.to/lastmile_qr_scan", "ios": "https://dc.lft.to/lastmile_qr_scan"}, "fusion_lon": 0.0}, {"lat": 38.9078455, "is_disabled": 0, "type": "electric_scooter", "lon": -77.0321135, "bike_id": "f335188f68f69854c05cd2d89aea2f8e", "fusion_lat": 0.0, "name": "f335188f68f69854c05cd2d89aea2f8e", "is_reserved": 0, "rental_uris": {"android": "https://dc.lft.to/lastmile_qr_scan", "ios": "https://dc.lft.to/lastmile_qr_scan"}, "fusion_lon": 0.0}, {"lat": 38.917473, "is_disabled": 0, "type": "electric_scooter", "lon": -77.0281275, "bike_id": "a957c0512366629aebae44179e9b41db", "fusion_lat": 0.0, "name": "a957c0512366629aebae44179e9b41db", "is_reserved": 0, "rental_uris": {"android": "https://dc.lft.to/lastmile_qr_scan", "ios": "https://dc.lft.to/lastmile_qr_scan"}, "fusion_lon": 0.0}, {"lat": 38.918510166666664, "is_disabled": 0, "type": "electric_scooter", "lon": -77.03211716666667, "bike_id": "c166bbe26e36e05fbba82e652bca2749", "fusion_lat": 0.0, "name": "c166bbe26e36e05fbba82e652bca2749", "is_reserved": 0, "rental_uris": {"android": "https://dc.lft.to/lastmile_qr_scan", "ios": "https://dc.lft.to/lastmile_qr_scan"}, "fusion_lon": 0.0}, {"lat": 38.92879333333333, "is_disabled": 0, "type": "electric_scooter", "lon": -77.03321666666666, "bike_id": "86f5dc4840deb7a5a33a85763ae72bcc", "fusion_lat": 0.0, "name": "86f5dc4840deb7a5a33a85763ae72bcc", "is_reserved": 0, "rental_uris": {"android": "https://dc.lft.to/lastmile_qr_scan", "ios": "https://dc.lft.to/lastmile_qr_scan"}, "fusion_lon": 0.0}, {"lat": 38.9259265, "is_disabled": 0, "type": "electric_scooter", "lon": -77.022673, "bike_id": "9d21f66ed0f17ff1a1fd16afbb5d7a33", "fusion_lat": 0.0, "name": "9d21f66ed0f17ff1a1fd16afbb5d7a33", "is_reserved": 0, "rental_uris": {"android": "https://dc.lft.to/lastmile_qr_scan", "ios": "https://dc.lft.to/lastmile_qr_scan"}, "fusion_lon": 0.0}, {"lat": 38.917045333333334, "is_disabled": 0, "type": "electric_scooter", "lon": -77.03468383333333, "bike_id": "1ecf6caa582dae80ae49d51d7da37c54", "fusion_lat": 0.0, "name": "1ecf6caa582dae80ae49d51d7da37c54", "is_reserved": 0, "rental_uris": {"android": "https://dc.lft.to/lastmile_qr_scan", "ios": "https://dc.lft.to/lastmile_qr_scan"}, "fusion_lon": 0.0}, {"lat": 38.8872075, "is_disabled": 0, "type": "electric_scooter", "lon": -77.01382216666667, "bike_id": "c9caa77a184a1b7a7507afce83cbb845", "fusion_lat": 0.0, "name": "c9caa77a184a1b7a7507afce83cbb845", "is_reserved": 0, "rental_uris": {"android": "https://dc.lft.to/lastmile_qr_scan", "ios": "https://dc.lft.to/lastmile_qr_scan"}, "fusion_lon": 0.0}, {"lat": 38.95775716666667, "is_disabled": 0, "type": "electric_scooter", "lon": -77.02756283333333, "bike_id": "338ef876f59678d9986068ae07244a9c", "fusion_lat": 0.0, "name": "338ef876f59678d9986068ae07244a9c", "is_reserved": 0, "rental_uris": {"android": "https://dc.lft.to/lastmile_qr_scan", "ios": "https://dc.lft.to/lastmile_qr_scan"}, "fusion_lon": 0.0}, {"lat": 38.862473333333334, "is_disabled": 0, "type": "electric_scooter", "lon": -76.99261783333333, "bike_id": "d2323517a4c1ab296bf6c3143e9e397a", "fusion_lat": 0.0, "name": "d2323517a4c1ab296bf6c3143e9e397a", "is_reserved": 0, "rental_uris": {"android": "https://dc.lft.to/lastmile_qr_scan", "ios": "https://dc.lft.to/lastmile_qr_scan"}, "fusion_lon": 0.0}, {"lat": 38.939749666666664, "is_disabled": 0, "type": "electric_scooter", "lon": -77.035902, "bike_id": "950e695ae56adf6b56a58bd9543bcdee", "fusion_lat": 0.0, "name": "950e695ae56adf6b56a58bd9543bcdee", "is_reserved": 0, "rental_uris": {"android": "https://dc.lft.to/lastmile_qr_scan", "ios": "https://dc.lft.to/lastmile_qr_scan"}, "fusion_lon": 0.0}, {"lat": 38.90876983333333, "is_disabled": 0, "type": "electric_scooter", "lon": -77.03679433333333, "bike_id": "3635fc1f818f1e9fe9eaded312471c45", "fusion_lat": 0.0, "name": "3635fc1f818f1e9fe9eaded312471c45", "is_reserved": 0, "rental_uris": {"android": "https://dc.lft.to/lastmile_qr_scan", "ios": "https://dc.lft.to/lastmile_qr_scan"}, "fusion_lon": 0.0}, {"lat": 38.92054666666667, "is_disabled": 0, "type": "electric_scooter", "lon": -77.03291666666667, "bike_id": "597910e0a8e964c9913ca7bcf9de547d", "fusion_lat": 0.0, "name": "597910e0a8e964c9913ca7bcf9de547d", "is_reserved": 0, "rental_uris": {"android": "https://dc.lft.to/lastmile_qr_scan", "ios": "https://dc.lft.to/lastmile_qr_scan"}, "fusion_lon": 0.0}, {"lat": 38.897735833333336, "is_disabled": 0, "type": "electric_scooter", "lon": -77.03209716666667, "bike_id": "2b8c7abdea69ddd8f7c251c7d34bdc16", "fusion_lat": 0.0, "name": "2b8c7abdea69ddd8f7c251c7d34bdc16", "is_reserved": 0, "rental_uris": {"android": "https://dc.lft.to/lastmile_qr_scan", "ios": "https://dc.lft.to/lastmile_qr_scan"}, "fusion_lon": 0.0}, {"lat": 38.897560666666664, "is_disabled": 0, "type": "electric_scooter", "lon": -77.03179566666667, "bike_id": "481c32295c4f8a87f64bb19cb6f2a76d", "fusion_lat": 0.0, "name": "481c32295c4f8a87f64bb19cb6f2a76d", "is_reserved": 0, "rental_uris": {"android": "https://dc.lft.to/lastmile_qr_scan", "ios": "https://dc.lft.to/lastmile_qr_scan"}, "fusion_lon": 0.0}, {"lat": 38.921141666666664, "is_disabled": 0, "type": "electric_scooter", "lon": -77.024885, "bike_id": "d11942f942b37d767355b4a946d21a89", "fusion_lat": 0.0, "name": "d11942f942b37d767355b4a946d21a89", "is_reserved": 0, "rental_uris": {"android": "https://dc.lft.to/lastmile_qr_scan", "ios": "https://dc.lft.to/lastmile_qr_scan"}, "fusion_lon": 0.0}, {"lat": 38.92244516666667, "is_disabled": 0, "type": "electric_scooter", "lon": -77.0425245, "bike_id": "c7312e6e55ae97d04eccc4a7cf22646a", "fusion_lat": 0.0, "name": "c7312e6e55ae97d04eccc4a7cf22646a", "is_reserved": 0, "rental_uris": {"android": "https://dc.lft.to/lastmile_qr_scan", "ios": "https://dc.lft.to/lastmile_qr_scan"}, "fusion_lon": 0.0}, {"lat": 38.883283, "is_disabled": 0, "type": "electric_scooter", "lon": -77.0315725, "bike_id": "f1adc953709f0e6e9a7e88f8b58deb23", "fusion_lat": 0.0, "name": "f1adc953709f0e6e9a7e88f8b58deb23", "is_reserved": 0, "rental_uris": {"android": "https://dc.lft.to/lastmile_qr_scan", "ios": "https://dc.lft.to/lastmile_qr_scan"}, "fusion_lon": 0.0}, {"lat": 38.9368095, "is_disabled": 0, "type": "electric_scooter", "lon": -77.03630666666666, "bike_id": "27df2f159b804d6aec1ba9760a41b3e9", "fusion_lat": 0.0, "name": "27df2f159b804d6aec1ba9760a41b3e9", "is_reserved": 0, "rental_uris": {"android": "https://dc.lft.to/lastmile_qr_scan", "ios": "https://dc.lft.to/lastmile_qr_scan"}, "fusion_lon": 0.0}, {"lat": 38.8951285, "is_disabled": 0, "type": "electric_scooter", "lon": -77.03958216666666, "bike_id": "a691dd2159a085f5fc26c45440791306", "fusion_lat": 0.0, "name": "a691dd2159a085f5fc26c45440791306", "is_reserved": 0, "rental_uris": {"android": "https://dc.lft.to/lastmile_qr_scan", "ios": "https://dc.lft.to/lastmile_qr_scan"}, "fusion_lon": 0.0}, {"lat": 38.91338233333333, "is_disabled": 0, "type": "electric_scooter", "lon": -77.00224, "bike_id": "52f8d9e9baee3d4e79e74d3ef34e0d7f", "fusion_lat": 0.0, "name": "52f8d9e9baee3d4e79e74d3ef34e0d7f", "is_reserved": 0, "rental_uris": {"android": "https://dc.lft.to/lastmile_qr_scan", "ios": "https://dc.lft.to/lastmile_qr_scan"}, "fusion_lon": 0.0}, {"lat": 38.910152333333336, "is_disabled": 0, "type": "electric_scooter", "lon": -76.99389016666666, "bike_id": "b77a241df5711561f90710badb332d2e", "fusion_lat": 0.0, "name": "b77a241df5711561f90710badb332d2e", "is_reserved": 0, "rental_uris": {"android": "https://dc.lft.to/lastmile_qr_scan", "ios": "https://dc.lft.to/lastmile_qr_scan"}, "fusion_lon": 0.0}, {"lat": 38.923936833333336, "is_disabled": 0, "type": "electric_scooter", "lon": -77.00068533333334, "bike_id": "506e48f3e702d0d563318a3bf103d6c3", "fusion_lat": 0.0, "name": "506e48f3e702d0d563318a3bf103d6c3", "is_reserved": 0, "rental_uris": {"android": "https://dc.lft.to/lastmile_qr_scan", "ios": "https://dc.lft.to/lastmile_qr_scan"}, "fusion_lon": 0.0}, {"lat": 38.90977016666667, "is_disabled": 0, "type": "electric_scooter", "lon": -77.03185333333333, "bike_id": "1d048fc7856aca51f53a7ed85a8f21bf", "fusion_lat": 0.0, "name": "1d048fc7856aca51f53a7ed85a8f21bf", "is_reserved": 0, "rental_uris": {"android": "https://dc.lft.to/lastmile_qr_scan", "ios": "https://dc.lft.to/lastmile_qr_scan"}, "fusion_lon": 0.0}, {"lat": 38.908307666666666, "is_disabled": 0, "type": "electric_scooter", "lon": -76.99696283333333, "bike_id": "351db9a8df92e5d83e28784544ebc1e0", "fusion_lat": 0.0, "name": "351db9a8df92e5d83e28784544ebc1e0", "is_reserved": 0, "rental_uris": {"android": "https://dc.lft.to/lastmile_qr_scan", "ios": "https://dc.lft.to/lastmile_qr_scan"}, "fusion_lon": 0.0}, {"lat": 38.903986833333335, "is_disabled": 0, "type": "electric_scooter", "lon": -77.01866933333334, "bike_id": "216a2ab242be5bf2a502735f1e011d4b", "fusion_lat": 0.0, "name": "216a2ab242be5bf2a502735f1e011d4b", "is_reserved": 0, "rental_uris": {"android": "https://dc.lft.to/lastmile_qr_scan", "ios": "https://dc.lft.to/lastmile_qr_scan"}, "fusion_lon": 0.0}, {"lat": 38.918235333333335, "is_disabled": 0, "type": "electric_scooter", "lon": -77.03447883333334, "bike_id": "304285dbc0359f07eaa4f0365fcb0132", "fusion_lat": 0.0, "name": "304285dbc0359f07eaa4f0365fcb0132", "is_reserved": 0, "rental_uris": {"android": "https://dc.lft.to/lastmile_qr_scan", "ios": "https://dc.lft.to/lastmile_qr_scan"}, "fusion_lon": 0.0}, {"lat": 38.8610575, "is_disabled": 0, "type": "electric_scooter", "lon": -76.9836385, "bike_id": "d784f55b9a662d78421343a418f672fb", "fusion_lat": 0.0, "name": "d784f55b9a662d78421343a418f672fb", "is_reserved": 0, "rental_uris": {"android": "https://dc.lft.to/lastmile_qr_scan", "ios": "https://dc.lft.to/lastmile_qr_scan"}, "fusion_lon": 0.0}, {"lat": 38.923440666666664, "is_disabled": 0, "type": "electric_scooter", "lon": -77.01901983333333, "bike_id": "39b7bf12a74e62187271f87da969928d", "fusion_lat": 0.0, "name": "39b7bf12a74e62187271f87da969928d", "is_reserved": 0, "rental_uris": {"android": "https://dc.lft.to/lastmile_qr_scan", "ios": "https://dc.lft.to/lastmile_qr_scan"}, "fusion_lon": 0.0}, {"lat": 38.866588666666665, "is_disabled": 0, "type": "electric_scooter", "lon": -76.98886833333333, "bike_id": "6c903342b682eb49dbfeb06aea02a9cc", "fusion_lat": 0.0, "name": "6c903342b682eb49dbfeb06aea02a9cc", "is_reserved": 0, "rental_uris": {"android": "https://dc.lft.to/lastmile_qr_scan", "ios": "https://dc.lft.to/lastmile_qr_scan"}, "fusion_lon": 0.0}, {"lat": 38.907816833333335, "is_disabled": 0, "type": "electric_scooter", "lon": -77.06929483333333, "bike_id": "ac19089ea933a23092e51c270a677bba", "fusion_lat": 0.0, "name": "ac19089ea933a23092e51c270a677bba", "is_reserved": 0, "rental_uris": {"android": "https://dc.lft.to/lastmile_qr_scan", "ios": "https://dc.lft.to/lastmile_qr_scan"}, "fusion_lon": 0.0}, {"lat": 38.904988333333336, "is_disabled": 0, "type": "electric_scooter", "lon": -77.0388585, "bike_id": "7b425924b34b7eb1807c73f6f2a34044", "fusion_lat": 0.0, "name": "7b425924b34b7eb1807c73f6f2a34044", "is_reserved": 0, "rental_uris": {"android": "https://dc.lft.to/lastmile_qr_scan", "ios": "https://dc.lft.to/lastmile_qr_scan"}, "fusion_lon": 0.0}, {"lat": 38.923232666666664, "is_disabled": 0, "type": "electric_scooter", "lon": -77.03966216666667, "bike_id": "23b4e4f7da8932516c75aebca05fde3d", "fusion_lat": 0.0, "name": "23b4e4f7da8932516c75aebca05fde3d", "is_reserved": 0, "rental_uris": {"android": "https://dc.lft.to/lastmile_qr_scan", "ios": "https://dc.lft.to/lastmile_qr_scan"}, "fusion_lon": 0.0}, {"lat": 38.924830166666666, "is_disabled": 0, "type": "electric_scooter", "lon": -77.052158, "bike_id": "9de015eff4e3d47a71a7ec1d32f10607", "fusion_lat": 0.0, "name": "9de015eff4e3d47a71a7ec1d32f10607", "is_reserved": 0, "rental_uris": {"android": "https://dc.lft.to/lastmile_qr_scan", "ios": "https://dc.lft.to/lastmile_qr_scan"}, "fusion_lon": 0.0}, {"lat": 38.919528, "is_disabled": 0, "type": "electric_scooter", "lon": -77.02483333333333, "bike_id": "650a62594f91949424392bea309d5d68", "fusion_lat": 0.0, "name": "650a62594f91949424392bea309d5d68", "is_reserved": 0, "rental_uris": {"android": "https://dc.lft.to/lastmile_qr_scan", "ios": "https://dc.lft.to/lastmile_qr_scan"}, "fusion_lon": 0.0}, {"lat": 38.93344916666667, "is_disabled": 0, "type": "electric_scooter", "lon": -77.05865683333333, "bike_id": "7c88c2104e82f2699edd838b5e8cf1df", "fusion_lat": 0.0, "name": "7c88c2104e82f2699edd838b5e8cf1df", "is_reserved": 0, "rental_uris": {"android": "https://dc.lft.to/lastmile_qr_scan", "ios": "https://dc.lft.to/lastmile_qr_scan"}, "fusion_lon": 0.0}, {"lat": 38.87456433333333, "is_disabled": 0, "type": "electric_scooter", "lon": -77.005448, "bike_id": "2b972c1f6a020bc864dbe39c12aa6cc9", "fusion_lat": 0.0, "name": "2b972c1f6a020bc864dbe39c12aa6cc9", "is_reserved": 0, "rental_uris": {"android": "https://dc.lft.to/lastmile_qr_scan", "ios": "https://dc.lft.to/lastmile_qr_scan"}, "fusion_lon": 0.0}, {"lat": 38.90239416666667, "is_disabled": 0, "type": "electric_scooter", "lon": -77.02697033333334, "bike_id": "1ff33870425a5c15291265ad355a544d", "fusion_lat": 0.0, "name": "1ff33870425a5c15291265ad355a544d", "is_reserved": 0, "rental_uris": {"android": "https://dc.lft.to/lastmile_qr_scan", "ios": "https://dc.lft.to/lastmile_qr_scan"}, "fusion_lon": 0.0}, {"lat": 38.93692816666667, "is_disabled": 0, "type": "electric_scooter", "lon": -77.0326455, "bike_id": "2539c5082a8ab653b08336c6c1ff167e", "fusion_lat": 0.0, "name": "2539c5082a8ab653b08336c6c1ff167e", "is_reserved": 0, "rental_uris": {"android": "https://dc.lft.to/lastmile_qr_scan", "ios": "https://dc.lft.to/lastmile_qr_scan"}, "fusion_lon": 0.0}, {"lat": 38.90107166666667, "is_disabled": 0, "type": "electric_scooter", "lon": -77.03176083333334, "bike_id": "9f875da81a085eda8328ef9e5c858aa8", "fusion_lat": 0.0, "name": "9f875da81a085eda8328ef9e5c858aa8", "is_reserved": 0, "rental_uris": {"android": "https://dc.lft.to/lastmile_qr_scan", "ios": "https://dc.lft.to/lastmile_qr_scan"}, "fusion_lon": 0.0}, {"lat": 38.884301, "is_disabled": 0, "type": "electric_scooter", "lon": -76.95756983333334, "bike_id": "89a38fa0534db8196f9a0b9e55d8af12", "fusion_lat": 0.0, "name": "89a38fa0534db8196f9a0b9e55d8af12", "is_reserved": 0, "rental_uris": {"android": "https://dc.lft.to/lastmile_qr_scan", "ios": "https://dc.lft.to/lastmile_qr_scan"}, "fusion_lon": 0.0}, {"lat": 38.92049733333333, "is_disabled": 0, "type": "electric_scooter", "lon": -77.02428416666666, "bike_id": "6829cf696d456a2ff57abdc9e18c85dd", "fusion_lat": 0.0, "name": "6829cf696d456a2ff57abdc9e18c85dd", "is_reserved": 0, "rental_uris": {"android": "https://dc.lft.to/lastmile_qr_scan", "ios": "https://dc.lft.to/lastmile_qr_scan"}, "fusion_lon": 0.0}, {"lat": 38.90649616666666, "is_disabled": 0, "type": "electric_scooter", "lon": -77.0486975, "bike_id": "8ab113eacc39241d6c548f0aa3a9be41", "fusion_lat": 0.0, "name": "8ab113eacc39241d6c548f0aa3a9be41", "is_reserved": 0, "rental_uris": {"android": "https://dc.lft.to/lastmile_qr_scan", "ios": "https://dc.lft.to/lastmile_qr_scan"}, "fusion_lon": 0.0}, {"lat": 38.85512133333334, "is_disabled": 0, "type": "electric_bike", "lon": -76.9842135, "bike_id": "2eb35292d5df92309272d6ebcb57e648", "fusion_lat": 0.0, "name": "2eb35292d5df92309272d6ebcb57e648", "is_reserved": 0, "rental_uris": {"android": "https://dc.lft.to/lastmile_qr_scan", "ios": "https://dc.lft.to/lastmile_qr_scan"}, "fusion_lon": 0.0}, {"lat": 38.8481825, "is_disabled": 0, "type": "electric_bike", "lon": -77.07904833333333, "bike_id": "1c3ebdfe7b2500da1ac5901416b27d5e", "fusion_lat": 0.0, "name": "1c3ebdfe7b2500da1ac5901416b27d5e", "is_reserved": 0, "rental_uris": {"android": "https://dc.lft.to/lastmile_qr_scan", "ios": "https://dc.lft.to/lastmile_qr_scan"}, "fusion_lon": 0.0}, {"lat": 38.903640333333335, "is_disabled": 0, "type": "electric_scooter", "lon": -77.038938, "bike_id": "45dbee7e407c5151797566335b566443", "fusion_lat": 0.0, "name": "45dbee7e407c5151797566335b566443", "is_reserved": 0, "rental_uris": {"android": "https://dc.lft.to/lastmile_qr_scan", "ios": "https://dc.lft.to/lastmile_qr_scan"}, "fusion_lon": 0.0}, {"lat": 38.897607, "is_disabled": 0, "type": "electric_scooter", "lon": -76.94186733333333, "bike_id": "8c1df3f798382233713a2708b1529e49", "fusion_lat": 0.0, "name": "8c1df3f798382233713a2708b1529e49", "is_reserved": 0, "rental_uris": {"android": "https://dc.lft.to/lastmile_qr_scan", "ios": "https://dc.lft.to/lastmile_qr_scan"}, "fusion_lon": 0.0}, {"lat": 38.90532533333333, "is_disabled": 0, "type": "electric_scooter", "lon": -77.0614765, "bike_id": "feee8543b029f5c219ca63cffa98068c", "fusion_lat": 0.0, "name": "feee8543b029f5c219ca63cffa98068c", "is_reserved": 0, "rental_uris": {"android": "https://dc.lft.to/lastmile_qr_scan", "ios": "https://dc.lft.to/lastmile_qr_scan"}, "fusion_lon": 0.0}, {"lat": 38.922502, "is_disabled": 0, "type": "electric_scooter", "lon": -77.027266, "bike_id": "a53530bdfbe6c8214b5f8bf6d252d8b5", "fusion_lat": 0.0, "name": "a53530bdfbe6c8214b5f8bf6d252d8b5", "is_reserved": 0, "rental_uris": {"android": "https://dc.lft.to/lastmile_qr_scan", "ios": "https://dc.lft.to/lastmile_qr_scan"}, "fusion_lon": 0.0}, {"lat": 38.92979116666667, "is_disabled": 0, "type": "electric_scooter", "lon": -77.0130145, "bike_id": "26fc41f8bc55fe62daf2fe0d676f6dea", "fusion_lat": 0.0, "name": "26fc41f8bc55fe62daf2fe0d676f6dea", "is_reserved": 0, "rental_uris": {"android": "https://dc.lft.to/lastmile_qr_scan", "ios": "https://dc.lft.to/lastmile_qr_scan"}, "fusion_lon": 0.0}, {"lat": 38.91820883333333, "is_disabled": 0, "type": "electric_scooter", "lon": -77.01211783333333, "bike_id": "d27d04f1400f11c43da37efd98cd8d6e", "fusion_lat": 0.0, "name": "d27d04f1400f11c43da37efd98cd8d6e", "is_reserved": 0, "rental_uris": {"android": "https://dc.lft.to/lastmile_qr_scan", "ios": "https://dc.lft.to/lastmile_qr_scan"}, "fusion_lon": 0.0}, {"lat": 38.8644725, "is_disabled": 0, "type": "electric_bike", "lon": -76.945371, "bike_id": "43e0b8baec7ad3f2d81791231725ac8c", "fusion_lat": 0.0, "name": "43e0b8baec7ad3f2d81791231725ac8c", "is_reserved": 0, "rental_uris": {"android": "https://dc.lft.to/lastmile_qr_scan", "ios": "https://dc.lft.to/lastmile_qr_scan"}, "fusion_lon": 0.0}, {"lat": 38.90008266666667, "is_disabled": 0, "type": "electric_scooter", "lon": -77.02009133333334, "bike_id": "ca2e5dd62e2878560a67a3c4aa42d063", "fusion_lat": 0.0, "name": "ca2e5dd62e2878560a67a3c4aa42d063", "is_reserved": 0, "rental_uris": {"android": "https://dc.lft.to/lastmile_qr_scan", "ios": "https://dc.lft.to/lastmile_qr_scan"}, "fusion_lon": 0.0}, {"lat": 38.899667, "is_disabled": 0, "type": "electric_scooter", "lon": -77.02222066666667, "bike_id": "5e0bcd975b926312ec7ae91cc37f042f", "fusion_lat": 0.0, "name": "5e0bcd975b926312ec7ae91cc37f042f", "is_reserved": 0, "rental_uris": {"android": "https://dc.lft.to/lastmile_qr_scan", "ios": "https://dc.lft.to/lastmile_qr_scan"}, "fusion_lon": 0.0}, {"lat": 38.89220783333333, "is_disabled": 0, "type": "electric_scooter", "lon": -77.048646, "bike_id": "fbec7a54edf4d76a9840bf8d94fd2ec1", "fusion_lat": 0.0, "name": "fbec7a54edf4d76a9840bf8d94fd2ec1", "is_reserved": 0, "rental_uris": {"android": "https://dc.lft.to/lastmile_qr_scan", "ios": "https://dc.lft.to/lastmile_qr_scan"}, "fusion_lon": 0.0}, {"lat": 38.96137433333333, "is_disabled": 0, "type": "electric_scooter", "lon": -77.022356, "bike_id": "7041de8cbb3553d5cc5f83e1be954886", "fusion_lat": 0.0, "name": "7041de8cbb3553d5cc5f83e1be954886", "is_reserved": 0, "rental_uris": {"android": "https://dc.lft.to/lastmile_qr_scan", "ios": "https://dc.lft.to/lastmile_qr_scan"}, "fusion_lon": 0.0}, {"lat": 38.85445166666667, "is_disabled": 0, "type": "electric_scooter", "lon": -76.98579416666666, "bike_id": "7783ddbb0d4e867f4bc6eb591ce47f9c", "fusion_lat": 0.0, "name": "7783ddbb0d4e867f4bc6eb591ce47f9c", "is_reserved": 0, "rental_uris": {"android": "https://dc.lft.to/lastmile_qr_scan", "ios": "https://dc.lft.to/lastmile_qr_scan"}, "fusion_lon": 0.0}, {"lat": 38.87144883333333, "is_disabled": 0, "type": "electric_bike", "lon": -76.93703683333334, "bike_id": "57fd2ab9dccf320516e72df9648d23a9", "fusion_lat": 0.0, "name": "57fd2ab9dccf320516e72df9648d23a9", "is_reserved": 0, "rental_uris": {"android": "https://dc.lft.to/lastmile_qr_scan", "ios": "https://dc.lft.to/lastmile_qr_scan"}, "fusion_lon": 0.0}, {"lat": 38.930398833333335, "is_disabled": 0, "type": "electric_scooter", "lon": -77.026373, "bike_id": "879a641234d6f7dbe2822a64469e5adc", "fusion_lat": 0.0, "name": "879a641234d6f7dbe2822a64469e5adc", "is_reserved": 0, "rental_uris": {"android": "https://dc.lft.to/lastmile_qr_scan", "ios": "https://dc.lft.to/lastmile_qr_scan"}, "fusion_lon": 0.0}, {"lat": 38.802660833333334, "is_disabled": 0, "type": "electric_bike", "lon": -77.08113633333333, "bike_id": "e36768cf67d87bd6e70253b62523c476", "fusion_lat": 0.0, "name": "e36768cf67d87bd6e70253b62523c476", "is_reserved": 0, "rental_uris": {"android": "https://dc.lft.to/lastmile_qr_scan", "ios": "https://dc.lft.to/lastmile_qr_scan"}, "fusion_lon": 0.0}, {"lat": 38.90966483333333, "is_disabled": 0, "type": "electric_scooter", "lon": -77.04049533333334, "bike_id": "aa94cf33dc61623754d7a6e754f6ee55", "fusion_lat": 0.0, "name": "aa94cf33dc61623754d7a6e754f6ee55", "is_reserved": 0, "rental_uris": {"android": "https://dc.lft.to/lastmile_qr_scan", "ios": "https://dc.lft.to/lastmile_qr_scan"}, "fusion_lon": 0.0}, {"lat": 38.896269333333336, "is_disabled": 0, "type": "electric_scooter", "lon": -77.0230945, "bike_id": "627a64d1dbc5e674aa68cfe6fe8d990d", "fusion_lat": 0.0, "name": "627a64d1dbc5e674aa68cfe6fe8d990d", "is_reserved": 0, "rental_uris": {"android": "https://dc.lft.to/lastmile_qr_scan", "ios": "https://dc.lft.to/lastmile_qr_scan"}, "fusion_lon": 0.0}, {"lat": 38.900200166666664, "is_disabled": 0, "type": "electric_scooter", "lon": -77.0320155, "bike_id": "93cb3b90b7d959214d3dd9a1c4d8f5b4", "fusion_lat": 0.0, "name": "93cb3b90b7d959214d3dd9a1c4d8f5b4", "is_reserved": 0, "rental_uris": {"android": "https://dc.lft.to/lastmile_qr_scan", "ios": "https://dc.lft.to/lastmile_qr_scan"}, "fusion_lon": 0.0}, {"lat": 38.954052833333336, "is_disabled": 0, "type": "electric_scooter", "lon": -77.02748466666667, "bike_id": "e5f95cd8d24daabf47b1e20550ec0b51", "fusion_lat": 0.0, "name": "e5f95cd8d24daabf47b1e20550ec0b51", "is_reserved": 0, "rental_uris": {"android": "https://dc.lft.to/lastmile_qr_scan", "ios": "https://dc.lft.to/lastmile_qr_scan"}, "fusion_lon": 0.0}, {"lat": 38.931979, "is_disabled": 0, "type": "electric_scooter", "lon": -77.023541, "bike_id": "4dffae5bbe6f77d8388fe62d9a6ab3c6", "fusion_lat": 0.0, "name": "4dffae5bbe6f77d8388fe62d9a6ab3c6", "is_reserved": 0, "rental_uris": {"android": "https://dc.lft.to/lastmile_qr_scan", "ios": "https://dc.lft.to/lastmile_qr_scan"}, "fusion_lon": 0.0}, {"lat": 38.907801, "is_disabled": 0, "type": "electric_scooter", "lon": -77.06405883333333, "bike_id": "e064b8c824a132c9d4127eef07a444e2", "fusion_lat": 0.0, "name": "e064b8c824a132c9d4127eef07a444e2", "is_reserved": 0, "rental_uris": {"android": "https://dc.lft.to/lastmile_qr_scan", "ios": "https://dc.lft.to/lastmile_qr_scan"}, "fusion_lon": 0.0}, {"lat": 38.9170765, "is_disabled": 0, "type": "electric_scooter", "lon": -77.03501566666667, "bike_id": "8630167fff0e8efc25651f7627d01821", "fusion_lat": 0.0, "name": "8630167fff0e8efc25651f7627d01821", "is_reserved": 0, "rental_uris": {"android": "https://dc.lft.to/lastmile_qr_scan", "ios": "https://dc.lft.to/lastmile_qr_scan"}, "fusion_lon": 0.0}, {"lat": 38.92873066666667, "is_disabled": 0, "type": "electric_scooter", "lon": -77.03224416666667, "bike_id": "e9ac4e674056358f42e24df2161e6e18", "fusion_lat": 0.0, "name": "e9ac4e674056358f42e24df2161e6e18", "is_reserved": 0, "rental_uris": {"android": "https://dc.lft.to/lastmile_qr_scan", "ios": "https://dc.lft.to/lastmile_qr_scan"}, "fusion_lon": 0.0}, {"lat": 38.90721883333333, "is_disabled": 0, "type": "electric_scooter", "lon": -77.034731, "bike_id": "043ea8e1d4d990efb00289086bd40c8d", "fusion_lat": 0.0, "name": "043ea8e1d4d990efb00289086bd40c8d", "is_reserved": 0, "rental_uris": {"android": "https://dc.lft.to/lastmile_qr_scan", "ios": "https://dc.lft.to/lastmile_qr_scan"}, "fusion_lon": 0.0}, {"lat": 38.92247616666667, "is_disabled": 0, "type": "electric_scooter", "lon": -77.0287855, "bike_id": "6cb7962e29e8fd999b86d83f46c79cfc", "fusion_lat": 0.0, "name": "6cb7962e29e8fd999b86d83f46c79cfc", "is_reserved": 0, "rental_uris": {"android": "https://dc.lft.to/lastmile_qr_scan", "ios": "https://dc.lft.to/lastmile_qr_scan"}, "fusion_lon": 0.0}, {"lat": 38.919690833333334, "is_disabled": 0, "type": "electric_scooter", "lon": -77.02487966666666, "bike_id": "873d5d230e4fb3dac1939f5451845166", "fusion_lat": 0.0, "name": "873d5d230e4fb3dac1939f5451845166", "is_reserved": 0, "rental_uris": {"android": "https://dc.lft.to/lastmile_qr_scan", "ios": "https://dc.lft.to/lastmile_qr_scan"}, "fusion_lon": 0.0}, {"lat": 38.90113233333334, "is_disabled": 0, "type": "electric_scooter", "lon": -77.01818116666666, "bike_id": "48e48903e3a84623ce5a167d542f5cb3", "fusion_lat": 0.0, "name": "48e48903e3a84623ce5a167d542f5cb3", "is_reserved": 0, "rental_uris": {"android": "https://dc.lft.to/lastmile_qr_scan", "ios": "https://dc.lft.to/lastmile_qr_scan"}, "fusion_lon": 0.0}, {"lat": 38.89676216666667, "is_disabled": 0, "type": "electric_scooter", "lon": -77.0051645, "bike_id": "9d248139bd3d8bf99d7514f4b07f6286", "fusion_lat": 0.0, "name": "9d248139bd3d8bf99d7514f4b07f6286", "is_reserved": 0, "rental_uris": {"android": "https://dc.lft.to/lastmile_qr_scan", "ios": "https://dc.lft.to/lastmile_qr_scan"}, "fusion_lon": 0.0}, {"lat": 38.90408133333333, "is_disabled": 0, "type": "electric_scooter", "lon": -76.99293166666666, "bike_id": "91e3160d16bfe3eb2998ede73ad09eb3", "fusion_lat": 0.0, "name": "91e3160d16bfe3eb2998ede73ad09eb3", "is_reserved": 0, "rental_uris": {"android": "https://dc.lft.to/lastmile_qr_scan", "ios": "https://dc.lft.to/lastmile_qr_scan"}, "fusion_lon": 0.0}, {"lat": 38.92060633333333, "is_disabled": 0, "type": "electric_scooter", "lon": -77.0339835, "bike_id": "94692eb5480cc0f266a927ee697bc44e", "fusion_lat": 0.0, "name": "94692eb5480cc0f266a927ee697bc44e", "is_reserved": 0, "rental_uris": {"android": "https://dc.lft.to/lastmile_qr_scan", "ios": "https://dc.lft.to/lastmile_qr_scan"}, "fusion_lon": 0.0}, {"lat": 38.898943833333334, "is_disabled": 0, "type": "electric_scooter", "lon": -76.9842315, "bike_id": "bff863ddc0dc39e50c8b430dde21fd8b", "fusion_lat": 0.0, "name": "bff863ddc0dc39e50c8b430dde21fd8b", "is_reserved": 0, "rental_uris": {"android": "https://dc.lft.to/lastmile_qr_scan", "ios": "https://dc.lft.to/lastmile_qr_scan"}, "fusion_lon": 0.0}, {"lat": 38.89737266666667, "is_disabled": 0, "type": "electric_scooter", "lon": -76.9472105, "bike_id": "323c48a0913ea24176db01f50f07d0bd", "fusion_lat": 0.0, "name": "323c48a0913ea24176db01f50f07d0bd", "is_reserved": 0, "rental_uris": {"android": "https://dc.lft.to/lastmile_qr_scan", "ios": "https://dc.lft.to/lastmile_qr_scan"}, "fusion_lon": 0.0}, {"lat": 38.86958683333334, "is_disabled": 0, "type": "electric_bike", "lon": -77.01080066666667, "bike_id": "df6ba654ce980086254263ac756e9671", "fusion_lat": 0.0, "name": "df6ba654ce980086254263ac756e9671", "is_reserved": 0, "rental_uris": {"android": "https://dc.lft.to/lastmile_qr_scan", "ios": "https://dc.lft.to/lastmile_qr_scan"}, "fusion_lon": 0.0}, {"lat": 38.914193166666664, "is_disabled": 0, "type": "electric_scooter", "lon": -77.03554166666666, "bike_id": "d670227dea1dd5dcae0559084d25dbe9", "fusion_lat": 0.0, "name": "d670227dea1dd5dcae0559084d25dbe9", "is_reserved": 0, "rental_uris": {"android": "https://dc.lft.to/lastmile_qr_scan", "ios": "https://dc.lft.to/lastmile_qr_scan"}, "fusion_lon": 0.0}, {"lat": 38.8821185, "is_disabled": 0, "type": "electric_scooter", "lon": -76.99040633333334, "bike_id": "85f5fc06b9567ec59a93ccab76b7b994", "fusion_lat": 0.0, "name": "85f5fc06b9567ec59a93ccab76b7b994", "is_reserved": 0, "rental_uris": {"android": "https://dc.lft.to/lastmile_qr_scan", "ios": "https://dc.lft.to/lastmile_qr_scan"}, "fusion_lon": 0.0}, {"lat": 38.90972816666667, "is_disabled": 0, "type": "electric_scooter", "lon": -77.0480045, "bike_id": "a5f9c6ed5b4a25eb3554b69d661a8688", "fusion_lat": 0.0, "name": "a5f9c6ed5b4a25eb3554b69d661a8688", "is_reserved": 0, "rental_uris": {"android": "https://dc.lft.to/lastmile_qr_scan", "ios": "https://dc.lft.to/lastmile_qr_scan"}, "fusion_lon": 0.0}, {"lat": 38.91732616666667, "is_disabled": 0, "type": "electric_scooter", "lon": -77.0240185, "bike_id": "58d6f48048119817687f30044bd89ea2", "fusion_lat": 0.0, "name": "58d6f48048119817687f30044bd89ea2", "is_reserved": 0, "rental_uris": {"android": "https://dc.lft.to/lastmile_qr_scan", "ios": "https://dc.lft.to/lastmile_qr_scan"}, "fusion_lon": 0.0}, {"lat": 38.884910166666664, "is_disabled": 0, "type": "electric_scooter", "lon": -77.00727583333334, "bike_id": "449b4522b2dfec3f15674eb0e6b26cd5", "fusion_lat": 0.0, "name": "449b4522b2dfec3f15674eb0e6b26cd5", "is_reserved": 0, "rental_uris": {"android": "https://dc.lft.to/lastmile_qr_scan", "ios": "https://dc.lft.to/lastmile_qr_scan"}, "fusion_lon": 0.0}, {"lat": 38.9089265, "is_disabled": 0, "type": "electric_scooter", "lon": -77.0429965, "bike_id": "ad99992b808905a3b68c7baa82714aae", "fusion_lat": 0.0, "name": "ad99992b808905a3b68c7baa82714aae", "is_reserved": 0, "rental_uris": {"android": "https://dc.lft.to/lastmile_qr_scan", "ios": "https://dc.lft.to/lastmile_qr_scan"}, "fusion_lon": 0.0}, {"lat": 38.939619, "is_disabled": 0, "type": "electric_bike", "lon": -77.3609415, "bike_id": "412e3ccb00a23695ecf0cbf298ffd3b9", "fusion_lat": 0.0, "name": "412e3ccb00a23695ecf0cbf298ffd3b9", "is_reserved": 0, "rental_uris": {"android": "https://dc.lft.to/lastmile_qr_scan", "ios": "https://dc.lft.to/lastmile_qr_scan"}, "fusion_lon": 0.0}, {"lat": 38.917049, "is_disabled": 0, "type": "electric_scooter", "lon": -77.00114266666667, "bike_id": "8cea9d0d0deb100179577a4c13d461cf", "fusion_lat": 0.0, "name": "8cea9d0d0deb100179577a4c13d461cf", "is_reserved": 0, "rental_uris": {"android": "https://dc.lft.to/lastmile_qr_scan", "ios": "https://dc.lft.to/lastmile_qr_scan"}, "fusion_lon": 0.0}, {"lat": 38.931194, "is_disabled": 0, "type": "electric_scooter", "lon": -77.03011916666667, "bike_id": "3ea1308bd6101785d8fb932c0aa54ae6", "fusion_lat": 0.0, "name": "3ea1308bd6101785d8fb932c0aa54ae6", "is_reserved": 0, "rental_uris": {"android": "https://dc.lft.to/lastmile_qr_scan", "ios": "https://dc.lft.to/lastmile_qr_scan"}, "fusion_lon": 0.0}, {"lat": 38.89555766666667, "is_disabled": 0, "type": "electric_scooter", "lon": -76.93078883333334, "bike_id": "231edb9b75d122a69bbe55e07d778601", "fusion_lat": 0.0, "name": "231edb9b75d122a69bbe55e07d778601", "is_reserved": 0, "rental_uris": {"android": "https://dc.lft.to/lastmile_qr_scan", "ios": "https://dc.lft.to/lastmile_qr_scan"}, "fusion_lon": 0.0}, {"lat": 38.9528405, "is_disabled": 0, "type": "electric_bike", "lon": -76.94600816666667, "bike_id": "3bd969950faac9ebc6dcf1efbcf6c1ec", "fusion_lat": 0.0, "name": "3bd969950faac9ebc6dcf1efbcf6c1ec", "is_reserved": 0, "rental_uris": {"android": "https://dc.lft.to/lastmile_qr_scan", "ios": "https://dc.lft.to/lastmile_qr_scan"}, "fusion_lon": 0.0}, {"lat": 38.956280166666666, "is_disabled": 0, "type": "electric_bike", "lon": -77.02295333333333, "bike_id": "0d349d0d639682d568ccea4a384427ea", "fusion_lat": 0.0, "name": "0d349d0d639682d568ccea4a384427ea", "is_reserved": 0, "rental_uris": {"android": "https://dc.lft.to/lastmile_qr_scan", "ios": "https://dc.lft.to/lastmile_qr_scan"}, "fusion_lon": 0.0}, {"lat": 38.927547, "is_disabled": 0, "type": "electric_scooter", "lon": -77.0321, "bike_id": "b6194eba62e8b7fe785baaf6146a8f0d", "fusion_lat": 0.0, "name": "b6194eba62e8b7fe785baaf6146a8f0d", "is_reserved": 0, "rental_uris": {"android": "https://dc.lft.to/lastmile_qr_scan", "ios": "https://dc.lft.to/lastmile_qr_scan"}, "fusion_lon": 0.0}, {"lat": 38.920031333333334, "is_disabled": 0, "type": "electric_scooter", "lon": -77.03885933333333, "bike_id": "d284e165630ffaa88e9aa6f33b4b3ba8", "fusion_lat": 0.0, "name": "d284e165630ffaa88e9aa6f33b4b3ba8", "is_reserved": 0, "rental_uris": {"android": "https://dc.lft.to/lastmile_qr_scan", "ios": "https://dc.lft.to/lastmile_qr_scan"}, "fusion_lon": 0.0},