{"data": {"bikes": [{"bike_id": "5242c3cfcb6ad9301959436f3ae8c405", "is_reserved": 0, "fusion_lon": 0.0, "lat": 38.891952, "is_disabled": 0, "name": "5242c3cfcb6ad9301959436f3ae8c405", "fusion_lat": 0.0, "rental_uris": {"ios": "https://dc.lft.to/lastmile_qr_scan", "android": "https://dc.lft.to/lastmile_qr_scan"}, "lon": -77.023862, "type": "electric_scooter"}, {"bike_id": "6f1ed9a5349b6588143d18ee9f4bec8e", "is_reserved": 0, "fusion_lon": 0.0, "lat": 38.90485916666667, "is_disabled": 0, "name": "6f1ed9a5349b6588143d18ee9f4bec8e", "fusion_lat": 0.0, "rental_uris": {"ios": "https://dc.lft.to/lastmile_qr_scan", "android": "https://dc.lft.to/lastmile_qr_scan"}, "lon": -77.0601805, "type": "electric_scooter"}, {"bike_id": "64a96006ced9912624154dc06ee6193a", "is_reserved": 0, "fusion_lon": 0.0, "lat": 38.89907816666667, "is_disabled": 0, "name": "64a96006ced9912624154dc06ee6193a", "fusion_lat": 0.0, "rental_uris": {"ios": "https://dc.lft.to/lastmile_qr_scan", "android": "https://dc.lft.to/lastmile_qr_scan"}, "lon": -76.93350783333334, "type": "electric_scooter"}, {"bike_id": "02a6e6f29e40770ab1bfefe892990fec", "is_reserved": 0, "fusion_lon": 0.0, "lat": 38.90964066666667, "is_disabled": 0, "name": "02a6e6f29e40770ab1bfefe892990fec", "fusion_lat": 0.0, "rental_uris": {"ios": "https://dc.lft.to/lastmile_qr_scan", "android": "https://dc.lft.to/lastmile_qr_scan"}, "lon": -77.01535283333334, "type": "electric_scooter"}, {"bike_id": "7a62d610269af72c9b6da5afe1c46197", "is_reserved": 0, "fusion_lon": 0.0, "lat": 38.87501683333333, "is_disabled": 0, "name": "7a62d610269af72c9b6da5afe1c46197", "fusion_lat": 0.0, "rental_uris": {"ios": "https://dc.lft.to/lastmile_qr_scan", "android": "https://dc.lft.to/lastmile_qr_scan"}, "lon": -76.99798683333333, "type": "electric_scooter"}, {"bike_id": "710602e9b7b3ec427ac1b6e0ef751d38", "is_reserved": 0, "fusion_lon": 0.0, "lat": 38.858107833333335, "is_disabled": 0, "name": "710602e9b7b3ec427ac1b6e0ef751d38", "fusion_lat": 0.0, "rental_uris": {"ios": "https://dc.lft.to/lastmile_qr_scan", "android": "https://dc.lft.to/lastmile_qr_scan"}, "lon": -76.98992383333334, "type": "electric_scooter"}, {"bike_id": "68c185107bef59e0eb84bdf941168487", "is_reserved": 0, "fusion_lon": 0.0, "lat": 38.90352816666667, "is_disabled": 0, "name": "68c185107bef59e0eb84bdf941168487", "fusion_lat": 0.0, "rental_uris": {"ios": "https://dc.lft.to/lastmile_qr_scan", "android": "https://dc.lft.to/lastmile_qr_scan"}, "lon": -77.04511116666667, "type": "electric_scooter"}, {"bike_id": "45fe41ca9cc7f9f26de197f4b726488a", "is_reserved": 0, "fusion_lon": 0.0, "lat": 38.903920666666664, "is_disabled": 0, "name": "45fe41ca9cc7f9f26de197f4b726488a", "fusion_lat": 0.0, "rental_uris": {"ios": "https://dc.lft.to/lastmile_qr_scan", "android": "https://dc.lft.to/lastmile_qr_scan"}, "lon": -77.04200033333333, "type": "electric_scooter"}, {"bike_id": "62a9cc3092a6862817da22d5eba4ea1d", "is_reserved": 0, "fusion_lon": 0.0, "lat": 38.904042, "is_disabled": 0, "name": "62a9cc3092a6862817da22d5eba4ea1d", "fusion_lat": 0.0, "rental_uris": {"ios": "https://dc.lft.to/lastmile_qr_scan", "android": "https://dc.lft.to/lastmile_qr_scan"}, "lon": -77.04042183333334, "type": "electric_scooter"}, {"bike_id": "552a8f0c2a6b70ce623e346993c36d2e", "is_reserved": 0, "fusion_lon": 0.0, "lat": 38.92420216666667, "is_disabled": 0, "name": "552a8f0c2a6b70ce623e346993c36d2e", "fusion_lat": 0.0, "rental_uris": {"ios": "https://dc.lft.to/lastmile_qr_scan", "android": "https://dc.lft.to/lastmile_qr_scan"}, "lon": -77.02239283333333, "type": "electric_scooter"}, {"bike_id": "8f3de6d9625903dc5492acf61bf5c2e8", "is_reserved": 0, "fusion_lon": 0.0, "lat": 38.94016933333333, "is_disabled": 0, "name": "8f3de6d9625903dc5492acf61bf5c2e8", "fusion_lat": 0.0, "rental_uris": {"ios": "https://dc.lft.to/lastmile_qr_scan", "android": "https://dc.lft.to/lastmile_qr_scan"}, "lon": -77.071706, "type": "electric_scooter"}, {"bike_id": "95dca3c4607e7c1073e6a81d63b3fc20", "is_reserved": 0, "fusion_lon": 0.0, "lat": 38.885196, "is_disabled": 0, "name": "95dca3c4607e7c1073e6a81d63b3fc20", "fusion_lat": 0.0, "rental_uris": {"ios": "https://dc.lft.to/lastmile_qr_scan", "android": "https://dc.lft.to/lastmile_qr_scan"}, "lon": -77.03336633333333, "type": "electric_scooter"}, {"bike_id": "6dc2a4139ea2420bf2476ddc5921154e", "is_reserved": 0, "fusion_lon": 0.0, "lat": 38.884839666666664, "is_disabled": 0, "name": "6dc2a4139ea2420bf2476ddc5921154e", "fusion_lat": 0.0, "rental_uris": {"ios": "https://dc.lft.to/lastmile_qr_scan", "android": "https://dc.lft.to/lastmile_qr_scan"}, "lon": -77.03353766666666, "type": "electric_scooter"}, {"bike_id": "bf3c5a963eaa9acdc62bbc4e93d16013", "is_reserved": 0, "fusion_lon": 0.0, "lat": 38.8887015, "is_disabled": 0, "name": "bf3c5a963eaa9acdc62bbc4e93d16013", "fusion_lat": 0.0, "rental_uris": {"ios": "https://dc.lft.to/lastmile_qr_scan", "android": "https://dc.lft.to/lastmile_qr_scan"}, "lon": -77.00122816666666, "type": "electric_scooter"}, {"bike_id": "4ccc13f9008ace058f4991ff946e9aa5", "is_reserved": 0, "fusion_lon": 0.0, "lat": 38.866649333333335, "is_disabled": 0, "name": "4ccc13f9008ace058f4991ff946e9aa5", "fusion_lat": 0.0, "rental_uris": {"ios": "https://dc.lft.to/lastmile_qr_scan", "android": "https://dc.lft.to/lastmile_qr_scan"}, "lon": -76.9890245, "type": "electric_scooter"}, {"bike_id": "50c2082433bcca9742a4d3900472e8df", "is_reserved": 0, "fusion_lon": 0.0, "lat": 38.921043, "is_disabled": 0, "name": "50c2082433bcca9742a4d3900472e8df", "fusion_lat": 0.0, "rental_uris": {"ios": "https://dc.lft.to/lastmile_qr_scan", "android": "https://dc.lft.to/lastmile_qr_scan"}, "lon": -77.06330766666666, "type": "electric_scooter"}, {"bike_id": "3625c80fb791ef73595b9da5907fb257", "is_reserved": 0, "fusion_lon": 0.0, "lat": 38.89224133333333, "is_disabled": 0, "name": "3625c80fb791ef73595b9da5907fb257", "fusion_lat": 0.0, "rental_uris": {"ios": "https://dc.lft.to/lastmile_qr_scan", "android": "https://dc.lft.to/lastmile_qr_scan"}, "lon": -77.04511883333333, "type": "electric_scooter"}, {"bike_id": "b467738597ace946a8c14a469f3db806", "is_reserved": 0, "fusion_lon": 0.0, "lat": 38.912632, "is_disabled": 0, "name": "b467738597ace946a8c14a469f3db806", "fusion_lat": 0.0, "rental_uris": {"ios": "https://dc.lft.to/lastmile_qr_scan", "android": "https://dc.lft.to/lastmile_qr_scan"}, "lon": -77.07595083333334, "type": "electric_scooter"}, {"bike_id": "5fe17c9db9ffb863ad292e5c923eac6d", "is_reserved": 0, "fusion_lon": 0.0, "lat": 38.900312166666666, "is_disabled": 0, "name": "5fe17c9db9ffb863ad292e5c923eac6d", "fusion_lat": 0.0, "rental_uris": {"ios": "https://dc.lft.to/lastmile_qr_scan", "android": "https://dc.lft.to/lastmile_qr_scan"}, "lon": -77.002146, "type": "electric_scooter"}, {"bike_id": "2cd798a6e5a2529a558c5c3002b73f18", "is_reserved": 0, "fusion_lon": 0.0, "lat": 38.899, "is_disabled": 0, "name": "2cd798a6e5a2529a558c5c3002b73f18", "fusion_lat": 0.0, "rental_uris": {"ios": "https://dc.lft.to/lastmile_qr_scan", "android": "https://dc.lft.to/lastmile_qr_scan"}, "lon": -77.03936233333333, "type": "electric_scooter"}, {"bike_id": "d25083cccb79a33856db78e786eb7dda", "is_reserved": 0, "fusion_lon": 0.0, "lat": 38.928700166666665, "is_disabled": 0, "name": "d25083cccb79a33856db78e786eb7dda", "fusion_lat": 0.0, "rental_uris": {"ios": "https://dc.lft.to/lastmile_qr_scan", "android": "https://dc.lft.to/lastmile_qr_scan"}, "lon": -77.0323755, "type": "electric_scooter"}, {"bike_id": "da3ed6f0a3ab34c4bc2a02e094792176", "is_reserved": 0, "fusion_lon": 0.0, "lat": 38.91797583333334, "is_disabled": 0, "name": "da3ed6f0a3ab34c4bc2a02e094792176", "fusion_lat": 0.0, "rental_uris": {"ios": "https://dc.lft.to/lastmile_qr_scan", "android": "https://dc.lft.to/lastmile_qr_scan"}, "lon": -77.0415765, "type": "electric_scooter"}, {"bike_id": "d66856812d5dce7a258113be3735221d", "is_reserved": 0, "fusion_lon": 0.0, "lat": 38.904891, "is_disabled": 0, "name": "d66856812d5dce7a258113be3735221d", "fusion_lat": 0.0, "rental_uris": {"ios": "https://dc.lft.to/lastmile_qr_scan", "android": "https://dc.lft.to/lastmile_qr_scan"}, "lon": -77.05153566666667, "type": "electric_scooter"}, {"bike_id": "cee733461fcc8bb69e533da840933685", "is_reserved": 0, "fusion_lon": 0.0, "lat": 38.91667533333333, "is_disabled": 0, "name": "cee733461fcc8bb69e533da840933685", "fusion_lat": 0.0, "rental_uris": {"ios": "https://dc.lft.to/lastmile_qr_scan", "android": "https://dc.lft.to/lastmile_qr_scan"}, "lon": -77.0418625, "type": "electric_scooter"}, {"bike_id": "61ed78295af96e2e836478ca8d5fcdaf", "is_reserved": 0, "fusion_lon": 0.0, "lat": 38.90269033333333, "is_disabled": 0, "name": "61ed78295af96e2e836478ca8d5fcdaf", "fusion_lat": 0.0, "rental_uris": {"ios": "https://dc.lft.to/lastmile_qr_scan", "android": "https://dc.lft.to/lastmile_qr_scan"}, "lon": -77.03864566666667, "type": "electric_scooter"}, {"bike_id": "eec954d29a7a8373a76c7e1e9ede4f5a", "is_reserved": 0, "fusion_lon": 0.0, "lat": 38.93355283333333, "is_disabled": 0, "name": "eec954d29a7a8373a76c7e1e9ede4f5a", "fusion_lat": 0.0, "rental_uris": {"ios": "https://dc.lft.to/lastmile_qr_scan", "android": "https://dc.lft.to/lastmile_qr_scan"}, "lon": -77.06935533333333, "type": "electric_scooter"}, {"bike_id": "2aff87750c906446fefe1bc0e52e5d47", "is_reserved": 0, "fusion_lon": 0.0, "lat": 38.90013666666667, "is_disabled": 0, "name": "2aff87750c906446fefe1bc0e52e5d47", "fusion_lat": 0.0, "rental_uris": {"ios": "https://dc.lft.to/lastmile_qr_scan", "android": "https://dc.lft.to/lastmile_qr_scan"}, "lon": -77.012009, "type": "electric_scooter"}, {"bike_id": "cb1638864e80c9d90741f9aed30bb433", "is_reserved": 0, "fusion_lon": 0.0, "lat": 38.9047235, "is_disabled": 0, "name": "cb1638864e80c9d90741f9aed30bb433", "fusion_lat": 0.0, "rental_uris": {"ios": "https://dc.lft.to/lastmile_qr_scan", "android": "https://dc.lft.to/lastmile_qr_scan"}, "lon": -77.04673566666666, "type": "electric_scooter"}, {"bike_id": "0298579950ffb1f63c6c054d1f93b334", "is_reserved": 0, "fusion_lon": 0.0, "lat": 38.89267066666667, "is_disabled": 0, "name": "0298579950ffb1f63c6c054d1f93b334", "fusion_lat": 0.0, "rental_uris": {"ios": "https://dc.lft.to/lastmile_qr_scan", "android": "https://dc.lft.to/lastmile_qr_scan"}, "lon": -77.0259355, "type": "electric_scooter"}, {"bike_id": "137d01fe6611aad88363e9add7a74da1", "is_reserved": 0, "fusion_lon": 0.0, "lat": 38.89729716666667, "is_disabled": 0, "name": "137d01fe6611aad88363e9add7a74da1", "fusion_lat": 0.0, "rental_uris": {"ios": "https://dc.lft.to/lastmile_qr_scan", "android": "https://dc.lft.to/lastmile_qr_scan"}, "lon": -77.04628133333334, "type": "electric_scooter"}, {"bike_id": "76f4a01496ec45ec39157a79e60dafd1", "is_reserved": 0, "fusion_lon": 0.0, "lat": 38.916088, "is_disabled": 0, "name": "76f4a01496ec45ec39157a79e60dafd1", "fusion_lat": 0.0, "rental_uris": {"ios": "https://dc.lft.to/lastmile_qr_scan", "android": "https://dc.lft.to/lastmile_qr_scan"}, "lon": -77.04578683333334, "type": "electric_scooter"}, {"bike_id": "c341389d3694295d5bb9e9802796343c", "is_reserved": 0, "fusion_lon": 0.0, "lat": 38.861817, "is_disabled": 0, "name": "c341389d3694295d5bb9e9802796343c", "fusion_lat": 0.0, "rental_uris": {"ios": "https://dc.lft.to/lastmile_qr_scan", "android": "https://dc.lft.to/lastmile_qr_scan"}, "lon": -76.99429783333333, "type": "electric_scooter"}, {"bike_id": "6e370bf7053098ae633b5be0777648c6", "is_reserved": 0, "fusion_lon": 0.0, "lat": 38.865254166666666, "is_disabled": 0, "name": "6e370bf7053098ae633b5be0777648c6", "fusion_lat": 0.0, "rental_uris": {"ios": "https://dc.lft.to/lastmile_qr_scan", "android": "https://dc.lft.to/lastmile_qr_scan"}, "lon": -76.99042316666667, "type": "electric_scooter"}, {"bike_id": "77a8a3725b796636b36d076891a6fc96", "is_reserved": 0, "fusion_lon": 0.0, "lat": 38.939449833333335, "is_disabled": 0, "name": "77a8a3725b796636b36d076891a6fc96", "fusion_lat": 0.0, "rental_uris": {"ios": "https://dc.lft.to/lastmile_qr_scan", "android": "https://dc.lft.to/lastmile_qr_scan"}, "lon": -77.06111666666666, "type": "electric_scooter"}, {"bike_id": "0cf5770ed48612d88bc0b677ece389b4", "is_reserved": 0, "fusion_lon": 0.0, "lat": 38.892196, "is_disabled": 0, "name": "0cf5770ed48612d88bc0b677ece389b4", "fusion_lat": 0.0, "rental_uris": {"ios": "https://dc.lft.to/lastmile_qr_scan", "android": "https://dc.lft.to/lastmile_qr_scan"}, "lon": -77.04874316666667, "type": "electric_scooter"}, {"bike_id": "2c1f40fba4d9d2f0302eae466cf33008", "is_reserved": 0, "fusion_lon": 0.0, "lat": 38.92869433333333, "is_disabled": 0, "name": "2c1f40fba4d9d2f0302eae466cf33008", "fusion_lat": 0.0, "rental_uris": {"ios": "https://dc.lft.to/lastmile_qr_scan", "android": "https://dc.lft.to/lastmile_qr_scan"}, "lon": -77.03381166666667, "type": "electric_scooter"}, {"bike_id": "3bf9f52aa149cc0e572676afb9a8dec0", "is_reserved": 0, "fusion_lon": 0.0, "lat": 38.885022666666664, "is_disabled": 0, "name": "3bf9f52aa149cc0e572676afb9a8dec0", "fusion_lat": 0.0, "rental_uris": {"ios": "https://dc.lft.to/lastmile_qr_scan", "android": "https://dc.lft.to/lastmile_qr_scan"}, "lon": -77.00566583333334, "type": "electric_scooter"}, {"bike_id": "e9b04218331b6c58439bb3977f927bfa", "is_reserved": 0, "fusion_lon": 0.0, "lat": 38.956397, "is_disabled": 0, "name": "e9b04218331b6c58439bb3977f927bfa", "fusion_lat": 0.0, "rental_uris": {"ios": "https://dc.lft.to/lastmile_qr_scan", "android": "https://dc.lft.to/lastmile_qr_scan"}, "lon": -76.93874883333334, "type": "electric_bike"}, {"bike_id": "31cc4054f10798fad11b40fcee402c34", "is_reserved": 0, "fusion_lon": 0.0, "lat": 38.91695266666667, "is_disabled": 0, "name": "31cc4054f10798fad11b40fcee402c34", "fusion_lat": 0.0, "rental_uris": {"ios": "https://dc.lft.to/lastmile_qr_scan", "android": "https://dc.lft.to/lastmile_qr_scan"}, "lon": -77.037659, "type": "electric_scooter"}, {"bike_id": "9867fda46b3abe73b5a9fb7316b2a7d9", "is_reserved": 0, "fusion_lon": 0.0, "lat": 38.867345, "is_disabled": 0, "name": "9867fda46b3abe73b5a9fb7316b2a7d9", "fusion_lat": 0.0, "rental_uris": {"ios": "https://dc.lft.to/lastmile_qr_scan", "android": "https://dc.lft.to/lastmile_qr_scan"}, "lon": -76.9878235, "type": "electric_scooter"}, {"bike_id": "85f7edab9d803082aeb7e5fa430a4659", "is_reserved": 0, "fusion_lon": 0.0, "lat": 38.89769483333333, "is_disabled": 0, "name": "85f7edab9d803082aeb7e5fa430a4659", "fusion_lat": 0.0, "rental_uris": {"ios": "https://dc.lft.to/lastmile_qr_scan", "android": "https://dc.lft.to/lastmile_qr_scan"}, "lon": -76.9043965, "type": "electric_bike"}, {"bike_id": "34a89cb947a9ce94e605942f8f7857e9", "is_reserved": 0, "fusion_lon": 0.0, "lat": 38.86630016666667, "is_disabled": 0, "name": "34a89cb947a9ce94e605942f8f7857e9", "fusion_lat": 0.0, "rental_uris": {"ios": "https://dc.lft.to/lastmile_qr_scan", "android": "https://dc.lft.to/lastmile_qr_scan"}, "lon": -76.9871675, "type": "electric_scooter"}, {"bike_id": "a148a11fd7dcd27d37b1966e38d28aca", "is_reserved": 0, "fusion_lon": 0.0, "lat": 38.880398, "is_disabled": 0, "name": "a148a11fd7dcd27d37b1966e38d28aca", "fusion_lat": 0.0, "rental_uris": {"ios": "https://dc.lft.to/lastmile_qr_scan", "android": "https://dc.lft.to/lastmile_qr_scan"}, "lon": -77.02514283333333, "type": "electric_scooter"}, {"bike_id": "76a2e3e453775e2024d0e30ca3294a8a", "is_reserved": 0, "fusion_lon": 0.0, "lat": 38.874001166666666, "is_disabled": 0, "name": "76a2e3e453775e2024d0e30ca3294a8a", "fusion_lat": 0.0, "rental_uris": {"ios": "https://dc.lft.to/lastmile_qr_scan", "android": "https://dc.lft.to/lastmile_qr_scan"}, "lon": -77.00063183333333, "type": "electric_scooter"}, {"bike_id": "74973406b8ae43974435e44e035a551b", "is_reserved": 0, "fusion_lon": 0.0, "lat": 38.896770833333335, "is_disabled": 0, "name": "74973406b8ae43974435e44e035a551b", "fusion_lat": 0.0, "rental_uris": {"ios": "https://dc.lft.to/lastmile_qr_scan", "android": "https://dc.lft.to/lastmile_qr_scan"}, "lon": -77.0089645, "type": "electric_scooter"}, {"bike_id": "d29258d8875ba0390c030b9e9746739b", "is_reserved": 0, "fusion_lon": 0.0, "lat": 38.900944333333335, "is_disabled": 0, "name": "d29258d8875ba0390c030b9e9746739b", "fusion_lat": 0.0, "rental_uris": {"ios": "https://dc.lft.to/lastmile_qr_scan", "android": "https://dc.lft.to/lastmile_qr_scan"}, "lon": -77.02696533333334, "type": "electric_scooter"}, {"bike_id": "5e5e1810c245143f66257523ee376615", "is_reserved": 0, "fusion_lon": 0.0, "lat": 38.92472216666667, "is_disabled": 0, "name": "5e5e1810c245143f66257523ee376615", "fusion_lat": 0.0, "rental_uris": {"ios": "https://dc.lft.to/lastmile_qr_scan", "android": "https://dc.lft.to/lastmile_qr_scan"}, "lon": -77.05206883333334, "type": "electric_scooter"}, {"bike_id": "1760c16deba9070b655b9b5681929b1b", "is_reserved": 0, "fusion_lon": 0.0, "lat": 38.919194833333336, "is_disabled": 0, "name": "1760c16deba9070b655b9b5681929b1b", "fusion_lat": 0.0, "rental_uris": {"ios": "https://dc.lft.to/lastmile_qr_scan", "android": "https://dc.lft.to/lastmile_qr_scan"}, "lon": -77.03200716666667, "type": "electric_scooter"}, {"bike_id": "cee703471410ffdd33535223de3a0929", "is_reserved": 0, "fusion_lon": 0.0, "lat": 38.93448, "is_disabled": 0, "name": "cee703471410ffdd33535223de3a0929", "fusion_lat": 0.0, "rental_uris": {"ios": "https://dc.lft.to/lastmile_qr_scan", "android": "https://dc.lft.to/lastmile_qr_scan"}, "lon": -77.02847816666667, "type": "electric_scooter"}, {"bike_id": "f50f8564916f60eb9ad353067230fcd2", "is_reserved": 0, "fusion_lon": 0.0, "lat": 38.89983766666667, "is_disabled": 0, "name": "f50f8564916f60eb9ad353067230fcd2", "fusion_lat": 0.0, "rental_uris": {"ios": "https://dc.lft.to/lastmile_qr_scan", "android": "https://dc.lft.to/lastmile_qr_scan"}, "lon": -77.05239116666667, "type": "electric_scooter"}, {"bike_id": "b7b759fb86b730d11a4403113b941bf2", "is_reserved": 0, "fusion_lon": 0.0, "lat": 38.91724516666667, "is_disabled": 0, "name": "b7b759fb86b730d11a4403113b941bf2", "fusion_lat": 0.0, "rental_uris": {"ios": "https://dc.lft.to/lastmile_qr_scan", "android": "https://dc.lft.to/lastmile_qr_scan"}, "lon": -77.03441316666667, "type": "electric_scooter"}, {"bike_id": "236bf2bb5de2bd95df121e35fa2e5ce1", "is_reserved": 0, "fusion_lon": 0.0, "lat": 38.881369, "is_disabled": 0, "name": "236bf2bb5de2bd95df121e35fa2e5ce1", "fusion_lat": 0.0, "rental_uris": {"ios": "https://dc.lft.to/lastmile_qr_scan", "android": "https://dc.lft.to/lastmile_qr_scan"}, "lon": -76.98089466666667, "type": "electric_bike"}, {"bike_id": "4863542213f34f32143110a4ef86205b", "is_reserved": 0, "fusion_lon": 0.0, "lat": 38.9036015, "is_disabled": 0, "name": "4863542213f34f32143110a4ef86205b", "fusion_lat": 0.0, "rental_uris": {"ios": "https://dc.lft.to/lastmile_qr_scan", "android": "https://dc.lft.to/lastmile_qr_scan"}, "lon": -77.029492, "type": "electric_scooter"}, {"bike_id": "b2a048d540e517504af763794bd08c22", "is_reserved": 0, "fusion_lon": 0.0, "lat": 38.898277, "is_disabled": 0, "name": "b2a048d540e517504af763794bd08c22", "fusion_lat": 0.0, "rental_uris": {"ios": "https://dc.lft.to/lastmile_qr_scan", "android": "https://dc.lft.to/lastmile_qr_scan"}, "lon": -76.9465305, "type": "electric_scooter"}, {"bike_id": "41feb0f5faaca7b00f67642a398ba6e0", "is_reserved": 0, "fusion_lon": 0.0, "lat": 38.93757933333333, "is_disabled": 0, "name": "41feb0f5faaca7b00f67642a398ba6e0", "fusion_lat": 0.0, "rental_uris": {"ios": "https://dc.lft.to/lastmile_qr_scan", "android": "https://dc.lft.to/lastmile_qr_scan"}, "lon": -77.02479566666666, "type": "electric_scooter"}, {"bike_id": "09260091fc296a7ec183f4c6a611d803", "is_reserved": 0, "fusion_lon": 0.0, "lat": 38.90046533333334, "is_disabled": 0, "name": "09260091fc296a7ec183f4c6a611d803", "fusion_lat": 0.0, "rental_uris": {"ios": "https://dc.lft.to/lastmile_qr_scan", "android": "https://dc.lft.to/lastmile_qr_scan"}, "lon": -77.050735, "type": "electric_scooter"}, {"bike_id": "22d8ffc27e10a7f25d0bc8df0c97020c", "is_reserved": 0, "fusion_lon": 0.0, "lat": 38.91701066666667, "is_disabled": 0, "name": "22d8ffc27e10a7f25d0bc8df0c97020c", "fusion_lat": 0.0, "rental_uris": {"ios": "https://dc.lft.to/lastmile_qr_scan", "android": "https://dc.lft.to/lastmile_qr_scan"}, "lon": -77.0234395, "type": "electric_scooter"}, {"bike_id": "acc8d8b56afddc71e507e4d66f59fd52", "is_reserved": 0, "fusion_lon": 0.0, "lat": 38.8398375, "is_disabled": 0, "name": "acc8d8b56afddc71e507e4d66f59fd52", "fusion_lat": 0.0, "rental_uris": {"ios": "https://dc.lft.to/lastmile_qr_scan", "android": "https://dc.lft.to/lastmile_qr_scan"}, "lon": -77.0057225, "type": "electric_bike"}, {"bike_id": "019fc9da4b1d44631a355664cf5d72e6", "is_reserved": 0, "fusion_lon": 0.0, "lat": 38.91615766666666, "is_disabled": 0, "name": "019fc9da4b1d44631a355664cf5d72e6", "fusion_lat": 0.0, "rental_uris": {"ios": "https://dc.lft.to/lastmile_qr_scan", "android": "https://dc.lft.to/lastmile_qr_scan"}, "lon": -77.03182166666667, "type": "electric_scooter"}, {"bike_id": "a087c2d4aa79e8548bd543b06ab87bd3", "is_reserved": 0, "fusion_lon": 0.0, "lat": 38.86657916666667, "is_disabled": 0, "name": "a087c2d4aa79e8548bd543b06ab87bd3", "fusion_lat": 0.0, "rental_uris": {"ios": "https://dc.lft.to/lastmile_qr_scan", "android": "https://dc.lft.to/lastmile_qr_scan"}, "lon": -76.99015333333334, "type": "electric_scooter"}, {"bike_id": "8ef164310a0eb945e7359593bc4653aa", "is_reserved": 0, "fusion_lon": 0.0, "lat": 38.89222783333334, "is_disabled": 0, "name": "8ef164310a0eb945e7359593bc4653aa", "fusion_lat": 0.0, "rental_uris": {"ios": "https://dc.lft.to/lastmile_qr_scan", "android": "https://dc.lft.to/lastmile_qr_scan"}, "lon": -77.02779566666666, "type": "electric_scooter"}, {"bike_id": "d1c55ba4550011d5dc048bcae21bc899", "is_reserved": 0, "fusion_lon": 0.0, "lat": 38.92141133333333, "is_disabled": 0, "name": "d1c55ba4550011d5dc048bcae21bc899", "fusion_lat": 0.0, "rental_uris": {"ios": "https://dc.lft.to/lastmile_qr_scan", "android": "https://dc.lft.to/lastmile_qr_scan"}, "lon": -77.01794433333333, "type": "electric_scooter"}, {"bike_id": "ea6b51452eb41dd95cb6ea85d51ecfb7", "is_reserved": 0, "fusion_lon": 0.0, "lat": 38.92169, "is_disabled": 0, "name": "ea6b51452eb41dd95cb6ea85d51ecfb7", "fusion_lat": 0.0, "rental_uris": {"ios": "https://dc.lft.to/lastmile_qr_scan", "android": "https://dc.lft.to/lastmile_qr_scan"}, "lon": -77.05139983333333, "type": "electric_scooter"}, {"bike_id": "d1e4e96868bdb4a5858f8fbb6ef9aed3", "is_reserved": 0, "fusion_lon": 0.0, "lat": 38.926549333333334, "is_disabled": 0, "name": "d1e4e96868bdb4a5858f8fbb6ef9aed3", "fusion_lat": 0.0, "rental_uris": {"ios": "https://dc.lft.to/lastmile_qr_scan", "android": "https://dc.lft.to/lastmile_qr_scan"}, "lon": -77.03715466666667, "type": "electric_scooter"}, {"bike_id": "c2b96e4a018edefd2a97968cbad00681", "is_reserved": 0, "fusion_lon": 0.0, "lat": 38.938819333333335, "is_disabled": 0, "name": "c2b96e4a018edefd2a97968cbad00681", "fusion_lat": 0.0, "rental_uris": {"ios": "https://dc.lft.to/lastmile_qr_scan", "android": "https://dc.lft.to/lastmile_qr_scan"}, "lon": -77.03276983333333, "type": "electric_scooter"}, {"bike_id": "c1b641fdaab33fe76c5e0bc9fbfc312f", "is_reserved": 0, "fusion_lon": 0.0, "lat": 38.902905833333335, "is_disabled": 0, "name": "c1b641fdaab33fe76c5e0bc9fbfc312f", "fusion_lat": 0.0, "rental_uris": {"ios": "https://dc.lft.to/lastmile_qr_scan", "android": "https://dc.lft.to/lastmile_qr_scan"}, "lon": -77.0406945, "type": "electric_scooter"}, {"bike_id": "2525fcdab58ae5cfa031a5e5d315dc5e", "is_reserved": 0, "fusion_lon": 0.0, "lat": 38.9859895, "is_disabled": 0, "name": "2525fcdab58ae5cfa031a5e5d315dc5e", "fusion_lat": 0.0, "rental_uris": {"ios": "https://dc.lft.to/lastmile_qr_scan", "android": "https://dc.lft.to/lastmile_qr_scan"}, "lon": -77.037545, "type": "electric_bike"}, {"bike_id": "14d1c841245b49e8e34253148b8a934f", "is_reserved": 0, "fusion_lon": 0.0, "lat": 38.9038115, "is_disabled": 0, "name": "14d1c841245b49e8e34253148b8a934f", "fusion_lat": 0.0, "rental_uris": {"ios": "https://dc.lft.to/lastmile_qr_scan", "android": "https://dc.lft.to/lastmile_qr_scan"}, "lon": -77.04447683333333, "type": "electric_scooter"}, {"bike_id": "117cd014309c29302ebecc4a75c13911", "is_reserved": 0, "fusion_lon": 0.0, "lat": 38.922610166666665, "is_disabled": 0, "name": "117cd014309c29302ebecc4a75c13911", "fusion_lat": 0.0, "rental_uris": {"ios": "https://dc.lft.to/lastmile_qr_scan", "android": "https://dc.lft.to/lastmile_qr_scan"}, "lon": -77.02976416666667, "type": "electric_scooter"}, {"bike_id": "2631c305f31965931c220c4c937ec793", "is_reserved": 0, "fusion_lon": 0.0, "lat": 38.984640166666665, "is_disabled": 0, "name": "2631c305f31965931c220c4c937ec793", "fusion_lat": 0.0, "rental_uris": {"ios": "https://dc.lft.to/lastmile_qr_scan", "android": "https://dc.lft.to/lastmile_qr_scan"}, "lon": -76.95525233333333, "type": "electric_bike"}, {"bike_id": "55947f5ca1d926ee4421dd5d52dbe73a", "is_reserved": 0, "fusion_lon": 0.0, "lat": 38.865616833333334, "is_disabled": 0, "name": "55947f5ca1d926ee4421dd5d52dbe73a", "fusion_lat": 0.0, "rental_uris": {"ios": "https://dc.lft.to/lastmile_qr_scan", "android": "https://dc.lft.to/lastmile_qr_scan"}, "lon": -76.98953816666666, "type": "electric_scooter"}, {"bike_id": "6f9a414bab00d24d52f73408682e6a77", "is_reserved": 0, "fusion_lon": 0.0, "lat": 38.90047966666667, "is_disabled": 0, "name": "6f9a414bab00d24d52f73408682e6a77", "fusion_lat": 0.0, "rental_uris": {"ios": "https://dc.lft.to/lastmile_qr_scan", "android": "https://dc.lft.to/lastmile_qr_scan"}, "lon": -77.007706, "type": "electric_scooter"}, {"bike_id": "59b056402f34f6f33d93dcfbc7df080c", "is_reserved": 0, "fusion_lon": 0.0, "lat": 38.8522205, "is_disabled": 0, "name": "59b056402f34f6f33d93dcfbc7df080c", "fusion_lat": 0.0, "rental_uris": {"ios": "https://dc.lft.to/lastmile_qr_scan", "android": "https://dc.lft.to/lastmile_qr_scan"}, "lon": -77.12955616666666, "type": "electric_bike"}, {"bike_id": "c7b669466bd07017d0ffb1cae19cd439", "is_reserved": 0, "fusion_lon": 0.0, "lat": 38.892327333333334, "is_disabled": 0, "name": "c7b669466bd07017d0ffb1cae19cd439", "fusion_lat": 0.0, "rental_uris": {"ios": "https://dc.lft.to/lastmile_qr_scan", "android": "https://dc.lft.to/lastmile_qr_scan"}, "lon": -77.02588416666667, "type": "electric_scooter"}, {"bike_id": "7325b32a81d54870de28ee0f09342923", "is_reserved": 0, "fusion_lon": 0.0, "lat": 38.865943666666666, "is_disabled": 0, "name": "7325b32a81d54870de28ee0f09342923", "fusion_lat": 0.0, "rental_uris": {"ios": "https://dc.lft.to/lastmile_qr_scan", "android": "https://dc.lft.to/lastmile_qr_scan"}, "lon": -76.93228283333333, "type": "electric_bike"}, {"bike_id": "e622280542c37d00e8474f71919947a3", "is_reserved": 0, "fusion_lon": 0.0, "lat": 38.921103, "is_disabled": 0, "name": "e622280542c37d00e8474f71919947a3", "fusion_lat": 0.0, "rental_uris": {"ios": "https://dc.lft.to/lastmile_qr_scan", "android": "https://dc.lft.to/lastmile_qr_scan"}, "lon": -77.04209466666667, "type": "electric_scooter"}, {"bike_id": "a9eb90d0cba91a73e06dee5d4c9a2f53", "is_reserved": 0, "fusion_lon": 0.0, "lat": 38.927874, "is_disabled": 0, "name": "a9eb90d0cba91a73e06dee5d4c9a2f53", "fusion_lat": 0.0, "rental_uris": {"ios": "https://dc.lft.to/lastmile_qr_scan", "android": "https://dc.lft.to/lastmile_qr_scan"}, "lon": -77.0315275, "type": "electric_scooter"}, {"bike_id": "c0eb946a3cb1010bc9f2337ccdc61f0f", "is_reserved": 0, "fusion_lon": 0.0, "lat": 38.89620466666667, "is_disabled": 0, "name": "c0eb946a3cb1010bc9f2337ccdc61f0f", "fusion_lat": 0.0, "rental_uris": {"ios": "https://dc.lft.to/lastmile_qr_scan", "android": "https://dc.lft.to/lastmile_qr_scan"}, "lon": -76.990651, "type": "electric_scooter"}, {"bike_id": "50caf72a64a95db99e80d82a5b4f1a44", "is_reserved": 0, "fusion_lon": 0.0, "lat": 38.90007166666667, "is_disabled": 0, "name": "50caf72a64a95db99e80d82a5b4f1a44", "fusion_lat": 0.0, "rental_uris": {"ios": "https://dc.lft.to/lastmile_qr_scan", "android": "https://dc.lft.to/lastmile_qr_scan"}, "lon": -77.04033033333333, "type": "electric_scooter"}, {"bike_id": "f3cc08c66dc2b0fef02b55d4a972e077", "is_reserved": 0, "fusion_lon": 0.0, "lat": 38.9168315, "is_disabled": 0, "name": "f3cc08c66dc2b0fef02b55d4a972e077", "fusion_lat": 0.0, "rental_uris": {"ios": "https://dc.lft.to/lastmile_qr_scan", "android": "https://dc.lft.to/lastmile_qr_scan"}, "lon": -77.03196433333333, "type": "electric_scooter"}, {"bike_id": "108f4042098132e14bf04b2aed1bed0d", "is_reserved": 0, "fusion_lon": 0.0, "lat": 38.9037065, "is_disabled": 0, "name": "108f4042098132e14bf04b2aed1bed0d", "fusion_lat": 0.0, "rental_uris": {"ios": "https://dc.lft.to/lastmile_qr_scan", "android": "https://dc.lft.to/lastmile_qr_scan"}, "lon": -77.04012283333333, "type": "electric_scooter"}, {"bike_id": "1ba3d5a6b719e37ce08f6ae07a701998", "is_reserved": 0, "fusion_lon": 0.0, "lat": 38.91664883333333, "is_disabled": 0, "name": "1ba3d5a6b719e37ce08f6ae07a701998", "fusion_lat": 0.0, "rental_uris": {"ios": "https://dc.lft.to/lastmile_qr_scan", "android": "https://dc.lft.to/lastmile_qr_scan"}, "lon": -77.02707683333334, "type": "electric_scooter"}, {"bike_id": "82671a3e8e9cc9de277a6a5ddf9f17c5", "is_reserved": 0, "fusion_lon": 0.0, "lat": 38.88735583333333, "is_disabled": 0, "name": "82671a3e8e9cc9de277a6a5ddf9f17c5", "fusion_lat": 0.0, "rental_uris": {"ios": "https://dc.lft.to/lastmile_qr_scan", "android": "https://dc.lft.to/lastmile_qr_scan"}, "lon": -77.02585583333334, "type": "electric_scooter"}, {"bike_id": "67f9fa34b7d0cf6df2a3085047a7351e", "is_reserved": 0, "fusion_lon": 0.0, "lat": 38.9258515, "is_disabled": 0, "name": "67f9fa34b7d0cf6df2a3085047a7351e", "fusion_lat": 0.0, "rental_uris": {"ios": "https://dc.lft.to/lastmile_qr_scan", "android": "https://dc.lft.to/lastmile_qr_scan"}, "lon": -77.05064566666667, "type": "electric_scooter"}, {"bike_id": "f09f390a8aff0cebc40570c077ce8d7d", "is_reserved": 0, "fusion_lon": 0.0, "lat": 38.897630666666664, "is_disabled": 0, "name": "f09f390a8aff0cebc40570c077ce8d7d", "fusion_lat": 0.0, "rental_uris": {"ios": "https://dc.lft.to/lastmile_qr_scan", "android": "https://dc.lft.to/lastmile_qr_scan"}, "lon": -76.94188483333333, "type": "electric_scooter"}, {"bike_id": "2660560a930b32cec8e355f8e764f9f5", "is_reserved": 0, "fusion_lon": 0.0, "lat": 38.931227166666666, "is_disabled": 0, "name": "2660560a930b32cec8e355f8e764f9f5", "fusion_lat": 0.0, "rental_uris": {"ios": "https://dc.lft.to/lastmile_qr_scan", "android": "https://dc.lft.to/lastmile_qr_scan"}, "lon": -77.02089566666666, "type": "electric_scooter"}, {"bike_id": "637b92e6ffb03f896555a88202928954", "is_reserved": 0, "fusion_lon": 0.0, "lat": 38.92467533333333, "is_disabled": 0, "name": "637b92e6ffb03f896555a88202928954", "fusion_lat": 0.0, "rental_uris": {"ios": "https://dc.lft.to/lastmile_qr_scan", "android": "https://dc.lft.to/lastmile_qr_scan"}, "lon": -77.02154966666667, "type": "electric_scooter"}, {"bike_id": "01d870a4f671c33f1fda1929cb6d1d9a", "is_reserved": 0, "fusion_lon": 0.0, "lat": 38.884336833333336, "is_disabled": 0, "name": "01d870a4f671c33f1fda1929cb6d1d9a", "fusion_lat": 0.0, "rental_uris": {"ios": "https://dc.lft.to/lastmile_qr_scan", "android": "https://dc.lft.to/lastmile_qr_scan"}, "lon": -76.95759183333334, "type": "electric_scooter"}, {"bike_id": "fe2b33f5bea7cd619ad576bfa046165b", "is_reserved": 0, "fusion_lon": 0.0, "lat": 38.90041883333333, "is_disabled": 0, "name": "fe2b33f5bea7cd619ad576bfa046165b", "fusion_lat": 0.0, "rental_uris": {"ios": "https://dc.lft.to/lastmile_qr_scan", "android": "https://dc.lft.to/lastmile_qr_scan"}, "lon": -76.92474066666666, "type": "electric_scooter"}, {"bike_id": "b9e009306c2b4ebec26c655bb4546746", "is_reserved": 0, "fusion_lon": 0.0, "lat": 38.90594983333333, "is_disabled": 0, "name": "b9e009306c2b4ebec26c655bb4546746", "fusion_lat": 0.0, "rental_uris": {"ios": "https://dc.lft.to/lastmile_qr_scan", "android": "https://dc.lft.to/lastmile_qr_scan"}, "lon": -77.02386466666667, "type": "electric_scooter"}, {"bike_id": "d63a2e7b98d41026afcad3a5e4f60f14", "is_reserved": 0, "fusion_lon": 0.0, "lat": 38.892175333333334, "is_disabled": 0, "name": "d63a2e7b98d41026afcad3a5e4f60f14", "fusion_lat": 0.0, "rental_uris": {"ios": "https://dc.lft.to/lastmile_qr_scan", "android": "https://dc.lft.to/lastmile_qr_scan"}, "lon": -77.03169783333334, "type": "electric_scooter"}, {"bike_id": "1e83bcc4963cdff3b2c31a51741e82a4", "is_reserved": 0, "fusion_lon": 0.0, "lat": 38.912651833333335, "is_disabled": 0, "name": "1e83bcc4963cdff3b2c31a51741e82a4", "fusion_lat": 0.0, "rental_uris": {"ios": "https://dc.lft.to/lastmile_qr_scan", "android": "https://dc.lft.to/lastmile_qr_scan"}, "lon": -77.03150283333333, "type": "electric_scooter"}, {"bike_id": "259279add97b2d15e2e13899035e9612", "is_reserved": 0, "fusion_lon": 0.0, "lat": 38.866525833333334, "is_disabled": 0, "name": "259279add97b2d15e2e13899035e9612", "fusion_lat": 0.0, "rental_uris": {"ios": "https://dc.lft.to/lastmile_qr_scan", "android": "https://dc.lft.to/lastmile_qr_scan"}, "lon": -76.9888725, "type": "electric_scooter"}, {"bike_id": "022ba95fe72f2735fd7f8ccbaf8de918", "is_reserved": 0, "fusion_lon": 0.0, "lat": 38.89959416666667, "is_disabled": 0, "name": "022ba95fe72f2735fd7f8ccbaf8de918", "fusion_lat": 0.0, "rental_uris": {"ios": "https://dc.lft.to/lastmile_qr_scan", "android": "https://dc.lft.to/lastmile_qr_scan"}, "lon": -77.02179933333333, "type": "electric_scooter"}, {"bike_id": "ef34dad4d798a42f4b8a82569c057ff4", "is_reserved": 0, "fusion_lon": 0.0, "lat": 38.954859666666664, "is_disabled": 0, "name": "ef34dad4d798a42f4b8a82569c057ff4", "fusion_lat": 0.0, "rental_uris": {"ios": "https://dc.lft.to/lastmile_qr_scan", "android": "https://dc.lft.to/lastmile_qr_scan"}, "lon": -77.06568766666666, "type": "electric_scooter"}, {"bike_id": "ab6e2ef155f2a914495fc5785700f87d", "is_reserved": 0, "fusion_lon": 0.0, "lat": 38.88475316666667, "is_disabled": 0, "name": "ab6e2ef155f2a914495fc5785700f87d", "fusion_lat": 0.0, "rental_uris": {"ios": "https://dc.lft.to/lastmile_qr_scan", "android": "https://dc.lft.to/lastmile_qr_scan"}, "lon": -77.02368016666667, "type": "electric_scooter"}, {"bike_id": "1a0d77686bfb165f814e2b727e8a635c", "is_reserved": 0, "fusion_lon": 0.0, "lat": 38.87908683333333, "is_disabled": 0, "name": "1a0d77686bfb165f814e2b727e8a635c", "fusion_lat": 0.0, "rental_uris": {"ios": "https://dc.lft.to/lastmile_qr_scan", "android": "https://dc.lft.to/lastmile_qr_scan"}, "lon": -77.0059405, "type": "electric_scooter"}, {"bike_id": "e4517d48d3251ec20a3269c7bb8ebf66", "is_reserved": 0, "fusion_lon": 0.0, "lat": 38.86538433333333, "is_disabled": 0, "name": "e4517d48d3251ec20a3269c7bb8ebf66", "fusion_lat": 0.0, "rental_uris": {"ios": "https://dc.lft.to/lastmile_qr_scan", "android": "https://dc.lft.to/lastmile_qr_scan"}, "lon": -76.98706566666667, "type": "electric_scooter"}, {"bike_id": "5187252950dd7d090ffa17936429873d", "is_reserved": 0, "fusion_lon": 0.0, "lat": 38.812507833333335, "is_disabled": 0, "name": "5187252950dd7d090ffa17936429873d", "fusion_lat": 0.0, "rental_uris": {"ios": "https://dc.lft.to/lastmile_qr_scan", "android": "https://dc.lft.to/lastmile_qr_scan"}, "lon": -77.117754, "type": "electric_bike"}, {"bike_id": "ebccedb9db83d549556ed00b66513eae", "is_reserved": 0, "fusion_lon": 0.0, "lat": 38.90388983333333, "is_disabled": 0, "name": "ebccedb9db83d549556ed00b66513eae", "fusion_lat": 0.0, "rental_uris": {"ios": "https://dc.lft.to/lastmile_qr_scan", "android": "https://dc.lft.to/lastmile_qr_scan"}, "lon": -77.04345566666667, "type": "electric_scooter"}, {"bike_id": "63a6341309d771957c00143a461bd3e5", "is_reserved": 0, "fusion_lon": 0.0, "lat": 38.92294183333333, "is_disabled": 0, "name": "63a6341309d771957c00143a461bd3e5", "fusion_lat": 0.0, "rental_uris": {"ios": "https://dc.lft.to/lastmile_qr_scan", "android": "https://dc.lft.to/lastmile_qr_scan"}, "lon": -77.0415705, "type": "electric_scooter"}, {"bike_id": "07b2e0307e4d52d1694bea210fefc315", "is_reserved": 0, "fusion_lon": 0.0, "lat": 38.91658783333333, "is_disabled": 0, "name": "07b2e0307e4d52d1694bea210fefc315", "fusion_lat": 0.0, "rental_uris": {"ios": "https://dc.lft.to/lastmile_qr_scan", "android": "https://dc.lft.to/lastmile_qr_scan"}, "lon": -77.022946, "type": "electric_scooter"}, {"bike_id": "8f4b9fd6d85e9956f7502e9eb79fdfd8", "is_reserved": 0, "fusion_lon": 0.0, "lat": 38.877210166666664, "is_disabled": 0, "name": "8f4b9fd6d85e9956f7502e9eb79fdfd8", "fusion_lat": 0.0, "rental_uris": {"ios": "https://dc.lft.to/lastmile_qr_scan", "android": "https://dc.lft.to/lastmile_qr_scan"}, "lon": -77.0175365, "type": "electric_scooter"}, {"bike_id": "447cfc15d9aa83f8e7c5735d50197e56", "is_reserved": 0, "fusion_lon": 0.0, "lat": 38.9025795, "is_disabled": 0, "name": "447cfc15d9aa83f8e7c5735d50197e56", "fusion_lat": 0.0, "rental_uris": {"ios": "https://dc.lft.to/lastmile_qr_scan", "android": "https://dc.lft.to/lastmile_qr_scan"}, "lon": -77.0282135, "type": "electric_scooter"}, {"bike_id": "6150bf3423cabe5c015635bb07f78400", "is_reserved": 0, "fusion_lon": 0.0, "lat": 38.9001685, "is_disabled": 0, "name": "6150bf3423cabe5c015635bb07f78400", "fusion_lat": 0.0, "rental_uris": {"ios": "https://dc.lft.to/lastmile_qr_scan", "android": "https://dc.lft.to/lastmile_qr_scan"}, "lon": -77.01195, "type": "electric_scooter"}, {"bike_id": "a19c48dd5e6efabec6d6c1afd890c874", "is_reserved": 0, "fusion_lon": 0.0, "lat": 38.88377066666666, "is_disabled": 0, "name": "a19c48dd5e6efabec6d6c1afd890c874", "fusion_lat": 0.0, "rental_uris": {"ios": "https://dc.lft.to/lastmile_qr_scan", "android": "https://dc.lft.to/lastmile_qr_scan"}, "lon": -76.9953745, "type": "electric_scooter"}, {"bike_id": "651296cb813baeefba584af91bc35562", "is_reserved": 0, "fusion_lon": 0.0, "lat": 38.91262183333333, "is_disabled": 0, "name": "651296cb813baeefba584af91bc35562", "fusion_lat": 0.0, "rental_uris": {"ios": "https://dc.lft.to/lastmile_qr_scan", "android": "https://dc.lft.to/lastmile_qr_scan"}, "lon": -77.03828583333333, "type": "electric_scooter"}, {"bike_id": "0253e20aaa41a05ba34048816f4d8ba0", "is_reserved": 0, "fusion_lon": 0.0, "lat": 38.9537635, "is_disabled": 0, "name": "0253e20aaa41a05ba34048816f4d8ba0", "fusion_lat": 0.0, "rental_uris": {"ios": "https://dc.lft.to/lastmile_qr_scan", "android": "https://dc.lft.to/lastmile_qr_scan"}, "lon": -76.99917016666667, "type": "electric_scooter"}, {"bike_id": "f5be90a700f533579c48f1a7d476bff9", "is_reserved": 0, "fusion_lon": 0.0, "lat": 38.88241133333333, "is_disabled": 0, "name": "f5be90a700f533579c48f1a7d476bff9", "fusion_lat": 0.0, "rental_uris": {"ios": "https://dc.lft.to/lastmile_qr_scan", "android": "https://dc.lft.to/lastmile_qr_scan"}, "lon": -76.99086466666667, "type": "electric_scooter"}, {"bike_id": "043be76c002f0ba0d439775ba916ec3a", "is_reserved": 0, "fusion_lon": 0.0, "lat": 38.9198045, "is_disabled": 0, "name": "043be76c002f0ba0d439775ba916ec3a", "fusion_lat": 0.0, "rental_uris": {"ios": "https://dc.lft.to/lastmile_qr_scan", "android": "https://dc.lft.to/lastmile_qr_scan"}, "lon": -76.97312983333333, "type": "electric_scooter"}, {"bike_id": "3ce257792f93bd7b00975b2cb444bdef", "is_reserved": 0, "fusion_lon": 0.0, "lat": 38.935266666666664, "is_disabled": 0, "name": "3ce257792f93bd7b00975b2cb444bdef", "fusion_lat": 0.0, "rental_uris": {"ios": "https://dc.lft.to/lastmile_qr_scan", "android": "https://dc.lft.to/lastmile_qr_scan"}, "lon": -77.0235855, "type": "electric_scooter"}, {"bike_id": "bf26008fe2be04bce38bb448835b1752", "is_reserved": 0, "fusion_lon": 0.0, "lat": 38.92015216666667, "is_disabled": 0, "name": "bf26008fe2be04bce38bb448835b1752", "fusion_lat": 0.0, "rental_uris": {"ios": "https://dc.lft.to/lastmile_qr_scan", "android": "https://dc.lft.to/lastmile_qr_scan"}, "lon": -77.02508833333333, "type": "electric_scooter"}, {"bike_id": "54da9d981a8a4a0e61290f0980ec9008", "is_reserved": 0, "fusion_lon": 0.0, "lat": 38.88729083333333, "is_disabled": 0, "name": "54da9d981a8a4a0e61290f0980ec9008", "fusion_lat": 0.0, "rental_uris": {"ios": "https://dc.lft.to/lastmile_qr_scan", "android": "https://dc.lft.to/lastmile_qr_scan"}, "lon": -77.02020616666667, "type": "electric_scooter"}, {"bike_id": "90bd2f77b4b805ccc61030662ccafab4", "is_reserved": 0, "fusion_lon": 0.0, "lat": 38.95089883333333, "is_disabled": 0, "name": "90bd2f77b4b805ccc61030662ccafab4", "fusion_lat": 0.0, "rental_uris": {"ios": "https://dc.lft.to/lastmile_qr_scan", "android": "https://dc.lft.to/lastmile_qr_scan"}, "lon": -77.01254666666667, "type": "electric_bike"}, {"bike_id": "731bff53f0a1d6856ec59bfb20f888b9", "is_reserved": 0, "fusion_lon": 0.0, "lat": 38.99159383333333, "is_disabled": 0, "name": "731bff53f0a1d6856ec59bfb20f888b9", "fusion_lat": 0.0, "rental_uris": {"ios": "https://dc.lft.to/lastmile_qr_scan", "android": "https://dc.lft.to/lastmile_qr_scan"}, "lon": -77.04737816666666, "type": "electric_scooter"}, {"bike_id": "925027886a010ebfb6dcd1fe57906873", "is_reserved": 0, "fusion_lon": 0.0, "lat": 38.88755733333333, "is_disabled": 0, "name": "925027886a010ebfb6dcd1fe57906873", "fusion_lat": 0.0, "rental_uris": {"ios": "https://dc.lft.to/lastmile_qr_scan", "android": "https://dc.lft.to/lastmile_qr_scan"}, "lon": -77.03134016666667, "type": "electric_scooter"}, {"bike_id": "6dc04ab76b1239141ed5579db21ea8f8", "is_reserved": 0, "fusion_lon": 0.0, "lat": 38.9086175, "is_disabled": 0, "name": "6dc04ab76b1239141ed5579db21ea8f8", "fusion_lat": 0.0, "rental_uris": {"ios": "https://dc.lft.to/lastmile_qr_scan", "android": "https://dc.lft.to/lastmile_qr_scan"}, "lon": -77.08075266666667, "type": "electric_bike"}, {"bike_id": "d04e9a742c72c075994d774fa4fb433b", "is_reserved": 0, "fusion_lon": 0.0, "lat": 38.90243183333333, "is_disabled": 0, "name": "d04e9a742c72c075994d774fa4fb433b", "fusion_lat": 0.0, "rental_uris": {"ios": "https://dc.lft.to/lastmile_qr_scan", "android": "https://dc.lft.to/lastmile_qr_scan"}, "lon": -77.00203116666667, "type": "electric_scooter"}, {"bike_id": "8f434c060dae9e7e15ed2efa4c1471e9", "is_reserved": 0, "fusion_lon": 0.0, "lat": 38.917081, "is_disabled": 0, "name": "8f434c060dae9e7e15ed2efa4c1471e9", "fusion_lat": 0.0, "rental_uris": {"ios": "https://dc.lft.to/lastmile_qr_scan", "android": "https://dc.lft.to/lastmile_qr_scan"}, "lon": -77.0349785, "type": "electric_scooter"}, {"bike_id": "c1c939c0eaa0a01e03c85197dffc66bb", "is_reserved": 0, "fusion_lon": 0.0, "lat": 38.958362, "is_disabled": 0, "name": "c1c939c0eaa0a01e03c85197dffc66bb", "fusion_lat": 0.0, "rental_uris": {"ios": "https://dc.lft.to/lastmile_qr_scan", "android": "https://dc.lft.to/lastmile_qr_scan"}, "lon": -77.01801033333334, "type": "electric_bike"}, {"bike_id": "9884258062e7a7f45fc34a5c322bcb69", "is_reserved": 0, "fusion_lon": 0.0, "lat": 38.9257925, "is_disabled": 0, "name": "9884258062e7a7f45fc34a5c322bcb69", "fusion_lat": 0.0, "rental_uris": {"ios": "https://dc.lft.to/lastmile_qr_scan", "android": "https://dc.lft.to/lastmile_qr_scan"}, "lon": -77.05768133333333, "type": "electric_scooter"}, {"bike_id": "2ddfe812024ee5abf08b327d794d737d", "is_reserved": 0, "fusion_lon": 0.0, "lat": 38.88437033333334, "is_disabled": 0, "name": "2ddfe812024ee5abf08b327d794d737d", "fusion_lat": 0.0, "rental_uris": {"ios": "https://dc.lft.to/lastmile_qr_scan", "android": "https://dc.lft.to/lastmile_qr_scan"}, "lon": -77.030433, "type": "electric_scooter"}, {"bike_id": "bd1dbfe9725df70880c0eb88cacbfe34", "is_reserved": 0, "fusion_lon": 0.0, "lat": 38.919208166666664, "is_disabled": 0, "name": "bd1dbfe9725df70880c0eb88cacbfe34", "fusion_lat": 0.0, "rental_uris": {"ios": "https://dc.lft.to/lastmile_qr_scan", "android": "https://dc.lft.to/lastmile_qr_scan"}, "lon": -77.03391883333333, "type": "electric_scooter"}, {"bike_id": "780e60bf0f4672c32144289efaafa257", "is_reserved": 0, "fusion_lon": 0.0, "lat": 38.901831666666666, "is_disabled": 0, "name": "780e60bf0f4672c32144289efaafa257", "fusion_lat": 0.0, "rental_uris": {"ios": "https://dc.lft.to/lastmile_qr_scan", "android": "https://dc.lft.to/lastmile_qr_scan"}, "lon": -76.99982316666667, "type": "electric_scooter"}, {"bike_id": "5b520d1b704f1ee8df8007683c89f12e", "is_reserved": 0, "fusion_lon": 0.0, "lat": 38.86415933333333, "is_disabled": 0, "name": "5b520d1b704f1ee8df8007683c89f12e", "fusion_lat": 0.0, "rental_uris": {"ios": "https://dc.lft.to/lastmile_qr_scan", "android": "https://dc.lft.to/lastmile_qr_scan"}, "lon": -77.01354816666667, "type": "electric_scooter"}, {"bike_id": "0bb428c78951cf7d17028f51aed753cf", "is_reserved": 0, "fusion_lon": 0.0, "lat": 38.90422933333333, "is_disabled": 0, "name": "0bb428c78951cf7d17028f51aed753cf", "fusion_lat": 0.0, "rental_uris": {"ios": "https://dc.lft.to/lastmile_qr_scan", "android": "https://dc.lft.to/lastmile_qr_scan"}, "lon": -77.04366666666667, "type": "electric_scooter"}, {"bike_id": "2f631ba5fe39992097d6483b3a82d3aa", "is_reserved": 0, "fusion_lon": 0.0, "lat": 38.892255666666664, "is_disabled": 0, "name": "2f631ba5fe39992097d6483b3a82d3aa", "fusion_lat": 0.0, "rental_uris": {"ios": "https://dc.lft.to/lastmile_qr_scan", "android": "https://dc.lft.to/lastmile_qr_scan"}, "lon": -77.04653416666666, "type": "electric_scooter"}, {"bike_id": "b55257ef53bf823935597778dab57a07", "is_reserved": 0, "fusion_lon": 0.0, "lat": 38.89467416666667, "is_disabled": 0, "name": "b55257ef53bf823935597778dab57a07", "fusion_lat": 0.0, "rental_uris": {"ios": "https://dc.lft.to/lastmile_qr_scan", "android": "https://dc.lft.to/lastmile_qr_scan"}, "lon": -77.00065516666666, "type": "electric_scooter"}, {"bike_id": "83f7fa7de67ceaa2ae93aa7a42e5344a", "is_reserved": 0, "fusion_lon": 0.0, "lat": 38.892208333333336, "is_disabled": 0, "name": "83f7fa7de67ceaa2ae93aa7a42e5344a", "fusion_lat": 0.0, "rental_uris": {"ios": "https://dc.lft.to/lastmile_qr_scan", "android": "https://dc.lft.to/lastmile_qr_scan"}, "lon": -77.041939, "type": "electric_scooter"}, {"bike_id": "02b202d475f79fb0a950b740c0832ee3", "is_reserved": 0, "fusion_lon": 0.0, "lat": 38.895540833333335, "is_disabled": 0, "name": "02b202d475f79fb0a950b740c0832ee3", "fusion_lat": 0.0, "rental_uris": {"ios": "https://dc.lft.to/lastmile_qr_scan", "android": "https://dc.lft.to/lastmile_qr_scan"}, "lon": -77.00919683333333, "type": "electric_scooter"}, {"bike_id": "48d7669fefc77a374b83b6de1853fee5", "is_reserved": 0, "fusion_lon": 0.0, "lat": 38.866229833333335, "is_disabled": 0, "name": "48d7669fefc77a374b83b6de1853fee5", "fusion_lat": 0.0, "rental_uris": {"ios": "https://dc.lft.to/lastmile_qr_scan", "android": "https://dc.lft.to/lastmile_qr_scan"}, "lon": -76.98666016666667, "type": "electric_scooter"}, {"bike_id": "5362fc1d2287fec71065f6cccef5bbd5", "is_reserved": 0, "fusion_lon": 0.0, "lat": 38.922668333333334, "is_disabled": 0, "name": "5362fc1d2287fec71065f6cccef5bbd5", "fusion_lat": 0.0, "rental_uris": {"ios": "https://dc.lft.to/lastmile_qr_scan", "android": "https://dc.lft.to/lastmile_qr_scan"}, "lon": -76.974318, "type": "electric_bike"}, {"bike_id": "344e8f5352ae10f2312cfc1d2f3ea73b", "is_reserved": 0, "fusion_lon": 0.0, "lat": 38.90791516666667, "is_disabled": 0, "name": "344e8f5352ae10f2312cfc1d2f3ea73b", "fusion_lat": 0.0, "rental_uris": {"ios": "https://dc.lft.to/lastmile_qr_scan", "android": "https://dc.lft.to/lastmile_qr_scan"}, "lon": -77.04269266666667, "type": "electric_scooter"}, {"bike_id": "cc866a1e6e3c70b47774b04879bb06b4", "is_reserved": 0, "fusion_lon": 0.0, "lat": 38.93463633333333, "is_disabled": 0, "name": "cc866a1e6e3c70b47774b04879bb06b4", "fusion_lat": 0.0, "rental_uris": {"ios": "https://dc.lft.to/lastmile_qr_scan", "android": "https://dc.lft.to/lastmile_qr_scan"}, "lon": -77.07225583333333, "type": "electric_scooter"}, {"bike_id": "11246ef7905b96e3bb51f205e3ad5101", "is_reserved": 0, "fusion_lon": 0.0, "lat": 38.94039716666666, "is_disabled": 0, "name": "11246ef7905b96e3bb51f205e3ad5101", "fusion_lat": 0.0, "rental_uris": {"ios": "https://dc.lft.to/lastmile_qr_scan", "android": "https://dc.lft.to/lastmile_qr_scan"}, "lon": -77.02906033333333, "type": "electric_scooter"}, {"bike_id": "4bd0e57cb8f41869539fa129d5d8426f", "is_reserved": 0, "fusion_lon": 0.0, "lat": 38.845925333333334, "is_disabled": 0, "name": "4bd0e57cb8f41869539fa129d5d8426f", "fusion_lat": 0.0, "rental_uris": {"ios": "https://dc.lft.to/lastmile_qr_scan", "android": "https://dc.lft.to/lastmile_qr_scan"}, "lon": -77.0768365, "type": "electric_bike"}, {"bike_id": "62a9b9ca63e22ae8a150326748844671", "is_reserved": 0, "fusion_lon": 0.0, "lat": 38.8666615, "is_disabled": 0, "name": "62a9b9ca63e22ae8a150326748844671", "fusion_lat": 0.0, "rental_uris": {"ios": "https://dc.lft.to/lastmile_qr_scan", "android": "https://dc.lft.to/lastmile_qr_scan"}, "lon": -76.98905383333333, "type": "electric_scooter"}, {"bike_id": "fdf97d0e6ef4ffae9eaf64a3879f1cad", "is_reserved": 0, "fusion_lon": 0.0, "lat": 38.932899166666665, "is_disabled": 0, "name": "fdf97d0e6ef4ffae9eaf64a3879f1cad", "fusion_lat": 0.0, "rental_uris": {"ios": "https://dc.lft.to/lastmile_qr_scan", "android": "https://dc.lft.to/lastmile_qr_scan"}, "lon": -77.0398305, "type": "electric_scooter"}, {"bike_id": "5513d29e343515269285f265f680a018", "is_reserved": 0, "fusion_lon": 0.0, "lat": 38.910973, "is_disabled": 0, "name": "5513d29e343515269285f265f680a018", "fusion_lat": 0.0, "rental_uris": {"ios": "https://dc.lft.to/lastmile_qr_scan", "android": "https://dc.lft.to/lastmile_qr_scan"}, "lon": -77.03092466666666, "type": "electric_scooter"}, {"bike_id": "4381d43fabd40acd05296e44f998bfb1", "is_reserved": 0, "fusion_lon": 0.0, "lat": 38.83811216666667, "is_disabled": 0, "name": "4381d43fabd40acd05296e44f998bfb1", "fusion_lat": 0.0, "rental_uris": {"ios": "https://dc.lft.to/lastmile_qr_scan", "android": "https://dc.lft.to/lastmile_qr_scan"}, "lon": -77.09524633333334, "type": "electric_bike"}, {"bike_id": "6824bded9536bcd80aae6a0f8d3cfd44", "is_reserved": 0, "fusion_lon": 0.0, "lat": 38.83866483333333, "is_disabled": 0, "name": "6824bded9536bcd80aae6a0f8d3cfd44", "fusion_lat": 0.0, "rental_uris": {"ios": "https://dc.lft.to/lastmile_qr_scan", "android": "https://dc.lft.to/lastmile_qr_scan"}, "lon": -76.9970075, "type": "electric_bike"}, {"bike_id": "66891704cc79d4adbf09a2b08095e5f5", "is_reserved": 0, "fusion_lon": 0.0, "lat": 38.9212025, "is_disabled": 0, "name": "66891704cc79d4adbf09a2b08095e5f5", "fusion_lat": 0.0, "rental_uris": {"ios": "https://dc.lft.to/lastmile_qr_scan", "android": "https://dc.lft.to/lastmile_qr_scan"}, "lon": -77.04575533333333, "type": "electric_scooter"}, {"bike_id": "1c94166a0e40a61f48937377c2cf45c5", "is_reserved": 0, "fusion_lon": 0.0, "lat": 38.865285666666665, "is_disabled": 0, "name": "1c94166a0e40a61f48937377c2cf45c5", "fusion_lat": 0.0, "rental_uris": {"ios": "https://dc.lft.to/lastmile_qr_scan", "android": "https://dc.lft.to/lastmile_qr_scan"}, "lon": -76.99021016666667, "type": "electric_scooter"}, {"bike_id": "ed56c8c6a6ddc1a0d2125a5a2f9c18db", "is_reserved": 0, "fusion_lon": 0.0, "lat": 38.89739766666667, "is_disabled": 0, "name": "ed56c8c6a6ddc1a0d2125a5a2f9c18db", "fusion_lat": 0.0, "rental_uris": {"ios": "https://dc.lft.to/lastmile_qr_scan", "android": "https://dc.lft.to/lastmile_qr_scan"}, "lon": -76.93847033333333, "type": "electric_scooter"}, {"bike_id": "90b69ba4ce829872217b6295996226ed", "is_reserved": 0, "fusion_lon": 0.0, "lat": 38.91472233333333, "is_disabled": 0, "name": "90b69ba4ce829872217b6295996226ed", "fusion_lat": 0.0, "rental_uris": {"ios": "https://dc.lft.to/lastmile_qr_scan", "android": "https://dc.lft.to/lastmile_qr_scan"}, "lon": -76.98436283333334, "type": "electric_scooter"}, {"bike_id": "4aa9038b74646ef7afb1a2a08a840f95", "is_reserved": 0, "fusion_lon": 0.0, "lat": 38.87628933333333, "is_disabled": 0, "name": "4aa9038b74646ef7afb1a2a08a840f95", "fusion_lat": 0.0, "rental_uris": {"ios": "https://dc.lft.to/lastmile_qr_scan", "android": "https://dc.lft.to/lastmile_qr_scan"}, "lon": -76.9652995, "type": "electric_scooter"}, {"bike_id": "765d028caab2493d948fe5a41df5bfdd", "is_reserved": 0, "fusion_lon": 0.0, "lat": 38.91261033333333, "is_disabled": 0, "name": "765d028caab2493d948fe5a41df5bfdd", "fusion_lat": 0.0, "rental_uris": {"ios": "https://dc.lft.to/lastmile_qr_scan", "android": "https://dc.lft.to/lastmile_qr_scan"}, "lon": -77.0339505, "type": "electric_scooter"}, {"bike_id": "d01ba4634c0726a26e0956aa4437980b", "is_reserved": 0, "fusion_lon": 0.0, "lat": 38.9463035, "is_disabled": 0, "name": "d01ba4634c0726a26e0956aa4437980b", "fusion_lat": 0.0, "rental_uris": {"ios": "https://dc.lft.to/lastmile_qr_scan", "android": "https://dc.lft.to/lastmile_qr_scan"}, "lon": -77.01845433333334, "type": "electric_scooter"}, {"bike_id": "01be8ad02bafde5380660fe66f27438a", "is_reserved": 0, "fusion_lon": 0.0, "lat": 38.92334483333333, "is_disabled": 0, "name": "01be8ad02bafde5380660fe66f27438a", "fusion_lat": 0.0, "rental_uris": {"ios": "https://dc.lft.to/lastmile_qr_scan", "android": "https://dc.lft.to/lastmile_qr_scan"}, "lon": -77.03771483333334, "type": "electric_scooter"}, {"bike_id": "34422123e0a5fc498eb8e9d960f9bc38", "is_reserved": 0, "fusion_lon": 0.0, "lat": 38.900298, "is_disabled": 0, "name": "34422123e0a5fc498eb8e9d960f9bc38", "fusion_lat": 0.0, "rental_uris": {"ios": "https://dc.lft.to/lastmile_qr_scan", "android": "https://dc.lft.to/lastmile_qr_scan"}, "lon": -77.0021275, "type": "electric_scooter"}, {"bike_id": "c1ddcf6dcb9a974747be338b967d7a28", "is_reserved": 0, "fusion_lon": 0.0, "lat": 38.90390883333333, "is_disabled": 0, "name": "c1ddcf6dcb9a974747be338b967d7a28", "fusion_lat": 0.0, "rental_uris": {"ios": "https://dc.lft.to/lastmile_qr_scan", "android": "https://dc.lft.to/lastmile_qr_scan"}, "lon": -77.04464766666666, "type": "electric_scooter"}, {"bike_id": "a024df81def301007a7e15e4d223bd57", "is_reserved": 0, "fusion_lon": 0.0, "lat": 38.918932833333336, "is_disabled": 0, "name": "a024df81def301007a7e15e4d223bd57", "fusion_lat": 0.0, "rental_uris": {"ios": "https://dc.lft.to/lastmile_qr_scan", "android": "https://dc.lft.to/lastmile_qr_scan"}, "lon": -77.0391135, "type": "electric_scooter"}, {"bike_id": "84506d619db606252bdf71e26b2ceb57", "is_reserved": 0, "fusion_lon": 0.0, "lat": 38.8737015, "is_disabled": 0, "name": "84506d619db606252bdf71e26b2ceb57", "fusion_lat": 0.0, "rental_uris": {"ios": "https://dc.lft.to/lastmile_qr_scan", "android": "https://dc.lft.to/lastmile_qr_scan"}, "lon": -77.00002483333333, "type": "electric_scooter"}, {"bike_id": "5024c7a431852da3fdeb33610573dbfa", "is_reserved": 0, "fusion_lon": 0.0, "lat": 38.9039555, "is_disabled": 0, "name": "5024c7a431852da3fdeb33610573dbfa", "fusion_lat": 0.0, "rental_uris": {"ios": "https://dc.lft.to/lastmile_qr_scan", "android": "https://dc.lft.to/lastmile_qr_scan"}, "lon": -77.06294216666667, "type": "electric_scooter"}, {"bike_id": "ca53d28ac5499311cb51e043f9ea355f", "is_reserved": 0, "fusion_lon": 0.0, "lat": 38.905706, "is_disabled": 0, "name": "ca53d28ac5499311cb51e043f9ea355f", "fusion_lat": 0.0, "rental_uris": {"ios": "https://dc.lft.to/lastmile_qr_scan", "android": "https://dc.lft.to/lastmile_qr_scan"}, "lon": -77.02426233333334, "type": "electric_scooter"}, {"bike_id": "c313eb7065ae7c7eb366067193505995", "is_reserved": 0, "fusion_lon": 0.0, "lat": 38.8962115, "is_disabled": 0, "name": "c313eb7065ae7c7eb366067193505995", "fusion_lat": 0.0, "rental_uris": {"ios": "https://dc.lft.to/lastmile_qr_scan", "android": "https://dc.lft.to/lastmile_qr_scan"}, "lon": -76.95583916666666, "type": "electric_scooter"}, {"bike_id": "b40201e63c67b5e1991b7b56e8f88845", "is_reserved": 0, "fusion_lon": 0.0, "lat": 38.91873266666666, "is_disabled": 0, "name": "b40201e63c67b5e1991b7b56e8f88845", "fusion_lat": 0.0, "rental_uris": {"ios": "https://dc.lft.to/lastmile_qr_scan", "android": "https://dc.lft.to/lastmile_qr_scan"}, "lon": -77.02605216666667, "type": "electric_scooter"}, {"bike_id": "24dd5f9b713915ec08d1336373bba276", "is_reserved": 0, "fusion_lon": 0.0, "lat": 38.916093833333335, "is_disabled": 0, "name": "24dd5f9b713915ec08d1336373bba276", "fusion_lat": 0.0, "rental_uris": {"ios": "https://dc.lft.to/lastmile_qr_scan", "android": "https://dc.lft.to/lastmile_qr_scan"}, "lon": -77.04026283333333, "type": "electric_scooter"}, {"bike_id": "6ceb50a356463cb0ad3529862d4f673f", "is_reserved": 0, "fusion_lon": 0.0, "lat": 38.92401783333333, "is_disabled": 0, "name": "6ceb50a356463cb0ad3529862d4f673f", "fusion_lat": 0.0, "rental_uris": {"ios": "https://dc.lft.to/lastmile_qr_scan", "android": "https://dc.lft.to/lastmile_qr_scan"}, "lon": -77.02236733333334, "type": "electric_scooter"}, {"bike_id": "3ce87ec9c33e32975157cc9d4c0a1a4d", "is_reserved": 0, "fusion_lon": 0.0, "lat": 38.91256766666667, "is_disabled": 0, "name": "3ce87ec9c33e32975157cc9d4c0a1a4d", "fusion_lat": 0.0, "rental_uris": {"ios": "https://dc.lft.to/lastmile_qr_scan", "android": "https://dc.lft.to/lastmile_qr_scan"}, "lon": -77.00932733333333, "type": "electric_scooter"}, {"bike_id": "a7d39a3b4421bf3e3e67b7f9cec06251", "is_reserved": 0, "fusion_lon": 0.0, "lat": 38.898348, "is_disabled": 0, "name": "a7d39a3b4421bf3e3e67b7f9cec06251", "fusion_lat": 0.0, "rental_uris": {"ios": "https://dc.lft.to/lastmile_qr_scan", "android": "https://dc.lft.to/lastmile_qr_scan"}, "lon": -76.94638566666667, "type": "electric_scooter"}, {"bike_id": "7e83008b12f262050ea60a993b4c2c66", "is_reserved": 0, "fusion_lon": 0.0, "lat": 38.90727233333333, "is_disabled": 0, "name": "7e83008b12f262050ea60a993b4c2c66", "fusion_lat": 0.0, "rental_uris": {"ios": "https://dc.lft.to/lastmile_qr_scan", "android": "https://dc.lft.to/lastmile_qr_scan"}, "lon": -77.0006545, "type": "electric_scooter"}, {"bike_id": "109f54aecddd4e09127695a7a0d8b129", "is_reserved": 0, "fusion_lon": 0.0, "lat": 38.93115233333333, "is_disabled": 0, "name": "109f54aecddd4e09127695a7a0d8b129", "fusion_lat": 0.0, "rental_uris": {"ios": "https://dc.lft.to/lastmile_qr_scan", "android": "https://dc.lft.to/lastmile_qr_scan"}, "lon": -77.02137666666667, "type": "electric_scooter"}, {"bike_id": "1e3a74e84ce9507d9b5e5b48ab436d1e", "is_reserved": 0, "fusion_lon": 0.0, "lat": 38.8893445, "is_disabled": 0, "name": "1e3a74e84ce9507d9b5e5b48ab436d1e", "fusion_lat": 0.0, "rental_uris": {"ios": "https://dc.lft.to/lastmile_qr_scan", "android": "https://dc.lft.to/lastmile_qr_scan"}, "lon": -77.01503883333334, "type": "electric_scooter"}, {"bike_id": "426d2585ee1c988f00759236014d9bcb", "is_reserved": 0, "fusion_lon": 0.0, "lat": 38.866628, "is_disabled": 0, "name": "426d2585ee1c988f00759236014d9bcb", "fusion_lat": 0.0, "rental_uris": {"ios": "https://dc.lft.to/lastmile_qr_scan", "android": "https://dc.lft.to/lastmile_qr_scan"}, "lon": -76.989077, "type": "electric_scooter"}, {"bike_id": "0ae411e1aedb246588ce9d425534144f", "is_reserved": 0, "fusion_lon": 0.0, "lat": 38.965007166666666, "is_disabled": 0, "name": "0ae411e1aedb246588ce9d425534144f", "fusion_lat": 0.0, "rental_uris": {"ios": "https://dc.lft.to/lastmile_qr_scan", "android": "https://dc.lft.to/lastmile_qr_scan"}, "lon": -77.06492533333333, "type": "electric_bike"}, {"bike_id": "629b87c597fa6c83012c2297eee3aa57", "is_reserved": 0, "fusion_lon": 0.0, "lat": 38.910363333333336, "is_disabled": 0, "name": "629b87c597fa6c83012c2297eee3aa57", "fusion_lat": 0.0, "rental_uris": {"ios": "https://dc.lft.to/lastmile_qr_scan", "android": "https://dc.lft.to/lastmile_qr_scan"}, "lon": -77.0439245, "type": "electric_scooter"}, {"bike_id": "ac88abea2fb74a96a0c18bc1f9cce549", "is_reserved": 0, "fusion_lon": 0.0, "lat": 38.918757166666666, "is_disabled": 0, "name": "ac88abea2fb74a96a0c18bc1f9cce549", "fusion_lat": 0.0, "rental_uris": {"ios": "https://dc.lft.to/lastmile_qr_scan", "android": "https://dc.lft.to/lastmile_qr_scan"}, "lon": -77.03902483333333, "type": "electric_scooter"}, {"bike_id": "9bc3bf28645711aae570ea9d0fb15d6c", "is_reserved": 0, "fusion_lon": 0.0, "lat": 38.890166, "is_disabled": 0, "name": "9bc3bf28645711aae570ea9d0fb15d6c", "fusion_lat": 0.0, "rental_uris": {"ios": "https://dc.lft.to/lastmile_qr_scan", "android": "https://dc.lft.to/lastmile_qr_scan"}, "lon": -76.93739866666667, "type": "electric_scooter"}, {"bike_id": "b39da3e492bea03a137dbb4b92c66525", "is_reserved": 0, "fusion_lon": 0.0, "lat": 38.909702333333335, "is_disabled": 0, "name": "b39da3e492bea03a137dbb4b92c66525", "fusion_lat": 0.0, "rental_uris": {"ios": "https://dc.lft.to/lastmile_qr_scan", "android": "https://dc.lft.to/lastmile_qr_scan"}, "lon": -77.048777, "type": "electric_scooter"}, {"bike_id": "bec7d5f04fee88f5135ec0896e7f2f4e", "is_reserved": 0, "fusion_lon": 0.0, "lat": 38.88429566666667, "is_disabled": 0, "name": "bec7d5f04fee88f5135ec0896e7f2f4e", "fusion_lat": 0.0, "rental_uris": {"ios": "https://dc.lft.to/lastmile_qr_scan", "android": "https://dc.lft.to/lastmile_qr_scan"}, "lon": -76.95757966666666, "type": "electric_scooter"}, {"bike_id": "f3ff95a01b8410f092b9146e67a202e0", "is_reserved": 0, "fusion_lon": 0.0, "lat": 38.9096275, "is_disabled": 0, "name": "f3ff95a01b8410f092b9146e67a202e0", "fusion_lat": 0.0, "rental_uris": {"ios": "https://dc.lft.to/lastmile_qr_scan", "android": "https://dc.lft.to/lastmile_qr_scan"}, "lon": -77.033734, "type": "electric_scooter"}, {"bike_id": "97e8b1eaa089a503964fd133dc7b8dec", "is_reserved": 0, "fusion_lon": 0.0, "lat": 38.91243033333333, "is_disabled": 0, "name": "97e8b1eaa089a503964fd133dc7b8dec", "fusion_lat": 0.0, "rental_uris": {"ios": "https://dc.lft.to/lastmile_qr_scan", "android": "https://dc.lft.to/lastmile_qr_scan"}, "lon": -77.045134, "type": "electric_scooter"}, {"bike_id": "39c79bc23e16deccc293ad7ddff84adb", "is_reserved": 0, "fusion_lon": 0.0, "lat": 38.936932166666665, "is_disabled": 0, "name": "39c79bc23e16deccc293ad7ddff84adb", "fusion_lat": 0.0, "rental_uris": {"ios": "https://dc.lft.to/lastmile_qr_scan", "android": "https://dc.lft.to/lastmile_qr_scan"}, "lon": -77.0271625, "type": "electric_scooter"}, {"bike_id": "7f7ca761024f9413205df15f40ae7de4", "is_reserved": 0, "fusion_lon": 0.0, "lat": 38.885375333333336, "is_disabled": 0, "name": "7f7ca761024f9413205df15f40ae7de4", "fusion_lat": 0.0, "rental_uris": {"ios": "https://dc.lft.to/lastmile_qr_scan", "android": "https://dc.lft.to/lastmile_qr_scan"}, "lon": -76.99833816666667, "type": "electric_scooter"}, {"bike_id": "89e478cb2440f0579e0e1ab74ed96f49", "is_reserved": 0, "fusion_lon": 0.0, "lat": 38.8665855, "is_disabled": 0, "name": "89e478cb2440f0579e0e1ab74ed96f49", "fusion_lat": 0.0, "rental_uris": {"ios": "https://dc.lft.to/lastmile_qr_scan", "android": "https://dc.lft.to/lastmile_qr_scan"}, "lon": -76.98885766666666, "type": "electric_scooter"}, {"bike_id": "333472969a26b2ccb068b891434c9283", "is_reserved": 0, "fusion_lon": 0.0, "lat": 38.903334666666666, "is_disabled": 0, "name": "333472969a26b2ccb068b891434c9283", "fusion_lat": 0.0, "rental_uris": {"ios": "https://dc.lft.to/lastmile_qr_scan", "android": "https://dc.lft.to/lastmile_qr_scan"}, "lon": -77.04326716666667, "type": "electric_scooter"}, {"bike_id": "6c5510ec05840d72380ddeae684dd70b", "is_reserved": 0, "fusion_lon": 0.0, "lat": 38.9118025, "is_disabled": 0, "name": "6c5510ec05840d72380ddeae684dd70b", "fusion_lat": 0.0, "rental_uris": {"ios": "https://dc.lft.to/lastmile_qr_scan", "android": "https://dc.lft.to/lastmile_qr_scan"}, "lon": -77.06834166666667, "type": "electric_scooter"}, {"bike_id": "7d7443cf3cb4bb93b1d87a7007fc74fc", "is_reserved": 0, "fusion_lon": 0.0, "lat": 38.92114866666667, "is_disabled": 0, "name": "7d7443cf3cb4bb93b1d87a7007fc74fc", "fusion_lat": 0.0, "rental_uris": {"ios": "https://dc.lft.to/lastmile_qr_scan", "android": "https://dc.lft.to/lastmile_qr_scan"}, "lon": -77.04586133333333, "type": "electric_scooter"}, {"bike_id": "6aa2ad5b676c7fe14a57d9f86f7be297", "is_reserved": 0, "fusion_lon": 0.0, "lat": 38.92232083333333, "is_disabled": 0, "name": "6aa2ad5b676c7fe14a57d9f86f7be297", "fusion_lat": 0.0, "rental_uris": {"ios": "https://dc.lft.to/lastmile_qr_scan", "android": "https://dc.lft.to/lastmile_qr_scan"}, "lon": -77.04342416666667, "type": "electric_bike"}, {"bike_id": "4715e7b849653e2a55f4fd87075877e3", "is_reserved": 0, "fusion_lon": 0.0, "lat": 38.844272, "is_disabled": 0, "name": "4715e7b849653e2a55f4fd87075877e3", "fusion_lat": 0.0, "rental_uris": {"ios": "https://dc.lft.to/lastmile_qr_scan", "android": "https://dc.lft.to/lastmile_qr_scan"}, "lon": -76.9977675, "type": "electric_scooter"}, {"bike_id": "a9f8c18f37e6684ee892cb0267ed81ff", "is_reserved": 0, "fusion_lon": 0.0, "lat": 38.86926166666667, "is_disabled": 0, "name": "a9f8c18f37e6684ee892cb0267ed81ff", "fusion_lat": 0.0, "rental_uris": {"ios": "https://dc.lft.to/lastmile_qr_scan", "android": "https://dc.lft.to/lastmile_qr_scan"}, "lon": -76.98306866666667, "type": "electric_scooter"}, {"bike_id": "2448c445aea476cc1898da562c503a8c", "is_reserved": 0, "fusion_lon": 0.0, "lat": 38.885044666666666, "is_disabled": 0, "name": "2448c445aea476cc1898da562c503a8c", "fusion_lat": 0.0, "rental_uris": {"ios": "https://dc.lft.to/lastmile_qr_scan", "android": "https://dc.lft.to/lastmile_qr_scan"}, "lon": -77.0056575, "type": "electric_scooter"}, {"bike_id": "995a98454d4d4743114e59cf0adc6364", "is_reserved": 0, "fusion_lon": 0.0, "lat": 38.903662, "is_disabled": 0, "name": "995a98454d4d4743114e59cf0adc6364", "fusion_lat": 0.0, "rental_uris": {"ios": "https://dc.lft.to/lastmile_qr_scan", "android": "https://dc.lft.to/lastmile_qr_scan"}, "lon": -77.0300455, "type": "electric_scooter"}, {"bike_id": "611dc4a674fc7a61dfc6503a09ccfcf7", "is_reserved": 0, "fusion_lon": 0.0, "lat": 38.87215883333333, "is_disabled": 0, "name": "611dc4a674fc7a61dfc6503a09ccfcf7", "fusion_lat": 0.0, "rental_uris": {"ios": "https://dc.lft.to/lastmile_qr_scan", "android": "https://dc.lft.to/lastmile_qr_scan"}, "lon": -77.00566016666667, "type": "electric_scooter"}, {"bike_id": "1fa93cfbf9283650c4767dbe33b9d59c", "is_reserved": 0, "fusion_lon": 0.0, "lat": 38.93985966666666, "is_disabled": 0, "name": "1fa93cfbf9283650c4767dbe33b9d59c", "fusion_lat": 0.0, "rental_uris": {"ios": "https://dc.lft.to/lastmile_qr_scan", "android": "https://dc.lft.to/lastmile_qr_scan"}, "lon": -77.03695366666666, "type": "electric_scooter"}, {"bike_id": "2c6c9e69effa7f695e13def5947c8681", "is_reserved": 0, "fusion_lon": 0.0, "lat": 38.9183135, "is_disabled": 0, "name": "2c6c9e69effa7f695e13def5947c8681", "fusion_lat": 0.0, "rental_uris": {"ios": "https://dc.lft.to/lastmile_qr_scan", "android": "https://dc.lft.to/lastmile_qr_scan"}, "lon": -77.04154666666666, "type": "electric_scooter"}, {"bike_id": "ed4b5011037dde9197927f11ce3a1b7c", "is_reserved": 0, "fusion_lon": 0.0, "lat": 38.900063, "is_disabled": 0, "name": "ed4b5011037dde9197927f11ce3a1b7c", "fusion_lat": 0.0, "rental_uris": {"ios": "https://dc.lft.to/lastmile_qr_scan", "android": "https://dc.lft.to/lastmile_qr_scan"}, "lon": -77.04029266666667, "type": "electric_scooter"}, {"bike_id": "52b7b6c325e0a1e4ed0feb05f20d866a", "is_reserved": 0, "fusion_lon": 0.0, "lat": 38.84422033333333, "is_disabled": 0, "name": "52b7b6c325e0a1e4ed0feb05f20d866a", "fusion_lat": 0.0, "rental_uris": {"ios": "https://dc.lft.to/lastmile_qr_scan", "android": "https://dc.lft.to/lastmile_qr_scan"}, "lon": -76.99781716666666, "type": "electric_scooter"}, {"bike_id": "dea6b78b4c5a6950bf8c625e69e00c02", "is_reserved": 0, "fusion_lon": 0.0, "lat": 38.902638333333336, "is_disabled": 0, "name": "dea6b78b4c5a6950bf8c625e69e00c02", "fusion_lat": 0.0, "rental_uris": {"ios": "https://dc.lft.to/lastmile_qr_scan", "android": "https://dc.lft.to/lastmile_qr_scan"}, "lon": -77.0401725, "type": "electric_scooter"}, {"bike_id": "90d425af52f2019b635ec80097f2340c", "is_reserved": 0, "fusion_lon": 0.0, "lat": 38.92484316666667, "is_disabled": 0, "name": "90d425af52f2019b635ec80097f2340c", "fusion_lat": 0.0, "rental_uris": {"ios": "https://dc.lft.to/lastmile_qr_scan", "android": "https://dc.lft.to/lastmile_qr_scan"}, "lon": -77.02142683333334, "type": "electric_scooter"}, {"bike_id": "d2fb8edbe83bb7bf3ce5932b745adb71", "is_reserved": 0, "fusion_lon": 0.0, "lat": 38.902378, "is_disabled": 0, "name": "d2fb8edbe83bb7bf3ce5932b745adb71", "fusion_lat": 0.0, "rental_uris": {"ios": "https://dc.lft.to/lastmile_qr_scan", "android": "https://dc.lft.to/lastmile_qr_scan"}, "lon": -77.02691916666667, "type": "electric_scooter"}, {"bike_id": "4f1b49148ae767546b3423443060b67e", "is_reserved": 0, "fusion_lon": 0.0, "lat": 38.92331683333333, "is_disabled": 0, "name": "4f1b49148ae767546b3423443060b67e", "fusion_lat": 0.0, "rental_uris": {"ios": "https://dc.lft.to/lastmile_qr_scan", "android": "https://dc.lft.to/lastmile_qr_scan"}, "lon": -77.036197, "type": "electric_scooter"}, {"bike_id": "86d3b9bab86834364781329e1cbec3d7", "is_reserved": 0, "fusion_lon": 0.0, "lat": 38.91933016666667, "is_disabled": 0, "name": "86d3b9bab86834364781329e1cbec3d7", "fusion_lat": 0.0, "rental_uris": {"ios": "https://dc.lft.to/lastmile_qr_scan", "android": "https://dc.lft.to/lastmile_qr_scan"}, "lon": -77.0450115, "type": "electric_scooter"}, {"bike_id": "32b9914332de72d99ae7ca824de08438", "is_reserved": 0, "fusion_lon": 0.0, "lat": 38.93396666666666, "is_disabled": 0, "name": "32b9914332de72d99ae7ca824de08438", "fusion_lat": 0.0, "rental_uris": {"ios": "https://dc.lft.to/lastmile_qr_scan", "android": "https://dc.lft.to/lastmile_qr_scan"}, "lon": -77.038938, "type": "electric_scooter"}, {"bike_id": "ce039aab75fca08e3d66d9086eca89d8", "is_reserved": 0, "fusion_lon": 0.0, "lat": 38.92064383333334, "is_disabled": 0, "name": "ce039aab75fca08e3d66d9086eca89d8", "fusion_lat": 0.0, "rental_uris": {"ios": "https://dc.lft.to/lastmile_qr_scan", "android": "https://dc.lft.to/lastmile_qr_scan"}, "lon": -77.04193283333333, "type": "electric_scooter"}, {"bike_id": "9250fec9ea5c790f33037c70c7d3bcee", "is_reserved": 0, "fusion_lon": 0.0, "lat": 38.909647166666666, "is_disabled": 0, "name": "9250fec9ea5c790f33037c70c7d3bcee", "fusion_lat": 0.0, "rental_uris": {"ios": "https://dc.lft.to/lastmile_qr_scan", "android": "https://dc.lft.to/lastmile_qr_scan"}, "lon": -77.048055, "type": "electric_scooter"}, {"bike_id": "11852e28f6ffd8dae982f157757376d6", "is_reserved": 0, "fusion_lon": 0.0, "lat": 38.861920833333336, "is_disabled": 0, "name": "11852e28f6ffd8dae982f157757376d6", "fusion_lat": 0.0, "rental_uris": {"ios": "https://dc.lft.to/lastmile_qr_scan", "android": "https://dc.lft.to/lastmile_qr_scan"}, "lon": -76.994511, "type": "electric_scooter"}, {"bike_id": "328a60915368aa95d8f51c4d7ac53f9c", "is_reserved": 0, "fusion_lon": 0.0, "lat": 38.92416166666667, "is_disabled": 0, "name": "328a60915368aa95d8f51c4d7ac53f9c", "fusion_lat": 0.0, "rental_uris": {"ios": "https://dc.lft.to/lastmile_qr_scan", "android": "https://dc.lft.to/lastmile_qr_scan"}, "lon": -77.02266533333334, "type": "electric_scooter"}, {"bike_id": "263df451b5ea4903e817a0d97b590850", "is_reserved": 0, "fusion_lon": 0.0, "lat": 38.898173666666665, "is_disabled": 0, "name": "263df451b5ea4903e817a0d97b590850", "fusion_lat": 0.0, "rental_uris": {"ios": "https://dc.lft.to/lastmile_qr_scan", "android": "https://dc.lft.to/lastmile_qr_scan"}, "lon": -77.00909816666666, "type": "electric_scooter"}, {"bike_id": "39b6f48a663d3565bbbfae8e721af7f0", "is_reserved": 0, "fusion_lon": 0.0, "lat": 38.918043833333336, "is_disabled": 0, "name": "39b6f48a663d3565bbbfae8e721af7f0", "fusion_lat": 0.0, "rental_uris": {"ios": "https://dc.lft.to/lastmile_qr_scan", "android": "https://dc.lft.to/lastmile_qr_scan"}, "lon": -77.03434966666667, "type": "electric_scooter"}, {"bike_id": "eb9853eb293ceac357a836433572edb5", "is_reserved": 0, "fusion_lon": 0.0, "lat": 38.88493183333333, "is_disabled": 0, "name": "eb9853eb293ceac357a836433572edb5", "fusion_lat": 0.0, "rental_uris": {"ios": "https://dc.lft.to/lastmile_qr_scan", "android": "https://dc.lft.to/lastmile_qr_scan"}, "lon": -77.007275, "type": "electric_scooter"}, {"bike_id": "1e2c1cdb1606bc64b99b4f023d700574", "is_reserved": 0, "fusion_lon": 0.0, "lat": 38.883759833333336, "is_disabled": 0, "name": "1e2c1cdb1606bc64b99b4f023d700574", "fusion_lat": 0.0, "rental_uris": {"ios": "https://dc.lft.to/lastmile_qr_scan", "android": "https://dc.lft.to/lastmile_qr_scan"}, "lon": -76.99568133333334, "type": "electric_scooter"}, {"bike_id": "ccab346bd9d3a70a2e190c4c985891d8", "is_reserved": 0, "fusion_lon": 0.0, "lat": 38.917087333333335, "is_disabled": 0, "name": "ccab346bd9d3a70a2e190c4c985891d8", "fusion_lat": 0.0, "rental_uris": {"ios": "https://dc.lft.to/lastmile_qr_scan", "android": "https://dc.lft.to/lastmile_qr_scan"}, "lon": -77.034946, "type": "electric_scooter"}, {"bike_id": "652454c50c89dac27b56383b22c88435", "is_reserved": 0, "fusion_lon": 0.0, "lat": 38.9022465, "is_disabled": 0, "name": "652454c50c89dac27b56383b22c88435", "fusion_lat": 0.0, "rental_uris": {"ios": "https://dc.lft.to/lastmile_qr_scan", "android": "https://dc.lft.to/lastmile_qr_scan"}, "lon": -77.02375316666667, "type": "electric_scooter"}, {"bike_id": "bb5ba9f5d63fe9f678e6d1818c64ba21", "is_reserved": 0, "fusion_lon": 0.0, "lat": 38.905635333333336, "is_disabled": 0, "name": "bb5ba9f5d63fe9f678e6d1818c64ba21", "fusion_lat": 0.0, "rental_uris": {"ios": "https://dc.lft.to/lastmile_qr_scan", "android": "https://dc.lft.to/lastmile_qr_scan"}, "lon": -77.03841633333333, "type": "electric_scooter"}, {"bike_id": "1371e814687333ea74b0e6f9afbd15d0", "is_reserved": 0, "fusion_lon": 0.0, "lat": 38.9018625, "is_disabled": 0, "name": "1371e814687333ea74b0e6f9afbd15d0", "fusion_lat": 0.0, "rental_uris": {"ios": "https://dc.lft.to/lastmile_qr_scan", "android": "https://dc.lft.to/lastmile_qr_scan"}, "lon": -76.93464133333333, "type": "electric_scooter"}, {"bike_id": "6e9532e66c73c59fbe5f1817f36b2af7", "is_reserved": 0, "fusion_lon": 0.0, "lat": 38.904555333333334, "is_disabled": 0, "name": "6e9532e66c73c59fbe5f1817f36b2af7", "fusion_lat": 0.0, "rental_uris": {"ios": "https://dc.lft.to/lastmile_qr_scan", "android": "https://dc.lft.to/lastmile_qr_scan"}, "lon": -77.05922416666667, "type": "electric_scooter"}, {"bike_id": "e3b26a684f000e35fd5214c626c72301", "is_reserved": 0, "fusion_lon": 0.0, "lat": 38.912649, "is_disabled": 0, "name": "e3b26a684f000e35fd5214c626c72301", "fusion_lat": 0.0, "rental_uris": {"ios": "https://dc.lft.to/lastmile_qr_scan", "android": "https://dc.lft.to/lastmile_qr_scan"}, "lon": -77.035016, "type": "electric_scooter"}, {"bike_id": "f0c30f564257b52e80d57d51760cc2e8", "is_reserved": 0, "fusion_lon": 0.0, "lat": 38.901318833333335, "is_disabled": 0, "name": "f0c30f564257b52e80d57d51760cc2e8", "fusion_lat": 0.0, "rental_uris": {"ios": "https://dc.lft.to/lastmile_qr_scan", "android": "https://dc.lft.to/lastmile_qr_scan"}, "lon": -77.02738166666667, "type": "electric_scooter"}, {"bike_id": "46380559c483a1e4293d6bf33570fe8d", "is_reserved": 0, "fusion_lon": 0.0, "lat": 38.89087716666667, "is_disabled": 0, "name": "46380559c483a1e4293d6bf33570fe8d", "fusion_lat": 0.0, "rental_uris": {"ios": "https://dc.lft.to/lastmile_qr_scan", "android": "https://dc.lft.to/lastmile_qr_scan"}, "lon": -76.9874555, "type": "electric_scooter"}, {"bike_id": "ff3bc1084cb179daba5b68077f9721b8", "is_reserved": 0, "fusion_lon": 0.0, "lat": 38.86624666666667, "is_disabled": 0, "name": "ff3bc1084cb179daba5b68077f9721b8", "fusion_lat": 0.0, "rental_uris": {"ios": "https://dc.lft.to/lastmile_qr_scan", "android": "https://dc.lft.to/lastmile_qr_scan"}, "lon": -76.98672266666667, "type": "electric_scooter"}, {"bike_id": "2476efe848fe68964c17b868061a5636", "is_reserved": 0, "fusion_lon": 0.0, "lat": 38.885633, "is_disabled": 0, "name": "2476efe848fe68964c17b868061a5636", "fusion_lat": 0.0, "rental_uris": {"ios": "https://dc.lft.to/lastmile_qr_scan", "android": "https://dc.lft.to/lastmile_qr_scan"}, "lon": -77.08570266666666, "type": "electric_bike"}, {"bike_id": "23b31518177368ad658261a31197be93", "is_reserved": 0, "fusion_lon": 0.0, "lat": 38.908639666666666, "is_disabled": 0, "name": "23b31518177368ad658261a31197be93", "fusion_lat": 0.0, "rental_uris": {"ios": "https://dc.lft.to/lastmile_qr_scan", "android": "https://dc.lft.to/lastmile_qr_scan"}, "lon": -77.02540366666666, "type": "electric_scooter"}, {"bike_id": "def6a6d530549434775f4ec504fed532", "is_reserved": 0, "fusion_lon": 0.0, "lat": 38.913388, "is_disabled": 0, "name": "def6a6d530549434775f4ec504fed532", "fusion_lat": 0.0, "rental_uris": {"ios": "https://dc.lft.to/lastmile_qr_scan", "android": "https://dc.lft.to/lastmile_qr_scan"}, "lon": -77.04841766666667, "type": "electric_scooter"}, {"bike_id": "47c0efc6692804f761734ee7acf27cdd", "is_reserved": 0, "fusion_lon": 0.0, "lat": 38.91744816666667, "is_disabled": 0, "name": "47c0efc6692804f761734ee7acf27cdd", "fusion_lat": 0.0, "rental_uris": {"ios": "https://dc.lft.to/lastmile_qr_scan", "android": "https://dc.lft.to/lastmile_qr_scan"}, "lon": -77.01710116666666, "type": "electric_scooter"}, {"bike_id": "e1fe9ff728115b2e770775bc76d10bd0", "is_reserved": 0, "fusion_lon": 0.0, "lat": 38.9096645, "is_disabled": 0, "name": "e1fe9ff728115b2e770775bc76d10bd0", "fusion_lat": 0.0, "rental_uris": {"ios": "https://dc.lft.to/lastmile_qr_scan", "android": "https://dc.lft.to/lastmile_qr_scan"}, "lon": -77.03461016666667, "type": "electric_scooter"}, {"bike_id": "5b78256a0a421581cc8583096a546093", "is_reserved": 0, "fusion_lon": 0.0, "lat": 38.90624366666667, "is_disabled": 0, "name": "5b78256a0a421581cc8583096a546093", "fusion_lat": 0.0, "rental_uris": {"ios": "https://dc.lft.to/lastmile_qr_scan", "android": "https://dc.lft.to/lastmile_qr_scan"}, "lon": -77.03882233333333, "type": "electric_scooter"}, {"bike_id": "23b0da5e69b182f9b13a80720097315d", "is_reserved": 0, "fusion_lon": 0.0, "lat": 38.90966616666667, "is_disabled": 0, "name": "23b0da5e69b182f9b13a80720097315d", "fusion_lat": 0.0, "rental_uris": {"ios": "https://dc.lft.to/lastmile_qr_scan", "android": "https://dc.lft.to/lastmile_qr_scan"}, "lon": -77.04028333333333, "type": "electric_scooter"}, {"bike_id": "efbd35f5cf6f848d343e33589d5f726b", "is_reserved": 0, "fusion_lon": 0.0, "lat": 38.9385735, "is_disabled": 0, "name": "efbd35f5cf6f848d343e33589d5f726b", "fusion_lat": 0.0, "rental_uris": {"ios": "https://dc.lft.to/lastmile_qr_scan", "android": "https://dc.lft.to/lastmile_qr_scan"}, "lon": -77.0245565, "type": "electric_scooter"}, {"bike_id": "9e960e0cbca314f0521ee5117f7d26df", "is_reserved": 0, "fusion_lon": 0.0, "lat": 38.918495666666665, "is_disabled": 0, "name": "9e960e0cbca314f0521ee5117f7d26df", "fusion_lat": 0.0, "rental_uris": {"ios": "https://dc.lft.to/lastmile_qr_scan", "android": "https://dc.lft.to/lastmile_qr_scan"}, "lon": -77.04462133333334, "type": "electric_scooter"}, {"bike_id": "c8bda25fbae3dbb534af8b459b36e045", "is_reserved": 0, "fusion_lon": 0.0, "lat": 38.912166166666665, "is_disabled": 0, "name": "c8bda25fbae3dbb534af8b459b36e045", "fusion_lat": 0.0, "rental_uris": {"ios": "https://dc.lft.to/lastmile_qr_scan", "android": "https://dc.lft.to/lastmile_qr_scan"}, "lon": -77.0280205, "type": "electric_scooter"}, {"bike_id": "7a16e0606312562332061e21796c1c76", "is_reserved": 0, "fusion_lon": 0.0, "lat": 38.903637, "is_disabled": 0, "name": "7a16e0606312562332061e21796c1c76", "fusion_lat": 0.0, "rental_uris": {"ios": "https://dc.lft.to/lastmile_qr_scan", "android": "https://dc.lft.to/lastmile_qr_scan"}, "lon": -77.029917, "type": "electric_scooter"}, {"bike_id": "c0d53cfc3d1a842386f48be736954cee", "is_reserved": 0, "fusion_lon": 0.0, "lat": 38.95740633333333, "is_disabled": 0, "name": "c0d53cfc3d1a842386f48be736954cee", "fusion_lat": 0.0, "rental_uris": {"ios": "https://dc.lft.to/lastmile_qr_scan", "android": "https://dc.lft.to/lastmile_qr_scan"}, "lon": -77.02393383333333, "type": "electric_scooter"}, {"bike_id": "daa28e44d48bd765c65b38ed623fd400", "is_reserved": 0, "fusion_lon": 0.0, "lat": 38.916858833333336, "is_disabled": 0, "name": "daa28e44d48bd765c65b38ed623fd400", "fusion_lat": 0.0, "rental_uris": {"ios": "https://dc.lft.to/lastmile_qr_scan", "android": "https://dc.lft.to/lastmile_qr_scan"}, "lon": -77.0363355, "type": "electric_scooter"}, {"bike_id": "9ad1b1c97ebdff097e6588f964f7e390", "is_reserved": 0, "fusion_lon": 0.0, "lat": 38.9236865, "is_disabled": 0, "name": "9ad1b1c97ebdff097e6588f964f7e390", "fusion_lat": 0.0, "rental_uris": {"ios": "https://dc.lft.to/lastmile_qr_scan", "android": "https://dc.lft.to/lastmile_qr_scan"}, "lon": -77.0413865, "type": "electric_scooter"}, {"bike_id": "7410396371cf15879ab28041c8dc0264", "is_reserved": 0, "fusion_lon": 0.0, "lat": 38.89615883333333, "is_disabled": 0, "name": "7410396371cf15879ab28041c8dc0264", "fusion_lat": 0.0, "rental_uris": {"ios": "https://dc.lft.to/lastmile_qr_scan", "android": "https://dc.lft.to/lastmile_qr_scan"}, "lon": -77.0316835, "type": "electric_scooter"}, {"bike_id": "d86054f180a1af53db8e923a624afcc3", "is_reserved": 0, "fusion_lon": 0.0, "lat": 39.05637566666667, "is_disabled": 0, "name": "d86054f180a1af53db8e923a624afcc3", "fusion_lat": 0.0, "rental_uris": {"ios": "https://dc.lft.to/lastmile_qr_scan", "android": "https://dc.lft.to/lastmile_qr_scan"}, "lon": -77.12527566666667, "type": "electric_bike"}, {"bike_id": "593e37537c1d61c3120becb16dd1455a", "is_reserved": 0, "fusion_lon": 0.0, "lat": 38.88514333333333, "is_disabled": 0, "name": "593e37537c1d61c3120becb16dd1455a", "fusion_lat": 0.0, "rental_uris": {"ios": "https://dc.lft.to/lastmile_qr_scan", "android": "https://dc.lft.to/lastmile_qr_scan"}, "lon": -77.00569533333334, "type": "electric_scooter"}, {"bike_id": "ffb9cf2105f2c185586c0ae9de3e5e56", "is_reserved": 0, "fusion_lon": 0.0, "lat": 38.896259666666666, "is_disabled": 0, "name": "ffb9cf2105f2c185586c0ae9de3e5e56", "fusion_lat": 0.0, "rental_uris": {"ios": "https://dc.lft.to/lastmile_qr_scan", "android": "https://dc.lft.to/lastmile_qr_scan"}, "lon": -76.99849366666666, "type": "electric_scooter"}, {"bike_id": "7192cf243d61f5720a9ccee122fe5add", "is_reserved": 0, "fusion_lon": 0.0, "lat": 38.92524366666667, "is_disabled": 0, "name": "7192cf243d61f5720a9ccee122fe5add", "fusion_lat": 0.0, "rental_uris": {"ios": "https://dc.lft.to/lastmile_qr_scan", "android": "https://dc.lft.to/lastmile_qr_scan"}, "lon": -77.03852816666667, "type": "electric_scooter"}, {"bike_id": "59245490bed2e00f66e1e6392ad0e4b7", "is_reserved": 0, "fusion_lon": 0.0, "lat": 38.917171, "is_disabled": 0, "name": "59245490bed2e00f66e1e6392ad0e4b7", "fusion_lat": 0.0, "rental_uris": {"ios": "https://dc.lft.to/lastmile_qr_scan", "android": "https://dc.lft.to/lastmile_qr_scan"}, "lon": -77.0318915, "type": "electric_scooter"}, {"bike_id": "a9b9cacbcaabf8af278d127b482cedda", "is_reserved": 0, "fusion_lon": 0.0, "lat": 38.916395, "is_disabled": 0, "name": "a9b9cacbcaabf8af278d127b482cedda", "fusion_lat": 0.0, "rental_uris": {"ios": "https://dc.lft.to/lastmile_qr_scan", "android": "https://dc.lft.to/lastmile_qr_scan"}, "lon": -77.03206883333333, "type": "electric_scooter"}, {"bike_id": "131d6928553a29cd328a5308c3e73248", "is_reserved": 0, "fusion_lon": 0.0, "lat": 38.93499466666667, "is_disabled": 0, "name": "131d6928553a29cd328a5308c3e73248", "fusion_lat": 0.0, "rental_uris": {"ios": "https://dc.lft.to/lastmile_qr_scan", "android": "https://dc.lft.to/lastmile_qr_scan"}, "lon": -77.02726316666667, "type": "electric_scooter"}, {"bike_id": "9d50105e00972bdadf1e7a8de64ec83b", "is_reserved": 0, "fusion_lon": 0.0, "lat": 38.90949533333333, "is_disabled": 0, "name": "9d50105e00972bdadf1e7a8de64ec83b", "fusion_lat": 0.0, "rental_uris": {"ios": "https://dc.lft.to/lastmile_qr_scan", "android": "https://dc.lft.to/lastmile_qr_scan"}, "lon": -77.02493066666666, "type": "electric_scooter"}, {"bike_id": "94b8fb6dc1d5a3ff23725369a1d4e970", "is_reserved": 0, "fusion_lon": 0.0, "lat": 38.86205566666667, "is_disabled": 0, "name": "94b8fb6dc1d5a3ff23725369a1d4e970", "fusion_lat": 0.0, "rental_uris": {"ios": "https://dc.lft.to/lastmile_qr_scan", "android": "https://dc.lft.to/lastmile_qr_scan"}, "lon": -76.99470183333334, "type": "electric_scooter"}, {"bike_id": "de91b31a307dd7266ccdf5d52b3f95c2", "is_reserved": 0, "fusion_lon": 0.0, "lat": 38.866572, "is_disabled": 0, "name": "de91b31a307dd7266ccdf5d52b3f95c2", "fusion_lat": 0.0, "rental_uris": {"ios": "https://dc.lft.to/lastmile_qr_scan", "android": "https://dc.lft.to/lastmile_qr_scan"}, "lon": -76.98889416666667, "type": "electric_scooter"}, {"bike_id": "1cb322595092c40f37df22cc43bcd68a", "is_reserved": 0, "fusion_lon": 0.0, "lat": 38.87849683333334, "is_disabled": 0, "name": "1cb322595092c40f37df22cc43bcd68a", "fusion_lat": 0.0, "rental_uris": {"ios": "https://dc.lft.to/lastmile_qr_scan", "android": "https://dc.lft.to/lastmile_qr_scan"}, "lon": -77.0196855, "type": "electric_bike"}, {"bike_id": "80767db89b2b9d4ce3402b07e6a9d35b", "is_reserved": 0, "fusion_lon": 0.0, "lat": 38.939707166666665, "is_disabled": 0, "name": "80767db89b2b9d4ce3402b07e6a9d35b", "fusion_lat": 0.0, "rental_uris": {"ios": "https://dc.lft.to/lastmile_qr_scan", "android": "https://dc.lft.to/lastmile_qr_scan"}, "lon": -77.03590783333334, "type": "electric_scooter"}, {"bike_id": "40c319bce2bafa186c44dd9ac57b8e86", "is_reserved": 0, "fusion_lon": 0.0, "lat": 38.942091, "is_disabled": 0, "name": "40c319bce2bafa186c44dd9ac57b8e86", "fusion_lat": 0.0, "rental_uris": {"ios": "https://dc.lft.to/lastmile_qr_scan", "android": "https://dc.lft.to/lastmile_qr_scan"}, "lon": -77.01826133333333, "type": "electric_bike"}, {"bike_id": "d97907817d30b344e1995d75d0373f21", "is_reserved": 0, "fusion_lon": 0.0, "lat": 38.9035565, "is_disabled": 0, "name": "d97907817d30b344e1995d75d0373f21", "fusion_lat": 0.0, "rental_uris": {"ios": "https://dc.lft.to/lastmile_qr_scan", "android": "https://dc.lft.to/lastmile_qr_scan"}, "lon": -77.04248166666666, "type": "electric_scooter"}, {"bike_id": "9d527ad670d7afe32b1fd5b7ddd6ee68", "is_reserved": 0, "fusion_lon": 0.0, "lat": 38.894740166666665, "is_disabled": 0, "name": "9d527ad670d7afe32b1fd5b7ddd6ee68", "fusion_lat": 0.0, "rental_uris": {"ios": "https://dc.lft.to/lastmile_qr_scan", "android": "https://dc.lft.to/lastmile_qr_scan"}, "lon": -77.0501355, "type": "electric_scooter"}, {"bike_id": "7f5a50095d2a0df13797e6e6c25c439f", "is_reserved": 0, "fusion_lon": 0.0, "lat": 38.905347666666664, "is_disabled": 0, "name": "7f5a50095d2a0df13797e6e6c25c439f", "fusion_lat": 0.0, "rental_uris": {"ios": "https://dc.lft.to/lastmile_qr_scan", "android": "https://dc.lft.to/lastmile_qr_scan"}, "lon": -77.0501765, "type": "electric_scooter"}, {"bike_id": "63072826f3927e4775f60411200c5d71", "is_reserved": 0, "fusion_lon": 0.0, "lat": 38.902738, "is_disabled": 0, "name": "63072826f3927e4775f60411200c5d71", "fusion_lat": 0.0, "rental_uris": {"ios": "https://dc.lft.to/lastmile_qr_scan", "android": "https://dc.lft.to/lastmile_qr_scan"}, "lon": -77.06016216666667, "type": "electric_scooter"}, {"bike_id": "a1b0df59c388739cc6145df41bfe1f58", "is_reserved": 0, "fusion_lon": 0.0, "lat": 38.923601, "is_disabled": 0, "name": "a1b0df59c388739cc6145df41bfe1f58", "fusion_lat": 0.0, "rental_uris": {"ios": "https://dc.lft.to/lastmile_qr_scan", "android": "https://dc.lft.to/lastmile_qr_scan"}, "lon": -77.02061366666666, "type": "electric_scooter"}, {"bike_id": "4c74dc038f1ecc655963483aeb0199f3", "is_reserved": 0, "fusion_lon": 0.0, "lat": 38.895447833333336, "is_disabled": 0, "name": "4c74dc038f1ecc655963483aeb0199f3", "fusion_lat": 0.0, "rental_uris": {"ios": "https://dc.lft.to/lastmile_qr_scan", "android": "https://dc.lft.to/lastmile_qr_scan"}, "lon": -77.01881816666666, "type": "electric_scooter"}, {"bike_id": "101af70be1b08f67a324b9a8277ebbf3", "is_reserved": 0, "fusion_lon": 0.0, "lat": 38.87929916666667, "is_disabled": 0, "name": "101af70be1b08f67a324b9a8277ebbf3", "fusion_lat": 0.0, "rental_uris": {"ios": "https://dc.lft.to/lastmile_qr_scan", "android": "https://dc.lft.to/lastmile_qr_scan"}, "lon": -77.00531666666667, "type": "electric_scooter"}, {"bike_id": "edcfae358984ff73771eed1d0216e79a", "is_reserved": 0, "fusion_lon": 0.0, "lat": 38.902431, "is_disabled": 0, "name": "edcfae358984ff73771eed1d0216e79a", "fusion_lat": 0.0, "rental_uris": {"ios": "https://dc.lft.to/lastmile_qr_scan", "android": "https://dc.lft.to/lastmile_qr_scan"}, "lon": -77.02685316666667, "type": "electric_scooter"}, {"bike_id": "f7f18aecaf744781c196b7834718f97f", "is_reserved": 0, "fusion_lon": 0.0, "lat": 38.8962215, "is_disabled": 0, "name": "f7f18aecaf744781c196b7834718f97f", "fusion_lat": 0.0, "rental_uris": {"ios": "https://dc.lft.to/lastmile_qr_scan", "android": "https://dc.lft.to/lastmile_qr_scan"}, "lon": -76.984958, "type": "electric_scooter"}, {"bike_id": "cee32ea3ba74ee7eba47f6ed3259e7ce", "is_reserved": 0, "fusion_lon": 0.0, "lat": 38.90392333333333, "is_disabled": 0, "name": "cee32ea3ba74ee7eba47f6ed3259e7ce", "fusion_lat": 0.0, "rental_uris": {"ios": "https://dc.lft.to/lastmile_qr_scan", "android": "https://dc.lft.to/lastmile_qr_scan"}, "lon": -77.04201533333334, "type": "electric_scooter"}, {"bike_id": "5bff97f6bc786375e2251def3a9a74e6", "is_reserved": 0, "fusion_lon": 0.0, "lat": 38.84426883333333, "is_disabled": 0, "name": "5bff97f6bc786375e2251def3a9a74e6", "fusion_lat": 0.0, "rental_uris": {"ios": "https://dc.lft.to/lastmile_qr_scan", "android": "https://dc.lft.to/lastmile_qr_scan"}, "lon": -76.99779816666667, "type": "electric_scooter"}, {"bike_id": "61edc2cc4ccaa97e219b2fe8ad27dc38", "is_reserved": 0, "fusion_lon": 0.0, "lat": 38.90390266666667, "is_disabled": 0, "name": "61edc2cc4ccaa97e219b2fe8ad27dc38", "fusion_lat": 0.0, "rental_uris": {"ios": "https://dc.lft.to/lastmile_qr_scan", "android": "https://dc.lft.to/lastmile_qr_scan"}, "lon": -77.04381116666667, "type": "electric_scooter"}, {"bike_id": "91ad0528a36a0d8d4bc07236de94d54f", "is_reserved": 0, "fusion_lon": 0.0, "lat": 38.928596166666665, "is_disabled": 0, "name": "91ad0528a36a0d8d4bc07236de94d54f", "fusion_lat": 0.0, "rental_uris": {"ios": "https://dc.lft.to/lastmile_qr_scan", "android": "https://dc.lft.to/lastmile_qr_scan"}, "lon": -77.0137675, "type": "electric_scooter"}, {"bike_id": "0636e75b5790c5ed4744ff34d029e019", "is_reserved": 0, "fusion_lon": 0.0, "lat": 38.904703, "is_disabled": 0, "name": "0636e75b5790c5ed4744ff34d029e019", "fusion_lat": 0.0, "rental_uris": {"ios": "https://dc.lft.to/lastmile_qr_scan", "android": "https://dc.lft.to/lastmile_qr_scan"}, "lon": -77.03951183333334, "type": "electric_scooter"}, {"bike_id": "8f1c300bb6629271a85f9a5bfa151c8c", "is_reserved": 0, "fusion_lon": 0.0, "lat": 38.8718025, "is_disabled": 0, "name": "8f1c300bb6629271a85f9a5bfa151c8c", "fusion_lat": 0.0, "rental_uris": {"ios": "https://dc.lft.to/lastmile_qr_scan", "android": "https://dc.lft.to/lastmile_qr_scan"}, "lon": -77.00609583333333, "type": "electric_scooter"}, {"bike_id": "2420803aa7a205a2cd594194d9da2faf", "is_reserved": 0, "fusion_lon": 0.0, "lat": 38.91259083333333, "is_disabled": 0, "name": "2420803aa7a205a2cd594194d9da2faf", "fusion_lat": 0.0, "rental_uris": {"ios": "https://dc.lft.to/lastmile_qr_scan", "android": "https://dc.lft.to/lastmile_qr_scan"}, "lon": -77.032111, "type": "electric_scooter"}, {"bike_id": "1e69baa5f5aaf61299b65a80f09d5ed1", "is_reserved": 0, "fusion_lon": 0.0, "lat": 38.911936, "is_disabled": 0, "name": "1e69baa5f5aaf61299b65a80f09d5ed1", "fusion_lat": 0.0, "rental_uris": {"ios": "https://dc.lft.to/lastmile_qr_scan", "android": "https://dc.lft.to/lastmile_qr_scan"}, "lon": -77.06095983333333, "type": "electric_scooter"}, {"bike_id": "e285633d044b95a0286821fe2eb6dab1", "is_reserved": 0, "fusion_lon": 0.0, "lat": 38.959596, "is_disabled": 0, "name": "e285633d044b95a0286821fe2eb6dab1", "fusion_lat": 0.0, "rental_uris": {"ios": "https://dc.lft.to/lastmile_qr_scan", "android": "https://dc.lft.to/lastmile_qr_scan"}, "lon": -77.10095116666666, "type": "electric_bike"}, {"bike_id": "fff9b3b54f53df323a6e2070485a78f6", "is_reserved": 0, "fusion_lon": 0.0, "lat": 38.897875166666665, "is_disabled": 0, "name": "fff9b3b54f53df323a6e2070485a78f6", "fusion_lat": 0.0, "rental_uris": {"ios": "https://dc.lft.to/lastmile_qr_scan", "android": "https://dc.lft.to/lastmile_qr_scan"}, "lon": -76.9995925, "type": "electric_bike"}, {"bike_id": "69e4d5e554b00a68214fb1874d768d16", "is_reserved": 0, "fusion_lon": 0.0, "lat": 38.90307633333333, "is_disabled": 0, "name": "69e4d5e554b00a68214fb1874d768d16", "fusion_lat": 0.0, "rental_uris": {"ios": "https://dc.lft.to/lastmile_qr_scan", "android": "https://dc.lft.to/lastmile_qr_scan"}, "lon": -77.018966, "type": "electric_scooter"}, {"bike_id": "cca92ffd990de66cb270672f3f219d3d", "is_reserved": 0, "fusion_lon": 0.0, "lat": 38.9026455, "is_disabled": 0, "name": "cca92ffd990de66cb270672f3f219d3d", "fusion_lat": 0.0, "rental_uris": {"ios": "https://dc.lft.to/lastmile_qr_scan", "android": "https://dc.lft.to/lastmile_qr_scan"}, "lon": -77.03340666666666, "type": "electric_scooter"}, {"bike_id": "9fb23acd4183b080f4de433e544c5a3f", "is_reserved": 0, "fusion_lon": 0.0, "lat": 38.9555035, "is_disabled": 0, "name": "9fb23acd4183b080f4de433e544c5a3f", "fusion_lat": 0.0, "rental_uris": {"ios": "https://dc.lft.to/lastmile_qr_scan", "android": "https://dc.lft.to/lastmile_qr_scan"}, "lon": -76.94017716666667, "type": "electric_bike"}, {"bike_id": "3904affa0d4e8f42ad784ee1e445cfc0", "is_reserved": 0, "fusion_lon": 0.0, "lat": 38.917927, "is_disabled": 0, "name": "3904affa0d4e8f42ad784ee1e445cfc0", "fusion_lat": 0.0, "rental_uris": {"ios": "https://dc.lft.to/lastmile_qr_scan", "android": "https://dc.lft.to/lastmile_qr_scan"}, "lon": -77.02312066666667, "type": "electric_scooter"}, {"bike_id": "444380bfc59103bb18d3667fd59f9cfe", "is_reserved": 0, "fusion_lon": 0.0, "lat": 38.880053333333336, "is_disabled": 0, "name": "444380bfc59103bb18d3667fd59f9cfe", "fusion_lat": 0.0, "rental_uris": {"ios": "https://dc.lft.to/lastmile_qr_scan", "android": "https://dc.lft.to/lastmile_qr_scan"}, "lon": -76.91598533333334, "type": "electric_bike"}, {"bike_id": "85049a3704ce614497f8c103cb439556", "is_reserved": 0, "fusion_lon": 0.0, "lat": 38.912152166666665, "is_disabled": 0, "name": "85049a3704ce614497f8c103cb439556", "fusion_lat": 0.0, "rental_uris": {"ios": "https://dc.lft.to/lastmile_qr_scan", "android": "https://dc.lft.to/lastmile_qr_scan"}, "lon": -77.048752, "type": "electric_scooter"}, {"bike_id": "22c7749668e7b774aac442e7e6977102", "is_reserved": 0, "fusion_lon": 0.0, "lat": 38.90792866666666, "is_disabled": 0, "name": "22c7749668e7b774aac442e7e6977102", "fusion_lat": 0.0, "rental_uris": {"ios": "https://dc.lft.to/lastmile_qr_scan", "android": "https://dc.lft.to/lastmile_qr_scan"}, "lon": -77.0366395, "type": "electric_scooter"}, {"bike_id": "02f04558e8859d34de7cd22548de533d", "is_reserved": 0, "fusion_lon": 0.0, "lat": 38.926702166666665, "is_disabled": 0, "name": "02f04558e8859d34de7cd22548de533d", "fusion_lat": 0.0, "rental_uris": {"ios": "https://dc.lft.to/lastmile_qr_scan", "android": "https://dc.lft.to/lastmile_qr_scan"}, "lon": -77.014796, "type": "electric_scooter"}, {"bike_id": "dc24b811cf73a19fe7857cdc0a140e70", "is_reserved": 0, "fusion_lon": 0.0, "lat": 38.92355166666667, "is_disabled": 0, "name": "dc24b811cf73a19fe7857cdc0a140e70", "fusion_lat": 0.0, "rental_uris": {"ios": "https://dc.lft.to/lastmile_qr_scan", "android": "https://dc.lft.to/lastmile_qr_scan"}, "lon": -77.04153883333333, "type": "electric_scooter"}, {"bike_id": "65a647fede683bfd6c8e56e1918a69c7", "is_reserved": 0, "fusion_lon": 0.0, "lat": 38.902834166666665, "is_disabled": 0, "name": "65a647fede683bfd6c8e56e1918a69c7", "fusion_lat": 0.0, "rental_uris": {"ios": "https://dc.lft.to/lastmile_qr_scan", "android": "https://dc.lft.to/lastmile_qr_scan"}, "lon": -77.03658466666667, "type": "electric_scooter"}, {"bike_id": "5c549bbf02f4645871a7baa4e8e1bd06", "is_reserved": 0, "fusion_lon": 0.0, "lat": 38.90903433333333, "is_disabled": 0, "name": "5c549bbf02f4645871a7baa4e8e1bd06", "fusion_lat": 0.0, "rental_uris": {"ios": "https://dc.lft.to/lastmile_qr_scan", "android": "https://dc.lft.to/lastmile_qr_scan"}, "lon": -77.0862395, "type": "electric_scooter"}, {"bike_id": "410815d04844794d1913957337842188", "is_reserved": 0, "fusion_lon": 0.0, "lat": 38.883886833333335, "is_disabled": 0, "name": "410815d04844794d1913957337842188", "fusion_lat": 0.0, "rental_uris": {"ios": "https://dc.lft.to/lastmile_qr_scan", "android": "https://dc.lft.to/lastmile_qr_scan"}, "lon": -76.9492575, "type": "electric_scooter"}, {"bike_id": "ea3ce13f7323676911b3a03ccd6d4418", "is_reserved": 0, "fusion_lon": 0.0, "lat": 38.932409, "is_disabled": 0, "name": "ea3ce13f7323676911b3a03ccd6d4418", "fusion_lat": 0.0, "rental_uris": {"ios": "https://dc.lft.to/lastmile_qr_scan", "android": "https://dc.lft.to/lastmile_qr_scan"}, "lon": -77.03263066666666, "type": "electric_scooter"}, {"bike_id": "3192859e569b18883238ae08bf23e05a", "is_reserved": 0, "fusion_lon": 0.0, "lat": 38.887288833333336, "is_disabled": 0, "name": "3192859e569b18883238ae08bf23e05a", "fusion_lat": 0.0, "rental_uris": {"ios": "https://dc.lft.to/lastmile_qr_scan", "android": "https://dc.lft.to/lastmile_qr_scan"}, "lon": -77.13318933333333, "type": "electric_bike"}, {"bike_id": "4fc5d9c9defec39ee3ac154863a6afb3", "is_reserved": 0, "fusion_lon": 0.0, "lat": 38.892348166666665, "is_disabled": 0, "name": "4fc5d9c9defec39ee3ac154863a6afb3", "fusion_lat": 0.0, "rental_uris": {"ios": "https://dc.lft.to/lastmile_qr_scan", "android": "https://dc.lft.to/lastmile_qr_scan"}, "lon": -77.03213383333333, "type": "electric_scooter"}, {"bike_id": "8c9eabcc5b92581daed268d83e92a806", "is_reserved": 0, "fusion_lon": 0.0, "lat": 38.90964316666667, "is_disabled": 0, "name": "8c9eabcc5b92581daed268d83e92a806", "fusion_lat": 0.0, "rental_uris": {"ios": "https://dc.lft.to/lastmile_qr_scan", "android": "https://dc.lft.to/lastmile_qr_scan"}, "lon": -77.02538, "type": "electric_scooter"}, {"bike_id": "92d88c1db842836c053e3863bb1e6a7f", "is_reserved": 0, "fusion_lon": 0.0, "lat": 38.9069105, "is_disabled": 0, "name": "92d88c1db842836c053e3863bb1e6a7f", "fusion_lat": 0.0, "rental_uris": {"ios": "https://dc.lft.to/lastmile_qr_scan", "android": "https://dc.lft.to/lastmile_qr_scan"}, "lon": -77.0448775, "type": "electric_scooter"}, {"bike_id": "aca2bf6f5edb8ac71d689a02c0de92b3", "is_reserved": 0, "fusion_lon": 0.0, "lat": 38.824502833333334, "is_disabled": 0, "name": "aca2bf6f5edb8ac71d689a02c0de92b3", "fusion_lat": 0.0, "rental_uris": {"ios": "https://dc.lft.to/lastmile_qr_scan", "android": "https://dc.lft.to/lastmile_qr_scan"}, "lon": -77.07048016666667, "type": "electric_bike"}, {"bike_id": "4f3d2b1bea0dd87d7a8769e970f36a08", "is_reserved": 0, "fusion_lon": 0.0, "lat": 38.90651916666667, "is_disabled": 0, "name": "4f3d2b1bea0dd87d7a8769e970f36a08", "fusion_lat": 0.0, "rental_uris": {"ios": "https://dc.lft.to/lastmile_qr_scan", "android": "https://dc.lft.to/lastmile_qr_scan"}, "lon": -77.044917, "type": "electric_scooter"}, {"bike_id": "64b0318b157b4a8eed0da45e55c54fb7", "is_reserved": 0, "fusion_lon": 0.0, "lat": 38.903115166666666, "is_disabled": 0, "name": "64b0318b157b4a8eed0da45e55c54fb7", "fusion_lat": 0.0, "rental_uris": {"ios": "https://dc.lft.to/lastmile_qr_scan", "android": "https://dc.lft.to/lastmile_qr_scan"}, "lon": -76.9780755, "type": "electric_scooter"}, {"bike_id": "7f0c11eb953ab702ee0b4f8fdf198968", "is_reserved": 0, "fusion_lon": 0.0, "lat": 38.925884333333336, "is_disabled": 0, "name": "7f0c11eb953ab702ee0b4f8fdf198968", "fusion_lat": 0.0, "rental_uris": {"ios": "https://dc.lft.to/lastmile_qr_scan", "android": "https://dc.lft.to/lastmile_qr_scan"}, "lon": -77.0048375, "type": "electric_scooter"}, {"bike_id": "8c4c5042ad47a46471a0b7d3bbc86c54", "is_reserved": 0, "fusion_lon": 0.0, "lat": 38.92512416666667, "is_disabled": 0, "name": "8c4c5042ad47a46471a0b7d3bbc86c54", "fusion_lat": 0.0, "rental_uris": {"ios": "https://dc.lft.to/lastmile_qr_scan", "android": "https://dc.lft.to/lastmile_qr_scan"}, "lon": -77.03879133333334, "type": "electric_scooter"}, {"bike_id": "c04eab1254819a46ecaff9ff1aba5eb9", "is_reserved": 0, "fusion_lon": 0.0, "lat": 38.900530333333336, "is_disabled": 0, "name": "c04eab1254819a46ecaff9ff1aba5eb9", "fusion_lat": 0.0, "rental_uris": {"ios": "https://dc.lft.to/lastmile_qr_scan", "android": "https://dc.lft.to/lastmile_qr_scan"}, "lon": -77.00202833333333, "type": "electric_scooter"},