{"data": {"bikes": [{"lat": 38.9237055, "is_disabled": 0, "type": "electric_scooter", "lon": -77.04031483333333, "bike_id": "a40fa0cd0819bbeaa2fe49dd3fde4a13", "fusion_lat": 0.0, "name": "a40fa0cd0819bbeaa2fe49dd3fde4a13", "is_reserved": 0, "rental_uris": {"android": "https://dc.lft.to/lastmile_qr_scan", "ios": "https://dc.lft.to/lastmile_qr_scan"}, "fusion_lon": 0.0}, {"lat": 38.88505516666667, "is_disabled": 0, "type": "electric_scooter", "lon": -77.00564516666667, "bike_id": "1dd63ac6d573b513db86b5488cf1b159", "fusion_lat": 0.0, "name": "1dd63ac6d573b513db86b5488cf1b159", "is_reserved": 0, "rental_uris": {"android": "https://dc.lft.to/lastmile_qr_scan", "ios": "https://dc.lft.to/lastmile_qr_scan"}, "fusion_lon": 0.0}, {"lat": 38.863855666666666, "is_disabled": 0, "type": "electric_scooter", "lon": -76.99255083333334, "bike_id": "3f880862ff898729612b03b8593ef36a", "fusion_lat": 0.0, "name": "3f880862ff898729612b03b8593ef36a", "is_reserved": 0, "rental_uris": {"android": "https://dc.lft.to/lastmile_qr_scan", "ios": "https://dc.lft.to/lastmile_qr_scan"}, "fusion_lon": 0.0}, {"lat": 38.855154, "is_disabled": 0, "type": "electric_bike", "lon": -77.12043716666666, "bike_id": "4680fb744f000eb3b9dbfd1a012a19d1", "fusion_lat": 0.0, "name": "4680fb744f000eb3b9dbfd1a012a19d1", "is_reserved": 0, "rental_uris": {"android": "https://dc.lft.to/lastmile_qr_scan", "ios": "https://dc.lft.to/lastmile_qr_scan"}, "fusion_lon": 0.0}, {"lat": 38.90579266666667, "is_disabled": 0, "type": "electric_scooter", "lon": -77.02772266666666, "bike_id": "7459c2801f766010bdfcf7d900ce9930", "fusion_lat": 0.0, "name": "7459c2801f766010bdfcf7d900ce9930", "is_reserved": 0, "rental_uris": {"android": "https://dc.lft.to/lastmile_qr_scan", "ios": "https://dc.lft.to/lastmile_qr_scan"}, "fusion_lon": 0.0}, {"lat": 38.86569883333333, "is_disabled": 0, "type": "electric_bike", "lon": -76.973023, "bike_id": "c1c038a1888ad13193819ca0f8cf7a71", "fusion_lat": 0.0, "name": "c1c038a1888ad13193819ca0f8cf7a71", "is_reserved": 0, "rental_uris": {"android": "https://dc.lft.to/lastmile_qr_scan", "ios": "https://dc.lft.to/lastmile_qr_scan"}, "fusion_lon": 0.0}, {"lat": 38.943050166666666, "is_disabled": 0, "type": "electric_scooter", "lon": -77.0592705, "bike_id": "6e58dda2ae048368f778c8f3adc7adfa", "fusion_lat": 0.0, "name": "6e58dda2ae048368f778c8f3adc7adfa", "is_reserved": 0, "rental_uris": {"android": "https://dc.lft.to/lastmile_qr_scan", "ios": "https://dc.lft.to/lastmile_qr_scan"}, "fusion_lon": 0.0}, {"lat": 38.92446533333333, "is_disabled": 0, "type": "electric_scooter", "lon": -77.0203485, "bike_id": "abcc256825d3c585307a9d82305ee364", "fusion_lat": 0.0, "name": "abcc256825d3c585307a9d82305ee364", "is_reserved": 0, "rental_uris": {"android": "https://dc.lft.to/lastmile_qr_scan", "ios": "https://dc.lft.to/lastmile_qr_scan"}, "fusion_lon": 0.0}, {"lat": 38.911209, "is_disabled": 0, "type": "electric_scooter", "lon": -77.03841133333333, "bike_id": "0519bd1fa000156c956ee69185dc81a3", "fusion_lat": 0.0, "name": "0519bd1fa000156c956ee69185dc81a3", "is_reserved": 0, "rental_uris": {"android": "https://dc.lft.to/lastmile_qr_scan", "ios": "https://dc.lft.to/lastmile_qr_scan"}, "fusion_lon": 0.0}, {"lat": 38.9141895, "is_disabled": 0, "type": "electric_scooter", "lon": -77.0257285, "bike_id": "1167fe19c5f2c57b36fe66b7b4a482a5", "fusion_lat": 0.0, "name": "1167fe19c5f2c57b36fe66b7b4a482a5", "is_reserved": 0, "rental_uris": {"android": "https://dc.lft.to/lastmile_qr_scan", "ios": "https://dc.lft.to/lastmile_qr_scan"}, "fusion_lon": 0.0}, {"lat": 38.978407833333335, "is_disabled": 0, "type": "electric_bike", "lon": -77.02655733333333, "bike_id": "288757784b7a66ebb79ea42e71b90ab3", "fusion_lat": 0.0, "name": "288757784b7a66ebb79ea42e71b90ab3", "is_reserved": 0, "rental_uris": {"android": "https://dc.lft.to/lastmile_qr_scan", "ios": "https://dc.lft.to/lastmile_qr_scan"}, "fusion_lon": 0.0}, {"lat": 38.927918166666664, "is_disabled": 0, "type": "electric_bike", "lon": -76.972197, "bike_id": "157a52e556c86d51b31634739bf3bb79", "fusion_lat": 0.0, "name": "157a52e556c86d51b31634739bf3bb79", "is_reserved": 0, "rental_uris": {"android": "https://dc.lft.to/lastmile_qr_scan", "ios": "https://dc.lft.to/lastmile_qr_scan"}, "fusion_lon": 0.0}, {"lat": 38.8949355, "is_disabled": 0, "type": "electric_scooter", "lon": -77.0706505, "bike_id": "7cb36b06893556a29faad7cf69b7284a", "fusion_lat": 0.0, "name": "7cb36b06893556a29faad7cf69b7284a", "is_reserved": 0, "rental_uris": {"android": "https://dc.lft.to/lastmile_qr_scan", "ios": "https://dc.lft.to/lastmile_qr_scan"}, "fusion_lon": 0.0}, {"lat": 38.9521855, "is_disabled": 0, "type": "electric_scooter", "lon": -77.0860375, "bike_id": "a1892766271fb300023d62ff0ad3955b", "fusion_lat": 0.0, "name": "a1892766271fb300023d62ff0ad3955b", "is_reserved": 0, "rental_uris": {"android": "https://dc.lft.to/lastmile_qr_scan", "ios": "https://dc.lft.to/lastmile_qr_scan"}, "fusion_lon": 0.0}, {"lat": 38.9133555, "is_disabled": 0, "type": "electric_scooter", "lon": -77.030434, "bike_id": "c0da82dcf5a716e878d791a3c9ec2325", "fusion_lat": 0.0, "name": "c0da82dcf5a716e878d791a3c9ec2325", "is_reserved": 0, "rental_uris": {"android": "https://dc.lft.to/lastmile_qr_scan", "ios": "https://dc.lft.to/lastmile_qr_scan"}, "fusion_lon": 0.0}, {"lat": 38.92271, "is_disabled": 0, "type": "electric_scooter", "lon": -77.04237583333334, "bike_id": "ac5b0d9acbe03fe889c5cb3ccf8ce042", "fusion_lat": 0.0, "name": "ac5b0d9acbe03fe889c5cb3ccf8ce042", "is_reserved": 0, "rental_uris": {"android": "https://dc.lft.to/lastmile_qr_scan", "ios": "https://dc.lft.to/lastmile_qr_scan"}, "fusion_lon": 0.0}, {"lat": 38.89093716666667, "is_disabled": 0, "type": "electric_scooter", "lon": -76.95269816666666, "bike_id": "a872a6eb5f959a0b14fdecf01ba564ef", "fusion_lat": 0.0, "name": "a872a6eb5f959a0b14fdecf01ba564ef", "is_reserved": 0, "rental_uris": {"android": "https://dc.lft.to/lastmile_qr_scan", "ios": "https://dc.lft.to/lastmile_qr_scan"}, "fusion_lon": 0.0}, {"lat": 38.999984833333336, "is_disabled": 0, "type": "electric_bike", "lon": -76.92500183333334, "bike_id": "57795b3009fb8edd0790ad96cf32d929", "fusion_lat": 0.0, "name": "57795b3009fb8edd0790ad96cf32d929", "is_reserved": 0, "rental_uris": {"android": "https://dc.lft.to/lastmile_qr_scan", "ios": "https://dc.lft.to/lastmile_qr_scan"}, "fusion_lon": 0.0}, {"lat": 38.918479, "is_disabled": 0, "type": "electric_scooter", "lon": -77.03537466666667, "bike_id": "25a325f37b77136f4c279899ac0849ea", "fusion_lat": 0.0, "name": "25a325f37b77136f4c279899ac0849ea", "is_reserved": 0, "rental_uris": {"android": "https://dc.lft.to/lastmile_qr_scan", "ios": "https://dc.lft.to/lastmile_qr_scan"}, "fusion_lon": 0.0}, {"lat": 38.905023666666665, "is_disabled": 0, "type": "electric_scooter", "lon": -77.02950833333334, "bike_id": "cdba732ac58e28e067ae99fde6eb5b9d", "fusion_lat": 0.0, "name": "cdba732ac58e28e067ae99fde6eb5b9d", "is_reserved": 0, "rental_uris": {"android": "https://dc.lft.to/lastmile_qr_scan", "ios": "https://dc.lft.to/lastmile_qr_scan"}, "fusion_lon": 0.0}, {"lat": 38.90737683333333, "is_disabled": 0, "type": "electric_scooter", "lon": -77.02949733333334, "bike_id": "51537fbefe8da98629c1bfc14a1d0ca8", "fusion_lat": 0.0, "name": "51537fbefe8da98629c1bfc14a1d0ca8", "is_reserved": 0, "rental_uris": {"android": "https://dc.lft.to/lastmile_qr_scan", "ios": "https://dc.lft.to/lastmile_qr_scan"}, "fusion_lon": 0.0}, {"lat": 38.92570283333333, "is_disabled": 0, "type": "electric_scooter", "lon": -77.0257065, "bike_id": "ebaa0d292f4d564308500ddb39785893", "fusion_lat": 0.0, "name": "ebaa0d292f4d564308500ddb39785893", "is_reserved": 0, "rental_uris": {"android": "https://dc.lft.to/lastmile_qr_scan", "ios": "https://dc.lft.to/lastmile_qr_scan"}, "fusion_lon": 0.0}, {"lat": 38.92444416666667, "is_disabled": 0, "type": "electric_scooter", "lon": -76.993322, "bike_id": "74f6e92a63a0fa925a4a9be3a184a21b", "fusion_lat": 0.0, "name": "74f6e92a63a0fa925a4a9be3a184a21b", "is_reserved": 0, "rental_uris": {"android": "https://dc.lft.to/lastmile_qr_scan", "ios": "https://dc.lft.to/lastmile_qr_scan"}, "fusion_lon": 0.0}, {"lat": 38.904114666666665, "is_disabled": 0, "type": "electric_bike", "lon": -77.0652575, "bike_id": "6ccce0e33ebe721891044a89bcfff324", "fusion_lat": 0.0, "name": "6ccce0e33ebe721891044a89bcfff324", "is_reserved": 0, "rental_uris": {"android": "https://dc.lft.to/lastmile_qr_scan", "ios": "https://dc.lft.to/lastmile_qr_scan"}, "fusion_lon": 0.0}, {"lat": 38.92164233333333, "is_disabled": 0, "type": "electric_scooter", "lon": -77.03861866666666, "bike_id": "6a95f22eea800e210392a666c2b152fc", "fusion_lat": 0.0, "name": "6a95f22eea800e210392a666c2b152fc", "is_reserved": 0, "rental_uris": {"android": "https://dc.lft.to/lastmile_qr_scan", "ios": "https://dc.lft.to/lastmile_qr_scan"}, "fusion_lon": 0.0}, {"lat": 38.944636833333334, "is_disabled": 0, "type": "electric_scooter", "lon": -77.0604065, "bike_id": "88b3674c978edbee9a66047c1c960f33", "fusion_lat": 0.0, "name": "88b3674c978edbee9a66047c1c960f33", "is_reserved": 0, "rental_uris": {"android": "https://dc.lft.to/lastmile_qr_scan", "ios": "https://dc.lft.to/lastmile_qr_scan"}, "fusion_lon": 0.0}, {"lat": 38.87422733333333, "is_disabled": 0, "type": "electric_bike", "lon": -77.08578566666667, "bike_id": "30de4c69fb79d01e273ef47c9c06c001", "fusion_lat": 0.0, "name": "30de4c69fb79d01e273ef47c9c06c001", "is_reserved": 0, "rental_uris": {"android": "https://dc.lft.to/lastmile_qr_scan", "ios": "https://dc.lft.to/lastmile_qr_scan"}, "fusion_lon": 0.0}, {"lat": 38.858123666666664, "is_disabled": 0, "type": "electric_scooter", "lon": -76.9865265, "bike_id": "13ed07f726964f2eed654cf6232491d8", "fusion_lat": 0.0, "name": "13ed07f726964f2eed654cf6232491d8", "is_reserved": 0, "rental_uris": {"android": "https://dc.lft.to/lastmile_qr_scan", "ios": "https://dc.lft.to/lastmile_qr_scan"}, "fusion_lon": 0.0}, {"lat": 38.92465583333333, "is_disabled": 0, "type": "electric_bike", "lon": -77.20840583333333, "bike_id": "7bf4d8976648a72f372f968613cf8459", "fusion_lat": 0.0, "name": "7bf4d8976648a72f372f968613cf8459", "is_reserved": 0, "rental_uris": {"android": "https://dc.lft.to/lastmile_qr_scan", "ios": "https://dc.lft.to/lastmile_qr_scan"}, "fusion_lon": 0.0}, {"lat": 38.90374933333333, "is_disabled": 0, "type": "electric_scooter", "lon": -77.04348366666666, "bike_id": "eb55f14b75de3f3267fda731d77ea564", "fusion_lat": 0.0, "name": "eb55f14b75de3f3267fda731d77ea564", "is_reserved": 0, "rental_uris": {"android": "https://dc.lft.to/lastmile_qr_scan", "ios": "https://dc.lft.to/lastmile_qr_scan"}, "fusion_lon": 0.0}, {"lat": 38.909782666666665, "is_disabled": 0, "type": "electric_scooter", "lon": -77.033773, "bike_id": "958eb95eac0447774d071ee958c085e4", "fusion_lat": 0.0, "name": "958eb95eac0447774d071ee958c085e4", "is_reserved": 0, "rental_uris": {"android": "https://dc.lft.to/lastmile_qr_scan", "ios": "https://dc.lft.to/lastmile_qr_scan"}, "fusion_lon": 0.0}, {"lat": 38.907336, "is_disabled": 0, "type": "electric_scooter", "lon": -77.024841, "bike_id": "ef099b8a525a74c38378cf83c0d18c50", "fusion_lat": 0.0, "name": "ef099b8a525a74c38378cf83c0d18c50", "is_reserved": 0, "rental_uris": {"android": "https://dc.lft.to/lastmile_qr_scan", "ios": "https://dc.lft.to/lastmile_qr_scan"}, "fusion_lon": 0.0}, {"lat": 38.936088833333336, "is_disabled": 0, "type": "electric_scooter", "lon": -77.03527616666666, "bike_id": "79086ff622838bdb116b5fdf02f1e327", "fusion_lat": 0.0, "name": "79086ff622838bdb116b5fdf02f1e327", "is_reserved": 0, "rental_uris": {"android": "https://dc.lft.to/lastmile_qr_scan", "ios": "https://dc.lft.to/lastmile_qr_scan"}, "fusion_lon": 0.0}, {"lat": 38.900376333333334, "is_disabled": 0, "type": "electric_scooter", "lon": -77.00581116666666, "bike_id": "517018766a6f9158b042b7885dafcc48", "fusion_lat": 0.0, "name": "517018766a6f9158b042b7885dafcc48", "is_reserved": 0, "rental_uris": {"android": "https://dc.lft.to/lastmile_qr_scan", "ios": "https://dc.lft.to/lastmile_qr_scan"}, "fusion_lon": 0.0}, {"lat": 38.917142166666665, "is_disabled": 0, "type": "electric_scooter", "lon": -77.04287233333334, "bike_id": "29274c681ffd0e12964da137ea235efc", "fusion_lat": 0.0, "name": "29274c681ffd0e12964da137ea235efc", "is_reserved": 0, "rental_uris": {"android": "https://dc.lft.to/lastmile_qr_scan", "ios": "https://dc.lft.to/lastmile_qr_scan"}, "fusion_lon": 0.0}, {"lat": 38.9150325, "is_disabled": 0, "type": "electric_scooter", "lon": -77.01724483333334, "bike_id": "d2a979f8d720b2ad34799950959c4ea5", "fusion_lat": 0.0, "name": "d2a979f8d720b2ad34799950959c4ea5", "is_reserved": 0, "rental_uris": {"android": "https://dc.lft.to/lastmile_qr_scan", "ios": "https://dc.lft.to/lastmile_qr_scan"}, "fusion_lon": 0.0}, {"lat": 38.89979433333333, "is_disabled": 0, "type": "electric_scooter", "lon": -77.021604, "bike_id": "78764365893fc8121558a3f9e982b5c4", "fusion_lat": 0.0, "name": "78764365893fc8121558a3f9e982b5c4", "is_reserved": 0, "rental_uris": {"android": "https://dc.lft.to/lastmile_qr_scan", "ios": "https://dc.lft.to/lastmile_qr_scan"}, "fusion_lon": 0.0}, {"lat": 38.9189345, "is_disabled": 0, "type": "electric_scooter", "lon": -77.04129733333333, "bike_id": "14058fd0d9445d0da2a76c2feec16e95", "fusion_lat": 0.0, "name": "14058fd0d9445d0da2a76c2feec16e95", "is_reserved": 0, "rental_uris": {"android": "https://dc.lft.to/lastmile_qr_scan", "ios": "https://dc.lft.to/lastmile_qr_scan"}, "fusion_lon": 0.0}, {"lat": 38.884334, "is_disabled": 0, "type": "electric_scooter", "lon": -77.01776033333333, "bike_id": "73b936f74377559382ed389ea6c5ee4a", "fusion_lat": 0.0, "name": "73b936f74377559382ed389ea6c5ee4a", "is_reserved": 0, "rental_uris": {"android": "https://dc.lft.to/lastmile_qr_scan", "ios": "https://dc.lft.to/lastmile_qr_scan"}, "fusion_lon": 0.0}, {"lat": 38.9098955, "is_disabled": 0, "type": "electric_scooter", "lon": -77.02391566666667, "bike_id": "7460aa19992f55ba1099c5843632b084", "fusion_lat": 0.0, "name": "7460aa19992f55ba1099c5843632b084", "is_reserved": 0, "rental_uris": {"android": "https://dc.lft.to/lastmile_qr_scan", "ios": "https://dc.lft.to/lastmile_qr_scan"}, "fusion_lon": 0.0}, {"lat": 38.90748583333333, "is_disabled": 0, "type": "electric_scooter", "lon": -77.04150583333333, "bike_id": "c2b77fe815fc17ba2edf1ee0c5e14c60", "fusion_lat": 0.0, "name": "c2b77fe815fc17ba2edf1ee0c5e14c60", "is_reserved": 0, "rental_uris": {"android": "https://dc.lft.to/lastmile_qr_scan", "ios": "https://dc.lft.to/lastmile_qr_scan"}, "fusion_lon": 0.0}, {"lat": 38.92073516666667, "is_disabled": 0, "type": "electric_scooter", "lon": -77.02233116666666, "bike_id": "e8a111eb137b0207a2d8e9f69408102a", "fusion_lat": 0.0, "name": "e8a111eb137b0207a2d8e9f69408102a", "is_reserved": 0, "rental_uris": {"android": "https://dc.lft.to/lastmile_qr_scan", "ios": "https://dc.lft.to/lastmile_qr_scan"}, "fusion_lon": 0.0}, {"lat": 38.93135433333333, "is_disabled": 0, "type": "electric_scooter", "lon": -77.032556, "bike_id": "5785820a54195a8c4cd10d388441996d", "fusion_lat": 0.0, "name": "5785820a54195a8c4cd10d388441996d", "is_reserved": 0, "rental_uris": {"android": "https://dc.lft.to/lastmile_qr_scan", "ios": "https://dc.lft.to/lastmile_qr_scan"}, "fusion_lon": 0.0}, {"lat": 38.870666666666665, "is_disabled": 0, "type": "electric_scooter", "lon": -77.00839833333333, "bike_id": "e2230d2a922353d9998d3af1c6b24df5", "fusion_lat": 0.0, "name": "e2230d2a922353d9998d3af1c6b24df5", "is_reserved": 0, "rental_uris": {"android": "https://dc.lft.to/lastmile_qr_scan", "ios": "https://dc.lft.to/lastmile_qr_scan"}, "fusion_lon": 0.0}, {"lat": 38.900736333333334, "is_disabled": 0, "type": "electric_scooter", "lon": -77.04588983333333, "bike_id": "e726a55d5302e8f5be4db5ef4ca81c93", "fusion_lat": 0.0, "name": "e726a55d5302e8f5be4db5ef4ca81c93", "is_reserved": 0, "rental_uris": {"android": "https://dc.lft.to/lastmile_qr_scan", "ios": "https://dc.lft.to/lastmile_qr_scan"}, "fusion_lon": 0.0}, {"lat": 38.897988166666664, "is_disabled": 0, "type": "electric_scooter", "lon": -77.01622883333333, "bike_id": "70e9c0bf202d36a9634bb9333e4ce23c", "fusion_lat": 0.0, "name": "70e9c0bf202d36a9634bb9333e4ce23c", "is_reserved": 0, "rental_uris": {"android": "https://dc.lft.to/lastmile_qr_scan", "ios": "https://dc.lft.to/lastmile_qr_scan"}, "fusion_lon": 0.0}, {"lat": 38.9229135, "is_disabled": 0, "type": "electric_scooter", "lon": -77.03193783333333, "bike_id": "11052cced6263ad22ae664cf83fb1713", "fusion_lat": 0.0, "name": "11052cced6263ad22ae664cf83fb1713", "is_reserved": 0, "rental_uris": {"android": "https://dc.lft.to/lastmile_qr_scan", "ios": "https://dc.lft.to/lastmile_qr_scan"}, "fusion_lon": 0.0}, {"lat": 38.91118866666667, "is_disabled": 0, "type": "electric_scooter", "lon": -77.03718533333333, "bike_id": "8687399c4ad1567181de2befffc1ed97", "fusion_lat": 0.0, "name": "8687399c4ad1567181de2befffc1ed97", "is_reserved": 0, "rental_uris": {"android": "https://dc.lft.to/lastmile_qr_scan", "ios": "https://dc.lft.to/lastmile_qr_scan"}, "fusion_lon": 0.0}, {"lat": 38.94440483333333, "is_disabled": 0, "type": "electric_scooter", "lon": -77.0151135, "bike_id": "5abe4b7c4700f7f5801d7a3f4d4e629c", "fusion_lat": 0.0, "name": "5abe4b7c4700f7f5801d7a3f4d4e629c", "is_reserved": 0, "rental_uris": {"android": "https://dc.lft.to/lastmile_qr_scan", "ios": "https://dc.lft.to/lastmile_qr_scan"}, "fusion_lon": 0.0}, {"lat": 38.855032, "is_disabled": 0, "type": "electric_bike", "lon": -77.12057483333334, "bike_id": "275f64fe045f081d4b1927326b393e92", "fusion_lat": 0.0, "name": "275f64fe045f081d4b1927326b393e92", "is_reserved": 0, "rental_uris": {"android": "https://dc.lft.to/lastmile_qr_scan", "ios": "https://dc.lft.to/lastmile_qr_scan"}, "fusion_lon": 0.0}, {"lat": 38.901204, "is_disabled": 0, "type": "electric_scooter", "lon": -77.02511766666667, "bike_id": "77a16975a398a316fe9669ac8af03965", "fusion_lat": 0.0, "name": "77a16975a398a316fe9669ac8af03965", "is_reserved": 0, "rental_uris": {"android": "https://dc.lft.to/lastmile_qr_scan", "ios": "https://dc.lft.to/lastmile_qr_scan"}, "fusion_lon": 0.0}, {"lat": 38.851923666666664, "is_disabled": 0, "type": "electric_bike", "lon": -76.9610985, "bike_id": "e5d5c63f39433af983b9494399b63670", "fusion_lat": 0.0, "name": "e5d5c63f39433af983b9494399b63670", "is_reserved": 0, "rental_uris": {"android": "https://dc.lft.to/lastmile_qr_scan", "ios": "https://dc.lft.to/lastmile_qr_scan"}, "fusion_lon": 0.0}, {"lat": 38.917793, "is_disabled": 0, "type": "electric_scooter", "lon": -77.023666, "bike_id": "5fd2d8da1d9ab20ad66d3afaf83a531d", "fusion_lat": 0.0, "name": "5fd2d8da1d9ab20ad66d3afaf83a531d", "is_reserved": 0, "rental_uris": {"android": "https://dc.lft.to/lastmile_qr_scan", "ios": "https://dc.lft.to/lastmile_qr_scan"}, "fusion_lon": 0.0}, {"lat": 38.90514983333333, "is_disabled": 0, "type": "electric_scooter", "lon": -77.0647595, "bike_id": "149414ff242a5ad183894a566e03871e", "fusion_lat": 0.0, "name": "149414ff242a5ad183894a566e03871e", "is_reserved": 0, "rental_uris": {"android": "https://dc.lft.to/lastmile_qr_scan", "ios": "https://dc.lft.to/lastmile_qr_scan"}, "fusion_lon": 0.0}, {"lat": 38.921456666666664, "is_disabled": 0, "type": "electric_scooter", "lon": -77.041232, "bike_id": "9bb412d25deb1a01c6ff0bba73b9c222", "fusion_lat": 0.0, "name": "9bb412d25deb1a01c6ff0bba73b9c222", "is_reserved": 0, "rental_uris": {"android": "https://dc.lft.to/lastmile_qr_scan", "ios": "https://dc.lft.to/lastmile_qr_scan"}, "fusion_lon": 0.0}, {"lat": 38.89567666666667, "is_disabled": 0, "type": "electric_bike", "lon": -77.12731516666666, "bike_id": "eae059113997f4af4009539b7e971314", "fusion_lat": 0.0, "name": "eae059113997f4af4009539b7e971314", "is_reserved": 0, "rental_uris": {"android": "https://dc.lft.to/lastmile_qr_scan", "ios": "https://dc.lft.to/lastmile_qr_scan"}, "fusion_lon": 0.0}, {"lat": 38.90457383333333, "is_disabled": 0, "type": "electric_scooter", "lon": -76.99455266666666, "bike_id": "6984e37b01a70ab720e532ae50c4d216", "fusion_lat": 0.0, "name": "6984e37b01a70ab720e532ae50c4d216", "is_reserved": 0, "rental_uris": {"android": "https://dc.lft.to/lastmile_qr_scan", "ios": "https://dc.lft.to/lastmile_qr_scan"}, "fusion_lon": 0.0}, {"lat": 38.918973333333334, "is_disabled": 0, "type": "electric_scooter", "lon": -77.03916100000001, "bike_id": "93346a06ac322ecae33657540dff0cd3", "fusion_lat": 0.0, "name": "93346a06ac322ecae33657540dff0cd3", "is_reserved": 0, "rental_uris": {"android": "https://dc.lft.to/lastmile_qr_scan", "ios": "https://dc.lft.to/lastmile_qr_scan"}, "fusion_lon": 0.0}, {"lat": 38.93005816666667, "is_disabled": 0, "type": "electric_scooter", "lon": -77.02117383333334, "bike_id": "996f4d336e2831740a6458466159ed0b", "fusion_lat": 0.0, "name": "996f4d336e2831740a6458466159ed0b", "is_reserved": 0, "rental_uris": {"android": "https://dc.lft.to/lastmile_qr_scan", "ios": "https://dc.lft.to/lastmile_qr_scan"}, "fusion_lon": 0.0}, {"lat": 38.89663433333333, "is_disabled": 0, "type": "electric_scooter", "lon": -77.0397475, "bike_id": "f17891c8da9f78cadae10fc367dd76d0", "fusion_lat": 0.0, "name": "f17891c8da9f78cadae10fc367dd76d0", "is_reserved": 0, "rental_uris": {"android": "https://dc.lft.to/lastmile_qr_scan", "ios": "https://dc.lft.to/lastmile_qr_scan"}, "fusion_lon": 0.0}, {"lat": 38.900230666666666, "is_disabled": 0, "type": "electric_scooter", "lon": -76.99880483333334, "bike_id": "fa1526af78fa8e11cf1c9087595b4d2e", "fusion_lat": 0.0, "name": "fa1526af78fa8e11cf1c9087595b4d2e", "is_reserved": 0, "rental_uris": {"android": "https://dc.lft.to/lastmile_qr_scan", "ios": "https://dc.lft.to/lastmile_qr_scan"}, "fusion_lon": 0.0}, {"lat": 38.90582, "is_disabled": 0, "type": "electric_scooter", "lon": -77.008819, "bike_id": "6465fde791655ef959ced8b59c80bbaa", "fusion_lat": 0.0, "name": "6465fde791655ef959ced8b59c80bbaa", "is_reserved": 0, "rental_uris": {"android": "https://dc.lft.to/lastmile_qr_scan", "ios": "https://dc.lft.to/lastmile_qr_scan"}, "fusion_lon": 0.0}, {"lat": 38.90065166666667, "is_disabled": 0, "type": "electric_scooter", "lon": -77.00206933333334, "bike_id": "29d7a1254c4e3bbe7191d5e7d8a30cf5", "fusion_lat": 0.0, "name": "29d7a1254c4e3bbe7191d5e7d8a30cf5", "is_reserved": 0, "rental_uris": {"android": "https://dc.lft.to/lastmile_qr_scan", "ios": "https://dc.lft.to/lastmile_qr_scan"}, "fusion_lon": 0.0}, {"lat": 38.89231916666667, "is_disabled": 0, "type": "electric_scooter", "lon": -77.0500585, "bike_id": "4762c14c388e1529894ee1254bc54195", "fusion_lat": 0.0, "name": "4762c14c388e1529894ee1254bc54195", "is_reserved": 0, "rental_uris": {"android": "https://dc.lft.to/lastmile_qr_scan", "ios": "https://dc.lft.to/lastmile_qr_scan"}, "fusion_lon": 0.0}, {"lat": 38.9001785, "is_disabled": 0, "type": "electric_scooter", "lon": -77.04491216666666, "bike_id": "b28770e0e590a984689c108594326e8b", "fusion_lat": 0.0, "name": "b28770e0e590a984689c108594326e8b", "is_reserved": 0, "rental_uris": {"android": "https://dc.lft.to/lastmile_qr_scan", "ios": "https://dc.lft.to/lastmile_qr_scan"}, "fusion_lon": 0.0}, {"lat": 38.923321333333334, "is_disabled": 0, "type": "electric_scooter", "lon": -77.02691316666667, "bike_id": "7a9bfd51b1bf3cbab96a77ef8e5c609c", "fusion_lat": 0.0, "name": "7a9bfd51b1bf3cbab96a77ef8e5c609c", "is_reserved": 0, "rental_uris": {"android": "https://dc.lft.to/lastmile_qr_scan", "ios": "https://dc.lft.to/lastmile_qr_scan"}, "fusion_lon": 0.0}, {"lat": 38.9005685, "is_disabled": 0, "type": "electric_scooter", "lon": -77.0259345, "bike_id": "5e8ae7d942aa6de0c00a7482542f1b86", "fusion_lat": 0.0, "name": "5e8ae7d942aa6de0c00a7482542f1b86", "is_reserved": 0, "rental_uris": {"android": "https://dc.lft.to/lastmile_qr_scan", "ios": "https://dc.lft.to/lastmile_qr_scan"}, "fusion_lon": 0.0}, {"lat": 39.052103333333335, "is_disabled": 0, "type": "electric_bike", "lon": -77.10911266666666, "bike_id": "6682cdd25eb7b3505e8d69ce6bdd0b81", "fusion_lat": 0.0, "name": "6682cdd25eb7b3505e8d69ce6bdd0b81", "is_reserved": 0, "rental_uris": {"android": "https://dc.lft.to/lastmile_qr_scan", "ios": "https://dc.lft.to/lastmile_qr_scan"}, "fusion_lon": 0.0}, {"lat": 38.909762666666666, "is_disabled": 0, "type": "electric_scooter", "lon": -77.0344475, "bike_id": "547e43c9cdaa8188400608c3790712e5", "fusion_lat": 0.0, "name": "547e43c9cdaa8188400608c3790712e5", "is_reserved": 0, "rental_uris": {"android": "https://dc.lft.to/lastmile_qr_scan", "ios": "https://dc.lft.to/lastmile_qr_scan"}, "fusion_lon": 0.0}, {"lat": 38.916923833333335, "is_disabled": 0, "type": "electric_scooter", "lon": -77.04141916666667, "bike_id": "48e5d17baa16ad8aabbd05ca6e094fc6", "fusion_lat": 0.0, "name": "48e5d17baa16ad8aabbd05ca6e094fc6", "is_reserved": 0, "rental_uris": {"android": "https://dc.lft.to/lastmile_qr_scan", "ios": "https://dc.lft.to/lastmile_qr_scan"}, "fusion_lon": 0.0}, {"lat": 38.899728, "is_disabled": 0, "type": "electric_scooter", "lon": -76.92660833333333, "bike_id": "d362d201ca22f66fe812cdef37de0760", "fusion_lat": 0.0, "name": "d362d201ca22f66fe812cdef37de0760", "is_reserved": 0, "rental_uris": {"android": "https://dc.lft.to/lastmile_qr_scan", "ios": "https://dc.lft.to/lastmile_qr_scan"}, "fusion_lon": 0.0}, {"lat": 38.907058, "is_disabled": 0, "type": "electric_scooter", "lon": -77.04195483333334, "bike_id": "6a92dae1523998f0baeb9bf3a29028d0", "fusion_lat": 0.0, "name": "6a92dae1523998f0baeb9bf3a29028d0", "is_reserved": 0, "rental_uris": {"android": "https://dc.lft.to/lastmile_qr_scan", "ios": "https://dc.lft.to/lastmile_qr_scan"}, "fusion_lon": 0.0}, {"lat": 38.89997666666667, "is_disabled": 0, "type": "electric_scooter", "lon": -76.999563, "bike_id": "ded918e3c0eda3e13b0d1c7678349cbe", "fusion_lat": 0.0, "name": "ded918e3c0eda3e13b0d1c7678349cbe", "is_reserved": 0, "rental_uris": {"android": "https://dc.lft.to/lastmile_qr_scan", "ios": "https://dc.lft.to/lastmile_qr_scan"}, "fusion_lon": 0.0}, {"lat": 38.879480666666666, "is_disabled": 0, "type": "electric_scooter", "lon": -77.0040565, "bike_id": "eb53d8a91bd08794b1c47370bad973fc", "fusion_lat": 0.0, "name": "eb53d8a91bd08794b1c47370bad973fc", "is_reserved": 0, "rental_uris": {"android": "https://dc.lft.to/lastmile_qr_scan", "ios": "https://dc.lft.to/lastmile_qr_scan"}, "fusion_lon": 0.0}, {"lat": 38.92956, "is_disabled": 0, "type": "electric_scooter", "lon": -76.99085816666667, "bike_id": "af9e66e5382fe373b71f36300674933e", "fusion_lat": 0.0, "name": "af9e66e5382fe373b71f36300674933e", "is_reserved": 0, "rental_uris": {"android": "https://dc.lft.to/lastmile_qr_scan", "ios": "https://dc.lft.to/lastmile_qr_scan"}, "fusion_lon": 0.0}, {"lat": 38.8928965, "is_disabled": 0, "type": "electric_scooter", "lon": -76.9585725, "bike_id": "7caa64f80ee0491e69dfdfe8e8079277", "fusion_lat": 0.0, "name": "7caa64f80ee0491e69dfdfe8e8079277", "is_reserved": 0, "rental_uris": {"android": "https://dc.lft.to/lastmile_qr_scan", "ios": "https://dc.lft.to/lastmile_qr_scan"}, "fusion_lon": 0.0}, {"lat": 38.913390666666665, "is_disabled": 0, "type": "electric_scooter", "lon": -77.03128466666666, "bike_id": "e79e6a452aa3f49c73f353ca0307c269", "fusion_lat": 0.0, "name": "e79e6a452aa3f49c73f353ca0307c269", "is_reserved": 0, "rental_uris": {"android": "https://dc.lft.to/lastmile_qr_scan", "ios": "https://dc.lft.to/lastmile_qr_scan"}, "fusion_lon": 0.0}, {"lat": 38.892672833333336, "is_disabled": 0, "type": "electric_scooter", "lon": -77.02029366666666, "bike_id": "c5c92df2c59d33335b0640e508830b3f", "fusion_lat": 0.0, "name": "c5c92df2c59d33335b0640e508830b3f", "is_reserved": 0, "rental_uris": {"android": "https://dc.lft.to/lastmile_qr_scan", "ios": "https://dc.lft.to/lastmile_qr_scan"}, "fusion_lon": 0.0}, {"lat": 38.924637, "is_disabled": 0, "type": "electric_scooter", "lon": -77.08042816666666, "bike_id": "77756a652ec429d7bddb6f9e70f2fbcc", "fusion_lat": 0.0, "name": "77756a652ec429d7bddb6f9e70f2fbcc", "is_reserved": 0, "rental_uris": {"android": "https://dc.lft.to/lastmile_qr_scan", "ios": "https://dc.lft.to/lastmile_qr_scan"}, "fusion_lon": 0.0}, {"lat": 38.901719, "is_disabled": 0, "type": "electric_scooter", "lon": -77.020195, "bike_id": "a28d577cd8fac1d5907e30a6ae96d3d4", "fusion_lat": 0.0, "name": "a28d577cd8fac1d5907e30a6ae96d3d4", "is_reserved": 0, "rental_uris": {"android": "https://dc.lft.to/lastmile_qr_scan", "ios": "https://dc.lft.to/lastmile_qr_scan"}, "fusion_lon": 0.0}, {"lat": 38.958796, "is_disabled": 0, "type": "electric_bike", "lon": -76.92486716666667, "bike_id": "c3b9f584b0c85848cde58b923409e19e", "fusion_lat": 0.0, "name": "c3b9f584b0c85848cde58b923409e19e", "is_reserved": 0, "rental_uris": {"android": "https://dc.lft.to/lastmile_qr_scan", "ios": "https://dc.lft.to/lastmile_qr_scan"}, "fusion_lon": 0.0}, {"lat": 38.897098, "is_disabled": 0, "type": "electric_scooter", "lon": -77.02698966666667, "bike_id": "1997be47e9d90f28316db76fb7167f24", "fusion_lat": 0.0, "name": "1997be47e9d90f28316db76fb7167f24", "is_reserved": 0, "rental_uris": {"android": "https://dc.lft.to/lastmile_qr_scan", "ios": "https://dc.lft.to/lastmile_qr_scan"}, "fusion_lon": 0.0}, {"lat": 38.92917533333333, "is_disabled": 0, "type": "electric_scooter", "lon": -77.03162783333333, "bike_id": "ba0c56e17204b8989d55d502cb09e501", "fusion_lat": 0.0, "name": "ba0c56e17204b8989d55d502cb09e501", "is_reserved": 0, "rental_uris": {"android": "https://dc.lft.to/lastmile_qr_scan", "ios": "https://dc.lft.to/lastmile_qr_scan"}, "fusion_lon": 0.0}, {"lat": 38.890474166666664, "is_disabled": 0, "type": "electric_scooter", "lon": -76.94075516666666, "bike_id": "1cdb5a70d8fc1b52668e2c665972ced8", "fusion_lat": 0.0, "name": "1cdb5a70d8fc1b52668e2c665972ced8", "is_reserved": 0, "rental_uris": {"android": "https://dc.lft.to/lastmile_qr_scan", "ios": "https://dc.lft.to/lastmile_qr_scan"}, "fusion_lon": 0.0}, {"lat": 38.918002333333334, "is_disabled": 0, "type": "electric_scooter", "lon": -77.04437866666666, "bike_id": "e590745a79657164e6455c07ddccce77", "fusion_lat": 0.0, "name": "e590745a79657164e6455c07ddccce77", "is_reserved": 0, "rental_uris": {"android": "https://dc.lft.to/lastmile_qr_scan", "ios": "https://dc.lft.to/lastmile_qr_scan"}, "fusion_lon": 0.0}, {"lat": 38.912918166666664, "is_disabled": 0, "type": "electric_scooter", "lon": -77.03188766666666, "bike_id": "530b8936e882d99394908401fcad43d6", "fusion_lat": 0.0, "name": "530b8936e882d99394908401fcad43d6", "is_reserved": 0, "rental_uris": {"android": "https://dc.lft.to/lastmile_qr_scan", "ios": "https://dc.lft.to/lastmile_qr_scan"}, "fusion_lon": 0.0}, {"lat": 38.92053533333333, "is_disabled": 0, "type": "electric_scooter", "lon": -77.04183433333333, "bike_id": "cfa030b485d5964fbd839dcbf39e9cab", "fusion_lat": 0.0, "name": "cfa030b485d5964fbd839dcbf39e9cab", "is_reserved": 0, "rental_uris": {"android": "https://dc.lft.to/lastmile_qr_scan", "ios": "https://dc.lft.to/lastmile_qr_scan"}, "fusion_lon": 0.0}, {"lat": 38.902863833333335, "is_disabled": 0, "type": "electric_scooter", "lon": -77.0634705, "bike_id": "5bdef898a8d1db840e6f09314fbdbedf", "fusion_lat": 0.0, "name": "5bdef898a8d1db840e6f09314fbdbedf", "is_reserved": 0, "rental_uris": {"android": "https://dc.lft.to/lastmile_qr_scan", "ios": "https://dc.lft.to/lastmile_qr_scan"}, "fusion_lon": 0.0}, {"lat": 38.913368, "is_disabled": 0, "type": "electric_scooter", "lon": -77.03195866666667, "bike_id": "9cd5f698d7cdb57d4549332ca5cec2eb", "fusion_lat": 0.0, "name": "9cd5f698d7cdb57d4549332ca5cec2eb", "is_reserved": 0, "rental_uris": {"android": "https://dc.lft.to/lastmile_qr_scan", "ios": "https://dc.lft.to/lastmile_qr_scan"}, "fusion_lon": 0.0}, {"lat": 38.9211525, "is_disabled": 0, "type": "electric_bike", "lon": -76.98576266666667, "bike_id": "d58a5e9340476dc15330dbd04aab97b4", "fusion_lat": 0.0, "name": "d58a5e9340476dc15330dbd04aab97b4", "is_reserved": 0, "rental_uris": {"android": "https://dc.lft.to/lastmile_qr_scan", "ios": "https://dc.lft.to/lastmile_qr_scan"}, "fusion_lon": 0.0}, {"lat": 38.93102733333333, "is_disabled": 0, "type": "electric_scooter", "lon": -77.0249845, "bike_id": "47fd73069d9b04e73ee4b3ccb40818aa", "fusion_lat": 0.0, "name": "47fd73069d9b04e73ee4b3ccb40818aa", "is_reserved": 0, "rental_uris": {"android": "https://dc.lft.to/lastmile_qr_scan", "ios": "https://dc.lft.to/lastmile_qr_scan"}, "fusion_lon": 0.0}, {"lat": 38.940441, "is_disabled": 0, "type": "electric_bike", "lon": -77.051628, "bike_id": "ab6aa1e419c5d6499023e82a7a0ee3c5", "fusion_lat": 0.0, "name": "ab6aa1e419c5d6499023e82a7a0ee3c5", "is_reserved": 0, "rental_uris": {"android": "https://dc.lft.to/lastmile_qr_scan", "ios": "https://dc.lft.to/lastmile_qr_scan"}, "fusion_lon": 0.0}, {"lat": 38.85853183333333, "is_disabled": 0, "type": "electric_bike", "lon": -77.09757216666667, "bike_id": "69e3b6b1ccef5e00bca53dc91c23fb5a", "fusion_lat": 0.0, "name": "69e3b6b1ccef5e00bca53dc91c23fb5a", "is_reserved": 0, "rental_uris": {"android": "https://dc.lft.to/lastmile_qr_scan", "ios": "https://dc.lft.to/lastmile_qr_scan"}, "fusion_lon": 0.0}, {"lat": 38.955604666666666, "is_disabled": 0, "type": "electric_bike", "lon": -76.9354025, "bike_id": "f24369bf139037201749a0f370634b0e", "fusion_lat": 0.0, "name": "f24369bf139037201749a0f370634b0e", "is_reserved": 0, "rental_uris": {"android": "https://dc.lft.to/lastmile_qr_scan", "ios": "https://dc.lft.to/lastmile_qr_scan"}, "fusion_lon": 0.0}, {"lat": 38.89917366666667, "is_disabled": 0, "type": "electric_scooter", "lon": -76.93381466666666, "bike_id": "1dbed315e29561406dfafa7beeae3630", "fusion_lat": 0.0, "name": "1dbed315e29561406dfafa7beeae3630", "is_reserved": 0, "rental_uris": {"android": "https://dc.lft.to/lastmile_qr_scan", "ios": "https://dc.lft.to/lastmile_qr_scan"}, "fusion_lon": 0.0}, {"lat": 38.915556, "is_disabled": 0, "type": "electric_scooter", "lon": -77.024273, "bike_id": "613008945d3e54160d129b1dcc7b8377", "fusion_lat": 0.0, "name": "613008945d3e54160d129b1dcc7b8377", "is_reserved": 0, "rental_uris": {"android": "https://dc.lft.to/lastmile_qr_scan", "ios": "https://dc.lft.to/lastmile_qr_scan"}, "fusion_lon": 0.0}, {"lat": 38.92691283333333, "is_disabled": 0, "type": "electric_scooter", "lon": -77.05103833333334, "bike_id": "698fa5fd9ad0bf0efe10deae9214a003", "fusion_lat": 0.0, "name": "698fa5fd9ad0bf0efe10deae9214a003", "is_reserved": 0, "rental_uris": {"android": "https://dc.lft.to/lastmile_qr_scan", "ios": "https://dc.lft.to/lastmile_qr_scan"}, "fusion_lon": 0.0}, {"lat": 38.848684166666665, "is_disabled": 0, "type": "electric_scooter", "lon": -76.976934, "bike_id": "d5982740804371da7e34f3361aea4cf1", "fusion_lat": 0.0, "name": "d5982740804371da7e34f3361aea4cf1", "is_reserved": 0, "rental_uris": {"android": "https://dc.lft.to/lastmile_qr_scan", "ios": "https://dc.lft.to/lastmile_qr_scan"}, "fusion_lon": 0.0}, {"lat": 38.863491333333336, "is_disabled": 0, "type": "electric_scooter", "lon": -76.99001616666666, "bike_id": "16371fe1517cb42fb3b8f10282a3dda7", "fusion_lat": 0.0, "name": "16371fe1517cb42fb3b8f10282a3dda7", "is_reserved": 0, "rental_uris": {"android": "https://dc.lft.to/lastmile_qr_scan", "ios": "https://dc.lft.to/lastmile_qr_scan"}, "fusion_lon": 0.0}, {"lat": 38.9096545, "is_disabled": 0, "type": "electric_scooter", "lon": -77.04792083333334, "bike_id": "11f51327102198aabc3fe8604c504874", "fusion_lat": 0.0, "name": "11f51327102198aabc3fe8604c504874", "is_reserved": 0, "rental_uris": {"android": "https://dc.lft.to/lastmile_qr_scan", "ios": "https://dc.lft.to/lastmile_qr_scan"}, "fusion_lon": 0.0}, {"lat": 38.8828665, "is_disabled": 0, "type": "electric_bike", "lon": -76.9878705, "bike_id": "5b0d527268eeeba86fcec59396ac249e", "fusion_lat": 0.0, "name": "5b0d527268eeeba86fcec59396ac249e", "is_reserved": 0, "rental_uris": {"android": "https://dc.lft.to/lastmile_qr_scan", "ios": "https://dc.lft.to/lastmile_qr_scan"}, "fusion_lon": 0.0}, {"lat": 38.90061083333333, "is_disabled": 0, "type": "electric_scooter", "lon": -77.00183183333333, "bike_id": "9217788d3013db4d17b1a8758a670ad5", "fusion_lat": 0.0, "name": "9217788d3013db4d17b1a8758a670ad5", "is_reserved": 0, "rental_uris": {"android": "https://dc.lft.to/lastmile_qr_scan", "ios": "https://dc.lft.to/lastmile_qr_scan"}, "fusion_lon": 0.0}, {"lat": 38.8636445, "is_disabled": 0, "type": "electric_scooter", "lon": -76.99034883333333, "bike_id": "0ae2e73f7dc192aba634af1a7eb26ee7", "fusion_lat": 0.0, "name": "0ae2e73f7dc192aba634af1a7eb26ee7", "is_reserved": 0, "rental_uris": {"android": "https://dc.lft.to/lastmile_qr_scan", "ios": "https://dc.lft.to/lastmile_qr_scan"}, "fusion_lon": 0.0}, {"lat": 39.0305545, "is_disabled": 0, "type": "electric_bike", "lon": -77.09484366666666, "bike_id": "32faca2a2f3bd1a555544919b9bad5b0", "fusion_lat": 0.0, "name": "32faca2a2f3bd1a555544919b9bad5b0", "is_reserved": 0, "rental_uris": {"android": "https://dc.lft.to/lastmile_qr_scan", "ios": "https://dc.lft.to/lastmile_qr_scan"}, "fusion_lon": 0.0}, {"lat": 38.9070875, "is_disabled": 0, "type": "electric_scooter", "lon": -77.0013695, "bike_id": "dc134e457559eeef1fdc50423b7466bc", "fusion_lat": 0.0, "name": "dc134e457559eeef1fdc50423b7466bc", "is_reserved": 0, "rental_uris": {"android": "https://dc.lft.to/lastmile_qr_scan", "ios": "https://dc.lft.to/lastmile_qr_scan"}, "fusion_lon": 0.0}, {"lat": 38.93841066666667, "is_disabled": 0, "type": "electric_bike", "lon": -76.988601, "bike_id": "146e8df0c7a19bb88cccebc21c41b2e3", "fusion_lat": 0.0, "name": "146e8df0c7a19bb88cccebc21c41b2e3", "is_reserved": 0, "rental_uris": {"android": "https://dc.lft.to/lastmile_qr_scan", "ios": "https://dc.lft.to/lastmile_qr_scan"}, "fusion_lon": 0.0}, {"lat": 38.885156, "is_disabled": 0, "type": "electric_scooter", "lon": -77.006819, "bike_id": "d4d890b11e605e1a6b912dc0a021fb98", "fusion_lat": 0.0, "name": "d4d890b11e605e1a6b912dc0a021fb98", "is_reserved": 0, "rental_uris": {"android": "https://dc.lft.to/lastmile_qr_scan", "ios": "https://dc.lft.to/lastmile_qr_scan"}, "fusion_lon": 0.0}, {"lat": 38.91711633333333, "is_disabled": 0, "type": "electric_scooter", "lon": -77.03728016666666, "bike_id": "b9ca4677180f5e293822169b05e5a53d", "fusion_lat": 0.0, "name": "b9ca4677180f5e293822169b05e5a53d", "is_reserved": 0, "rental_uris": {"android": "https://dc.lft.to/lastmile_qr_scan", "ios": "https://dc.lft.to/lastmile_qr_scan"}, "fusion_lon": 0.0}, {"lat": 38.917991, "is_disabled": 0, "type": "electric_scooter", "lon": -77.02301383333334, "bike_id": "93a18f5e470da9e5fb17aeb3462557a9", "fusion_lat": 0.0, "name": "93a18f5e470da9e5fb17aeb3462557a9", "is_reserved": 0, "rental_uris": {"android": "https://dc.lft.to/lastmile_qr_scan", "ios": "https://dc.lft.to/lastmile_qr_scan"}, "fusion_lon": 0.0}, {"lat": 38.9258215, "is_disabled": 0, "type": "electric_scooter", "lon": -76.994926, "bike_id": "884d01d398fa2399120e7a216b8f3edb", "fusion_lat": 0.0, "name": "884d01d398fa2399120e7a216b8f3edb", "is_reserved": 0, "rental_uris": {"android": "https://dc.lft.to/lastmile_qr_scan", "ios": "https://dc.lft.to/lastmile_qr_scan"}, "fusion_lon": 0.0}, {"lat": 38.907331666666664, "is_disabled": 0, "type": "electric_scooter", "lon": -77.0482365, "bike_id": "136e50fd091de583bc02ef599973c20a", "fusion_lat": 0.0, "name": "136e50fd091de583bc02ef599973c20a", "is_reserved": 0, "rental_uris": {"android": "https://dc.lft.to/lastmile_qr_scan", "ios": "https://dc.lft.to/lastmile_qr_scan"}, "fusion_lon": 0.0}, {"lat": 38.916933, "is_disabled": 0, "type": "electric_scooter", "lon": -77.02465216666667, "bike_id": "c583ff7abdc9fbaa22340f78a41ce01a", "fusion_lat": 0.0, "name": "c583ff7abdc9fbaa22340f78a41ce01a", "is_reserved": 0, "rental_uris": {"android": "https://dc.lft.to/lastmile_qr_scan", "ios": "https://dc.lft.to/lastmile_qr_scan"}, "fusion_lon": 0.0}, {"lat": 38.884877, "is_disabled": 0, "type": "electric_scooter", "lon": -77.03472566666667, "bike_id": "6d612eab577bd43c5f326fcd8ca92da5", "fusion_lat": 0.0, "name": "6d612eab577bd43c5f326fcd8ca92da5", "is_reserved": 0, "rental_uris": {"android": "https://dc.lft.to/lastmile_qr_scan", "ios": "https://dc.lft.to/lastmile_qr_scan"}, "fusion_lon": 0.0}, {"lat": 38.934164833333334, "is_disabled": 0, "type": "electric_scooter", "lon": -77.02478716666667, "bike_id": "49d571a6a43fae0d75b9b5307e15851b", "fusion_lat": 0.0, "name": "49d571a6a43fae0d75b9b5307e15851b", "is_reserved": 0, "rental_uris": {"android": "https://dc.lft.to/lastmile_qr_scan", "ios": "https://dc.lft.to/lastmile_qr_scan"}, "fusion_lon": 0.0}, {"lat": 38.92661016666667, "is_disabled": 0, "type": "electric_scooter", "lon": -76.99749866666667, "bike_id": "bef79925cef6c600297558d3011dba05", "fusion_lat": 0.0, "name": "bef79925cef6c600297558d3011dba05", "is_reserved": 0, "rental_uris": {"android": "https://dc.lft.to/lastmile_qr_scan", "ios": "https://dc.lft.to/lastmile_qr_scan"}, "fusion_lon": 0.0}, {"lat": 38.83736833333333, "is_disabled": 0, "type": "electric_bike", "lon": -76.997604, "bike_id": "e89d696089c942b1dc7fb828f8e6f181", "fusion_lat": 0.0, "name": "e89d696089c942b1dc7fb828f8e6f181", "is_reserved": 0, "rental_uris": {"android": "https://dc.lft.to/lastmile_qr_scan", "ios": "https://dc.lft.to/lastmile_qr_scan"}, "fusion_lon": 0.0}, {"lat": 38.897343, "is_disabled": 0, "type": "electric_scooter", "lon": -77.007533, "bike_id": "536b7218a79ab76e1365bace1624ea22", "fusion_lat": 0.0, "name": "536b7218a79ab76e1365bace1624ea22", "is_reserved": 0, "rental_uris": {"android": "https://dc.lft.to/lastmile_qr_scan", "ios": "https://dc.lft.to/lastmile_qr_scan"}, "fusion_lon": 0.0}, {"lat": 38.84276333333333, "is_disabled": 0, "type": "electric_bike", "lon": -76.98855966666666, "bike_id": "e1ccae7fbad5801ca2c26fd6b4eb91fb", "fusion_lat": 0.0, "name": "e1ccae7fbad5801ca2c26fd6b4eb91fb", "is_reserved": 0, "rental_uris": {"android": "https://dc.lft.to/lastmile_qr_scan", "ios": "https://dc.lft.to/lastmile_qr_scan"}, "fusion_lon": 0.0}, {"lat": 38.865120166666664, "is_disabled": 0, "type": "electric_scooter", "lon": -76.99007566666667, "bike_id": "beac41d22df9f1bbf83b35247706c680", "fusion_lat": 0.0, "name": "beac41d22df9f1bbf83b35247706c680", "is_reserved": 0, "rental_uris": {"android": "https://dc.lft.to/lastmile_qr_scan", "ios": "https://dc.lft.to/lastmile_qr_scan"}, "fusion_lon": 0.0}, {"lat": 38.9828175, "is_disabled": 0, "type": "electric_bike", "lon": -77.02542133333333, "bike_id": "b595f60101105e0d056ce350530af1fa", "fusion_lat": 0.0, "name": "b595f60101105e0d056ce350530af1fa", "is_reserved": 0, "rental_uris": {"android": "https://dc.lft.to/lastmile_qr_scan", "ios": "https://dc.lft.to/lastmile_qr_scan"}, "fusion_lon": 0.0}, {"lat": 38.912736, "is_disabled": 0, "type": "electric_scooter", "lon": -77.031843, "bike_id": "fcdec7133864a281cc26e0230f6ae427", "fusion_lat": 0.0, "name": "fcdec7133864a281cc26e0230f6ae427", "is_reserved": 0, "rental_uris": {"android": "https://dc.lft.to/lastmile_qr_scan", "ios": "https://dc.lft.to/lastmile_qr_scan"}, "fusion_lon": 0.0}, {"lat": 38.91553416666667, "is_disabled": 0, "type": "electric_scooter", "lon": -77.03787483333333, "bike_id": "43fed415ee56dc12d4fcdc6358e702d2", "fusion_lat": 0.0, "name": "43fed415ee56dc12d4fcdc6358e702d2", "is_reserved": 0, "rental_uris": {"android": "https://dc.lft.to/lastmile_qr_scan", "ios": "https://dc.lft.to/lastmile_qr_scan"}, "fusion_lon": 0.0}, {"lat": 38.85679183333333, "is_disabled": 0, "type": "electric_scooter", "lon": -76.9818025, "bike_id": "670ebc71adba7be53da01726c272e163", "fusion_lat": 0.0, "name": "670ebc71adba7be53da01726c272e163", "is_reserved": 0, "rental_uris": {"android": "https://dc.lft.to/lastmile_qr_scan", "ios": "https://dc.lft.to/lastmile_qr_scan"}, "fusion_lon": 0.0}, {"lat": 38.91880416666667, "is_disabled": 0, "type": "electric_scooter", "lon": -77.0447575, "bike_id": "09bad9af6e48a7248a2e7a240116c235", "fusion_lat": 0.0, "name": "09bad9af6e48a7248a2e7a240116c235", "is_reserved": 0, "rental_uris": {"android": "https://dc.lft.to/lastmile_qr_scan", "ios": "https://dc.lft.to/lastmile_qr_scan"}, "fusion_lon": 0.0}, {"lat": 38.889992166666666, "is_disabled": 0, "type": "electric_scooter", "lon": -76.95568166666666, "bike_id": "86dfbc7f9e164218adeedf062a0ca0c1", "fusion_lat": 0.0, "name": "86dfbc7f9e164218adeedf062a0ca0c1", "is_reserved": 0, "rental_uris": {"android": "https://dc.lft.to/lastmile_qr_scan", "ios": "https://dc.lft.to/lastmile_qr_scan"}, "fusion_lon": 0.0}, {"lat": 38.922544333333335, "is_disabled": 0, "type": "electric_scooter", "lon": -77.0425405, "bike_id": "e50fa2c900f0c855d793af6d4d3ff01c", "fusion_lat": 0.0, "name": "e50fa2c900f0c855d793af6d4d3ff01c", "is_reserved": 0, "rental_uris": {"android": "https://dc.lft.to/lastmile_qr_scan", "ios": "https://dc.lft.to/lastmile_qr_scan"}, "fusion_lon": 0.0}, {"lat": 38.886937833333334, "is_disabled": 0, "type": "electric_scooter", "lon": -77.017644, "bike_id": "675f003e23274d707cc7c282b9314cba", "fusion_lat": 0.0, "name": "675f003e23274d707cc7c282b9314cba", "is_reserved": 0, "rental_uris": {"android": "https://dc.lft.to/lastmile_qr_scan", "ios": "https://dc.lft.to/lastmile_qr_scan"}, "fusion_lon": 0.0}, {"lat": 38.91690416666667, "is_disabled": 0, "type": "electric_scooter", "lon": -77.0268425, "bike_id": "05483c9d3fd4861ce187b85c842a5136", "fusion_lat": 0.0, "name": "05483c9d3fd4861ce187b85c842a5136", "is_reserved": 0, "rental_uris": {"android": "https://dc.lft.to/lastmile_qr_scan", "ios": "https://dc.lft.to/lastmile_qr_scan"}, "fusion_lon": 0.0}, {"lat": 38.935290333333334, "is_disabled": 0, "type": "electric_scooter", "lon": -77.0370175, "bike_id": "e7411b6dcb5b3437e2a07465885bdb4a", "fusion_lat": 0.0, "name": "e7411b6dcb5b3437e2a07465885bdb4a", "is_reserved": 0, "rental_uris": {"android": "https://dc.lft.to/lastmile_qr_scan", "ios": "https://dc.lft.to/lastmile_qr_scan"}, "fusion_lon": 0.0}, {"lat": 38.90260516666667, "is_disabled": 0, "type": "electric_scooter", "lon": -77.03925083333333, "bike_id": "fc709bec56d9c238d6a3d945d5da9e46", "fusion_lat": 0.0, "name": "fc709bec56d9c238d6a3d945d5da9e46", "is_reserved": 0, "rental_uris": {"android": "https://dc.lft.to/lastmile_qr_scan", "ios": "https://dc.lft.to/lastmile_qr_scan"}, "fusion_lon": 0.0}, {"lat": 38.920507666666666, "is_disabled": 0, "type": "electric_scooter", "lon": -77.02882516666666, "bike_id": "69f4abb5f2c1c84447371ac0b929fac1", "fusion_lat": 0.0, "name": "69f4abb5f2c1c84447371ac0b929fac1", "is_reserved": 0, "rental_uris": {"android": "https://dc.lft.to/lastmile_qr_scan", "ios": "https://dc.lft.to/lastmile_qr_scan"}, "fusion_lon": 0.0}, {"lat": 38.8860005, "is_disabled": 0, "type": "electric_scooter", "lon": -77.02199, "bike_id": "84ff33e97ec7222fc1e411a2460188d5", "fusion_lat": 0.0, "name": "84ff33e97ec7222fc1e411a2460188d5", "is_reserved": 0, "rental_uris": {"android": "https://dc.lft.to/lastmile_qr_scan", "ios": "https://dc.lft.to/lastmile_qr_scan"}, "fusion_lon": 0.0}, {"lat": 38.90955016666667, "is_disabled": 0, "type": "electric_scooter", "lon": -77.03206816666666, "bike_id": "01f3bfca3d722a3f64e6b4993af781bb", "fusion_lat": 0.0, "name": "01f3bfca3d722a3f64e6b4993af781bb", "is_reserved": 0, "rental_uris": {"android": "https://dc.lft.to/lastmile_qr_scan", "ios": "https://dc.lft.to/lastmile_qr_scan"}, "fusion_lon": 0.0}, {"lat": 38.930687666666664, "is_disabled": 0, "type": "electric_scooter", "lon": -77.02823083333334, "bike_id": "cde5c9b621ee4086834a10355e166c66", "fusion_lat": 0.0, "name": "cde5c9b621ee4086834a10355e166c66", "is_reserved": 0, "rental_uris": {"android": "https://dc.lft.to/lastmile_qr_scan", "ios": "https://dc.lft.to/lastmile_qr_scan"}, "fusion_lon": 0.0}, {"lat": 38.918192833333336, "is_disabled": 0, "type": "electric_scooter", "lon": -77.03093766666667, "bike_id": "ec8a460b0727b6a885d03db4a276de30", "fusion_lat": 0.0, "name": "ec8a460b0727b6a885d03db4a276de30", "is_reserved": 0, "rental_uris": {"android": "https://dc.lft.to/lastmile_qr_scan", "ios": "https://dc.lft.to/lastmile_qr_scan"}, "fusion_lon": 0.0}, {"lat": 38.93238933333333, "is_disabled": 0, "type": "electric_scooter", "lon": -76.99606566666667, "bike_id": "10aa04fefda7bf43fdf1348ea79ad0cd", "fusion_lat": 0.0, "name": "10aa04fefda7bf43fdf1348ea79ad0cd", "is_reserved": 0, "rental_uris": {"android": "https://dc.lft.to/lastmile_qr_scan", "ios": "https://dc.lft.to/lastmile_qr_scan"}, "fusion_lon": 0.0}, {"lat": 38.928133, "is_disabled": 0, "type": "electric_scooter", "lon": -77.02336716666667, "bike_id": "7e8966bdd59d6dd0e01eb54e404f4352", "fusion_lat": 0.0, "name": "7e8966bdd59d6dd0e01eb54e404f4352", "is_reserved": 0, "rental_uris": {"android": "https://dc.lft.to/lastmile_qr_scan", "ios": "https://dc.lft.to/lastmile_qr_scan"}, "fusion_lon": 0.0}, {"lat": 38.91709766666666, "is_disabled": 0, "type": "electric_scooter", "lon": -77.03379133333334, "bike_id": "d121ae1677fa51dbd88b57795e195300", "fusion_lat": 0.0, "name": "d121ae1677fa51dbd88b57795e195300", "is_reserved": 0, "rental_uris": {"android": "https://dc.lft.to/lastmile_qr_scan", "ios": "https://dc.lft.to/lastmile_qr_scan"}, "fusion_lon": 0.0}, {"lat": 38.90505616666667, "is_disabled": 0, "type": "electric_scooter", "lon": -77.02948916666666, "bike_id": "6e3c0e179e9a9eaeecbe5c09ee76ba25", "fusion_lat": 0.0, "name": "6e3c0e179e9a9eaeecbe5c09ee76ba25", "is_reserved": 0, "rental_uris": {"android": "https://dc.lft.to/lastmile_qr_scan", "ios": "https://dc.lft.to/lastmile_qr_scan"}, "fusion_lon": 0.0}, {"lat": 38.91060133333333, "is_disabled": 0, "type": "electric_scooter", "lon": -77.05252833333333, "bike_id": "e14013215ac4896e363cfcad54f86079", "fusion_lat": 0.0, "name": "e14013215ac4896e363cfcad54f86079", "is_reserved": 0, "rental_uris": {"android": "https://dc.lft.to/lastmile_qr_scan", "ios": "https://dc.lft.to/lastmile_qr_scan"}, "fusion_lon": 0.0}, {"lat": 38.919423, "is_disabled": 0, "type": "electric_scooter", "lon": -77.07081416666666, "bike_id": "082700ebf28a5f4ca9e4cd29ff7d3b4c", "fusion_lat": 0.0, "name": "082700ebf28a5f4ca9e4cd29ff7d3b4c", "is_reserved": 0, "rental_uris": {"android": "https://dc.lft.to/lastmile_qr_scan", "ios": "https://dc.lft.to/lastmile_qr_scan"}, "fusion_lon": 0.0}, {"lat": 38.91124383333333, "is_disabled": 0, "type": "electric_scooter", "lon": -77.03838383333333, "bike_id": "8c9945aa0e6f5b1141a16c244dd58df8", "fusion_lat": 0.0, "name": "8c9945aa0e6f5b1141a16c244dd58df8", "is_reserved": 0, "rental_uris": {"android": "https://dc.lft.to/lastmile_qr_scan", "ios": "https://dc.lft.to/lastmile_qr_scan"}, "fusion_lon": 0.0}, {"lat": 38.89560433333333, "is_disabled": 0, "type": "electric_scooter", "lon": -77.003633, "bike_id": "7af8e4249c332b6f0ad336a5a5418bda", "fusion_lat": 0.0, "name": "7af8e4249c332b6f0ad336a5a5418bda", "is_reserved": 0, "rental_uris": {"android": "https://dc.lft.to/lastmile_qr_scan", "ios": "https://dc.lft.to/lastmile_qr_scan"}, "fusion_lon": 0.0}, {"lat": 38.91654033333333, "is_disabled": 0, "type": "electric_scooter", "lon": -77.0220475, "bike_id": "3e1e8fbee53f461c6592f5c836c14321", "fusion_lat": 0.0, "name": "3e1e8fbee53f461c6592f5c836c14321", "is_reserved": 0, "rental_uris": {"android": "https://dc.lft.to/lastmile_qr_scan", "ios": "https://dc.lft.to/lastmile_qr_scan"}, "fusion_lon": 0.0}, {"lat": 38.911229, "is_disabled": 0, "type": "electric_scooter", "lon": -77.02422416666667, "bike_id": "59d834c45e5c1644cf224958dd812a26", "fusion_lat": 0.0, "name": "59d834c45e5c1644cf224958dd812a26", "is_reserved": 0, "rental_uris": {"android": "https://dc.lft.to/lastmile_qr_scan", "ios": "https://dc.lft.to/lastmile_qr_scan"}, "fusion_lon": 0.0}, {"lat": 38.94247816666667, "is_disabled": 0, "type": "electric_scooter", "lon": -77.03582333333334, "bike_id": "b5ac5f80b8276e5c03982a1183dfdbdc", "fusion_lat": 0.0, "name": "b5ac5f80b8276e5c03982a1183dfdbdc", "is_reserved": 0, "rental_uris": {"android": "https://dc.lft.to/lastmile_qr_scan", "ios": "https://dc.lft.to/lastmile_qr_scan"}, "fusion_lon": 0.0}, {"lat": 38.907877, "is_disabled": 0, "type": "electric_scooter", "lon": -77.022059, "bike_id": "c34fb95ba4704c03b87fa5f281b258f4", "fusion_lat": 0.0, "name": "c34fb95ba4704c03b87fa5f281b258f4", "is_reserved": 0, "rental_uris": {"android": "https://dc.lft.to/lastmile_qr_scan", "ios": "https://dc.lft.to/lastmile_qr_scan"}, "fusion_lon": 0.0}, {"lat": 38.903782, "is_disabled": 0, "type": "electric_scooter", "lon": -77.03326216666666, "bike_id": "f723a0f9fb075bcfc9c8f54455215a27", "fusion_lat": 0.0, "name": "f723a0f9fb075bcfc9c8f54455215a27", "is_reserved": 0, "rental_uris": {"android": "https://dc.lft.to/lastmile_qr_scan", "ios": "https://dc.lft.to/lastmile_qr_scan"}, "fusion_lon": 0.0}, {"lat": 38.92778033333333, "is_disabled": 0, "type": "electric_scooter", "lon": -77.023173, "bike_id": "f54d8d2a317749e5819d06563811c2d0", "fusion_lat": 0.0, "name": "f54d8d2a317749e5819d06563811c2d0", "is_reserved": 0, "rental_uris": {"android": "https://dc.lft.to/lastmile_qr_scan", "ios": "https://dc.lft.to/lastmile_qr_scan"}, "fusion_lon": 0.0}, {"lat": 38.89497183333334, "is_disabled": 0, "type": "electric_scooter", "lon": -77.002099, "bike_id": "095714bd2d5f0a39c268c637be5c53bc", "fusion_lat": 0.0, "name": "095714bd2d5f0a39c268c637be5c53bc", "is_reserved": 0, "rental_uris": {"android": "https://dc.lft.to/lastmile_qr_scan", "ios": "https://dc.lft.to/lastmile_qr_scan"}, "fusion_lon": 0.0}, {"lat": 38.920361666666665, "is_disabled": 0, "type": "electric_scooter", "lon": -77.0132465, "bike_id": "6a2aa6312686823a98b9421370b476cb", "fusion_lat": 0.0, "name": "6a2aa6312686823a98b9421370b476cb", "is_reserved": 0, "rental_uris": {"android": "https://dc.lft.to/lastmile_qr_scan", "ios": "https://dc.lft.to/lastmile_qr_scan"}, "fusion_lon": 0.0}, {"lat": 38.9516345, "is_disabled": 0, "type": "electric_scooter", "lon": -77.06768983333333, "bike_id": "b77f9feafe7034938bc7677fefeaff1a", "fusion_lat": 0.0, "name": "b77f9feafe7034938bc7677fefeaff1a", "is_reserved": 0, "rental_uris": {"android": "https://dc.lft.to/lastmile_qr_scan", "ios": "https://dc.lft.to/lastmile_qr_scan"}, "fusion_lon": 0.0}, {"lat": 38.99820833333333, "is_disabled": 0, "type": "electric_bike", "lon": -76.88378316666666, "bike_id": "bc5330b69969ec93f9db2523e1fed286", "fusion_lat": 0.0, "name": "bc5330b69969ec93f9db2523e1fed286", "is_reserved": 0, "rental_uris": {"android": "https://dc.lft.to/lastmile_qr_scan", "ios": "https://dc.lft.to/lastmile_qr_scan"}, "fusion_lon": 0.0}, {"lat": 38.916904333333335, "is_disabled": 0, "type": "electric_scooter", "lon": -77.02695666666666, "bike_id": "439220d73172eb67e05ec1b58cc0363d", "fusion_lat": 0.0, "name": "439220d73172eb67e05ec1b58cc0363d", "is_reserved": 0, "rental_uris": {"android": "https://dc.lft.to/lastmile_qr_scan", "ios": "https://dc.lft.to/lastmile_qr_scan"}, "fusion_lon": 0.0}, {"lat": 38.916954833333335, "is_disabled": 0, "type": "electric_scooter", "lon": -77.03214283333334, "bike_id": "52bfcfe60303500e4b617538ab78efbf", "fusion_lat": 0.0, "name": "52bfcfe60303500e4b617538ab78efbf", "is_reserved": 0, "rental_uris": {"android": "https://dc.lft.to/lastmile_qr_scan", "ios": "https://dc.lft.to/lastmile_qr_scan"}, "fusion_lon": 0.0}, {"lat": 39.024367166666664, "is_disabled": 0, "type": "electric_bike", "lon": -77.131002, "bike_id": "9f6b22ab8c9de60ffb01936c8fd9ab55", "fusion_lat": 0.0, "name": "9f6b22ab8c9de60ffb01936c8fd9ab55", "is_reserved": 0, "rental_uris": {"android": "https://dc.lft.to/lastmile_qr_scan", "ios": "https://dc.lft.to/lastmile_qr_scan"}, "fusion_lon": 0.0}, {"lat": 38.90141, "is_disabled": 0, "type": "electric_scooter", "lon": -77.02901816666666, "bike_id": "3aa9ec9a52a44b756ab3da4d9968d9a7", "fusion_lat": 0.0, "name": "3aa9ec9a52a44b756ab3da4d9968d9a7", "is_reserved": 0, "rental_uris": {"android": "https://dc.lft.to/lastmile_qr_scan", "ios": "https://dc.lft.to/lastmile_qr_scan"}, "fusion_lon": 0.0}, {"lat": 38.92119016666667, "is_disabled": 0, "type": "electric_scooter", "lon": -77.01776266666667, "bike_id": "88d1b14264b5ada465d3dd3b8a3f7eec", "fusion_lat": 0.0, "name": "88d1b14264b5ada465d3dd3b8a3f7eec", "is_reserved": 0, "rental_uris": {"android": "https://dc.lft.to/lastmile_qr_scan", "ios": "https://dc.lft.to/lastmile_qr_scan"}, "fusion_lon": 0.0}, {"lat": 38.921691833333334, "is_disabled": 0, "type": "electric_scooter", "lon": -77.0423275, "bike_id": "4af727db6f78d553d8c78d08b7d5610a", "fusion_lat": 0.0, "name": "4af727db6f78d553d8c78d08b7d5610a", "is_reserved": 0, "rental_uris": {"android": "https://dc.lft.to/lastmile_qr_scan", "ios": "https://dc.lft.to/lastmile_qr_scan"}, "fusion_lon": 0.0}, {"lat": 38.9497585, "is_disabled": 0, "type": "electric_scooter", "lon": -77.06766483333334, "bike_id": "f725ae816984e20936733f5def419d7c", "fusion_lat": 0.0, "name": "f725ae816984e20936733f5def419d7c", "is_reserved": 0, "rental_uris": {"android": "https://dc.lft.to/lastmile_qr_scan", "ios": "https://dc.lft.to/lastmile_qr_scan"}, "fusion_lon": 0.0}, {"lat": 39.030485166666665, "is_disabled": 0, "type": "electric_bike", "lon": -77.09484983333333, "bike_id": "8f0971fdf2c4364e6ba63437c9ed35b7", "fusion_lat": 0.0, "name": "8f0971fdf2c4364e6ba63437c9ed35b7", "is_reserved": 0, "rental_uris": {"android": "https://dc.lft.to/lastmile_qr_scan", "ios": "https://dc.lft.to/lastmile_qr_scan"}, "fusion_lon": 0.0}, {"lat": 38.86701883333333, "is_disabled": 0, "type": "electric_scooter", "lon": -76.98711466666667, "bike_id": "085f0adeb8efa1ac16286a01ca3bed7f", "fusion_lat": 0.0, "name": "085f0adeb8efa1ac16286a01ca3bed7f", "is_reserved": 0, "rental_uris": {"android": "https://dc.lft.to/lastmile_qr_scan", "ios": "https://dc.lft.to/lastmile_qr_scan"}, "fusion_lon": 0.0}, {"lat": 38.93625216666667, "is_disabled": 0, "type": "electric_scooter", "lon": -77.05749766666666, "bike_id": "3c47f659f68eecd2de26e0f0d828e217", "fusion_lat": 0.0, "name": "3c47f659f68eecd2de26e0f0d828e217", "is_reserved": 0, "rental_uris": {"android": "https://dc.lft.to/lastmile_qr_scan", "ios": "https://dc.lft.to/lastmile_qr_scan"}, "fusion_lon": 0.0}, {"lat": 38.8799435, "is_disabled": 0, "type": "electric_scooter", "lon": -76.98684816666666, "bike_id": "260741c9ea42be02b684897c6b83c87e", "fusion_lat": 0.0, "name": "260741c9ea42be02b684897c6b83c87e", "is_reserved": 0, "rental_uris": {"android": "https://dc.lft.to/lastmile_qr_scan", "ios": "https://dc.lft.to/lastmile_qr_scan"}, "fusion_lon": 0.0}, {"lat": 38.94326433333333, "is_disabled": 0, "type": "electric_scooter", "lon": -77.07382783333334, "bike_id": "2ec67af50818db2f5731e31d580a0474", "fusion_lat": 0.0, "name": "2ec67af50818db2f5731e31d580a0474", "is_reserved": 0, "rental_uris": {"android": "https://dc.lft.to/lastmile_qr_scan", "ios": "https://dc.lft.to/lastmile_qr_scan"}, "fusion_lon": 0.0}, {"lat": 38.93252316666667, "is_disabled": 0, "type": "electric_scooter", "lon": -77.06655, "bike_id": "055a86cc238751d3e4aaac6f0151a63c", "fusion_lat": 0.0, "name": "055a86cc238751d3e4aaac6f0151a63c", "is_reserved": 0, "rental_uris": {"android": "https://dc.lft.to/lastmile_qr_scan", "ios": "https://dc.lft.to/lastmile_qr_scan"}, "fusion_lon": 0.0}, {"lat": 38.911205833333334, "is_disabled": 0, "type": "electric_scooter", "lon": -77.03249283333334, "bike_id": "19811d70e7884f989770f49813f85666", "fusion_lat": 0.0, "name": "19811d70e7884f989770f49813f85666", "is_reserved": 0, "rental_uris": {"android": "https://dc.lft.to/lastmile_qr_scan", "ios": "https://dc.lft.to/lastmile_qr_scan"}, "fusion_lon": 0.0}, {"lat": 38.90043166666667, "is_disabled": 0, "type": "electric_scooter", "lon": -76.9938205, "bike_id": "85f79ba21cb55b43afbb9a52790a67b9", "fusion_lat": 0.0, "name": "85f79ba21cb55b43afbb9a52790a67b9", "is_reserved": 0, "rental_uris": {"android": "https://dc.lft.to/lastmile_qr_scan", "ios": "https://dc.lft.to/lastmile_qr_scan"}, "fusion_lon": 0.0}, {"lat": 38.937655166666666, "is_disabled": 0, "type": "electric_scooter", "lon": -77.03141633333334, "bike_id": "c8ed4bc9c2a9a927120588a66abb2929", "fusion_lat": 0.0, "name": "c8ed4bc9c2a9a927120588a66abb2929", "is_reserved": 0, "rental_uris": {"android": "https://dc.lft.to/lastmile_qr_scan", "ios": "https://dc.lft.to/lastmile_qr_scan"}, "fusion_lon": 0.0}, {"lat": 38.80747066666667, "is_disabled": 0, "type": "electric_bike", "lon": -77.09431, "bike_id": "27477fb0c050d6f1c648cea817d1c542", "fusion_lat": 0.0, "name": "27477fb0c050d6f1c648cea817d1c542", "is_reserved": 0, "rental_uris": {"android": "https://dc.lft.to/lastmile_qr_scan", "ios": "https://dc.lft.to/lastmile_qr_scan"}, "fusion_lon": 0.0}, {"lat": 38.920615166666664, "is_disabled": 0, "type": "electric_scooter", "lon": -76.97613066666666, "bike_id": "dcafcb453a1aa999e1e9d1b8f965305e", "fusion_lat": 0.0, "name": "dcafcb453a1aa999e1e9d1b8f965305e", "is_reserved": 0, "rental_uris": {"android": "https://dc.lft.to/lastmile_qr_scan", "ios": "https://dc.lft.to/lastmile_qr_scan"}, "fusion_lon": 0.0}, {"lat": 38.921981333333335, "is_disabled": 0, "type": "electric_scooter", "lon": -77.041328, "bike_id": "7f1cc6d77d1a543e796c4af0318300c5", "fusion_lat": 0.0, "name": "7f1cc6d77d1a543e796c4af0318300c5", "is_reserved": 0, "rental_uris": {"android": "https://dc.lft.to/lastmile_qr_scan", "ios": "https://dc.lft.to/lastmile_qr_scan"}, "fusion_lon": 0.0}, {"lat": 38.91486066666667, "is_disabled": 0, "type": "electric_scooter", "lon": -77.032573, "bike_id": "04c8a4cbe9210e88de6745cd2254c32e", "fusion_lat": 0.0, "name": "04c8a4cbe9210e88de6745cd2254c32e", "is_reserved": 0, "rental_uris": {"android": "https://dc.lft.to/lastmile_qr_scan", "ios": "https://dc.lft.to/lastmile_qr_scan"}, "fusion_lon": 0.0}, {"lat": 38.938741666666665, "is_disabled": 0, "type": "electric_scooter", "lon": -77.024447, "bike_id": "008a6c3b36c22e9ff1a7081561f49be4", "fusion_lat": 0.0, "name": "008a6c3b36c22e9ff1a7081561f49be4", "is_reserved": 0, "rental_uris": {"android": "https://dc.lft.to/lastmile_qr_scan", "ios": "https://dc.lft.to/lastmile_qr_scan"}, "fusion_lon": 0.0}, {"lat": 38.90805783333333, "is_disabled": 0, "type": "electric_scooter", "lon": -77.0636485, "bike_id": "60e029e417c27dcbd935a2af114d3108", "fusion_lat": 0.0, "name": "60e029e417c27dcbd935a2af114d3108", "is_reserved": 0, "rental_uris": {"android": "https://dc.lft.to/lastmile_qr_scan", "ios": "https://dc.lft.to/lastmile_qr_scan"}, "fusion_lon": 0.0}, {"lat": 38.928545, "is_disabled": 0, "type": "electric_bike", "lon": -77.10678416666667, "bike_id": "24aa03d881707e4e67122eb0e1cb9539", "fusion_lat": 0.0, "name": "24aa03d881707e4e67122eb0e1cb9539", "is_reserved": 0, "rental_uris": {"android": "https://dc.lft.to/lastmile_qr_scan", "ios": "https://dc.lft.to/lastmile_qr_scan"}, "fusion_lon": 0.0}, {"lat": 38.925346, "is_disabled": 0, "type": "electric_scooter", "lon": -77.04428033333333, "bike_id": "f186514e929e2f14caba9195f5a1452a", "fusion_lat": 0.0, "name": "f186514e929e2f14caba9195f5a1452a", "is_reserved": 0, "rental_uris": {"android": "https://dc.lft.to/lastmile_qr_scan", "ios": "https://dc.lft.to/lastmile_qr_scan"}, "fusion_lon": 0.0}, {"lat": 38.88491883333333, "is_disabled": 0, "type": "electric_scooter", "lon": -77.034773, "bike_id": "2a263763ee5fca94d26a7e01d54723f7", "fusion_lat": 0.0, "name": "2a263763ee5fca94d26a7e01d54723f7", "is_reserved": 0, "rental_uris": {"android": "https://dc.lft.to/lastmile_qr_scan", "ios": "https://dc.lft.to/lastmile_qr_scan"}, "fusion_lon": 0.0}, {"lat": 38.894955, "is_disabled": 0, "type": "electric_scooter", "lon": -77.023806, "bike_id": "54b2cd4e6c7053dcff2ad0a4756963f9", "fusion_lat": 0.0, "name": "54b2cd4e6c7053dcff2ad0a4756963f9", "is_reserved": 0, "rental_uris": {"android": "https://dc.lft.to/lastmile_qr_scan", "ios": "https://dc.lft.to/lastmile_qr_scan"}, "fusion_lon": 0.0}, {"lat": 38.9072595, "is_disabled": 0, "type": "electric_scooter", "lon": -77.04786016666667, "bike_id": "4edb08359f79acd939207bd72ea3db93", "fusion_lat": 0.0, "name": "4edb08359f79acd939207bd72ea3db93", "is_reserved": 0, "rental_uris": {"android": "https://dc.lft.to/lastmile_qr_scan", "ios": "https://dc.lft.to/lastmile_qr_scan"}, "fusion_lon": 0.0}, {"lat": 38.9225405, "is_disabled": 0, "type": "electric_scooter", "lon": -77.03081916666666, "bike_id": "0ecda2033c10209038761655ee9010d9", "fusion_lat": 0.0, "name": "0ecda2033c10209038761655ee9010d9", "is_reserved": 0, "rental_uris": {"android": "https://dc.lft.to/lastmile_qr_scan", "ios": "https://dc.lft.to/lastmile_qr_scan"}, "fusion_lon": 0.0}, {"lat": 38.9184535, "is_disabled": 0, "type": "electric_bike", "lon": -77.022989, "bike_id": "5008037946d7c541742b3dced3e89c6b", "fusion_lat": 0.0, "name": "5008037946d7c541742b3dced3e89c6b", "is_reserved": 0, "rental_uris": {"android": "https://dc.lft.to/lastmile_qr_scan", "ios": "https://dc.lft.to/lastmile_qr_scan"}, "fusion_lon": 0.0}, {"lat": 38.941770166666664, "is_disabled": 0, "type": "electric_scooter", "lon": -77.032779, "bike_id": "241dcdea2563545850941ae5f87de1ce", "fusion_lat": 0.0, "name": "241dcdea2563545850941ae5f87de1ce", "is_reserved": 0, "rental_uris": {"android": "https://dc.lft.to/lastmile_qr_scan", "ios": "https://dc.lft.to/lastmile_qr_scan"}, "fusion_lon": 0.0}, {"lat": 38.902504666666665, "is_disabled": 0, "type": "electric_scooter", "lon": -77.0260505, "bike_id": "25abc29a5e5111778ec6405701ca052e", "fusion_lat": 0.0, "name": "25abc29a5e5111778ec6405701ca052e", "is_reserved": 0, "rental_uris": {"android": "https://dc.lft.to/lastmile_qr_scan", "ios": "https://dc.lft.to/lastmile_qr_scan"}, "fusion_lon": 0.0}, {"lat": 38.94162166666667, "is_disabled": 0, "type": "electric_scooter", "lon": -77.03282366666667, "bike_id": "0818b1fa8d8b8072dc1b0e03a44b11cc", "fusion_lat": 0.0, "name": "0818b1fa8d8b8072dc1b0e03a44b11cc", "is_reserved": 0, "rental_uris": {"android": "https://dc.lft.to/lastmile_qr_scan", "ios": "https://dc.lft.to/lastmile_qr_scan"}, "fusion_lon": 0.0}, {"lat": 38.87343166666667, "is_disabled": 0, "type": "electric_scooter", "lon": -76.991638, "bike_id": "3f9931f45f4f1cf9004a244373938589", "fusion_lat": 0.0, "name": "3f9931f45f4f1cf9004a244373938589", "is_reserved": 0, "rental_uris": {"android": "https://dc.lft.to/lastmile_qr_scan", "ios": "https://dc.lft.to/lastmile_qr_scan"}, "fusion_lon": 0.0}, {"lat": 38.95073633333333, "is_disabled": 0, "type": "electric_scooter", "lon": -77.06662116666666, "bike_id": "92754c5a2b39e5dca6c443923847b379", "fusion_lat": 0.0, "name": "92754c5a2b39e5dca6c443923847b379", "is_reserved": 0, "rental_uris": {"android": "https://dc.lft.to/lastmile_qr_scan", "ios": "https://dc.lft.to/lastmile_qr_scan"}, "fusion_lon": 0.0}, {"lat": 38.90120833333334, "is_disabled": 0, "type": "electric_scooter", "lon": -77.03314466666667, "bike_id": "400f91d8a78f14dd40683445bc4f0c80", "fusion_lat": 0.0, "name": "400f91d8a78f14dd40683445bc4f0c80", "is_reserved": 0, "rental_uris": {"android": "https://dc.lft.to/lastmile_qr_scan", "ios": "https://dc.lft.to/lastmile_qr_scan"}, "fusion_lon": 0.0}, {"lat": 38.90367483333333, "is_disabled": 0, "type": "electric_scooter", "lon": -77.04343966666667, "bike_id": "698cb4124bb1f463e6c484bf5f0487ee", "fusion_lat": 0.0, "name": "698cb4124bb1f463e6c484bf5f0487ee", "is_reserved": 0, "rental_uris": {"android": "https://dc.lft.to/lastmile_qr_scan", "ios": "https://dc.lft.to/lastmile_qr_scan"}, "fusion_lon": 0.0}, {"lat": 38.876332166666664, "is_disabled": 0, "type": "electric_scooter", "lon": -76.96526266666666, "bike_id": "c819d46f7650d853b40b3f91a8b11c67", "fusion_lat": 0.0, "name": "c819d46f7650d853b40b3f91a8b11c67", "is_reserved": 0, "rental_uris": {"android": "https://dc.lft.to/lastmile_qr_scan", "ios": "https://dc.lft.to/lastmile_qr_scan"}, "fusion_lon": 0.0}, {"lat": 38.9006325, "is_disabled": 0, "type": "electric_scooter", "lon": -77.04406683333333, "bike_id": "968c2057104aaef1f5637f03336409d7", "fusion_lat": 0.0, "name": "968c2057104aaef1f5637f03336409d7", "is_reserved": 0, "rental_uris": {"android": "https://dc.lft.to/lastmile_qr_scan", "ios": "https://dc.lft.to/lastmile_qr_scan"}, "fusion_lon": 0.0}, {"lat": 38.905786166666665, "is_disabled": 0, "type": "electric_scooter", "lon": -77.0486525, "bike_id": "fd5ae777f35292145e07287af96e5121", "fusion_lat": 0.0, "name": "fd5ae777f35292145e07287af96e5121", "is_reserved": 0, "rental_uris": {"android": "https://dc.lft.to/lastmile_qr_scan", "ios": "https://dc.lft.to/lastmile_qr_scan"}, "fusion_lon": 0.0}, {"lat": 38.901047166666665, "is_disabled": 0, "type": "electric_scooter", "lon": -77.00371216666667, "bike_id": "143bd7c811fffa5b98ae0bdcb2265bab", "fusion_lat": 0.0, "name": "143bd7c811fffa5b98ae0bdcb2265bab", "is_reserved": 0, "rental_uris": {"android": "https://dc.lft.to/lastmile_qr_scan", "ios": "https://dc.lft.to/lastmile_qr_scan"}, "fusion_lon": 0.0}, {"lat": 38.917868166666665, "is_disabled": 0, "type": "electric_bike", "lon": -76.97186833333333, "bike_id": "58bebd271bc3143bfd98fb11704c07c3", "fusion_lat": 0.0, "name": "58bebd271bc3143bfd98fb11704c07c3", "is_reserved": 0, "rental_uris": {"android": "https://dc.lft.to/lastmile_qr_scan", "ios": "https://dc.lft.to/lastmile_qr_scan"}, "fusion_lon": 0.0}, {"lat": 38.86708483333334, "is_disabled": 0, "type": "electric_scooter", "lon": -76.98711083333333, "bike_id": "5a7a4d3e9380e5931900e672a7521eef", "fusion_lat": 0.0, "name": "5a7a4d3e9380e5931900e672a7521eef", "is_reserved": 0, "rental_uris": {"android": "https://dc.lft.to/lastmile_qr_scan", "ios": "https://dc.lft.to/lastmile_qr_scan"}, "fusion_lon": 0.0}, {"lat": 38.8616885, "is_disabled": 0, "type": "electric_bike", "lon": -77.13143783333334, "bike_id": "f4a446e3d3a78dfc8d4746c396db4359", "fusion_lat": 0.0, "name": "f4a446e3d3a78dfc8d4746c396db4359", "is_reserved": 0, "rental_uris": {"android": "https://dc.lft.to/lastmile_qr_scan", "ios": "https://dc.lft.to/lastmile_qr_scan"}, "fusion_lon": 0.0}, {"lat": 38.92153616666667, "is_disabled": 0, "type": "electric_scooter", "lon": -77.03393716666666, "bike_id": "10580f194577753783026bfe8b24cee8", "fusion_lat": 0.0, "name": "10580f194577753783026bfe8b24cee8", "is_reserved": 0, "rental_uris": {"android": "https://dc.lft.to/lastmile_qr_scan", "ios": "https://dc.lft.to/lastmile_qr_scan"}, "fusion_lon": 0.0}, {"lat": 38.927360666666665, "is_disabled": 0, "type": "electric_bike", "lon": -77.01340366666666, "bike_id": "bd2f0c258743697ec01c6355d24d8249", "fusion_lat": 0.0, "name": "bd2f0c258743697ec01c6355d24d8249", "is_reserved": 0, "rental_uris": {"android": "https://dc.lft.to/lastmile_qr_scan", "ios": "https://dc.lft.to/lastmile_qr_scan"}, "fusion_lon": 0.0}, {"lat": 38.910149, "is_disabled": 0, "type": "electric_scooter", "lon": -77.0889635, "bike_id": "0f749d24084913aad8b6137c9a32e813", "fusion_lat": 0.0, "name": "0f749d24084913aad8b6137c9a32e813", "is_reserved": 0, "rental_uris": {"android": "https://dc.lft.to/lastmile_qr_scan", "ios": "https://dc.lft.to/lastmile_qr_scan"}, "fusion_lon": 0.0}, {"lat": 38.9341645, "is_disabled": 0, "type": "electric_bike", "lon": -77.02514183333334, "bike_id": "2dd37dd1ce5df65689b3b704a2f8e3ca", "fusion_lat": 0.0, "name": "2dd37dd1ce5df65689b3b704a2f8e3ca", "is_reserved": 0, "rental_uris": {"android": "https://dc.lft.to/lastmile_qr_scan", "ios": "https://dc.lft.to/lastmile_qr_scan"}, "fusion_lon": 0.0}, {"lat": 38.90717016666667, "is_disabled": 0, "type": "electric_scooter", "lon": -76.9981775, "bike_id": "30a51ca53258efc27a209e59f6d8b6b5", "fusion_lat": 0.0, "name": "30a51ca53258efc27a209e59f6d8b6b5", "is_reserved": 0, "rental_uris": {"android": "https://dc.lft.to/lastmile_qr_scan", "ios": "https://dc.lft.to/lastmile_qr_scan"}, "fusion_lon": 0.0}, {"lat": 38.960213833333334, "is_disabled": 0, "type": "electric_bike", "lon": -77.01729716666667, "bike_id": "5f73fc90d358566c978e44470785f19b", "fusion_lat": 0.0, "name": "5f73fc90d358566c978e44470785f19b", "is_reserved": 0, "rental_uris": {"android": "https://dc.lft.to/lastmile_qr_scan", "ios": "https://dc.lft.to/lastmile_qr_scan"}, "fusion_lon": 0.0}, {"lat": 39.029355333333335, "is_disabled": 0, "type": "electric_bike", "lon": -77.04928533333333, "bike_id": "7f6336dc5018e54a8a7534c9586fbb38", "fusion_lat": 0.0, "name": "7f6336dc5018e54a8a7534c9586fbb38", "is_reserved": 0, "rental_uris": {"android": "https://dc.lft.to/lastmile_qr_scan", "ios": "https://dc.lft.to/lastmile_qr_scan"}, "fusion_lon": 0.0}, {"lat": 38.973514333333334, "is_disabled": 0, "type": "electric_scooter", "lon": -77.0178675, "bike_id": "d64894009c5574b1d46024043d6f82c5", "fusion_lat": 0.0, "name": "d64894009c5574b1d46024043d6f82c5", "is_reserved": 0, "rental_uris": {"android": "https://dc.lft.to/lastmile_qr_scan", "ios": "https://dc.lft.to/lastmile_qr_scan"}, "fusion_lon": 0.0}, {"lat": 38.92303416666667, "is_disabled": 0, "type": "electric_scooter", "lon": -77.04144616666666, "bike_id": "e4919f5f58d49b83680ba2ad04e55025", "fusion_lat": 0.0, "name": "e4919f5f58d49b83680ba2ad04e55025", "is_reserved": 0, "rental_uris": {"android": "https://dc.lft.to/lastmile_qr_scan", "ios": "https://dc.lft.to/lastmile_qr_scan"}, "fusion_lon": 0.0}, {"lat": 38.8849675, "is_disabled": 0, "type": "electric_scooter", "lon": -77.00710216666667, "bike_id": "2f6391c3b14a57a197791ec07e2e4c57", "fusion_lat": 0.0, "name": "2f6391c3b14a57a197791ec07e2e4c57", "is_reserved": 0, "rental_uris": {"android": "https://dc.lft.to/lastmile_qr_scan", "ios": "https://dc.lft.to/lastmile_qr_scan"}, "fusion_lon": 0.0}, {"lat": 38.9109545, "is_disabled": 0, "type": "electric_bike", "lon": -77.0876715, "bike_id": "2996cfff3bdfc0f341c99e985bd5a95d", "fusion_lat": 0.0, "name": "2996cfff3bdfc0f341c99e985bd5a95d", "is_reserved": 0, "rental_uris": {"android": "https://dc.lft.to/lastmile_qr_scan", "ios": "https://dc.lft.to/lastmile_qr_scan"}, "fusion_lon": 0.0}, {"lat": 38.90975016666667, "is_disabled": 0, "type": "electric_scooter", "lon": -77.03438266666667, "bike_id": "7011827788768b71959ea35c077aa62d", "fusion_lat": 0.0, "name": "7011827788768b71959ea35c077aa62d", "is_reserved": 0, "rental_uris": {"android": "https://dc.lft.to/lastmile_qr_scan", "ios": "https://dc.lft.to/lastmile_qr_scan"}, "fusion_lon": 0.0}, {"lat": 38.8847285, "is_disabled": 0, "type": "electric_scooter", "lon": -76.992595, "bike_id": "f4d3cef1e1c7581b7eb394e416556ebb", "fusion_lat": 0.0, "name": "f4d3cef1e1c7581b7eb394e416556ebb", "is_reserved": 0, "rental_uris": {"android": "https://dc.lft.to/lastmile_qr_scan", "ios": "https://dc.lft.to/lastmile_qr_scan"}, "fusion_lon": 0.0}, {"lat": 38.9272535, "is_disabled": 0, "type": "electric_scooter", "lon": -77.0227945, "bike_id": "2028eabc179b0eaf5bc4763fc269fc8b", "fusion_lat": 0.0, "name": "2028eabc179b0eaf5bc4763fc269fc8b", "is_reserved": 0, "rental_uris": {"android": "https://dc.lft.to/lastmile_qr_scan", "ios": "https://dc.lft.to/lastmile_qr_scan"}, "fusion_lon": 0.0}, {"lat": 38.80757066666666, "is_disabled": 0, "type": "electric_bike", "lon": -77.0947945, "bike_id": "d17f76585b4ed195cf886b2c4836f896", "fusion_lat": 0.0, "name": "d17f76585b4ed195cf886b2c4836f896", "is_reserved": 0, "rental_uris": {"android": "https://dc.lft.to/lastmile_qr_scan", "ios": "https://dc.lft.to/lastmile_qr_scan"}, "fusion_lon": 0.0}, {"lat": 38.919942, "is_disabled": 0, "type": "electric_scooter", "lon": -76.97309666666666, "bike_id": "ff64c564ee73480ff9cd54dc75fbee8b", "fusion_lat": 0.0, "name": "ff64c564ee73480ff9cd54dc75fbee8b", "is_reserved": 0, "rental_uris": {"android": "https://dc.lft.to/lastmile_qr_scan", "ios": "https://dc.lft.to/lastmile_qr_scan"}, "fusion_lon": 0.0}, {"lat": 38.95331566666667, "is_disabled": 0, "type": "electric_scooter", "lon": -77.0275765, "bike_id": "f3241dbb850e32e88a6af94d1cf0ef43", "fusion_lat": 0.0, "name": "f3241dbb850e32e88a6af94d1cf0ef43", "is_reserved": 0, "rental_uris": {"android": "https://dc.lft.to/lastmile_qr_scan", "ios": "https://dc.lft.to/lastmile_qr_scan"}, "fusion_lon": 0.0}, {"lat": 38.900281166666666, "is_disabled": 0, "type": "electric_scooter", "lon": -77.031417, "bike_id": "0b92d52f038991affc0fd0c8f99f18ad", "fusion_lat": 0.0, "name": "0b92d52f038991affc0fd0c8f99f18ad", "is_reserved": 0, "rental_uris": {"android": "https://dc.lft.to/lastmile_qr_scan", "ios": "https://dc.lft.to/lastmile_qr_scan"}, "fusion_lon": 0.0}, {"lat": 38.895798, "is_disabled": 0, "type": "electric_bike", "lon": -77.12696166666667, "bike_id": "30f58ad169972542c29e45bbcbdc2185", "fusion_lat": 0.0, "name": "30f58ad169972542c29e45bbcbdc2185", "is_reserved": 0, "rental_uris": {"android": "https://dc.lft.to/lastmile_qr_scan", "ios": "https://dc.lft.to/lastmile_qr_scan"}, "fusion_lon": 0.0}, {"lat": 38.91564316666667, "is_disabled": 0, "type": "electric_scooter", "lon": -77.03223866666667, "bike_id": "69ab31c6a48aa086d01aa95cea0eded4", "fusion_lat": 0.0, "name": "69ab31c6a48aa086d01aa95cea0eded4", "is_reserved": 0, "rental_uris": {"android": "https://dc.lft.to/lastmile_qr_scan", "ios": "https://dc.lft.to/lastmile_qr_scan"}, "fusion_lon": 0.0}, {"lat": 38.913753666666665, "is_disabled": 0, "type": "electric_scooter", "lon": -77.06846533333334, "bike_id": "b224e7d5738a9dd4552adbbc79ba1857", "fusion_lat": 0.0, "name": "b224e7d5738a9dd4552adbbc79ba1857", "is_reserved": 0, "rental_uris": {"android": "https://dc.lft.to/lastmile_qr_scan", "ios": "https://dc.lft.to/lastmile_qr_scan"}, "fusion_lon": 0.0}, {"lat": 38.909763, "is_disabled": 0, "type": "electric_scooter", "lon": -77.03866366666666, "bike_id": "32f1e510a2a068450b3cac17d8ca4970", "fusion_lat": 0.0, "name": "32f1e510a2a068450b3cac17d8ca4970", "is_reserved": 0, "rental_uris": {"android": "https://dc.lft.to/lastmile_qr_scan", "ios": "https://dc.lft.to/lastmile_qr_scan"}, "fusion_lon": 0.0}, {"lat": 38.93210083333334, "is_disabled": 0, "type": "electric_scooter", "lon": -76.97771083333333, "bike_id": "da71afcf2f64a6bc28abf91ed88b234e", "fusion_lat": 0.0, "name": "da71afcf2f64a6bc28abf91ed88b234e", "is_reserved": 0, "rental_uris": {"android": "https://dc.lft.to/lastmile_qr_scan", "ios": "https://dc.lft.to/lastmile_qr_scan"}, "fusion_lon": 0.0}, {"lat": 38.93358633333333, "is_disabled": 0, "type": "electric_bike", "lon": -77.09965133333333, "bike_id": "b7b32d56e51ebccfc93b5fa716fa9fcb", "fusion_lat": 0.0, "name": "b7b32d56e51ebccfc93b5fa716fa9fcb", "is_reserved": 0, "rental_uris": {"android": "https://dc.lft.to/lastmile_qr_scan", "ios": "https://dc.lft.to/lastmile_qr_scan"}, "fusion_lon": 0.0}, {"lat": 38.82248, "is_disabled": 0, "type": "electric_scooter", "lon": -76.99988233333333, "bike_id": "475a314116fbb095f6ccb8fc64e98594", "fusion_lat": 0.0, "name": "475a314116fbb095f6ccb8fc64e98594", "is_reserved": 0, "rental_uris": {"android": "https://dc.lft.to/lastmile_qr_scan", "ios": "https://dc.lft.to/lastmile_qr_scan"}, "fusion_lon": 0.0}, {"lat": 38.910168166666665, "is_disabled": 0, "type": "electric_scooter", "lon": -77.04445733333333, "bike_id": "173e9233e8365077b9981139f4b1218e", "fusion_lat": 0.0, "name": "173e9233e8365077b9981139f4b1218e", "is_reserved": 0, "rental_uris": {"android": "https://dc.lft.to/lastmile_qr_scan", "ios": "https://dc.lft.to/lastmile_qr_scan"}, "fusion_lon": 0.0}, {"lat": 38.865285, "is_disabled": 0, "type": "electric_scooter", "lon": -76.990256, "bike_id": "8cb2d44c19919f5c7178e630805f3452", "fusion_lat": 0.0, "name": "8cb2d44c19919f5c7178e630805f3452", "is_reserved": 0, "rental_uris": {"android": "https://dc.lft.to/lastmile_qr_scan", "ios": "https://dc.lft.to/lastmile_qr_scan"}, "fusion_lon": 0.0}, {"lat": 38.907661, "is_disabled": 0, "type": "electric_scooter", "lon": -77.06068783333333, "bike_id": "2daeb1acfdbfebb35a27b9935a4f607e", "fusion_lat": 0.0, "name": "2daeb1acfdbfebb35a27b9935a4f607e", "is_reserved": 0, "rental_uris": {"android": "https://dc.lft.to/lastmile_qr_scan", "ios": "https://dc.lft.to/lastmile_qr_scan"}, "fusion_lon": 0.0}, {"lat": 38.813515833333334, "is_disabled": 0, "type": "electric_bike", "lon": -77.04930766666666, "bike_id": "51e20cd181bacf2ac7e845f5ff174e45", "fusion_lat": 0.0, "name": "51e20cd181bacf2ac7e845f5ff174e45", "is_reserved": 0, "rental_uris": {"android": "https://dc.lft.to/lastmile_qr_scan", "ios": "https://dc.lft.to/lastmile_qr_scan"}, "fusion_lon": 0.0}, {"lat": 38.9054155, "is_disabled": 0, "type": "electric_scooter", "lon": -77.05679433333333, "bike_id": "677debaa7bf34881a6bd195ed8e8514c", "fusion_lat": 0.0, "name": "677debaa7bf34881a6bd195ed8e8514c", "is_reserved": 0, "rental_uris": {"android": "https://dc.lft.to/lastmile_qr_scan", "ios": "https://dc.lft.to/lastmile_qr_scan"}, "fusion_lon": 0.0}, {"lat": 38.93698916666666, "is_disabled": 0, "type": "electric_scooter", "lon": -77.03261783333333, "bike_id": "383527f27db454cb4e82aa94f785e966", "fusion_lat": 0.0, "name": "383527f27db454cb4e82aa94f785e966", "is_reserved": 0, "rental_uris": {"android": "https://dc.lft.to/lastmile_qr_scan", "ios": "https://dc.lft.to/lastmile_qr_scan"}, "fusion_lon": 0.0}, {"lat": 38.911145166666664, "is_disabled": 0, "type": "electric_scooter", "lon": -77.04821066666666, "bike_id": "017693607ec77d47786b9a314fbed959", "fusion_lat": 0.0, "name": "017693607ec77d47786b9a314fbed959", "is_reserved": 0, "rental_uris": {"android": "https://dc.lft.to/lastmile_qr_scan", "ios": "https://dc.lft.to/lastmile_qr_scan"}, "fusion_lon": 0.0}, {"lat": 38.905249833333336, "is_disabled": 0, "type": "electric_scooter", "lon": -77.05013333333333, "bike_id": "30f2cd5d44e841305ad3f22564dccb8a", "fusion_lat": 0.0, "name": "30f2cd5d44e841305ad3f22564dccb8a", "is_reserved": 0, "rental_uris": {"android": "https://dc.lft.to/lastmile_qr_scan", "ios": "https://dc.lft.to/lastmile_qr_scan"}, "fusion_lon": 0.0}, {"lat": 38.923881, "is_disabled": 0, "type": "electric_scooter", "lon": -77.03059216666666, "bike_id": "06c257bf1b58962da3e892b5152f6c8e", "fusion_lat": 0.0, "name": "06c257bf1b58962da3e892b5152f6c8e", "is_reserved": 0, "rental_uris": {"android": "https://dc.lft.to/lastmile_qr_scan", "ios": "https://dc.lft.to/lastmile_qr_scan"}, "fusion_lon": 0.0}, {"lat": 38.901882666666666, "is_disabled": 0, "type": "electric_scooter", "lon": -77.0188605, "bike_id": "2dcb095a26f1503b802e5d60d750e731", "fusion_lat": 0.0, "name": "2dcb095a26f1503b802e5d60d750e731", "is_reserved": 0, "rental_uris": {"android": "https://dc.lft.to/lastmile_qr_scan", "ios": "https://dc.lft.to/lastmile_qr_scan"}, "fusion_lon": 0.0}, {"lat": 38.8551945, "is_disabled": 0, "type": "electric_bike", "lon": -76.9842555, "bike_id": "1d62c57ab26ce9d931a8c8dcf413577e", "fusion_lat": 0.0, "name": "1d62c57ab26ce9d931a8c8dcf413577e", "is_reserved": 0, "rental_uris": {"android": "https://dc.lft.to/lastmile_qr_scan", "ios": "https://dc.lft.to/lastmile_qr_scan"}, "fusion_lon": 0.0}, {"lat": 38.920516, "is_disabled": 0, "type": "electric_scooter", "lon": -77.04185916666667, "bike_id": "3cf3b934cba59bf9148098914ca88ae0", "fusion_lat": 0.0, "name": "3cf3b934cba59bf9148098914ca88ae0", "is_reserved": 0, "rental_uris": {"android": "https://dc.lft.to/lastmile_qr_scan", "ios": "https://dc.lft.to/lastmile_qr_scan"}, "fusion_lon": 0.0}, {"lat": 38.922023, "is_disabled": 0, "type": "electric_scooter", "lon": -77.05048216666667, "bike_id": "f88cfcb3484fc4c4d6bb25f92790bac6", "fusion_lat": 0.0, "name": "f88cfcb3484fc4c4d6bb25f92790bac6", "is_reserved": 0, "rental_uris": {"android": "https://dc.lft.to/lastmile_qr_scan", "ios": "https://dc.lft.to/lastmile_qr_scan"}, "fusion_lon": 0.0}, {"lat": 38.8843015, "is_disabled": 0, "type": "electric_scooter", "lon": -76.957609, "bike_id": "1e1a5bf52de9cb2f6766d4f0770925e5", "fusion_lat": 0.0, "name": "1e1a5bf52de9cb2f6766d4f0770925e5", "is_reserved": 0, "rental_uris": {"android": "https://dc.lft.to/lastmile_qr_scan", "ios": "https://dc.lft.to/lastmile_qr_scan"}, "fusion_lon": 0.0}, {"lat": 38.903651833333335, "is_disabled": 0, "type": "electric_scooter", "lon": -77.03902833333333, "bike_id": "8119f7f6cd75e18e44b88b859b6f34e7", "fusion_lat": 0.0, "name": "8119f7f6cd75e18e44b88b859b6f34e7", "is_reserved": 0, "rental_uris": {"android": "https://dc.lft.to/lastmile_qr_scan", "ios": "https://dc.lft.to/lastmile_qr_scan"}, "fusion_lon": 0.0}, {"lat": 38.897611, "is_disabled": 0, "type": "electric_scooter", "lon": -76.9418565, "bike_id": "99f590dc1b4af8b4860d96f15372ca74", "fusion_lat": 0.0, "name": "99f590dc1b4af8b4860d96f15372ca74", "is_reserved": 0, "rental_uris": {"android": "https://dc.lft.to/lastmile_qr_scan", "ios": "https://dc.lft.to/lastmile_qr_scan"}, "fusion_lon": 0.0}, {"lat": 38.9017705, "is_disabled": 0, "type": "electric_scooter", "lon": -77.02494916666667, "bike_id": "a9950f09465d8cae0c0a7e2c389b8a15", "fusion_lat": 0.0, "name": "a9950f09465d8cae0c0a7e2c389b8a15", "is_reserved": 0, "rental_uris": {"android": "https://dc.lft.to/lastmile_qr_scan", "ios": "https://dc.lft.to/lastmile_qr_scan"}, "fusion_lon": 0.0}, {"lat": 38.93875583333333, "is_disabled": 0, "type": "electric_scooter", "lon": -77.024482, "bike_id": "72fdfd2f1c55634036d5f899aed0832f", "fusion_lat": 0.0, "name": "72fdfd2f1c55634036d5f899aed0832f", "is_reserved": 0, "rental_uris": {"android": "https://dc.lft.to/lastmile_qr_scan", "ios": "https://dc.lft.to/lastmile_qr_scan"}, "fusion_lon": 0.0}, {"lat": 38.8656515, "is_disabled": 0, "type": "electric_scooter", "lon": -76.9895325, "bike_id": "f53295d98dd210122fbc1722d43d8135", "fusion_lat": 0.0, "name": "f53295d98dd210122fbc1722d43d8135", "is_reserved": 0, "rental_uris": {"android": "https://dc.lft.to/lastmile_qr_scan", "ios": "https://dc.lft.to/lastmile_qr_scan"}, "fusion_lon": 0.0}, {"lat": 38.955694, "is_disabled": 0, "type": "electric_scooter", "lon": -77.02237783333334, "bike_id": "d63844d51cced0cb10faa7d67ac3b7b6", "fusion_lat": 0.0, "name": "d63844d51cced0cb10faa7d67ac3b7b6", "is_reserved": 0, "rental_uris": {"android": "https://dc.lft.to/lastmile_qr_scan", "ios": "https://dc.lft.to/lastmile_qr_scan"}, "fusion_lon": 0.0}, {"lat": 38.9092035, "is_disabled": 0, "type": "electric_scooter", "lon": -77.03648483333333, "bike_id": "27066f01a3ccecb0f38d329f3447433b", "fusion_lat": 0.0, "name": "27066f01a3ccecb0f38d329f3447433b", "is_reserved": 0, "rental_uris": {"android": "https://dc.lft.to/lastmile_qr_scan", "ios": "https://dc.lft.to/lastmile_qr_scan"}, "fusion_lon": 0.0}, {"lat": 38.90612616666667, "is_disabled": 0, "type": "electric_scooter", "lon": -77.062966, "bike_id": "a8096a3a3a4996ca2858ba356534ff2c", "fusion_lat": 0.0, "name": "a8096a3a3a4996ca2858ba356534ff2c", "is_reserved": 0, "rental_uris": {"android": "https://dc.lft.to/lastmile_qr_scan", "ios": "https://dc.lft.to/lastmile_qr_scan"}, "fusion_lon": 0.0}, {"lat": 38.836778333333335, "is_disabled": 0, "type": "electric_scooter", "lon": -77.00570683333333, "bike_id": "d5c1be7d1e2ce45b9da13445cdd75e00", "fusion_lat": 0.0, "name": "d5c1be7d1e2ce45b9da13445cdd75e00", "is_reserved": 0, "rental_uris": {"android": "https://dc.lft.to/lastmile_qr_scan", "ios": "https://dc.lft.to/lastmile_qr_scan"}, "fusion_lon": 0.0}, {"lat": 38.939633666666666, "is_disabled": 0, "type": "electric_scooter", "lon": -77.02751633333334, "bike_id": "906700b3ce00aacd4bd95f6aa64aacc8", "fusion_lat": 0.0, "name": "906700b3ce00aacd4bd95f6aa64aacc8", "is_reserved": 0, "rental_uris": {"android": "https://dc.lft.to/lastmile_qr_scan", "ios": "https://dc.lft.to/lastmile_qr_scan"}, "fusion_lon": 0.0}, {"lat": 38.922707333333335, "is_disabled": 0, "type": "electric_scooter", "lon": -77.04308166666667, "bike_id": "697d6fc1697a1281af3ab650ccd633a9", "fusion_lat": 0.0, "name": "697d6fc1697a1281af3ab650ccd633a9", "is_reserved": 0, "rental_uris": {"android": "https://dc.lft.to/lastmile_qr_scan", "ios": "https://dc.lft.to/lastmile_qr_scan"}, "fusion_lon": 0.0}, {"lat": 38.9303265, "is_disabled": 0, "type": "electric_scooter", "lon": -77.03631016666667, "bike_id": "e698a39cbeb09514cacf7a70711d4a39", "fusion_lat": 0.0, "name": "e698a39cbeb09514cacf7a70711d4a39", "is_reserved": 0, "rental_uris": {"android": "https://dc.lft.to/lastmile_qr_scan", "ios": "https://dc.lft.to/lastmile_qr_scan"}, "fusion_lon": 0.0}, {"lat": 38.919237333333335, "is_disabled": 0, "type": "electric_scooter", "lon": -77.01339033333333, "bike_id": "290a17401c9467dd4850c1d5121fd55f", "fusion_lat": 0.0, "name": "290a17401c9467dd4850c1d5121fd55f", "is_reserved": 0, "rental_uris": {"android": "https://dc.lft.to/lastmile_qr_scan", "ios": "https://dc.lft.to/lastmile_qr_scan"}, "fusion_lon": 0.0}, {"lat": 38.87013283333334, "is_disabled": 0, "type": "electric_bike", "lon": -76.96022716666667, "bike_id": "3335624ff1ef09d351be3ce96fdbe8ad", "fusion_lat": 0.0, "name": "3335624ff1ef09d351be3ce96fdbe8ad", "is_reserved": 0, "rental_uris": {"android": "https://dc.lft.to/lastmile_qr_scan", "ios": "https://dc.lft.to/lastmile_qr_scan"}, "fusion_lon": 0.0}, {"lat": 38.953736166666665, "is_disabled": 0, "type": "electric_bike", "lon": -76.97982433333334, "bike_id": "f0db12d20d6fec85fc1a13d647fce9a9", "fusion_lat": 0.0, "name": "f0db12d20d6fec85fc1a13d647fce9a9", "is_reserved": 0, "rental_uris": {"android": "https://dc.lft.to/lastmile_qr_scan", "ios": "https://dc.lft.to/lastmile_qr_scan"}, "fusion_lon": 0.0}, {"lat": 38.90872566666667, "is_disabled": 0, "type": "electric_scooter", "lon": -77.04593633333333, "bike_id": "fc7cf284ca30fcf8f12f33dfbb299ff6", "fusion_lat": 0.0, "name": "fc7cf284ca30fcf8f12f33dfbb299ff6", "is_reserved": 0, "rental_uris": {"android": "https://dc.lft.to/lastmile_qr_scan", "ios": "https://dc.lft.to/lastmile_qr_scan"}, "fusion_lon": 0.0}, {"lat": 38.93745883333333, "is_disabled": 0, "type": "electric_scooter", "lon": -77.03620466666666, "bike_id": "dd97b7cffbf25649c0e0ff408c772332", "fusion_lat": 0.0, "name": "dd97b7cffbf25649c0e0ff408c772332", "is_reserved": 0, "rental_uris": {"android": "https://dc.lft.to/lastmile_qr_scan", "ios": "https://dc.lft.to/lastmile_qr_scan"}, "fusion_lon": 0.0}, {"lat": 38.94552983333333, "is_disabled": 0, "type": "electric_bike", "lon": -76.89536916666667, "bike_id": "478a9bcc7a84f2d556504e0226313346", "fusion_lat": 0.0, "name": "478a9bcc7a84f2d556504e0226313346", "is_reserved": 0, "rental_uris": {"android": "https://dc.lft.to/lastmile_qr_scan", "ios": "https://dc.lft.to/lastmile_qr_scan"}, "fusion_lon": 0.0}, {"lat": 38.8748755, "is_disabled": 0, "type": "electric_scooter", "lon": -77.00276716666667, "bike_id": "011aadac0b3caf231b6bc253fb8dcb63", "fusion_lat": 0.0, "name": "011aadac0b3caf231b6bc253fb8dcb63", "is_reserved": 0, "rental_uris": {"android": "https://dc.lft.to/lastmile_qr_scan", "ios": "https://dc.lft.to/lastmile_qr_scan"}, "fusion_lon": 0.0}, {"lat": 38.851878666666664, "is_disabled": 0, "type": "electric_scooter", "lon": -76.97620583333334, "bike_id": "4280676c5c46ec8a8ead1d24548c80ce", "fusion_lat": 0.0, "name": "4280676c5c46ec8a8ead1d24548c80ce", "is_reserved": 0, "rental_uris": {"android": "https://dc.lft.to/lastmile_qr_scan", "ios": "https://dc.lft.to/lastmile_qr_scan"}, "fusion_lon": 0.0}, {"lat": 38.90871383333333, "is_disabled": 0, "type": "electric_scooter", "lon": -77.0322575, "bike_id": "6a1ddd137c64e7aa91fb175d3815e260", "fusion_lat": 0.0, "name": "6a1ddd137c64e7aa91fb175d3815e260", "is_reserved": 0, "rental_uris": {"android": "https://dc.lft.to/lastmile_qr_scan", "ios": "https://dc.lft.to/lastmile_qr_scan"}, "fusion_lon": 0.0}, {"lat": 38.92244183333333, "is_disabled": 0, "type": "electric_scooter", "lon": -77.04273333333333, "bike_id": "52aa1b1a8761e9c5f1264d66d3d95056", "fusion_lat": 0.0, "name": "52aa1b1a8761e9c5f1264d66d3d95056", "is_reserved": 0, "rental_uris": {"android": "https://dc.lft.to/lastmile_qr_scan", "ios": "https://dc.lft.to/lastmile_qr_scan"}, "fusion_lon": 0.0}, {"lat": 38.897332666666664, "is_disabled": 0, "type": "electric_scooter", "lon": -77.049894, "bike_id": "880c5150a097f63dfa2a1bbff72b1b39", "fusion_lat": 0.0, "name": "880c5150a097f63dfa2a1bbff72b1b39", "is_reserved": 0, "rental_uris": {"android": "https://dc.lft.to/lastmile_qr_scan", "ios": "https://dc.lft.to/lastmile_qr_scan"}, "fusion_lon": 0.0}, {"lat": 38.86256683333333, "is_disabled": 0, "type": "electric_scooter", "lon": -76.995187, "bike_id": "bbe9aaf0e7872c42525aa55f7edd30b1", "fusion_lat": 0.0, "name": "bbe9aaf0e7872c42525aa55f7edd30b1", "is_reserved": 0, "rental_uris": {"android": "https://dc.lft.to/lastmile_qr_scan", "ios": "https://dc.lft.to/lastmile_qr_scan"}, "fusion_lon": 0.0}, {"lat": 38.90734333333333, "is_disabled": 0, "type": "electric_scooter", "lon": -77.041741, "bike_id": "07ee3f8f4239048d2c309f7bf5fbc9c8", "fusion_lat": 0.0, "name": "07ee3f8f4239048d2c309f7bf5fbc9c8", "is_reserved": 0, "rental_uris": {"android": "https://dc.lft.to/lastmile_qr_scan", "ios": "https://dc.lft.to/lastmile_qr_scan"}, "fusion_lon": 0.0}, {"lat": 38.97330483333333, "is_disabled": 0, "type": "electric_bike", "lon": -77.021497, "bike_id": "3758d46db70011c37c002fea85e36cd4", "fusion_lat": 0.0, "name": "3758d46db70011c37c002fea85e36cd4", "is_reserved": 0, "rental_uris": {"android": "https://dc.lft.to/lastmile_qr_scan", "ios": "https://dc.lft.to/lastmile_qr_scan"}, "fusion_lon": 0.0}, {"lat": 38.93660233333333, "is_disabled": 0, "type": "electric_bike", "lon": -76.95223583333333, "bike_id": "31527ad41e98ead9cbe3445dfd1100bf", "fusion_lat": 0.0, "name": "31527ad41e98ead9cbe3445dfd1100bf", "is_reserved": 0, "rental_uris": {"android": "https://dc.lft.to/lastmile_qr_scan", "ios": "https://dc.lft.to/lastmile_qr_scan"}, "fusion_lon": 0.0}, {"lat": 38.935381666666665, "is_disabled": 0, "type": "electric_scooter", "lon": -77.0236365, "bike_id": "fbfda200ce977217639cecb2a1be1a39", "fusion_lat": 0.0, "name": "fbfda200ce977217639cecb2a1be1a39", "is_reserved": 0, "rental_uris": {"android": "https://dc.lft.to/lastmile_qr_scan", "ios": "https://dc.lft.to/lastmile_qr_scan"}, "fusion_lon": 0.0}, {"lat": 39.034307166666665, "is_disabled": 0, "type": "electric_bike", "lon": -77.04311766666666, "bike_id": "33bc25e76d893f4bcd489c5e8b7784d9", "fusion_lat": 0.0, "name": "33bc25e76d893f4bcd489c5e8b7784d9", "is_reserved": 0, "rental_uris": {"android": "https://dc.lft.to/lastmile_qr_scan", "ios": "https://dc.lft.to/lastmile_qr_scan"}, "fusion_lon": 0.0}, {"lat": 38.917647, "is_disabled": 0, "type": "electric_scooter", "lon": -77.01475633333334, "bike_id": "d714eb809775326a14bcea4290e2afa3", "fusion_lat": 0.0, "name": "d714eb809775326a14bcea4290e2afa3", "is_reserved": 0, "rental_uris": {"android": "https://dc.lft.to/lastmile_qr_scan", "ios": "https://dc.lft.to/lastmile_qr_scan"}, "fusion_lon": 0.0}, {"lat": 38.91658183333333, "is_disabled": 0, "type": "electric_scooter", "lon": -76.98222133333333, "bike_id": "2491c4ba4f2ed868fb1a12f2ce55c43b", "fusion_lat": 0.0, "name": "2491c4ba4f2ed868fb1a12f2ce55c43b", "is_reserved": 0, "rental_uris": {"android": "https://dc.lft.to/lastmile_qr_scan", "ios": "https://dc.lft.to/lastmile_qr_scan"}, "fusion_lon": 0.0}, {"lat": 38.844395, "is_disabled": 0, "type": "electric_scooter", "lon": -76.99670383333333, "bike_id": "56a6ed2cefc5657de480ebda870f8ea3", "fusion_lat": 0.0, "name": "56a6ed2cefc5657de480ebda870f8ea3", "is_reserved": 0, "rental_uris": {"android": "https://dc.lft.to/lastmile_qr_scan", "ios": "https://dc.lft.to/lastmile_qr_scan"}, "fusion_lon": 0.0}, {"lat": 38.9004005, "is_disabled": 0, "type": "electric_scooter", "lon": -76.99638933333334, "bike_id": "b5cba8d857f1319c4d6761f82b477df9", "fusion_lat": 0.0, "name": "b5cba8d857f1319c4d6761f82b477df9", "is_reserved": 0, "rental_uris": {"android": "https://dc.lft.to/lastmile_qr_scan", "ios": "https://dc.lft.to/lastmile_qr_scan"}, "fusion_lon": 0.0}, {"lat": 38.890025333333334, "is_disabled": 0, "type": "electric_scooter", "lon": -77.04896933333333, "bike_id": "b5ec643574d7269a46476bf01b97d61c", "fusion_lat": 0.0, "name": "b5ec643574d7269a46476bf01b97d61c", "is_reserved": 0, "rental_uris": {"android": "https://dc.lft.to/lastmile_qr_scan", "ios": "https://dc.lft.to/lastmile_qr_scan"}, "fusion_lon": 0.0}, {"lat": 38.91248983333333, "is_disabled": 0, "type": "electric_scooter", "lon": -77.03236916666667, "bike_id": "924c4853279f8c35824e3874a54e2f82", "fusion_lat": 0.0, "name": "924c4853279f8c35824e3874a54e2f82", "is_reserved": 0, "rental_uris": {"android": "https://dc.lft.to/lastmile_qr_scan", "ios": "https://dc.lft.to/lastmile_qr_scan"}, "fusion_lon": 0.0}, {"lat": 38.900417833333336, "is_disabled": 0, "type": "electric_scooter", "lon": -76.9986835, "bike_id": "9f224d9d8fefd937e3ce7bed533a9984", "fusion_lat": 0.0, "name": "9f224d9d8fefd937e3ce7bed533a9984", "is_reserved": 0, "rental_uris": {"android": "https://dc.lft.to/lastmile_qr_scan", "ios": "https://dc.lft.to/lastmile_qr_scan"}, "fusion_lon": 0.0}, {"lat": 38.85809066666667, "is_disabled": 0, "type": "electric_scooter", "lon": -76.986532, "bike_id": "fc0c6626271117682d618f1b56d3cf7e", "fusion_lat": 0.0, "name": "fc0c6626271117682d618f1b56d3cf7e", "is_reserved": 0, "rental_uris": {"android": "https://dc.lft.to/lastmile_qr_scan", "ios": "https://dc.lft.to/lastmile_qr_scan"}, "fusion_lon": 0.0}, {"lat": 38.912583, "is_disabled": 0, "type": "electric_scooter", "lon": -76.98352766666666, "bike_id": "494edb1b41c237fcbeaf6d33a6010915", "fusion_lat": 0.0, "name": "494edb1b41c237fcbeaf6d33a6010915", "is_reserved": 0, "rental_uris": {"android": "https://dc.lft.to/lastmile_qr_scan", "ios": "https://dc.lft.to/lastmile_qr_scan"}, "fusion_lon": 0.0}, {"lat": 38.91573233333333, "is_disabled": 0, "type": "electric_scooter", "lon": -77.03844583333333, "bike_id": "2469323e9c543a9cd496cdbef7cd7643", "fusion_lat": 0.0, "name": "2469323e9c543a9cd496cdbef7cd7643", "is_reserved": 0, "rental_uris": {"android": "https://dc.lft.to/lastmile_qr_scan", "ios": "https://dc.lft.to/lastmile_qr_scan"}, "fusion_lon": 0.0}, {"lat": 38.96614533333333, "is_disabled": 0, "type": "electric_scooter", "lon": -77.0205235, "bike_id": "8fd3665db95773d34e84eeaafe0208dd", "fusion_lat": 0.0, "name": "8fd3665db95773d34e84eeaafe0208dd", "is_reserved": 0, "rental_uris": {"android": "https://dc.lft.to/lastmile_qr_scan", "ios": "https://dc.lft.to/lastmile_qr_scan"}, "fusion_lon": 0.0}, {"lat": 38.910384, "is_disabled": 0, "type": "electric_scooter", "lon": -77.04874916666667, "bike_id": "98c6881fdd8dba18cc204e14fd9a7238", "fusion_lat": 0.0, "name": "98c6881fdd8dba18cc204e14fd9a7238", "is_reserved": 0, "rental_uris": {"android": "https://dc.lft.to/lastmile_qr_scan", "ios": "https://dc.lft.to/lastmile_qr_scan"}, "fusion_lon": 0.0}, {"lat": 38.923537833333334, "is_disabled": 0, "type": "electric_scooter", "lon": -77.02446366666666, "bike_id": "9d7e2c43a0db68525919eb10afa18e56", "fusion_lat": 0.0, "name": "9d7e2c43a0db68525919eb10afa18e56", "is_reserved": 0, "rental_uris": {"android": "https://dc.lft.to/lastmile_qr_scan", "ios": "https://dc.lft.to/lastmile_qr_scan"}, "fusion_lon": 0.0}, {"lat": 38.922314166666666, "is_disabled": 0, "type": "electric_scooter", "lon": -77.03894866666667, "bike_id": "8549ea42a1c60f6db0fdb9019ae401c8", "fusion_lat": 0.0, "name": "8549ea42a1c60f6db0fdb9019ae401c8", "is_reserved": 0, "rental_uris": {"android": "https://dc.lft.to/lastmile_qr_scan", "ios": "https://dc.lft.to/lastmile_qr_scan"}, "fusion_lon": 0.0}, {"lat": 38.922434333333335, "is_disabled": 0, "type": "electric_scooter", "lon": -77.04575366666667, "bike_id": "065bfd59e5899613f380e6b3d34243d6", "fusion_lat": 0.0, "name": "065bfd59e5899613f380e6b3d34243d6", "is_reserved": 0, "rental_uris": {"android": "https://dc.lft.to/lastmile_qr_scan", "ios": "https://dc.lft.to/lastmile_qr_scan"}, "fusion_lon": 0.0}, {"lat": 38.892317, "is_disabled": 0, "type": "electric_scooter", "lon": -77.03221766666667, "bike_id": "8c152aa9ce90e74eda5d21f08e2ae9f9", "fusion_lat": 0.0, "name": "8c152aa9ce90e74eda5d21f08e2ae9f9", "is_reserved": 0, "rental_uris": {"android": "https://dc.lft.to/lastmile_qr_scan", "ios": "https://dc.lft.to/lastmile_qr_scan"}, "fusion_lon": 0.0}, {"lat": 38.9723155, "is_disabled": 0, "type": "electric_bike", "lon": -76.99345066666666, "bike_id": "4a955522be0782a841f595caeb5dc5ed", "fusion_lat": 0.0, "name": "4a955522be0782a841f595caeb5dc5ed", "is_reserved": 0, "rental_uris": {"android": "https://dc.lft.to/lastmile_qr_scan", "ios": "https://dc.lft.to/lastmile_qr_scan"}, "fusion_lon": 0.0}, {"lat": 38.903324166666664, "is_disabled": 0, "type": "electric_scooter", "lon": -77.037683, "bike_id": "a29f8af7db197d719755b2e4670cc215", "fusion_lat": 0.0, "name": "a29f8af7db197d719755b2e4670cc215", "is_reserved": 0, "rental_uris": {"android": "https://dc.lft.to/lastmile_qr_scan", "ios": "https://dc.lft.to/lastmile_qr_scan"}, "fusion_lon": 0.0},