{"data": {"bikes": [{"name": "53121d04ee0d9281b2dbe30f077b40a6", "is_reserved": 0, "fusion_lon": 0.0, "bike_id": "53121d04ee0d9281b2dbe30f077b40a6", "lat": 38.86549333333333, "is_disabled": 0, "lon": -76.94150283333333, "fusion_lat": 0.0, "rental_uris": {"ios": "https://dc.lft.to/lastmile_qr_scan", "android": "https://dc.lft.to/lastmile_qr_scan"}, "type": "electric_bike"}, {"name": "d388eb5ff9b6519acb3729d13ee0e00d", "is_reserved": 0, "fusion_lon": 0.0, "bike_id": "d388eb5ff9b6519acb3729d13ee0e00d", "lat": 38.92173616666667, "is_disabled": 0, "lon": -77.02046583333333, "fusion_lat": 0.0, "rental_uris": {"ios": "https://dc.lft.to/lastmile_qr_scan", "android": "https://dc.lft.to/lastmile_qr_scan"}, "type": "electric_scooter"}, {"name": "4bd0bf9dbd5ed978ecfbfbd1fc8de4bc", "is_reserved": 0, "fusion_lon": 0.0, "bike_id": "4bd0bf9dbd5ed978ecfbfbd1fc8de4bc", "lat": 38.9188855, "is_disabled": 0, "lon": -77.041272, "fusion_lat": 0.0, "rental_uris": {"ios": "https://dc.lft.to/lastmile_qr_scan", "android": "https://dc.lft.to/lastmile_qr_scan"}, "type": "electric_scooter"}, {"name": "be00063e9136202c0b3ddfe94913a0d3", "is_reserved": 0, "fusion_lon": 0.0, "bike_id": "be00063e9136202c0b3ddfe94913a0d3", "lat": 38.9113805, "is_disabled": 0, "lon": -77.02797766666667, "fusion_lat": 0.0, "rental_uris": {"ios": "https://dc.lft.to/lastmile_qr_scan", "android": "https://dc.lft.to/lastmile_qr_scan"}, "type": "electric_scooter"}, {"name": "418331967c508c587eb8f91534772698", "is_reserved": 0, "fusion_lon": 0.0, "bike_id": "418331967c508c587eb8f91534772698", "lat": 38.9238575, "is_disabled": 0, "lon": -77.01951216666667, "fusion_lat": 0.0, "rental_uris": {"ios": "https://dc.lft.to/lastmile_qr_scan", "android": "https://dc.lft.to/lastmile_qr_scan"}, "type": "electric_scooter"}, {"name": "24facff2e544f385e5c377b6227e0877", "is_reserved": 0, "fusion_lon": 0.0, "bike_id": "24facff2e544f385e5c377b6227e0877", "lat": 38.903079166666664, "is_disabled": 0, "lon": -77.05007266666667, "fusion_lat": 0.0, "rental_uris": {"ios": "https://dc.lft.to/lastmile_qr_scan", "android": "https://dc.lft.to/lastmile_qr_scan"}, "type": "electric_scooter"}, {"name": "cca4a70c81bae3f6ff9392bd448a660c", "is_reserved": 0, "fusion_lon": 0.0, "bike_id": "cca4a70c81bae3f6ff9392bd448a660c", "lat": 38.899471166666665, "is_disabled": 0, "lon": -77.02975666666667, "fusion_lat": 0.0, "rental_uris": {"ios": "https://dc.lft.to/lastmile_qr_scan", "android": "https://dc.lft.to/lastmile_qr_scan"}, "type": "electric_scooter"}, {"name": "9e7e0bbf28ae52f206e08285a52d8ee3", "is_reserved": 0, "fusion_lon": 0.0, "bike_id": "9e7e0bbf28ae52f206e08285a52d8ee3", "lat": 38.9261115, "is_disabled": 0, "lon": -77.02158333333334, "fusion_lat": 0.0, "rental_uris": {"ios": "https://dc.lft.to/lastmile_qr_scan", "android": "https://dc.lft.to/lastmile_qr_scan"}, "type": "electric_scooter"}, {"name": "dc5a075567da82d6a337960d1cade67a", "is_reserved": 0, "fusion_lon": 0.0, "bike_id": "dc5a075567da82d6a337960d1cade67a", "lat": 38.82046666666667, "is_disabled": 0, "lon": -77.053614, "fusion_lat": 0.0, "rental_uris": {"ios": "https://dc.lft.to/lastmile_qr_scan", "android": "https://dc.lft.to/lastmile_qr_scan"}, "type": "electric_bike"}, {"name": "5a4efd4af471e9d871ad4f9122dce090", "is_reserved": 0, "fusion_lon": 0.0, "bike_id": "5a4efd4af471e9d871ad4f9122dce090", "lat": 38.91069916666667, "is_disabled": 0, "lon": -77.0160975, "fusion_lat": 0.0, "rental_uris": {"ios": "https://dc.lft.to/lastmile_qr_scan", "android": "https://dc.lft.to/lastmile_qr_scan"}, "type": "electric_scooter"}, {"name": "a30f73866bbdcbee6b8f6f7b97aa67d3", "is_reserved": 0, "fusion_lon": 0.0, "bike_id": "a30f73866bbdcbee6b8f6f7b97aa67d3", "lat": 38.92478233333333, "is_disabled": 0, "lon": -77.02225583333333, "fusion_lat": 0.0, "rental_uris": {"ios": "https://dc.lft.to/lastmile_qr_scan", "android": "https://dc.lft.to/lastmile_qr_scan"}, "type": "electric_scooter"}, {"name": "62cf369a7cc56ecf13bf5a2edcb19de1", "is_reserved": 0, "fusion_lon": 0.0, "bike_id": "62cf369a7cc56ecf13bf5a2edcb19de1", "lat": 38.915327, "is_disabled": 0, "lon": -77.0122155, "fusion_lat": 0.0, "rental_uris": {"ios": "https://dc.lft.to/lastmile_qr_scan", "android": "https://dc.lft.to/lastmile_qr_scan"}, "type": "electric_scooter"}, {"name": "8c9fcf9b2d8c6ff1673352cb127cb81c", "is_reserved": 0, "fusion_lon": 0.0, "bike_id": "8c9fcf9b2d8c6ff1673352cb127cb81c", "lat": 38.904867, "is_disabled": 0, "lon": -77.02956766666667, "fusion_lat": 0.0, "rental_uris": {"ios": "https://dc.lft.to/lastmile_qr_scan", "android": "https://dc.lft.to/lastmile_qr_scan"}, "type": "electric_scooter"}, {"name": "acfe14df36e673b893a5537cbee4955d", "is_reserved": 0, "fusion_lon": 0.0, "bike_id": "acfe14df36e673b893a5537cbee4955d", "lat": 38.880237, "is_disabled": 0, "lon": -76.91716933333333, "fusion_lat": 0.0, "rental_uris": {"ios": "https://dc.lft.to/lastmile_qr_scan", "android": "https://dc.lft.to/lastmile_qr_scan"}, "type": "electric_bike"}, {"name": "2a65c73f11cf1dbbbcb83df1b64e5b01", "is_reserved": 0, "fusion_lon": 0.0, "bike_id": "2a65c73f11cf1dbbbcb83df1b64e5b01", "lat": 38.907334166666665, "is_disabled": 0, "lon": -77.041768, "fusion_lat": 0.0, "rental_uris": {"ios": "https://dc.lft.to/lastmile_qr_scan", "android": "https://dc.lft.to/lastmile_qr_scan"}, "type": "electric_scooter"}, {"name": "416543f8b4a9285c3d2dcb567c4208d7", "is_reserved": 0, "fusion_lon": 0.0, "bike_id": "416543f8b4a9285c3d2dcb567c4208d7", "lat": 38.909708333333334, "is_disabled": 0, "lon": -77.03568633333333, "fusion_lat": 0.0, "rental_uris": {"ios": "https://dc.lft.to/lastmile_qr_scan", "android": "https://dc.lft.to/lastmile_qr_scan"}, "type": "electric_scooter"}, {"name": "57d6319bca0a372372277f14081bb2f2", "is_reserved": 0, "fusion_lon": 0.0, "bike_id": "57d6319bca0a372372277f14081bb2f2", "lat": 38.92975366666667, "is_disabled": 0, "lon": -77.05499616666667, "fusion_lat": 0.0, "rental_uris": {"ios": "https://dc.lft.to/lastmile_qr_scan", "android": "https://dc.lft.to/lastmile_qr_scan"}, "type": "electric_scooter"}, {"name": "f5b7b4245adb614e503abf010e33d020", "is_reserved": 0, "fusion_lon": 0.0, "bike_id": "f5b7b4245adb614e503abf010e33d020", "lat": 38.88269316666667, "is_disabled": 0, "lon": -76.9901455, "fusion_lat": 0.0, "rental_uris": {"ios": "https://dc.lft.to/lastmile_qr_scan", "android": "https://dc.lft.to/lastmile_qr_scan"}, "type": "electric_scooter"}, {"name": "4dc3cf66761e76e079aa387a08f5f55c", "is_reserved": 0, "fusion_lon": 0.0, "bike_id": "4dc3cf66761e76e079aa387a08f5f55c", "lat": 38.920521, "is_disabled": 0, "lon": -77.02202366666667, "fusion_lat": 0.0, "rental_uris": {"ios": "https://dc.lft.to/lastmile_qr_scan", "android": "https://dc.lft.to/lastmile_qr_scan"}, "type": "electric_scooter"}, {"name": "dcedf19fa97625c8ca2afb7c4c43ff78", "is_reserved": 0, "fusion_lon": 0.0, "bike_id": "dcedf19fa97625c8ca2afb7c4c43ff78", "lat": 38.897368166666666, "is_disabled": 0, "lon": -77.02684783333333, "fusion_lat": 0.0, "rental_uris": {"ios": "https://dc.lft.to/lastmile_qr_scan", "android": "https://dc.lft.to/lastmile_qr_scan"}, "type": "electric_scooter"}, {"name": "852ddc2924b8e4ae8b02735ae49bf580", "is_reserved": 0, "fusion_lon": 0.0, "bike_id": "852ddc2924b8e4ae8b02735ae49bf580", "lat": 38.934493333333336, "is_disabled": 0, "lon": -77.029743, "fusion_lat": 0.0, "rental_uris": {"ios": "https://dc.lft.to/lastmile_qr_scan", "android": "https://dc.lft.to/lastmile_qr_scan"}, "type": "electric_scooter"}, {"name": "d2049cc59dd753441dc4402fd25b7f5f", "is_reserved": 0, "fusion_lon": 0.0, "bike_id": "d2049cc59dd753441dc4402fd25b7f5f", "lat": 38.9178785, "is_disabled": 0, "lon": -77.023763, "fusion_lat": 0.0, "rental_uris": {"ios": "https://dc.lft.to/lastmile_qr_scan", "android": "https://dc.lft.to/lastmile_qr_scan"}, "type": "electric_scooter"}, {"name": "9331506a07f0fa3488c1fc27c7986a66", "is_reserved": 0, "fusion_lon": 0.0, "bike_id": "9331506a07f0fa3488c1fc27c7986a66", "lat": 38.9013145, "is_disabled": 0, "lon": -77.02988533333334, "fusion_lat": 0.0, "rental_uris": {"ios": "https://dc.lft.to/lastmile_qr_scan", "android": "https://dc.lft.to/lastmile_qr_scan"}, "type": "electric_scooter"}, {"name": "13d8ad212be31968ec26fcf1cc9aa255", "is_reserved": 0, "fusion_lon": 0.0, "bike_id": "13d8ad212be31968ec26fcf1cc9aa255", "lat": 38.90727916666667, "is_disabled": 0, "lon": -77.00215233333333, "fusion_lat": 0.0, "rental_uris": {"ios": "https://dc.lft.to/lastmile_qr_scan", "android": "https://dc.lft.to/lastmile_qr_scan"}, "type": "electric_scooter"}, {"name": "7daf860940373ebfa2c51b0df410050c", "is_reserved": 0, "fusion_lon": 0.0, "bike_id": "7daf860940373ebfa2c51b0df410050c", "lat": 38.902256, "is_disabled": 0, "lon": -77.03333233333333, "fusion_lat": 0.0, "rental_uris": {"ios": "https://dc.lft.to/lastmile_qr_scan", "android": "https://dc.lft.to/lastmile_qr_scan"}, "type": "electric_scooter"}, {"name": "fe3deddf41271e938a613132bdd1ec17", "is_reserved": 0, "fusion_lon": 0.0, "bike_id": "fe3deddf41271e938a613132bdd1ec17", "lat": 38.923786666666665, "is_disabled": 0, "lon": -77.03030383333333, "fusion_lat": 0.0, "rental_uris": {"ios": "https://dc.lft.to/lastmile_qr_scan", "android": "https://dc.lft.to/lastmile_qr_scan"}, "type": "electric_scooter"}, {"name": "d0f6dce8a6683af0076de89f4b8fbb11", "is_reserved": 0, "fusion_lon": 0.0, "bike_id": "d0f6dce8a6683af0076de89f4b8fbb11", "lat": 38.900352166666664, "is_disabled": 0, "lon": -76.98855783333333, "fusion_lat": 0.0, "rental_uris": {"ios": "https://dc.lft.to/lastmile_qr_scan", "android": "https://dc.lft.to/lastmile_qr_scan"}, "type": "electric_scooter"}, {"name": "1dcf3512221a0c1afe0dd1bbaa1c9895", "is_reserved": 0, "fusion_lon": 0.0, "bike_id": "1dcf3512221a0c1afe0dd1bbaa1c9895", "lat": 38.924505333333336, "is_disabled": 0, "lon": -77.02157366666667, "fusion_lat": 0.0, "rental_uris": {"ios": "https://dc.lft.to/lastmile_qr_scan", "android": "https://dc.lft.to/lastmile_qr_scan"}, "type": "electric_scooter"}, {"name": "c69965396004c92ce6979ce9ebdb56da", "is_reserved": 0, "fusion_lon": 0.0, "bike_id": "c69965396004c92ce6979ce9ebdb56da", "lat": 38.863331333333335, "is_disabled": 0, "lon": -76.991151, "fusion_lat": 0.0, "rental_uris": {"ios": "https://dc.lft.to/lastmile_qr_scan", "android": "https://dc.lft.to/lastmile_qr_scan"}, "type": "electric_scooter"}, {"name": "4f88ad3f92e329179380495eb5898be9", "is_reserved": 0, "fusion_lon": 0.0, "bike_id": "4f88ad3f92e329179380495eb5898be9", "lat": 38.89701633333333, "is_disabled": 0, "lon": -77.0195985, "fusion_lat": 0.0, "rental_uris": {"ios": "https://dc.lft.to/lastmile_qr_scan", "android": "https://dc.lft.to/lastmile_qr_scan"}, "type": "electric_scooter"}, {"name": "b27cb68eed77da8f5b52c855c0d6765b", "is_reserved": 0, "fusion_lon": 0.0, "bike_id": "b27cb68eed77da8f5b52c855c0d6765b", "lat": 38.900932833333336, "is_disabled": 0, "lon": -76.97685083333333, "fusion_lat": 0.0, "rental_uris": {"ios": "https://dc.lft.to/lastmile_qr_scan", "android": "https://dc.lft.to/lastmile_qr_scan"}, "type": "electric_scooter"}, {"name": "ea72b9b4c717cf04cdddb7ac440b9893", "is_reserved": 0, "fusion_lon": 0.0, "bike_id": "ea72b9b4c717cf04cdddb7ac440b9893", "lat": 38.860069833333334, "is_disabled": 0, "lon": -76.98517333333334, "fusion_lat": 0.0, "rental_uris": {"ios": "https://dc.lft.to/lastmile_qr_scan", "android": "https://dc.lft.to/lastmile_qr_scan"}, "type": "electric_scooter"}, {"name": "11d6f2f1a2a0b8dfb548a18281b51adc", "is_reserved": 0, "fusion_lon": 0.0, "bike_id": "11d6f2f1a2a0b8dfb548a18281b51adc", "lat": 38.9160085, "is_disabled": 0, "lon": -77.03191933333333, "fusion_lat": 0.0, "rental_uris": {"ios": "https://dc.lft.to/lastmile_qr_scan", "android": "https://dc.lft.to/lastmile_qr_scan"}, "type": "electric_scooter"}, {"name": "6318a2a078dd123065f6e0fa3d10385a", "is_reserved": 0, "fusion_lon": 0.0, "bike_id": "6318a2a078dd123065f6e0fa3d10385a", "lat": 38.91816466666667, "is_disabled": 0, "lon": -77.03464216666667, "fusion_lat": 0.0, "rental_uris": {"ios": "https://dc.lft.to/lastmile_qr_scan", "android": "https://dc.lft.to/lastmile_qr_scan"}, "type": "electric_scooter"}, {"name": "24522161ab841c72956ed00e6da197ff", "is_reserved": 0, "fusion_lon": 0.0, "bike_id": "24522161ab841c72956ed00e6da197ff", "lat": 38.92099866666667, "is_disabled": 0, "lon": -77.03252616666667, "fusion_lat": 0.0, "rental_uris": {"ios": "https://dc.lft.to/lastmile_qr_scan", "android": "https://dc.lft.to/lastmile_qr_scan"}, "type": "electric_scooter"}, {"name": "7eedacc0ea1522beaf5d41bcc7087038", "is_reserved": 0, "fusion_lon": 0.0, "bike_id": "7eedacc0ea1522beaf5d41bcc7087038", "lat": 38.903482, "is_disabled": 0, "lon": -77.03953316666667, "fusion_lat": 0.0, "rental_uris": {"ios": "https://dc.lft.to/lastmile_qr_scan", "android": "https://dc.lft.to/lastmile_qr_scan"}, "type": "electric_scooter"}, {"name": "60e6bf3063773b8ae0f1e4e85f8354c8", "is_reserved": 0, "fusion_lon": 0.0, "bike_id": "60e6bf3063773b8ae0f1e4e85f8354c8", "lat": 38.93766433333333, "is_disabled": 0, "lon": -77.02671433333333, "fusion_lat": 0.0, "rental_uris": {"ios": "https://dc.lft.to/lastmile_qr_scan", "android": "https://dc.lft.to/lastmile_qr_scan"}, "type": "electric_scooter"}, {"name": "87e9fec3f6b0c4aedc2e3d1a7ca3441f", "is_reserved": 0, "fusion_lon": 0.0, "bike_id": "87e9fec3f6b0c4aedc2e3d1a7ca3441f", "lat": 38.9297685, "is_disabled": 0, "lon": -77.03467383333333, "fusion_lat": 0.0, "rental_uris": {"ios": "https://dc.lft.to/lastmile_qr_scan", "android": "https://dc.lft.to/lastmile_qr_scan"}, "type": "electric_scooter"}, {"name": "98bb926581d7e279e52b61be3d89219a", "is_reserved": 0, "fusion_lon": 0.0, "bike_id": "98bb926581d7e279e52b61be3d89219a", "lat": 38.873741, "is_disabled": 0, "lon": -77.00128333333333, "fusion_lat": 0.0, "rental_uris": {"ios": "https://dc.lft.to/lastmile_qr_scan", "android": "https://dc.lft.to/lastmile_qr_scan"}, "type": "electric_scooter"}, {"name": "15d4bd77b7fb5c2032da12323178762d", "is_reserved": 0, "fusion_lon": 0.0, "bike_id": "15d4bd77b7fb5c2032da12323178762d", "lat": 38.90604583333333, "is_disabled": 0, "lon": -77.12895416666667, "fusion_lat": 0.0, "rental_uris": {"ios": "https://dc.lft.to/lastmile_qr_scan", "android": "https://dc.lft.to/lastmile_qr_scan"}, "type": "electric_bike"}, {"name": "ebabeaca87c3c220bbb89d100c3777f1", "is_reserved": 0, "fusion_lon": 0.0, "bike_id": "ebabeaca87c3c220bbb89d100c3777f1", "lat": 38.915982666666665, "is_disabled": 0, "lon": -77.02185166666666, "fusion_lat": 0.0, "rental_uris": {"ios": "https://dc.lft.to/lastmile_qr_scan", "android": "https://dc.lft.to/lastmile_qr_scan"}, "type": "electric_scooter"}, {"name": "8cd896fb1fd10b1a5830b3c4cd111259", "is_reserved": 0, "fusion_lon": 0.0, "bike_id": "8cd896fb1fd10b1a5830b3c4cd111259", "lat": 38.91699883333333, "is_disabled": 0, "lon": -77.037625, "fusion_lat": 0.0, "rental_uris": {"ios": "https://dc.lft.to/lastmile_qr_scan", "android": "https://dc.lft.to/lastmile_qr_scan"}, "type": "electric_scooter"}, {"name": "8b6b885451301f15b57aa1ff091ae6c1", "is_reserved": 0, "fusion_lon": 0.0, "bike_id": "8b6b885451301f15b57aa1ff091ae6c1", "lat": 38.9205905, "is_disabled": 0, "lon": -76.97065183333333, "fusion_lat": 0.0, "rental_uris": {"ios": "https://dc.lft.to/lastmile_qr_scan", "android": "https://dc.lft.to/lastmile_qr_scan"}, "type": "electric_bike"}, {"name": "2f23021b1e5c75ecf747a654b3fb1fed", "is_reserved": 0, "fusion_lon": 0.0, "bike_id": "2f23021b1e5c75ecf747a654b3fb1fed", "lat": 38.9241715, "is_disabled": 0, "lon": -77.01946216666667, "fusion_lat": 0.0, "rental_uris": {"ios": "https://dc.lft.to/lastmile_qr_scan", "android": "https://dc.lft.to/lastmile_qr_scan"}, "type": "electric_scooter"}, {"name": "4f994c56ff0e4ce0cf5c834a0ddee018", "is_reserved": 0, "fusion_lon": 0.0, "bike_id": "4f994c56ff0e4ce0cf5c834a0ddee018", "lat": 38.908842, "is_disabled": 0, "lon": -77.0752985, "fusion_lat": 0.0, "rental_uris": {"ios": "https://dc.lft.to/lastmile_qr_scan", "android": "https://dc.lft.to/lastmile_qr_scan"}, "type": "electric_scooter"}, {"name": "91c9e74e89e6da1b164b3c4b66b9e468", "is_reserved": 0, "fusion_lon": 0.0, "bike_id": "91c9e74e89e6da1b164b3c4b66b9e468", "lat": 38.89226, "is_disabled": 0, "lon": -77.00303866666667, "fusion_lat": 0.0, "rental_uris": {"ios": "https://dc.lft.to/lastmile_qr_scan", "android": "https://dc.lft.to/lastmile_qr_scan"}, "type": "electric_scooter"}, {"name": "1b94715a6cccc9c0bd465b79c67b7111", "is_reserved": 0, "fusion_lon": 0.0, "bike_id": "1b94715a6cccc9c0bd465b79c67b7111", "lat": 38.920645666666665, "is_disabled": 0, "lon": -77.03804183333334, "fusion_lat": 0.0, "rental_uris": {"ios": "https://dc.lft.to/lastmile_qr_scan", "android": "https://dc.lft.to/lastmile_qr_scan"}, "type": "electric_scooter"}, {"name": "a62b28b611055fec08d96c0f375f85c7", "is_reserved": 0, "fusion_lon": 0.0, "bike_id": "a62b28b611055fec08d96c0f375f85c7", "lat": 38.927602666666665, "is_disabled": 0, "lon": -77.03271933333333, "fusion_lat": 0.0, "rental_uris": {"ios": "https://dc.lft.to/lastmile_qr_scan", "android": "https://dc.lft.to/lastmile_qr_scan"}, "type": "electric_scooter"}, {"name": "a7d46001eb33f3e3c92003c5565eb157", "is_reserved": 0, "fusion_lon": 0.0, "bike_id": "a7d46001eb33f3e3c92003c5565eb157", "lat": 38.90371016666667, "is_disabled": 0, "lon": -77.02927933333333, "fusion_lat": 0.0, "rental_uris": {"ios": "https://dc.lft.to/lastmile_qr_scan", "android": "https://dc.lft.to/lastmile_qr_scan"}, "type": "electric_scooter"}, {"name": "1c22dd8a719484d7ff82ff134ef98ecd", "is_reserved": 0, "fusion_lon": 0.0, "bike_id": "1c22dd8a719484d7ff82ff134ef98ecd", "lat": 38.888667166666664, "is_disabled": 0, "lon": -77.00176333333333, "fusion_lat": 0.0, "rental_uris": {"ios": "https://dc.lft.to/lastmile_qr_scan", "android": "https://dc.lft.to/lastmile_qr_scan"}, "type": "electric_scooter"}, {"name": "28ba939f70b8d3d941cd00957500dec5", "is_reserved": 0, "fusion_lon": 0.0, "bike_id": "28ba939f70b8d3d941cd00957500dec5", "lat": 38.91359633333333, "is_disabled": 0, "lon": -77.0170005, "fusion_lat": 0.0, "rental_uris": {"ios": "https://dc.lft.to/lastmile_qr_scan", "android": "https://dc.lft.to/lastmile_qr_scan"}, "type": "electric_scooter"}, {"name": "c374ff132d455e6f69eed919e458bf93", "is_reserved": 0, "fusion_lon": 0.0, "bike_id": "c374ff132d455e6f69eed919e458bf93", "lat": 38.882666666666665, "is_disabled": 0, "lon": -76.990155, "fusion_lat": 0.0, "rental_uris": {"ios": "https://dc.lft.to/lastmile_qr_scan", "android": "https://dc.lft.to/lastmile_qr_scan"}, "type": "electric_scooter"}, {"name": "630110116cd429c661627f11d8714124", "is_reserved": 0, "fusion_lon": 0.0, "bike_id": "630110116cd429c661627f11d8714124", "lat": 38.919727, "is_disabled": 0, "lon": -77.02509033333334, "fusion_lat": 0.0, "rental_uris": {"ios": "https://dc.lft.to/lastmile_qr_scan", "android": "https://dc.lft.to/lastmile_qr_scan"}, "type": "electric_scooter"}, {"name": "27d96665d275e1746d4d1a29843ddd11", "is_reserved": 0, "fusion_lon": 0.0, "bike_id": "27d96665d275e1746d4d1a29843ddd11", "lat": 38.90493083333333, "is_disabled": 0, "lon": -77.04059583333333, "fusion_lat": 0.0, "rental_uris": {"ios": "https://dc.lft.to/lastmile_qr_scan", "android": "https://dc.lft.to/lastmile_qr_scan"}, "type": "electric_scooter"}, {"name": "2952182328f6e95ccf4a0df7e4105435", "is_reserved": 0, "fusion_lon": 0.0, "bike_id": "2952182328f6e95ccf4a0df7e4105435", "lat": 38.92907483333333, "is_disabled": 0, "lon": -77.02114116666667, "fusion_lat": 0.0, "rental_uris": {"ios": "https://dc.lft.to/lastmile_qr_scan", "android": "https://dc.lft.to/lastmile_qr_scan"}, "type": "electric_scooter"}, {"name": "6f36e3919545ba1980ad9b2fdba169e8", "is_reserved": 0, "fusion_lon": 0.0, "bike_id": "6f36e3919545ba1980ad9b2fdba169e8", "lat": 38.8973145, "is_disabled": 0, "lon": -77.046612, "fusion_lat": 0.0, "rental_uris": {"ios": "https://dc.lft.to/lastmile_qr_scan", "android": "https://dc.lft.to/lastmile_qr_scan"}, "type": "electric_scooter"}, {"name": "ee9cb624022a110ca1bdf9b16c74267e", "is_reserved": 0, "fusion_lon": 0.0, "bike_id": "ee9cb624022a110ca1bdf9b16c74267e", "lat": 38.9080565, "is_disabled": 0, "lon": -77.06365183333334, "fusion_lat": 0.0, "rental_uris": {"ios": "https://dc.lft.to/lastmile_qr_scan", "android": "https://dc.lft.to/lastmile_qr_scan"}, "type": "electric_scooter"}, {"name": "6034401321725564ca9ff2b8bb89b8c3", "is_reserved": 0, "fusion_lon": 0.0, "bike_id": "6034401321725564ca9ff2b8bb89b8c3", "lat": 38.922598, "is_disabled": 0, "lon": -77.04291, "fusion_lat": 0.0, "rental_uris": {"ios": "https://dc.lft.to/lastmile_qr_scan", "android": "https://dc.lft.to/lastmile_qr_scan"}, "type": "electric_scooter"}, {"name": "57943b0fd280ca51ad57cba3b0ea4a93", "is_reserved": 0, "fusion_lon": 0.0, "bike_id": "57943b0fd280ca51ad57cba3b0ea4a93", "lat": 38.917841333333335, "is_disabled": 0, "lon": -77.02492616666666, "fusion_lat": 0.0, "rental_uris": {"ios": "https://dc.lft.to/lastmile_qr_scan", "android": "https://dc.lft.to/lastmile_qr_scan"}, "type": "electric_scooter"}, {"name": "bfc8781186d4e8120948fea24d23bcb7", "is_reserved": 0, "fusion_lon": 0.0, "bike_id": "bfc8781186d4e8120948fea24d23bcb7", "lat": 38.881336166666664, "is_disabled": 0, "lon": -77.01291666666667, "fusion_lat": 0.0, "rental_uris": {"ios": "https://dc.lft.to/lastmile_qr_scan", "android": "https://dc.lft.to/lastmile_qr_scan"}, "type": "electric_bike"}, {"name": "4a04a13cb6be851d3fac45eeea9f91aa", "is_reserved": 0, "fusion_lon": 0.0, "bike_id": "4a04a13cb6be851d3fac45eeea9f91aa", "lat": 38.90942283333333, "is_disabled": 0, "lon": -77.03444466666667, "fusion_lat": 0.0, "rental_uris": {"ios": "https://dc.lft.to/lastmile_qr_scan", "android": "https://dc.lft.to/lastmile_qr_scan"}, "type": "electric_scooter"}, {"name": "947979766d052853f594f5a578ef3cef", "is_reserved": 0, "fusion_lon": 0.0, "bike_id": "947979766d052853f594f5a578ef3cef", "lat": 38.905983666666664, "is_disabled": 0, "lon": -77.03980966666667, "fusion_lat": 0.0, "rental_uris": {"ios": "https://dc.lft.to/lastmile_qr_scan", "android": "https://dc.lft.to/lastmile_qr_scan"}, "type": "electric_scooter"}, {"name": "7abfb697df3edd960c9715966d2d1b07", "is_reserved": 0, "fusion_lon": 0.0, "bike_id": "7abfb697df3edd960c9715966d2d1b07", "lat": 38.913557, "is_disabled": 0, "lon": -77.0268765, "fusion_lat": 0.0, "rental_uris": {"ios": "https://dc.lft.to/lastmile_qr_scan", "android": "https://dc.lft.to/lastmile_qr_scan"}, "type": "electric_scooter"}, {"name": "2a5207a37b5e3de07f827cfbd7f8d14b", "is_reserved": 0, "fusion_lon": 0.0, "bike_id": "2a5207a37b5e3de07f827cfbd7f8d14b", "lat": 39.08427116666667, "is_disabled": 0, "lon": -76.9513295, "fusion_lat": 0.0, "rental_uris": {"ios": "https://dc.lft.to/lastmile_qr_scan", "android": "https://dc.lft.to/lastmile_qr_scan"}, "type": "electric_bike"}, {"name": "be25fe1a8b1a6416400e7d26e25be5fe", "is_reserved": 0, "fusion_lon": 0.0, "bike_id": "be25fe1a8b1a6416400e7d26e25be5fe", "lat": 38.91527933333333, "is_disabled": 0, "lon": -77.046244, "fusion_lat": 0.0, "rental_uris": {"ios": "https://dc.lft.to/lastmile_qr_scan", "android": "https://dc.lft.to/lastmile_qr_scan"}, "type": "electric_scooter"}, {"name": "7afae4c5a7c4189499855a8823d82f4a", "is_reserved": 0, "fusion_lon": 0.0, "bike_id": "7afae4c5a7c4189499855a8823d82f4a", "lat": 38.909478666666665, "is_disabled": 0, "lon": -76.9359415, "fusion_lat": 0.0, "rental_uris": {"ios": "https://dc.lft.to/lastmile_qr_scan", "android": "https://dc.lft.to/lastmile_qr_scan"}, "type": "electric_scooter"}, {"name": "3aeb4858c85f59de863f321ef4595a9e", "is_reserved": 0, "fusion_lon": 0.0, "bike_id": "3aeb4858c85f59de863f321ef4595a9e", "lat": 38.88358316666667, "is_disabled": 0, "lon": -76.957683, "fusion_lat": 0.0, "rental_uris": {"ios": "https://dc.lft.to/lastmile_qr_scan", "android": "https://dc.lft.to/lastmile_qr_scan"}, "type": "electric_scooter"}, {"name": "a86e1d30c22db1172f4520b6d5f6c2c0", "is_reserved": 0, "fusion_lon": 0.0, "bike_id": "a86e1d30c22db1172f4520b6d5f6c2c0", "lat": 38.90269816666667, "is_disabled": 0, "lon": -77.03430166666666, "fusion_lat": 0.0, "rental_uris": {"ios": "https://dc.lft.to/lastmile_qr_scan", "android": "https://dc.lft.to/lastmile_qr_scan"}, "type": "electric_scooter"}, {"name": "959c147c4e83a789173f5086b3a63fe0", "is_reserved": 0, "fusion_lon": 0.0, "bike_id": "959c147c4e83a789173f5086b3a63fe0", "lat": 38.9241645, "is_disabled": 0, "lon": -77.021346, "fusion_lat": 0.0, "rental_uris": {"ios": "https://dc.lft.to/lastmile_qr_scan", "android": "https://dc.lft.to/lastmile_qr_scan"}, "type": "electric_scooter"}, {"name": "95ad9f6ea0ff9e1e603bdb027c5d7053", "is_reserved": 0, "fusion_lon": 0.0, "bike_id": "95ad9f6ea0ff9e1e603bdb027c5d7053", "lat": 38.89973633333334, "is_disabled": 0, "lon": -76.93766433333333, "fusion_lat": 0.0, "rental_uris": {"ios": "https://dc.lft.to/lastmile_qr_scan", "android": "https://dc.lft.to/lastmile_qr_scan"}, "type": "electric_scooter"}, {"name": "db30e38f3125bc7379753f8d0038f03e", "is_reserved": 0, "fusion_lon": 0.0, "bike_id": "db30e38f3125bc7379753f8d0038f03e", "lat": 38.903561333333336, "is_disabled": 0, "lon": -77.037143, "fusion_lat": 0.0, "rental_uris": {"ios": "https://dc.lft.to/lastmile_qr_scan", "android": "https://dc.lft.to/lastmile_qr_scan"}, "type": "electric_scooter"}, {"name": "7ee61549989c57e851a32edc2c11fdba", "is_reserved": 0, "fusion_lon": 0.0, "bike_id": "7ee61549989c57e851a32edc2c11fdba", "lat": 38.9025455, "is_disabled": 0, "lon": -77.033622, "fusion_lat": 0.0, "rental_uris": {"ios": "https://dc.lft.to/lastmile_qr_scan", "android": "https://dc.lft.to/lastmile_qr_scan"}, "type": "electric_scooter"}, {"name": "d23434e67bd8c70f092c4fa408b8ea3f", "is_reserved": 0, "fusion_lon": 0.0, "bike_id": "d23434e67bd8c70f092c4fa408b8ea3f", "lat": 38.909751166666666, "is_disabled": 0, "lon": -77.03299966666667, "fusion_lat": 0.0, "rental_uris": {"ios": "https://dc.lft.to/lastmile_qr_scan", "android": "https://dc.lft.to/lastmile_qr_scan"}, "type": "electric_scooter"}, {"name": "3dedc216b4c114f0d69a4a4f84f6649d", "is_reserved": 0, "fusion_lon": 0.0, "bike_id": "3dedc216b4c114f0d69a4a4f84f6649d", "lat": 38.88537783333334, "is_disabled": 0, "lon": -76.9826465, "fusion_lat": 0.0, "rental_uris": {"ios": "https://dc.lft.to/lastmile_qr_scan", "android": "https://dc.lft.to/lastmile_qr_scan"}, "type": "electric_scooter"}, {"name": "b5cd259a5f36dd105735176b2cd0bfb3", "is_reserved": 0, "fusion_lon": 0.0, "bike_id": "b5cd259a5f36dd105735176b2cd0bfb3", "lat": 38.9264625, "is_disabled": 0, "lon": -77.03303533333333, "fusion_lat": 0.0, "rental_uris": {"ios": "https://dc.lft.to/lastmile_qr_scan", "android": "https://dc.lft.to/lastmile_qr_scan"}, "type": "electric_scooter"}, {"name": "1e43a309f2a01bca4e59f4b24ada846a", "is_reserved": 0, "fusion_lon": 0.0, "bike_id": "1e43a309f2a01bca4e59f4b24ada846a", "lat": 38.910751833333336, "is_disabled": 0, "lon": -77.01622533333334, "fusion_lat": 0.0, "rental_uris": {"ios": "https://dc.lft.to/lastmile_qr_scan", "android": "https://dc.lft.to/lastmile_qr_scan"}, "type": "electric_scooter"}, {"name": "34e622994c16f8c3bcdae204c803fc2b", "is_reserved": 0, "fusion_lon": 0.0, "bike_id": "34e622994c16f8c3bcdae204c803fc2b", "lat": 38.907725666666664, "is_disabled": 0, "lon": -77.0816865, "fusion_lat": 0.0, "rental_uris": {"ios": "https://dc.lft.to/lastmile_qr_scan", "android": "https://dc.lft.to/lastmile_qr_scan"}, "type": "electric_bike"}, {"name": "8bb4057c8f83ce4243bca202a7bb1627", "is_reserved": 0, "fusion_lon": 0.0, "bike_id": "8bb4057c8f83ce4243bca202a7bb1627", "lat": 38.926974333333334, "is_disabled": 0, "lon": -77.02387066666667, "fusion_lat": 0.0, "rental_uris": {"ios": "https://dc.lft.to/lastmile_qr_scan", "android": "https://dc.lft.to/lastmile_qr_scan"}, "type": "electric_scooter"}, {"name": "dade1ef6f8f1fc5008d8325b76127322", "is_reserved": 0, "fusion_lon": 0.0, "bike_id": "dade1ef6f8f1fc5008d8325b76127322", "lat": 38.9112185, "is_disabled": 0, "lon": -77.03738883333334, "fusion_lat": 0.0, "rental_uris": {"ios": "https://dc.lft.to/lastmile_qr_scan", "android": "https://dc.lft.to/lastmile_qr_scan"}, "type": "electric_scooter"}, {"name": "64d4b6443c69408b7799c449e84caf76", "is_reserved": 0, "fusion_lon": 0.0, "bike_id": "64d4b6443c69408b7799c449e84caf76", "lat": 38.884306, "is_disabled": 0, "lon": -76.9959395, "fusion_lat": 0.0, "rental_uris": {"ios": "https://dc.lft.to/lastmile_qr_scan", "android": "https://dc.lft.to/lastmile_qr_scan"}, "type": "electric_scooter"}, {"name": "e7fbbfb02b2f0b797318ee39ba8acc80", "is_reserved": 0, "fusion_lon": 0.0, "bike_id": "e7fbbfb02b2f0b797318ee39ba8acc80", "lat": 38.90732933333334, "is_disabled": 0, "lon": -77.0321595, "fusion_lat": 0.0, "rental_uris": {"ios": "https://dc.lft.to/lastmile_qr_scan", "android": "https://dc.lft.to/lastmile_qr_scan"}, "type": "electric_scooter"}, {"name": "70dd34c4f9e9b5657a2941890a719126", "is_reserved": 0, "fusion_lon": 0.0, "bike_id": "70dd34c4f9e9b5657a2941890a719126", "lat": 38.89992616666667, "is_disabled": 0, "lon": -76.99354216666667, "fusion_lat": 0.0, "rental_uris": {"ios": "https://dc.lft.to/lastmile_qr_scan", "android": "https://dc.lft.to/lastmile_qr_scan"}, "type": "electric_scooter"}, {"name": "5a90affaf49160c736f9ecbe1d5c5de1", "is_reserved": 0, "fusion_lon": 0.0, "bike_id": "5a90affaf49160c736f9ecbe1d5c5de1", "lat": 38.9141565, "is_disabled": 0, "lon": -77.04627716666667, "fusion_lat": 0.0, "rental_uris": {"ios": "https://dc.lft.to/lastmile_qr_scan", "android": "https://dc.lft.to/lastmile_qr_scan"}, "type": "electric_scooter"}, {"name": "5b273a1f590186c57a81362856b2fc30", "is_reserved": 0, "fusion_lon": 0.0, "bike_id": "5b273a1f590186c57a81362856b2fc30", "lat": 38.90047066666666, "is_disabled": 0, "lon": -77.04737666666666, "fusion_lat": 0.0, "rental_uris": {"ios": "https://dc.lft.to/lastmile_qr_scan", "android": "https://dc.lft.to/lastmile_qr_scan"}, "type": "electric_scooter"}, {"name": "726506ad7b1175b4bb3733450f2f7fac", "is_reserved": 0, "fusion_lon": 0.0, "bike_id": "726506ad7b1175b4bb3733450f2f7fac", "lat": 38.9215765, "is_disabled": 0, "lon": -77.03383466666666, "fusion_lat": 0.0, "rental_uris": {"ios": "https://dc.lft.to/lastmile_qr_scan", "android": "https://dc.lft.to/lastmile_qr_scan"}, "type": "electric_scooter"}, {"name": "15a3fc59efe146a4e904f847718c45e4", "is_reserved": 0, "fusion_lon": 0.0, "bike_id": "15a3fc59efe146a4e904f847718c45e4", "lat": 38.915377, "is_disabled": 0, "lon": -77.0126745, "fusion_lat": 0.0, "rental_uris": {"ios": "https://dc.lft.to/lastmile_qr_scan", "android": "https://dc.lft.to/lastmile_qr_scan"}, "type": "electric_scooter"}, {"name": "807f53e8a6399abfd82b4a4dd685e0bb", "is_reserved": 0, "fusion_lon": 0.0, "bike_id": "807f53e8a6399abfd82b4a4dd685e0bb", "lat": 38.9449005, "is_disabled": 0, "lon": -77.02340066666666, "fusion_lat": 0.0, "rental_uris": {"ios": "https://dc.lft.to/lastmile_qr_scan", "android": "https://dc.lft.to/lastmile_qr_scan"}, "type": "electric_scooter"}, {"name": "2a4e1d66f2028e8850ab31c18ac0fc2c", "is_reserved": 0, "fusion_lon": 0.0, "bike_id": "2a4e1d66f2028e8850ab31c18ac0fc2c", "lat": 38.903831, "is_disabled": 0, "lon": -77.03833516666667, "fusion_lat": 0.0, "rental_uris": {"ios": "https://dc.lft.to/lastmile_qr_scan", "android": "https://dc.lft.to/lastmile_qr_scan"}, "type": "electric_scooter"}, {"name": "973236c0dce9585b0fccebba216bfcf6", "is_reserved": 0, "fusion_lon": 0.0, "bike_id": "973236c0dce9585b0fccebba216bfcf6", "lat": 38.904086166666666, "is_disabled": 0, "lon": -77.06513633333333, "fusion_lat": 0.0, "rental_uris": {"ios": "https://dc.lft.to/lastmile_qr_scan", "android": "https://dc.lft.to/lastmile_qr_scan"}, "type": "electric_scooter"}, {"name": "6e9872a0d7c430589b46501850913cd2", "is_reserved": 0, "fusion_lon": 0.0, "bike_id": "6e9872a0d7c430589b46501850913cd2", "lat": 38.895293833333334, "is_disabled": 0, "lon": -77.0021165, "fusion_lat": 0.0, "rental_uris": {"ios": "https://dc.lft.to/lastmile_qr_scan", "android": "https://dc.lft.to/lastmile_qr_scan"}, "type": "electric_scooter"}, {"name": "dab663afa4a33ef0abe56934efeb544f", "is_reserved": 0, "fusion_lon": 0.0, "bike_id": "dab663afa4a33ef0abe56934efeb544f", "lat": 38.89868383333334, "is_disabled": 0, "lon": -77.04143216666667, "fusion_lat": 0.0, "rental_uris": {"ios": "https://dc.lft.to/lastmile_qr_scan", "android": "https://dc.lft.to/lastmile_qr_scan"}, "type": "electric_scooter"}, {"name": "6048218d553925b0cf8b56621be15d53", "is_reserved": 0, "fusion_lon": 0.0, "bike_id": "6048218d553925b0cf8b56621be15d53", "lat": 38.884755166666665, "is_disabled": 0, "lon": -77.033441, "fusion_lat": 0.0, "rental_uris": {"ios": "https://dc.lft.to/lastmile_qr_scan", "android": "https://dc.lft.to/lastmile_qr_scan"}, "type": "electric_scooter"}, {"name": "35a422f7fcb31e9d885468b93ebbe4be", "is_reserved": 0, "fusion_lon": 0.0, "bike_id": "35a422f7fcb31e9d885468b93ebbe4be", "lat": 38.904113333333335, "is_disabled": 0, "lon": -76.99284683333333, "fusion_lat": 0.0, "rental_uris": {"ios": "https://dc.lft.to/lastmile_qr_scan", "android": "https://dc.lft.to/lastmile_qr_scan"}, "type": "electric_scooter"}, {"name": "61752be3983894d0ab4161c0d2e66e93", "is_reserved": 0, "fusion_lon": 0.0, "bike_id": "61752be3983894d0ab4161c0d2e66e93", "lat": 38.8765725, "is_disabled": 0, "lon": -77.00315516666667, "fusion_lat": 0.0, "rental_uris": {"ios": "https://dc.lft.to/lastmile_qr_scan", "android": "https://dc.lft.to/lastmile_qr_scan"}, "type": "electric_scooter"}, {"name": "94a505a01331b9e2ee1b21448a84234e", "is_reserved": 0, "fusion_lon": 0.0, "bike_id": "94a505a01331b9e2ee1b21448a84234e", "lat": 38.89916, "is_disabled": 0, "lon": -77.00876666666667, "fusion_lat": 0.0, "rental_uris": {"ios": "https://dc.lft.to/lastmile_qr_scan", "android": "https://dc.lft.to/lastmile_qr_scan"}, "type": "electric_scooter"}, {"name": "9a684325efa7975a5e681b78b051f273", "is_reserved": 0, "fusion_lon": 0.0, "bike_id": "9a684325efa7975a5e681b78b051f273", "lat": 38.9026595, "is_disabled": 0, "lon": -77.03032333333333, "fusion_lat": 0.0, "rental_uris": {"ios": "https://dc.lft.to/lastmile_qr_scan", "android": "https://dc.lft.to/lastmile_qr_scan"}, "type": "electric_scooter"}, {"name": "b51d096a60f46202a757fdc6e4aba4c2", "is_reserved": 0, "fusion_lon": 0.0, "bike_id": "b51d096a60f46202a757fdc6e4aba4c2", "lat": 38.9354945, "is_disabled": 0, "lon": -77.07468416666667, "fusion_lat": 0.0, "rental_uris": {"ios": "https://dc.lft.to/lastmile_qr_scan", "android": "https://dc.lft.to/lastmile_qr_scan"}, "type": "electric_scooter"}, {"name": "7b4ef4941357830154279f379e7f2e8a", "is_reserved": 0, "fusion_lon": 0.0, "bike_id": "7b4ef4941357830154279f379e7f2e8a", "lat": 38.919904333333335, "is_disabled": 0, "lon": -77.020609, "fusion_lat": 0.0, "rental_uris": {"ios": "https://dc.lft.to/lastmile_qr_scan", "android": "https://dc.lft.to/lastmile_qr_scan"}, "type": "electric_scooter"}, {"name": "0741574578d3be02cecb61d144e1bbb9", "is_reserved": 0, "fusion_lon": 0.0, "bike_id": "0741574578d3be02cecb61d144e1bbb9", "lat": 38.872097833333335, "is_disabled": 0, "lon": -77.00578716666666, "fusion_lat": 0.0, "rental_uris": {"ios": "https://dc.lft.to/lastmile_qr_scan", "android": "https://dc.lft.to/lastmile_qr_scan"}, "type": "electric_scooter"}, {"name": "99ff5b99d73d0a38cfc88b2103e770a3", "is_reserved": 0, "fusion_lon": 0.0, "bike_id": "99ff5b99d73d0a38cfc88b2103e770a3", "lat": 38.89933666666667, "is_disabled": 0, "lon": -77.02573533333333, "fusion_lat": 0.0, "rental_uris": {"ios": "https://dc.lft.to/lastmile_qr_scan", "android": "https://dc.lft.to/lastmile_qr_scan"}, "type": "electric_scooter"}, {"name": "83d75748b35622474a6651f2dba89c84", "is_reserved": 0, "fusion_lon": 0.0, "bike_id": "83d75748b35622474a6651f2dba89c84", "lat": 38.866332, "is_disabled": 0, "lon": -76.98907083333333, "fusion_lat": 0.0, "rental_uris": {"ios": "https://dc.lft.to/lastmile_qr_scan", "android": "https://dc.lft.to/lastmile_qr_scan"}, "type": "electric_bike"}, {"name": "f46b7222c4d834325b1e6ace8625a1cd", "is_reserved": 0, "fusion_lon": 0.0, "bike_id": "f46b7222c4d834325b1e6ace8625a1cd", "lat": 38.89843616666667, "is_disabled": 0, "lon": -76.94286566666666, "fusion_lat": 0.0, "rental_uris": {"ios": "https://dc.lft.to/lastmile_qr_scan", "android": "https://dc.lft.to/lastmile_qr_scan"}, "type": "electric_scooter"}, {"name": "8cac06ddc630ee9a30f6d1955ac14456", "is_reserved": 0, "fusion_lon": 0.0, "bike_id": "8cac06ddc630ee9a30f6d1955ac14456", "lat": 38.922515, "is_disabled": 0, "lon": -76.98316033333333, "fusion_lat": 0.0, "rental_uris": {"ios": "https://dc.lft.to/lastmile_qr_scan", "android": "https://dc.lft.to/lastmile_qr_scan"}, "type": "electric_scooter"}, {"name": "775465309d1dce54331e028066c369a6", "is_reserved": 0, "fusion_lon": 0.0, "bike_id": "775465309d1dce54331e028066c369a6", "lat": 38.9037615, "is_disabled": 0, "lon": -76.99955933333334, "fusion_lat": 0.0, "rental_uris": {"ios": "https://dc.lft.to/lastmile_qr_scan", "android": "https://dc.lft.to/lastmile_qr_scan"}, "type": "electric_scooter"}, {"name": "0f33c3f895f17f9605a750db257d6a44", "is_reserved": 0, "fusion_lon": 0.0, "bike_id": "0f33c3f895f17f9605a750db257d6a44", "lat": 38.92401266666667, "is_disabled": 0, "lon": -77.02552033333333, "fusion_lat": 0.0, "rental_uris": {"ios": "https://dc.lft.to/lastmile_qr_scan", "android": "https://dc.lft.to/lastmile_qr_scan"}, "type": "electric_scooter"}, {"name": "edd2f74bd78a24a06c1b82a4923fabff", "is_reserved": 0, "fusion_lon": 0.0, "bike_id": "edd2f74bd78a24a06c1b82a4923fabff", "lat": 38.923093333333334, "is_disabled": 0, "lon": -77.03648566666666, "fusion_lat": 0.0, "rental_uris": {"ios": "https://dc.lft.to/lastmile_qr_scan", "android": "https://dc.lft.to/lastmile_qr_scan"}, "type": "electric_scooter"}, {"name": "2eb20cda98ea80216a6d0319d5114417", "is_reserved": 0, "fusion_lon": 0.0, "bike_id": "2eb20cda98ea80216a6d0319d5114417", "lat": 38.90034833333333, "is_disabled": 0, "lon": -77.0413185, "fusion_lat": 0.0, "rental_uris": {"ios": "https://dc.lft.to/lastmile_qr_scan", "android": "https://dc.lft.to/lastmile_qr_scan"}, "type": "electric_scooter"}, {"name": "3880b1c0cfbcb60f38fa8d76206c799d", "is_reserved": 0, "fusion_lon": 0.0, "bike_id": "3880b1c0cfbcb60f38fa8d76206c799d", "lat": 38.9068185, "is_disabled": 0, "lon": -77.03812483333333, "fusion_lat": 0.0, "rental_uris": {"ios": "https://dc.lft.to/lastmile_qr_scan", "android": "https://dc.lft.to/lastmile_qr_scan"}, "type": "electric_scooter"}, {"name": "7e787e9663ed9c394d16a1de3765f6e3", "is_reserved": 0, "fusion_lon": 0.0, "bike_id": "7e787e9663ed9c394d16a1de3765f6e3", "lat": 38.908436333333334, "is_disabled": 0, "lon": -77.0549065, "fusion_lat": 0.0, "rental_uris": {"ios": "https://dc.lft.to/lastmile_qr_scan", "android": "https://dc.lft.to/lastmile_qr_scan"}, "type": "electric_scooter"}, {"name": "159b311a15c967c36c3fd0796e1ea834", "is_reserved": 0, "fusion_lon": 0.0, "bike_id": "159b311a15c967c36c3fd0796e1ea834", "lat": 38.884290666666665, "is_disabled": 0, "lon": -76.995888, "fusion_lat": 0.0, "rental_uris": {"ios": "https://dc.lft.to/lastmile_qr_scan", "android": "https://dc.lft.to/lastmile_qr_scan"}, "type": "electric_scooter"}, {"name": "a1e0c5c591f6f0959cd4f308bb8d94ca", "is_reserved": 0, "fusion_lon": 0.0, "bike_id": "a1e0c5c591f6f0959cd4f308bb8d94ca", "lat": 38.89588333333333, "is_disabled": 0, "lon": -77.00961766666667, "fusion_lat": 0.0, "rental_uris": {"ios": "https://dc.lft.to/lastmile_qr_scan", "android": "https://dc.lft.to/lastmile_qr_scan"}, "type": "electric_scooter"}, {"name": "780a753b85187bf7b1aa9e003b731a23", "is_reserved": 0, "fusion_lon": 0.0, "bike_id": "780a753b85187bf7b1aa9e003b731a23", "lat": 38.99096133333333, "is_disabled": 0, "lon": -76.99372283333334, "fusion_lat": 0.0, "rental_uris": {"ios": "https://dc.lft.to/lastmile_qr_scan", "android": "https://dc.lft.to/lastmile_qr_scan"}, "type": "electric_bike"}, {"name": "ab079fa1cdc8356387be54af14f91608", "is_reserved": 0, "fusion_lon": 0.0, "bike_id": "ab079fa1cdc8356387be54af14f91608", "lat": 38.939683333333335, "is_disabled": 0, "lon": -77.03251583333333, "fusion_lat": 0.0, "rental_uris": {"ios": "https://dc.lft.to/lastmile_qr_scan", "android": "https://dc.lft.to/lastmile_qr_scan"}, "type": "electric_scooter"}, {"name": "12b881d9ad2a702c01d073bf5e7a04d0", "is_reserved": 0, "fusion_lon": 0.0, "bike_id": "12b881d9ad2a702c01d073bf5e7a04d0", "lat": 38.902647, "is_disabled": 0, "lon": -77.0307055, "fusion_lat": 0.0, "rental_uris": {"ios": "https://dc.lft.to/lastmile_qr_scan", "android": "https://dc.lft.to/lastmile_qr_scan"}, "type": "electric_scooter"}, {"name": "a96bf33d531af9b89f404704fe01b932", "is_reserved": 0, "fusion_lon": 0.0, "bike_id": "a96bf33d531af9b89f404704fe01b932", "lat": 38.88344016666667, "is_disabled": 0, "lon": -76.93627783333334, "fusion_lat": 0.0, "rental_uris": {"ios": "https://dc.lft.to/lastmile_qr_scan", "android": "https://dc.lft.to/lastmile_qr_scan"}, "type": "electric_scooter"}, {"name": "0534d720463bea84da98bc51200c7003", "is_reserved": 0, "fusion_lon": 0.0, "bike_id": "0534d720463bea84da98bc51200c7003", "lat": 38.9016675, "is_disabled": 0, "lon": -76.929394, "fusion_lat": 0.0, "rental_uris": {"ios": "https://dc.lft.to/lastmile_qr_scan", "android": "https://dc.lft.to/lastmile_qr_scan"}, "type": "electric_scooter"}, {"name": "ad25affed894cbf3a53f626f701be2c8", "is_reserved": 0, "fusion_lon": 0.0, "bike_id": "ad25affed894cbf3a53f626f701be2c8", "lat": 38.924727, "is_disabled": 0, "lon": -77.02219083333334, "fusion_lat": 0.0, "rental_uris": {"ios": "https://dc.lft.to/lastmile_qr_scan", "android": "https://dc.lft.to/lastmile_qr_scan"}, "type": "electric_scooter"}, {"name": "208b89c566ca379523e04530b721f73e", "is_reserved": 0, "fusion_lon": 0.0, "bike_id": "208b89c566ca379523e04530b721f73e", "lat": 38.90235766666667, "is_disabled": 0, "lon": -77.00697683333334, "fusion_lat": 0.0, "rental_uris": {"ios": "https://dc.lft.to/lastmile_qr_scan", "android": "https://dc.lft.to/lastmile_qr_scan"}, "type": "electric_scooter"}, {"name": "604d131e272f47dd5f900b3d7ba30dd4", "is_reserved": 0, "fusion_lon": 0.0, "bike_id": "604d131e272f47dd5f900b3d7ba30dd4", "lat": 38.92451116666667, "is_disabled": 0, "lon": -77.02149733333333, "fusion_lat": 0.0, "rental_uris": {"ios": "https://dc.lft.to/lastmile_qr_scan", "android": "https://dc.lft.to/lastmile_qr_scan"}, "type": "electric_scooter"}, {"name": "ec15309e276195ae287719c8f76bb864", "is_reserved": 0, "fusion_lon": 0.0, "bike_id": "ec15309e276195ae287719c8f76bb864", "lat": 38.91006466666666, "is_disabled": 0, "lon": -77.034466, "fusion_lat": 0.0, "rental_uris": {"ios": "https://dc.lft.to/lastmile_qr_scan", "android": "https://dc.lft.to/lastmile_qr_scan"}, "type": "electric_scooter"}, {"name": "d89d55de45ecd7a4e51940b7440c1ac9", "is_reserved": 0, "fusion_lon": 0.0, "bike_id": "d89d55de45ecd7a4e51940b7440c1ac9", "lat": 38.877363333333335, "is_disabled": 0, "lon": -77.0105435, "fusion_lat": 0.0, "rental_uris": {"ios": "https://dc.lft.to/lastmile_qr_scan", "android": "https://dc.lft.to/lastmile_qr_scan"}, "type": "electric_scooter"}, {"name": "30dbdf1de8856a1e559049472defca52", "is_reserved": 0, "fusion_lon": 0.0, "bike_id": "30dbdf1de8856a1e559049472defca52", "lat": 38.92039283333333, "is_disabled": 0, "lon": -77.034114, "fusion_lat": 0.0, "rental_uris": {"ios": "https://dc.lft.to/lastmile_qr_scan", "android": "https://dc.lft.to/lastmile_qr_scan"}, "type": "electric_scooter"}, {"name": "17738738ffcab7b3a29c2482a97ddaf2", "is_reserved": 0, "fusion_lon": 0.0, "bike_id": "17738738ffcab7b3a29c2482a97ddaf2", "lat": 38.91192366666667, "is_disabled": 0, "lon": -77.01839116666666, "fusion_lat": 0.0, "rental_uris": {"ios": "https://dc.lft.to/lastmile_qr_scan", "android": "https://dc.lft.to/lastmile_qr_scan"}, "type": "electric_scooter"}, {"name": "a929dda8c84cd0f74ed8768d244bd490", "is_reserved": 0, "fusion_lon": 0.0, "bike_id": "a929dda8c84cd0f74ed8768d244bd490", "lat": 38.8855265, "is_disabled": 0, "lon": -77.02005483333333, "fusion_lat": 0.0, "rental_uris": {"ios": "https://dc.lft.to/lastmile_qr_scan", "android": "https://dc.lft.to/lastmile_qr_scan"}, "type": "electric_scooter"}, {"name": "fc2d353c18657bb941395a69222f4b66", "is_reserved": 0, "fusion_lon": 0.0, "bike_id": "fc2d353c18657bb941395a69222f4b66", "lat": 38.929583, "is_disabled": 0, "lon": -77.22569283333333, "fusion_lat": 0.0, "rental_uris": {"ios": "https://dc.lft.to/lastmile_qr_scan", "android": "https://dc.lft.to/lastmile_qr_scan"}, "type": "electric_bike"}, {"name": "b359e9e8dfcd2e372f5c775aac60258d", "is_reserved": 0, "fusion_lon": 0.0, "bike_id": "b359e9e8dfcd2e372f5c775aac60258d", "lat": 38.89218666666667, "is_disabled": 0, "lon": -77.04864366666666, "fusion_lat": 0.0, "rental_uris": {"ios": "https://dc.lft.to/lastmile_qr_scan", "android": "https://dc.lft.to/lastmile_qr_scan"}, "type": "electric_scooter"}, {"name": "df5d8533140184a779daf924a2ddbb2c", "is_reserved": 0, "fusion_lon": 0.0, "bike_id": "df5d8533140184a779daf924a2ddbb2c", "lat": 38.90271216666667, "is_disabled": 0, "lon": -77.03259083333333, "fusion_lat": 0.0, "rental_uris": {"ios": "https://dc.lft.to/lastmile_qr_scan", "android": "https://dc.lft.to/lastmile_qr_scan"}, "type": "electric_scooter"}, {"name": "2d1f55bc6ec169b26ed27642e9d6c556", "is_reserved": 0, "fusion_lon": 0.0, "bike_id": "2d1f55bc6ec169b26ed27642e9d6c556", "lat": 38.9243495, "is_disabled": 0, "lon": -77.05210766666667, "fusion_lat": 0.0, "rental_uris": {"ios": "https://dc.lft.to/lastmile_qr_scan", "android": "https://dc.lft.to/lastmile_qr_scan"}, "type": "electric_scooter"}, {"name": "72aecd6ea804e4a2e3357457c0fb97db", "is_reserved": 0, "fusion_lon": 0.0, "bike_id": "72aecd6ea804e4a2e3357457c0fb97db", "lat": 38.91918016666666, "is_disabled": 0, "lon": -77.03336366666667, "fusion_lat": 0.0, "rental_uris": {"ios": "https://dc.lft.to/lastmile_qr_scan", "android": "https://dc.lft.to/lastmile_qr_scan"}, "type": "electric_scooter"}, {"name": "462425f4e1404868831e48815ae0dd5a", "is_reserved": 0, "fusion_lon": 0.0, "bike_id": "462425f4e1404868831e48815ae0dd5a", "lat": 38.91780033333333, "is_disabled": 0, "lon": -77.02376983333333, "fusion_lat": 0.0, "rental_uris": {"ios": "https://dc.lft.to/lastmile_qr_scan", "android": "https://dc.lft.to/lastmile_qr_scan"}, "type": "electric_scooter"}, {"name": "34a65f2d025fe0ea2da6e501fd93a3bc", "is_reserved": 0, "fusion_lon": 0.0, "bike_id": "34a65f2d025fe0ea2da6e501fd93a3bc", "lat": 38.897528666666666, "is_disabled": 0, "lon": -77.05500716666667, "fusion_lat": 0.0, "rental_uris": {"ios": "https://dc.lft.to/lastmile_qr_scan", "android": "https://dc.lft.to/lastmile_qr_scan"}, "type": "electric_scooter"}, {"name": "ef0f07195a1f3645385e7f24839355d5", "is_reserved": 0, "fusion_lon": 0.0, "bike_id": "ef0f07195a1f3645385e7f24839355d5", "lat": 38.92056766666666, "is_disabled": 0, "lon": -77.02449383333334, "fusion_lat": 0.0, "rental_uris": {"ios": "https://dc.lft.to/lastmile_qr_scan", "android": "https://dc.lft.to/lastmile_qr_scan"}, "type": "electric_scooter"}, {"name": "ecfae9e3eee720c749a5633aaf4efb7a", "is_reserved": 0, "fusion_lon": 0.0, "bike_id": "ecfae9e3eee720c749a5633aaf4efb7a", "lat": 38.915570333333335, "is_disabled": 0, "lon": -77.03168516666666, "fusion_lat": 0.0, "rental_uris": {"ios": "https://dc.lft.to/lastmile_qr_scan", "android": "https://dc.lft.to/lastmile_qr_scan"}, "type": "electric_scooter"}, {"name": "983616312038c0198256fdaba86da6a9", "is_reserved": 0, "fusion_lon": 0.0, "bike_id": "983616312038c0198256fdaba86da6a9", "lat": 38.87678616666667, "is_disabled": 0, "lon": -77.0178865, "fusion_lat": 0.0, "rental_uris": {"ios": "https://dc.lft.to/lastmile_qr_scan", "android": "https://dc.lft.to/lastmile_qr_scan"}, "type": "electric_scooter"}, {"name": "6081ce6760ff89df79c6ef8ce8df3a64", "is_reserved": 0, "fusion_lon": 0.0, "bike_id": "6081ce6760ff89df79c6ef8ce8df3a64", "lat": 38.90427066666667, "is_disabled": 0, "lon": -77.032477, "fusion_lat": 0.0, "rental_uris": {"ios": "https://dc.lft.to/lastmile_qr_scan", "android": "https://dc.lft.to/lastmile_qr_scan"}, "type": "electric_scooter"}, {"name": "f351be2371432c152cafaaf3a787fb72", "is_reserved": 0, "fusion_lon": 0.0, "bike_id": "f351be2371432c152cafaaf3a787fb72", "lat": 38.9069635, "is_disabled": 0, "lon": -77.00346366666666, "fusion_lat": 0.0, "rental_uris": {"ios": "https://dc.lft.to/lastmile_qr_scan", "android": "https://dc.lft.to/lastmile_qr_scan"}, "type": "electric_scooter"}, {"name": "aa97cdebc11a8c8c8b93cc8971155a9f", "is_reserved": 0, "fusion_lon": 0.0, "bike_id": "aa97cdebc11a8c8c8b93cc8971155a9f", "lat": 38.892406, "is_disabled": 0, "lon": -77.03355866666666, "fusion_lat": 0.0, "rental_uris": {"ios": "https://dc.lft.to/lastmile_qr_scan", "android": "https://dc.lft.to/lastmile_qr_scan"}, "type": "electric_scooter"}, {"name": "cf8a5b07a36b175d4e4f1137f59e28b6", "is_reserved": 0, "fusion_lon": 0.0, "bike_id": "cf8a5b07a36b175d4e4f1137f59e28b6", "lat": 38.92476766666667, "is_disabled": 0, "lon": -77.02135783333334, "fusion_lat": 0.0, "rental_uris": {"ios": "https://dc.lft.to/lastmile_qr_scan", "android": "https://dc.lft.to/lastmile_qr_scan"}, "type": "electric_scooter"}, {"name": "e03cf12178764a586762398ae002deba", "is_reserved": 0, "fusion_lon": 0.0, "bike_id": "e03cf12178764a586762398ae002deba", "lat": 38.892155, "is_disabled": 0, "lon": -77.0468745, "fusion_lat": 0.0, "rental_uris": {"ios": "https://dc.lft.to/lastmile_qr_scan", "android": "https://dc.lft.to/lastmile_qr_scan"}, "type": "electric_scooter"}, {"name": "2985204d2a0a224f52c78f9492ab4bde", "is_reserved": 0, "fusion_lon": 0.0, "bike_id": "2985204d2a0a224f52c78f9492ab4bde", "lat": 38.906706166666666, "is_disabled": 0, "lon": -77.07179033333334, "fusion_lat": 0.0, "rental_uris": {"ios": "https://dc.lft.to/lastmile_qr_scan", "android": "https://dc.lft.to/lastmile_qr_scan"}, "type": "electric_scooter"}, {"name": "bd4048a68be0b39ea8549eca236cd2ef", "is_reserved": 0, "fusion_lon": 0.0, "bike_id": "bd4048a68be0b39ea8549eca236cd2ef", "lat": 38.898446, "is_disabled": 0, "lon": -77.04663383333333, "fusion_lat": 0.0, "rental_uris": {"ios": "https://dc.lft.to/lastmile_qr_scan", "android": "https://dc.lft.to/lastmile_qr_scan"}, "type": "electric_scooter"}, {"name": "bfa43a891e256fcbdee8f10a7f292d67", "is_reserved": 0, "fusion_lon": 0.0, "bike_id": "bfa43a891e256fcbdee8f10a7f292d67", "lat": 38.92042283333333, "is_disabled": 0, "lon": -77.01671033333334, "fusion_lat": 0.0, "rental_uris": {"ios": "https://dc.lft.to/lastmile_qr_scan", "android": "https://dc.lft.to/lastmile_qr_scan"}, "type": "electric_scooter"}, {"name": "e40c729074582950c9a9646d306a270e", "is_reserved": 0, "fusion_lon": 0.0, "bike_id": "e40c729074582950c9a9646d306a270e", "lat": 38.92269683333333, "is_disabled": 0, "lon": -77.0212315, "fusion_lat": 0.0, "rental_uris": {"ios": "https://dc.lft.to/lastmile_qr_scan", "android": "https://dc.lft.to/lastmile_qr_scan"}, "type": "electric_scooter"}, {"name": "099f7bd95a65e22e5a530af7605025b6", "is_reserved": 0, "fusion_lon": 0.0, "bike_id": "099f7bd95a65e22e5a530af7605025b6", "lat": 38.91684016666667, "is_disabled": 0, "lon": -77.03461866666666, "fusion_lat": 0.0, "rental_uris": {"ios": "https://dc.lft.to/lastmile_qr_scan", "android": "https://dc.lft.to/lastmile_qr_scan"}, "type": "electric_scooter"}, {"name": "22b30c5352bf428297ce80b289d7027a", "is_reserved": 0, "fusion_lon": 0.0, "bike_id": "22b30c5352bf428297ce80b289d7027a", "lat": 38.921329666666665, "is_disabled": 0, "lon": -77.0187165, "fusion_lat": 0.0, "rental_uris": {"ios": "https://dc.lft.to/lastmile_qr_scan", "android": "https://dc.lft.to/lastmile_qr_scan"}, "type": "electric_scooter"}, {"name": "9b952c33288b783371f1a2d76224aed6", "is_reserved": 0, "fusion_lon": 0.0, "bike_id": "9b952c33288b783371f1a2d76224aed6", "lat": 38.898488, "is_disabled": 0, "lon": -77.0466575, "fusion_lat": 0.0, "rental_uris": {"ios": "https://dc.lft.to/lastmile_qr_scan", "android": "https://dc.lft.to/lastmile_qr_scan"}, "type": "electric_scooter"}, {"name": "e8904e9294e8bd63f79df062cddb7ee9", "is_reserved": 0, "fusion_lon": 0.0, "bike_id": "e8904e9294e8bd63f79df062cddb7ee9", "lat": 38.907780333333335, "is_disabled": 0, "lon": -77.06297633333334, "fusion_lat": 0.0, "rental_uris": {"ios": "https://dc.lft.to/lastmile_qr_scan", "android": "https://dc.lft.to/lastmile_qr_scan"}, "type": "electric_scooter"}, {"name": "fecf966480fa2c1234249c923d02e5ee", "is_reserved": 0, "fusion_lon": 0.0, "bike_id": "fecf966480fa2c1234249c923d02e5ee", "lat": 38.90714416666667, "is_disabled": 0, "lon": -76.9982795, "fusion_lat": 0.0, "rental_uris": {"ios": "https://dc.lft.to/lastmile_qr_scan", "android": "https://dc.lft.to/lastmile_qr_scan"}, "type": "electric_scooter"}, {"name": "ea8abd25c4b021b5d4ac20fd6548d37f", "is_reserved": 0, "fusion_lon": 0.0, "bike_id": "ea8abd25c4b021b5d4ac20fd6548d37f", "lat": 38.926499166666666, "is_disabled": 0, "lon": -77.09015383333333, "fusion_lat": 0.0, "rental_uris": {"ios": "https://dc.lft.to/lastmile_qr_scan", "android": "https://dc.lft.to/lastmile_qr_scan"}, "type": "electric_bike"}, {"name": "136a56586f1e146a0267822fe9bc08ce", "is_reserved": 0, "fusion_lon": 0.0, "bike_id": "136a56586f1e146a0267822fe9bc08ce", "lat": 38.94306516666666, "is_disabled": 0, "lon": -77.02951316666666, "fusion_lat": 0.0, "rental_uris": {"ios": "https://dc.lft.to/lastmile_qr_scan", "android": "https://dc.lft.to/lastmile_qr_scan"}, "type": "electric_scooter"}, {"name": "13b3e1d125e2e2882f52522024706d93", "is_reserved": 0, "fusion_lon": 0.0, "bike_id": "13b3e1d125e2e2882f52522024706d93", "lat": 38.909711, "is_disabled": 0, "lon": -77.03456533333333, "fusion_lat": 0.0, "rental_uris": {"ios": "https://dc.lft.to/lastmile_qr_scan", "android": "https://dc.lft.to/lastmile_qr_scan"}, "type": "electric_scooter"}, {"name": "618d6b03f957f217f6e6cf1200361b19", "is_reserved": 0, "fusion_lon": 0.0, "bike_id": "618d6b03f957f217f6e6cf1200361b19", "lat": 38.924754166666666, "is_disabled": 0, "lon": -77.02194916666667, "fusion_lat": 0.0, "rental_uris": {"ios": "https://dc.lft.to/lastmile_qr_scan", "android": "https://dc.lft.to/lastmile_qr_scan"}, "type": "electric_scooter"}, {"name": "ad68af91da4978fb63307f2591fef637", "is_reserved": 0, "fusion_lon": 0.0, "bike_id": "ad68af91da4978fb63307f2591fef637", "lat": 38.902712, "is_disabled": 0, "lon": -77.03640383333334, "fusion_lat": 0.0, "rental_uris": {"ios": "https://dc.lft.to/lastmile_qr_scan", "android": "https://dc.lft.to/lastmile_qr_scan"}, "type": "electric_scooter"}, {"name": "f437174363db0e5d81b9c34dbf9727e5", "is_reserved": 0, "fusion_lon": 0.0, "bike_id": "f437174363db0e5d81b9c34dbf9727e5", "lat": 38.91618366666667, "is_disabled": 0, "lon": -77.00496633333333, "fusion_lat": 0.0, "rental_uris": {"ios": "https://dc.lft.to/lastmile_qr_scan", "android": "https://dc.lft.to/lastmile_qr_scan"}, "type": "electric_scooter"}, {"name": "dd99085589f427431ec422c0def33de5", "is_reserved": 0, "fusion_lon": 0.0, "bike_id": "dd99085589f427431ec422c0def33de5", "lat": 38.980084833333336, "is_disabled": 0, "lon": -77.0640605, "fusion_lat": 0.0, "rental_uris": {"ios": "https://dc.lft.to/lastmile_qr_scan", "android": "https://dc.lft.to/lastmile_qr_scan"}, "type": "electric_bike"}, {"name": "c22a99fb3f5ff14845b145610af347fe", "is_reserved": 0, "fusion_lon": 0.0, "bike_id": "c22a99fb3f5ff14845b145610af347fe", "lat": 38.9192125, "is_disabled": 0, "lon": -77.04170666666667, "fusion_lat": 0.0, "rental_uris": {"ios": "https://dc.lft.to/lastmile_qr_scan", "android": "https://dc.lft.to/lastmile_qr_scan"}, "type": "electric_scooter"}, {"name": "5311ebea5df9248ff49b045dd177ad4b", "is_reserved": 0, "fusion_lon": 0.0, "bike_id": "5311ebea5df9248ff49b045dd177ad4b", "lat": 38.9237425, "is_disabled": 0, "lon": -77.0255635, "fusion_lat": 0.0, "rental_uris": {"ios": "https://dc.lft.to/lastmile_qr_scan", "android": "https://dc.lft.to/lastmile_qr_scan"}, "type": "electric_scooter"}, {"name": "d41051c08db3344f0d1e452ce6048f75", "is_reserved": 0, "fusion_lon": 0.0, "bike_id": "d41051c08db3344f0d1e452ce6048f75", "lat": 38.89608616666666, "is_disabled": 0, "lon": -77.0055895, "fusion_lat": 0.0, "rental_uris": {"ios": "https://dc.lft.to/lastmile_qr_scan", "android": "https://dc.lft.to/lastmile_qr_scan"}, "type": "electric_scooter"}, {"name": "04124297a7c660de41036331a8b003b3", "is_reserved": 0, "fusion_lon": 0.0, "bike_id": "04124297a7c660de41036331a8b003b3", "lat": 38.94718, "is_disabled": 0, "lon": -77.09876833333334, "fusion_lat": 0.0, "rental_uris": {"ios": "https://dc.lft.to/lastmile_qr_scan", "android": "https://dc.lft.to/lastmile_qr_scan"}, "type": "electric_bike"}, {"name": "bce20b45e9be2825a7eae5dca93a8610", "is_reserved": 0, "fusion_lon": 0.0, "bike_id": "bce20b45e9be2825a7eae5dca93a8610", "lat": 38.889854666666665, "is_disabled": 0, "lon": -77.0829685, "fusion_lat": 0.0, "rental_uris": {"ios": "https://dc.lft.to/lastmile_qr_scan", "android": "https://dc.lft.to/lastmile_qr_scan"}, "type": "electric_bike"}, {"name": "186dcaf5d697927fe911bbbfdfa18073", "is_reserved": 0, "fusion_lon": 0.0, "bike_id": "186dcaf5d697927fe911bbbfdfa18073", "lat": 38.924529666666665, "is_disabled": 0, "lon": -76.975569, "fusion_lat": 0.0, "rental_uris": {"ios": "https://dc.lft.to/lastmile_qr_scan", "android": "https://dc.lft.to/lastmile_qr_scan"}, "type": "electric_bike"}, {"name": "bd006fd1fcf42677df4319e12538d213", "is_reserved": 0, "fusion_lon": 0.0, "bike_id": "bd006fd1fcf42677df4319e12538d213", "lat": 38.8994315, "is_disabled": 0, "lon": -77.02591683333333, "fusion_lat": 0.0, "rental_uris": {"ios": "https://dc.lft.to/lastmile_qr_scan", "android": "https://dc.lft.to/lastmile_qr_scan"}, "type": "electric_scooter"}, {"name": "0fc019e8bae2a62e81bcd8acadd5427f", "is_reserved": 0, "fusion_lon": 0.0, "bike_id": "0fc019e8bae2a62e81bcd8acadd5427f", "lat": 38.89618333333333, "is_disabled": 0, "lon": -76.9856805, "fusion_lat": 0.0, "rental_uris": {"ios": "https://dc.lft.to/lastmile_qr_scan", "android": "https://dc.lft.to/lastmile_qr_scan"}, "type": "electric_scooter"}, {"name": "57ae50c11738012b4c31ea07ab0e304c", "is_reserved": 0, "fusion_lon": 0.0, "bike_id": "57ae50c11738012b4c31ea07ab0e304c", "lat": 38.891505333333335, "is_disabled": 0, "lon": -76.9836135, "fusion_lat": 0.0, "rental_uris": {"ios": "https://dc.lft.to/lastmile_qr_scan", "android": "https://dc.lft.to/lastmile_qr_scan"}, "type": "electric_scooter"}, {"name": "c20385c3ab14503efbc7a6ac2b043062", "is_reserved": 0, "fusion_lon": 0.0, "bike_id": "c20385c3ab14503efbc7a6ac2b043062", "lat": 38.90895616666667, "is_disabled": 0, "lon": -77.04147733333333, "fusion_lat": 0.0, "rental_uris": {"ios": "https://dc.lft.to/lastmile_qr_scan", "android": "https://dc.lft.to/lastmile_qr_scan"}, "type": "electric_scooter"}, {"name": "9f02ef4d6d75371ecd8983ae65642094", "is_reserved": 0, "fusion_lon": 0.0, "bike_id": "9f02ef4d6d75371ecd8983ae65642094", "lat": 38.90505116666667, "is_disabled": 0, "lon": -77.04068033333333, "fusion_lat": 0.0, "rental_uris": {"ios": "https://dc.lft.to/lastmile_qr_scan", "android": "https://dc.lft.to/lastmile_qr_scan"}, "type": "electric_scooter"}, {"name": "09e22023b6edd802817f61273267203c", "is_reserved": 0, "fusion_lon": 0.0, "bike_id": "09e22023b6edd802817f61273267203c", "lat": 38.884805666666665, "is_disabled": 0, "lon": -77.00709666666667, "fusion_lat": 0.0, "rental_uris": {"ios": "https://dc.lft.to/lastmile_qr_scan", "android": "https://dc.lft.to/lastmile_qr_scan"}, "type": "electric_scooter"}, {"name": "73e669d9a7730a6804d34460beba1ee6", "is_reserved": 0, "fusion_lon": 0.0, "bike_id": "73e669d9a7730a6804d34460beba1ee6", "lat": 38.94924983333333, "is_disabled": 0, "lon": -77.0186315, "fusion_lat": 0.0, "rental_uris": {"ios": "https://dc.lft.to/lastmile_qr_scan", "android": "https://dc.lft.to/lastmile_qr_scan"}, "type": "electric_scooter"}, {"name": "faecc7aff7ed060461c27d88e555d83c", "is_reserved": 0, "fusion_lon": 0.0, "bike_id": "faecc7aff7ed060461c27d88e555d83c", "lat": 38.91717716666667, "is_disabled": 0, "lon": -77.03857616666667, "fusion_lat": 0.0, "rental_uris": {"ios": "https://dc.lft.to/lastmile_qr_scan", "android": "https://dc.lft.to/lastmile_qr_scan"}, "type": "electric_scooter"}, {"name": "71ec79c9881449639b9cb3e01760ea1d", "is_reserved": 0, "fusion_lon": 0.0, "bike_id": "71ec79c9881449639b9cb3e01760ea1d", "lat": 38.918068166666664, "is_disabled": 0, "lon": -77.049778, "fusion_lat": 0.0, "rental_uris": {"ios": "https://dc.lft.to/lastmile_qr_scan", "android": "https://dc.lft.to/lastmile_qr_scan"}, "type": "electric_scooter"}, {"name": "9792b80fbfdaf1afe270446db59c8a4c", "is_reserved": 0, "fusion_lon": 0.0, "bike_id": "9792b80fbfdaf1afe270446db59c8a4c", "lat": 38.931634, "is_disabled": 0, "lon": -77.03786766666667, "fusion_lat": 0.0, "rental_uris": {"ios": "https://dc.lft.to/lastmile_qr_scan", "android": "https://dc.lft.to/lastmile_qr_scan"}, "type": "electric_scooter"}, {"name": "124078cb6e0e8b083fcb6ec6517cd24b", "is_reserved": 0, "fusion_lon": 0.0, "bike_id": "124078cb6e0e8b083fcb6ec6517cd24b", "lat": 38.934272, "is_disabled": 0, "lon": -77.04002383333334, "fusion_lat": 0.0, "rental_uris": {"ios": "https://dc.lft.to/lastmile_qr_scan", "android": "https://dc.lft.to/lastmile_qr_scan"}, "type": "electric_scooter"}, {"name": "a12e56aac05f39f19f4cd6598ba375e5", "is_reserved": 0, "fusion_lon": 0.0, "bike_id": "a12e56aac05f39f19f4cd6598ba375e5", "lat": 38.902788666666666, "is_disabled": 0, "lon": -77.02559766666667, "fusion_lat": 0.0, "rental_uris": {"ios": "https://dc.lft.to/lastmile_qr_scan", "android": "https://dc.lft.to/lastmile_qr_scan"}, "type": "electric_scooter"}, {"name": "504b4f2f4b85edf65e9f78920d864c5f", "is_reserved": 0, "fusion_lon": 0.0, "bike_id": "504b4f2f4b85edf65e9f78920d864c5f", "lat": 38.89706266666666, "is_disabled": 0, "lon": -77.01279683333334, "fusion_lat": 0.0, "rental_uris": {"ios": "https://dc.lft.to/lastmile_qr_scan", "android": "https://dc.lft.to/lastmile_qr_scan"}, "type": "electric_scooter"}, {"name": "94bc96dbef056226e79ab85f5bde9de9", "is_reserved": 0, "fusion_lon": 0.0, "bike_id": "94bc96dbef056226e79ab85f5bde9de9", "lat": 38.91131016666667, "is_disabled": 0, "lon": -77.00363483333334, "fusion_lat": 0.0, "rental_uris": {"ios": "https://dc.lft.to/lastmile_qr_scan", "android": "https://dc.lft.to/lastmile_qr_scan"}, "type": "electric_scooter"}, {"name": "c5b24c1a391d629d6824e1e020c1cb40", "is_reserved": 0, "fusion_lon": 0.0, "bike_id": "c5b24c1a391d629d6824e1e020c1cb40", "lat": 38.927863333333335, "is_disabled": 0, "lon": -77.0212855, "fusion_lat": 0.0, "rental_uris": {"ios": "https://dc.lft.to/lastmile_qr_scan", "android": "https://dc.lft.to/lastmile_qr_scan"}, "type": "electric_scooter"}, {"name": "3a4c4f4f05fb3a02249e84b019786153", "is_reserved": 0, "fusion_lon": 0.0, "bike_id": "3a4c4f4f05fb3a02249e84b019786153", "lat": 38.884971166666666, "is_disabled": 0, "lon": -77.0056315, "fusion_lat": 0.0, "rental_uris": {"ios": "https://dc.lft.to/lastmile_qr_scan", "android": "https://dc.lft.to/lastmile_qr_scan"}, "type": "electric_scooter"}, {"name": "1e23eacecc5cb8264a1cdba838bd4ab9", "is_reserved": 0, "fusion_lon": 0.0, "bike_id": "1e23eacecc5cb8264a1cdba838bd4ab9", "lat": 38.929543, "is_disabled": 0, "lon": -77.01143283333333, "fusion_lat": 0.0, "rental_uris": {"ios": "https://dc.lft.to/lastmile_qr_scan", "android": "https://dc.lft.to/lastmile_qr_scan"}, "type": "electric_scooter"}, {"name": "6d56c8307c22fbbc4b5d52a0fd63ccbb", "is_reserved": 0, "fusion_lon": 0.0, "bike_id": "6d56c8307c22fbbc4b5d52a0fd63ccbb", "lat": 38.867278166666665, "is_disabled": 0, "lon": -76.98943216666666, "fusion_lat": 0.0, "rental_uris": {"ios": "https://dc.lft.to/lastmile_qr_scan", "android": "https://dc.lft.to/lastmile_qr_scan"}, "type": "electric_bike"}, {"name": "b79cf40e22cc9300046e5dded83492f4", "is_reserved": 0, "fusion_lon": 0.0, "bike_id": "b79cf40e22cc9300046e5dded83492f4", "lat": 38.90004783333333, "is_disabled": 0, "lon": -76.99554233333333, "fusion_lat": 0.0, "rental_uris": {"ios": "https://dc.lft.to/lastmile_qr_scan", "android": "https://dc.lft.to/lastmile_qr_scan"}, "type": "electric_scooter"}, {"name": "6cb88da5c745054b53a23ca97a298001", "is_reserved": 0, "fusion_lon": 0.0, "bike_id": "6cb88da5c745054b53a23ca97a298001", "lat": 38.913179166666666, "is_disabled": 0, "lon": -77.01512816666667, "fusion_lat": 0.0, "rental_uris": {"ios": "https://dc.lft.to/lastmile_qr_scan", "android": "https://dc.lft.to/lastmile_qr_scan"}, "type": "electric_scooter"}, {"name": "da37483b32bea45bb3077695a8944dc3", "is_reserved": 0, "fusion_lon": 0.0, "bike_id": "da37483b32bea45bb3077695a8944dc3", "lat": 38.9308785, "is_disabled": 0, "lon": -77.02412883333334, "fusion_lat": 0.0, "rental_uris": {"ios": "https://dc.lft.to/lastmile_qr_scan", "android": "https://dc.lft.to/lastmile_qr_scan"}, "type": "electric_scooter"}, {"name": "e8649405180751fcaedca8e39d4b060d", "is_reserved": 0, "fusion_lon": 0.0, "bike_id": "e8649405180751fcaedca8e39d4b060d", "lat": 38.89473783333333, "is_disabled": 0, "lon": -76.9859435, "fusion_lat": 0.0, "rental_uris": {"ios": "https://dc.lft.to/lastmile_qr_scan", "android": "https://dc.lft.to/lastmile_qr_scan"}, "type": "electric_scooter"}, {"name": "15a0d1dec738ec8af4ed13b886122fdc", "is_reserved": 0, "fusion_lon": 0.0, "bike_id": "15a0d1dec738ec8af4ed13b886122fdc", "lat": 38.89953633333333, "is_disabled": 0, "lon": -77.048226, "fusion_lat": 0.0, "rental_uris": {"ios": "https://dc.lft.to/lastmile_qr_scan", "android": "https://dc.lft.to/lastmile_qr_scan"}, "type": "electric_scooter"}, {"name": "7e9386b686917500af29c8e818392cb6", "is_reserved": 0, "fusion_lon": 0.0, "bike_id": "7e9386b686917500af29c8e818392cb6", "lat": 38.921897333333334, "is_disabled": 0, "lon": -77.09941266666667, "fusion_lat": 0.0, "rental_uris": {"ios": "https://dc.lft.to/lastmile_qr_scan", "android": "https://dc.lft.to/lastmile_qr_scan"}, "type": "electric_scooter"}, {"name": "da264caca717dcfca54f541d6bf490dd", "is_reserved": 0, "fusion_lon": 0.0, "bike_id": "da264caca717dcfca54f541d6bf490dd", "lat": 38.89617633333334, "is_disabled": 0, "lon": -77.02409616666667, "fusion_lat": 0.0, "rental_uris": {"ios": "https://dc.lft.to/lastmile_qr_scan", "android": "https://dc.lft.to/lastmile_qr_scan"}, "type": "electric_scooter"}, {"name": "5f2794ead4b24a5a427ee1259b4ccb33", "is_reserved": 0, "fusion_lon": 0.0, "bike_id": "5f2794ead4b24a5a427ee1259b4ccb33", "lat": 38.876543833333336, "is_disabled": 0, "lon": -77.00068416666667, "fusion_lat": 0.0, "rental_uris": {"ios": "https://dc.lft.to/lastmile_qr_scan", "android": "https://dc.lft.to/lastmile_qr_scan"}, "type": "electric_scooter"}, {"name": "5d959940f034afbe7cb2c8ded14f52ab", "is_reserved": 0, "fusion_lon": 0.0, "bike_id": "5d959940f034afbe7cb2c8ded14f52ab", "lat": 38.9222865, "is_disabled": 0, "lon": -77.02848333333333, "fusion_lat": 0.0, "rental_uris": {"ios": "https://dc.lft.to/lastmile_qr_scan", "android": "https://dc.lft.to/lastmile_qr_scan"}, "type": "electric_scooter"}, {"name": "ed5da39d2908155c81842f4f3c047295", "is_reserved": 0, "fusion_lon": 0.0, "bike_id": "ed5da39d2908155c81842f4f3c047295", "lat": 38.8752805, "is_disabled": 0, "lon": -77.00502833333333, "fusion_lat": 0.0, "rental_uris": {"ios": "https://dc.lft.to/lastmile_qr_scan", "android": "https://dc.lft.to/lastmile_qr_scan"}, "type": "electric_scooter"}, {"name": "97d21ef3fc76469bc8863119581d2e3e", "is_reserved": 0, "fusion_lon": 0.0, "bike_id": "97d21ef3fc76469bc8863119581d2e3e", "lat": 38.90409916666667, "is_disabled": 0, "lon": -76.97328866666666, "fusion_lat": 0.0, "rental_uris": {"ios": "https://dc.lft.to/lastmile_qr_scan", "android": "https://dc.lft.to/lastmile_qr_scan"}, "type": "electric_scooter"}, {"name": "ba8d35f292a77010ed00d4dd4fb2ae20", "is_reserved": 0, "fusion_lon": 0.0, "bike_id": "ba8d35f292a77010ed00d4dd4fb2ae20", "lat": 38.89009883333333, "is_disabled": 0, "lon": -77.07325083333333, "fusion_lat": 0.0, "rental_uris": {"ios": "https://dc.lft.to/lastmile_qr_scan", "android": "https://dc.lft.to/lastmile_qr_scan"}, "type": "electric_bike"}, {"name": "f9a7ce87d8f95c95fe32617fa09402b6", "is_reserved": 0, "fusion_lon": 0.0, "bike_id": "f9a7ce87d8f95c95fe32617fa09402b6", "lat": 38.905597, "is_disabled": 0, "lon": -77.04609833333333, "fusion_lat": 0.0, "rental_uris": {"ios": "https://dc.lft.to/lastmile_qr_scan", "android": "https://dc.lft.to/lastmile_qr_scan"}, "type": "electric_scooter"}, {"name": "df3373df423222de77afb909dc567f52", "is_reserved": 0, "fusion_lon": 0.0, "bike_id": "df3373df423222de77afb909dc567f52", "lat": 38.9307875, "is_disabled": 0, "lon": -77.03494883333333, "fusion_lat": 0.0, "rental_uris": {"ios": "https://dc.lft.to/lastmile_qr_scan", "android": "https://dc.lft.to/lastmile_qr_scan"}, "type": "electric_scooter"}, {"name": "ee6813c2579b43afc3eec0217c34de5f", "is_reserved": 0, "fusion_lon": 0.0, "bike_id": "ee6813c2579b43afc3eec0217c34de5f", "lat": 38.911795833333336, "is_disabled": 0, "lon": -77.0020865, "fusion_lat": 0.0, "rental_uris": {"ios": "https://dc.lft.to/lastmile_qr_scan", "android": "https://dc.lft.to/lastmile_qr_scan"}, "type": "electric_scooter"}, {"name": "eee8598bac62905dbfaab654cc7681cd", "is_reserved": 0, "fusion_lon": 0.0, "bike_id": "eee8598bac62905dbfaab654cc7681cd", "lat": 38.8999935, "is_disabled": 0, "lon": -77.0216755, "fusion_lat": 0.0, "rental_uris": {"ios": "https://dc.lft.to/lastmile_qr_scan", "android": "https://dc.lft.to/lastmile_qr_scan"}, "type": "electric_bike"}, {"name": "01d437bf6783e0549b82df136cf040e9", "is_reserved": 0, "fusion_lon": 0.0, "bike_id": "01d437bf6783e0549b82df136cf040e9", "lat": 38.90906583333334, "is_disabled": 0, "lon": -77.01885916666667, "fusion_lat": 0.0, "rental_uris": {"ios": "https://dc.lft.to/lastmile_qr_scan", "android": "https://dc.lft.to/lastmile_qr_scan"}, "type": "electric_scooter"}, {"name": "04497532b381d91f404e635c621da055", "is_reserved": 0, "fusion_lon": 0.0, "bike_id": "04497532b381d91f404e635c621da055", "lat": 38.916895833333335, "is_disabled": 0, "lon": -77.02651883333333, "fusion_lat": 0.0, "rental_uris": {"ios": "https://dc.lft.to/lastmile_qr_scan", "android": "https://dc.lft.to/lastmile_qr_scan"}, "type": "electric_scooter"}, {"name": "831d1696cf52c748a82daafb316fa56c", "is_reserved": 0, "fusion_lon": 0.0, "bike_id": "831d1696cf52c748a82daafb316fa56c", "lat": 38.9245745, "is_disabled": 0, "lon": -77.02245633333334, "fusion_lat": 0.0, "rental_uris": {"ios": "https://dc.lft.to/lastmile_qr_scan", "android": "https://dc.lft.to/lastmile_qr_scan"}, "type": "electric_scooter"}, {"name": "c536af58976fec87e072acabfb8e4fc5", "is_reserved": 0, "fusion_lon": 0.0, "bike_id": "c536af58976fec87e072acabfb8e4fc5", "lat": 38.903978, "is_disabled": 0, "lon": -77.00427416666666, "fusion_lat": 0.0, "rental_uris": {"ios": "https://dc.lft.to/lastmile_qr_scan", "android": "https://dc.lft.to/lastmile_qr_scan"}, "type": "electric_scooter"}, {"name": "f2777b75d374c23b59d19ee8370463ef", "is_reserved": 0, "fusion_lon": 0.0, "bike_id": "f2777b75d374c23b59d19ee8370463ef", "lat": 39.00643016666667, "is_disabled": 0, "lon": -76.9001895, "fusion_lat": 0.0, "rental_uris": {"ios": "https://dc.lft.to/lastmile_qr_scan", "android": "https://dc.lft.to/lastmile_qr_scan"}, "type": "electric_bike"}, {"name": "266214894e3cd2ee7fb113f21cd5377f", "is_reserved": 0, "fusion_lon": 0.0, "bike_id": "266214894e3cd2ee7fb113f21cd5377f", "lat": 38.8853005, "is_disabled": 0, "lon": -76.980504, "fusion_lat": 0.0, "rental_uris": {"ios": "https://dc.lft.to/lastmile_qr_scan", "android": "https://dc.lft.to/lastmile_qr_scan"}, "type": "electric_scooter"}, {"name": "986d78057ed20aedbc929144b9ff8356", "is_reserved": 0, "fusion_lon": 0.0, "bike_id": "986d78057ed20aedbc929144b9ff8356", "lat": 38.917441333333336, "is_disabled": 0, "lon": -77.0414265, "fusion_lat": 0.0, "rental_uris": {"ios": "https://dc.lft.to/lastmile_qr_scan", "android": "https://dc.lft.to/lastmile_qr_scan"}, "type": "electric_scooter"}, {"name": "1595f457c34fa14a8c95b9e4381726e7", "is_reserved": 0, "fusion_lon": 0.0, "bike_id": "1595f457c34fa14a8c95b9e4381726e7", "lat": 38.85242783333333, "is_disabled": 0, "lon": -77.114082, "fusion_lat": 0.0, "rental_uris": {"ios": "https://dc.lft.to/lastmile_qr_scan", "android": "https://dc.lft.to/lastmile_qr_scan"}, "type": "electric_bike"}, {"name": "a97a277d683c07b1f6821de134847d2c", "is_reserved": 0, "fusion_lon": 0.0, "bike_id": "a97a277d683c07b1f6821de134847d2c", "lat": 38.91104466666667, "is_disabled": 0, "lon": -77.03826033333333, "fusion_lat": 0.0, "rental_uris": {"ios": "https://dc.lft.to/lastmile_qr_scan", "android": "https://dc.lft.to/lastmile_qr_scan"}, "type": "electric_scooter"}, {"name": "cb947436ecb9dfd29217a4f0c00bbefb", "is_reserved": 0, "fusion_lon": 0.0, "bike_id": "cb947436ecb9dfd29217a4f0c00bbefb", "lat": 38.905879166666665, "is_disabled": 0, "lon": -77.0160535, "fusion_lat": 0.0, "rental_uris": {"ios": "https://dc.lft.to/lastmile_qr_scan", "android": "https://dc.lft.to/lastmile_qr_scan"}, "type": "electric_scooter"}, {"name": "31f84319765a0c7b1b72b401245361c4", "is_reserved": 0, "fusion_lon": 0.0, "bike_id": "31f84319765a0c7b1b72b401245361c4", "lat": 38.908286333333336, "is_disabled": 0, "lon": -76.93469116666667, "fusion_lat": 0.0, "rental_uris": {"ios": "https://dc.lft.to/lastmile_qr_scan", "android": "https://dc.lft.to/lastmile_qr_scan"}, "type": "electric_scooter"}, {"name": "84d917697d1eccfac8ccda4d5fc5bbdc", "is_reserved": 0, "fusion_lon": 0.0, "bike_id": "84d917697d1eccfac8ccda4d5fc5bbdc", "lat": 38.876389333333336, "is_disabled": 0, "lon": -77.00682583333334, "fusion_lat": 0.0, "rental_uris": {"ios": "https://dc.lft.to/lastmile_qr_scan", "android": "https://dc.lft.to/lastmile_qr_scan"}, "type": "electric_scooter"}, {"name": "eb8fe1a00e5154b91a8e6d33af015f9d", "is_reserved": 0, "fusion_lon": 0.0, "bike_id": "eb8fe1a00e5154b91a8e6d33af015f9d", "lat": 38.880063, "is_disabled": 0, "lon": -76.98505716666666, "fusion_lat": 0.0, "rental_uris": {"ios": "https://dc.lft.to/lastmile_qr_scan", "android": "https://dc.lft.to/lastmile_qr_scan"}, "type": "electric_scooter"}, {"name": "b3a1cbb20fe12d60c4f4af6437f8d698", "is_reserved": 0, "fusion_lon": 0.0, "bike_id": "b3a1cbb20fe12d60c4f4af6437f8d698", "lat": 38.9193225, "is_disabled": 0, "lon": -77.02501716666667, "fusion_lat": 0.0, "rental_uris": {"ios": "https://dc.lft.to/lastmile_qr_scan", "android": "https://dc.lft.to/lastmile_qr_scan"}, "type": "electric_scooter"}, {"name": "5a159f0629d7f91fac7c0282595e7b85", "is_reserved": 0, "fusion_lon": 0.0, "bike_id": "5a159f0629d7f91fac7c0282595e7b85", "lat": 38.923277166666665, "is_disabled": 0, "lon": -77.0195445, "fusion_lat": 0.0, "rental_uris": {"ios": "https://dc.lft.to/lastmile_qr_scan", "android": "https://dc.lft.to/lastmile_qr_scan"}, "type": "electric_scooter"}, {"name": "c63e9ccbaafc8b8be67a37280b02cc4f", "is_reserved": 0, "fusion_lon": 0.0, "bike_id": "c63e9ccbaafc8b8be67a37280b02cc4f", "lat": 38.901473, "is_disabled": 0, "lon": -77.02683033333334, "fusion_lat": 0.0, "rental_uris": {"ios": "https://dc.lft.to/lastmile_qr_scan", "android": "https://dc.lft.to/lastmile_qr_scan"}, "type": "electric_scooter"}, {"name": "07d516ca67002d4c7bcebf1f4c9d31b5", "is_reserved": 0, "fusion_lon": 0.0, "bike_id": "07d516ca67002d4c7bcebf1f4c9d31b5", "lat": 38.9019825, "is_disabled": 0, "lon": -77.04489016666666, "fusion_lat": 0.0, "rental_uris": {"ios": "https://dc.lft.to/lastmile_qr_scan", "android": "https://dc.lft.to/lastmile_qr_scan"}, "type": "electric_scooter"}, {"name": "2693b8779828754a210d0fa06c4ca14b", "is_reserved": 0, "fusion_lon": 0.0, "bike_id": "2693b8779828754a210d0fa06c4ca14b", "lat": 38.897248166666664, "is_disabled": 0, "lon": -77.04653016666667, "fusion_lat": 0.0, "rental_uris": {"ios": "https://dc.lft.to/lastmile_qr_scan", "android": "https://dc.lft.to/lastmile_qr_scan"}, "type": "electric_scooter"}, {"name": "d5222d6793aa2fe331bd7261a0b658c4", "is_reserved": 0, "fusion_lon": 0.0, "bike_id": "d5222d6793aa2fe331bd7261a0b658c4", "lat": 38.90113816666667, "is_disabled": 0, "lon": -77.01617366666666, "fusion_lat": 0.0, "rental_uris": {"ios": "https://dc.lft.to/lastmile_qr_scan", "android": "https://dc.lft.to/lastmile_qr_scan"}, "type": "electric_scooter"}, {"name": "86e24e8f913ed62d4680b2567716d9f1", "is_reserved": 0, "fusion_lon": 0.0, "bike_id": "86e24e8f913ed62d4680b2567716d9f1", "lat": 38.917491166666665, "is_disabled": 0, "lon": -77.02113166666666, "fusion_lat": 0.0, "rental_uris": {"ios": "https://dc.lft.to/lastmile_qr_scan", "android": "https://dc.lft.to/lastmile_qr_scan"}, "type": "electric_scooter"}, {"name": "90ae2197bee27b3e928b542b0806d05f", "is_reserved": 0, "fusion_lon": 0.0, "bike_id": "90ae2197bee27b3e928b542b0806d05f", "lat": 38.91598716666667, "is_disabled": 0, "lon": -77.03195916666667, "fusion_lat": 0.0, "rental_uris": {"ios": "https://dc.lft.to/lastmile_qr_scan", "android": "https://dc.lft.to/lastmile_qr_scan"}, "type": "electric_scooter"}, {"name": "2fe5c26dd5cb5740876a6dd1b7fd451e", "is_reserved": 0, "fusion_lon": 0.0, "bike_id": "2fe5c26dd5cb5740876a6dd1b7fd451e", "lat": 38.95254216666667, "is_disabled": 0, "lon": -77.02070183333333, "fusion_lat": 0.0, "rental_uris": {"ios": "https://dc.lft.to/lastmile_qr_scan", "android": "https://dc.lft.to/lastmile_qr_scan"}, "type": "electric_scooter"}, {"name": "5e427c4c78516d2f29c13bc38ced1e16", "is_reserved": 0, "fusion_lon": 0.0, "bike_id": "5e427c4c78516d2f29c13bc38ced1e16", "lat": 38.90093316666667, "is_disabled": 0, "lon": -77.0487245, "fusion_lat": 0.0, "rental_uris": {"ios": "https://dc.lft.to/lastmile_qr_scan", "android": "https://dc.lft.to/lastmile_qr_scan"}, "type": "electric_scooter"}, {"name": "754f37b78848d89433bbe56f1a54b234", "is_reserved": 0, "fusion_lon": 0.0, "bike_id": "754f37b78848d89433bbe56f1a54b234", "lat": 38.91920533333333, "is_disabled": 0, "lon": -77.03203816666667, "fusion_lat": 0.0, "rental_uris": {"ios": "https://dc.lft.to/lastmile_qr_scan", "android": "https://dc.lft.to/lastmile_qr_scan"}, "type": "electric_scooter"}, {"name": "77577ffe6593b45a922bc2be4f721677", "is_reserved": 0, "fusion_lon": 0.0, "bike_id": "77577ffe6593b45a922bc2be4f721677", "lat": 38.9291575, "is_disabled": 0, "lon": -77.03751766666667, "fusion_lat": 0.0, "rental_uris": {"ios": "https://dc.lft.to/lastmile_qr_scan", "android": "https://dc.lft.to/lastmile_qr_scan"}, "type": "electric_scooter"}, {"name": "da292594891254a2d65ad94bc9d2c2ab", "is_reserved": 0, "fusion_lon": 0.0, "bike_id": "da292594891254a2d65ad94bc9d2c2ab", "lat": 38.8935455, "is_disabled": 0, "lon": -77.00329566666667, "fusion_lat": 0.0, "rental_uris": {"ios": "https://dc.lft.to/lastmile_qr_scan", "android": "https://dc.lft.to/lastmile_qr_scan"}, "type": "electric_scooter"}, {"name": "9da1d2ded5a6e9b96fb8dcd2d10ea00e", "is_reserved": 0, "fusion_lon": 0.0, "bike_id": "9da1d2ded5a6e9b96fb8dcd2d10ea00e", "lat": 38.90500216666667, "is_disabled": 0, "lon": -77.06520366666666, "fusion_lat": 0.0, "rental_uris": {"ios": "https://dc.lft.to/lastmile_qr_scan", "android": "https://dc.lft.to/lastmile_qr_scan"}, "type": "electric_scooter"}, {"name": "55625b77f0c3f8776d9867bcdcaac999", "is_reserved": 0, "fusion_lon": 0.0, "bike_id": "55625b77f0c3f8776d9867bcdcaac999", "lat": 38.921823333333336, "is_disabled": 0, "lon": -76.998126, "fusion_lat": 0.0, "rental_uris": {"ios": "https://dc.lft.to/lastmile_qr_scan", "android": "https://dc.lft.to/lastmile_qr_scan"}, "type": "electric_bike"}, {"name": "233b79459b2ab80527aff416c2f7a8f0", "is_reserved": 0, "fusion_lon": 0.0, "bike_id": "233b79459b2ab80527aff416c2f7a8f0", "lat": 38.920584833333336, "is_disabled": 0, "lon": -77.04184433333333, "fusion_lat": 0.0, "rental_uris": {"ios": "https://dc.lft.to/lastmile_qr_scan", "android": "https://dc.lft.to/lastmile_qr_scan"}, "type": "electric_scooter"}, {"name": "1d6fa63e663ad90eac8ffac39d37f57b", "is_reserved": 0, "fusion_lon": 0.0, "bike_id": "1d6fa63e663ad90eac8ffac39d37f57b", "lat": 38.9025535, "is_disabled": 0, "lon": -77.04363333333333, "fusion_lat": 0.0, "rental_uris": {"ios": "https://dc.lft.to/lastmile_qr_scan", "android": "https://dc.lft.to/lastmile_qr_scan"}, "type": "electric_scooter"}, {"name": "b7848a08df5bba38d45825332c8c8ac8", "is_reserved": 0, "fusion_lon": 0.0, "bike_id": "b7848a08df5bba38d45825332c8c8ac8", "lat": 38.9202425, "is_disabled": 0, "lon": -77.0396795, "fusion_lat": 0.0, "rental_uris": {"ios": "https://dc.lft.to/lastmile_qr_scan", "android": "https://dc.lft.to/lastmile_qr_scan"}, "type": "electric_scooter"}, {"name": "75b187b53f9de97aa2c357606749de76", "is_reserved": 0, "fusion_lon": 0.0, "bike_id": "75b187b53f9de97aa2c357606749de76", "lat": 38.89619033333334, "is_disabled": 0, "lon": -76.9075005, "fusion_lat": 0.0, "rental_uris": {"ios": "https://dc.lft.to/lastmile_qr_scan", "android": "https://dc.lft.to/lastmile_qr_scan"}, "type": "electric_bike"}, {"name": "9d820f08b8c421d796965ca147e0e12a", "is_reserved": 0, "fusion_lon": 0.0, "bike_id": "9d820f08b8c421d796965ca147e0e12a", "lat": 38.92154383333333, "is_disabled": 0, "lon": -77.03378433333333, "fusion_lat": 0.0, "rental_uris": {"ios": "https://dc.lft.to/lastmile_qr_scan", "android": "https://dc.lft.to/lastmile_qr_scan"}, "type": "electric_scooter"}, {"name": "7ca41ff662b600f56d6d18ab2b58dd0c", "is_reserved": 0, "fusion_lon": 0.0, "bike_id": "7ca41ff662b600f56d6d18ab2b58dd0c", "lat": 38.89732566666667, "is_disabled": 0, "lon": -77.02686683333333, "fusion_lat": 0.0, "rental_uris": {"ios": "https://dc.lft.to/lastmile_qr_scan", "android": "https://dc.lft.to/lastmile_qr_scan"}, "type": "electric_scooter"}, {"name": "2728688e068c2c6f1bbc2dd28a082d13", "is_reserved": 0, "fusion_lon": 0.0, "bike_id": "2728688e068c2c6f1bbc2dd28a082d13", "lat": 38.913507833333334, "is_disabled": 0, "lon": -76.97136933333333, "fusion_lat": 0.0, "rental_uris": {"ios": "https://dc.lft.to/lastmile_qr_scan", "android": "https://dc.lft.to/lastmile_qr_scan"}, "type": "electric_scooter"}, {"name": "af0ff2844a777b4b34658e4a3aa307ad", "is_reserved": 0, "fusion_lon": 0.0, "bike_id": "af0ff2844a777b4b34658e4a3aa307ad", "lat": 38.92038316666667, "is_disabled": 0, "lon": -77.04193916666667, "fusion_lat": 0.0, "rental_uris": {"ios": "https://dc.lft.to/lastmile_qr_scan", "android": "https://dc.lft.to/lastmile_qr_scan"}, "type": "electric_scooter"}, {"name": "377699e2e03516fd386207e9224a76ea", "is_reserved": 0, "fusion_lon": 0.0, "bike_id": "377699e2e03516fd386207e9224a76ea", "lat": 38.87710366666667, "is_disabled": 0, "lon": -77.01787966666667, "fusion_lat": 0.0, "rental_uris": {"ios": "https://dc.lft.to/lastmile_qr_scan", "android": "https://dc.lft.to/lastmile_qr_scan"}, "type": "electric_scooter"}, {"name": "47921ea855667643892ec90d70010e98", "is_reserved": 0, "fusion_lon": 0.0, "bike_id": "47921ea855667643892ec90d70010e98", "lat": 38.92392, "is_disabled": 0, "lon": -77.020841, "fusion_lat": 0.0, "rental_uris": {"ios": "https://dc.lft.to/lastmile_qr_scan", "android": "https://dc.lft.to/lastmile_qr_scan"}, "type": "electric_scooter"}, {"name": "5620e669f7940655fe8547d75b181484", "is_reserved": 0, "fusion_lon": 0.0, "bike_id": "5620e669f7940655fe8547d75b181484", "lat": 38.9193895, "is_disabled": 0, "lon": -77.021881, "fusion_lat": 0.0, "rental_uris": {"ios": "https://dc.lft.to/lastmile_qr_scan", "android": "https://dc.lft.to/lastmile_qr_scan"}, "type": "electric_scooter"}, {"name": "e54f0d37db697d080612e96dee2b2a80", "is_reserved": 0, "fusion_lon": 0.0, "bike_id": "e54f0d37db697d080612e96dee2b2a80", "lat": 38.86561916666667, "is_disabled": 0, "lon": -76.97403466666667, "fusion_lat": 0.0, "rental_uris": {"ios": "https://dc.lft.to/lastmile_qr_scan", "android": "https://dc.lft.to/lastmile_qr_scan"}, "type": "electric_scooter"}, {"name": "d7a8af33cc89a42ef44c54fd9859635c", "is_reserved": 0, "fusion_lon": 0.0, "bike_id": "d7a8af33cc89a42ef44c54fd9859635c", "lat": 38.923724166666666, "is_disabled": 0, "lon": -77.05395466666667, "fusion_lat": 0.0, "rental_uris": {"ios": "https://dc.lft.to/lastmile_qr_scan", "android": "https://dc.lft.to/lastmile_qr_scan"}, "type": "electric_scooter"}, {"name": "917875c2a117c76152f350f6a240b18a", "is_reserved": 0, "fusion_lon": 0.0, "bike_id": "917875c2a117c76152f350f6a240b18a", "lat": 38.9235905, "is_disabled": 0, "lon": -77.03542083333333, "fusion_lat": 0.0, "rental_uris": {"ios": "https://dc.lft.to/lastmile_qr_scan", "android": "https://dc.lft.to/lastmile_qr_scan"}, "type": "electric_scooter"}, {"name": "9f8257d0482afa7848963f8c093be74c", "is_reserved": 0, "fusion_lon": 0.0, "bike_id": "9f8257d0482afa7848963f8c093be74c", "lat": 38.904747, "is_disabled": 0, "lon": -77.0355795, "fusion_lat": 0.0, "rental_uris": {"ios": "https://dc.lft.to/lastmile_qr_scan", "android": "https://dc.lft.to/lastmile_qr_scan"}, "type": "electric_scooter"}, {"name": "52044334a74352041ac05e3ab252f95a", "is_reserved": 0, "fusion_lon": 0.0, "bike_id": "52044334a74352041ac05e3ab252f95a", "lat": 38.8719515, "is_disabled": 0, "lon": -77.00608933333334, "fusion_lat": 0.0, "rental_uris": {"ios": "https://dc.lft.to/lastmile_qr_scan", "android": "https://dc.lft.to/lastmile_qr_scan"}, "type": "electric_scooter"}, {"name": "84a6d15bdf8d6d2f533e86c63f93cf3e", "is_reserved": 0, "fusion_lon": 0.0, "bike_id": "84a6d15bdf8d6d2f533e86c63f93cf3e", "lat": 38.8979485, "is_disabled": 0, "lon": -77.02446583333334, "fusion_lat": 0.0, "rental_uris": {"ios": "https://dc.lft.to/lastmile_qr_scan", "android": "https://dc.lft.to/lastmile_qr_scan"}, "type": "electric_scooter"}, {"name": "93b751bb0bc071681d5b76b638be4656", "is_reserved": 0, "fusion_lon": 0.0, "bike_id": "93b751bb0bc071681d5b76b638be4656", "lat": 38.90809216666667, "is_disabled": 0, "lon": -77.03943233333334, "fusion_lat": 0.0, "rental_uris": {"ios": "https://dc.lft.to/lastmile_qr_scan", "android": "https://dc.lft.to/lastmile_qr_scan"}, "type": "electric_scooter"}, {"name": "3e512a64d30c8037adccdb7e31b9b7e5", "is_reserved": 0, "fusion_lon": 0.0, "bike_id": "3e512a64d30c8037adccdb7e31b9b7e5", "lat": 38.934286666666665, "is_disabled": 0, "lon": -77.03995566666667, "fusion_lat": 0.0, "rental_uris": {"ios": "https://dc.lft.to/lastmile_qr_scan", "android": "https://dc.lft.to/lastmile_qr_scan"}, "type": "electric_scooter"}, {"name": "6e96e80177047ae4e83b12b2f2b9d718", "is_reserved": 0, "fusion_lon": 0.0, "bike_id": "6e96e80177047ae4e83b12b2f2b9d718", "lat": 38.90702266666667, "is_disabled": 0, "lon": -77.02806383333333, "fusion_lat": 0.0, "rental_uris": {"ios": "https://dc.lft.to/lastmile_qr_scan", "android": "https://dc.lft.to/lastmile_qr_scan"}, "type": "electric_scooter"}, {"name": "24d6899be5cbe961886624930de07b06", "is_reserved": 0, "fusion_lon": 0.0, "bike_id": "24d6899be5cbe961886624930de07b06", "lat": 38.923714, "is_disabled": 0, "lon": -77.01913566666667, "fusion_lat": 0.0, "rental_uris": {"ios": "https://dc.lft.to/lastmile_qr_scan", "android": "https://dc.lft.to/lastmile_qr_scan"}, "type": "electric_scooter"}, {"name": "34f4e72046d613c0381a754ae2da4be5", "is_reserved": 0, "fusion_lon": 0.0, "bike_id": "34f4e72046d613c0381a754ae2da4be5", "lat": 38.927682833333336, "is_disabled": 0, "lon": -77.02042166666666, "fusion_lat": 0.0, "rental_uris": {"ios": "https://dc.lft.to/lastmile_qr_scan", "android": "https://dc.lft.to/lastmile_qr_scan"}, "type": "electric_scooter"}, {"name": "140cb11023eb9b4621adcbf7bea33b36", "is_reserved": 0, "fusion_lon": 0.0, "bike_id": "140cb11023eb9b4621adcbf7bea33b36", "lat": 38.81906466666667, "is_disabled": 0, "lon": -77.12649983333333, "fusion_lat": 0.0, "rental_uris": {"ios": "https://dc.lft.to/lastmile_qr_scan", "android": "https://dc.lft.to/lastmile_qr_scan"}, "type": "electric_bike"}, {"name": "5d547a15c65e9113961b5f3120727869", "is_reserved": 0, "fusion_lon": 0.0, "bike_id": "5d547a15c65e9113961b5f3120727869", "lat": 38.91076233333333, "is_disabled": 0, "lon": -77.044781, "fusion_lat": 0.0, "rental_uris": {"ios": "https://dc.lft.to/lastmile_qr_scan", "android": "https://dc.lft.to/lastmile_qr_scan"}, "type": "electric_scooter"}, {"name": "ce6fb501d8f1e1dd93a009c3de25bdd5", "is_reserved": 0, "fusion_lon": 0.0, "bike_id": "ce6fb501d8f1e1dd93a009c3de25bdd5", "lat": 38.9026515, "is_disabled": 0, "lon": -77.05797483333333, "fusion_lat": 0.0, "rental_uris": {"ios": "https://dc.lft.to/lastmile_qr_scan", "android": "https://dc.lft.to/lastmile_qr_scan"}, "type": "electric_scooter"}, {"name": "8f62befb225644f262d7e90989d69361", "is_reserved": 0, "fusion_lon": 0.0, "bike_id": "8f62befb225644f262d7e90989d69361", "lat": 38.903561333333336, "is_disabled": 0, "lon": -77.04367433333333, "fusion_lat": 0.0, "rental_uris": {"ios": "https://dc.lft.to/lastmile_qr_scan", "android": "https://dc.lft.to/lastmile_qr_scan"}, "type": "electric_scooter"}, {"name": "72aa80801b6bc6428be83761a98a2b21", "is_reserved": 0, "fusion_lon": 0.0, "bike_id": "72aa80801b6bc6428be83761a98a2b21", "lat": 38.916350666666666, "is_disabled": 0, "lon": -77.031976, "fusion_lat": 0.0, "rental_uris": {"ios": "https://dc.lft.to/lastmile_qr_scan", "android": "https://dc.lft.to/lastmile_qr_scan"}, "type": "electric_scooter"}, {"name": "6310f8c7f0571b876a6dd8ab41e18b3a", "is_reserved": 0, "fusion_lon": 0.0, "bike_id": "6310f8c7f0571b876a6dd8ab41e18b3a", "lat": 38.948947833333335, "is_disabled": 0, "lon": -77.01855616666667, "fusion_lat": 0.0, "rental_uris": {"ios": "https://dc.lft.to/lastmile_qr_scan", "android": "https://dc.lft.to/lastmile_qr_scan"}, "type": "electric_scooter"}, {"name": "d5e6cef2e9a72b786cfeb1cc6b5a1363", "is_reserved": 0, "fusion_lon": 0.0, "bike_id": "d5e6cef2e9a72b786cfeb1cc6b5a1363", "lat": 38.87257316666667, "is_disabled": 0, "lon": -76.97564233333334, "fusion_lat": 0.0, "rental_uris": {"ios": "https://dc.lft.to/lastmile_qr_scan", "android": "https://dc.lft.to/lastmile_qr_scan"}, "type": "electric_bike"}, {"name": "529585b1868cf579e8140b23135e571a", "is_reserved": 0, "fusion_lon": 0.0, "bike_id": "529585b1868cf579e8140b23135e571a", "lat": 38.864504833333335, "is_disabled": 0, "lon": -77.012602, "fusion_lat": 0.0, "rental_uris": {"ios": "https://dc.lft.to/lastmile_qr_scan", "android": "https://dc.lft.to/lastmile_qr_scan"}, "type": "electric_scooter"}, {"name": "3d77df958697fe5ba65bc7cb7e6565e1", "is_reserved": 0, "fusion_lon": 0.0, "bike_id": "3d77df958697fe5ba65bc7cb7e6565e1", "lat": 38.804756, "is_disabled": 0, "lon": -76.9909795, "fusion_lat": 0.0, "rental_uris": {"ios": "https://dc.lft.to/lastmile_qr_scan", "android": "https://dc.lft.to/lastmile_qr_scan"}, "type": "electric_bike"}, {"name": "a2e87b1638da8f68b1fe257477b7fedc", "is_reserved": 0, "fusion_lon": 0.0, "bike_id": "a2e87b1638da8f68b1fe257477b7fedc", "lat": 38.917645, "is_disabled": 0, "lon": -77.00357433333333, "fusion_lat": 0.0, "rental_uris": {"ios": "https://dc.lft.to/lastmile_qr_scan", "android": "https://dc.lft.to/lastmile_qr_scan"}, "type": "electric_scooter"}, {"name": "a94b882532488cc485141f03fcf60aed", "is_reserved": 0, "fusion_lon": 0.0, "bike_id": "a94b882532488cc485141f03fcf60aed", "lat": 38.924420166666664, "is_disabled": 0, "lon": -77.02150383333333, "fusion_lat": 0.0, "rental_uris": {"ios": "https://dc.lft.to/lastmile_qr_scan", "android": "https://dc.lft.to/lastmile_qr_scan"}, "type": "electric_scooter"}, {"name": "df18253c37fcc1cd496da6d61c6f6be3", "is_reserved": 0, "fusion_lon": 0.0, "bike_id": "df18253c37fcc1cd496da6d61c6f6be3", "lat": 38.87375433333333, "is_disabled": 0, "lon": -77.00183533333333, "fusion_lat": 0.0, "rental_uris": {"ios": "https://dc.lft.to/lastmile_qr_scan", "android": "https://dc.lft.to/lastmile_qr_scan"}, "type": "electric_scooter"}, {"name": "7272d223e64a0c3629cc65b0005754cd", "is_reserved": 0, "fusion_lon": 0.0, "bike_id": "7272d223e64a0c3629cc65b0005754cd", "lat": 38.89582466666667, "is_disabled": 0, "lon": -77.0254055, "fusion_lat": 0.0, "rental_uris": {"ios": "https://dc.lft.to/lastmile_qr_scan", "android": "https://dc.lft.to/lastmile_qr_scan"}, "type": "electric_scooter"}, {"name": "36a657632e27fcc552f96c319dfa23d4", "is_reserved": 0, "fusion_lon": 0.0, "bike_id": "36a657632e27fcc552f96c319dfa23d4", "lat": 38.914891, "is_disabled": 0, "lon": -76.98366983333334, "fusion_lat": 0.0, "rental_uris": {"ios": "https://dc.lft.to/lastmile_qr_scan", "android": "https://dc.lft.to/lastmile_qr_scan"}, "type": "electric_scooter"}, {"name": "9195e579d36edf89cff65132ea8dcef6", "is_reserved": 0, "fusion_lon": 0.0, "bike_id": "9195e579d36edf89cff65132ea8dcef6", "lat": 38.934568, "is_disabled": 0, "lon": -77.053039, "fusion_lat": 0.0, "rental_uris": {"ios": "https://dc.lft.to/lastmile_qr_scan", "android": "https://dc.lft.to/lastmile_qr_scan"}, "type": "electric_scooter"}, {"name": "66ee817fc6eb508d8a355fd4a3220fb9", "is_reserved": 0, "fusion_lon": 0.0, "bike_id": "66ee817fc6eb508d8a355fd4a3220fb9", "lat": 38.927142, "is_disabled": 0, "lon": -77.03260216666666, "fusion_lat": 0.0, "rental_uris": {"ios": "https://dc.lft.to/lastmile_qr_scan", "android": "https://dc.lft.to/lastmile_qr_scan"}, "type": "electric_scooter"}, {"name": "d8b7e62555d17d340bc82492aecbfffc", "is_reserved": 0, "fusion_lon": 0.0, "bike_id": "d8b7e62555d17d340bc82492aecbfffc", "lat": 38.89775616666667, "is_disabled": 0, "lon": -77.01217633333333, "fusion_lat": 0.0, "rental_uris": {"ios": "https://dc.lft.to/lastmile_qr_scan", "android": "https://dc.lft.to/lastmile_qr_scan"}, "type": "electric_scooter"}, {"name": "2bc756f6175a1ecc75c03df9a6d315f2", "is_reserved": 0, "fusion_lon": 0.0, "bike_id": "2bc756f6175a1ecc75c03df9a6d315f2", "lat": 38.91606516666667, "is_disabled": 0, "lon": -77.049052, "fusion_lat": 0.0, "rental_uris": {"ios": "https://dc.lft.to/lastmile_qr_scan", "android": "https://dc.lft.to/lastmile_qr_scan"}, "type": "electric_scooter"}, {"name": "a6c846ceb01fe1a370c56f99a08b4495", "is_reserved": 0, "fusion_lon": 0.0, "bike_id": "a6c846ceb01fe1a370c56f99a08b4495", "lat": 38.8943365, "is_disabled": 0, "lon": -76.98083583333333, "fusion_lat": 0.0, "rental_uris": {"ios": "https://dc.lft.to/lastmile_qr_scan", "android": "https://dc.lft.to/lastmile_qr_scan"}, "type": "electric_scooter"}, {"name": "8f6ed93bbe8b17771135c9d6d8082a30", "is_reserved": 0, "fusion_lon": 0.0, "bike_id": "8f6ed93bbe8b17771135c9d6d8082a30", "lat": 38.92605616666667, "is_disabled": 0, "lon": -77.021625, "fusion_lat": 0.0, "rental_uris": {"ios": "https://dc.lft.to/lastmile_qr_scan", "android": "https://dc.lft.to/lastmile_qr_scan"}, "type": "electric_scooter"}, {"name": "a138a718ecae5a7aa3bc5e0eb890868e", "is_reserved": 0, "fusion_lon": 0.0, "bike_id": "a138a718ecae5a7aa3bc5e0eb890868e", "lat": 38.8767715, "is_disabled": 0, "lon": -77.00424233333334, "fusion_lat": 0.0, "rental_uris": {"ios": "https://dc.lft.to/lastmile_qr_scan", "android": "https://dc.lft.to/lastmile_qr_scan"}, "type": "electric_scooter"}, {"name": "51980b7bfd58baf5c351e81fdb2434c6", "is_reserved": 0, "fusion_lon": 0.0, "bike_id": "51980b7bfd58baf5c351e81fdb2434c6", "lat": 38.91611283333334, "is_disabled": 0, "lon": -77.0213595, "fusion_lat": 0.0, "rental_uris": {"ios": "https://dc.lft.to/lastmile_qr_scan", "android": "https://dc.lft.to/lastmile_qr_scan"}, "type": "electric_scooter"}, {"name": "3bafee84f4120ef446056b7796d4c311", "is_reserved": 0, "fusion_lon": 0.0, "bike_id": "3bafee84f4120ef446056b7796d4c311", "lat": 38.90097683333333, "is_disabled": 0, "lon": -77.0402075, "fusion_lat": 0.0, "rental_uris": {"ios": "https://dc.lft.to/lastmile_qr_scan", "android": "https://dc.lft.to/lastmile_qr_scan"}, "type": "electric_scooter"}, {"name": "743ba0602d08dcdd93bf55ab003598c0", "is_reserved": 0, "fusion_lon": 0.0, "bike_id": "743ba0602d08dcdd93bf55ab003598c0", "lat": 38.913823, "is_disabled": 0, "lon": -77.04584116666666, "fusion_lat": 0.0, "rental_uris": {"ios": "https://dc.lft.to/lastmile_qr_scan", "android": "https://dc.lft.to/lastmile_qr_scan"}, "type": "electric_scooter"}, {"name": "2375892899040171652e5888e483341c", "is_reserved": 0, "fusion_lon": 0.0, "bike_id": "2375892899040171652e5888e483341c", "lat": 38.91488283333333, "is_disabled": 0, "lon": -77.01854633333333, "fusion_lat": 0.0, "rental_uris": {"ios": "https://dc.lft.to/lastmile_qr_scan", "android": "https://dc.lft.to/lastmile_qr_scan"}, "type": "electric_scooter"}, {"name": "7dda38a6860e79723d35d87dd352b8f9", "is_reserved": 0, "fusion_lon": 0.0, "bike_id": "7dda38a6860e79723d35d87dd352b8f9", "lat": 38.9203795, "is_disabled": 0, "lon": -77.01684166666666, "fusion_lat": 0.0, "rental_uris": {"ios": "https://dc.lft.to/lastmile_qr_scan", "android": "https://dc.lft.to/lastmile_qr_scan"}, "type": "electric_scooter"}, {"name": "d54725f784f4e0810981719997da674a", "is_reserved": 0, "fusion_lon": 0.0, "bike_id": "d54725f784f4e0810981719997da674a", "lat": 38.924351333333334, "is_disabled": 0, "lon": -77.02016716666667, "fusion_lat": 0.0, "rental_uris": {"ios": "https://dc.lft.to/lastmile_qr_scan", "android": "https://dc.lft.to/lastmile_qr_scan"}, "type": "electric_scooter"}, {"name": "3e0d9c3d1b808185223748c7b5943ae9", "is_reserved": 0, "fusion_lon": 0.0, "bike_id": "3e0d9c3d1b808185223748c7b5943ae9", "lat": 38.92055333333333, "is_disabled": 0, "lon": -77.02357733333334, "fusion_lat": 0.0, "rental_uris": {"ios": "https://dc.lft.to/lastmile_qr_scan", "android": "https://dc.lft.to/lastmile_qr_scan"}, "type": "electric_scooter"}, {"name": "2cfb59a5dfaed17f35dcdfad9871281a", "is_reserved": 0, "fusion_lon": 0.0, "bike_id": "2cfb59a5dfaed17f35dcdfad9871281a", "lat": 38.91818133333334, "is_disabled": 0, "lon": -77.02530883333333, "fusion_lat": 0.0, "rental_uris": {"ios": "https://dc.lft.to/lastmile_qr_scan", "android": "https://dc.lft.to/lastmile_qr_scan"}, "type": "electric_scooter"}, {"name": "e5a384c950abe99f9e8d64a8df024ec4", "is_reserved": 0, "fusion_lon": 0.0, "bike_id": "e5a384c950abe99f9e8d64a8df024ec4", "lat": 38.921506, "is_disabled": 0, "lon": -77.04232133333333, "fusion_lat": 0.0, "rental_uris": {"ios": "https://dc.lft.to/lastmile_qr_scan", "android": "https://dc.lft.to/lastmile_qr_scan"}, "type": "electric_scooter"}, {"name": "3e3b690a3db12590e21403bf4eef0c49", "is_reserved": 0, "fusion_lon": 0.0, "bike_id": "3e3b690a3db12590e21403bf4eef0c49", "lat": 38.897216, "is_disabled": 0, "lon": -76.92582966666667, "fusion_lat": 0.0, "rental_uris": {"ios": "https://dc.lft.to/lastmile_qr_scan", "android": "https://dc.lft.to/lastmile_qr_scan"}, "type": "electric_scooter"}, {"name": "6a396b7b83165bf03cac2c1effabe8ee", "is_reserved": 0, "fusion_lon": 0.0, "bike_id": "6a396b7b83165bf03cac2c1effabe8ee", "lat": 38.915370833333334, "is_disabled": 0, "lon": -77.03199466666666, "fusion_lat": 0.0, "rental_uris": {"ios": "https://dc.lft.to/lastmile_qr_scan", "android": "https://dc.lft.to/lastmile_qr_scan"}, "type": "electric_scooter"}, {"name": "2e03df47652b404c1e151955f6bfb323", "is_reserved": 0, "fusion_lon": 0.0, "bike_id": "2e03df47652b404c1e151955f6bfb323", "lat": 38.89917583333333, "is_disabled": 0, "lon": -77.04163166666666, "fusion_lat": 0.0, "rental_uris": {"ios": "https://dc.lft.to/lastmile_qr_scan", "android": "https://dc.lft.to/lastmile_qr_scan"}, "type": "electric_scooter"}, {"name": "cea248549350c8b40f7cfce17303314f", "is_reserved": 0, "fusion_lon": 0.0, "bike_id": "cea248549350c8b40f7cfce17303314f", "lat": 38.898492, "is_disabled": 0, "lon": -76.92748283333333, "fusion_lat": 0.0, "rental_uris": {"ios": "https://dc.lft.to/lastmile_qr_scan", "android": "https://dc.lft.to/lastmile_qr_scan"}, "type": "electric_scooter"}, {"name": "067384292f8d767ece4b207e551544ae", "is_reserved": 0, "fusion_lon": 0.0, "bike_id": "067384292f8d767ece4b207e551544ae", "lat": 38.89616983333333, "is_disabled": 0, "lon": -77.0220775, "fusion_lat": 0.0, "rental_uris": {"ios": "https://dc.lft.to/lastmile_qr_scan", "android": "https://dc.lft.to/lastmile_qr_scan"}, "type": "electric_scooter"}, {"name": "d7806c4f5a09bd90d6ddaa6459f57f15", "is_reserved": 0, "fusion_lon": 0.0, "bike_id": "d7806c4f5a09bd90d6ddaa6459f57f15", "lat": 38.91278583333333, "is_disabled": 0, "lon": -77.022462, "fusion_lat": 0.0, "rental_uris": {"ios": "https://dc.lft.to/lastmile_qr_scan", "android": "https://dc.lft.to/lastmile_qr_scan"}, "type": "electric_scooter"}, {"name": "810a81166906e20c1d19c6d6a3d0cfd1", "is_reserved": 0, "fusion_lon": 0.0, "bike_id": "810a81166906e20c1d19c6d6a3d0cfd1", "lat": 38.93769433333333, "is_disabled": 0, "lon": -76.99300783333334, "fusion_lat": 0.0, "rental_uris": {"ios": "https://dc.lft.to/lastmile_qr_scan", "android": "https://dc.lft.to/lastmile_qr_scan"}, "type": "electric_scooter"},