{"data": {"bikes": [{"rental_uris": {"ios": "https://dc.lft.to/lastmile_qr_scan", "android": "https://dc.lft.to/lastmile_qr_scan"}, "lon": -77.06381033333334, "type": "electric_scooter", "fusion_lat": 0.0, "lat": 38.90521366666667, "name": "20b8ed780dd8b604ae2ea9b5b2dbfde3", "fusion_lon": 0.0, "bike_id": "20b8ed780dd8b604ae2ea9b5b2dbfde3", "is_disabled": 0, "is_reserved": 0}, {"rental_uris": {"ios": "https://dc.lft.to/lastmile_qr_scan", "android": "https://dc.lft.to/lastmile_qr_scan"}, "lon": -76.96855266666667, "type": "electric_scooter", "fusion_lat": 0.0, "lat": 38.8746075, "name": "73bea2e81b3c6f2ead72735589134f96", "fusion_lon": 0.0, "bike_id": "73bea2e81b3c6f2ead72735589134f96", "is_disabled": 0, "is_reserved": 0}, {"rental_uris": {"ios": "https://dc.lft.to/lastmile_qr_scan", "android": "https://dc.lft.to/lastmile_qr_scan"}, "lon": -77.03181766666667, "type": "electric_scooter", "fusion_lat": 0.0, "lat": 38.915538, "name": "d3eccf2f52436d99b0b57b8ea4a46fff", "fusion_lon": 0.0, "bike_id": "d3eccf2f52436d99b0b57b8ea4a46fff", "is_disabled": 0, "is_reserved": 0}, {"rental_uris": {"ios": "https://dc.lft.to/lastmile_qr_scan", "android": "https://dc.lft.to/lastmile_qr_scan"}, "lon": -77.02362, "type": "electric_scooter", "fusion_lat": 0.0, "lat": 38.93162983333333, "name": "3660fd0dcf2ba8c8a880c9526acbbf77", "fusion_lon": 0.0, "bike_id": "3660fd0dcf2ba8c8a880c9526acbbf77", "is_disabled": 0, "is_reserved": 0}, {"rental_uris": {"ios": "https://dc.lft.to/lastmile_qr_scan", "android": "https://dc.lft.to/lastmile_qr_scan"}, "lon": -77.0238515, "type": "electric_scooter", "fusion_lat": 0.0, "lat": 38.90592933333333, "name": "7fa64cd28624f20a3d4630b1ce73b832", "fusion_lon": 0.0, "bike_id": "7fa64cd28624f20a3d4630b1ce73b832", "is_disabled": 0, "is_reserved": 0}, {"rental_uris": {"ios": "https://dc.lft.to/lastmile_qr_scan", "android": "https://dc.lft.to/lastmile_qr_scan"}, "lon": -77.06922033333333, "type": "electric_bike", "fusion_lat": 0.0, "lat": 38.909789833333335, "name": "d4a5a015673cd04b10491afb66a9db3a", "fusion_lon": 0.0, "bike_id": "d4a5a015673cd04b10491afb66a9db3a", "is_disabled": 0, "is_reserved": 0}, {"rental_uris": {"ios": "https://dc.lft.to/lastmile_qr_scan", "android": "https://dc.lft.to/lastmile_qr_scan"}, "lon": -77.0754705, "type": "electric_bike", "fusion_lat": 0.0, "lat": 38.906955833333335, "name": "c3290caa961199ef3bd9a2708a23ab01", "fusion_lon": 0.0, "bike_id": "c3290caa961199ef3bd9a2708a23ab01", "is_disabled": 0, "is_reserved": 0}, {"rental_uris": {"ios": "https://dc.lft.to/lastmile_qr_scan", "android": "https://dc.lft.to/lastmile_qr_scan"}, "lon": -77.03654133333333, "type": "electric_scooter", "fusion_lat": 0.0, "lat": 38.907906833333335, "name": "d4a7b6ddf6d5d72bdf913f0809d84f4b", "fusion_lon": 0.0, "bike_id": "d4a7b6ddf6d5d72bdf913f0809d84f4b", "is_disabled": 0, "is_reserved": 0}, {"rental_uris": {"ios": "https://dc.lft.to/lastmile_qr_scan", "android": "https://dc.lft.to/lastmile_qr_scan"}, "lon": -76.9977, "type": "electric_scooter", "fusion_lat": 0.0, "lat": 38.900313833333335, "name": "10c71538ee08cbf59d4961130311caf6", "fusion_lon": 0.0, "bike_id": "10c71538ee08cbf59d4961130311caf6", "is_disabled": 0, "is_reserved": 0}, {"rental_uris": {"ios": "https://dc.lft.to/lastmile_qr_scan", "android": "https://dc.lft.to/lastmile_qr_scan"}, "lon": -77.03207416666666, "type": "electric_scooter", "fusion_lat": 0.0, "lat": 38.91153633333333, "name": "73ec7cb6888c9b73d14f6b412c896f51", "fusion_lon": 0.0, "bike_id": "73ec7cb6888c9b73d14f6b412c896f51", "is_disabled": 0, "is_reserved": 0}, {"rental_uris": {"ios": "https://dc.lft.to/lastmile_qr_scan", "android": "https://dc.lft.to/lastmile_qr_scan"}, "lon": -77.10706516666667, "type": "electric_bike", "fusion_lat": 0.0, "lat": 38.85524083333333, "name": "125bcba243a407fc79e5b580f6137549", "fusion_lon": 0.0, "bike_id": "125bcba243a407fc79e5b580f6137549", "is_disabled": 0, "is_reserved": 0}, {"rental_uris": {"ios": "https://dc.lft.to/lastmile_qr_scan", "android": "https://dc.lft.to/lastmile_qr_scan"}, "lon": -76.98841166666666, "type": "electric_scooter", "fusion_lat": 0.0, "lat": 38.892929, "name": "b169c3bcf6c66b564861c470d81a9c58", "fusion_lon": 0.0, "bike_id": "b169c3bcf6c66b564861c470d81a9c58", "is_disabled": 0, "is_reserved": 0}, {"rental_uris": {"ios": "https://dc.lft.to/lastmile_qr_scan", "android": "https://dc.lft.to/lastmile_qr_scan"}, "lon": -76.99735916666667, "type": "electric_scooter", "fusion_lat": 0.0, "lat": 38.900309, "name": "fdcbac8274833e8fa985b82e3e88c77f", "fusion_lon": 0.0, "bike_id": "fdcbac8274833e8fa985b82e3e88c77f", "is_disabled": 0, "is_reserved": 0}, {"rental_uris": {"ios": "https://dc.lft.to/lastmile_qr_scan", "android": "https://dc.lft.to/lastmile_qr_scan"}, "lon": -77.04817166666666, "type": "electric_scooter", "fusion_lat": 0.0, "lat": 38.91335316666667, "name": "c49f964ab27483273599eb9574614c31", "fusion_lon": 0.0, "bike_id": "c49f964ab27483273599eb9574614c31", "is_disabled": 0, "is_reserved": 0}, {"rental_uris": {"ios": "https://dc.lft.to/lastmile_qr_scan", "android": "https://dc.lft.to/lastmile_qr_scan"}, "lon": -76.9081635, "type": "electric_bike", "fusion_lat": 0.0, "lat": 38.99453666666667, "name": "8b283e2b5d7cc04984098ef2e2d69410", "fusion_lon": 0.0, "bike_id": "8b283e2b5d7cc04984098ef2e2d69410", "is_disabled": 0, "is_reserved": 0}, {"rental_uris": {"ios": "https://dc.lft.to/lastmile_qr_scan", "android": "https://dc.lft.to/lastmile_qr_scan"}, "lon": -77.02723833333333, "type": "electric_scooter", "fusion_lat": 0.0, "lat": 38.9181745, "name": "9de6c2352be86b4c2306cfc97c2a3970", "fusion_lon": 0.0, "bike_id": "9de6c2352be86b4c2306cfc97c2a3970", "is_disabled": 0, "is_reserved": 0}, {"rental_uris": {"ios": "https://dc.lft.to/lastmile_qr_scan", "android": "https://dc.lft.to/lastmile_qr_scan"}, "lon": -77.02990883333334, "type": "electric_scooter", "fusion_lat": 0.0, "lat": 38.91554083333333, "name": "6a255616527e5f6efe8f26ff93ff5aa1", "fusion_lon": 0.0, "bike_id": "6a255616527e5f6efe8f26ff93ff5aa1", "is_disabled": 0, "is_reserved": 0}, {"rental_uris": {"ios": "https://dc.lft.to/lastmile_qr_scan", "android": "https://dc.lft.to/lastmile_qr_scan"}, "lon": -77.07234316666667, "type": "electric_scooter", "fusion_lat": 0.0, "lat": 38.9345555, "name": "ff6e425cdd9c792c872396153c84dba8", "fusion_lon": 0.0, "bike_id": "ff6e425cdd9c792c872396153c84dba8", "is_disabled": 0, "is_reserved": 0}, {"rental_uris": {"ios": "https://dc.lft.to/lastmile_qr_scan", "android": "https://dc.lft.to/lastmile_qr_scan"}, "lon": -77.02661983333333, "type": "electric_scooter", "fusion_lat": 0.0, "lat": 38.892195666666666, "name": "d2fe2145302792fcead357b3033eb1e1", "fusion_lon": 0.0, "bike_id": "d2fe2145302792fcead357b3033eb1e1", "is_disabled": 0, "is_reserved": 0}, {"rental_uris": {"ios": "https://dc.lft.to/lastmile_qr_scan", "android": "https://dc.lft.to/lastmile_qr_scan"}, "lon": -76.9541515, "type": "electric_bike", "fusion_lat": 0.0, "lat": 38.864603, "name": "2698b47ab78e7a9b769d5b6aa5921a13", "fusion_lon": 0.0, "bike_id": "2698b47ab78e7a9b769d5b6aa5921a13", "is_disabled": 0, "is_reserved": 0}, {"rental_uris": {"ios": "https://dc.lft.to/lastmile_qr_scan", "android": "https://dc.lft.to/lastmile_qr_scan"}, "lon": -77.055015, "type": "electric_scooter", "fusion_lat": 0.0, "lat": 38.92979833333333, "name": "bc6c6a3f653f259e4fd108b7e5652246", "fusion_lon": 0.0, "bike_id": "bc6c6a3f653f259e4fd108b7e5652246", "is_disabled": 0, "is_reserved": 0}, {"rental_uris": {"ios": "https://dc.lft.to/lastmile_qr_scan", "android": "https://dc.lft.to/lastmile_qr_scan"}, "lon": -77.06300366666666, "type": "electric_scooter", "fusion_lat": 0.0, "lat": 38.903913, "name": "6042e8beec6b2c34f84ba5a652cd7edd", "fusion_lon": 0.0, "bike_id": "6042e8beec6b2c34f84ba5a652cd7edd", "is_disabled": 0, "is_reserved": 0}, {"rental_uris": {"ios": "https://dc.lft.to/lastmile_qr_scan", "android": "https://dc.lft.to/lastmile_qr_scan"}, "lon": -76.978883, "type": "electric_scooter", "fusion_lat": 0.0, "lat": 38.916706, "name": "6d7133ee05f30f8665267eb7d94fcc61", "fusion_lon": 0.0, "bike_id": "6d7133ee05f30f8665267eb7d94fcc61", "is_disabled": 0, "is_reserved": 0}, {"rental_uris": {"ios": "https://dc.lft.to/lastmile_qr_scan", "android": "https://dc.lft.to/lastmile_qr_scan"}, "lon": -77.12742666666666, "type": "electric_bike", "fusion_lat": 0.0, "lat": 38.888236666666664, "name": "4ac4f95972a1a8d4b7614e718d7a54b2", "fusion_lon": 0.0, "bike_id": "4ac4f95972a1a8d4b7614e718d7a54b2", "is_disabled": 0, "is_reserved": 0}, {"rental_uris": {"ios": "https://dc.lft.to/lastmile_qr_scan", "android": "https://dc.lft.to/lastmile_qr_scan"}, "lon": -77.02396766666666, "type": "electric_scooter", "fusion_lat": 0.0, "lat": 38.90666433333333, "name": "c2b079329475e0077c8ef8a021cc2a64", "fusion_lon": 0.0, "bike_id": "c2b079329475e0077c8ef8a021cc2a64", "is_disabled": 0, "is_reserved": 0}, {"rental_uris": {"ios": "https://dc.lft.to/lastmile_qr_scan", "android": "https://dc.lft.to/lastmile_qr_scan"}, "lon": -77.04042083333333, "type": "electric_scooter", "fusion_lat": 0.0, "lat": 38.925656000000004, "name": "07e26fde91c49d44495979679215e291", "fusion_lon": 0.0, "bike_id": "07e26fde91c49d44495979679215e291", "is_disabled": 0, "is_reserved": 0}, {"rental_uris": {"ios": "https://dc.lft.to/lastmile_qr_scan", "android": "https://dc.lft.to/lastmile_qr_scan"}, "lon": -77.0365155, "type": "electric_scooter", "fusion_lat": 0.0, "lat": 38.95490183333333, "name": "9d8f7cb0ccaee08467ad3d4528b00dc2", "fusion_lon": 0.0, "bike_id": "9d8f7cb0ccaee08467ad3d4528b00dc2", "is_disabled": 0, "is_reserved": 0}, {"rental_uris": {"ios": "https://dc.lft.to/lastmile_qr_scan", "android": "https://dc.lft.to/lastmile_qr_scan"}, "lon": -77.031674, "type": "electric_scooter", "fusion_lat": 0.0, "lat": 38.896048666666665, "name": "2219507907603e92b768bc946b9220a2", "fusion_lon": 0.0, "bike_id": "2219507907603e92b768bc946b9220a2", "is_disabled": 0, "is_reserved": 0}, {"rental_uris": {"ios": "https://dc.lft.to/lastmile_qr_scan", "android": "https://dc.lft.to/lastmile_qr_scan"}, "lon": -76.98772433333333, "type": "electric_scooter", "fusion_lat": 0.0, "lat": 38.91171883333333, "name": "bf8b1fa64c33fe46c74fa774f4b75f10", "fusion_lon": 0.0, "bike_id": "bf8b1fa64c33fe46c74fa774f4b75f10", "is_disabled": 0, "is_reserved": 0}, {"rental_uris": {"ios": "https://dc.lft.to/lastmile_qr_scan", "android": "https://dc.lft.to/lastmile_qr_scan"}, "lon": -77.02837916666667, "type": "electric_scooter", "fusion_lat": 0.0, "lat": 38.887657, "name": "cfcdaaf71a0b81eb4cc9eb36a75d3e05", "fusion_lon": 0.0, "bike_id": "cfcdaaf71a0b81eb4cc9eb36a75d3e05", "is_disabled": 0, "is_reserved": 0}, {"rental_uris": {"ios": "https://dc.lft.to/lastmile_qr_scan", "android": "https://dc.lft.to/lastmile_qr_scan"}, "lon": -77.06162483333334, "type": "electric_scooter", "fusion_lat": 0.0, "lat": 38.942237666666664, "name": "8edb3ad6453048628f9ab48c2089662e", "fusion_lon": 0.0, "bike_id": "8edb3ad6453048628f9ab48c2089662e", "is_disabled": 0, "is_reserved": 0}, {"rental_uris": {"ios": "https://dc.lft.to/lastmile_qr_scan", "android": "https://dc.lft.to/lastmile_qr_scan"}, "lon": -76.93809866666666, "type": "electric_scooter", "fusion_lat": 0.0, "lat": 38.9130465, "name": "a4720ffa8bd71596f2ade476319a030d", "fusion_lon": 0.0, "bike_id": "a4720ffa8bd71596f2ade476319a030d", "is_disabled": 0, "is_reserved": 0}, {"rental_uris": {"ios": "https://dc.lft.to/lastmile_qr_scan", "android": "https://dc.lft.to/lastmile_qr_scan"}, "lon": -77.01760383333334, "type": "electric_scooter", "fusion_lat": 0.0, "lat": 38.938966, "name": "e87820d71c2c5d87842153dc13fce10c", "fusion_lon": 0.0, "bike_id": "e87820d71c2c5d87842153dc13fce10c", "is_disabled": 0, "is_reserved": 0}, {"rental_uris": {"ios": "https://dc.lft.to/lastmile_qr_scan", "android": "https://dc.lft.to/lastmile_qr_scan"}, "lon": -77.03462933333333, "type": "electric_scooter", "fusion_lat": 0.0, "lat": 38.91667016666667, "name": "38551e41f763c2fea340027cb455e081", "fusion_lon": 0.0, "bike_id": "38551e41f763c2fea340027cb455e081", "is_disabled": 0, "is_reserved": 0}, {"rental_uris": {"ios": "https://dc.lft.to/lastmile_qr_scan", "android": "https://dc.lft.to/lastmile_qr_scan"}, "lon": -77.06656766666667, "type": "electric_scooter", "fusion_lat": 0.0, "lat": 38.949724, "name": "62b3bf0d9e53607b935a4332824f3043", "fusion_lon": 0.0, "bike_id": "62b3bf0d9e53607b935a4332824f3043", "is_disabled": 0, "is_reserved": 0}, {"rental_uris": {"ios": "https://dc.lft.to/lastmile_qr_scan", "android": "https://dc.lft.to/lastmile_qr_scan"}, "lon": -77.04319483333333, "type": "electric_scooter", "fusion_lat": 0.0, "lat": 38.895883833333336, "name": "82c3f0974758a587726ea9b02cabc68d", "fusion_lon": 0.0, "bike_id": "82c3f0974758a587726ea9b02cabc68d", "is_disabled": 0, "is_reserved": 0}, {"rental_uris": {"ios": "https://dc.lft.to/lastmile_qr_scan", "android": "https://dc.lft.to/lastmile_qr_scan"}, "lon": -77.04923816666667, "type": "electric_scooter", "fusion_lat": 0.0, "lat": 38.89677833333333, "name": "0eca7590adf4d448b01ae3ff8098e85c", "fusion_lon": 0.0, "bike_id": "0eca7590adf4d448b01ae3ff8098e85c", "is_disabled": 0, "is_reserved": 0}, {"rental_uris": {"ios": "https://dc.lft.to/lastmile_qr_scan", "android": "https://dc.lft.to/lastmile_qr_scan"}, "lon": -76.94878283333334, "type": "electric_scooter", "fusion_lat": 0.0, "lat": 38.8950065, "name": "0a70f24129f9f5a9b912d5b4d36295f4", "fusion_lon": 0.0, "bike_id": "0a70f24129f9f5a9b912d5b4d36295f4", "is_disabled": 0, "is_reserved": 0}, {"rental_uris": {"ios": "https://dc.lft.to/lastmile_qr_scan", "android": "https://dc.lft.to/lastmile_qr_scan"}, "lon": -77.05125033333333, "type": "electric_scooter", "fusion_lat": 0.0, "lat": 38.92360866666667, "name": "5d794da4bcec9184ff913af09fe9b71a", "fusion_lon": 0.0, "bike_id": "5d794da4bcec9184ff913af09fe9b71a", "is_disabled": 0, "is_reserved": 0}, {"rental_uris": {"ios": "https://dc.lft.to/lastmile_qr_scan", "android": "https://dc.lft.to/lastmile_qr_scan"}, "lon": -77.10685716666667, "type": "electric_bike", "fusion_lat": 0.0, "lat": 38.93579366666667, "name": "448f034bdbe66442946a768eb83aeba2", "fusion_lon": 0.0, "bike_id": "448f034bdbe66442946a768eb83aeba2", "is_disabled": 0, "is_reserved": 0}, {"rental_uris": {"ios": "https://dc.lft.to/lastmile_qr_scan", "android": "https://dc.lft.to/lastmile_qr_scan"}, "lon": -77.00752116666666, "type": "electric_scooter", "fusion_lat": 0.0, "lat": 38.897338500000004, "name": "bc898fd6ade8e76c5b7e3089e6f5efec", "fusion_lon": 0.0, "bike_id": "bc898fd6ade8e76c5b7e3089e6f5efec", "is_disabled": 0, "is_reserved": 0}, {"rental_uris": {"ios": "https://dc.lft.to/lastmile_qr_scan", "android": "https://dc.lft.to/lastmile_qr_scan"}, "lon": -77.03263283333334, "type": "electric_scooter", "fusion_lat": 0.0, "lat": 38.93525283333334, "name": "0e7791f3c2373b9fedd2f448364a0f4f", "fusion_lon": 0.0, "bike_id": "0e7791f3c2373b9fedd2f448364a0f4f", "is_disabled": 0, "is_reserved": 0}, {"rental_uris": {"ios": "https://dc.lft.to/lastmile_qr_scan", "android": "https://dc.lft.to/lastmile_qr_scan"}, "lon": -77.06645, "type": "electric_bike", "fusion_lat": 0.0, "lat": 38.820477833333335, "name": "017b4258ca6664f85339a278d59e2097", "fusion_lon": 0.0, "bike_id": "017b4258ca6664f85339a278d59e2097", "is_disabled": 0, "is_reserved": 0}, {"rental_uris": {"ios": "https://dc.lft.to/lastmile_qr_scan", "android": "https://dc.lft.to/lastmile_qr_scan"}, "lon": -77.02491633333334, "type": "electric_scooter", "fusion_lat": 0.0, "lat": 38.897317, "name": "e0a3f17ac51b95a2d10de506c1a935da", "fusion_lon": 0.0, "bike_id": "e0a3f17ac51b95a2d10de506c1a935da", "is_disabled": 0, "is_reserved": 0}, {"rental_uris": {"ios": "https://dc.lft.to/lastmile_qr_scan", "android": "https://dc.lft.to/lastmile_qr_scan"}, "lon": -77.032259, "type": "electric_scooter", "fusion_lat": 0.0, "lat": 38.918202, "name": "9dde8a9492ec96ac03e5a9e508436af6", "fusion_lon": 0.0, "bike_id": "9dde8a9492ec96ac03e5a9e508436af6", "is_disabled": 0, "is_reserved": 0}, {"rental_uris": {"ios": "https://dc.lft.to/lastmile_qr_scan", "android": "https://dc.lft.to/lastmile_qr_scan"}, "lon": -77.04657866666666, "type": "electric_scooter", "fusion_lat": 0.0, "lat": 38.89336683333333, "name": "5b8028ffdcb95aad698fbf6482721065", "fusion_lon": 0.0, "bike_id": "5b8028ffdcb95aad698fbf6482721065", "is_disabled": 0, "is_reserved": 0}, {"rental_uris": {"ios": "https://dc.lft.to/lastmile_qr_scan", "android": "https://dc.lft.to/lastmile_qr_scan"}, "lon": -77.06595833333333, "type": "electric_scooter", "fusion_lat": 0.0, "lat": 38.90513266666667, "name": "8f60250a6751b7b0b8389183e67210ec", "fusion_lon": 0.0, "bike_id": "8f60250a6751b7b0b8389183e67210ec", "is_disabled": 0, "is_reserved": 0}, {"rental_uris": {"ios": "https://dc.lft.to/lastmile_qr_scan", "android": "https://dc.lft.to/lastmile_qr_scan"}, "lon": -77.04263833333333, "type": "electric_scooter", "fusion_lat": 0.0, "lat": 38.902759333333336, "name": "f32f6eab2e7213cf95be7da721a9320f", "fusion_lon": 0.0, "bike_id": "f32f6eab2e7213cf95be7da721a9320f", "is_disabled": 0, "is_reserved": 0}, {"rental_uris": {"ios": "https://dc.lft.to/lastmile_qr_scan", "android": "https://dc.lft.to/lastmile_qr_scan"}, "lon": -76.98800566666667, "type": "electric_bike", "fusion_lat": 0.0, "lat": 38.86369, "name": "0c5a64968468f56d866358fc05bb68ac", "fusion_lon": 0.0, "bike_id": "0c5a64968468f56d866358fc05bb68ac", "is_disabled": 0, "is_reserved": 0}, {"rental_uris": {"ios": "https://dc.lft.to/lastmile_qr_scan", "android": "https://dc.lft.to/lastmile_qr_scan"}, "lon": -76.99846933333333, "type": "electric_scooter", "fusion_lat": 0.0, "lat": 38.8948585, "name": "5d4415f535dfb4acd42e74797fe1a100", "fusion_lon": 0.0, "bike_id": "5d4415f535dfb4acd42e74797fe1a100", "is_disabled": 0, "is_reserved": 0}, {"rental_uris": {"ios": "https://dc.lft.to/lastmile_qr_scan", "android": "https://dc.lft.to/lastmile_qr_scan"}, "lon": -77.03787833333334, "type": "electric_scooter", "fusion_lat": 0.0, "lat": 38.926199, "name": "c8cd4bbe0850671adc9ee5ee3ae37494", "fusion_lon": 0.0, "bike_id": "c8cd4bbe0850671adc9ee5ee3ae37494", "is_disabled": 0, "is_reserved": 0}, {"rental_uris": {"ios": "https://dc.lft.to/lastmile_qr_scan", "android": "https://dc.lft.to/lastmile_qr_scan"}, "lon": -77.02402416666666, "type": "electric_scooter", "fusion_lat": 0.0, "lat": 38.909445833333336, "name": "ba3e03e9bd92357f9f7f1a5208ff61d9", "fusion_lon": 0.0, "bike_id": "ba3e03e9bd92357f9f7f1a5208ff61d9", "is_disabled": 0, "is_reserved": 0}, {"rental_uris": {"ios": "https://dc.lft.to/lastmile_qr_scan", "android": "https://dc.lft.to/lastmile_qr_scan"}, "lon": -77.04460233333333, "type": "electric_scooter", "fusion_lat": 0.0, "lat": 38.9096345, "name": "02aa2670d0de9ee6473c38252ee00272", "fusion_lon": 0.0, "bike_id": "02aa2670d0de9ee6473c38252ee00272", "is_disabled": 0, "is_reserved": 0}, {"rental_uris": {"ios": "https://dc.lft.to/lastmile_qr_scan", "android": "https://dc.lft.to/lastmile_qr_scan"}, "lon": -77.0403445, "type": "electric_scooter", "fusion_lat": 0.0, "lat": 38.90400666666667, "name": "2cf3f770dcb76456cabfb86e960b583d", "fusion_lon": 0.0, "bike_id": "2cf3f770dcb76456cabfb86e960b583d", "is_disabled": 0, "is_reserved": 0}, {"rental_uris": {"ios": "https://dc.lft.to/lastmile_qr_scan", "android": "https://dc.lft.to/lastmile_qr_scan"}, "lon": -77.02898633333334, "type": "electric_scooter", "fusion_lat": 0.0, "lat": 38.9257425, "name": "5e724ddb93f1e4421c3806a347dceba0", "fusion_lon": 0.0, "bike_id": "5e724ddb93f1e4421c3806a347dceba0", "is_disabled": 0, "is_reserved": 0}, {"rental_uris": {"ios": "https://dc.lft.to/lastmile_qr_scan", "android": "https://dc.lft.to/lastmile_qr_scan"}, "lon": -77.0558555, "type": "electric_scooter", "fusion_lat": 0.0, "lat": 38.9360915, "name": "3f3d34bfbe531410c56758a50ce126fa", "fusion_lon": 0.0, "bike_id": "3f3d34bfbe531410c56758a50ce126fa", "is_disabled": 0, "is_reserved": 0}, {"rental_uris": {"ios": "https://dc.lft.to/lastmile_qr_scan", "android": "https://dc.lft.to/lastmile_qr_scan"}, "lon": -77.002646, "type": "electric_scooter", "fusion_lat": 0.0, "lat": 38.898973833333336, "name": "7a6cd616ae2df66855f00a85363e818e", "fusion_lon": 0.0, "bike_id": "7a6cd616ae2df66855f00a85363e818e", "is_disabled": 0, "is_reserved": 0}, {"rental_uris": {"ios": "https://dc.lft.to/lastmile_qr_scan", "android": "https://dc.lft.to/lastmile_qr_scan"}, "lon": -77.047982, "type": "electric_scooter", "fusion_lat": 0.0, "lat": 38.892199833333336, "name": "a0a5eed7a567865311526bcc9a9ca42c", "fusion_lon": 0.0, "bike_id": "a0a5eed7a567865311526bcc9a9ca42c", "is_disabled": 0, "is_reserved": 0}, {"rental_uris": {"ios": "https://dc.lft.to/lastmile_qr_scan", "android": "https://dc.lft.to/lastmile_qr_scan"}, "lon": -77.01989716666667, "type": "electric_scooter", "fusion_lat": 0.0, "lat": 38.87759633333334, "name": "c25bb675f1595ffada06cf3d46fd1369", "fusion_lon": 0.0, "bike_id": "c25bb675f1595ffada06cf3d46fd1369", "is_disabled": 0, "is_reserved": 0}, {"rental_uris": {"ios": "https://dc.lft.to/lastmile_qr_scan", "android": "https://dc.lft.to/lastmile_qr_scan"}, "lon": -77.01078433333333, "type": "electric_bike", "fusion_lat": 0.0, "lat": 38.956529333333336, "name": "a73f38d054c96588f940ede8126bd0f0", "fusion_lon": 0.0, "bike_id": "a73f38d054c96588f940ede8126bd0f0", "is_disabled": 0, "is_reserved": 0}, {"rental_uris": {"ios": "https://dc.lft.to/lastmile_qr_scan", "android": "https://dc.lft.to/lastmile_qr_scan"}, "lon": -77.0236435, "type": "electric_scooter", "fusion_lat": 0.0, "lat": 38.908679166666666, "name": "fed6edc5584b942f9de4031f1f6765d3", "fusion_lon": 0.0, "bike_id": "fed6edc5584b942f9de4031f1f6765d3", "is_disabled": 0, "is_reserved": 0}, {"rental_uris": {"ios": "https://dc.lft.to/lastmile_qr_scan", "android": "https://dc.lft.to/lastmile_qr_scan"}, "lon": -76.995332, "type": "electric_scooter", "fusion_lat": 0.0, "lat": 38.88452933333333, "name": "a2759815e962ca5188603d0bc31ff6d2", "fusion_lon": 0.0, "bike_id": "a2759815e962ca5188603d0bc31ff6d2", "is_disabled": 0, "is_reserved": 0}, {"rental_uris": {"ios": "https://dc.lft.to/lastmile_qr_scan", "android": "https://dc.lft.to/lastmile_qr_scan"}, "lon": -77.05004983333333, "type": "electric_scooter", "fusion_lat": 0.0, "lat": 38.8922495, "name": "6e93538b43da2cfc7f04f9fcbab11562", "fusion_lon": 0.0, "bike_id": "6e93538b43da2cfc7f04f9fcbab11562", "is_disabled": 0, "is_reserved": 0}, {"rental_uris": {"ios": "https://dc.lft.to/lastmile_qr_scan", "android": "https://dc.lft.to/lastmile_qr_scan"}, "lon": -77.01184483333333, "type": "electric_scooter", "fusion_lat": 0.0, "lat": 38.900233, "name": "ced8e63fed9b31975ce52ce4e1a133fd", "fusion_lon": 0.0, "bike_id": "ced8e63fed9b31975ce52ce4e1a133fd", "is_disabled": 0, "is_reserved": 0}, {"rental_uris": {"ios": "https://dc.lft.to/lastmile_qr_scan", "android": "https://dc.lft.to/lastmile_qr_scan"}, "lon": -77.053442, "type": "electric_scooter", "fusion_lat": 0.0, "lat": 38.90265333333333, "name": "3ba143852d90ad1cd25f08b4e21588cb", "fusion_lon": 0.0, "bike_id": "3ba143852d90ad1cd25f08b4e21588cb", "is_disabled": 0, "is_reserved": 0}, {"rental_uris": {"ios": "https://dc.lft.to/lastmile_qr_scan", "android": "https://dc.lft.to/lastmile_qr_scan"}, "lon": -77.02039716666667, "type": "electric_scooter", "fusion_lat": 0.0, "lat": 38.902813333333334, "name": "ee2766ea9b04e4a55f7aae6d16a5d7da", "fusion_lon": 0.0, "bike_id": "ee2766ea9b04e4a55f7aae6d16a5d7da", "is_disabled": 0, "is_reserved": 0}, {"rental_uris": {"ios": "https://dc.lft.to/lastmile_qr_scan", "android": "https://dc.lft.to/lastmile_qr_scan"}, "lon": -76.93157483333333, "type": "electric_scooter", "fusion_lat": 0.0, "lat": 38.8987275, "name": "b68d3edec78f53496e05afa36de025e2", "fusion_lon": 0.0, "bike_id": "b68d3edec78f53496e05afa36de025e2", "is_disabled": 0, "is_reserved": 0}, {"rental_uris": {"ios": "https://dc.lft.to/lastmile_qr_scan", "android": "https://dc.lft.to/lastmile_qr_scan"}, "lon": -77.04168266666667, "type": "electric_bike", "fusion_lat": 0.0, "lat": 38.90149983333333, "name": "29924a215c13f89bf48dacb74d92e5aa", "fusion_lon": 0.0, "bike_id": "29924a215c13f89bf48dacb74d92e5aa", "is_disabled": 0, "is_reserved": 0}, {"rental_uris": {"ios": "https://dc.lft.to/lastmile_qr_scan", "android": "https://dc.lft.to/lastmile_qr_scan"}, "lon": -77.04002583333333, "type": "electric_scooter", "fusion_lat": 0.0, "lat": 38.90043766666667, "name": "21ee2561c0ccdb60b2c8dfd9a28e7943", "fusion_lon": 0.0, "bike_id": "21ee2561c0ccdb60b2c8dfd9a28e7943", "is_disabled": 0, "is_reserved": 0}, {"rental_uris": {"ios": "https://dc.lft.to/lastmile_qr_scan", "android": "https://dc.lft.to/lastmile_qr_scan"}, "lon": -77.00739683333333, "type": "electric_scooter", "fusion_lat": 0.0, "lat": 38.9551645, "name": "6e532c65be6aaed2af8e265c7e94bcfc", "fusion_lon": 0.0, "bike_id": "6e532c65be6aaed2af8e265c7e94bcfc", "is_disabled": 0, "is_reserved": 0}, {"rental_uris": {"ios": "https://dc.lft.to/lastmile_qr_scan", "android": "https://dc.lft.to/lastmile_qr_scan"}, "lon": -76.99001816666667, "type": "electric_scooter", "fusion_lat": 0.0, "lat": 38.865030833333336, "name": "33ec773345105fb050022731bafeedfe", "fusion_lon": 0.0, "bike_id": "33ec773345105fb050022731bafeedfe", "is_disabled": 0, "is_reserved": 0}, {"rental_uris": {"ios": "https://dc.lft.to/lastmile_qr_scan", "android": "https://dc.lft.to/lastmile_qr_scan"}, "lon": -77.061179, "type": "electric_scooter", "fusion_lat": 0.0, "lat": 38.912935166666664, "name": "5c043a6af74c20e2c01cb704775fcb59", "fusion_lon": 0.0, "bike_id": "5c043a6af74c20e2c01cb704775fcb59", "is_disabled": 0, "is_reserved": 0}, {"rental_uris": {"ios": "https://dc.lft.to/lastmile_qr_scan", "android": "https://dc.lft.to/lastmile_qr_scan"}, "lon": -77.00212916666666, "type": "electric_scooter", "fusion_lat": 0.0, "lat": 38.9021855, "name": "6c6f6e91daa34aca1572ccf559ed4b91", "fusion_lon": 0.0, "bike_id": "6c6f6e91daa34aca1572ccf559ed4b91", "is_disabled": 0, "is_reserved": 0}, {"rental_uris": {"ios": "https://dc.lft.to/lastmile_qr_scan", "android": "https://dc.lft.to/lastmile_qr_scan"}, "lon": -77.03702416666667, "type": "electric_scooter", "fusion_lat": 0.0, "lat": 38.928134166666666, "name": "fb4fa9ede27986968eb51d4baa22c278", "fusion_lon": 0.0, "bike_id": "fb4fa9ede27986968eb51d4baa22c278", "is_disabled": 0, "is_reserved": 0}, {"rental_uris": {"ios": "https://dc.lft.to/lastmile_qr_scan", "android": "https://dc.lft.to/lastmile_qr_scan"}, "lon": -77.03215366666667, "type": "electric_scooter", "fusion_lat": 0.0, "lat": 38.912668333333336, "name": "5706bda0fa27161fe133957d3978e987", "fusion_lon": 0.0, "bike_id": "5706bda0fa27161fe133957d3978e987", "is_disabled": 0, "is_reserved": 0}, {"rental_uris": {"ios": "https://dc.lft.to/lastmile_qr_scan", "android": "https://dc.lft.to/lastmile_qr_scan"}, "lon": -77.00068516666667, "type": "electric_scooter", "fusion_lat": 0.0, "lat": 38.925475666666664, "name": "8307754bba32249cfb81c8c20f075993", "fusion_lon": 0.0, "bike_id": "8307754bba32249cfb81c8c20f075993", "is_disabled": 0, "is_reserved": 0}, {"rental_uris": {"ios": "https://dc.lft.to/lastmile_qr_scan", "android": "https://dc.lft.to/lastmile_qr_scan"}, "lon": -77.00498733333333, "type": "electric_scooter", "fusion_lat": 0.0, "lat": 38.89680883333333, "name": "ef990dbd11e88f36efe0bac331092c8d", "fusion_lon": 0.0, "bike_id": "ef990dbd11e88f36efe0bac331092c8d", "is_disabled": 0, "is_reserved": 0}, {"rental_uris": {"ios": "https://dc.lft.to/lastmile_qr_scan", "android": "https://dc.lft.to/lastmile_qr_scan"}, "lon": -76.99818233333333, "type": "electric_bike", "fusion_lat": 0.0, "lat": 38.84432066666667, "name": "f92a99313275c1ad8813400ad4b31d97", "fusion_lon": 0.0, "bike_id": "f92a99313275c1ad8813400ad4b31d97", "is_disabled": 0, "is_reserved": 0}, {"rental_uris": {"ios": "https://dc.lft.to/lastmile_qr_scan", "android": "https://dc.lft.to/lastmile_qr_scan"}, "lon": -77.04816166666667, "type": "electric_scooter", "fusion_lat": 0.0, "lat": 38.92037783333333, "name": "51a4494bb89aa428973f87062c3958d0", "fusion_lon": 0.0, "bike_id": "51a4494bb89aa428973f87062c3958d0", "is_disabled": 0, "is_reserved": 0}, {"rental_uris": {"ios": "https://dc.lft.to/lastmile_qr_scan", "android": "https://dc.lft.to/lastmile_qr_scan"}, "lon": -77.03214166666666, "type": "electric_scooter", "fusion_lat": 0.0, "lat": 38.91616466666667, "name": "723cfce1184e5cfdcad9e2b8446c394c", "fusion_lon": 0.0, "bike_id": "723cfce1184e5cfdcad9e2b8446c394c", "is_disabled": 0, "is_reserved": 0}, {"rental_uris": {"ios": "https://dc.lft.to/lastmile_qr_scan", "android": "https://dc.lft.to/lastmile_qr_scan"}, "lon": -77.035508, "type": "electric_scooter", "fusion_lat": 0.0, "lat": 38.91265883333333, "name": "0f6e5a2f90bdb97a3981fa450c843f14", "fusion_lon": 0.0, "bike_id": "0f6e5a2f90bdb97a3981fa450c843f14", "is_disabled": 0, "is_reserved": 0}, {"rental_uris": {"ios": "https://dc.lft.to/lastmile_qr_scan", "android": "https://dc.lft.to/lastmile_qr_scan"}, "lon": -77.04311016666666, "type": "electric_bike", "fusion_lat": 0.0, "lat": 38.92787283333333, "name": "ef8a0f9cf8a372a9c7247ff9a67fa18d", "fusion_lon": 0.0, "bike_id": "ef8a0f9cf8a372a9c7247ff9a67fa18d", "is_disabled": 0, "is_reserved": 0}, {"rental_uris": {"ios": "https://dc.lft.to/lastmile_qr_scan", "android": "https://dc.lft.to/lastmile_qr_scan"}, "lon": -77.01190733333334, "type": "electric_scooter", "fusion_lat": 0.0, "lat": 38.915528, "name": "dac3834eaa4e5c2bc050b29fbf606974", "fusion_lon": 0.0, "bike_id": "dac3834eaa4e5c2bc050b29fbf606974", "is_disabled": 0, "is_reserved": 0}, {"rental_uris": {"ios": "https://dc.lft.to/lastmile_qr_scan", "android": "https://dc.lft.to/lastmile_qr_scan"}, "lon": -76.98024433333333, "type": "electric_scooter", "fusion_lat": 0.0, "lat": 38.8876425, "name": "670338bac8fa0f092fa01d4597df6539", "fusion_lon": 0.0, "bike_id": "670338bac8fa0f092fa01d4597df6539", "is_disabled": 0, "is_reserved": 0}, {"rental_uris": {"ios": "https://dc.lft.to/lastmile_qr_scan", "android": "https://dc.lft.to/lastmile_qr_scan"}, "lon": -77.02575116666667, "type": "electric_scooter", "fusion_lat": 0.0, "lat": 38.8874855, "name": "fd642fc17680635d224cac9d98c0b0d6", "fusion_lon": 0.0, "bike_id": "fd642fc17680635d224cac9d98c0b0d6", "is_disabled": 0, "is_reserved": 0}, {"rental_uris": {"ios": "https://dc.lft.to/lastmile_qr_scan", "android": "https://dc.lft.to/lastmile_qr_scan"}, "lon": -77.07213416666667, "type": "electric_scooter", "fusion_lat": 0.0, "lat": 38.93473266666667, "name": "4a492f7e80371e47950d481a6bb09f86", "fusion_lon": 0.0, "bike_id": "4a492f7e80371e47950d481a6bb09f86", "is_disabled": 0, "is_reserved": 0}, {"rental_uris": {"ios": "https://dc.lft.to/lastmile_qr_scan", "android": "https://dc.lft.to/lastmile_qr_scan"}, "lon": -77.02612416666666, "type": "electric_scooter", "fusion_lat": 0.0, "lat": 38.9167075, "name": "acc2d485033fc3724dedc15adb68e713", "fusion_lon": 0.0, "bike_id": "acc2d485033fc3724dedc15adb68e713", "is_disabled": 0, "is_reserved": 0}, {"rental_uris": {"ios": "https://dc.lft.to/lastmile_qr_scan", "android": "https://dc.lft.to/lastmile_qr_scan"}, "lon": -77.05915933333333, "type": "electric_scooter", "fusion_lat": 0.0, "lat": 38.904489833333336, "name": "35a8e2df902c9985620aa2d6136cc6c0", "fusion_lon": 0.0, "bike_id": "35a8e2df902c9985620aa2d6136cc6c0", "is_disabled": 0, "is_reserved": 0}, {"rental_uris": {"ios": "https://dc.lft.to/lastmile_qr_scan", "android": "https://dc.lft.to/lastmile_qr_scan"}, "lon": -77.046209, "type": "electric_scooter", "fusion_lat": 0.0, "lat": 38.9163035, "name": "74050ba07187d5b6f594acb74e11d887", "fusion_lon": 0.0, "bike_id": "74050ba07187d5b6f594acb74e11d887", "is_disabled": 0, "is_reserved": 0}, {"rental_uris": {"ios": "https://dc.lft.to/lastmile_qr_scan", "android": "https://dc.lft.to/lastmile_qr_scan"}, "lon": -77.02525683333333, "type": "electric_scooter", "fusion_lat": 0.0, "lat": 38.94299066666667, "name": "fedda63179bd895f6567411310e34adb", "fusion_lon": 0.0, "bike_id": "fedda63179bd895f6567411310e34adb", "is_disabled": 0, "is_reserved": 0}, {"rental_uris": {"ios": "https://dc.lft.to/lastmile_qr_scan", "android": "https://dc.lft.to/lastmile_qr_scan"}, "lon": -77.00337233333333, "type": "electric_scooter", "fusion_lat": 0.0, "lat": 38.907084, "name": "5a89f4abb5f4fd1b15658730419c6a57", "fusion_lon": 0.0, "bike_id": "5a89f4abb5f4fd1b15658730419c6a57", "is_disabled": 0, "is_reserved": 0}, {"rental_uris": {"ios": "https://dc.lft.to/lastmile_qr_scan", "android": "https://dc.lft.to/lastmile_qr_scan"}, "lon": -77.040379, "type": "electric_scooter", "fusion_lat": 0.0, "lat": 38.924700666666666, "name": "3cc2a4aa56090a1aaec08d1c9f92b941", "fusion_lon": 0.0, "bike_id": "3cc2a4aa56090a1aaec08d1c9f92b941", "is_disabled": 0, "is_reserved": 0}, {"rental_uris": {"ios": "https://dc.lft.to/lastmile_qr_scan", "android": "https://dc.lft.to/lastmile_qr_scan"}, "lon": -77.04501333333333, "type": "electric_scooter", "fusion_lat": 0.0, "lat": 38.90737983333333, "name": "69530dae0f0f1ae86ea095cf1f18808f", "fusion_lon": 0.0, "bike_id": "69530dae0f0f1ae86ea095cf1f18808f", "is_disabled": 0, "is_reserved": 0}, {"rental_uris": {"ios": "https://dc.lft.to/lastmile_qr_scan", "android": "https://dc.lft.to/lastmile_qr_scan"}, "lon": -77.03649216666666, "type": "electric_scooter", "fusion_lat": 0.0, "lat": 38.9563585, "name": "8a9c64b9860f828a8563a7f5261a1e0d", "fusion_lon": 0.0, "bike_id": "8a9c64b9860f828a8563a7f5261a1e0d", "is_disabled": 0, "is_reserved": 0}, {"rental_uris": {"ios": "https://dc.lft.to/lastmile_qr_scan", "android": "https://dc.lft.to/lastmile_qr_scan"}, "lon": -77.03224783333333, "type": "electric_scooter", "fusion_lat": 0.0, "lat": 38.91404166666667, "name": "7cd73c40ce768b532afdb41065c9561b", "fusion_lon": 0.0, "bike_id": "7cd73c40ce768b532afdb41065c9561b", "is_disabled": 0, "is_reserved": 0}, {"rental_uris": {"ios": "https://dc.lft.to/lastmile_qr_scan", "android": "https://dc.lft.to/lastmile_qr_scan"}, "lon": -76.946305, "type": "electric_scooter", "fusion_lat": 0.0, "lat": 38.89842266666667, "name": "eac4e1d8b71f9ce2fef5ecb9fb7789db", "fusion_lon": 0.0, "bike_id": "eac4e1d8b71f9ce2fef5ecb9fb7789db", "is_disabled": 0, "is_reserved": 0}, {"rental_uris": {"ios": "https://dc.lft.to/lastmile_qr_scan", "android": "https://dc.lft.to/lastmile_qr_scan"}, "lon": -77.02341633333333, "type": "electric_scooter", "fusion_lat": 0.0, "lat": 38.917136666666664, "name": "49a405bd705fb57e29f26f8646658a53", "fusion_lon": 0.0, "bike_id": "49a405bd705fb57e29f26f8646658a53", "is_disabled": 0, "is_reserved": 0}, {"rental_uris": {"ios": "https://dc.lft.to/lastmile_qr_scan", "android": "https://dc.lft.to/lastmile_qr_scan"}, "lon": -77.00923933333333, "type": "electric_scooter", "fusion_lat": 0.0, "lat": 38.873560833333336, "name": "757403208ea944163442f88e986a62a9", "fusion_lon": 0.0, "bike_id": "757403208ea944163442f88e986a62a9", "is_disabled": 0, "is_reserved": 0}, {"rental_uris": {"ios": "https://dc.lft.to/lastmile_qr_scan", "android": "https://dc.lft.to/lastmile_qr_scan"}, "lon": -77.02418583333333, "type": "electric_scooter", "fusion_lat": 0.0, "lat": 38.892178, "name": "832cc1a0bdf3ec1eecff652122236c1c", "fusion_lon": 0.0, "bike_id": "832cc1a0bdf3ec1eecff652122236c1c", "is_disabled": 0, "is_reserved": 0}, {"rental_uris": {"ios": "https://dc.lft.to/lastmile_qr_scan", "android": "https://dc.lft.to/lastmile_qr_scan"}, "lon": -76.99920283333333, "type": "electric_scooter", "fusion_lat": 0.0, "lat": 38.90024783333333, "name": "0b98adbacddeac3b660d8d164c59d8b0", "fusion_lon": 0.0, "bike_id": "0b98adbacddeac3b660d8d164c59d8b0", "is_disabled": 0, "is_reserved": 0}, {"rental_uris": {"ios": "https://dc.lft.to/lastmile_qr_scan", "android": "https://dc.lft.to/lastmile_qr_scan"}, "lon": -76.9834265, "type": "electric_scooter", "fusion_lat": 0.0, "lat": 38.91535733333333, "name": "5f00e0733d1610bf4b81bb90eb783069", "fusion_lon": 0.0, "bike_id": "5f00e0733d1610bf4b81bb90eb783069", "is_disabled": 0, "is_reserved": 0}, {"rental_uris": {"ios": "https://dc.lft.to/lastmile_qr_scan", "android": "https://dc.lft.to/lastmile_qr_scan"}, "lon": -77.01736683333333, "type": "electric_scooter", "fusion_lat": 0.0, "lat": 38.902514333333336, "name": "22f49dc8ef78c2b1f7abe1a86124f35c", "fusion_lon": 0.0, "bike_id": "22f49dc8ef78c2b1f7abe1a86124f35c", "is_disabled": 0, "is_reserved": 0}, {"rental_uris": {"ios": "https://dc.lft.to/lastmile_qr_scan", "android": "https://dc.lft.to/lastmile_qr_scan"}, "lon": -77.03218833333334, "type": "electric_scooter", "fusion_lat": 0.0, "lat": 38.91689, "name": "a1021d8e81f7e97347901718a48113f0", "fusion_lon": 0.0, "bike_id": "a1021d8e81f7e97347901718a48113f0", "is_disabled": 0, "is_reserved": 0}, {"rental_uris": {"ios": "https://dc.lft.to/lastmile_qr_scan", "android": "https://dc.lft.to/lastmile_qr_scan"}, "lon": -77.02203233333333, "type": "electric_scooter", "fusion_lat": 0.0, "lat": 38.90348733333333, "name": "fe5f89f6483f80bafc801a9ec30e864e", "fusion_lon": 0.0, "bike_id": "fe5f89f6483f80bafc801a9ec30e864e", "is_disabled": 0, "is_reserved": 0}, {"rental_uris": {"ios": "https://dc.lft.to/lastmile_qr_scan", "android": "https://dc.lft.to/lastmile_qr_scan"}, "lon": -77.04164116666666, "type": "electric_scooter", "fusion_lat": 0.0, "lat": 38.919343166666664, "name": "092d09c28ef5e9a9b1e74c453b7aacba", "fusion_lon": 0.0, "bike_id": "092d09c28ef5e9a9b1e74c453b7aacba", "is_disabled": 0, "is_reserved": 0}, {"rental_uris": {"ios": "https://dc.lft.to/lastmile_qr_scan", "android": "https://dc.lft.to/lastmile_qr_scan"}, "lon": -77.02610233333333, "type": "electric_scooter", "fusion_lat": 0.0, "lat": 38.9004725, "name": "f6b6993b10ef7764dff05f37e6e580a4", "fusion_lon": 0.0, "bike_id": "f6b6993b10ef7764dff05f37e6e580a4", "is_disabled": 0, "is_reserved": 0}, {"rental_uris": {"ios": "https://dc.lft.to/lastmile_qr_scan", "android": "https://dc.lft.to/lastmile_qr_scan"}, "lon": -76.99813833333333, "type": "electric_scooter", "fusion_lat": 0.0, "lat": 38.888756666666666, "name": "ecc743f564c01616ab841129481b7045", "fusion_lon": 0.0, "bike_id": "ecc743f564c01616ab841129481b7045", "is_disabled": 0, "is_reserved": 0}, {"rental_uris": {"ios": "https://dc.lft.to/lastmile_qr_scan", "android": "https://dc.lft.to/lastmile_qr_scan"}, "lon": -77.039202, "type": "electric_scooter", "fusion_lat": 0.0, "lat": 38.923108, "name": "6b2a880813c6baf7fe28c30191b9a409", "fusion_lon": 0.0, "bike_id": "6b2a880813c6baf7fe28c30191b9a409", "is_disabled": 0, "is_reserved": 0}, {"rental_uris": {"ios": "https://dc.lft.to/lastmile_qr_scan", "android": "https://dc.lft.to/lastmile_qr_scan"}, "lon": -77.0241995, "type": "electric_scooter", "fusion_lat": 0.0, "lat": 38.892321, "name": "936dfc7388ea83f0859941f610511510", "fusion_lon": 0.0, "bike_id": "936dfc7388ea83f0859941f610511510", "is_disabled": 0, "is_reserved": 0}, {"rental_uris": {"ios": "https://dc.lft.to/lastmile_qr_scan", "android": "https://dc.lft.to/lastmile_qr_scan"}, "lon": -77.00612783333334, "type": "electric_scooter", "fusion_lat": 0.0, "lat": 38.87712416666667, "name": "5ab79ab2044c8561e593efe0f845458f", "fusion_lon": 0.0, "bike_id": "5ab79ab2044c8561e593efe0f845458f", "is_disabled": 0, "is_reserved": 0}, {"rental_uris": {"ios": "https://dc.lft.to/lastmile_qr_scan", "android": "https://dc.lft.to/lastmile_qr_scan"}, "lon": -77.066117, "type": "electric_scooter", "fusion_lat": 0.0, "lat": 38.911886, "name": "96863d1091707b8ef53be03e08442a82", "fusion_lon": 0.0, "bike_id": "96863d1091707b8ef53be03e08442a82", "is_disabled": 0, "is_reserved": 0}, {"rental_uris": {"ios": "https://dc.lft.to/lastmile_qr_scan", "android": "https://dc.lft.to/lastmile_qr_scan"}, "lon": -77.04375866666666, "type": "electric_scooter", "fusion_lat": 0.0, "lat": 38.91778816666667, "name": "66f25d1e8533b627e720b00586fbad47", "fusion_lon": 0.0, "bike_id": "66f25d1e8533b627e720b00586fbad47", "is_disabled": 0, "is_reserved": 0}, {"rental_uris": {"ios": "https://dc.lft.to/lastmile_qr_scan", "android": "https://dc.lft.to/lastmile_qr_scan"}, "lon": -77.03680333333334, "type": "electric_scooter", "fusion_lat": 0.0, "lat": 38.9057105, "name": "e50d2fe944f003c7f2204de31792d4ba", "fusion_lon": 0.0, "bike_id": "e50d2fe944f003c7f2204de31792d4ba", "is_disabled": 0, "is_reserved": 0}, {"rental_uris": {"ios": "https://dc.lft.to/lastmile_qr_scan", "android": "https://dc.lft.to/lastmile_qr_scan"}, "lon": -77.062711, "type": "electric_scooter", "fusion_lat": 0.0, "lat": 38.90357066666667, "name": "ddfff923fede1735ebb1987e3e2cd277", "fusion_lon": 0.0, "bike_id": "ddfff923fede1735ebb1987e3e2cd277", "is_disabled": 0, "is_reserved": 0}, {"rental_uris": {"ios": "https://dc.lft.to/lastmile_qr_scan", "android": "https://dc.lft.to/lastmile_qr_scan"}, "lon": -77.03560283333333, "type": "electric_bike", "fusion_lat": 0.0, "lat": 38.964679333333336, "name": "9e32f2bfdb880e346af56a812ddcdad5", "fusion_lon": 0.0, "bike_id": "9e32f2bfdb880e346af56a812ddcdad5", "is_disabled": 0, "is_reserved": 0}, {"rental_uris": {"ios": "https://dc.lft.to/lastmile_qr_scan", "android": "https://dc.lft.to/lastmile_qr_scan"}, "lon": -76.99968283333334, "type": "electric_scooter", "fusion_lat": 0.0, "lat": 38.90917983333333, "name": "acb0b57dd5eab9134e1abb9948d51b68", "fusion_lon": 0.0, "bike_id": "acb0b57dd5eab9134e1abb9948d51b68", "is_disabled": 0, "is_reserved": 0}, {"rental_uris": {"ios": "https://dc.lft.to/lastmile_qr_scan", "android": "https://dc.lft.to/lastmile_qr_scan"}, "lon": -76.98511683333334, "type": "electric_scooter", "fusion_lat": 0.0, "lat": 38.9060495, "name": "3303e157c1b9da5f56a23dc90d439f53", "fusion_lon": 0.0, "bike_id": "3303e157c1b9da5f56a23dc90d439f53", "is_disabled": 0, "is_reserved": 0}, {"rental_uris": {"ios": "https://dc.lft.to/lastmile_qr_scan", "android": "https://dc.lft.to/lastmile_qr_scan"}, "lon": -76.99762033333333, "type": "electric_scooter", "fusion_lat": 0.0, "lat": 38.9217925, "name": "b9fc217f394bc76ba000c737cffb1d27", "fusion_lon": 0.0, "bike_id": "b9fc217f394bc76ba000c737cffb1d27", "is_disabled": 0, "is_reserved": 0}, {"rental_uris": {"ios": "https://dc.lft.to/lastmile_qr_scan", "android": "https://dc.lft.to/lastmile_qr_scan"}, "lon": -77.01522466666667, "type": "electric_scooter", "fusion_lat": 0.0, "lat": 38.8725975, "name": "00b7ee803aae5d00eb6eeb0caa425abf", "fusion_lon": 0.0, "bike_id": "00b7ee803aae5d00eb6eeb0caa425abf", "is_disabled": 0, "is_reserved": 0}, {"rental_uris": {"ios": "https://dc.lft.to/lastmile_qr_scan", "android": "https://dc.lft.to/lastmile_qr_scan"}, "lon": -77.03695466666667, "type": "electric_scooter", "fusion_lat": 0.0, "lat": 38.92754083333333, "name": "045686315b2e5bfad828480148b4d239", "fusion_lon": 0.0, "bike_id": "045686315b2e5bfad828480148b4d239", "is_disabled": 0, "is_reserved": 0}, {"rental_uris": {"ios": "https://dc.lft.to/lastmile_qr_scan", "android": "https://dc.lft.to/lastmile_qr_scan"}, "lon": -77.06673, "type": "electric_scooter", "fusion_lat": 0.0, "lat": 38.9140555, "name": "15e51c1c0e17fee9e67a0ae7770377b4", "fusion_lon": 0.0, "bike_id": "15e51c1c0e17fee9e67a0ae7770377b4", "is_disabled": 0, "is_reserved": 0}, {"rental_uris": {"ios": "https://dc.lft.to/lastmile_qr_scan", "android": "https://dc.lft.to/lastmile_qr_scan"}, "lon": -77.02692416666666, "type": "electric_scooter", "fusion_lat": 0.0, "lat": 38.90684, "name": "fced62ad3fcca36d62afbaf430c0f27b", "fusion_lon": 0.0, "bike_id": "fced62ad3fcca36d62afbaf430c0f27b", "is_disabled": 0, "is_reserved": 0}, {"rental_uris": {"ios": "https://dc.lft.to/lastmile_qr_scan", "android": "https://dc.lft.to/lastmile_qr_scan"}, "lon": -77.02380216666667, "type": "electric_scooter", "fusion_lat": 0.0, "lat": 38.905938, "name": "b3bd4d9bf45654f252de008e7c1cb731", "fusion_lon": 0.0, "bike_id": "b3bd4d9bf45654f252de008e7c1cb731", "is_disabled": 0, "is_reserved": 0}, {"rental_uris": {"ios": "https://dc.lft.to/lastmile_qr_scan", "android": "https://dc.lft.to/lastmile_qr_scan"}, "lon": -77.06618816666666, "type": "electric_scooter", "fusion_lat": 0.0, "lat": 38.90526533333333, "name": "15b5ab8d8930137521734bdba2fecfa5", "fusion_lon": 0.0, "bike_id": "15b5ab8d8930137521734bdba2fecfa5", "is_disabled": 0, "is_reserved": 0}, {"rental_uris": {"ios": "https://dc.lft.to/lastmile_qr_scan", "android": "https://dc.lft.to/lastmile_qr_scan"}, "lon": -77.02367316666667, "type": "electric_scooter", "fusion_lat": 0.0, "lat": 38.89221166666667, "name": "74e325615f646ebe3dd5c1d1230c1750", "fusion_lon": 0.0, "bike_id": "74e325615f646ebe3dd5c1d1230c1750", "is_disabled": 0, "is_reserved": 0}, {"rental_uris": {"ios": "https://dc.lft.to/lastmile_qr_scan", "android": "https://dc.lft.to/lastmile_qr_scan"}, "lon": -76.99779233333334, "type": "electric_scooter", "fusion_lat": 0.0, "lat": 38.84425316666667, "name": "1e9a1587253315e985c24c2e72f4de1a", "fusion_lon": 0.0, "bike_id": "1e9a1587253315e985c24c2e72f4de1a", "is_disabled": 0, "is_reserved": 0}, {"rental_uris": {"ios": "https://dc.lft.to/lastmile_qr_scan", "android": "https://dc.lft.to/lastmile_qr_scan"}, "lon": -77.03975016666666, "type": "electric_scooter", "fusion_lat": 0.0, "lat": 38.902907, "name": "47aa1f752ea20593122743e899e01367", "fusion_lon": 0.0, "bike_id": "47aa1f752ea20593122743e899e01367", "is_disabled": 0, "is_reserved": 0}, {"rental_uris": {"ios": "https://dc.lft.to/lastmile_qr_scan", "android": "https://dc.lft.to/lastmile_qr_scan"}, "lon": -77.0609455, "type": "electric_scooter", "fusion_lat": 0.0, "lat": 38.91220466666667, "name": "9ae2b43958db02b3fc0b7621837e1bff", "fusion_lon": 0.0, "bike_id": "9ae2b43958db02b3fc0b7621837e1bff", "is_disabled": 0, "is_reserved": 0}, {"rental_uris": {"ios": "https://dc.lft.to/lastmile_qr_scan", "android": "https://dc.lft.to/lastmile_qr_scan"}, "lon": -77.05264033333333, "type": "electric_scooter", "fusion_lat": 0.0, "lat": 38.910222, "name": "0ada9688f5c7a39b2a679ccad6a4b651", "fusion_lon": 0.0, "bike_id": "0ada9688f5c7a39b2a679ccad6a4b651", "is_disabled": 0, "is_reserved": 0}, {"rental_uris": {"ios": "https://dc.lft.to/lastmile_qr_scan", "android": "https://dc.lft.to/lastmile_qr_scan"}, "lon": -76.99556766666667, "type": "electric_scooter", "fusion_lat": 0.0, "lat": 38.92305133333333, "name": "96fde225d59d94c2d041b411e1bc5d24", "fusion_lon": 0.0, "bike_id": "96fde225d59d94c2d041b411e1bc5d24", "is_disabled": 0, "is_reserved": 0}, {"rental_uris": {"ios": "https://dc.lft.to/lastmile_qr_scan", "android": "https://dc.lft.to/lastmile_qr_scan"}, "lon": -77.03629116666667, "type": "electric_scooter", "fusion_lat": 0.0, "lat": 38.95640983333333, "name": "f50588e6dc5b076e900bfa89516471cf", "fusion_lon": 0.0, "bike_id": "f50588e6dc5b076e900bfa89516471cf", "is_disabled": 0, "is_reserved": 0}, {"rental_uris": {"ios": "https://dc.lft.to/lastmile_qr_scan", "android": "https://dc.lft.to/lastmile_qr_scan"}, "lon": -77.02933983333334, "type": "electric_bike", "fusion_lat": 0.0, "lat": 38.899286333333336, "name": "0b0c5ad397ba60620a6f46b6654c25cf", "fusion_lon": 0.0, "bike_id": "0b0c5ad397ba60620a6f46b6654c25cf", "is_disabled": 0, "is_reserved": 0}, {"rental_uris": {"ios": "https://dc.lft.to/lastmile_qr_scan", "android": "https://dc.lft.to/lastmile_qr_scan"}, "lon": -77.02004566666666, "type": "electric_scooter", "fusion_lat": 0.0, "lat": 38.90269516666667, "name": "4da26b8c05c45f5dea593904368cc472", "fusion_lon": 0.0, "bike_id": "4da26b8c05c45f5dea593904368cc472", "is_disabled": 0, "is_reserved": 0}, {"rental_uris": {"ios": "https://dc.lft.to/lastmile_qr_scan", "android": "https://dc.lft.to/lastmile_qr_scan"}, "lon": -77.0174655, "type": "electric_scooter", "fusion_lat": 0.0, "lat": 38.9747835, "name": "363f03ef920bb55011d741c928d666ee", "fusion_lon": 0.0, "bike_id": "363f03ef920bb55011d741c928d666ee", "is_disabled": 0, "is_reserved": 0}, {"rental_uris": {"ios": "https://dc.lft.to/lastmile_qr_scan", "android": "https://dc.lft.to/lastmile_qr_scan"}, "lon": -77.03741683333334, "type": "electric_scooter", "fusion_lat": 0.0, "lat": 38.929152333333334, "name": "a7f1f0844da02e161a484f3abe82b66c", "fusion_lon": 0.0, "bike_id": "a7f1f0844da02e161a484f3abe82b66c", "is_disabled": 0, "is_reserved": 0}, {"rental_uris": {"ios": "https://dc.lft.to/lastmile_qr_scan", "android": "https://dc.lft.to/lastmile_qr_scan"}, "lon": -77.04393483333334, "type": "electric_bike", "fusion_lat": 0.0, "lat": 38.92943433333333, "name": "8c8979f8a2fc837f57e01e95a6b760ab", "fusion_lon": 0.0, "bike_id": "8c8979f8a2fc837f57e01e95a6b760ab", "is_disabled": 0, "is_reserved": 0}, {"rental_uris": {"ios": "https://dc.lft.to/lastmile_qr_scan", "android": "https://dc.lft.to/lastmile_qr_scan"}, "lon": -76.9732855, "type": "electric_bike", "fusion_lat": 0.0, "lat": 38.85060383333333, "name": "706e162eb8989d08d3a3337c020d2c50", "fusion_lon": 0.0, "bike_id": "706e162eb8989d08d3a3337c020d2c50", "is_disabled": 0, "is_reserved": 0}, {"rental_uris": {"ios": "https://dc.lft.to/lastmile_qr_scan", "android": "https://dc.lft.to/lastmile_qr_scan"}, "lon": -77.04539083333333, "type": "electric_scooter", "fusion_lat": 0.0, "lat": 38.919380833333335, "name": "cbd5167444b01e362c9470a6016cff13", "fusion_lon": 0.0, "bike_id": "cbd5167444b01e362c9470a6016cff13", "is_disabled": 0, "is_reserved": 0}, {"rental_uris": {"ios": "https://dc.lft.to/lastmile_qr_scan", "android": "https://dc.lft.to/lastmile_qr_scan"}, "lon": -77.05238616666666, "type": "electric_scooter", "fusion_lat": 0.0, "lat": 38.9246305, "name": "d19640f2b0da7ef275350aadc6d1885a", "fusion_lon": 0.0, "bike_id": "d19640f2b0da7ef275350aadc6d1885a", "is_disabled": 0, "is_reserved": 0}, {"rental_uris": {"ios": "https://dc.lft.to/lastmile_qr_scan", "android": "https://dc.lft.to/lastmile_qr_scan"}, "lon": -77.032247, "type": "electric_scooter", "fusion_lat": 0.0, "lat": 38.91819366666667, "name": "face27e4b2a9e67f7349c4f7b3f0a319", "fusion_lon": 0.0, "bike_id": "face27e4b2a9e67f7349c4f7b3f0a319", "is_disabled": 0, "is_reserved": 0}, {"rental_uris": {"ios": "https://dc.lft.to/lastmile_qr_scan", "android": "https://dc.lft.to/lastmile_qr_scan"}, "lon": -77.00884066666667, "type": "electric_scooter", "fusion_lat": 0.0, "lat": 38.9230625, "name": "2f9cb2dfec7d0a22795e4f2da281e2a9", "fusion_lon": 0.0, "bike_id": "2f9cb2dfec7d0a22795e4f2da281e2a9", "is_disabled": 0, "is_reserved": 0}, {"rental_uris": {"ios": "https://dc.lft.to/lastmile_qr_scan", "android": "https://dc.lft.to/lastmile_qr_scan"}, "lon": -77.00366583333333, "type": "electric_scooter", "fusion_lat": 0.0, "lat": 38.83805516666666, "name": "0d01c859964d7b46e111edd8fd694848", "fusion_lon": 0.0, "bike_id": "0d01c859964d7b46e111edd8fd694848", "is_disabled": 0, "is_reserved": 0}, {"rental_uris": {"ios": "https://dc.lft.to/lastmile_qr_scan", "android": "https://dc.lft.to/lastmile_qr_scan"}, "lon": -77.02758966666667, "type": "electric_scooter", "fusion_lat": 0.0, "lat": 38.956113, "name": "4268ec342e85514a898a2bc693481fa1", "fusion_lon": 0.0, "bike_id": "4268ec342e85514a898a2bc693481fa1", "is_disabled": 0, "is_reserved": 0}, {"rental_uris": {"ios": "https://dc.lft.to/lastmile_qr_scan", "android": "https://dc.lft.to/lastmile_qr_scan"}, "lon": -77.0954795, "type": "electric_bike", "fusion_lat": 0.0, "lat": 38.83730633333333, "name": "a3263883fd36fb1b663c4eedd03377be", "fusion_lon": 0.0, "bike_id": "a3263883fd36fb1b663c4eedd03377be", "is_disabled": 0, "is_reserved": 0}, {"rental_uris": {"ios": "https://dc.lft.to/lastmile_qr_scan", "android": "https://dc.lft.to/lastmile_qr_scan"}, "lon": -77.0519545, "type": "electric_scooter", "fusion_lat": 0.0, "lat": 38.92406016666666, "name": "3d3753ef0004393ee587688903786ca0", "fusion_lon": 0.0, "bike_id": "3d3753ef0004393ee587688903786ca0", "is_disabled": 0, "is_reserved": 0}, {"rental_uris": {"ios": "https://dc.lft.to/lastmile_qr_scan", "android": "https://dc.lft.to/lastmile_qr_scan"}, "lon": -77.00379033333333, "type": "electric_bike", "fusion_lat": 0.0, "lat": 38.83607683333334, "name": "db735180ec27f7940b03a95722ebace7", "fusion_lon": 0.0, "bike_id": "db735180ec27f7940b03a95722ebace7", "is_disabled": 0, "is_reserved": 0}, {"rental_uris": {"ios": "https://dc.lft.to/lastmile_qr_scan", "android": "https://dc.lft.to/lastmile_qr_scan"}, "lon": -76.94632833333333, "type": "electric_scooter", "fusion_lat": 0.0, "lat": 38.898327333333334, "name": "f5e1e38389d8addaafd47b60a0a09071", "fusion_lon": 0.0, "bike_id": "f5e1e38389d8addaafd47b60a0a09071", "is_disabled": 0, "is_reserved": 0}, {"rental_uris": {"ios": "https://dc.lft.to/lastmile_qr_scan", "android": "https://dc.lft.to/lastmile_qr_scan"}, "lon": -76.9906515, "type": "electric_scooter", "fusion_lat": 0.0, "lat": 38.8635565, "name": "1a2b618c3bbecc551026bb6ba299de62", "fusion_lon": 0.0, "bike_id": "1a2b618c3bbecc551026bb6ba299de62", "is_disabled": 0, "is_reserved": 0}, {"rental_uris": {"ios": "https://dc.lft.to/lastmile_qr_scan", "android": "https://dc.lft.to/lastmile_qr_scan"}, "lon": -77.03190516666666, "type": "electric_scooter", "fusion_lat": 0.0, "lat": 38.91764966666667, "name": "061de8fb068f05a18f449b342db339a6", "fusion_lon": 0.0, "bike_id": "061de8fb068f05a18f449b342db339a6", "is_disabled": 0, "is_reserved": 0}, {"rental_uris": {"ios": "https://dc.lft.to/lastmile_qr_scan", "android": "https://dc.lft.to/lastmile_qr_scan"}, "lon": -77.15266933333334, "type": "electric_bike", "fusion_lat": 0.0, "lat": 39.10563366666667, "name": "e713cce09aeab07a7a058adc73863f16", "fusion_lon": 0.0, "bike_id": "e713cce09aeab07a7a058adc73863f16", "is_disabled": 0, "is_reserved": 0}, {"rental_uris": {"ios": "https://dc.lft.to/lastmile_qr_scan", "android": "https://dc.lft.to/lastmile_qr_scan"}, "lon": -77.04329866666667, "type": "electric_scooter", "fusion_lat": 0.0, "lat": 38.908936, "name": "c41c6fd18a15d93d647df1d1c37eb05e", "fusion_lon": 0.0, "bike_id": "c41c6fd18a15d93d647df1d1c37eb05e", "is_disabled": 0, "is_reserved": 0}, {"rental_uris": {"ios": "https://dc.lft.to/lastmile_qr_scan", "android": "https://dc.lft.to/lastmile_qr_scan"}, "lon": -76.98326583333333, "type": "electric_scooter", "fusion_lat": 0.0, "lat": 38.861684, "name": "94a0522da88a29328f268fcafbd7fe55", "fusion_lon": 0.0, "bike_id": "94a0522da88a29328f268fcafbd7fe55", "is_disabled": 0, "is_reserved": 0}, {"rental_uris": {"ios": "https://dc.lft.to/lastmile_qr_scan", "android": "https://dc.lft.to/lastmile_qr_scan"}, "lon": -76.99624583333333, "type": "electric_scooter", "fusion_lat": 0.0, "lat": 38.884447, "name": "04394b09688b9d6a54dd38ff4af42936", "fusion_lon": 0.0, "bike_id": "04394b09688b9d6a54dd38ff4af42936", "is_disabled": 0, "is_reserved": 0}, {"rental_uris": {"ios": "https://dc.lft.to/lastmile_qr_scan", "android": "https://dc.lft.to/lastmile_qr_scan"}, "lon": -76.95753616666667, "type": "electric_scooter", "fusion_lat": 0.0, "lat": 38.88427883333333, "name": "080a2344b69d924e28cc12af5b40e7df", "fusion_lon": 0.0, "bike_id": "080a2344b69d924e28cc12af5b40e7df", "is_disabled": 0, "is_reserved": 0}, {"rental_uris": {"ios": "https://dc.lft.to/lastmile_qr_scan", "android": "https://dc.lft.to/lastmile_qr_scan"}, "lon": -76.9379265, "type": "electric_scooter", "fusion_lat": 0.0, "lat": 38.890845166666665, "name": "d84ea8dd63c71c9101d4edd598fe648a", "fusion_lon": 0.0, "bike_id": "d84ea8dd63c71c9101d4edd598fe648a", "is_disabled": 0, "is_reserved": 0}, {"rental_uris": {"ios": "https://dc.lft.to/lastmile_qr_scan", "android": "https://dc.lft.to/lastmile_qr_scan"}, "lon": -77.0289885, "type": "electric_scooter", "fusion_lat": 0.0, "lat": 38.8844785, "name": "aeca87202738b9a206df5a7bf3009604", "fusion_lon": 0.0, "bike_id": "aeca87202738b9a206df5a7bf3009604", "is_disabled": 0, "is_reserved": 0}, {"rental_uris": {"ios": "https://dc.lft.to/lastmile_qr_scan", "android": "https://dc.lft.to/lastmile_qr_scan"}, "lon": -77.0352905, "type": "electric_scooter", "fusion_lat": 0.0, "lat": 38.91485133333333, "name": "b048ba85c12bb802ce379d19420ae6f3", "fusion_lon": 0.0, "bike_id": "b048ba85c12bb802ce379d19420ae6f3", "is_disabled": 0, "is_reserved": 0}, {"rental_uris": {"ios": "https://dc.lft.to/lastmile_qr_scan", "android": "https://dc.lft.to/lastmile_qr_scan"}, "lon": -77.03192083333333, "type": "electric_scooter", "fusion_lat": 0.0, "lat": 38.93065716666667, "name": "4efdbeba7e80f8c6e3eccb8e2c0b6c15", "fusion_lon": 0.0, "bike_id": "4efdbeba7e80f8c6e3eccb8e2c0b6c15", "is_disabled": 0, "is_reserved": 0}, {"rental_uris": {"ios": "https://dc.lft.to/lastmile_qr_scan", "android": "https://dc.lft.to/lastmile_qr_scan"}, "lon": -77.02285766666667, "type": "electric_scooter", "fusion_lat": 0.0, "lat": 38.91678366666667, "name": "35de8a59801eee675bc40799b4faf6a0", "fusion_lon": 0.0, "bike_id": "35de8a59801eee675bc40799b4faf6a0", "is_disabled": 0, "is_reserved": 0}, {"rental_uris": {"ios": "https://dc.lft.to/lastmile_qr_scan", "android": "https://dc.lft.to/lastmile_qr_scan"}, "lon": -77.03088866666667, "type": "electric_scooter", "fusion_lat": 0.0, "lat": 38.9170615, "name": "6c0aa5e003c2d662a17dead564a55381", "fusion_lon": 0.0, "bike_id": "6c0aa5e003c2d662a17dead564a55381", "is_disabled": 0, "is_reserved": 0}, {"rental_uris": {"ios": "https://dc.lft.to/lastmile_qr_scan", "android": "https://dc.lft.to/lastmile_qr_scan"}, "lon": -76.9650395, "type": "electric_scooter", "fusion_lat": 0.0, "lat": 38.876462833333335, "name": "4d6d8078592b84ef3a9cf244857dac51", "fusion_lon": 0.0, "bike_id": "4d6d8078592b84ef3a9cf244857dac51", "is_disabled": 0, "is_reserved": 0}, {"rental_uris": {"ios": "https://dc.lft.to/lastmile_qr_scan", "android": "https://dc.lft.to/lastmile_qr_scan"}, "lon": -77.06348416666667, "type": "electric_bike", "fusion_lat": 0.0, "lat": 38.90851, "name": "059395ec57eb6d9446af259852b1c5f5", "fusion_lon": 0.0, "bike_id": "059395ec57eb6d9446af259852b1c5f5", "is_disabled": 0, "is_reserved": 0}, {"rental_uris": {"ios": "https://dc.lft.to/lastmile_qr_scan", "android": "https://dc.lft.to/lastmile_qr_scan"}, "lon": -77.03349016666667, "type": "electric_scooter", "fusion_lat": 0.0, "lat": 38.90634383333333, "name": "c85d4e025a07b1415580912ecd547a82", "fusion_lon": 0.0, "bike_id": "c85d4e025a07b1415580912ecd547a82", "is_disabled": 0, "is_reserved": 0}, {"rental_uris": {"ios": "https://dc.lft.to/lastmile_qr_scan", "android": "https://dc.lft.to/lastmile_qr_scan"}, "lon": -77.0320095, "type": "electric_scooter", "fusion_lat": 0.0, "lat": 38.91925333333333, "name": "f7455423883d37da96f137f47cff1e30", "fusion_lon": 0.0, "bike_id": "f7455423883d37da96f137f47cff1e30", "is_disabled": 0, "is_reserved": 0}, {"rental_uris": {"ios": "https://dc.lft.to/lastmile_qr_scan", "android": "https://dc.lft.to/lastmile_qr_scan"}, "lon": -76.97251166666666, "type": "electric_bike", "fusion_lat": 0.0, "lat": 38.9574085, "name": "42d88fff429037f67cff29bdfda13eb3", "fusion_lon": 0.0, "bike_id": "42d88fff429037f67cff29bdfda13eb3", "is_disabled": 0, "is_reserved": 0}, {"rental_uris": {"ios": "https://dc.lft.to/lastmile_qr_scan", "android": "https://dc.lft.to/lastmile_qr_scan"}, "lon": -77.04894016666667, "type": "electric_scooter", "fusion_lat": 0.0, "lat": 38.90659983333333, "name": "f4b745203dda5bc58b6084aeae80ce1f", "fusion_lon": 0.0, "bike_id": "f4b745203dda5bc58b6084aeae80ce1f", "is_disabled": 0, "is_reserved": 0}, {"rental_uris": {"ios": "https://dc.lft.to/lastmile_qr_scan", "android": "https://dc.lft.to/lastmile_qr_scan"}, "lon": -77.00491983333333, "type": "electric_scooter", "fusion_lat": 0.0, "lat": 38.91257383333333, "name": "d1de972524ae98b956068c890efdbb88", "fusion_lon": 0.0, "bike_id": "d1de972524ae98b956068c890efdbb88", "is_disabled": 0, "is_reserved": 0}, {"rental_uris": {"ios": "https://dc.lft.to/lastmile_qr_scan", "android": "https://dc.lft.to/lastmile_qr_scan"}, "lon": -77.032076, "type": "electric_scooter", "fusion_lat": 0.0, "lat": 38.937566, "name": "7e60e13e4bf1888dcf4e53ff0f1a822e", "fusion_lon": 0.0, "bike_id": "7e60e13e4bf1888dcf4e53ff0f1a822e", "is_disabled": 0, "is_reserved": 0}, {"rental_uris": {"ios": "https://dc.lft.to/lastmile_qr_scan", "android": "https://dc.lft.to/lastmile_qr_scan"}, "lon": -77.015586, "type": "electric_scooter", "fusion_lat": 0.0, "lat": 38.9024175, "name": "3da89c16773a6ccd306c0351133610f3", "fusion_lon": 0.0, "bike_id": "3da89c16773a6ccd306c0351133610f3", "is_disabled": 0, "is_reserved": 0}, {"rental_uris": {"ios": "https://dc.lft.to/lastmile_qr_scan", "android": "https://dc.lft.to/lastmile_qr_scan"}, "lon": -77.04986083333333, "type": "electric_scooter", "fusion_lat": 0.0, "lat": 38.904162666666664, "name": "e403ebca5df0e2b2f5e155871aac3267", "fusion_lon": 0.0, "bike_id": "e403ebca5df0e2b2f5e155871aac3267", "is_disabled": 0, "is_reserved": 0}, {"rental_uris": {"ios": "https://dc.lft.to/lastmile_qr_scan", "android": "https://dc.lft.to/lastmile_qr_scan"}, "lon": -77.03463016666667, "type": "electric_scooter", "fusion_lat": 0.0, "lat": 38.917683333333336, "name": "1c648626d0905147b03be61475b0ada1", "fusion_lon": 0.0, "bike_id": "1c648626d0905147b03be61475b0ada1", "is_disabled": 0, "is_reserved": 0}, {"rental_uris": {"ios": "https://dc.lft.to/lastmile_qr_scan", "android": "https://dc.lft.to/lastmile_qr_scan"}, "lon": -77.02152483333333, "type": "electric_scooter", "fusion_lat": 0.0, "lat": 38.9162505, "name": "e4a764290ebdfa93ebec7c34c1e91a09", "fusion_lon": 0.0, "bike_id": "e4a764290ebdfa93ebec7c34c1e91a09", "is_disabled": 0, "is_reserved": 0}, {"rental_uris": {"ios": "https://dc.lft.to/lastmile_qr_scan", "android": "https://dc.lft.to/lastmile_qr_scan"}, "lon": -77.05884383333333, "type": "electric_scooter", "fusion_lat": 0.0, "lat": 38.936334333333335, "name": "af7878b3accf3af04b95c998ecca9755", "fusion_lon": 0.0, "bike_id": "af7878b3accf3af04b95c998ecca9755", "is_disabled": 0, "is_reserved": 0}, {"rental_uris": {"ios": "https://dc.lft.to/lastmile_qr_scan", "android": "https://dc.lft.to/lastmile_qr_scan"}, "lon": -76.94653583333333, "type": "electric_scooter", "fusion_lat": 0.0, "lat": 38.8982495, "name": "10eddd1b7d1af36275d66819fdf354cc", "fusion_lon": 0.0, "bike_id": "10eddd1b7d1af36275d66819fdf354cc", "is_disabled": 0, "is_reserved": 0}, {"rental_uris": {"ios": "https://dc.lft.to/lastmile_qr_scan", "android": "https://dc.lft.to/lastmile_qr_scan"}, "lon": -77.04714533333333, "type": "electric_scooter", "fusion_lat": 0.0, "lat": 38.91792916666667, "name": "a6ba267eca6dded4ca5cdc751dd71799", "fusion_lon": 0.0, "bike_id": "a6ba267eca6dded4ca5cdc751dd71799", "is_disabled": 0, "is_reserved": 0}, {"rental_uris": {"ios": "https://dc.lft.to/lastmile_qr_scan", "android": "https://dc.lft.to/lastmile_qr_scan"}, "lon": -77.01106916666667, "type": "electric_scooter", "fusion_lat": 0.0, "lat": 38.895300166666665, "name": "354d63d74759c19977d7cf73030ea4bc", "fusion_lon": 0.0, "bike_id": "354d63d74759c19977d7cf73030ea4bc", "is_disabled": 0, "is_reserved": 0}, {"rental_uris": {"ios": "https://dc.lft.to/lastmile_qr_scan", "android": "https://dc.lft.to/lastmile_qr_scan"}, "lon": -77.023949, "type": "electric_scooter", "fusion_lat": 0.0, "lat": 38.91599216666667, "name": "ce49f484f6a69f6d43a476dc1196c5fa", "fusion_lon": 0.0, "bike_id": "ce49f484f6a69f6d43a476dc1196c5fa", "is_disabled": 0, "is_reserved": 0}, {"rental_uris": {"ios": "https://dc.lft.to/lastmile_qr_scan", "android": "https://dc.lft.to/lastmile_qr_scan"}, "lon": -77.0482155, "type": "electric_scooter", "fusion_lat": 0.0, "lat": 38.90793333333333, "name": "eef6008831b32f838789b7f0cfd01fd4", "fusion_lon": 0.0, "bike_id": "eef6008831b32f838789b7f0cfd01fd4", "is_disabled": 0, "is_reserved": 0}, {"rental_uris": {"ios": "https://dc.lft.to/lastmile_qr_scan", "android": "https://dc.lft.to/lastmile_qr_scan"}, "lon": -77.0287335, "type": "electric_scooter", "fusion_lat": 0.0, "lat": 38.93980666666667, "name": "7ff321e84934348964094be45f054388", "fusion_lon": 0.0, "bike_id": "7ff321e84934348964094be45f054388", "is_disabled": 0, "is_reserved": 0}, {"rental_uris": {"ios": "https://dc.lft.to/lastmile_qr_scan", "android": "https://dc.lft.to/lastmile_qr_scan"}, "lon": -77.00344533333333, "type": "electric_scooter", "fusion_lat": 0.0, "lat": 38.892598666666665, "name": "f818ab6f62bc13a53631da8233069c18", "fusion_lon": 0.0, "bike_id": "f818ab6f62bc13a53631da8233069c18", "is_disabled": 0, "is_reserved": 0}, {"rental_uris": {"ios": "https://dc.lft.to/lastmile_qr_scan", "android": "https://dc.lft.to/lastmile_qr_scan"}, "lon": -77.0049535, "type": "electric_scooter", "fusion_lat": 0.0, "lat": 38.8789625, "name": "430293edcdec14bc92f685731068344b", "fusion_lon": 0.0, "bike_id": "430293edcdec14bc92f685731068344b", "is_disabled": 0, "is_reserved": 0}, {"rental_uris": {"ios": "https://dc.lft.to/lastmile_qr_scan", "android": "https://dc.lft.to/lastmile_qr_scan"}, "lon": -77.0293365, "type": "electric_scooter", "fusion_lat": 0.0, "lat": 38.89929216666667, "name": "12f59ab894e2464f2768a273e5f6d6b2", "fusion_lon": 0.0, "bike_id": "12f59ab894e2464f2768a273e5f6d6b2", "is_disabled": 0, "is_reserved": 0}, {"rental_uris": {"ios": "https://dc.lft.to/lastmile_qr_scan", "android": "https://dc.lft.to/lastmile_qr_scan"}, "lon": -77.08864933333334, "type": "electric_scooter", "fusion_lat": 0.0, "lat": 38.909847166666665, "name": "b6b8d956f7cb827d9801471ba790aee6", "fusion_lon": 0.0, "bike_id": "b6b8d956f7cb827d9801471ba790aee6", "is_disabled": 0, "is_reserved": 0}, {"rental_uris": {"ios": "https://dc.lft.to/lastmile_qr_scan", "android": "https://dc.lft.to/lastmile_qr_scan"}, "lon": -76.94630183333334, "type": "electric_scooter", "fusion_lat": 0.0, "lat": 38.898428, "name": "653faa44eca8ee4b49adc29044a31090", "fusion_lon": 0.0, "bike_id": "653faa44eca8ee4b49adc29044a31090", "is_disabled": 0, "is_reserved": 0}, {"rental_uris": {"ios": "https://dc.lft.to/lastmile_qr_scan", "android": "https://dc.lft.to/lastmile_qr_scan"}, "lon": -77.0243825, "type": "electric_scooter", "fusion_lat": 0.0, "lat": 38.92255683333333, "name": "1daf32be25cede3fa1cfda7c04a47bc8", "fusion_lon": 0.0, "bike_id": "1daf32be25cede3fa1cfda7c04a47bc8", "is_disabled": 0, "is_reserved": 0}, {"rental_uris": {"ios": "https://dc.lft.to/lastmile_qr_scan", "android": "https://dc.lft.to/lastmile_qr_scan"}, "lon": -77.031963, "type": "electric_scooter", "fusion_lat": 0.0, "lat": 38.898434333333334, "name": "b695c360dcf87b1a4ebcbcd2655ef31a", "fusion_lon": 0.0, "bike_id": "b695c360dcf87b1a4ebcbcd2655ef31a", "is_disabled": 0, "is_reserved": 0}, {"rental_uris": {"ios": "https://dc.lft.to/lastmile_qr_scan", "android": "https://dc.lft.to/lastmile_qr_scan"}, "lon": -76.98333966666667, "type": "electric_scooter", "fusion_lat": 0.0, "lat": 38.91537016666667, "name": "c900ea2ffa3cea57952af67a7b5cfde5", "fusion_lon": 0.0, "bike_id": "c900ea2ffa3cea57952af67a7b5cfde5", "is_disabled": 0, "is_reserved": 0}, {"rental_uris": {"ios": "https://dc.lft.to/lastmile_qr_scan", "android": "https://dc.lft.to/lastmile_qr_scan"}, "lon": -76.990622, "type": "electric_scooter", "fusion_lat": 0.0, "lat": 38.8635115, "name": "4cc0bb5b35092f3540ba7f90bf965d41", "fusion_lon": 0.0, "bike_id": "4cc0bb5b35092f3540ba7f90bf965d41", "is_disabled": 0, "is_reserved": 0}, {"rental_uris": {"ios": "https://dc.lft.to/lastmile_qr_scan", "android": "https://dc.lft.to/lastmile_qr_scan"}, "lon": -77.0276455, "type": "electric_scooter", "fusion_lat": 0.0, "lat": 38.895051, "name": "60c41dda8f1189c2a3c32451ac61aa23", "fusion_lon": 0.0, "bike_id": "60c41dda8f1189c2a3c32451ac61aa23", "is_disabled": 0, "is_reserved": 0}, {"rental_uris": {"ios": "https://dc.lft.to/lastmile_qr_scan", "android": "https://dc.lft.to/lastmile_qr_scan"}, "lon": -77.021956, "type": "electric_scooter", "fusion_lat": 0.0, "lat": 38.894756666666666, "name": "6a67e2d6efeb54d8304256629882150c", "fusion_lon": 0.0, "bike_id": "6a67e2d6efeb54d8304256629882150c", "is_disabled": 0, "is_reserved": 0}, {"rental_uris": {"ios": "https://dc.lft.to/lastmile_qr_scan", "android": "https://dc.lft.to/lastmile_qr_scan"}, "lon": -77.05525083333333, "type": "electric_scooter", "fusion_lat": 0.0, "lat": 38.897291, "name": "1e4e11379ffc53140499e8432f61e7a3", "fusion_lon": 0.0, "bike_id": "1e4e11379ffc53140499e8432f61e7a3", "is_disabled": 0, "is_reserved": 0}, {"rental_uris": {"ios": "https://dc.lft.to/lastmile_qr_scan", "android": "https://dc.lft.to/lastmile_qr_scan"}, "lon": -77.05983916666666, "type": "electric_scooter", "fusion_lat": 0.0, "lat": 38.93549083333333, "name": "ef39fbe57ce434172129740097b0197b", "fusion_lon": 0.0, "bike_id": "ef39fbe57ce434172129740097b0197b", "is_disabled": 0, "is_reserved": 0}, {"rental_uris": {"ios": "https://dc.lft.to/lastmile_qr_scan", "android": "https://dc.lft.to/lastmile_qr_scan"}, "lon": -77.047375, "type": "electric_scooter", "fusion_lat": 0.0, "lat": 38.8973295, "name": "2032fb81e8d2c8bc6660b5e297303106", "fusion_lon": 0.0, "bike_id": "2032fb81e8d2c8bc6660b5e297303106", "is_disabled": 0, "is_reserved": 0}, {"rental_uris": {"ios": "https://dc.lft.to/lastmile_qr_scan", "android": "https://dc.lft.to/lastmile_qr_scan"}, "lon": -76.9547, "type": "electric_bike", "fusion_lat": 0.0, "lat": 38.886373, "name": "9141997f86cdeb24ff0e7c307d97b793", "fusion_lon": 0.0, "bike_id": "9141997f86cdeb24ff0e7c307d97b793", "is_disabled": 0, "is_reserved": 0}, {"rental_uris": {"ios": "https://dc.lft.to/lastmile_qr_scan", "android": "https://dc.lft.to/lastmile_qr_scan"}, "lon": -77.00674783333334, "type": "electric_scooter", "fusion_lat": 0.0, "lat": 38.87631016666667, "name": "f7007653217be68289a3d5d49c047a7f", "fusion_lon": 0.0, "bike_id": "f7007653217be68289a3d5d49c047a7f", "is_disabled": 0, "is_reserved": 0}, {"rental_uris": {"ios": "https://dc.lft.to/lastmile_qr_scan", "android": "https://dc.lft.to/lastmile_qr_scan"}, "lon": -77.00940583333333, "type": "electric_scooter", "fusion_lat": 0.0, "lat": 38.8720145, "name": "c48291723861ebcad5bde4702d552d71", "fusion_lon": 0.0, "bike_id": "c48291723861ebcad5bde4702d552d71", "is_disabled": 0, "is_reserved": 0}, {"rental_uris": {"ios": "https://dc.lft.to/lastmile_qr_scan", "android": "https://dc.lft.to/lastmile_qr_scan"}, "lon": -77.03209533333333, "type": "electric_scooter", "fusion_lat": 0.0, "lat": 38.900308, "name": "a36a1ac9be836ea225c54d62a9ff4928", "fusion_lon": 0.0, "bike_id": "a36a1ac9be836ea225c54d62a9ff4928", "is_disabled": 0, "is_reserved": 0}, {"rental_uris": {"ios": "https://dc.lft.to/lastmile_qr_scan", "android": "https://dc.lft.to/lastmile_qr_scan"}, "lon": -77.04284616666666, "type": "electric_scooter", "fusion_lat": 0.0, "lat": 38.909377, "name": "0bb9156980be92d4be290d0f1c1396c5", "fusion_lon": 0.0, "bike_id": "0bb9156980be92d4be290d0f1c1396c5", "is_disabled": 0, "is_reserved": 0}, {"rental_uris": {"ios": "https://dc.lft.to/lastmile_qr_scan", "android": "https://dc.lft.to/lastmile_qr_scan"}, "lon": -77.03851816666666, "type": "electric_scooter", "fusion_lat": 0.0, "lat": 38.926464, "name": "a77dbb98ff6841135d2ddf8fdedbc883", "fusion_lon": 0.0, "bike_id": "a77dbb98ff6841135d2ddf8fdedbc883", "is_disabled": 0, "is_reserved": 0}, {"rental_uris": {"ios": "https://dc.lft.to/lastmile_qr_scan", "android": "https://dc.lft.to/lastmile_qr_scan"}, "lon": -77.02876483333333, "type": "electric_scooter", "fusion_lat": 0.0, "lat": 38.89751733333333, "name": "6c9c7b85b4b5611adbdd544a40b145d7", "fusion_lon": 0.0, "bike_id": "6c9c7b85b4b5611adbdd544a40b145d7", "is_disabled": 0, "is_reserved": 0}, {"rental_uris": {"ios": "https://dc.lft.to/lastmile_qr_scan", "android": "https://dc.lft.to/lastmile_qr_scan"}, "lon": -76.98821316666667, "type": "electric_scooter", "fusion_lat": 0.0, "lat": 38.880239833333334, "name": "cfca07f61671ac590d3fa9e85616ab42", "fusion_lon": 0.0, "bike_id": "cfca07f61671ac590d3fa9e85616ab42", "is_disabled": 0, "is_reserved": 0}, {"rental_uris": {"ios": "https://dc.lft.to/lastmile_qr_scan", "android": "https://dc.lft.to/lastmile_qr_scan"}, "lon": -77.02414433333334, "type": "electric_scooter", "fusion_lat": 0.0, "lat": 38.884652833333334, "name": "fb10150ebf6f93c7bb315c80b5d7816e", "fusion_lon": 0.0, "bike_id": "fb10150ebf6f93c7bb315c80b5d7816e", "is_disabled": 0, "is_reserved": 0}, {"rental_uris": {"ios": "https://dc.lft.to/lastmile_qr_scan", "android": "https://dc.lft.to/lastmile_qr_scan"}, "lon": -77.028927, "type": "electric_scooter", "fusion_lat": 0.0, "lat": 38.917042333333335, "name": "491a0bb3b3c29385c0a4ce89201f288c", "fusion_lon": 0.0, "bike_id": "491a0bb3b3c29385c0a4ce89201f288c", "is_disabled": 0, "is_reserved": 0}, {"rental_uris": {"ios": "https://dc.lft.to/lastmile_qr_scan", "android": "https://dc.lft.to/lastmile_qr_scan"}, "lon": -77.05521716666667, "type": "electric_scooter", "fusion_lat": 0.0, "lat": 38.899284333333334, "name": "41f5d85f7d06fab01eedcdae24213ef3", "fusion_lon": 0.0, "bike_id": "41f5d85f7d06fab01eedcdae24213ef3", "is_disabled": 0, "is_reserved": 0}, {"rental_uris": {"ios": "https://dc.lft.to/lastmile_qr_scan", "android": "https://dc.lft.to/lastmile_qr_scan"}, "lon": -77.0706175, "type": "electric_scooter", "fusion_lat": 0.0, "lat": 38.90109416666667, "name": "f1f8c76347a7e0b5dd0d07c31eb11838", "fusion_lon": 0.0, "bike_id": "f1f8c76347a7e0b5dd0d07c31eb11838", "is_disabled": 0, "is_reserved": 0}, {"rental_uris": {"ios": "https://dc.lft.to/lastmile_qr_scan", "android": "https://dc.lft.to/lastmile_qr_scan"}, "lon": -77.03209333333334, "type": "electric_scooter", "fusion_lat": 0.0, "lat": 38.925821, "name": "7f85f0444673924c73f9834b2139b5c0", "fusion_lon": 0.0, "bike_id": "7f85f0444673924c73f9834b2139b5c0", "is_disabled": 0, "is_reserved": 0}, {"rental_uris": {"ios": "https://dc.lft.to/lastmile_qr_scan", "android": "https://dc.lft.to/lastmile_qr_scan"}, "lon": -77.03346933333333, "type": "electric_scooter", "fusion_lat": 0.0, "lat": 38.8996205, "name": "9817893ac507c20896916aa8039f9d4d", "fusion_lon": 0.0, "bike_id": "9817893ac507c20896916aa8039f9d4d", "is_disabled": 0, "is_reserved": 0}, {"rental_uris": {"ios": "https://dc.lft.to/lastmile_qr_scan", "android": "https://dc.lft.to/lastmile_qr_scan"}, "lon": -77.0326065, "type": "electric_scooter", "fusion_lat": 0.0, "lat": 38.929077, "name": "ef38d6c7988c0dfd341ee55e1253922a", "fusion_lon": 0.0, "bike_id": "ef38d6c7988c0dfd341ee55e1253922a", "is_disabled": 0, "is_reserved": 0}, {"rental_uris": {"ios": "https://dc.lft.to/lastmile_qr_scan", "android": "https://dc.lft.to/lastmile_qr_scan"}, "lon": -77.04486333333334, "type": "electric_scooter", "fusion_lat": 0.0, "lat": 38.900731, "name": "417c9fe69d02b9f98418b8785bf5bf27", "fusion_lon": 0.0, "bike_id": "417c9fe69d02b9f98418b8785bf5bf27", "is_disabled": 0, "is_reserved": 0}, {"rental_uris": {"ios": "https://dc.lft.to/lastmile_qr_scan", "android": "https://dc.lft.to/lastmile_qr_scan"}, "lon": -77.003363, "type": "electric_scooter", "fusion_lat": 0.0, "lat": 38.874969, "name": "9e7b3023e838d73d5f1c809d7e155ddc", "fusion_lon": 0.0, "bike_id": "9e7b3023e838d73d5f1c809d7e155ddc", "is_disabled": 0, "is_reserved": 0}, {"rental_uris": {"ios": "https://dc.lft.to/lastmile_qr_scan", "android": "https://dc.lft.to/lastmile_qr_scan"}, "lon": -77.02753116666666, "type": "electric_scooter", "fusion_lat": 0.0, "lat": 38.894741333333336, "name": "3cda0c98d1cc7237b67a60925794ba4c", "fusion_lon": 0.0, "bike_id": "3cda0c98d1cc7237b67a60925794ba4c", "is_disabled": 0, "is_reserved": 0}, {"rental_uris": {"ios": "https://dc.lft.to/lastmile_qr_scan", "android": "https://dc.lft.to/lastmile_qr_scan"}, "lon": -77.0250435, "type": "electric_scooter", "fusion_lat": 0.0, "lat": 38.897359333333334, "name": "97d61746574e1848a97987defabee129", "fusion_lon": 0.0, "bike_id": "97d61746574e1848a97987defabee129", "is_disabled": 0, "is_reserved": 0}, {"rental_uris": {"ios": "https://dc.lft.to/lastmile_qr_scan", "android": "https://dc.lft.to/lastmile_qr_scan"}, "lon": -77.11316666666667, "type": "electric_bike", "fusion_lat": 0.0, "lat": 38.8556245, "name": "9bd62d2f26d766e10cccde74db79d008", "fusion_lon": 0.0, "bike_id": "9bd62d2f26d766e10cccde74db79d008", "is_disabled": 0, "is_reserved": 0}, {"rental_uris": {"ios": "https://dc.lft.to/lastmile_qr_scan", "android": "https://dc.lft.to/lastmile_qr_scan"}, "lon": -77.0136005, "type": "electric_scooter", "fusion_lat": 0.0, "lat": 38.919880666666664, "name": "fdb4b9cb3738afffcff0b960f455d385", "fusion_lon": 0.0, "bike_id": "fdb4b9cb3738afffcff0b960f455d385", "is_disabled": 0, "is_reserved": 0}, {"rental_uris": {"ios": "https://dc.lft.to/lastmile_qr_scan", "android": "https://dc.lft.to/lastmile_qr_scan"}, "lon": -77.02327933333333, "type": "electric_scooter", "fusion_lat": 0.0, "lat": 38.89388, "name": "684399e9d1a156d7503f07a471d3c3f7", "fusion_lon": 0.0, "bike_id": "684399e9d1a156d7503f07a471d3c3f7", "is_disabled": 0, "is_reserved": 0}, {"rental_uris": {"ios": "https://dc.lft.to/lastmile_qr_scan", "android": "https://dc.lft.to/lastmile_qr_scan"}, "lon": -77.0441345, "type": "electric_scooter", "fusion_lat": 0.0, "lat": 38.91316483333333, "name": "077246fd45702396326d3af7e01fc65c", "fusion_lon": 0.0, "bike_id": "077246fd45702396326d3af7e01fc65c", "is_disabled": 0, "is_reserved": 0}, {"rental_uris": {"ios": "https://dc.lft.to/lastmile_qr_scan", "android": "https://dc.lft.to/lastmile_qr_scan"}, "lon": -76.97998966666667, "type": "electric_bike", "fusion_lat": 0.0, "lat": 38.90018366666666, "name": "bf0ab7ffdc5ca327b93af7097be1fd7c", "fusion_lon": 0.0, "bike_id": "bf0ab7ffdc5ca327b93af7097be1fd7c", "is_disabled": 0, "is_reserved": 0}, {"rental_uris": {"ios": "https://dc.lft.to/lastmile_qr_scan", "android": "https://dc.lft.to/lastmile_qr_scan"}, "lon": -77.0014285, "type": "electric_scooter", "fusion_lat": 0.0, "lat": 38.873709166666664, "name": "c22980d1efc2f1d7c738dd28d1b0b262", "fusion_lon": 0.0, "bike_id": "c22980d1efc2f1d7c738dd28d1b0b262", "is_disabled": 0, "is_reserved": 0}, {"rental_uris": {"ios": "https://dc.lft.to/lastmile_qr_scan", "android": "https://dc.lft.to/lastmile_qr_scan"}, "lon": -77.09138116666666, "type": "electric_bike", "fusion_lat": 0.0, "lat": 38.80416066666667, "name": "109430427da1114d254e753f16b8a2d0", "fusion_lon": 0.0, "bike_id": "109430427da1114d254e753f16b8a2d0", "is_disabled": 0, "is_reserved": 0}, {"rental_uris": {"ios": "https://dc.lft.to/lastmile_qr_scan", "android": "https://dc.lft.to/lastmile_qr_scan"}, "lon": -77.05407416666667, "type": "electric_scooter", "fusion_lat": 0.0, "lat": 38.93516433333333, "name": "1427897ae15b6894dba81c8258639ccb", "fusion_lon": 0.0, "bike_id": "1427897ae15b6894dba81c8258639ccb", "is_disabled": 0, "is_reserved": 0}, {"rental_uris": {"ios": "https://dc.lft.to/lastmile_qr_scan", "android": "https://dc.lft.to/lastmile_qr_scan"}, "lon": -77.0283195, "type": "electric_scooter", "fusion_lat": 0.0, "lat": 38.8922945, "name": "bf88780c9de70ad00f199928d070effb", "fusion_lon": 0.0, "bike_id": "bf88780c9de70ad00f199928d070effb", "is_disabled": 0, "is_reserved": 0}, {"rental_uris": {"ios": "https://dc.lft.to/lastmile_qr_scan", "android": "https://dc.lft.to/lastmile_qr_scan"}, "lon": -77.040255, "type": "electric_scooter", "fusion_lat": 0.0, "lat": 38.923737333333335, "name": "2f7d1a0420c9b8faebe53518cb4a1d31", "fusion_lon": 0.0, "bike_id": "2f7d1a0420c9b8faebe53518cb4a1d31", "is_disabled": 0, "is_reserved": 0}, {"rental_uris": {"ios": "https://dc.lft.to/lastmile_qr_scan", "android": "https://dc.lft.to/lastmile_qr_scan"}, "lon": -76.95244033333333, "type": "electric_bike", "fusion_lat": 0.0, "lat": 38.9070115, "name": "27eb95dd20a7c7774a46ad0936c73a38", "fusion_lon": 0.0, "bike_id": "27eb95dd20a7c7774a46ad0936c73a38", "is_disabled": 0, "is_reserved": 0}, {"rental_uris": {"ios": "https://dc.lft.to/lastmile_qr_scan", "android": "https://dc.lft.to/lastmile_qr_scan"}, "lon": -76.996779, "type": "electric_scooter", "fusion_lat": 0.0, "lat": 38.921817833333336, "name": "88e16d70a69a957ec438d89c4c9b2c85", "fusion_lon": 0.0, "bike_id": "88e16d70a69a957ec438d89c4c9b2c85", "is_disabled": 0, "is_reserved": 0}, {"rental_uris": {"ios": "https://dc.lft.to/lastmile_qr_scan", "android": "https://dc.lft.to/lastmile_qr_scan"}, "lon": -77.030077, "type": "electric_scooter", "fusion_lat": 0.0, "lat": 38.89221783333333, "name": "c00b6cf5f674dbd20c5bfce91c75c22c", "fusion_lon": 0.0, "bike_id": "c00b6cf5f674dbd20c5bfce91c75c22c", "is_disabled": 0, "is_reserved": 0}, {"rental_uris": {"ios": "https://dc.lft.to/lastmile_qr_scan", "android": "https://dc.lft.to/lastmile_qr_scan"}, "lon": -77.01313616666667, "type": "electric_scooter", "fusion_lat": 0.0, "lat": 38.89740966666667, "name": "43865e9fe19ca526c3f8f97fe6bfb05b", "fusion_lon": 0.0, "bike_id": "43865e9fe19ca526c3f8f97fe6bfb05b", "is_disabled": 0, "is_reserved": 0}, {"rental_uris": {"ios": "https://dc.lft.to/lastmile_qr_scan", "android": "https://dc.lft.to/lastmile_qr_scan"}, "lon": -77.06149883333333, "type": "electric_scooter", "fusion_lat": 0.0, "lat": 38.905274666666664, "name": "0a05b9ee3e63e1cab4bb9d4b7e1a364f", "fusion_lon": 0.0, "bike_id": "0a05b9ee3e63e1cab4bb9d4b7e1a364f", "is_disabled": 0, "is_reserved": 0}, {"rental_uris": {"ios": "https://dc.lft.to/lastmile_qr_scan", "android": "https://dc.lft.to/lastmile_qr_scan"}, "lon": -77.00200733333334, "type": "electric_scooter", "fusion_lat": 0.0, "lat": 38.822526833333335, "name": "cfeed75f566b49053fea861ce6063e38", "fusion_lon": 0.0, "bike_id": "cfeed75f566b49053fea861ce6063e38", "is_disabled": 0, "is_reserved": 0}, {"rental_uris": {"ios": "https://dc.lft.to/lastmile_qr_scan", "android": "https://dc.lft.to/lastmile_qr_scan"}, "lon": -77.02363633333333, "type": "electric_scooter", "fusion_lat": 0.0, "lat": 38.90312633333333, "name": "29429d694d1524d0b871004480a89ad1", "fusion_lon": 0.0, "bike_id": "29429d694d1524d0b871004480a89ad1", "is_disabled": 0, "is_reserved": 0}, {"rental_uris": {"ios": "https://dc.lft.to/lastmile_qr_scan", "android": "https://dc.lft.to/lastmile_qr_scan"}, "lon": -77.01928966666667, "type": "electric_scooter", "fusion_lat": 0.0, "lat": 38.95685783333333, "name": "146792c2b4d6cb9cc76d59ddea93c379", "fusion_lon": 0.0, "bike_id": "146792c2b4d6cb9cc76d59ddea93c379", "is_disabled": 0, "is_reserved": 0}, {"rental_uris": {"ios": "https://dc.lft.to/lastmile_qr_scan", "android": "https://dc.lft.to/lastmile_qr_scan"}, "lon": -77.03745233333333, "type": "electric_scooter", "fusion_lat": 0.0, "lat": 38.925992666666666, "name": "a45760e896d67bf6dc5a6fa10327289a", "fusion_lon": 0.0, "bike_id": "a45760e896d67bf6dc5a6fa10327289a", "is_disabled": 0, "is_reserved": 0}, {"rental_uris": {"ios": "https://dc.lft.to/lastmile_qr_scan", "android": "https://dc.lft.to/lastmile_qr_scan"}, "lon": -77.05674433333333, "type": "electric_scooter", "fusion_lat": 0.0, "lat": 38.923329, "name": "3a0bc3cccdfc8dd676751a28398de1d8", "fusion_lon": 0.0, "bike_id": "3a0bc3cccdfc8dd676751a28398de1d8", "is_disabled": 0, "is_reserved": 0}, {"rental_uris": {"ios": "https://dc.lft.to/lastmile_qr_scan", "android": "https://dc.lft.to/lastmile_qr_scan"}, "lon": -77.182913, "type": "electric_bike", "fusion_lat": 0.0, "lat": 38.8834305, "name": "0571089e8979a04ccf40fa30f960f6e4", "fusion_lon": 0.0, "bike_id": "0571089e8979a04ccf40fa30f960f6e4", "is_disabled": 0, "is_reserved": 0}, {"rental_uris": {"ios": "https://dc.lft.to/lastmile_qr_scan", "android": "https://dc.lft.to/lastmile_qr_scan"}, "lon": -76.990222, "type": "electric_scooter", "fusion_lat": 0.0, "lat": 38.8586635, "name": "1d7f962fe906f2c291e17395fcb07461", "fusion_lon": 0.0, "bike_id": "1d7f962fe906f2c291e17395fcb07461", "is_disabled": 0, "is_reserved": 0}, {"rental_uris": {"ios": "https://dc.lft.to/lastmile_qr_scan", "android": "https://dc.lft.to/lastmile_qr_scan"}, "lon": -76.95001883333333, "type": "electric_scooter", "fusion_lat": 0.0, "lat": 38.893730166666664, "name": "851f00fad16ebc2b044193a6f04b37f5", "fusion_lon": 0.0, "bike_id": "851f00fad16ebc2b044193a6f04b37f5", "is_disabled": 0, "is_reserved": 0}, {"rental_uris": {"ios": "https://dc.lft.to/lastmile_qr_scan", "android": "https://dc.lft.to/lastmile_qr_scan"}, "lon": -77.01856783333334, "type": "electric_scooter", "fusion_lat": 0.0, "lat": 38.89262333333333, "name": "c6601caebe224f89ddd9d7de92a8d016", "fusion_lon": 0.0, "bike_id": "c6601caebe224f89ddd9d7de92a8d016", "is_disabled": 0, "is_reserved": 0}, {"rental_uris": {"ios": "https://dc.lft.to/lastmile_qr_scan", "android": "https://dc.lft.to/lastmile_qr_scan"}, "lon": -77.0318265, "type": "electric_scooter", "fusion_lat": 0.0, "lat": 38.91716683333333, "name": "2d42befc227effbffdd866a3fb4514fe", "fusion_lon": 0.0, "bike_id": "2d42befc227effbffdd866a3fb4514fe", "is_disabled": 0, "is_reserved": 0}, {"rental_uris": {"ios": "https://dc.lft.to/lastmile_qr_scan", "android": "https://dc.lft.to/lastmile_qr_scan"}, "lon": -77.06185266666667, "type": "electric_scooter", "fusion_lat": 0.0, "lat": 38.90265866666667, "name": "cfca0f410753f09d2e4fc32784587159", "fusion_lon": 0.0, "bike_id": "cfca0f410753f09d2e4fc32784587159", "is_disabled": 0, "is_reserved": 0}, {"rental_uris": {"ios": "https://dc.lft.to/lastmile_qr_scan", "android": "https://dc.lft.to/lastmile_qr_scan"}, "lon": -77.02544616666667, "type": "electric_scooter", "fusion_lat": 0.0, "lat": 38.892251333333334, "name": "0643baac352051e4fd9993dc167c7d69", "fusion_lon": 0.0, "bike_id": "0643baac352051e4fd9993dc167c7d69", "is_disabled": 0, "is_reserved": 0}, {"rental_uris": {"ios": "https://dc.lft.to/lastmile_qr_scan", "android": "https://dc.lft.to/lastmile_qr_scan"}, "lon": -77.05901183333333, "type": "electric_scooter", "fusion_lat": 0.0, "lat": 38.93609166666667, "name": "0be4342154d7a0e99ca5e704e9618207", "fusion_lon": 0.0, "bike_id": "0be4342154d7a0e99ca5e704e9618207", "is_disabled": 0, "is_reserved": 0}, {"rental_uris": {"ios": "https://dc.lft.to/lastmile_qr_scan", "android": "https://dc.lft.to/lastmile_qr_scan"}, "lon": -77.03308533333333, "type": "electric_scooter", "fusion_lat": 0.0, "lat": 38.90151566666667, "name": "2a887abecb04b9c19827abd0942407be", "fusion_lon": 0.0, "bike_id": "2a887abecb04b9c19827abd0942407be", "is_disabled": 0, "is_reserved": 0}, {"rental_uris": {"ios": "https://dc.lft.to/lastmile_qr_scan", "android": "https://dc.lft.to/lastmile_qr_scan"}, "lon": -77.0645885, "type": "electric_scooter", "fusion_lat": 0.0, "lat": 38.91043666666667, "name": "4179f1cf59e4afa36b91fb326421f35f", "fusion_lon": 0.0, "bike_id": "4179f1cf59e4afa36b91fb326421f35f", "is_disabled": 0, "is_reserved": 0}, {"rental_uris": {"ios": "https://dc.lft.to/lastmile_qr_scan", "android": "https://dc.lft.to/lastmile_qr_scan"}, "lon": -76.97825733333333, "type": "electric_scooter", "fusion_lat": 0.0, "lat": 38.895173, "name": "babaa11dc758994197df0e3c42fa77ad", "fusion_lon": 0.0, "bike_id": "babaa11dc758994197df0e3c42fa77ad", "is_disabled": 0, "is_reserved": 0}, {"rental_uris": {"ios": "https://dc.lft.to/lastmile_qr_scan", "android": "https://dc.lft.to/lastmile_qr_scan"}, "lon": -77.0166215, "type": "electric_scooter", "fusion_lat": 0.0, "lat": 38.913988, "name": "7e94e8d56c3538c0f24094c796cf02a7", "fusion_lon": 0.0, "bike_id": "7e94e8d56c3538c0f24094c796cf02a7", "is_disabled": 0, "is_reserved": 0}, {"rental_uris": {"ios": "https://dc.lft.to/lastmile_qr_scan", "android": "https://dc.lft.to/lastmile_qr_scan"}, "lon": -77.0417315, "type": "electric_scooter", "fusion_lat": 0.0, "lat": 38.919345, "name": "b439f9e96dde062c101f33c92be42f1f", "fusion_lon": 0.0, "bike_id": "b439f9e96dde062c101f33c92be42f1f", "is_disabled": 0, "is_reserved": 0}, {"rental_uris": {"ios": "https://dc.lft.to/lastmile_qr_scan", "android": "https://dc.lft.to/lastmile_qr_scan"}, "lon": -77.017502, "type": "electric_scooter", "fusion_lat": 0.0, "lat": 38.9056195, "name": "c3cfc095ce1b8d7e15e6967418225882", "fusion_lon": 0.0, "bike_id": "c3cfc095ce1b8d7e15e6967418225882", "is_disabled": 0, "is_reserved": 0}, {"rental_uris": {"ios": "https://dc.lft.to/lastmile_qr_scan", "android": "https://dc.lft.to/lastmile_qr_scan"}, "lon": -77.05336683333333, "type": "electric_scooter", "fusion_lat": 0.0, "lat": 38.9059575, "name": "206166aa10c67a7b46594eee3c49993f", "fusion_lon": 0.0, "bike_id": "206166aa10c67a7b46594eee3c49993f", "is_disabled": 0, "is_reserved": 0}, {"rental_uris": {"ios": "https://dc.lft.to/lastmile_qr_scan", "android": "https://dc.lft.to/lastmile_qr_scan"}, "lon": -77.03493216666666, "type": "electric_scooter", "fusion_lat": 0.0, "lat": 38.918113, "name": "3c51d169c808acb194bd511b9e313966", "fusion_lon": 0.0, "bike_id": "3c51d169c808acb194bd511b9e313966", "is_disabled": 0, "is_reserved": 0}, {"rental_uris": {"ios": "https://dc.lft.to/lastmile_qr_scan", "android": "https://dc.lft.to/lastmile_qr_scan"}, "lon": -76.99973283333334, "type": "electric_scooter", "fusion_lat": 0.0, "lat": 38.838339166666664, "name": "d8f9fa421205784325e81b898502c04a", "fusion_lon": 0.0, "bike_id": "d8f9fa421205784325e81b898502c04a", "is_disabled": 0, "is_reserved": 0}, {"rental_uris": {"ios": "https://dc.lft.to/lastmile_qr_scan", "android": "https://dc.lft.to/lastmile_qr_scan"}, "lon": -77.03563766666667, "type": "electric_scooter", "fusion_lat": 0.0, "lat": 38.90377516666667, "name": "f675214db7327b3fed0726a37e98c7f2", "fusion_lon": 0.0, "bike_id": "f675214db7327b3fed0726a37e98c7f2", "is_disabled": 0, "is_reserved": 0}, {"rental_uris": {"ios": "https://dc.lft.to/lastmile_qr_scan", "android": "https://dc.lft.to/lastmile_qr_scan"}, "lon": -77.03462583333334, "type": "electric_scooter", "fusion_lat": 0.0, "lat": 38.909025666666665, "name": "06d80dd7d19232122fd36002681ccc1e", "fusion_lon": 0.0, "bike_id": "06d80dd7d19232122fd36002681ccc1e", "is_disabled": 0, "is_reserved": 0}, {"rental_uris": {"ios": "https://dc.lft.to/lastmile_qr_scan", "android": "https://dc.lft.to/lastmile_qr_scan"}, "lon": -77.0123565, "type": "electric_scooter", "fusion_lat": 0.0, "lat": 38.91549166666667, "name": "79eac0fc969f87130262264a06469eb4", "fusion_lon": 0.0, "bike_id": "79eac0fc969f87130262264a06469eb4", "is_disabled": 0, "is_reserved": 0}, {"rental_uris": {"ios": "https://dc.lft.to/lastmile_qr_scan", "android": "https://dc.lft.to/lastmile_qr_scan"}, "lon": -77.02643616666667, "type": "electric_scooter", "fusion_lat": 0.0, "lat": 38.91561766666667, "name": "8da9468766deb5c55d6acf07a46db1a4", "fusion_lon": 0.0, "bike_id": "8da9468766deb5c55d6acf07a46db1a4", "is_disabled": 0, "is_reserved": 0}, {"rental_uris": {"ios": "https://dc.lft.to/lastmile_qr_scan", "android": "https://dc.lft.to/lastmile_qr_scan"}, "lon": -77.0637415, "type": "electric_scooter", "fusion_lat": 0.0, "lat": 38.944208333333336, "name": "57eccc79ced84753b4a81b07be33ea54", "fusion_lon": 0.0, "bike_id": "57eccc79ced84753b4a81b07be33ea54", "is_disabled": 0, "is_reserved": 0}, {"rental_uris": {"ios": "https://dc.lft.to/lastmile_qr_scan", "android": "https://dc.lft.to/lastmile_qr_scan"}, "lon": -77.01765633333333, "type": "electric_scooter", "fusion_lat": 0.0, "lat": 38.90266866666666, "name": "f78ebb952dec66f975f6825fb27437a2", "fusion_lon": 0.0, "bike_id": "f78ebb952dec66f975f6825fb27437a2", "is_disabled": 0, "is_reserved": 0}, {"rental_uris": {"ios": "https://dc.lft.to/lastmile_qr_scan", "android": "https://dc.lft.to/lastmile_qr_scan"}, "lon": -77.00578916666667, "type": "electric_scooter", "fusion_lat": 0.0, "lat": 38.905845666666664, "name": "f6a5722caad21a44c00b65bc078f9fde", "fusion_lon": 0.0, "bike_id": "f6a5722caad21a44c00b65bc078f9fde", "is_disabled": 0, "is_reserved": 0}, {"rental_uris": {"ios": "https://dc.lft.to/lastmile_qr_scan", "android": "https://dc.lft.to/lastmile_qr_scan"}, "lon": -77.00090833333333, "type": "electric_scooter", "fusion_lat": 0.0, "lat": 38.907463, "name": "d69958fb452c70a13a8aefaaddcad199", "fusion_lon": 0.0, "bike_id": "d69958fb452c70a13a8aefaaddcad199", "is_disabled": 0, "is_reserved": 0}, {"rental_uris": {"ios": "https://dc.lft.to/lastmile_qr_scan", "android": "https://dc.lft.to/lastmile_qr_scan"}, "lon": -77.05326216666667, "type": "electric_scooter", "fusion_lat": 0.0, "lat": 38.93967933333333, "name": "7af0fbe105e020ac2b3618b4880b8322", "fusion_lon": 0.0, "bike_id": "7af0fbe105e020ac2b3618b4880b8322", "is_disabled": 0, "is_reserved": 0}, {"rental_uris": {"ios": "https://dc.lft.to/lastmile_qr_scan", "android": "https://dc.lft.to/lastmile_qr_scan"}, "lon": -77.03236966666667, "type": "electric_scooter", "fusion_lat": 0.0, "lat": 38.90514966666667, "name": "08685e5ff4ff83838cdd745f5f422f55", "fusion_lon": 0.0, "bike_id": "08685e5ff4ff83838cdd745f5f422f55", "is_disabled": 0, "is_reserved": 0}, {"rental_uris": {"ios": "https://dc.lft.to/lastmile_qr_scan", "android": "https://dc.lft.to/lastmile_qr_scan"}, "lon": -77.03914516666667, "type": "electric_scooter", "fusion_lat": 0.0, "lat": 38.92310366666667, "name": "f52132cd2844d210c67dfb3806cd6420", "fusion_lon": 0.0, "bike_id": "f52132cd2844d210c67dfb3806cd6420", "is_disabled": 0, "is_reserved": 0}, {"rental_uris": {"ios": "https://dc.lft.to/lastmile_qr_scan", "android": "https://dc.lft.to/lastmile_qr_scan"}, "lon": -77.024819, "type": "electric_scooter", "fusion_lat": 0.0, "lat": 38.89742433333333, "name": "cb1fbb9d4a8185c6bfea0d646c140de5", "fusion_lon": 0.0, "bike_id": "cb1fbb9d4a8185c6bfea0d646c140de5", "is_disabled": 0, "is_reserved": 0}, {"rental_uris": {"ios": "https://dc.lft.to/lastmile_qr_scan", "android": "https://dc.lft.to/lastmile_qr_scan"}, "lon": -76.9472015, "type": "electric_scooter", "fusion_lat": 0.0, "lat": 38.8967675, "name": "03e8ab172aa0e5ee2871dbba409c75de", "fusion_lon": 0.0, "bike_id": "03e8ab172aa0e5ee2871dbba409c75de", "is_disabled": 0, "is_reserved": 0}, {"rental_uris": {"ios": "https://dc.lft.to/lastmile_qr_scan", "android": "https://dc.lft.to/lastmile_qr_scan"}, "lon": -77.04000383333333, "type": "electric_scooter", "fusion_lat": 0.0, "lat": 38.907283, "name": "471635aa7f0ddf9992033a20d1774724", "fusion_lon": 0.0, "bike_id": "471635aa7f0ddf9992033a20d1774724", "is_disabled": 0, "is_reserved": 0}, {"rental_uris": {"ios": "https://dc.lft.to/lastmile_qr_scan", "android": "https://dc.lft.to/lastmile_qr_scan"}, "lon": -77.03347833333333, "type": "electric_scooter", "fusion_lat": 0.0, "lat": 38.901375, "name": "1269d45f18740c81e43dd076541c0884", "fusion_lon": 0.0, "bike_id": "1269d45f18740c81e43dd076541c0884", "is_disabled": 0, "is_reserved": 0}, {"rental_uris": {"ios": "https://dc.lft.to/lastmile_qr_scan", "android": "https://dc.lft.to/lastmile_qr_scan"}, "lon": -77.01704766666667, "type": "electric_scooter", "fusion_lat": 0.0, "lat": 38.90522816666667, "name": "14046bb1ff29ce769332f91dd163119c", "fusion_lon": 0.0, "bike_id": "14046bb1ff29ce769332f91dd163119c", "is_disabled": 0, "is_reserved": 0}, {"rental_uris": {"ios": "https://dc.lft.to/lastmile_qr_scan", "android": "https://dc.lft.to/lastmile_qr_scan"}, "lon": -76.98849966666667, "type": "electric_scooter", "fusion_lat": 0.0, "lat": 38.903433, "name": "463c9992c23906296eae198cd013e678", "fusion_lon": 0.0, "bike_id": "463c9992c23906296eae198cd013e678", "is_disabled": 0, "is_reserved": 0}, {"rental_uris": {"ios": "https://dc.lft.to/lastmile_qr_scan", "android": "https://dc.lft.to/lastmile_qr_scan"}, "lon": -77.07615466666667, "type": "electric_scooter", "fusion_lat": 0.0, "lat": 38.91254166666667, "name": "bb3928c797e3d3c21603e3a8a0c94fac", "fusion_lon": 0.0, "bike_id": "bb3928c797e3d3c21603e3a8a0c94fac", "is_disabled": 0, "is_reserved": 0}, {"rental_uris": {"ios": "https://dc.lft.to/lastmile_qr_scan", "android": "https://dc.lft.to/lastmile_qr_scan"}, "lon": -77.01178133333333, "type": "electric_scooter", "fusion_lat": 0.0, "lat": 38.906482, "name": "7339d45709f0f8a88501285cc895b16f", "fusion_lon": 0.0, "bike_id": "7339d45709f0f8a88501285cc895b16f", "is_disabled": 0, "is_reserved": 0}, {"rental_uris": {"ios": "https://dc.lft.to/lastmile_qr_scan", "android": "https://dc.lft.to/lastmile_qr_scan"}, "lon": -77.0317035, "type": "electric_scooter", "fusion_lat": 0.0, "lat": 38.91416433333333, "name": "80ae963c753eda241ff9f23fd1570d35", "fusion_lon": 0.0, "bike_id": "80ae963c753eda241ff9f23fd1570d35", "is_disabled": 0, "is_reserved": 0}, {"rental_uris": {"ios": "https://dc.lft.to/lastmile_qr_scan", "android": "https://dc.lft.to/lastmile_qr_scan"}, "lon": -76.948804, "type": "electric_scooter", "fusion_lat": 0.0, "lat": 38.895003, "name": "0452d712d0e68ed62696a8b3ad808bc2", "fusion_lon": 0.0, "bike_id": "0452d712d0e68ed62696a8b3ad808bc2", "is_disabled": 0, "is_reserved": 0}, {"rental_uris": {"ios": "https://dc.lft.to/lastmile_qr_scan", "android": "https://dc.lft.to/lastmile_qr_scan"}, "lon": -77.02615983333334, "type": "electric_scooter", "fusion_lat": 0.0, "lat": 38.8857005, "name": "d690ee2ccae2b161208badda9dd53b74", "fusion_lon": 0.0, "bike_id": "d690ee2ccae2b161208badda9dd53b74", "is_disabled": 0, "is_reserved": 0}, {"rental_uris": {"ios": "https://dc.lft.to/lastmile_qr_scan", "android": "https://dc.lft.to/lastmile_qr_scan"}, "lon": -77.00935166666666, "type": "electric_scooter", "fusion_lat": 0.0, "lat": 38.876280333333334, "name": "b259002574d604ee30dae64da74c911e", "fusion_lon": 0.0, "bike_id": "b259002574d604ee30dae64da74c911e", "is_disabled": 0, "is_reserved": 0}, {"rental_uris": {"ios": "https://dc.lft.to/lastmile_qr_scan", "android": "https://dc.lft.to/lastmile_qr_scan"}, "lon": -76.9759585, "type": "electric_scooter", "fusion_lat": 0.0, "lat": 38.903288833333335, "name": "590aea77f699ed7aa04488a902d0e8e4", "fusion_lon": 0.0, "bike_id": "590aea77f699ed7aa04488a902d0e8e4", "is_disabled": 0, "is_reserved": 0}, {"rental_uris": {"ios": "https://dc.lft.to/lastmile_qr_scan", "android": "https://dc.lft.to/lastmile_qr_scan"}, "lon": -76.94622633333333, "type": "electric_bike", "fusion_lat": 0.0, "lat": 38.83234233333334, "name": "081f12a456edf5cc326038e9c97ff88e", "fusion_lon": 0.0, "bike_id": "081f12a456edf5cc326038e9c97ff88e", "is_disabled": 0, "is_reserved": 0}, {"rental_uris": {"ios": "https://dc.lft.to/lastmile_qr_scan", "android": "https://dc.lft.to/lastmile_qr_scan"}, "lon": -77.041513, "type": "electric_scooter", "fusion_lat": 0.0, "lat": 38.91705183333333, "name": "f1fbb13242424390aee2160b415236b1", "fusion_lon": 0.0, "bike_id": "f1fbb13242424390aee2160b415236b1", "is_disabled": 0, "is_reserved": 0}, {"rental_uris": {"ios": "https://dc.lft.to/lastmile_qr_scan", "android": "https://dc.lft.to/lastmile_qr_scan"}, "lon": -77.02394566666666, "type": "electric_scooter", "fusion_lat": 0.0, "lat": 38.91588266666667, "name": "d59aa9c59ee430d0f4704eeae4123059", "fusion_lon": 0.0, "bike_id": "d59aa9c59ee430d0f4704eeae4123059", "is_disabled": 0, "is_reserved": 0}, {"rental_uris": {"ios": "https://dc.lft.to/lastmile_qr_scan", "android": "https://dc.lft.to/lastmile_qr_scan"}, "lon": -77.000557, "type": "electric_scooter", "fusion_lat": 0.0, "lat": 38.90870066666667, "name": "a502c7a580cf8f07163134cdf18507a4", "fusion_lon": 0.0, "bike_id": "a502c7a580cf8f07163134cdf18507a4", "is_disabled": 0, "is_reserved": 0}, {"rental_uris": {"ios": "https://dc.lft.to/lastmile_qr_scan", "android": "https://dc.lft.to/lastmile_qr_scan"}, "lon": -77.025929, "type": "electric_scooter", "fusion_lat": 0.0, "lat": 38.883622, "name": "ca90f9024cbb700aca9abecb5d4b041a", "fusion_lon": 0.0, "bike_id": "ca90f9024cbb700aca9abecb5d4b041a", "is_disabled": 0, "is_reserved": 0}, {"rental_uris": {"ios": "https://dc.lft.to/lastmile_qr_scan", "android": "https://dc.lft.to/lastmile_qr_scan"}, "lon": -77.04371066666667, "type": "electric_scooter", "fusion_lat": 0.0, "lat": 38.933355166666665, "name": "282aaf4771e11d26906d34caa9581ca0", "fusion_lon": 0.0, "bike_id": "282aaf4771e11d26906d34caa9581ca0", "is_disabled": 0, "is_reserved": 0}, {"rental_uris": {"ios": "https://dc.lft.to/lastmile_qr_scan", "android": "https://dc.lft.to/lastmile_qr_scan"}, "lon": -77.040296, "type": "electric_scooter", "fusion_lat": 0.0, "lat": 38.90378966666667, "name": "d755c36c1a3c8b8c4b6b92a46bc5d778", "fusion_lon": 0.0, "bike_id": "d755c36c1a3c8b8c4b6b92a46bc5d778", "is_disabled": 0, "is_reserved": 0}, {"rental_uris": {"ios": "https://dc.lft.to/lastmile_qr_scan", "android": "https://dc.lft.to/lastmile_qr_scan"}, "lon": -77.01792466666667, "type": "electric_scooter", "fusion_lat": 0.0, "lat": 38.8923855, "name": "274da8a37ca4113c658521efab3d68da", "fusion_lon": 0.0, "bike_id": "274da8a37ca4113c658521efab3d68da", "is_disabled": 0, "is_reserved": 0}, {"rental_uris": {"ios": "https://dc.lft.to/lastmile_qr_scan", "android": "https://dc.lft.to/lastmile_qr_scan"}, "lon": -77.0027015, "type": "electric_scooter", "fusion_lat": 0.0, "lat": 38.911868, "name": "5d7c8a471694a354f37a683d41695fa7", "fusion_lon": 0.0, "bike_id": "5d7c8a471694a354f37a683d41695fa7", "is_disabled": 0, "is_reserved": 0}, {"rental_uris": {"ios": "https://dc.lft.to/lastmile_qr_scan", "android": "https://dc.lft.to/lastmile_qr_scan"},