{"data": {"bikes": [{"lat": 38.85423733333333, "fusion_lat": 0.0, "type": "electric_bike", "bike_id": "96a2dcb4d167367ce125a20ea0082ab0", "is_reserved": 0, "rental_uris": {"ios": "https://dc.lft.to/lastmile_qr_scan", "android": "https://dc.lft.to/lastmile_qr_scan"}, "is_disabled": 0, "lon": -77.120826, "name": "96a2dcb4d167367ce125a20ea0082ab0", "fusion_lon": 0.0}, {"lat": 38.9015405, "fusion_lat": 0.0, "type": "electric_scooter", "bike_id": "31992a3d4ee802a29b7ced9320c40ca7", "is_reserved": 0, "rental_uris": {"ios": "https://dc.lft.to/lastmile_qr_scan", "android": "https://dc.lft.to/lastmile_qr_scan"}, "is_disabled": 0, "lon": -76.92138366666667, "name": "31992a3d4ee802a29b7ced9320c40ca7", "fusion_lon": 0.0}, {"lat": 38.90338716666667, "fusion_lat": 0.0, "type": "electric_scooter", "bike_id": "ec078e598465478675af96e5cb8388c8", "is_reserved": 0, "rental_uris": {"ios": "https://dc.lft.to/lastmile_qr_scan", "android": "https://dc.lft.to/lastmile_qr_scan"}, "is_disabled": 0, "lon": -76.9758255, "name": "ec078e598465478675af96e5cb8388c8", "fusion_lon": 0.0}, {"lat": 38.86243983333333, "fusion_lat": 0.0, "type": "electric_scooter", "bike_id": "520f80c4592d762259e47e52861eed4c", "is_reserved": 0, "rental_uris": {"ios": "https://dc.lft.to/lastmile_qr_scan", "android": "https://dc.lft.to/lastmile_qr_scan"}, "is_disabled": 0, "lon": -76.99493816666667, "name": "520f80c4592d762259e47e52861eed4c", "fusion_lon": 0.0}, {"lat": 38.915674333333335, "fusion_lat": 0.0, "type": "electric_scooter", "bike_id": "bdd7046269e3ce2347ca5a15a5f4e4ef", "is_reserved": 0, "rental_uris": {"ios": "https://dc.lft.to/lastmile_qr_scan", "android": "https://dc.lft.to/lastmile_qr_scan"}, "is_disabled": 0, "lon": -77.0229045, "name": "bdd7046269e3ce2347ca5a15a5f4e4ef", "fusion_lon": 0.0}, {"lat": 38.92328666666667, "fusion_lat": 0.0, "type": "electric_scooter", "bike_id": "2971a8da063ee311b24037c28ce75840", "is_reserved": 0, "rental_uris": {"ios": "https://dc.lft.to/lastmile_qr_scan", "android": "https://dc.lft.to/lastmile_qr_scan"}, "is_disabled": 0, "lon": -77.0233735, "name": "2971a8da063ee311b24037c28ce75840", "fusion_lon": 0.0}, {"lat": 38.93538783333333, "fusion_lat": 0.0, "type": "electric_scooter", "bike_id": "55a1bf1c1d84e2f8bcacfb06e68e4024", "is_reserved": 0, "rental_uris": {"ios": "https://dc.lft.to/lastmile_qr_scan", "android": "https://dc.lft.to/lastmile_qr_scan"}, "is_disabled": 0, "lon": -77.02347233333333, "name": "55a1bf1c1d84e2f8bcacfb06e68e4024", "fusion_lon": 0.0}, {"lat": 38.91967566666667, "fusion_lat": 0.0, "type": "electric_scooter", "bike_id": "57324302f484d481cfa8f5ac5a1ade9e", "is_reserved": 0, "rental_uris": {"ios": "https://dc.lft.to/lastmile_qr_scan", "android": "https://dc.lft.to/lastmile_qr_scan"}, "is_disabled": 0, "lon": -77.04162566666666, "name": "57324302f484d481cfa8f5ac5a1ade9e", "fusion_lon": 0.0}, {"lat": 38.899661, "fusion_lat": 0.0, "type": "electric_scooter", "bike_id": "ed537c1592eca173e0c0465decdf1223", "is_reserved": 0, "rental_uris": {"ios": "https://dc.lft.to/lastmile_qr_scan", "android": "https://dc.lft.to/lastmile_qr_scan"}, "is_disabled": 0, "lon": -77.04662, "name": "ed537c1592eca173e0c0465decdf1223", "fusion_lon": 0.0}, {"lat": 38.89219383333333, "fusion_lat": 0.0, "type": "electric_scooter", "bike_id": "686a4aa37f396d786f62ee0dd3938d65", "is_reserved": 0, "rental_uris": {"ios": "https://dc.lft.to/lastmile_qr_scan", "android": "https://dc.lft.to/lastmile_qr_scan"}, "is_disabled": 0, "lon": -77.02418366666667, "name": "686a4aa37f396d786f62ee0dd3938d65", "fusion_lon": 0.0}, {"lat": 38.882269, "fusion_lat": 0.0, "type": "electric_scooter", "bike_id": "4ee4775429c6c189caad3ca43f49e5db", "is_reserved": 0, "rental_uris": {"ios": "https://dc.lft.to/lastmile_qr_scan", "android": "https://dc.lft.to/lastmile_qr_scan"}, "is_disabled": 0, "lon": -77.02953483333333, "name": "4ee4775429c6c189caad3ca43f49e5db", "fusion_lon": 0.0}, {"lat": 38.8995595, "fusion_lat": 0.0, "type": "electric_scooter", "bike_id": "bc6229d25d3818bd10b72614c474e72a", "is_reserved": 0, "rental_uris": {"ios": "https://dc.lft.to/lastmile_qr_scan", "android": "https://dc.lft.to/lastmile_qr_scan"}, "is_disabled": 0, "lon": -77.00684383333333, "name": "bc6229d25d3818bd10b72614c474e72a", "fusion_lon": 0.0}, {"lat": 38.878036333333334, "fusion_lat": 0.0, "type": "electric_scooter", "bike_id": "6ec605528b88613713d88c31e7d027c4", "is_reserved": 0, "rental_uris": {"ios": "https://dc.lft.to/lastmile_qr_scan", "android": "https://dc.lft.to/lastmile_qr_scan"}, "is_disabled": 0, "lon": -76.930881, "name": "6ec605528b88613713d88c31e7d027c4", "fusion_lon": 0.0}, {"lat": 38.892199, "fusion_lat": 0.0, "type": "electric_scooter", "bike_id": "ac619c3b8d27c301767b22c024fbcfce", "is_reserved": 0, "rental_uris": {"ios": "https://dc.lft.to/lastmile_qr_scan", "android": "https://dc.lft.to/lastmile_qr_scan"}, "is_disabled": 0, "lon": -77.04260333333333, "name": "ac619c3b8d27c301767b22c024fbcfce", "fusion_lon": 0.0}, {"lat": 38.92593433333333, "fusion_lat": 0.0, "type": "electric_scooter", "bike_id": "f521a68a2da4583d26d233bb7a3e3b1e", "is_reserved": 0, "rental_uris": {"ios": "https://dc.lft.to/lastmile_qr_scan", "android": "https://dc.lft.to/lastmile_qr_scan"}, "is_disabled": 0, "lon": -77.0441655, "name": "f521a68a2da4583d26d233bb7a3e3b1e", "fusion_lon": 0.0}, {"lat": 38.92128666666667, "fusion_lat": 0.0, "type": "electric_scooter", "bike_id": "58640ab1c2fc74ddc0252bcbdbfb5a68", "is_reserved": 0, "rental_uris": {"ios": "https://dc.lft.to/lastmile_qr_scan", "android": "https://dc.lft.to/lastmile_qr_scan"}, "is_disabled": 0, "lon": -76.99251133333334, "name": "58640ab1c2fc74ddc0252bcbdbfb5a68", "fusion_lon": 0.0}, {"lat": 38.944425333333335, "fusion_lat": 0.0, "type": "electric_scooter", "bike_id": "4639d37c90310b2e3805eb476961d033", "is_reserved": 0, "rental_uris": {"ios": "https://dc.lft.to/lastmile_qr_scan", "android": "https://dc.lft.to/lastmile_qr_scan"}, "is_disabled": 0, "lon": -77.0635365, "name": "4639d37c90310b2e3805eb476961d033", "fusion_lon": 0.0}, {"lat": 38.91205883333333, "fusion_lat": 0.0, "type": "electric_scooter", "bike_id": "e7563868ae0852e1156530a681223a3b", "is_reserved": 0, "rental_uris": {"ios": "https://dc.lft.to/lastmile_qr_scan", "android": "https://dc.lft.to/lastmile_qr_scan"}, "is_disabled": 0, "lon": -77.04523433333334, "name": "e7563868ae0852e1156530a681223a3b", "fusion_lon": 0.0}, {"lat": 38.91789033333333, "fusion_lat": 0.0, "type": "electric_scooter", "bike_id": "7cfa00bdd6e666d2e2229183141b4258", "is_reserved": 0, "rental_uris": {"ios": "https://dc.lft.to/lastmile_qr_scan", "android": "https://dc.lft.to/lastmile_qr_scan"}, "is_disabled": 0, "lon": -77.0421935, "name": "7cfa00bdd6e666d2e2229183141b4258", "fusion_lon": 0.0}, {"lat": 38.918128333333335, "fusion_lat": 0.0, "type": "electric_scooter", "bike_id": "71382b5b67861b9f99a41e369987dcad", "is_reserved": 0, "rental_uris": {"ios": "https://dc.lft.to/lastmile_qr_scan", "android": "https://dc.lft.to/lastmile_qr_scan"}, "is_disabled": 0, "lon": -77.028207, "name": "71382b5b67861b9f99a41e369987dcad", "fusion_lon": 0.0}, {"lat": 38.91792816666667, "fusion_lat": 0.0, "type": "electric_scooter", "bike_id": "0079ac5152a85cdea8cb6a4a0fff4625", "is_reserved": 0, "rental_uris": {"ios": "https://dc.lft.to/lastmile_qr_scan", "android": "https://dc.lft.to/lastmile_qr_scan"}, "is_disabled": 0, "lon": -77.04188166666667, "name": "0079ac5152a85cdea8cb6a4a0fff4625", "fusion_lon": 0.0}, {"lat": 38.91938666666667, "fusion_lat": 0.0, "type": "electric_scooter", "bike_id": "c2b6ff60068dd6068470f07460f2ec37", "is_reserved": 0, "rental_uris": {"ios": "https://dc.lft.to/lastmile_qr_scan", "android": "https://dc.lft.to/lastmile_qr_scan"}, "is_disabled": 0, "lon": -77.0456235, "name": "c2b6ff60068dd6068470f07460f2ec37", "fusion_lon": 0.0}, {"lat": 38.903255333333334, "fusion_lat": 0.0, "type": "electric_scooter", "bike_id": "1b0d649343c12359df0e37b8be57cf5d", "is_reserved": 0, "rental_uris": {"ios": "https://dc.lft.to/lastmile_qr_scan", "android": "https://dc.lft.to/lastmile_qr_scan"}, "is_disabled": 0, "lon": -77.0213635, "name": "1b0d649343c12359df0e37b8be57cf5d", "fusion_lon": 0.0}, {"lat": 38.90371783333333, "fusion_lat": 0.0, "type": "electric_scooter", "bike_id": "6f05bbaeff6db21b5c62413e8c1713e0", "is_reserved": 0, "rental_uris": {"ios": "https://dc.lft.to/lastmile_qr_scan", "android": "https://dc.lft.to/lastmile_qr_scan"}, "is_disabled": 0, "lon": -77.0291665, "name": "6f05bbaeff6db21b5c62413e8c1713e0", "fusion_lon": 0.0}, {"lat": 38.91666716666667, "fusion_lat": 0.0, "type": "electric_scooter", "bike_id": "15a040d006725c90e5b263bffdbf227a", "is_reserved": 0, "rental_uris": {"ios": "https://dc.lft.to/lastmile_qr_scan", "android": "https://dc.lft.to/lastmile_qr_scan"}, "is_disabled": 0, "lon": -77.04386, "name": "15a040d006725c90e5b263bffdbf227a", "fusion_lon": 0.0}, {"lat": 38.92502266666666, "fusion_lat": 0.0, "type": "electric_scooter", "bike_id": "6a28d93484162139dcef2a01f420d019", "is_reserved": 0, "rental_uris": {"ios": "https://dc.lft.to/lastmile_qr_scan", "android": "https://dc.lft.to/lastmile_qr_scan"}, "is_disabled": 0, "lon": -77.0227365, "name": "6a28d93484162139dcef2a01f420d019", "fusion_lon": 0.0}, {"lat": 38.920947166666664, "fusion_lat": 0.0, "type": "electric_scooter", "bike_id": "160c6ef50076bebb4ba45896ab1eff13", "is_reserved": 0, "rental_uris": {"ios": "https://dc.lft.to/lastmile_qr_scan", "android": "https://dc.lft.to/lastmile_qr_scan"}, "is_disabled": 0, "lon": -77.022247, "name": "160c6ef50076bebb4ba45896ab1eff13", "fusion_lon": 0.0}, {"lat": 38.9191935, "fusion_lat": 0.0, "type": "electric_scooter", "bike_id": "42d6edd8e791c23ead090a105c604c75", "is_reserved": 0, "rental_uris": {"ios": "https://dc.lft.to/lastmile_qr_scan", "android": "https://dc.lft.to/lastmile_qr_scan"}, "is_disabled": 0, "lon": -77.03191766666667, "name": "42d6edd8e791c23ead090a105c604c75", "fusion_lon": 0.0}, {"lat": 38.920354833333334, "fusion_lat": 0.0, "type": "electric_scooter", "bike_id": "752ed24a35f69b48ff08529c029247d2", "is_reserved": 0, "rental_uris": {"ios": "https://dc.lft.to/lastmile_qr_scan", "android": "https://dc.lft.to/lastmile_qr_scan"}, "is_disabled": 0, "lon": -77.02590533333333, "name": "752ed24a35f69b48ff08529c029247d2", "fusion_lon": 0.0}, {"lat": 38.90975183333333, "fusion_lat": 0.0, "type": "electric_scooter", "bike_id": "0fc9a2d46053e8c3807a0b663675e6e2", "is_reserved": 0, "rental_uris": {"ios": "https://dc.lft.to/lastmile_qr_scan", "android": "https://dc.lft.to/lastmile_qr_scan"}, "is_disabled": 0, "lon": -77.033996, "name": "0fc9a2d46053e8c3807a0b663675e6e2", "fusion_lon": 0.0}, {"lat": 38.934719, "fusion_lat": 0.0, "type": "electric_scooter", "bike_id": "187b7c279872c817bfb3aea1b1ab41b2", "is_reserved": 0, "rental_uris": {"ios": "https://dc.lft.to/lastmile_qr_scan", "android": "https://dc.lft.to/lastmile_qr_scan"}, "is_disabled": 0, "lon": -77.0727075, "name": "187b7c279872c817bfb3aea1b1ab41b2", "fusion_lon": 0.0}, {"lat": 38.90019216666666, "fusion_lat": 0.0, "type": "electric_scooter", "bike_id": "43d1651df793558e998891ea318717ea", "is_reserved": 0, "rental_uris": {"ios": "https://dc.lft.to/lastmile_qr_scan", "android": "https://dc.lft.to/lastmile_qr_scan"}, "is_disabled": 0, "lon": -77.04304666666667, "name": "43d1651df793558e998891ea318717ea", "fusion_lon": 0.0}, {"lat": 38.87472783333333, "fusion_lat": 0.0, "type": "electric_scooter", "bike_id": "bb11cf9669d4e64ffde3afd97ef9ecec", "is_reserved": 0, "rental_uris": {"ios": "https://dc.lft.to/lastmile_qr_scan", "android": "https://dc.lft.to/lastmile_qr_scan"}, "is_disabled": 0, "lon": -77.009441, "name": "bb11cf9669d4e64ffde3afd97ef9ecec", "fusion_lon": 0.0}, {"lat": 38.85528433333333, "fusion_lat": 0.0, "type": "electric_bike", "bike_id": "adcd2df12338b8347cca5c613cbb0e60", "is_reserved": 0, "rental_uris": {"ios": "https://dc.lft.to/lastmile_qr_scan", "android": "https://dc.lft.to/lastmile_qr_scan"}, "is_disabled": 0, "lon": -76.9846435, "name": "adcd2df12338b8347cca5c613cbb0e60", "fusion_lon": 0.0}, {"lat": 38.900206, "fusion_lat": 0.0, "type": "electric_scooter", "bike_id": "51337ff178966af1ec961de1887ef67a", "is_reserved": 0, "rental_uris": {"ios": "https://dc.lft.to/lastmile_qr_scan", "android": "https://dc.lft.to/lastmile_qr_scan"}, "is_disabled": 0, "lon": -77.01041033333334, "name": "51337ff178966af1ec961de1887ef67a", "fusion_lon": 0.0}, {"lat": 38.84315216666667, "fusion_lat": 0.0, "type": "electric_scooter", "bike_id": "f8f2a13e09dca9b1c786d5bdc326148b", "is_reserved": 0, "rental_uris": {"ios": "https://dc.lft.to/lastmile_qr_scan", "android": "https://dc.lft.to/lastmile_qr_scan"}, "is_disabled": 0, "lon": -76.9992905, "name": "f8f2a13e09dca9b1c786d5bdc326148b", "fusion_lon": 0.0}, {"lat": 38.883118833333334, "fusion_lat": 0.0, "type": "electric_scooter", "bike_id": "5abb0b1fadfaa5476be98c31d927503c", "is_reserved": 0, "rental_uris": {"ios": "https://dc.lft.to/lastmile_qr_scan", "android": "https://dc.lft.to/lastmile_qr_scan"}, "is_disabled": 0, "lon": -77.000477, "name": "5abb0b1fadfaa5476be98c31d927503c", "fusion_lon": 0.0}, {"lat": 38.9050015, "fusion_lat": 0.0, "type": "electric_scooter", "bike_id": "9c9b863806272d9fbc4b0b524940e7d5", "is_reserved": 0, "rental_uris": {"ios": "https://dc.lft.to/lastmile_qr_scan", "android": "https://dc.lft.to/lastmile_qr_scan"}, "is_disabled": 0, "lon": -77.06015116666667, "name": "9c9b863806272d9fbc4b0b524940e7d5", "fusion_lon": 0.0}, {"lat": 38.89321833333333, "fusion_lat": 0.0, "type": "electric_scooter", "bike_id": "8953deafa84b03def1091373e09601e0", "is_reserved": 0, "rental_uris": {"ios": "https://dc.lft.to/lastmile_qr_scan", "android": "https://dc.lft.to/lastmile_qr_scan"}, "is_disabled": 0, "lon": -77.0123365, "name": "8953deafa84b03def1091373e09601e0", "fusion_lon": 0.0}, {"lat": 38.9156225, "fusion_lat": 0.0, "type": "electric_scooter", "bike_id": "7b36583fafe71f6017da7bf19c686966", "is_reserved": 0, "rental_uris": {"ios": "https://dc.lft.to/lastmile_qr_scan", "android": "https://dc.lft.to/lastmile_qr_scan"}, "is_disabled": 0, "lon": -77.031694, "name": "7b36583fafe71f6017da7bf19c686966", "fusion_lon": 0.0}, {"lat": 38.8782025, "fusion_lat": 0.0, "type": "electric_scooter", "bike_id": "21efdaca0591d16451476d158fb3273c", "is_reserved": 0, "rental_uris": {"ios": "https://dc.lft.to/lastmile_qr_scan", "android": "https://dc.lft.to/lastmile_qr_scan"}, "is_disabled": 0, "lon": -76.93097566666667, "name": "21efdaca0591d16451476d158fb3273c", "fusion_lon": 0.0}, {"lat": 38.8729805, "fusion_lat": 0.0, "type": "electric_bike", "bike_id": "d1bb718c25a6c79876645bf2134eee08", "is_reserved": 0, "rental_uris": {"ios": "https://dc.lft.to/lastmile_qr_scan", "android": "https://dc.lft.to/lastmile_qr_scan"}, "is_disabled": 0, "lon": -76.969829, "name": "d1bb718c25a6c79876645bf2134eee08", "fusion_lon": 0.0}, {"lat": 38.911717833333334, "fusion_lat": 0.0, "type": "electric_scooter", "bike_id": "5f8b70918f421f0b2c2d4388920a132a", "is_reserved": 0, "rental_uris": {"ios": "https://dc.lft.to/lastmile_qr_scan", "android": "https://dc.lft.to/lastmile_qr_scan"}, "is_disabled": 0, "lon": -77.00209066666666, "name": "5f8b70918f421f0b2c2d4388920a132a", "fusion_lon": 0.0}, {"lat": 38.904119666666666, "fusion_lat": 0.0, "type": "electric_scooter", "bike_id": "af99c20a5e4aa887af4a06069d5429c8", "is_reserved": 0, "rental_uris": {"ios": "https://dc.lft.to/lastmile_qr_scan", "android": "https://dc.lft.to/lastmile_qr_scan"}, "is_disabled": 0, "lon": -76.97330666666667, "name": "af99c20a5e4aa887af4a06069d5429c8", "fusion_lon": 0.0}, {"lat": 38.94988683333333, "fusion_lat": 0.0, "type": "electric_scooter", "bike_id": "4c2e0dd4ba8aa4bc5c2848b27cf6a6d1", "is_reserved": 0, "rental_uris": {"ios": "https://dc.lft.to/lastmile_qr_scan", "android": "https://dc.lft.to/lastmile_qr_scan"}, "is_disabled": 0, "lon": -77.0270965, "name": "4c2e0dd4ba8aa4bc5c2848b27cf6a6d1", "fusion_lon": 0.0}, {"lat": 38.88182333333334, "fusion_lat": 0.0, "type": "electric_scooter", "bike_id": "be04b2be72b6cd47d1ef293b636fe356", "is_reserved": 0, "rental_uris": {"ios": "https://dc.lft.to/lastmile_qr_scan", "android": "https://dc.lft.to/lastmile_qr_scan"}, "is_disabled": 0, "lon": -77.03576916666667, "name": "be04b2be72b6cd47d1ef293b636fe356", "fusion_lon": 0.0}, {"lat": 38.9151105, "fusion_lat": 0.0, "type": "electric_scooter", "bike_id": "46fa3b2981c2b2b0a601a083fccfbb4f", "is_reserved": 0, "rental_uris": {"ios": "https://dc.lft.to/lastmile_qr_scan", "android": "https://dc.lft.to/lastmile_qr_scan"}, "is_disabled": 0, "lon": -77.01213416666667, "name": "46fa3b2981c2b2b0a601a083fccfbb4f", "fusion_lon": 0.0}, {"lat": 38.905681, "fusion_lat": 0.0, "type": "electric_scooter", "bike_id": "643577acf5044477e5ec2e1a229b4bcb", "is_reserved": 0, "rental_uris": {"ios": "https://dc.lft.to/lastmile_qr_scan", "android": "https://dc.lft.to/lastmile_qr_scan"}, "is_disabled": 0, "lon": -77.05131366666667, "name": "643577acf5044477e5ec2e1a229b4bcb", "fusion_lon": 0.0}, {"lat": 38.908545, "fusion_lat": 0.0, "type": "electric_scooter", "bike_id": "26b60d4b1d4f61a68f0d75b4c6273921", "is_reserved": 0, "rental_uris": {"ios": "https://dc.lft.to/lastmile_qr_scan", "android": "https://dc.lft.to/lastmile_qr_scan"}, "is_disabled": 0, "lon": -77.0755565, "name": "26b60d4b1d4f61a68f0d75b4c6273921", "fusion_lon": 0.0}, {"lat": 38.921439666666664, "fusion_lat": 0.0, "type": "electric_scooter", "bike_id": "650e18e82615d3aac8a80d4de4549500", "is_reserved": 0, "rental_uris": {"ios": "https://dc.lft.to/lastmile_qr_scan", "android": "https://dc.lft.to/lastmile_qr_scan"}, "is_disabled": 0, "lon": -77.01831733333333, "name": "650e18e82615d3aac8a80d4de4549500", "fusion_lon": 0.0}, {"lat": 38.90019816666667, "fusion_lat": 0.0, "type": "electric_scooter", "bike_id": "665bcbd5291044a51833a8d6ee492198", "is_reserved": 0, "rental_uris": {"ios": "https://dc.lft.to/lastmile_qr_scan", "android": "https://dc.lft.to/lastmile_qr_scan"}, "is_disabled": 0, "lon": -76.99869083333333, "name": "665bcbd5291044a51833a8d6ee492198", "fusion_lon": 0.0}, {"lat": 38.85942983333333, "fusion_lat": 0.0, "type": "electric_scooter", "bike_id": "b620ffec5adec50a7a72e4c085458a27", "is_reserved": 0, "rental_uris": {"ios": "https://dc.lft.to/lastmile_qr_scan", "android": "https://dc.lft.to/lastmile_qr_scan"}, "is_disabled": 0, "lon": -76.98976483333334, "name": "b620ffec5adec50a7a72e4c085458a27", "fusion_lon": 0.0}, {"lat": 38.92048316666666, "fusion_lat": 0.0, "type": "electric_scooter", "bike_id": "5773608a79e33f9beae1d13f57fdd1b7", "is_reserved": 0, "rental_uris": {"ios": "https://dc.lft.to/lastmile_qr_scan", "android": "https://dc.lft.to/lastmile_qr_scan"}, "is_disabled": 0, "lon": -76.98941266666667, "name": "5773608a79e33f9beae1d13f57fdd1b7", "fusion_lon": 0.0}, {"lat": 38.907696666666666, "fusion_lat": 0.0, "type": "electric_scooter", "bike_id": "482429f084586a61da04561aceac3ceb", "is_reserved": 0, "rental_uris": {"ios": "https://dc.lft.to/lastmile_qr_scan", "android": "https://dc.lft.to/lastmile_qr_scan"}, "is_disabled": 0, "lon": -77.01224333333333, "name": "482429f084586a61da04561aceac3ceb", "fusion_lon": 0.0}, {"lat": 38.903839, "fusion_lat": 0.0, "type": "electric_scooter", "bike_id": "a564a2e80fed23fc351626e6ccbcc2aa", "is_reserved": 0, "rental_uris": {"ios": "https://dc.lft.to/lastmile_qr_scan", "android": "https://dc.lft.to/lastmile_qr_scan"}, "is_disabled": 0, "lon": -77.04279666666666, "name": "a564a2e80fed23fc351626e6ccbcc2aa", "fusion_lon": 0.0}, {"lat": 38.8987625, "fusion_lat": 0.0, "type": "electric_scooter", "bike_id": "3078c68ac680b092579930794b40ae87", "is_reserved": 0, "rental_uris": {"ios": "https://dc.lft.to/lastmile_qr_scan", "android": "https://dc.lft.to/lastmile_qr_scan"}, "is_disabled": 0, "lon": -77.03946766666667, "name": "3078c68ac680b092579930794b40ae87", "fusion_lon": 0.0}, {"lat": 38.89761266666667, "fusion_lat": 0.0, "type": "electric_scooter", "bike_id": "e3573489d9738b323ebd19cee03fca16", "is_reserved": 0, "rental_uris": {"ios": "https://dc.lft.to/lastmile_qr_scan", "android": "https://dc.lft.to/lastmile_qr_scan"}, "is_disabled": 0, "lon": -77.02997066666667, "name": "e3573489d9738b323ebd19cee03fca16", "fusion_lon": 0.0}, {"lat": 38.829469, "fusion_lat": 0.0, "type": "electric_bike", "bike_id": "becd86f6b6e47ac6a967337bc4474371", "is_reserved": 0, "rental_uris": {"ios": "https://dc.lft.to/lastmile_qr_scan", "android": "https://dc.lft.to/lastmile_qr_scan"}, "is_disabled": 0, "lon": -77.123606, "name": "becd86f6b6e47ac6a967337bc4474371", "fusion_lon": 0.0}, {"lat": 38.902017666666666, "fusion_lat": 0.0, "type": "electric_scooter", "bike_id": "fb0307130ad8ab1796755a689e90ded8", "is_reserved": 0, "rental_uris": {"ios": "https://dc.lft.to/lastmile_qr_scan", "android": "https://dc.lft.to/lastmile_qr_scan"}, "is_disabled": 0, "lon": -77.02325733333333, "name": "fb0307130ad8ab1796755a689e90ded8", "fusion_lon": 0.0}, {"lat": 38.921448833333336, "fusion_lat": 0.0, "type": "electric_scooter", "bike_id": "3474a0662ca417d532aad7a96fbdf7aa", "is_reserved": 0, "rental_uris": {"ios": "https://dc.lft.to/lastmile_qr_scan", "android": "https://dc.lft.to/lastmile_qr_scan"}, "is_disabled": 0, "lon": -77.043424, "name": "3474a0662ca417d532aad7a96fbdf7aa", "fusion_lon": 0.0}, {"lat": 38.89987416666666, "fusion_lat": 0.0, "type": "electric_scooter", "bike_id": "9d059e2034e9aef74cdfbb827ed57605", "is_reserved": 0, "rental_uris": {"ios": "https://dc.lft.to/lastmile_qr_scan", "android": "https://dc.lft.to/lastmile_qr_scan"}, "is_disabled": 0, "lon": -77.02256416666667, "name": "9d059e2034e9aef74cdfbb827ed57605", "fusion_lon": 0.0}, {"lat": 38.907204666666665, "fusion_lat": 0.0, "type": "electric_scooter", "bike_id": "9c7b0dcde1e2b8de165346635ad64685", "is_reserved": 0, "rental_uris": {"ios": "https://dc.lft.to/lastmile_qr_scan", "android": "https://dc.lft.to/lastmile_qr_scan"}, "is_disabled": 0, "lon": -76.98927283333333, "name": "9c7b0dcde1e2b8de165346635ad64685", "fusion_lon": 0.0}, {"lat": 38.921272, "fusion_lat": 0.0, "type": "electric_scooter", "bike_id": "77eee793afcb065a0f6562b912e67ade", "is_reserved": 0, "rental_uris": {"ios": "https://dc.lft.to/lastmile_qr_scan", "android": "https://dc.lft.to/lastmile_qr_scan"}, "is_disabled": 0, "lon": -77.044375, "name": "77eee793afcb065a0f6562b912e67ade", "fusion_lon": 0.0}, {"lat": 38.901188166666664, "fusion_lat": 0.0, "type": "electric_scooter", "bike_id": "956e16ceba2be7241fa4bd4ceb812dfb", "is_reserved": 0, "rental_uris": {"ios": "https://dc.lft.to/lastmile_qr_scan", "android": "https://dc.lft.to/lastmile_qr_scan"}, "is_disabled": 0, "lon": -77.024379, "name": "956e16ceba2be7241fa4bd4ceb812dfb", "fusion_lon": 0.0}, {"lat": 38.820432, "fusion_lat": 0.0, "type": "electric_bike", "bike_id": "17c91f7ef087d5d774d7325c61cb5f32", "is_reserved": 0, "rental_uris": {"ios": "https://dc.lft.to/lastmile_qr_scan", "android": "https://dc.lft.to/lastmile_qr_scan"}, "is_disabled": 0, "lon": -77.05312583333334, "name": "17c91f7ef087d5d774d7325c61cb5f32", "fusion_lon": 0.0}, {"lat": 38.8824, "fusion_lat": 0.0, "type": "electric_bike", "bike_id": "dda43d8e1a78d9bbe2c0f4016bcfaf80", "is_reserved": 0, "rental_uris": {"ios": "https://dc.lft.to/lastmile_qr_scan", "android": "https://dc.lft.to/lastmile_qr_scan"}, "is_disabled": 0, "lon": -76.96256116666666, "name": "dda43d8e1a78d9bbe2c0f4016bcfaf80", "fusion_lon": 0.0}, {"lat": 39.04311166666667, "fusion_lat": 0.0, "type": "electric_bike", "bike_id": "c05d91c8dd7adf15d0927f8644024ff2", "is_reserved": 0, "rental_uris": {"ios": "https://dc.lft.to/lastmile_qr_scan", "android": "https://dc.lft.to/lastmile_qr_scan"}, "is_disabled": 0, "lon": -77.05159966666666, "name": "c05d91c8dd7adf15d0927f8644024ff2", "fusion_lon": 0.0}, {"lat": 38.906367, "fusion_lat": 0.0, "type": "electric_scooter", "bike_id": "ebe05df234c6111dd524efaab7427564", "is_reserved": 0, "rental_uris": {"ios": "https://dc.lft.to/lastmile_qr_scan", "android": "https://dc.lft.to/lastmile_qr_scan"}, "is_disabled": 0, "lon": -77.0414305, "name": "ebe05df234c6111dd524efaab7427564", "fusion_lon": 0.0}, {"lat": 38.900027333333334, "fusion_lat": 0.0, "type": "electric_scooter", "bike_id": "d15f5ed9c1240b76f5079ad46e73cc02", "is_reserved": 0, "rental_uris": {"ios": "https://dc.lft.to/lastmile_qr_scan", "android": "https://dc.lft.to/lastmile_qr_scan"}, "is_disabled": 0, "lon": -76.9961315, "name": "d15f5ed9c1240b76f5079ad46e73cc02", "fusion_lon": 0.0}, {"lat": 38.914778, "fusion_lat": 0.0, "type": "electric_scooter", "bike_id": "f0334fdc8e0475b55621dac71dede5da", "is_reserved": 0, "rental_uris": {"ios": "https://dc.lft.to/lastmile_qr_scan", "android": "https://dc.lft.to/lastmile_qr_scan"}, "is_disabled": 0, "lon": -77.021916, "name": "f0334fdc8e0475b55621dac71dede5da", "fusion_lon": 0.0}, {"lat": 38.90670566666667, "fusion_lat": 0.0, "type": "electric_scooter", "bike_id": "22c68bbadd6338ceee016a2f570ad1e6", "is_reserved": 0, "rental_uris": {"ios": "https://dc.lft.to/lastmile_qr_scan", "android": "https://dc.lft.to/lastmile_qr_scan"}, "is_disabled": 0, "lon": -77.0712935, "name": "22c68bbadd6338ceee016a2f570ad1e6", "fusion_lon": 0.0}, {"lat": 38.8237995, "fusion_lat": 0.0, "type": "electric_bike", "bike_id": "8fa44c40390ba7eab7744f644238dd56", "is_reserved": 0, "rental_uris": {"ios": "https://dc.lft.to/lastmile_qr_scan", "android": "https://dc.lft.to/lastmile_qr_scan"}, "is_disabled": 0, "lon": -77.00226066666667, "name": "8fa44c40390ba7eab7744f644238dd56", "fusion_lon": 0.0}, {"lat": 38.89666583333333, "fusion_lat": 0.0, "type": "electric_scooter", "bike_id": "746ebd6cc2aa11275fb8f89c6564c99d", "is_reserved": 0, "rental_uris": {"ios": "https://dc.lft.to/lastmile_qr_scan", "android": "https://dc.lft.to/lastmile_qr_scan"}, "is_disabled": 0, "lon": -77.02378433333334, "name": "746ebd6cc2aa11275fb8f89c6564c99d", "fusion_lon": 0.0}, {"lat": 38.91545716666667, "fusion_lat": 0.0, "type": "electric_scooter", "bike_id": "7ef5c68d24bd5bf7a09110d9788502fd", "is_reserved": 0, "rental_uris": {"ios": "https://dc.lft.to/lastmile_qr_scan", "android": "https://dc.lft.to/lastmile_qr_scan"}, "is_disabled": 0, "lon": -76.97011866666666, "name": "7ef5c68d24bd5bf7a09110d9788502fd", "fusion_lon": 0.0}, {"lat": 38.9217695, "fusion_lat": 0.0, "type": "electric_scooter", "bike_id": "94c5c4c504972eb1c3441288db8e0116", "is_reserved": 0, "rental_uris": {"ios": "https://dc.lft.to/lastmile_qr_scan", "android": "https://dc.lft.to/lastmile_qr_scan"}, "is_disabled": 0, "lon": -77.04016016666667, "name": "94c5c4c504972eb1c3441288db8e0116", "fusion_lon": 0.0}, {"lat": 38.89358383333333, "fusion_lat": 0.0, "type": "electric_scooter", "bike_id": "e59dcfa0682033c4702b4563cbe5f9c0", "is_reserved": 0, "rental_uris": {"ios": "https://dc.lft.to/lastmile_qr_scan", "android": "https://dc.lft.to/lastmile_qr_scan"}, "is_disabled": 0, "lon": -76.94934383333333, "name": "e59dcfa0682033c4702b4563cbe5f9c0", "fusion_lon": 0.0}, {"lat": 38.90615283333333, "fusion_lat": 0.0, "type": "electric_scooter", "bike_id": "ecac76912ce28f00f2ae31650b2f7d5f", "is_reserved": 0, "rental_uris": {"ios": "https://dc.lft.to/lastmile_qr_scan", "android": "https://dc.lft.to/lastmile_qr_scan"}, "is_disabled": 0, "lon": -77.02799633333333, "name": "ecac76912ce28f00f2ae31650b2f7d5f", "fusion_lon": 0.0}, {"lat": 38.920532666666666, "fusion_lat": 0.0, "type": "electric_scooter", "bike_id": "bc4e2c6f199dc4802248e71323254ad5", "is_reserved": 0, "rental_uris": {"ios": "https://dc.lft.to/lastmile_qr_scan", "android": "https://dc.lft.to/lastmile_qr_scan"}, "is_disabled": 0, "lon": -77.02203866666666, "name": "bc4e2c6f199dc4802248e71323254ad5", "fusion_lon": 0.0}, {"lat": 38.864847166666664, "fusion_lat": 0.0, "type": "electric_scooter", "bike_id": "394128ef3d1850bd38ef471b7535d953", "is_reserved": 0, "rental_uris": {"ios": "https://dc.lft.to/lastmile_qr_scan", "android": "https://dc.lft.to/lastmile_qr_scan"}, "is_disabled": 0, "lon": -76.9774315, "name": "394128ef3d1850bd38ef471b7535d953", "fusion_lon": 0.0}, {"lat": 38.897823833333334, "fusion_lat": 0.0, "type": "electric_scooter", "bike_id": "d703c8f48295b6dfd8e4be93e91b1ad9", "is_reserved": 0, "rental_uris": {"ios": "https://dc.lft.to/lastmile_qr_scan", "android": "https://dc.lft.to/lastmile_qr_scan"}, "is_disabled": 0, "lon": -77.04493233333334, "name": "d703c8f48295b6dfd8e4be93e91b1ad9", "fusion_lon": 0.0}, {"lat": 38.924139833333335, "fusion_lat": 0.0, "type": "electric_scooter", "bike_id": "a9656f1e05cd721ffd506364f18ce471", "is_reserved": 0, "rental_uris": {"ios": "https://dc.lft.to/lastmile_qr_scan", "android": "https://dc.lft.to/lastmile_qr_scan"}, "is_disabled": 0, "lon": -77.02006516666667, "name": "a9656f1e05cd721ffd506364f18ce471", "fusion_lon": 0.0}, {"lat": 38.91687266666667, "fusion_lat": 0.0, "type": "electric_scooter", "bike_id": "3d9495fb9fd4121a268cb502a07fc98c", "is_reserved": 0, "rental_uris": {"ios": "https://dc.lft.to/lastmile_qr_scan", "android": "https://dc.lft.to/lastmile_qr_scan"}, "is_disabled": 0, "lon": -77.02698, "name": "3d9495fb9fd4121a268cb502a07fc98c", "fusion_lon": 0.0}, {"lat": 38.9157365, "fusion_lat": 0.0, "type": "electric_scooter", "bike_id": "2b83b15c31edc4662f9731a7e2d78689", "is_reserved": 0, "rental_uris": {"ios": "https://dc.lft.to/lastmile_qr_scan", "android": "https://dc.lft.to/lastmile_qr_scan"}, "is_disabled": 0, "lon": -77.04486483333334, "name": "2b83b15c31edc4662f9731a7e2d78689", "fusion_lon": 0.0}, {"lat": 38.935505, "fusion_lat": 0.0, "type": "electric_scooter", "bike_id": "a8e83868412244870049e8ffb201e18d", "is_reserved": 0, "rental_uris": {"ios": "https://dc.lft.to/lastmile_qr_scan", "android": "https://dc.lft.to/lastmile_qr_scan"}, "is_disabled": 0, "lon": -77.058579, "name": "a8e83868412244870049e8ffb201e18d", "fusion_lon": 0.0}, {"lat": 38.91702333333333, "fusion_lat": 0.0, "type": "electric_scooter", "bike_id": "c8f1f98cf8e2bbb8ff71faa982cf3fd1", "is_reserved": 0, "rental_uris": {"ios": "https://dc.lft.to/lastmile_qr_scan", "android": "https://dc.lft.to/lastmile_qr_scan"}, "is_disabled": 0, "lon": -77.031549, "name": "c8f1f98cf8e2bbb8ff71faa982cf3fd1", "fusion_lon": 0.0}, {"lat": 38.93239616666666, "fusion_lat": 0.0, "type": "electric_scooter", "bike_id": "0b35fe0ca091e123d1249516cf0ff108", "is_reserved": 0, "rental_uris": {"ios": "https://dc.lft.to/lastmile_qr_scan", "android": "https://dc.lft.to/lastmile_qr_scan"}, "is_disabled": 0, "lon": -76.9953975, "name": "0b35fe0ca091e123d1249516cf0ff108", "fusion_lon": 0.0}, {"lat": 38.88300616666667, "fusion_lat": 0.0, "type": "electric_scooter", "bike_id": "b09e011b2172f925c8061dede02f7d36", "is_reserved": 0, "rental_uris": {"ios": "https://dc.lft.to/lastmile_qr_scan", "android": "https://dc.lft.to/lastmile_qr_scan"}, "is_disabled": 0, "lon": -76.94855666666666, "name": "b09e011b2172f925c8061dede02f7d36", "fusion_lon": 0.0}, {"lat": 38.92329266666667, "fusion_lat": 0.0, "type": "electric_scooter", "bike_id": "de291d4896b49b36e7450124b064ab10", "is_reserved": 0, "rental_uris": {"ios": "https://dc.lft.to/lastmile_qr_scan", "android": "https://dc.lft.to/lastmile_qr_scan"}, "is_disabled": 0, "lon": -77.02961783333333, "name": "de291d4896b49b36e7450124b064ab10", "fusion_lon": 0.0}, {"lat": 38.969634, "fusion_lat": 0.0, "type": "electric_bike", "bike_id": "bf261cc29d9d3c494c2bb3ba412d4adf", "is_reserved": 0, "rental_uris": {"ios": "https://dc.lft.to/lastmile_qr_scan", "android": "https://dc.lft.to/lastmile_qr_scan"}, "is_disabled": 0, "lon": -76.9575205, "name": "bf261cc29d9d3c494c2bb3ba412d4adf", "fusion_lon": 0.0}, {"lat": 38.9201685, "fusion_lat": 0.0, "type": "electric_scooter", "bike_id": "be6cd05bc6eab929e27640ae13222c2f", "is_reserved": 0, "rental_uris": {"ios": "https://dc.lft.to/lastmile_qr_scan", "android": "https://dc.lft.to/lastmile_qr_scan"}, "is_disabled": 0, "lon": -77.01946166666667, "name": "be6cd05bc6eab929e27640ae13222c2f", "fusion_lon": 0.0}, {"lat": 38.9036955, "fusion_lat": 0.0, "type": "electric_scooter", "bike_id": "5b226fa6d63d09024288d71adeebbdbb", "is_reserved": 0, "rental_uris": {"ios": "https://dc.lft.to/lastmile_qr_scan", "android": "https://dc.lft.to/lastmile_qr_scan"}, "is_disabled": 0, "lon": -76.93760983333334, "name": "5b226fa6d63d09024288d71adeebbdbb", "fusion_lon": 0.0}, {"lat": 38.876652, "fusion_lat": 0.0, "type": "electric_scooter", "bike_id": "48efdda58d5926f21d76f7986b6f9640", "is_reserved": 0, "rental_uris": {"ios": "https://dc.lft.to/lastmile_qr_scan", "android": "https://dc.lft.to/lastmile_qr_scan"}, "is_disabled": 0, "lon": -77.00572116666666, "name": "48efdda58d5926f21d76f7986b6f9640", "fusion_lon": 0.0}, {"lat": 39.062935833333334, "fusion_lat": 0.0, "type": "electric_bike", "bike_id": "7361e3e71516bf11afa7051c3ae9294f", "is_reserved": 0, "rental_uris": {"ios": "https://dc.lft.to/lastmile_qr_scan", "android": "https://dc.lft.to/lastmile_qr_scan"}, "is_disabled": 0, "lon": -77.049794, "name": "7361e3e71516bf11afa7051c3ae9294f", "fusion_lon": 0.0}, {"lat": 38.91973766666667, "fusion_lat": 0.0, "type": "electric_scooter", "bike_id": "71997a1295c3e965297867bfca910ae1", "is_reserved": 0, "rental_uris": {"ios": "https://dc.lft.to/lastmile_qr_scan", "android": "https://dc.lft.to/lastmile_qr_scan"}, "is_disabled": 0, "lon": -77.02191666666667, "name": "71997a1295c3e965297867bfca910ae1", "fusion_lon": 0.0}, {"lat": 38.924073, "fusion_lat": 0.0, "type": "electric_scooter", "bike_id": "544c321c3f93a00009fa95a7614e01df", "is_reserved": 0, "rental_uris": {"ios": "https://dc.lft.to/lastmile_qr_scan", "android": "https://dc.lft.to/lastmile_qr_scan"}, "is_disabled": 0, "lon": -77.04452516666667, "name": "544c321c3f93a00009fa95a7614e01df", "fusion_lon": 0.0}, {"lat": 38.901519, "fusion_lat": 0.0, "type": "electric_scooter", "bike_id": "14c9f21082b5c657287afcbc1467b514", "is_reserved": 0, "rental_uris": {"ios": "https://dc.lft.to/lastmile_qr_scan", "android": "https://dc.lft.to/lastmile_qr_scan"}, "is_disabled": 0, "lon": -76.93061933333334, "name": "14c9f21082b5c657287afcbc1467b514", "fusion_lon": 0.0}, {"lat": 38.913479, "fusion_lat": 0.0, "type": "electric_scooter", "bike_id": "291d5882f3f1e99f008e1b71225d1299", "is_reserved": 0, "rental_uris": {"ios": "https://dc.lft.to/lastmile_qr_scan", "android": "https://dc.lft.to/lastmile_qr_scan"}, "is_disabled": 0, "lon": -77.044875, "name": "291d5882f3f1e99f008e1b71225d1299", "fusion_lon": 0.0}, {"lat": 38.908802, "fusion_lat": 0.0, "type": "electric_scooter", "bike_id": "0b0d879b356690fa454960ab8855655a", "is_reserved": 0, "rental_uris": {"ios": "https://dc.lft.to/lastmile_qr_scan", "android": "https://dc.lft.to/lastmile_qr_scan"}, "is_disabled": 0, "lon": -77.03792333333334, "name": "0b0d879b356690fa454960ab8855655a", "fusion_lon": 0.0}, {"lat": 38.89314816666667, "fusion_lat": 0.0, "type": "electric_scooter", "bike_id": "0838a8946345745a99e10f1ea6cd0e41", "is_reserved": 0, "rental_uris": {"ios": "https://dc.lft.to/lastmile_qr_scan", "android": "https://dc.lft.to/lastmile_qr_scan"}, "is_disabled": 0, "lon": -77.04997716666666, "name": "0838a8946345745a99e10f1ea6cd0e41", "fusion_lon": 0.0}, {"lat": 38.905247, "fusion_lat": 0.0, "type": "electric_scooter", "bike_id": "865cec2117af0ef733cd40601447e089", "is_reserved": 0, "rental_uris": {"ios": "https://dc.lft.to/lastmile_qr_scan", "android": "https://dc.lft.to/lastmile_qr_scan"}, "is_disabled": 0, "lon": -77.05089516666666, "name": "865cec2117af0ef733cd40601447e089", "fusion_lon": 0.0}, {"lat": 38.886394333333335, "fusion_lat": 0.0, "type": "electric_scooter", "bike_id": "0122c473e38d93fce6e849306a435f2b", "is_reserved": 0, "rental_uris": {"ios": "https://dc.lft.to/lastmile_qr_scan", "android": "https://dc.lft.to/lastmile_qr_scan"}, "is_disabled": 0, "lon": -77.0190765, "name": "0122c473e38d93fce6e849306a435f2b", "fusion_lon": 0.0}, {"lat": 38.928684, "fusion_lat": 0.0, "type": "electric_scooter", "bike_id": "0ff1436ff3c6457064f98ea1b740e89e", "is_reserved": 0, "rental_uris": {"ios": "https://dc.lft.to/lastmile_qr_scan", "android": "https://dc.lft.to/lastmile_qr_scan"}, "is_disabled": 0, "lon": -77.02852783333333, "name": "0ff1436ff3c6457064f98ea1b740e89e", "fusion_lon": 0.0}, {"lat": 38.871774333333335, "fusion_lat": 0.0, "type": "electric_scooter", "bike_id": "aa92dceff45103e385df1a5c9f2500b7", "is_reserved": 0, "rental_uris": {"ios": "https://dc.lft.to/lastmile_qr_scan", "android": "https://dc.lft.to/lastmile_qr_scan"}, "is_disabled": 0, "lon": -77.00614333333333, "name": "aa92dceff45103e385df1a5c9f2500b7", "fusion_lon": 0.0}, {"lat": 38.918357666666665, "fusion_lat": 0.0, "type": "electric_scooter", "bike_id": "3386b9de2fad0c9f12abab1549d87050", "is_reserved": 0, "rental_uris": {"ios": "https://dc.lft.to/lastmile_qr_scan", "android": "https://dc.lft.to/lastmile_qr_scan"}, "is_disabled": 0, "lon": -77.04053983333333, "name": "3386b9de2fad0c9f12abab1549d87050", "fusion_lon": 0.0}, {"lat": 38.9197645, "fusion_lat": 0.0, "type": "electric_scooter", "bike_id": "8e722e42733ded23f01ce1a27d3407b3", "is_reserved": 0, "rental_uris": {"ios": "https://dc.lft.to/lastmile_qr_scan", "android": "https://dc.lft.to/lastmile_qr_scan"}, "is_disabled": 0, "lon": -77.01913633333334, "name": "8e722e42733ded23f01ce1a27d3407b3", "fusion_lon": 0.0}, {"lat": 38.8693605, "fusion_lat": 0.0, "type": "electric_bike", "bike_id": "0bb60d058e305583176cec967919778d", "is_reserved": 0, "rental_uris": {"ios": "https://dc.lft.to/lastmile_qr_scan", "android": "https://dc.lft.to/lastmile_qr_scan"}, "is_disabled": 0, "lon": -77.09465283333333, "name": "0bb60d058e305583176cec967919778d", "fusion_lon": 0.0}, {"lat": 38.90702483333333, "fusion_lat": 0.0, "type": "electric_scooter", "bike_id": "15cdc7dcb9681c3419dbc1f0af34c87f", "is_reserved": 0, "rental_uris": {"ios": "https://dc.lft.to/lastmile_qr_scan", "android": "https://dc.lft.to/lastmile_qr_scan"}, "is_disabled": 0, "lon": -77.0294405, "name": "15cdc7dcb9681c3419dbc1f0af34c87f", "fusion_lon": 0.0}, {"lat": 38.88380816666667, "fusion_lat": 0.0, "type": "electric_scooter", "bike_id": "3c79f39f3e2dfe6f73eb09daeb7b191f", "is_reserved": 0, "rental_uris": {"ios": "https://dc.lft.to/lastmile_qr_scan", "android": "https://dc.lft.to/lastmile_qr_scan"}, "is_disabled": 0, "lon": -76.99521366666667, "name": "3c79f39f3e2dfe6f73eb09daeb7b191f", "fusion_lon": 0.0}, {"lat": 38.959172833333334, "fusion_lat": 0.0, "type": "electric_bike", "bike_id": "0f1580972ed94e18cbcbe51080fbc259", "is_reserved": 0, "rental_uris": {"ios": "https://dc.lft.to/lastmile_qr_scan", "android": "https://dc.lft.to/lastmile_qr_scan"}, "is_disabled": 0, "lon": -77.08482716666667, "name": "0f1580972ed94e18cbcbe51080fbc259", "fusion_lon": 0.0}, {"lat": 38.8875075, "fusion_lat": 0.0, "type": "electric_scooter", "bike_id": "32eca03610ef820a9ea3a49c36c9086e", "is_reserved": 0, "rental_uris": {"ios": "https://dc.lft.to/lastmile_qr_scan", "android": "https://dc.lft.to/lastmile_qr_scan"}, "is_disabled": 0, "lon": -77.02847766666666, "name": "32eca03610ef820a9ea3a49c36c9086e", "fusion_lon": 0.0}, {"lat": 38.8885255, "fusion_lat": 0.0, "type": "electric_scooter", "bike_id": "f4af79f893d02fe28bc5fa9074463f0c", "is_reserved": 0, "rental_uris": {"ios": "https://dc.lft.to/lastmile_qr_scan", "android": "https://dc.lft.to/lastmile_qr_scan"}, "is_disabled": 0, "lon": -76.92683566666666, "name": "f4af79f893d02fe28bc5fa9074463f0c", "fusion_lon": 0.0}, {"lat": 38.91691316666667, "fusion_lat": 0.0, "type": "electric_scooter", "bike_id": "b6fd524df1f6cf6438cb47edd9296084", "is_reserved": 0, "rental_uris": {"ios": "https://dc.lft.to/lastmile_qr_scan", "android": "https://dc.lft.to/lastmile_qr_scan"}, "is_disabled": 0, "lon": -77.033973, "name": "b6fd524df1f6cf6438cb47edd9296084", "fusion_lon": 0.0}, {"lat": 38.90737333333333, "fusion_lat": 0.0, "type": "electric_scooter", "bike_id": "6826e0fff923f99fdec799b9a2c94c9e", "is_reserved": 0, "rental_uris": {"ios": "https://dc.lft.to/lastmile_qr_scan", "android": "https://dc.lft.to/lastmile_qr_scan"}, "is_disabled": 0, "lon": -77.00929783333333, "name": "6826e0fff923f99fdec799b9a2c94c9e", "fusion_lon": 0.0}, {"lat": 38.9365805, "fusion_lat": 0.0, "type": "electric_scooter", "bike_id": "642bfbe9c093d151aef5d13e733de9f9", "is_reserved": 0, "rental_uris": {"ios": "https://dc.lft.to/lastmile_qr_scan", "android": "https://dc.lft.to/lastmile_qr_scan"}, "is_disabled": 0, "lon": -77.026388, "name": "642bfbe9c093d151aef5d13e733de9f9", "fusion_lon": 0.0}, {"lat": 38.88435283333333, "fusion_lat": 0.0, "type": "electric_scooter", "bike_id": "defd73b27586e4b07512a3181bbbbd91", "is_reserved": 0, "rental_uris": {"ios": "https://dc.lft.to/lastmile_qr_scan", "android": "https://dc.lft.to/lastmile_qr_scan"}, "is_disabled": 0, "lon": -76.95752, "name": "defd73b27586e4b07512a3181bbbbd91", "fusion_lon": 0.0}, {"lat": 38.92235083333333, "fusion_lat": 0.0, "type": "electric_scooter", "bike_id": "6dd7c2f8924acf47a0600514fefe91d0", "is_reserved": 0, "rental_uris": {"ios": "https://dc.lft.to/lastmile_qr_scan", "android": "https://dc.lft.to/lastmile_qr_scan"}, "is_disabled": 0, "lon": -77.03529016666667, "name": "6dd7c2f8924acf47a0600514fefe91d0", "fusion_lon": 0.0}, {"lat": 38.93225616666667, "fusion_lat": 0.0, "type": "electric_scooter", "bike_id": "1942c504666dfc667b86837e019a7ed0", "is_reserved": 0, "rental_uris": {"ios": "https://dc.lft.to/lastmile_qr_scan", "android": "https://dc.lft.to/lastmile_qr_scan"}, "is_disabled": 0, "lon": -76.9960515, "name": "1942c504666dfc667b86837e019a7ed0", "fusion_lon": 0.0}, {"lat": 38.904915333333335, "fusion_lat": 0.0, "type": "electric_scooter", "bike_id": "651c14335b621285b9ba758f796bd75b", "is_reserved": 0, "rental_uris": {"ios": "https://dc.lft.to/lastmile_qr_scan", "android": "https://dc.lft.to/lastmile_qr_scan"}, "is_disabled": 0, "lon": -77.04649883333333, "name": "651c14335b621285b9ba758f796bd75b", "fusion_lon": 0.0}, {"lat": 38.879404, "fusion_lat": 0.0, "type": "electric_scooter", "bike_id": "43d14e1af796e811c5b1082e69286851", "is_reserved": 0, "rental_uris": {"ios": "https://dc.lft.to/lastmile_qr_scan", "android": "https://dc.lft.to/lastmile_qr_scan"}, "is_disabled": 0, "lon": -77.01468733333333, "name": "43d14e1af796e811c5b1082e69286851", "fusion_lon": 0.0}, {"lat": 38.905700333333336, "fusion_lat": 0.0, "type": "electric_scooter", "bike_id": "f86796fa3db3f784005fe29b76ddfbf3", "is_reserved": 0, "rental_uris": {"ios": "https://dc.lft.to/lastmile_qr_scan", "android": "https://dc.lft.to/lastmile_qr_scan"}, "is_disabled": 0, "lon": -77.03525216666667, "name": "f86796fa3db3f784005fe29b76ddfbf3", "fusion_lon": 0.0}, {"lat": 38.933385, "fusion_lat": 0.0, "type": "electric_scooter", "bike_id": "f7a6564c351923008b62ac49131711e1", "is_reserved": 0, "rental_uris": {"ios": "https://dc.lft.to/lastmile_qr_scan", "android": "https://dc.lft.to/lastmile_qr_scan"}, "is_disabled": 0, "lon": -77.03879666666667, "name": "f7a6564c351923008b62ac49131711e1", "fusion_lon": 0.0}, {"lat": 38.90435133333333, "fusion_lat": 0.0, "type": "electric_scooter", "bike_id": "c5b4cceb07af70055e813df4ca56b5b5", "is_reserved": 0, "rental_uris": {"ios": "https://dc.lft.to/lastmile_qr_scan", "android": "https://dc.lft.to/lastmile_qr_scan"}, "is_disabled": 0, "lon": -77.04341733333334, "name": "c5b4cceb07af70055e813df4ca56b5b5", "fusion_lon": 0.0}, {"lat": 38.900058333333334, "fusion_lat": 0.0, "type": "electric_scooter", "bike_id": "afe8d5f7ca46b1616452d52784eda2fa", "is_reserved": 0, "rental_uris": {"ios": "https://dc.lft.to/lastmile_qr_scan", "android": "https://dc.lft.to/lastmile_qr_scan"}, "is_disabled": 0, "lon": -77.03205083333333, "name": "afe8d5f7ca46b1616452d52784eda2fa", "fusion_lon": 0.0}, {"lat": 38.880576833333336, "fusion_lat": 0.0, "type": "electric_scooter", "bike_id": "7577d6473d900ff16eccc3e5d70e40e8", "is_reserved": 0, "rental_uris": {"ios": "https://dc.lft.to/lastmile_qr_scan", "android": "https://dc.lft.to/lastmile_qr_scan"}, "is_disabled": 0, "lon": -76.93223616666667, "name": "7577d6473d900ff16eccc3e5d70e40e8", "fusion_lon": 0.0}, {"lat": 38.901223, "fusion_lat": 0.0, "type": "electric_scooter", "bike_id": "c099b77a413e4e3da45177a855e5fb68", "is_reserved": 0, "rental_uris": {"ios": "https://dc.lft.to/lastmile_qr_scan", "android": "https://dc.lft.to/lastmile_qr_scan"}, "is_disabled": 0, "lon": -77.0268325, "name": "c099b77a413e4e3da45177a855e5fb68", "fusion_lon": 0.0}, {"lat": 38.921579, "fusion_lat": 0.0, "type": "electric_scooter", "bike_id": "e793ea0616a80fba868a7504079151fa", "is_reserved": 0, "rental_uris": {"ios": "https://dc.lft.to/lastmile_qr_scan", "android": "https://dc.lft.to/lastmile_qr_scan"}, "is_disabled": 0, "lon": -77.03459133333334, "name": "e793ea0616a80fba868a7504079151fa", "fusion_lon": 0.0}, {"lat": 38.924443833333335, "fusion_lat": 0.0, "type": "electric_scooter", "bike_id": "cb96e6a8e8ff882f4315f89f6e953909", "is_reserved": 0, "rental_uris": {"ios": "https://dc.lft.to/lastmile_qr_scan", "android": "https://dc.lft.to/lastmile_qr_scan"}, "is_disabled": 0, "lon": -77.04408783333334, "name": "cb96e6a8e8ff882f4315f89f6e953909", "fusion_lon": 0.0}, {"lat": 38.88865416666667, "fusion_lat": 0.0, "type": "electric_scooter", "bike_id": "a6acfc12f63b3a51d3f08a523018c5c5", "is_reserved": 0, "rental_uris": {"ios": "https://dc.lft.to/lastmile_qr_scan", "android": "https://dc.lft.to/lastmile_qr_scan"}, "is_disabled": 0, "lon": -76.9902355, "name": "a6acfc12f63b3a51d3f08a523018c5c5", "fusion_lon": 0.0}, {"lat": 38.92356383333333, "fusion_lat": 0.0, "type": "electric_scooter", "bike_id": "7b371a699dd2b3a6a2fb89f076ee0f87", "is_reserved": 0, "rental_uris": {"ios": "https://dc.lft.to/lastmile_qr_scan", "android": "https://dc.lft.to/lastmile_qr_scan"}, "is_disabled": 0, "lon": -77.05085633333333, "name": "7b371a699dd2b3a6a2fb89f076ee0f87", "fusion_lon": 0.0}, {"lat": 38.92475266666667, "fusion_lat": 0.0, "type": "electric_scooter", "bike_id": "3c917911dc528a3d76d7ccf5af2609fe", "is_reserved": 0, "rental_uris": {"ios": "https://dc.lft.to/lastmile_qr_scan", "android": "https://dc.lft.to/lastmile_qr_scan"}, "is_disabled": 0, "lon": -77.02996666666667, "name": "3c917911dc528a3d76d7ccf5af2609fe", "fusion_lon": 0.0}, {"lat": 38.91685916666667, "fusion_lat": 0.0, "type": "electric_scooter", "bike_id": "d7c2ff03deeb0f7ddc313b0ab9b85e9c", "is_reserved": 0, "rental_uris": {"ios": "https://dc.lft.to/lastmile_qr_scan", "android": "https://dc.lft.to/lastmile_qr_scan"}, "is_disabled": 0, "lon": -77.0234675, "name": "d7c2ff03deeb0f7ddc313b0ab9b85e9c", "fusion_lon": 0.0}, {"lat": 38.919737166666664, "fusion_lat": 0.0, "type": "electric_scooter", "bike_id": "461422c0d08a784b1146f287f235ff24", "is_reserved": 0, "rental_uris": {"ios": "https://dc.lft.to/lastmile_qr_scan", "android": "https://dc.lft.to/lastmile_qr_scan"}, "is_disabled": 0, "lon": -77.03856033333334, "name": "461422c0d08a784b1146f287f235ff24", "fusion_lon": 0.0}, {"lat": 39.01372416666667, "fusion_lat": 0.0, "type": "electric_bike", "bike_id": "9e2d8aca0756cb3bed94dd2cd816b509", "is_reserved": 0, "rental_uris": {"ios": "https://dc.lft.to/lastmile_qr_scan", "android": "https://dc.lft.to/lastmile_qr_scan"}, "is_disabled": 0, "lon": -76.92135866666666, "name": "9e2d8aca0756cb3bed94dd2cd816b509", "fusion_lon": 0.0}, {"lat": 38.92419566666667, "fusion_lat": 0.0, "type": "electric_scooter", "bike_id": "c5b77507142c48eda76abfae20129e36", "is_reserved": 0, "rental_uris": {"ios": "https://dc.lft.to/lastmile_qr_scan", "android": "https://dc.lft.to/lastmile_qr_scan"}, "is_disabled": 0, "lon": -77.02032383333334, "name": "c5b77507142c48eda76abfae20129e36", "fusion_lon": 0.0}, {"lat": 38.90965116666667, "fusion_lat": 0.0, "type": "electric_scooter", "bike_id": "388eb25c11ae82966075054b43d75058", "is_reserved": 0, "rental_uris": {"ios": "https://dc.lft.to/lastmile_qr_scan", "android": "https://dc.lft.to/lastmile_qr_scan"}, "is_disabled": 0, "lon": -77.03324216666667, "name": "388eb25c11ae82966075054b43d75058", "fusion_lon": 0.0}, {"lat": 38.904958, "fusion_lat": 0.0, "type": "electric_scooter", "bike_id": "d8fa28a47c5cd8d526499978f9282a9d", "is_reserved": 0, "rental_uris": {"ios": "https://dc.lft.to/lastmile_qr_scan", "android": "https://dc.lft.to/lastmile_qr_scan"}, "is_disabled": 0, "lon": -77.02966583333334, "name": "d8fa28a47c5cd8d526499978f9282a9d", "fusion_lon": 0.0}, {"lat": 38.908519, "fusion_lat": 0.0, "type": "electric_scooter", "bike_id": "4d4cb07033c11bc10074a3274e03448b", "is_reserved": 0, "rental_uris": {"ios": "https://dc.lft.to/lastmile_qr_scan", "android": "https://dc.lft.to/lastmile_qr_scan"}, "is_disabled": 0, "lon": -77.02241033333334, "name": "4d4cb07033c11bc10074a3274e03448b", "fusion_lon": 0.0}, {"lat": 38.90100983333333, "fusion_lat": 0.0, "type": "electric_scooter", "bike_id": "f7d0cd05d0df7e4f7830192f43f79223", "is_reserved": 0, "rental_uris": {"ios": "https://dc.lft.to/lastmile_qr_scan", "android": "https://dc.lft.to/lastmile_qr_scan"}, "is_disabled": 0, "lon": -77.04755283333333, "name": "f7d0cd05d0df7e4f7830192f43f79223", "fusion_lon": 0.0}, {"lat": 38.95136933333333, "fusion_lat": 0.0, "type": "electric_scooter", "bike_id": "b3cc21d711ac0c09c3095576ab4af750", "is_reserved": 0, "rental_uris": {"ios": "https://dc.lft.to/lastmile_qr_scan", "android": "https://dc.lft.to/lastmile_qr_scan"}, "is_disabled": 0, "lon": -77.02722616666667, "name": "b3cc21d711ac0c09c3095576ab4af750", "fusion_lon": 0.0}, {"lat": 38.96538233333333, "fusion_lat": 0.0, "type": "electric_scooter", "bike_id": "068948c6214000f94b2dbdb61307ae45", "is_reserved": 0, "rental_uris": {"ios": "https://dc.lft.to/lastmile_qr_scan", "android": "https://dc.lft.to/lastmile_qr_scan"}, "is_disabled": 0, "lon": -77.027384, "name": "068948c6214000f94b2dbdb61307ae45", "fusion_lon": 0.0}, {"lat": 38.92433916666667, "fusion_lat": 0.0, "type": "electric_scooter", "bike_id": "635d340dc36e5eee7725f9ec31a326d7", "is_reserved": 0, "rental_uris": {"ios": "https://dc.lft.to/lastmile_qr_scan", "android": "https://dc.lft.to/lastmile_qr_scan"}, "is_disabled": 0, "lon": -77.02220316666667, "name": "635d340dc36e5eee7725f9ec31a326d7", "fusion_lon": 0.0}, {"lat": 38.9054975, "fusion_lat": 0.0, "type": "electric_scooter", "bike_id": "c57bb1f999b26b52604fbe57ff932e41", "is_reserved": 0, "rental_uris": {"ios": "https://dc.lft.to/lastmile_qr_scan", "android": "https://dc.lft.to/lastmile_qr_scan"}, "is_disabled": 0, "lon": -77.05168116666667, "name": "c57bb1f999b26b52604fbe57ff932e41", "fusion_lon": 0.0}, {"lat": 38.95839633333333, "fusion_lat": 0.0, "type": "electric_scooter", "bike_id": "c377936d868d76ac4605345827ad1bd8", "is_reserved": 0, "rental_uris": {"ios": "https://dc.lft.to/lastmile_qr_scan", "android": "https://dc.lft.to/lastmile_qr_scan"}, "is_disabled": 0, "lon": -77.01516166666667, "name": "c377936d868d76ac4605345827ad1bd8", "fusion_lon": 0.0}, {"lat": 38.9194945, "fusion_lat": 0.0, "type": "electric_scooter", "bike_id": "d2b2a6095e2d138d061c738639d74c6b", "is_reserved": 0, "rental_uris": {"ios": "https://dc.lft.to/lastmile_qr_scan", "android": "https://dc.lft.to/lastmile_qr_scan"}, "is_disabled": 0, "lon": -77.028914, "name": "d2b2a6095e2d138d061c738639d74c6b", "fusion_lon": 0.0}, {"lat": 38.89221116666667, "fusion_lat": 0.0, "type": "electric_scooter", "bike_id": "474303b8fd82f7ae1cc339a0ad272419", "is_reserved": 0, "rental_uris": {"ios": "https://dc.lft.to/lastmile_qr_scan", "android": "https://dc.lft.to/lastmile_qr_scan"}, "is_disabled": 0, "lon": -77.04309433333333, "name": "474303b8fd82f7ae1cc339a0ad272419", "fusion_lon": 0.0}, {"lat": 38.9550435, "fusion_lat": 0.0, "type": "electric_bike", "bike_id": "e01b2c9b80bd795ed3cc1c29905ce840", "is_reserved": 0, "rental_uris": {"ios": "https://dc.lft.to/lastmile_qr_scan", "android": "https://dc.lft.to/lastmile_qr_scan"}, "is_disabled": 0, "lon": -76.993565, "name": "e01b2c9b80bd795ed3cc1c29905ce840", "fusion_lon": 0.0}, {"lat": 38.87649833333333, "fusion_lat": 0.0, "type": "electric_scooter", "bike_id": "9b2f9bd3c11fe6b6c43e7e73401ebe4e", "is_reserved": 0, "rental_uris": {"ios": "https://dc.lft.to/lastmile_qr_scan", "android": "https://dc.lft.to/lastmile_qr_scan"}, "is_disabled": 0, "lon": -76.96509066666667, "name": "9b2f9bd3c11fe6b6c43e7e73401ebe4e", "fusion_lon": 0.0}, {"lat": 38.957426166666664, "fusion_lat": 0.0, "type": "electric_scooter", "bike_id": "ba62e1f3c98b53ed9fe7df242f08b69d", "is_reserved": 0, "rental_uris": {"ios": "https://dc.lft.to/lastmile_qr_scan", "android": "https://dc.lft.to/lastmile_qr_scan"}, "is_disabled": 0, "lon": -77.02421316666667, "name": "ba62e1f3c98b53ed9fe7df242f08b69d", "fusion_lon": 0.0}, {"lat": 38.893600666666664, "fusion_lat": 0.0, "type": "electric_scooter", "bike_id": "456a015f7077e3de964c13cb069c093c", "is_reserved": 0, "rental_uris": {"ios": "https://dc.lft.to/lastmile_qr_scan", "android": "https://dc.lft.to/lastmile_qr_scan"}, "is_disabled": 0, "lon": -76.99091966666667, "name": "456a015f7077e3de964c13cb069c093c", "fusion_lon": 0.0}, {"lat": 38.91911866666667, "fusion_lat": 0.0, "type": "electric_scooter", "bike_id": "4412230694d0a688f07f0afa596a8347", "is_reserved": 0, "rental_uris": {"ios": "https://dc.lft.to/lastmile_qr_scan", "android": "https://dc.lft.to/lastmile_qr_scan"}, "is_disabled": 0, "lon": -76.97092233333333, "name": "4412230694d0a688f07f0afa596a8347", "fusion_lon": 0.0}, {"lat": 38.8974595, "fusion_lat": 0.0, "type": "electric_scooter", "bike_id": "2118ac17d5fa2e301de90a9eb577c156", "is_reserved": 0, "rental_uris": {"ios": "https://dc.lft.to/lastmile_qr_scan", "android": "https://dc.lft.to/lastmile_qr_scan"}, "is_disabled": 0, "lon": -77.00862166666667, "name": "2118ac17d5fa2e301de90a9eb577c156", "fusion_lon": 0.0}, {"lat": 38.903460333333335, "fusion_lat": 0.0, "type": "electric_scooter", "bike_id": "800018fea653afaf1ed4bc08d94b1b03", "is_reserved": 0, "rental_uris": {"ios": "https://dc.lft.to/lastmile_qr_scan", "android": "https://dc.lft.to/lastmile_qr_scan"}, "is_disabled": 0, "lon": -76.98506816666666, "name": "800018fea653afaf1ed4bc08d94b1b03", "fusion_lon": 0.0}, {"lat": 38.9227605, "fusion_lat": 0.0, "type": "electric_scooter", "bike_id": "62375d02f8eca8601f412b7559cd97a8", "is_reserved": 0, "rental_uris": {"ios": "https://dc.lft.to/lastmile_qr_scan", "android": "https://dc.lft.to/lastmile_qr_scan"}, "is_disabled": 0, "lon": -77.02245466666666, "name": "62375d02f8eca8601f412b7559cd97a8", "fusion_lon": 0.0}, {"lat": 38.92580433333333, "fusion_lat": 0.0, "type": "electric_scooter", "bike_id": "8f5f03c72d92c1a78718d1dfe58b1532", "is_reserved": 0, "rental_uris": {"ios": "https://dc.lft.to/lastmile_qr_scan", "android": "https://dc.lft.to/lastmile_qr_scan"}, "is_disabled": 0, "lon": -77.02760566666667, "name": "8f5f03c72d92c1a78718d1dfe58b1532", "fusion_lon": 0.0}, {"lat": 38.899157833333334, "fusion_lat": 0.0, "type": "electric_scooter", "bike_id": "eca068a6a2d815918af166dde5b345c8", "is_reserved": 0, "rental_uris": {"ios": "https://dc.lft.to/lastmile_qr_scan", "android": "https://dc.lft.to/lastmile_qr_scan"}, "is_disabled": 0, "lon": -76.93407966666666, "name": "eca068a6a2d815918af166dde5b345c8", "fusion_lon": 0.0}, {"lat": 38.83366066666667, "fusion_lat": 0.0, "type": "electric_scooter", "bike_id": "163be67d28accfceb705adb5758cfb16", "is_reserved": 0, "rental_uris": {"ios": "https://dc.lft.to/lastmile_qr_scan", "android": "https://dc.lft.to/lastmile_qr_scan"}, "is_disabled": 0, "lon": -76.996586, "name": "163be67d28accfceb705adb5758cfb16", "fusion_lon": 0.0}, {"lat": 38.9293515, "fusion_lat": 0.0, "type": "electric_scooter", "bike_id": "b1e7d0d99d88f9162940bf702f8a7ecb", "is_reserved": 0, "rental_uris": {"ios": "https://dc.lft.to/lastmile_qr_scan", "android": "https://dc.lft.to/lastmile_qr_scan"}, "is_disabled": 0, "lon": -77.032825, "name": "b1e7d0d99d88f9162940bf702f8a7ecb", "fusion_lon": 0.0}, {"lat": 38.91132366666667, "fusion_lat": 0.0, "type": "electric_scooter", "bike_id": "cafba093de1604a09ea229f1f43d368a", "is_reserved": 0, "rental_uris": {"ios": "https://dc.lft.to/lastmile_qr_scan", "android": "https://dc.lft.to/lastmile_qr_scan"}, "is_disabled": 0, "lon": -77.0383895, "name": "cafba093de1604a09ea229f1f43d368a", "fusion_lon": 0.0}, {"lat": 38.92270583333333, "fusion_lat": 0.0, "type": "electric_scooter", "bike_id": "e4f5888a788629d47eb203111fd1ad6c", "is_reserved": 0, "rental_uris": {"ios": "https://dc.lft.to/lastmile_qr_scan", "android": "https://dc.lft.to/lastmile_qr_scan"}, "is_disabled": 0, "lon": -77.04282866666667, "name": "e4f5888a788629d47eb203111fd1ad6c", "fusion_lon": 0.0}, {"lat": 38.91081466666667, "fusion_lat": 0.0, "type": "electric_scooter", "bike_id": "f5db1a4e94d86f60e914605af72b0cde", "is_reserved": 0, "rental_uris": {"ios": "https://dc.lft.to/lastmile_qr_scan", "android": "https://dc.lft.to/lastmile_qr_scan"}, "is_disabled": 0, "lon": -77.00859766666666, "name": "f5db1a4e94d86f60e914605af72b0cde", "fusion_lon": 0.0}, {"lat": 38.929019, "fusion_lat": 0.0, "type": "electric_scooter", "bike_id": "9e7c73adfa52f0d700b820a8b6e91a61", "is_reserved": 0, "rental_uris": {"ios": "https://dc.lft.to/lastmile_qr_scan", "android": "https://dc.lft.to/lastmile_qr_scan"}, "is_disabled": 0, "lon": -77.037403, "name": "9e7c73adfa52f0d700b820a8b6e91a61", "fusion_lon": 0.0}, {"lat": 38.89617466666667, "fusion_lat": 0.0, "type": "electric_scooter", "bike_id": "8a44cc08f99ba908daf7ce5e780f36b6", "is_reserved": 0, "rental_uris": {"ios": "https://dc.lft.to/lastmile_qr_scan", "android": "https://dc.lft.to/lastmile_qr_scan"}, "is_disabled": 0, "lon": -76.9816775, "name": "8a44cc08f99ba908daf7ce5e780f36b6", "fusion_lon": 0.0}, {"lat": 38.90072833333333, "fusion_lat": 0.0, "type": "electric_scooter", "bike_id": "1b72bf816e2603a182ddad1e3cefa2be", "is_reserved": 0, "rental_uris": {"ios": "https://dc.lft.to/lastmile_qr_scan", "android": "https://dc.lft.to/lastmile_qr_scan"}, "is_disabled": 0, "lon": -77.05066516666666, "name": "1b72bf816e2603a182ddad1e3cefa2be", "fusion_lon": 0.0}, {"lat": 38.91769733333334, "fusion_lat": 0.0, "type": "electric_scooter", "bike_id": "efeaf5c428a980a4ab2f12e9144d4992", "is_reserved": 0, "rental_uris": {"ios": "https://dc.lft.to/lastmile_qr_scan", "android": "https://dc.lft.to/lastmile_qr_scan"}, "is_disabled": 0, "lon": -77.047696, "name": "efeaf5c428a980a4ab2f12e9144d4992", "fusion_lon": 0.0}, {"lat": 38.90779583333333, "fusion_lat": 0.0, "type": "electric_scooter", "bike_id": "1fe50a6ea871b1281404e043e9334601", "is_reserved": 0, "rental_uris": {"ios": "https://dc.lft.to/lastmile_qr_scan", "android": "https://dc.lft.to/lastmile_qr_scan"}, "is_disabled": 0, "lon": -77.03837016666667, "name": "1fe50a6ea871b1281404e043e9334601", "fusion_lon": 0.0}, {"lat": 38.91581583333333, "fusion_lat": 0.0, "type": "electric_scooter", "bike_id": "d3387d8c8ee61a57da1df70bdb533aaa", "is_reserved": 0, "rental_uris": {"ios": "https://dc.lft.to/lastmile_qr_scan", "android": "https://dc.lft.to/lastmile_qr_scan"}, "is_disabled": 0, "lon": -77.03468816666667, "name": "d3387d8c8ee61a57da1df70bdb533aaa", "fusion_lon": 0.0}, {"lat": 38.925102, "fusion_lat": 0.0, "type": "electric_scooter", "bike_id": "acf4b418c0084f8dadb893c200a5fae4", "is_reserved": 0, "rental_uris": {"ios": "https://dc.lft.to/lastmile_qr_scan", "android": "https://dc.lft.to/lastmile_qr_scan"}, "is_disabled": 0, "lon": -77.00225616666667, "name": "acf4b418c0084f8dadb893c200a5fae4", "fusion_lon": 0.0}, {"lat": 38.913491666666665, "fusion_lat": 0.0, "type": "electric_scooter", "bike_id": "591714c09be5f3ac7b8139b24be8dc1a", "is_reserved": 0, "rental_uris": {"ios": "https://dc.lft.to/lastmile_qr_scan", "android": "https://dc.lft.to/lastmile_qr_scan"}, "is_disabled": 0, "lon": -77.02576216666667, "name": "591714c09be5f3ac7b8139b24be8dc1a", "fusion_lon": 0.0}, {"lat": 38.88478933333333, "fusion_lat": 0.0, "type": "electric_scooter", "bike_id": "f9cfcce656cb9f205901fa221c1c3b82", "is_reserved": 0, "rental_uris": {"ios": "https://dc.lft.to/lastmile_qr_scan", "android": "https://dc.lft.to/lastmile_qr_scan"}, "is_disabled": 0, "lon": -77.02658, "name": "f9cfcce656cb9f205901fa221c1c3b82", "fusion_lon": 0.0}, {"lat": 38.91988516666667, "fusion_lat": 0.0, "type": "electric_scooter", "bike_id": "6020f0aece76aeac373902edf1fbc4ad", "is_reserved": 0, "rental_uris": {"ios": "https://dc.lft.to/lastmile_qr_scan", "android": "https://dc.lft.to/lastmile_qr_scan"}, "is_disabled": 0, "lon": -77.03246066666667, "name": "6020f0aece76aeac373902edf1fbc4ad", "fusion_lon": 0.0}, {"lat": 38.94982816666667, "fusion_lat": 0.0, "type": "electric_scooter", "bike_id": "42239953341c94c62487109500296831", "is_reserved": 0, "rental_uris": {"ios": "https://dc.lft.to/lastmile_qr_scan", "android": "https://dc.lft.to/lastmile_qr_scan"}, "is_disabled": 0, "lon": -77.0265625, "name": "42239953341c94c62487109500296831", "fusion_lon": 0.0}, {"lat": 38.892266666666664, "fusion_lat": 0.0, "type": "electric_scooter", "bike_id": "983dcb25ac9b02a84be93f782e82dcb8", "is_reserved": 0, "rental_uris": {"ios": "https://dc.lft.to/lastmile_qr_scan", "android": "https://dc.lft.to/lastmile_qr_scan"}, "is_disabled": 0, "lon": -77.02395983333334, "name": "983dcb25ac9b02a84be93f782e82dcb8", "fusion_lon": 0.0}, {"lat": 38.92181566666667, "fusion_lat": 0.0, "type": "electric_scooter", "bike_id": "e49db515e70536786dde432f1cfb1e29", "is_reserved": 0, "rental_uris": {"ios": "https://dc.lft.to/lastmile_qr_scan", "android": "https://dc.lft.to/lastmile_qr_scan"}, "is_disabled": 0, "lon": -77.04704033333333, "name": "e49db515e70536786dde432f1cfb1e29", "fusion_lon": 0.0}, {"lat": 38.88611916666667, "fusion_lat": 0.0, "type": "electric_scooter", "bike_id": "5fd92c4e952d7d489f4e0b4ab69d7161", "is_reserved": 0, "rental_uris": {"ios": "https://dc.lft.to/lastmile_qr_scan", "android": "https://dc.lft.to/lastmile_qr_scan"}, "is_disabled": 0, "lon": -77.001376, "name": "5fd92c4e952d7d489f4e0b4ab69d7161", "fusion_lon": 0.0}, {"lat": 38.92227166666667, "fusion_lat": 0.0, "type": "electric_scooter", "bike_id": "7964c02cda3b1da3211901b8cd4e5554", "is_reserved": 0, "rental_uris": {"ios": "https://dc.lft.to/lastmile_qr_scan", "android": "https://dc.lft.to/lastmile_qr_scan"}, "is_disabled": 0, "lon": -77.04698333333333, "name": "7964c02cda3b1da3211901b8cd4e5554", "fusion_lon": 0.0}, {"lat": 38.8593825, "fusion_lat": 0.0, "type": "electric_bike", "bike_id": "c8eb75c0feb4f962fa5aed3f791c481b", "is_reserved": 0, "rental_uris": {"ios": "https://dc.lft.to/lastmile_qr_scan", "android": "https://dc.lft.to/lastmile_qr_scan"}, "is_disabled": 0, "lon": -77.1182895, "name": "c8eb75c0feb4f962fa5aed3f791c481b", "fusion_lon": 0.0}, {"lat": 38.90597066666667, "fusion_lat": 0.0, "type": "electric_scooter", "bike_id": "d2ae08fba2a73c2d7f411378fc42acc7", "is_reserved": 0, "rental_uris": {"ios": "https://dc.lft.to/lastmile_qr_scan", "android": "https://dc.lft.to/lastmile_qr_scan"}, "is_disabled": 0, "lon": -77.06805833333334, "name": "d2ae08fba2a73c2d7f411378fc42acc7", "fusion_lon": 0.0}, {"lat": 38.956814666666666, "fusion_lat": 0.0, "type": "electric_bike", "bike_id": "9bec67c52529b42d6bdfbb091fb91fbd", "is_reserved": 0, "rental_uris": {"ios": "https://dc.lft.to/lastmile_qr_scan", "android": "https://dc.lft.to/lastmile_qr_scan"}, "is_disabled": 0, "lon": -77.02232966666666, "name": "9bec67c52529b42d6bdfbb091fb91fbd", "fusion_lon": 0.0}, {"lat": 38.95846616666667, "fusion_lat": 0.0, "type": "electric_scooter", "bike_id": "9559527712fc02283b285dc58e93015f", "is_reserved": 0, "rental_uris": {"ios": "https://dc.lft.to/lastmile_qr_scan", "android": "https://dc.lft.to/lastmile_qr_scan"}, "is_disabled": 0, "lon": -77.02741166666667, "name": "9559527712fc02283b285dc58e93015f", "fusion_lon": 0.0}, {"lat": 38.90023516666667, "fusion_lat": 0.0, "type": "electric_scooter", "bike_id": "282c09f54f99c724cb87634e46202611", "is_reserved": 0, "rental_uris": {"ios": "https://dc.lft.to/lastmile_qr_scan", "android": "https://dc.lft.to/lastmile_qr_scan"}, "is_disabled": 0, "lon": -76.998625, "name": "282c09f54f99c724cb87634e46202611", "fusion_lon": 0.0}, {"lat": 38.934802, "fusion_lat": 0.0, "type": "electric_scooter", "bike_id": "9b038c97d3259dcadb619e7db676ca5e", "is_reserved": 0, "rental_uris": {"ios": "https://dc.lft.to/lastmile_qr_scan", "android": "https://dc.lft.to/lastmile_qr_scan"}, "is_disabled": 0, "lon": -77.035842, "name": "9b038c97d3259dcadb619e7db676ca5e", "fusion_lon": 0.0}, {"lat": 38.91029316666667, "fusion_lat": 0.0, "type": "electric_scooter", "bike_id": "60919bb8ea3465c740cf0d0983219d7a", "is_reserved": 0, "rental_uris": {"ios": "https://dc.lft.to/lastmile_qr_scan", "android": "https://dc.lft.to/lastmile_qr_scan"}, "is_disabled": 0, "lon": -77.04874116666667, "name": "60919bb8ea3465c740cf0d0983219d7a", "fusion_lon": 0.0}, {"lat": 38.86237233333333, "fusion_lat": 0.0, "type": "electric_scooter", "bike_id": "dc6f4e38c26daeec4284bb2d65f65c84", "is_reserved": 0, "rental_uris": {"ios": "https://dc.lft.to/lastmile_qr_scan", "android": "https://dc.lft.to/lastmile_qr_scan"}, "is_disabled": 0, "lon": -76.99517233333333, "name": "dc6f4e38c26daeec4284bb2d65f65c84", "fusion_lon": 0.0}, {"lat": 38.908955666666664, "fusion_lat": 0.0, "type": "electric_scooter", "bike_id": "6ecea5d673cd6446639cd8a2278869d2", "is_reserved": 0, "rental_uris": {"ios": "https://dc.lft.to/lastmile_qr_scan", "android": "https://dc.lft.to/lastmile_qr_scan"}, "is_disabled": 0, "lon": -77.04466383333333, "name": "6ecea5d673cd6446639cd8a2278869d2", "fusion_lon": 0.0}, {"lat": 38.904687833333334, "fusion_lat": 0.0, "type": "electric_scooter", "bike_id": "ea4a464de72297b087e3c6e4ff0c1e96", "is_reserved": 0, "rental_uris": {"ios": "https://dc.lft.to/lastmile_qr_scan", "android": "https://dc.lft.to/lastmile_qr_scan"}, "is_disabled": 0, "lon": -77.0357585, "name": "ea4a464de72297b087e3c6e4ff0c1e96", "fusion_lon": 0.0}, {"lat": 38.7998445, "fusion_lat": 0.0, "type": "electric_bike", "bike_id": "8d6179f64f753cfc6fee91add98b4927", "is_reserved": 0, "rental_uris": {"ios": "https://dc.lft.to/lastmile_qr_scan", "android": "https://dc.lft.to/lastmile_qr_scan"}, "is_disabled": 0, "lon": -77.12977766666667, "name": "8d6179f64f753cfc6fee91add98b4927", "fusion_lon": 0.0}, {"lat": 38.916788833333335, "fusion_lat": 0.0, "type": "electric_scooter", "bike_id": "6b5bb244939795ff1812f6bcf97b9d82", "is_reserved": 0, "rental_uris": {"ios": "https://dc.lft.to/lastmile_qr_scan", "android": "https://dc.lft.to/lastmile_qr_scan"}, "is_disabled": 0, "lon": -77.03693333333334, "name": "6b5bb244939795ff1812f6bcf97b9d82", "fusion_lon": 0.0}, {"lat": 38.920214333333334, "fusion_lat": 0.0, "type": "electric_scooter", "bike_id": "7a57dc6c7730cc1e13356a498e137c35", "is_reserved": 0, "rental_uris": {"ios": "https://dc.lft.to/lastmile_qr_scan", "android": "https://dc.lft.to/lastmile_qr_scan"}, "is_disabled": 0, "lon": -77.0206975, "name": "7a57dc6c7730cc1e13356a498e137c35", "fusion_lon": 0.0}, {"lat": 38.921684666666664, "fusion_lat": 0.0, "type": "electric_scooter", "bike_id": "9900516613c4ce6b6fc3acecef006381", "is_reserved": 0, "rental_uris": {"ios": "https://dc.lft.to/lastmile_qr_scan", "android": "https://dc.lft.to/lastmile_qr_scan"}, "is_disabled": 0, "lon": -77.03821916666666, "name": "9900516613c4ce6b6fc3acecef006381", "fusion_lon": 0.0}, {"lat": 38.9125735, "fusion_lat": 0.0, "type": "electric_scooter", "bike_id": "fd87e45a13b8d858878c70fdf844aaaa", "is_reserved": 0, "rental_uris": {"ios": "https://dc.lft.to/lastmile_qr_scan", "android": "https://dc.lft.to/lastmile_qr_scan"}, "is_disabled": 0, "lon": -77.04482366666667, "name": "fd87e45a13b8d858878c70fdf844aaaa", "fusion_lon": 0.0}, {"lat": 38.91060983333333, "fusion_lat": 0.0, "type": "electric_scooter", "bike_id": "117a0927f4558be5febc7bba06955359", "is_reserved": 0, "rental_uris": {"ios": "https://dc.lft.to/lastmile_qr_scan", "android": "https://dc.lft.to/lastmile_qr_scan"}, "is_disabled": 0, "lon": -77.0309405, "name": "117a0927f4558be5febc7bba06955359", "fusion_lon": 0.0}, {"lat": 38.91702166666666, "fusion_lat": 0.0, "type": "electric_scooter", "bike_id": "0a2af27d7d7eae0039fd438f4a34d3d7", "is_reserved": 0, "rental_uris": {"ios": "https://dc.lft.to/lastmile_qr_scan", "android": "https://dc.lft.to/lastmile_qr_scan"}, "is_disabled": 0, "lon": -77.0080085, "name": "0a2af27d7d7eae0039fd438f4a34d3d7", "fusion_lon": 0.0}, {"lat": 38.900982166666665, "fusion_lat": 0.0, "type": "electric_scooter", "bike_id": "53ea18a3578bd41df24203974fc8d3d6", "is_reserved": 0, "rental_uris": {"ios": "https://dc.lft.to/lastmile_qr_scan", "android": "https://dc.lft.to/lastmile_qr_scan"}, "is_disabled": 0, "lon": -77.01987416666667, "name": "53ea18a3578bd41df24203974fc8d3d6", "fusion_lon": 0.0}, {"lat": 38.91031433333333, "fusion_lat": 0.0, "type": "electric_scooter", "bike_id": "818e9cfaef0e3f5edcb0547603cdbc55", "is_reserved": 0, "rental_uris": {"ios": "https://dc.lft.to/lastmile_qr_scan", "android": "https://dc.lft.to/lastmile_qr_scan"}, "is_disabled": 0, "lon": -77.00759716666667, "name": "818e9cfaef0e3f5edcb0547603cdbc55", "fusion_lon": 0.0}, {"lat": 38.97683633333333, "fusion_lat": 0.0, "type": "electric_scooter", "bike_id": "6a4d5e3a1b8e2637ea06d63be452dc15", "is_reserved": 0, "rental_uris": {"ios": "https://dc.lft.to/lastmile_qr_scan", "android": "https://dc.lft.to/lastmile_qr_scan"}, "is_disabled": 0, "lon": -77.01663716666667, "name": "6a4d5e3a1b8e2637ea06d63be452dc15", "fusion_lon": 0.0}, {"lat": 38.8777455, "fusion_lat": 0.0, "type": "electric_scooter", "bike_id": "7ce0638cbbb40aa934bf545e0d1eeb31", "is_reserved": 0, "rental_uris": {"ios": "https://dc.lft.to/lastmile_qr_scan", "android": "https://dc.lft.to/lastmile_qr_scan"}, "is_disabled": 0, "lon": -77.00734683333333, "name": "7ce0638cbbb40aa934bf545e0d1eeb31", "fusion_lon": 0.0}, {"lat": 38.9322755, "fusion_lat": 0.0, "type": "electric_scooter", "bike_id": "726bffa58b22b3220de9be5bcd31885c", "is_reserved": 0, "rental_uris": {"ios": "https://dc.lft.to/lastmile_qr_scan", "android": "https://dc.lft.to/lastmile_qr_scan"}, "is_disabled": 0, "lon": -77.038631, "name": "726bffa58b22b3220de9be5bcd31885c", "fusion_lon": 0.0}, {"lat": 38.92417016666667, "fusion_lat": 0.0, "type": "electric_scooter", "bike_id": "574c89bed720a545be0a89661d6966d6", "is_reserved": 0, "rental_uris": {"ios": "https://dc.lft.to/lastmile_qr_scan", "android": "https://dc.lft.to/lastmile_qr_scan"}, "is_disabled": 0, "lon": -77.05067783333334, "name": "574c89bed720a545be0a89661d6966d6", "fusion_lon": 0.0}, {"lat": 38.888886, "fusion_lat": 0.0, "type": "electric_scooter", "bike_id": "5eb095433e10a105086d0981b2391943", "is_reserved": 0, "rental_uris": {"ios": "https://dc.lft.to/lastmile_qr_scan", "android": "https://dc.lft.to/lastmile_qr_scan"}, "is_disabled": 0, "lon": -76.94779983333333, "name": "5eb095433e10a105086d0981b2391943", "fusion_lon": 0.0}, {"lat": 38.88746366666667, "fusion_lat": 0.0, "type": "electric_scooter", "bike_id": "eeab6bd7171276a1cb4bd30231336848", "is_reserved": 0, "rental_uris": {"ios": "https://dc.lft.to/lastmile_qr_scan", "android": "https://dc.lft.to/lastmile_qr_scan"}, "is_disabled": 0, "lon": -77.02556033333333, "name": "eeab6bd7171276a1cb4bd30231336848", "fusion_lon": 0.0}, {"lat": 38.90643633333333, "fusion_lat": 0.0, "type": "electric_scooter", "bike_id": "b63f8b85b995a480618674cf8fa4a3db", "is_reserved": 0, "rental_uris": {"ios": "https://dc.lft.to/lastmile_qr_scan", "android": "https://dc.lft.to/lastmile_qr_scan"}, "is_disabled": 0, "lon": -77.046748, "name": "b63f8b85b995a480618674cf8fa4a3db", "fusion_lon": 0.0}, {"lat": 38.90025133333333, "fusion_lat": 0.0, "type": "electric_scooter", "bike_id": "8435043945fc51ab4aeddcc2cd669f78", "is_reserved": 0, "rental_uris": {"ios": "https://dc.lft.to/lastmile_qr_scan", "android": "https://dc.lft.to/lastmile_qr_scan"}, "is_disabled": 0, "lon": -77.002052, "name": "8435043945fc51ab4aeddcc2cd669f78", "fusion_lon": 0.0}, {"lat": 38.872098333333334, "fusion_lat": 0.0, "type": "electric_scooter", "bike_id": "ca0c0fae1b77b1d7d6992bccfdb704ba", "is_reserved": 0, "rental_uris": {"ios": "https://dc.lft.to/lastmile_qr_scan", "android": "https://dc.lft.to/lastmile_qr_scan"}, "is_disabled": 0, "lon": -77.00970733333334, "name": "ca0c0fae1b77b1d7d6992bccfdb704ba", "fusion_lon": 0.0}, {"lat": 38.79610566666667, "fusion_lat": 0.0, "type": "electric_bike", "bike_id": "05411b9d7d7bf81f40798a9541ced155", "is_reserved": 0, "rental_uris": {"ios": "https://dc.lft.to/lastmile_qr_scan", "android": "https://dc.lft.to/lastmile_qr_scan"}, "is_disabled": 0, "lon": -76.99744183333334, "name": "05411b9d7d7bf81f40798a9541ced155", "fusion_lon": 0.0}, {"lat": 38.93095616666667, "fusion_lat": 0.0, "type": "electric_scooter", "bike_id": "d55825b4cc81aa328de9161267f6a110", "is_reserved": 0, "rental_uris": {"ios": "https://dc.lft.to/lastmile_qr_scan", "android": "https://dc.lft.to/lastmile_qr_scan"}, "is_disabled": 0, "lon": -77.02481133333333, "name": "d55825b4cc81aa328de9161267f6a110", "fusion_lon": 0.0}, {"lat": 38.942643333333336, "fusion_lat": 0.0, "type": "electric_bike", "bike_id": "d8197f9294e3609ef5f755daafd8d731", "is_reserved": 0, "rental_uris": {"ios": "https://dc.lft.to/lastmile_qr_scan", "android": "https://dc.lft.to/lastmile_qr_scan"}, "is_disabled": 0, "lon": -77.02836833333333, "name": "d8197f9294e3609ef5f755daafd8d731", "fusion_lon": 0.0}, {"lat": 38.903482, "fusion_lat": 0.0, "type": "electric_scooter", "bike_id": "34c7cbd46b2c3db98512c657ab39292f", "is_reserved": 0, "rental_uris": {"ios": "https://dc.lft.to/lastmile_qr_scan", "android": "https://dc.lft.to/lastmile_qr_scan"}, "is_disabled": 0, "lon": -77.0268235, "name": "34c7cbd46b2c3db98512c657ab39292f", "fusion_lon": 0.0}, {"lat": 38.91729, "fusion_lat": 0.0, "type": "electric_bike", "bike_id": "1b280bb6949e65188155a11f016d0480", "is_reserved": 0, "rental_uris": {"ios": "https://dc.lft.to/lastmile_qr_scan", "android": "https://dc.lft.to/lastmile_qr_scan"}, "is_disabled": 0, "lon": -77.06952016666666, "name": "1b280bb6949e65188155a11f016d0480", "fusion_lon": 0.0}, {"lat": 38.911751, "fusion_lat": 0.0, "type": "electric_scooter", "bike_id": "5929f70f0f03db5a4f4f202a0d77cc41", "is_reserved": 0, "rental_uris": {"ios": "https://dc.lft.to/lastmile_qr_scan", "android": "https://dc.lft.to/lastmile_qr_scan"}, "is_disabled": 0, "lon": -77.06093433333334, "name": "5929f70f0f03db5a4f4f202a0d77cc41", "fusion_lon": 0.0}, {"lat": 38.9020135, "fusion_lat": 0.0, "type": "electric_scooter", "bike_id": "09cd312b0008fb3a4e55c0f23c663d59", "is_reserved": 0, "rental_uris": {"ios": "https://dc.lft.to/lastmile_qr_scan", "android": "https://dc.lft.to/lastmile_qr_scan"}, "is_disabled": 0, "lon": -77.017897, "name": "09cd312b0008fb3a4e55c0f23c663d59", "fusion_lon": 0.0}, {"lat": 38.9038325, "fusion_lat": 0.0, "type": "electric_scooter", "bike_id": "29e2cf94097eef7368c8134a1bf05ef5", "is_reserved": 0, "rental_uris": {"ios": "https://dc.lft.to/lastmile_qr_scan", "android": "https://dc.lft.to/lastmile_qr_scan"}, "is_disabled": 0, "lon": -77.03642566666667, "name": "29e2cf94097eef7368c8134a1bf05ef5", "fusion_lon": 0.0}, {"lat": 38.9163215, "fusion_lat": 0.0, "type": "electric_scooter", "bike_id": "36995804fd4b185d1af73b8eb0dd6e30", "is_reserved": 0, "rental_uris": {"ios": "https://dc.lft.to/lastmile_qr_scan", "android": "https://dc.lft.to/lastmile_qr_scan"}, "is_disabled": 0, "lon": -77.02401266666666, "name": "36995804fd4b185d1af73b8eb0dd6e30", "fusion_lon": 0.0}, {"lat": 38.91817016666667, "fusion_lat": 0.0, "type": "electric_scooter", "bike_id": "cf68d862e3daeb0f2a546734843e4e4d", "is_reserved": 0, "rental_uris": {"ios": "https://dc.lft.to/lastmile_qr_scan", "android": "https://dc.lft.to/lastmile_qr_scan"}, "is_disabled": 0, "lon": -77.00764366666667, "name": "cf68d862e3daeb0f2a546734843e4e4d", "fusion_lon": 0.0}, {"lat": 38.9077155, "fusion_lat": 0.0, "type": "electric_scooter", "bike_id": "ca13a13c7c7bd35621d3fb71378ca98b", "is_reserved": 0, "rental_uris": {"ios": "https://dc.lft.to/lastmile_qr_scan", "android": "https://dc.lft.to/lastmile_qr_scan"}, "is_disabled": 0, "lon": -77.02974583333334, "name": "ca13a13c7c7bd35621d3fb71378ca98b", "fusion_lon": 0.0}, {"lat": 38.9111865, "fusion_lat": 0.0, "type": "electric_scooter", "bike_id": "98986e03727192c6987b5f0147de084e", "is_reserved": 0, "rental_uris": {"ios": "https://dc.lft.to/lastmile_qr_scan", "android": "https://dc.lft.to/lastmile_qr_scan"}, "is_disabled": 0, "lon": -77.04431983333333, "name": "98986e03727192c6987b5f0147de084e", "fusion_lon": 0.0}, {"lat": 38.92674566666667, "fusion_lat": 0.0, "type": "electric_scooter", "bike_id": "4cdf67d7c0f961dafca07db57782d126", "is_reserved": 0, "rental_uris": {"ios": "https://dc.lft.to/lastmile_qr_scan", "android": "https://dc.lft.to/lastmile_qr_scan"}, "is_disabled": 0, "lon": -77.01532216666666, "name": "4cdf67d7c0f961dafca07db57782d126", "fusion_lon": 0.0}, {"lat": 38.897031, "fusion_lat": 0.0, "type": "electric_scooter", "bike_id": "4ffb3b9276ac741fa48eeec00028fdd3", "is_reserved": 0, "rental_uris": {"ios": "https://dc.lft.to/lastmile_qr_scan", "android": "https://dc.lft.to/lastmile_qr_scan"}, "is_disabled": 0, "lon": -76.93007, "name": "4ffb3b9276ac741fa48eeec00028fdd3", "fusion_lon": 0.0}, {"lat": 38.91267883333333, "fusion_lat": 0.0, "type": "electric_scooter", "bike_id": "016cf762cc6dfb7662fa4966c74c8730", "is_reserved": 0, "rental_uris": {"ios": "https://dc.lft.to/lastmile_qr_scan", "android": "https://dc.lft.to/lastmile_qr_scan"}, "is_disabled": 0, "lon": -77.0383605, "name": "016cf762cc6dfb7662fa4966c74c8730", "fusion_lon": 0.0}, {"lat": 38.866318, "fusion_lat": 0.0, "type": "electric_scooter", "bike_id": "fd35ec51ddcf0be66b6a8afc4b1b65fe", "is_reserved": 0, "rental_uris": {"ios": "https://dc.lft.to/lastmile_qr_scan", "android": "https://dc.lft.to/lastmile_qr_scan"}, "is_disabled": 0, "lon": -76.98903383333334, "name": "fd35ec51ddcf0be66b6a8afc4b1b65fe", "fusion_lon": 0.0}, {"lat": 38.91703616666667, "fusion_lat": 0.0, "type": "electric_scooter", "bike_id": "ee6137ac981d3aa8d46242738093c4f0", "is_reserved": 0, "rental_uris": {"ios": "https://dc.lft.to/lastmile_qr_scan", "android": "https://dc.lft.to/lastmile_qr_scan"}, "is_disabled": 0, "lon": -77.03603466666667, "name": "ee6137ac981d3aa8d46242738093c4f0", "fusion_lon": 0.0}, {"lat": 38.9111625, "fusion_lat": 0.0, "type": "electric_scooter", "bike_id": "888680f1f5fa13c79dc099faba24b554", "is_reserved": 0, "rental_uris": {"ios": "https://dc.lft.to/lastmile_qr_scan", "android": "https://dc.lft.to/lastmile_qr_scan"}, "is_disabled": 0, "lon": -77.0384745, "name": "888680f1f5fa13c79dc099faba24b554", "fusion_lon": 0.0}, {"lat": 38.919901333333335, "fusion_lat": 0.0, "type": "electric_scooter", "bike_id": "58501d026915c760749be8e6d6a13f11", "is_reserved": 0, "rental_uris": {"ios": "https://dc.lft.to/lastmile_qr_scan", "android": "https://dc.lft.to/lastmile_qr_scan"}, "is_disabled": 0, "lon": -77.0236485, "name": "58501d026915c760749be8e6d6a13f11", "fusion_lon": 0.0}, {"lat": 38.9285945, "fusion_lat": 0.0, "type": "electric_scooter", "bike_id": "2e42ae633ab8970b2b926fae1ecf68d4", "is_reserved": 0, "rental_uris": {"ios": "https://dc.lft.to/lastmile_qr_scan", "android": "https://dc.lft.to/lastmile_qr_scan"}, "is_disabled": 0, "lon": -77.02960916666666, "name": "2e42ae633ab8970b2b926fae1ecf68d4", "fusion_lon": 0.0}, {"lat": 38.915513, "fusion_lat": 0.0, "type": "electric_scooter", "bike_id": "435c56e42155b5309976be9b69545b7a", "is_reserved": 0, "rental_uris": {"ios": "https://dc.lft.to/lastmile_qr_scan", "android": "https://dc.lft.to/lastmile_qr_scan"}, "is_disabled": 0, "lon": -77.0380785, "name": "435c56e42155b5309976be9b69545b7a", "fusion_lon": 0.0}, {"lat": 38.86516533333333, "fusion_lat": 0.0, "type": "electric_bike", "bike_id": "2231f1c9181777426410675756de98cc", "is_reserved": 0, "rental_uris": {"ios": "https://dc.lft.to/lastmile_qr_scan", "android": "https://dc.lft.to/lastmile_qr_scan"}, "is_disabled": 0, "lon": -76.9733335, "name": "2231f1c9181777426410675756de98cc", "fusion_lon": 0.0}, {"lat": 38.92600566666667, "fusion_lat": 0.0, "type": "electric_bike", "bike_id": "92b2a157a0df348f4f21115e53b60ee6", "is_reserved": 0, "rental_uris": {"ios": "https://dc.lft.to/lastmile_qr_scan", "android": "https://dc.lft.to/lastmile_qr_scan"}, "is_disabled": 0, "lon": -77.05287966666667, "name": "92b2a157a0df348f4f21115e53b60ee6", "fusion_lon": 0.0}, {"lat": 38.903808166666664, "fusion_lat": 0.0, "type": "electric_scooter", "bike_id": "52f250724deaea8fe09b4230fd43877e", "is_reserved": 0, "rental_uris": {"ios": "https://dc.lft.to/lastmile_qr_scan", "android": "https://dc.lft.to/lastmile_qr_scan"}, "is_disabled": 0, "lon": -77.043413, "name": "52f250724deaea8fe09b4230fd43877e", "fusion_lon": 0.0}, {"lat": 38.91118783333334, "fusion_lat": 0.0, "type": "electric_scooter", "bike_id": "cfce08ab18ba6b42f86cfc55d1d8c95c", "is_reserved": 0, "rental_uris": {"ios": "https://dc.lft.to/lastmile_qr_scan", "android": "https://dc.lft.to/lastmile_qr_scan"}, "is_disabled": 0, "lon": -77.03321016666666, "name": "cfce08ab18ba6b42f86cfc55d1d8c95c", "fusion_lon": 0.0}, {"lat": 38.914877833333335, "fusion_lat": 0.0, "type": "electric_scooter", "bike_id": "260cdb764da52fae15e9d8812f1b64ea", "is_reserved": 0, "rental_uris": {"ios": "https://dc.lft.to/lastmile_qr_scan", "android": "https://dc.lft.to/lastmile_qr_scan"}, "is_disabled": 0, "lon": -77.04537833333333, "name": "260cdb764da52fae15e9d8812f1b64ea", "fusion_lon": 0.0}, {"lat": 38.90728516666667, "fusion_lat": 0.0, "type": "electric_scooter", "bike_id": "b0ff5bd24b5c09c94a820d8dd16ffeb3", "is_reserved": 0, "rental_uris": {"ios": "https://dc.lft.to/lastmile_qr_scan", "android": "https://dc.lft.to/lastmile_qr_scan"}, "is_disabled": 0, "lon": -77.0280905, "name": "b0ff5bd24b5c09c94a820d8dd16ffeb3", "fusion_lon": 0.0}, {"lat": 38.90859366666667, "fusion_lat": 0.0, "type": "electric_bike", "bike_id": "031ebb8c2a5cefcd488f24c18c65cf1e", "is_reserved": 0, "rental_uris": {"ios": "https://dc.lft.to/lastmile_qr_scan", "android": "https://dc.lft.to/lastmile_qr_scan"}, "is_disabled": 0, "lon": -77.0292405, "name": "031ebb8c2a5cefcd488f24c18c65cf1e", "fusion_lon": 0.0}, {"lat": 38.90177033333333, "fusion_lat": 0.0, "type": "electric_scooter", "bike_id": "a63dba882aa8868e4f021f6304c7f5bc", "is_reserved": 0, "rental_uris": {"ios": "https://dc.lft.to/lastmile_qr_scan", "android": "https://dc.lft.to/lastmile_qr_scan"}, "is_disabled": 0, "lon": -76.98303616666666, "name": "a63dba882aa8868e4f021f6304c7f5bc", "fusion_lon": 0.0}, {"lat": 38.884055333333336, "fusion_lat": 0.0, "type": "electric_scooter", "bike_id": "622312cf7ce74204bc9506daa8ef6b83", "is_reserved": 0, "rental_uris": {"ios": "https://dc.lft.to/lastmile_qr_scan", "android": "https://dc.lft.to/lastmile_qr_scan"}, "is_disabled": 0, "lon": -76.953967, "name": "622312cf7ce74204bc9506daa8ef6b83", "fusion_lon": 0.0}, {"lat": 38.892601166666665, "fusion_lat": 0.0, "type": "electric_scooter", "bike_id": "f06f736b1856537dd37f2071d939ec74", "is_reserved": 0, "rental_uris": {"ios": "https://dc.lft.to/lastmile_qr_scan", "android": "https://dc.lft.to/lastmile_qr_scan"}, "is_disabled": 0, "lon": -77.0035735, "name": "f06f736b1856537dd37f2071d939ec74", "fusion_lon": 0.0}, {"lat": 38.89669683333334, "fusion_lat": 0.0, "type": "electric_scooter", "bike_id": "e00f87edc81cbb21715a131b1789d470", "is_reserved": 0, "rental_uris": {"ios": "https://dc.lft.to/lastmile_qr_scan", "android": "https://dc.lft.to/lastmile_qr_scan"}, "is_disabled": 0, "lon": -77.02602416666667, "name": "e00f87edc81cbb21715a131b1789d470", "fusion_lon": 0.0}, {"lat": 38.91021766666667, "fusion_lat": 0.0, "type": "electric_scooter", "bike_id": "44b0dc8de3b0c282369ccc87065d20ed", "is_reserved": 0, "rental_uris": {"ios": "https://dc.lft.to/lastmile_qr_scan", "android": "https://dc.lft.to/lastmile_qr_scan"}, "is_disabled": 0, "lon": -77.04154383333334, "name": "44b0dc8de3b0c282369ccc87065d20ed", "fusion_lon": 0.0}, {"lat": 38.9168355, "fusion_lat": 0.0, "type": "electric_scooter", "bike_id": "e8e896f4aa32bb892b9af0d2099dc378", "is_reserved": 0, "rental_uris": {"ios": "https://dc.lft.to/lastmile_qr_scan", "android": "https://dc.lft.to/lastmile_qr_scan"}, "is_disabled": 0, "lon": -77.02716866666667, "name": "e8e896f4aa32bb892b9af0d2099dc378", "fusion_lon": 0.0}, {"lat": 38.9403715, "fusion_lat": 0.0, "type": "electric_scooter", "bike_id": "e45d5ab153937bc13ea8d4f037c606af", "is_reserved": 0, "rental_uris": {"ios": "https://dc.lft.to/lastmile_qr_scan", "android": "https://dc.lft.to/lastmile_qr_scan"}, "is_disabled": 0, "lon": -77.02910383333334, "name": "e45d5ab153937bc13ea8d4f037c606af", "fusion_lon": 0.0}, {"lat": 38.87635383333333, "fusion_lat": 0.0, "type": "electric_scooter", "bike_id": "5459dc37998f30eede980738d40b7684", "is_reserved": 0, "rental_uris": {"ios": "https://dc.lft.to/lastmile_qr_scan", "android": "https://dc.lft.to/lastmile_qr_scan"}, "is_disabled": 0, "lon": -77.01479516666667, "name": "5459dc37998f30eede980738d40b7684", "fusion_lon": 0.0}, {"lat": 38.908323833333334, "fusion_lat": 0.0, "type": "electric_bike", "bike_id": "ad668242aa584f00c001ab080d342337", "is_reserved": 0, "rental_uris": {"ios": "https://dc.lft.to/lastmile_qr_scan", "android": "https://dc.lft.to/lastmile_qr_scan"}, "is_disabled": 0, "lon": -76.93314216666667, "name": "ad668242aa584f00c001ab080d342337", "fusion_lon": 0.0}, {"lat": 38.94766416666667, "fusion_lat": 0.0, "type": "electric_bike", "bike_id": "5b42d93ec3711115c39e19dec5ca87d3", "is_reserved": 0, "rental_uris": {"ios": "https://dc.lft.to/lastmile_qr_scan", "android": "https://dc.lft.to/lastmile_qr_scan"}, "is_disabled": 0, "lon": -77.03287016666667, "name": "5b42d93ec3711115c39e19dec5ca87d3", "fusion_lon": 0.0}, {"lat": 38.90982983333333, "fusion_lat": 0.0, "type": "electric_scooter", "bike_id": "a685aa2ceec5d021bcd47c76e1c89989", "is_reserved": 0, "rental_uris": {"ios": "https://dc.lft.to/lastmile_qr_scan", "android": "https://dc.lft.to/lastmile_qr_scan"}, "is_disabled": 0, "lon": -77.0319045, "name": "a685aa2ceec5d021bcd47c76e1c89989", "fusion_lon": 0.0}, {"lat": 38.90986066666667, "fusion_lat": 0.0, "type": "electric_scooter", "bike_id": "1246965ed4fd3571faa782e2781cc779", "is_reserved": 0, "rental_uris": {"ios": "https://dc.lft.to/lastmile_qr_scan", "android": "https://dc.lft.to/lastmile_qr_scan"}, "is_disabled": 0, "lon": -77.04404683333334, "name": "1246965ed4fd3571faa782e2781cc779", "fusion_lon": 0.0}, {"lat": 38.907523166666664, "fusion_lat": 0.0, "type": "electric_scooter", "bike_id": "99fe43e7ccc8910b74992229d0cd99e2", "is_reserved": 0, "rental_uris": {"ios": "https://dc.lft.to/lastmile_qr_scan", "android": "https://dc.lft.to/lastmile_qr_scan"}, "is_disabled": 0, "lon": -77.03188766666666, "name": "99fe43e7ccc8910b74992229d0cd99e2", "fusion_lon": 0.0}, {"lat": 38.8829545, "fusion_lat": 0.0, "type": "electric_scooter", "bike_id": "8f90efb4b7f43e00ec67730deaa4c78b", "is_reserved": 0, "rental_uris": {"ios": "https://dc.lft.to/lastmile_qr_scan", "android": "https://dc.lft.to/lastmile_qr_scan"}, "is_disabled": 0, "lon": -77.0256215, "name": "8f90efb4b7f43e00ec67730deaa4c78b", "fusion_lon": 0.0}, {"lat": 38.9614235, "fusion_lat": 0.0, "type": "electric_scooter", "bike_id": "4730ac8f3749dcf84fd52336b6eeed45", "is_reserved": 0, "rental_uris": {"ios": "https://dc.lft.to/lastmile_qr_scan", "android": "https://dc.lft.to/lastmile_qr_scan"}, "is_disabled": 0, "lon": -77.02792116666667, "name": "4730ac8f3749dcf84fd52336b6eeed45", "fusion_lon": 0.0}, {"lat": 38.98367283333333, "fusion_lat": 0.0, "type": "electric_bike", "bike_id": "3e49cb041830bcd1e000ca35c24502e2", "is_reserved": 0, "rental_uris": {"ios": "https://dc.lft.to/lastmile_qr_scan", "android": "https://dc.lft.to/lastmile_qr_scan"}, "is_disabled": 0, "lon": -76.97214066666666, "name": "3e49cb041830bcd1e000ca35c24502e2", "fusion_lon": 0.0}, {"lat": 38.92521133333334, "fusion_lat": 0.0, "type": "electric_scooter", "bike_id": "66bf51d4bbf12168300c555f5eeb061e", "is_reserved": 0, "rental_uris": {"ios": "https://dc.lft.to/lastmile_qr_scan", "android": "https://dc.lft.to/lastmile_qr_scan"}, "is_disabled": 0, "lon": -77.051301, "name": "66bf51d4bbf12168300c555f5eeb061e", "fusion_lon": 0.0}, {"lat": 38.89582133333333, "fusion_lat": 0.0, "type": "electric_bike", "bike_id": "08ac1cee0503b6a6b9615d0038d9d581", "is_reserved": 0, "rental_uris": {"ios": "https://dc.lft.to/lastmile_qr_scan", "android": "https://dc.lft.to/lastmile_qr_scan"}, "is_disabled": 0, "lon": -77.02306833333333, "name": "08ac1cee0503b6a6b9615d0038d9d581", "fusion_lon": 0.0}, {"lat": 38.900153333333336, "fusion_lat": 0.0, "type": "electric_scooter", "bike_id": "82c8a4f4ff7b3ef35ee2daa1db9a28f0", "is_reserved": 0, "rental_uris": {"ios": "https://dc.lft.to/lastmile_qr_scan", "android": "https://dc.lft.to/lastmile_qr_scan"}, "is_disabled": 0, "lon": -76.98009783333333, "name": "82c8a4f4ff7b3ef35ee2daa1db9a28f0", "fusion_lon": 0.0}, {"lat": 38.83136733333333, "fusion_lat": 0.0, "type": "electric_scooter", "bike_id": "b513895e410261ecc5a1bfc606ec4352", "is_reserved": 0, "rental_uris": {"ios": "https://dc.lft.to/lastmile_qr_scan", "android": "https://dc.lft.to/lastmile_qr_scan"}, "is_disabled": 0, "lon": -77.05107, "name": "b513895e410261ecc5a1bfc606ec4352", "fusion_lon": 0.0}, {"lat": 38.86470116666667, "fusion_lat": 0.0, "type": "electric_scooter", "bike_id": "ef1aef27271913731bd3678db8c49217", "is_reserved": 0, "rental_uris": {"ios": "https://dc.lft.to/lastmile_qr_scan", "android": "https://dc.lft.to/lastmile_qr_scan"}, "is_disabled": 0, "lon": -76.98234316666667, "name": "ef1aef27271913731bd3678db8c49217", "fusion_lon": 0.0}, {"lat": 38.9367445, "fusion_lat": 0.0, "type": "electric_scooter", "bike_id": "826b002b08ce58066fc3e63760dd6788", "is_reserved": 0, "rental_uris": {"ios": "https://dc.lft.to/lastmile_qr_scan", "android": "https://dc.lft.to/lastmile_qr_scan"}, "is_disabled": 0, "lon": -77.03567683333333, "name": "826b002b08ce58066fc3e63760dd6788", "fusion_lon": 0.0}, {"lat": 38.90396366666667, "fusion_lat": 0.0, "type": "electric_scooter", "bike_id": "da0567822a8181b9e6f54b2655084205", "is_reserved": 0, "rental_uris": {"ios": "https://dc.lft.to/lastmile_qr_scan", "android": "https://dc.lft.to/lastmile_qr_scan"}, "is_disabled": 0, "lon": -77.03016266666667, "name": "da0567822a8181b9e6f54b2655084205", "fusion_lon": 0.0}, {"lat": 38.92356233333334, "fusion_lat": 0.0, "type": "electric_scooter", "bike_id": "e738400b2edefbca18426490fb4ed14d", "is_reserved": 0, "rental_uris": {"ios": "https://dc.lft.to/lastmile_qr_scan", "android": "https://dc.lft.to/lastmile_qr_scan"}, "is_disabled": 0, "lon": -77.05088783333333, "name": "e738400b2edefbca18426490fb4ed14d", "fusion_lon": 0.0}, {"lat": 38.91728883333333, "fusion_lat": 0.0, "type": "electric_scooter", "bike_id": "a0b8b57f430bf5bd448a642669da00dd", "is_reserved": 0, "rental_uris": {"ios": "https://dc.lft.to/lastmile_qr_scan", "android": "https://dc.lft.to/lastmile_qr_scan"}, "is_disabled": 0, "lon": -77.04174366666666, "name": "a0b8b57f430bf5bd448a642669da00dd", "fusion_lon": 0.0}, {"lat": 38.90250116666667, "fusion_lat": 0.0, "type": "electric_scooter", "bike_id": "888fb49e7e2bae3674d070f7f63acd30", "is_reserved": 0, "rental_uris": {"ios": "https://dc.lft.to/lastmile_qr_scan", "android": "https://dc.lft.to/lastmile_qr_scan"}, "is_disabled": 0, "lon": -77.04393716666667, "name": "888fb49e7e2bae3674d070f7f63acd30", "fusion_lon": 0.0}, {"lat": 38.87208833333333, "fusion_lat": 0.0, "type": "electric_scooter", "bike_id": "9531a8c3b33f5556c4c30557e2bb86b9", "is_reserved": 0, "rental_uris": {"ios": "https://dc.lft.to/lastmile_qr_scan", "android": "https://dc.lft.to/lastmile_qr_scan"}, "is_disabled": 0, "lon": -77.00973016666667, "name": "9531a8c3b33f5556c4c30557e2bb86b9", "fusion_lon": 0.0}, {"lat": 38.99345366666667, "fusion_lat": 0.0, "type": "electric_bike", "bike_id": "808ec3ed048ba868acce94b287b55339", "is_reserved": 0, "rental_uris": {"ios": "https://dc.lft.to/lastmile_qr_scan", "android": "https://dc.lft.to/lastmile_qr_scan"}, "is_disabled": 0, "lon": -77.11579016666667, "name": "808ec3ed048ba868acce94b287b55339", "fusion_lon": 0.0}, {"lat": 38.91693016666667, "fusion_lat": 0.0, "type": "electric_scooter", "bike_id": "61922093ea67c353800cc007977d39a2", "is_reserved": 0, "rental_uris": {"ios": "https://dc.lft.to/lastmile_qr_scan", "android": "https://dc.lft.to/lastmile_qr_scan"}, "is_disabled": 0, "lon": -77.02516116666666, "name": "61922093ea67c353800cc007977d39a2", "fusion_lon": 0.0}, {"lat": 38.92358933333333, "fusion_lat": 0.0, "type": "electric_scooter", "bike_id": "11217953e3e19e9d26ce323283ecdf6e", "is_reserved": 0, "rental_uris": {"ios": "https://dc.lft.to/lastmile_qr_scan", "android": "https://dc.lft.to/lastmile_qr_scan"}, "is_disabled": 0, "lon": -77.0527555, "name": "11217953e3e19e9d26ce323283ecdf6e", "fusion_lon": 0.0}, {"lat": 38.941825, "fusion_lat": 0.0, "type": "electric_scooter", "bike_id": "df63a8162a6d11f1d48121034b730989", "is_reserved": 0, "rental_uris": {"ios": "https://dc.lft.to/lastmile_qr_scan", "android": "https://dc.lft.to/lastmile_qr_scan"}, "is_disabled": 0, "lon": -77.024887, "name": "df63a8162a6d11f1d48121034b730989", "fusion_lon": 0.0}, {"lat": 38.8651325, "fusion_lat": 0.0, "type": "electric_scooter", "bike_id": "b9cbd9978a38c7b61771919f0faf4950", "is_reserved": 0, "rental_uris": {"ios": "https://dc.lft.to/lastmile_qr_scan", "android": "https://dc.lft.to/lastmile_qr_scan"}, "is_disabled": 0, "lon": -76.9901335, "name": "b9cbd9978a38c7b61771919f0faf4950", "fusion_lon": 0.0}, {"lat": 38.925702666666666, "fusion_lat": 0.0, "type": "electric_scooter", "bike_id": "4f66705adaf0afff36ac7bb15e31ffd1", "is_reserved": 0, "rental_uris": {"ios": "https://dc.lft.to/lastmile_qr_scan", "android": "https://dc.lft.to/lastmile_qr_scan"}, "is_disabled": 0, "lon": -77.03218683333333, "name": "4f66705adaf0afff36ac7bb15e31ffd1", "fusion_lon": 0.0}, {"lat": 38.91819916666667, "fusion_lat": 0.0, "type": "electric_scooter", "bike_id": "1b0c38b2f808db604bc1d737db9e825c", "is_reserved": 0, "rental_uris": {"ios": "https://dc.lft.to/lastmile_qr_scan", "android": "https://dc.lft.to/lastmile_qr_scan"}, "is_disabled": 0, "lon": -77.0400635, "name": "1b0c38b2f808db604bc1d737db9e825c", "fusion_lon": 0.0}, {"lat": 38.919603333333335, "fusion_lat": 0.0, "type": "electric_scooter", "bike_id": "e95cfdd08761e75ca5f7dc840fbbf6e1", "is_reserved": 0, "rental_uris": {"ios": "https://dc.lft.to/lastmile_qr_scan", "android": "https://dc.lft.to/lastmile_qr_scan"}, "is_disabled": 0, "lon": -77.03475383333334, "name": "e95cfdd08761e75ca5f7dc840fbbf6e1", "fusion_lon": 0.0}, {"lat": 38.80762466666667, "fusion_lat": 0.0, "type": "electric_bike", "bike_id": "9b556c11b4959fabb72c64c64dc0d020", "is_reserved": 0, "rental_uris": {"ios": "https://dc.lft.to/lastmile_qr_scan", "android": "https://dc.lft.to/lastmile_qr_scan"}, "is_disabled": 0, "lon": -77.09466216666667, "name": "9b556c11b4959fabb72c64c64dc0d020", "fusion_lon": 0.0}, {"lat": 38.9158345, "fusion_lat": 0.0, "type": "electric_scooter", "bike_id": "a914e9040b30c9a2d697b96148d1af9f", "is_reserved": 0, "rental_uris": {"ios": "https://dc.lft.to/lastmile_qr_scan", "android": "https://dc.lft.to/lastmile_qr_scan"}, "is_disabled": 0, "lon": -77.01234383333333, "name": "a914e9040b30c9a2d697b96148d1af9f", "fusion_lon": 0.0}, {"lat": 38.927106333333334, "fusion_lat": 0.0, "type": "electric_scooter", "bike_id": "e96369b5618a431c662984bf72f1f4fd", "is_reserved": 0, "rental_uris": {"ios": "https://dc.lft.to/lastmile_qr_scan", "android": "https://dc.lft.to/lastmile_qr_scan"}, "is_disabled": 0, "lon": -77.024249, "name": "e96369b5618a431c662984bf72f1f4fd", "fusion_lon": 0.0}, {"lat": 38.92222916666667, "fusion_lat": 0.0, "type": "electric_scooter", "bike_id": "12f895f2a4340b5953928d3e52e57ce2", "is_reserved": 0, "rental_uris": {"ios": "https://dc.lft.to/lastmile_qr_scan", "android": "https://dc.lft.to/lastmile_qr_scan"}, "is_disabled": 0, "lon": -77.03300816666666, "name": "12f895f2a4340b5953928d3e52e57ce2", "fusion_lon": 0.0}, {"lat": 38.923070333333335, "fusion_lat": 0.0, "type": "electric_bike", "bike_id": "6e228864e5c4792f6639a5f31eae2e2b", "is_reserved": 0, "rental_uris": {"ios": "https://dc.lft.to/lastmile_qr_scan", "android": "https://dc.lft.to/lastmile_qr_scan"}, "is_disabled": 0, "lon": -77.02259, "name": "6e228864e5c4792f6639a5f31eae2e2b", "fusion_lon": 0.0}, {"lat": 38.90725316666666, "fusion_lat": 0.0, "type": "electric_scooter", "bike_id": "71d13897101497be26fb13edc7e6fc7e", "is_reserved": 0, "rental_uris": {"ios": "https://dc.lft.to/lastmile_qr_scan", "android": "https://dc.lft.to/lastmile_qr_scan"}, "is_disabled": 0, "lon": -77.01470716666667, "name": "71d13897101497be26fb13edc7e6fc7e", "fusion_lon": 0.0}, {"lat": 38.89222383333333, "fusion_lat": 0.0, "type": "electric_scooter", "bike_id": "f32ae8bcd2448fabd29d2d123dbe3d70", "is_reserved": 0, "rental_uris": {"ios": "https://dc.lft.to/lastmile_qr_scan", "android": "https://dc.lft.to/lastmile_qr_scan"}, "is_disabled": 0, "lon": -77.0486295, "name": "f32ae8bcd2448fabd29d2d123dbe3d70", "fusion_lon": 0.0}, {"lat": 38.870153, "fusion_lat": 0.0, "type": "electric_scooter", "bike_id": "0bd28671429d2a5c2ef7b903e954684b", "is_reserved": 0, "rental_uris": {"ios": "https://dc.lft.to/lastmile_qr_scan", "android": "https://dc.lft.to/lastmile_qr_scan"}, "is_disabled": 0, "lon": -76.98089416666667, "name": "0bd28671429d2a5c2ef7b903e954684b", "fusion_lon": 0.0}, {"lat": 38.92319333333333, "fusion_lat": 0.0, "type": "electric_scooter", "bike_id": "ea72474dd8dda5b6e06c511ed9cdee3b", "is_reserved": 0, "rental_uris": {"ios": "https://dc.lft.to/lastmile_qr_scan", "android": "https://dc.lft.to/lastmile_qr_scan"}, "is_disabled": 0, "lon": -77.02117033333333, "name": "ea72474dd8dda5b6e06c511ed9cdee3b", "fusion_lon": 0.0}, {"lat": 38.9236705, "fusion_lat": 0.0, "type": "electric_scooter", "bike_id": "fad794e5d0a3fcf3e56ba87b37cc6e2d", "is_reserved": 0, "rental_uris": {"ios": "https://dc.lft.to/lastmile_qr_scan", "android": "https://dc.lft.to/lastmile_qr_scan"}, "is_disabled": 0, "lon": -77.051062, "name": "fad794e5d0a3fcf3e56ba87b37cc6e2d", "fusion_lon": 0.0}, {"lat": 38.8946985, "fusion_lat": 0.0, "type": "electric_scooter", "bike_id": "e5ff401386c534dec67bf79ef4d8d601", "is_reserved": 0, "rental_uris": {"ios": "https://dc.lft.to/lastmile_qr_scan", "android": "https://dc.lft.to/lastmile_qr_scan"}, "is_disabled": 0, "lon": -77.02272166666667, "name": "e5ff401386c534dec67bf79ef4d8d601", "fusion_lon": 0.0}, {"lat": 38.9193865, "fusion_lat": 0.0, "type": "electric_scooter", "bike_id": "1c133166bdd36690dd2bbb5ee4e90f5d", "is_reserved": 0, "rental_uris": {"ios": "https://dc.lft.to/lastmile_qr_scan", "android": "https://dc.lft.to/lastmile_qr_scan"}, "is_disabled": 0, "lon": -77.04498066666666, "name": "1c133166bdd36690dd2bbb5ee4e90f5d", "fusion_lon": 0.0}, {"lat": 38.8978865, "fusion_lat": 0.0, "type": "electric_scooter", "bike_id": "2221de76a1174b2e485f5abeceeecebf", "is_reserved": 0, "rental_uris": {"ios": "https://dc.lft.to/lastmile_qr_scan", "android": "https://dc.lft.to/lastmile_qr_scan"}, "is_disabled": 0, "lon": -77.01222216666666, "name": "2221de76a1174b2e485f5abeceeecebf", "fusion_lon": 0.0}, {"lat": 38.9289265, "fusion_lat": 0.0, "type": "electric_scooter", "bike_id": "6476d891cd8b325d01a484e9ed433645", "is_reserved": 0, "rental_uris": {"ios": "https://dc.lft.to/lastmile_qr_scan", "android": "https://dc.lft.to/lastmile_qr_scan"}, "is_disabled": 0, "lon": -77.03343183333334, "name": "6476d891cd8b325d01a484e9ed433645", "fusion_lon": 0.0}, {"lat": 38.90026483333333, "fusion_lat": 0.0, "type": "electric_scooter", "bike_id": "bd86ed71762e3e4924d3557b34680df5", "is_reserved": 0, "rental_uris": {"ios": "https://dc.lft.to/lastmile_qr_scan", "android": "https://dc.lft.to/lastmile_qr_scan"}, "is_disabled": 0, "lon": -77.00674383333333, "name": "bd86ed71762e3e4924d3557b34680df5", "fusion_lon": 0.0}, {"lat": 38.92447116666666, "fusion_lat": 0.0, "type": "electric_scooter", "bike_id": "6a7edfb0bd8fac3d02f680cc72075b28", "is_reserved": 0, "rental_uris": {"ios": "https://dc.lft.to/lastmile_qr_scan", "android": "https://dc.lft.to/lastmile_qr_scan"}, "is_disabled": 0, "lon": -77.04112216666667, "name": "6a7edfb0bd8fac3d02f680cc72075b28", "fusion_lon": 0.0},