{"data": {"bikes": [{"lat": 38.95496516666667, "is_disabled": 0, "type": "electric_scooter", "lon": -77.06563516666667, "bike_id": "2164257d1bc922fc8a95f7cbbedeba9c", "fusion_lat": 0.0, "name": "2164257d1bc922fc8a95f7cbbedeba9c", "is_reserved": 0, "rental_uris": {"android": "https://dc.lft.to/lastmile_qr_scan", "ios": "https://dc.lft.to/lastmile_qr_scan"}, "fusion_lon": 0.0}, {"lat": 38.9339855, "is_disabled": 0, "type": "electric_scooter", "lon": -77.05740016666667, "bike_id": "d057384dd4c42dcc31c8e90e44030aa6", "fusion_lat": 0.0, "name": "d057384dd4c42dcc31c8e90e44030aa6", "is_reserved": 0, "rental_uris": {"android": "https://dc.lft.to/lastmile_qr_scan", "ios": "https://dc.lft.to/lastmile_qr_scan"}, "fusion_lon": 0.0}, {"lat": 38.911566, "is_disabled": 0, "type": "electric_scooter", "lon": -77.04854433333334, "bike_id": "9d126b4b31c69bf1459e95aa085ac81a", "fusion_lat": 0.0, "name": "9d126b4b31c69bf1459e95aa085ac81a", "is_reserved": 0, "rental_uris": {"android": "https://dc.lft.to/lastmile_qr_scan", "ios": "https://dc.lft.to/lastmile_qr_scan"}, "fusion_lon": 0.0}, {"lat": 38.91687016666667, "is_disabled": 0, "type": "electric_scooter", "lon": -77.027131, "bike_id": "f876be33984a5e88d7c4ca0bc4bb11d7", "fusion_lat": 0.0, "name": "f876be33984a5e88d7c4ca0bc4bb11d7", "is_reserved": 0, "rental_uris": {"android": "https://dc.lft.to/lastmile_qr_scan", "ios": "https://dc.lft.to/lastmile_qr_scan"}, "fusion_lon": 0.0}, {"lat": 38.92058016666667, "is_disabled": 0, "type": "electric_scooter", "lon": -77.0346145, "bike_id": "4891556f7989e95b5f84f7104a659290", "fusion_lat": 0.0, "name": "4891556f7989e95b5f84f7104a659290", "is_reserved": 0, "rental_uris": {"android": "https://dc.lft.to/lastmile_qr_scan", "ios": "https://dc.lft.to/lastmile_qr_scan"}, "fusion_lon": 0.0}, {"lat": 38.906802166666665, "is_disabled": 0, "type": "electric_scooter", "lon": -77.03633116666667, "bike_id": "ddb65897f61912533cd2eb4fe52a7464", "fusion_lat": 0.0, "name": "ddb65897f61912533cd2eb4fe52a7464", "is_reserved": 0, "rental_uris": {"android": "https://dc.lft.to/lastmile_qr_scan", "ios": "https://dc.lft.to/lastmile_qr_scan"}, "fusion_lon": 0.0}, {"lat": 38.89961816666667, "is_disabled": 0, "type": "electric_scooter", "lon": -77.016414, "bike_id": "b919a325b214df1a709d11ef752efca1", "fusion_lat": 0.0, "name": "b919a325b214df1a709d11ef752efca1", "is_reserved": 0, "rental_uris": {"android": "https://dc.lft.to/lastmile_qr_scan", "ios": "https://dc.lft.to/lastmile_qr_scan"}, "fusion_lon": 0.0}, {"lat": 38.91565033333333, "is_disabled": 0, "type": "electric_scooter", "lon": -77.03843166666667, "bike_id": "746b0a421b6d2d9a09e85390ed540514", "fusion_lat": 0.0, "name": "746b0a421b6d2d9a09e85390ed540514", "is_reserved": 0, "rental_uris": {"android": "https://dc.lft.to/lastmile_qr_scan", "ios": "https://dc.lft.to/lastmile_qr_scan"}, "fusion_lon": 0.0}, {"lat": 38.82869083333333, "is_disabled": 0, "type": "electric_bike", "lon": -77.1122505, "bike_id": "b411f1b00ec209fe6a746c0610b21b20", "fusion_lat": 0.0, "name": "b411f1b00ec209fe6a746c0610b21b20", "is_reserved": 0, "rental_uris": {"android": "https://dc.lft.to/lastmile_qr_scan", "ios": "https://dc.lft.to/lastmile_qr_scan"}, "fusion_lon": 0.0}, {"lat": 38.90572783333333, "is_disabled": 0, "type": "electric_scooter", "lon": -77.0072255, "bike_id": "c69c06f535e744191fc2f6fe18f36857", "fusion_lat": 0.0, "name": "c69c06f535e744191fc2f6fe18f36857", "is_reserved": 0, "rental_uris": {"android": "https://dc.lft.to/lastmile_qr_scan", "ios": "https://dc.lft.to/lastmile_qr_scan"}, "fusion_lon": 0.0}, {"lat": 38.91536516666667, "is_disabled": 0, "type": "electric_scooter", "lon": -77.03206833333333, "bike_id": "0252971633385cc8696b93fb38702f90", "fusion_lat": 0.0, "name": "0252971633385cc8696b93fb38702f90", "is_reserved": 0, "rental_uris": {"android": "https://dc.lft.to/lastmile_qr_scan", "ios": "https://dc.lft.to/lastmile_qr_scan"}, "fusion_lon": 0.0}, {"lat": 38.932423166666666, "is_disabled": 0, "type": "electric_scooter", "lon": -77.02937916666667, "bike_id": "daef8e7b93b25f53044b77a8dee1705c", "fusion_lat": 0.0, "name": "daef8e7b93b25f53044b77a8dee1705c", "is_reserved": 0, "rental_uris": {"android": "https://dc.lft.to/lastmile_qr_scan", "ios": "https://dc.lft.to/lastmile_qr_scan"}, "fusion_lon": 0.0}, {"lat": 38.922540833333336, "is_disabled": 0, "type": "electric_scooter", "lon": -77.04256033333333, "bike_id": "2b364bab7718f271410a1c4ecd56d672", "fusion_lat": 0.0, "name": "2b364bab7718f271410a1c4ecd56d672", "is_reserved": 0, "rental_uris": {"android": "https://dc.lft.to/lastmile_qr_scan", "ios": "https://dc.lft.to/lastmile_qr_scan"}, "fusion_lon": 0.0}, {"lat": 38.903678166666666, "is_disabled": 0, "type": "electric_scooter", "lon": -77.03833666666667, "bike_id": "196d45912d2775e48072ecdca09965b9", "fusion_lat": 0.0, "name": "196d45912d2775e48072ecdca09965b9", "is_reserved": 0, "rental_uris": {"android": "https://dc.lft.to/lastmile_qr_scan", "ios": "https://dc.lft.to/lastmile_qr_scan"}, "fusion_lon": 0.0}, {"lat": 38.893993333333334, "is_disabled": 0, "type": "electric_scooter", "lon": -77.04999666666667, "bike_id": "03fff73a6ccf797e0c3e48efd9f1e596", "fusion_lat": 0.0, "name": "03fff73a6ccf797e0c3e48efd9f1e596", "is_reserved": 0, "rental_uris": {"android": "https://dc.lft.to/lastmile_qr_scan", "ios": "https://dc.lft.to/lastmile_qr_scan"}, "fusion_lon": 0.0}, {"lat": 38.909924, "is_disabled": 0, "type": "electric_scooter", "lon": -76.99737266666666, "bike_id": "8fecf78dd53900de872e62ec7e50ea85", "fusion_lat": 0.0, "name": "8fecf78dd53900de872e62ec7e50ea85", "is_reserved": 0, "rental_uris": {"android": "https://dc.lft.to/lastmile_qr_scan", "ios": "https://dc.lft.to/lastmile_qr_scan"}, "fusion_lon": 0.0}, {"lat": 38.917059333333334, "is_disabled": 0, "type": "electric_scooter", "lon": -77.029164, "bike_id": "8f1319fb1ef6d00e6b44bbbbd8058ca0", "fusion_lat": 0.0, "name": "8f1319fb1ef6d00e6b44bbbbd8058ca0", "is_reserved": 0, "rental_uris": {"android": "https://dc.lft.to/lastmile_qr_scan", "ios": "https://dc.lft.to/lastmile_qr_scan"}, "fusion_lon": 0.0}, {"lat": 38.9167885, "is_disabled": 0, "type": "electric_scooter", "lon": -77.02974983333333, "bike_id": "f5fb5c9973960a252df48f966ea5a8d9", "fusion_lat": 0.0, "name": "f5fb5c9973960a252df48f966ea5a8d9", "is_reserved": 0, "rental_uris": {"android": "https://dc.lft.to/lastmile_qr_scan", "ios": "https://dc.lft.to/lastmile_qr_scan"}, "fusion_lon": 0.0}, {"lat": 39.00480966666667, "is_disabled": 0, "type": "electric_bike", "lon": -76.90133733333333, "bike_id": "c31368e7a9f4825b410f7d195fec61fa", "fusion_lat": 0.0, "name": "c31368e7a9f4825b410f7d195fec61fa", "is_reserved": 0, "rental_uris": {"android": "https://dc.lft.to/lastmile_qr_scan", "ios": "https://dc.lft.to/lastmile_qr_scan"}, "fusion_lon": 0.0}, {"lat": 38.9007735, "is_disabled": 0, "type": "electric_scooter", "lon": -77.002111, "bike_id": "0f0e21a084ff8f3d32bbd1558bea5426", "fusion_lat": 0.0, "name": "0f0e21a084ff8f3d32bbd1558bea5426", "is_reserved": 0, "rental_uris": {"android": "https://dc.lft.to/lastmile_qr_scan", "ios": "https://dc.lft.to/lastmile_qr_scan"}, "fusion_lon": 0.0}, {"lat": 38.92763083333333, "is_disabled": 0, "type": "electric_scooter", "lon": -77.03260766666666, "bike_id": "d1a831262d7e78b3777ec324e3dc2647", "fusion_lat": 0.0, "name": "d1a831262d7e78b3777ec324e3dc2647", "is_reserved": 0, "rental_uris": {"android": "https://dc.lft.to/lastmile_qr_scan", "ios": "https://dc.lft.to/lastmile_qr_scan"}, "fusion_lon": 0.0}, {"lat": 38.882891, "is_disabled": 0, "type": "electric_scooter", "lon": -77.01749066666666, "bike_id": "8b4f91df811d272e1e60a59b40906892", "fusion_lat": 0.0, "name": "8b4f91df811d272e1e60a59b40906892", "is_reserved": 0, "rental_uris": {"android": "https://dc.lft.to/lastmile_qr_scan", "ios": "https://dc.lft.to/lastmile_qr_scan"}, "fusion_lon": 0.0}, {"lat": 38.91713766666667, "is_disabled": 0, "type": "electric_scooter", "lon": -77.03868433333334, "bike_id": "bd2f1dd8035deed66cb3132a7d16d529", "fusion_lat": 0.0, "name": "bd2f1dd8035deed66cb3132a7d16d529", "is_reserved": 0, "rental_uris": {"android": "https://dc.lft.to/lastmile_qr_scan", "ios": "https://dc.lft.to/lastmile_qr_scan"}, "fusion_lon": 0.0}, {"lat": 38.9275965, "is_disabled": 0, "type": "electric_scooter", "lon": -77.00595183333333, "bike_id": "47b7d54f081cfc424337a43f46d80775", "fusion_lat": 0.0, "name": "47b7d54f081cfc424337a43f46d80775", "is_reserved": 0, "rental_uris": {"android": "https://dc.lft.to/lastmile_qr_scan", "ios": "https://dc.lft.to/lastmile_qr_scan"}, "fusion_lon": 0.0}, {"lat": 38.884936833333335, "is_disabled": 0, "type": "electric_scooter", "lon": -77.00728783333334, "bike_id": "ba17958fa60e12beb98828437d5ccd56", "fusion_lat": 0.0, "name": "ba17958fa60e12beb98828437d5ccd56", "is_reserved": 0, "rental_uris": {"android": "https://dc.lft.to/lastmile_qr_scan", "ios": "https://dc.lft.to/lastmile_qr_scan"}, "fusion_lon": 0.0}, {"lat": 38.9396415, "is_disabled": 0, "type": "electric_scooter", "lon": -77.02753133333333, "bike_id": "56aad292ca90d14755ca7cc2efd3e031", "fusion_lat": 0.0, "name": "56aad292ca90d14755ca7cc2efd3e031", "is_reserved": 0, "rental_uris": {"android": "https://dc.lft.to/lastmile_qr_scan", "ios": "https://dc.lft.to/lastmile_qr_scan"}, "fusion_lon": 0.0}, {"lat": 38.93342416666667, "is_disabled": 0, "type": "electric_scooter", "lon": -76.993101, "bike_id": "4d86b322c03f702a1f114266801fc993", "fusion_lat": 0.0, "name": "4d86b322c03f702a1f114266801fc993", "is_reserved": 0, "rental_uris": {"android": "https://dc.lft.to/lastmile_qr_scan", "ios": "https://dc.lft.to/lastmile_qr_scan"}, "fusion_lon": 0.0}, {"lat": 38.91446033333333, "is_disabled": 0, "type": "electric_scooter", "lon": -77.02966033333334, "bike_id": "3a9fa38f07ea3873c928ef3cee725182", "fusion_lat": 0.0, "name": "3a9fa38f07ea3873c928ef3cee725182", "is_reserved": 0, "rental_uris": {"android": "https://dc.lft.to/lastmile_qr_scan", "ios": "https://dc.lft.to/lastmile_qr_scan"}, "fusion_lon": 0.0}, {"lat": 38.90009833333333, "is_disabled": 0, "type": "electric_scooter", "lon": -76.92238866666666, "bike_id": "122b9e5c3b22f03b1ca771768e2f59cb", "fusion_lat": 0.0, "name": "122b9e5c3b22f03b1ca771768e2f59cb", "is_reserved": 0, "rental_uris": {"android": "https://dc.lft.to/lastmile_qr_scan", "ios": "https://dc.lft.to/lastmile_qr_scan"}, "fusion_lon": 0.0}, {"lat": 38.930987333333334, "is_disabled": 0, "type": "electric_scooter", "lon": -77.0266515, "bike_id": "e6baf1670d44b83fbc4cba85dcecb85e", "fusion_lat": 0.0, "name": "e6baf1670d44b83fbc4cba85dcecb85e", "is_reserved": 0, "rental_uris": {"android": "https://dc.lft.to/lastmile_qr_scan", "ios": "https://dc.lft.to/lastmile_qr_scan"}, "fusion_lon": 0.0}, {"lat": 38.927506, "is_disabled": 0, "type": "electric_scooter", "lon": -77.0296195, "bike_id": "290caa4e64c31059beaee8eede91ec92", "fusion_lat": 0.0, "name": "290caa4e64c31059beaee8eede91ec92", "is_reserved": 0, "rental_uris": {"android": "https://dc.lft.to/lastmile_qr_scan", "ios": "https://dc.lft.to/lastmile_qr_scan"}, "fusion_lon": 0.0}, {"lat": 38.931334666666665, "is_disabled": 0, "type": "electric_scooter", "lon": -77.02154766666666, "bike_id": "b4ec5285c9261455b7acde336fd8c9a3", "fusion_lat": 0.0, "name": "b4ec5285c9261455b7acde336fd8c9a3", "is_reserved": 0, "rental_uris": {"android": "https://dc.lft.to/lastmile_qr_scan", "ios": "https://dc.lft.to/lastmile_qr_scan"}, "fusion_lon": 0.0}, {"lat": 38.90064433333333, "is_disabled": 0, "type": "electric_scooter", "lon": -77.02591333333334, "bike_id": "94a47cf9416e418f886dc182845d249c", "fusion_lat": 0.0, "name": "94a47cf9416e418f886dc182845d249c", "is_reserved": 0, "rental_uris": {"android": "https://dc.lft.to/lastmile_qr_scan", "ios": "https://dc.lft.to/lastmile_qr_scan"}, "fusion_lon": 0.0}, {"lat": 38.91555233333333, "is_disabled": 0, "type": "electric_scooter", "lon": -77.024286, "bike_id": "107b95525deb5dfe4cf667c499357061", "fusion_lat": 0.0, "name": "107b95525deb5dfe4cf667c499357061", "is_reserved": 0, "rental_uris": {"android": "https://dc.lft.to/lastmile_qr_scan", "ios": "https://dc.lft.to/lastmile_qr_scan"}, "fusion_lon": 0.0}, {"lat": 38.904805, "is_disabled": 0, "type": "electric_scooter", "lon": -77.02971883333333, "bike_id": "36fca229d1e1acdef748f7bb4eb3ef56", "fusion_lat": 0.0, "name": "36fca229d1e1acdef748f7bb4eb3ef56", "is_reserved": 0, "rental_uris": {"android": "https://dc.lft.to/lastmile_qr_scan", "ios": "https://dc.lft.to/lastmile_qr_scan"}, "fusion_lon": 0.0}, {"lat": 38.8748435, "is_disabled": 0, "type": "electric_scooter", "lon": -77.00273516666667, "bike_id": "1a5d6f5c338702f306dc49f083fde78c", "fusion_lat": 0.0, "name": "1a5d6f5c338702f306dc49f083fde78c", "is_reserved": 0, "rental_uris": {"android": "https://dc.lft.to/lastmile_qr_scan", "ios": "https://dc.lft.to/lastmile_qr_scan"}, "fusion_lon": 0.0}, {"lat": 38.869973, "is_disabled": 0, "type": "electric_bike", "lon": -77.065689, "bike_id": "33ced062109d78adaa7396ed439a20ba", "fusion_lat": 0.0, "name": "33ced062109d78adaa7396ed439a20ba", "is_reserved": 0, "rental_uris": {"android": "https://dc.lft.to/lastmile_qr_scan", "ios": "https://dc.lft.to/lastmile_qr_scan"}, "fusion_lon": 0.0}, {"lat": 38.92410516666666, "is_disabled": 0, "type": "electric_scooter", "lon": -77.02746533333334, "bike_id": "8f7c34ea394ceb65897b1d0457fc76f2", "fusion_lat": 0.0, "name": "8f7c34ea394ceb65897b1d0457fc76f2", "is_reserved": 0, "rental_uris": {"android": "https://dc.lft.to/lastmile_qr_scan", "ios": "https://dc.lft.to/lastmile_qr_scan"}, "fusion_lon": 0.0}, {"lat": 38.87631066666667, "is_disabled": 0, "type": "electric_scooter", "lon": -76.96530633333333, "bike_id": "83cec15c6de1a6ec8b8778abf9ff70e2", "fusion_lat": 0.0, "name": "83cec15c6de1a6ec8b8778abf9ff70e2", "is_reserved": 0, "rental_uris": {"android": "https://dc.lft.to/lastmile_qr_scan", "ios": "https://dc.lft.to/lastmile_qr_scan"}, "fusion_lon": 0.0}, {"lat": 38.83417466666667, "is_disabled": 0, "type": "electric_bike", "lon": -77.10375816666667, "bike_id": "b4cd4cf54e87dbeaa6cae33a0b0b0e82", "fusion_lat": 0.0, "name": "b4cd4cf54e87dbeaa6cae33a0b0b0e82", "is_reserved": 0, "rental_uris": {"android": "https://dc.lft.to/lastmile_qr_scan", "ios": "https://dc.lft.to/lastmile_qr_scan"}, "fusion_lon": 0.0}, {"lat": 38.90610366666667, "is_disabled": 0, "type": "electric_scooter", "lon": -76.989848, "bike_id": "d94ff3903979cc22071c7e532be23b0a", "fusion_lat": 0.0, "name": "d94ff3903979cc22071c7e532be23b0a", "is_reserved": 0, "rental_uris": {"android": "https://dc.lft.to/lastmile_qr_scan", "ios": "https://dc.lft.to/lastmile_qr_scan"}, "fusion_lon": 0.0}, {"lat": 38.90391533333333, "is_disabled": 0, "type": "electric_scooter", "lon": -77.0426565, "bike_id": "707601f57bcf36c04251b932d84ad806", "fusion_lat": 0.0, "name": "707601f57bcf36c04251b932d84ad806", "is_reserved": 0, "rental_uris": {"android": "https://dc.lft.to/lastmile_qr_scan", "ios": "https://dc.lft.to/lastmile_qr_scan"}, "fusion_lon": 0.0}, {"lat": 38.8446505, "is_disabled": 0, "type": "electric_bike", "lon": -76.98753683333334, "bike_id": "8218b060ffde3c806af1b10755742337", "fusion_lat": 0.0, "name": "8218b060ffde3c806af1b10755742337", "is_reserved": 0, "rental_uris": {"android": "https://dc.lft.to/lastmile_qr_scan", "ios": "https://dc.lft.to/lastmile_qr_scan"}, "fusion_lon": 0.0}, {"lat": 38.93444133333333, "is_disabled": 0, "type": "electric_scooter", "lon": -77.03094883333333, "bike_id": "f1af24669273769514d942f6d3b41669", "fusion_lat": 0.0, "name": "f1af24669273769514d942f6d3b41669", "is_reserved": 0, "rental_uris": {"android": "https://dc.lft.to/lastmile_qr_scan", "ios": "https://dc.lft.to/lastmile_qr_scan"}, "fusion_lon": 0.0}, {"lat": 38.900333833333335, "is_disabled": 0, "type": "electric_scooter", "lon": -76.98372833333333, "bike_id": "f0ecb1f9b7fe281d4ca0faf6d18af9bb", "fusion_lat": 0.0, "name": "f0ecb1f9b7fe281d4ca0faf6d18af9bb", "is_reserved": 0, "rental_uris": {"android": "https://dc.lft.to/lastmile_qr_scan", "ios": "https://dc.lft.to/lastmile_qr_scan"}, "fusion_lon": 0.0}, {"lat": 38.85934983333333, "is_disabled": 0, "type": "electric_scooter", "lon": -76.99718716666666, "bike_id": "85b4303853e52eb47ca7e91650898a65", "fusion_lat": 0.0, "name": "85b4303853e52eb47ca7e91650898a65", "is_reserved": 0, "rental_uris": {"android": "https://dc.lft.to/lastmile_qr_scan", "ios": "https://dc.lft.to/lastmile_qr_scan"}, "fusion_lon": 0.0}, {"lat": 38.86521033333333, "is_disabled": 0, "type": "electric_scooter", "lon": -76.9902865, "bike_id": "cf47c8a246d77560c75751c0fdb565dc", "fusion_lat": 0.0, "name": "cf47c8a246d77560c75751c0fdb565dc", "is_reserved": 0, "rental_uris": {"android": "https://dc.lft.to/lastmile_qr_scan", "ios": "https://dc.lft.to/lastmile_qr_scan"}, "fusion_lon": 0.0}, {"lat": 38.927387, "is_disabled": 0, "type": "electric_bike", "lon": -77.034154, "bike_id": "4b40172ce19e0a9224d4a007b82b7d67", "fusion_lat": 0.0, "name": "4b40172ce19e0a9224d4a007b82b7d67", "is_reserved": 0, "rental_uris": {"android": "https://dc.lft.to/lastmile_qr_scan", "ios": "https://dc.lft.to/lastmile_qr_scan"}, "fusion_lon": 0.0}, {"lat": 38.88181516666667, "is_disabled": 0, "type": "electric_scooter", "lon": -77.03573983333334, "bike_id": "f80bc250ca39717a38f168223c19d254", "fusion_lat": 0.0, "name": "f80bc250ca39717a38f168223c19d254", "is_reserved": 0, "rental_uris": {"android": "https://dc.lft.to/lastmile_qr_scan", "ios": "https://dc.lft.to/lastmile_qr_scan"}, "fusion_lon": 0.0}, {"lat": 38.957318666666666, "is_disabled": 0, "type": "electric_scooter", "lon": -77.02402933333333, "bike_id": "d34104b0ad14ca06d30f48dd986a4863", "fusion_lat": 0.0, "name": "d34104b0ad14ca06d30f48dd986a4863", "is_reserved": 0, "rental_uris": {"android": "https://dc.lft.to/lastmile_qr_scan", "ios": "https://dc.lft.to/lastmile_qr_scan"}, "fusion_lon": 0.0}, {"lat": 38.911724166666666, "is_disabled": 0, "type": "electric_scooter", "lon": -77.03205533333333, "bike_id": "00ca3a500053df7df88194b10e7d2418", "fusion_lat": 0.0, "name": "00ca3a500053df7df88194b10e7d2418", "is_reserved": 0, "rental_uris": {"android": "https://dc.lft.to/lastmile_qr_scan", "ios": "https://dc.lft.to/lastmile_qr_scan"}, "fusion_lon": 0.0}, {"lat": 38.9236045, "is_disabled": 0, "type": "electric_scooter", "lon": -77.041545, "bike_id": "065f77a7b6fa88920be1a934d9e003f2", "fusion_lat": 0.0, "name": "065f77a7b6fa88920be1a934d9e003f2", "is_reserved": 0, "rental_uris": {"android": "https://dc.lft.to/lastmile_qr_scan", "ios": "https://dc.lft.to/lastmile_qr_scan"}, "fusion_lon": 0.0}, {"lat": 38.946329666666664, "is_disabled": 0, "type": "electric_scooter", "lon": -77.02522683333333, "bike_id": "84926ddcf107768b4be7f773de016e60", "fusion_lat": 0.0, "name": "84926ddcf107768b4be7f773de016e60", "is_reserved": 0, "rental_uris": {"android": "https://dc.lft.to/lastmile_qr_scan", "ios": "https://dc.lft.to/lastmile_qr_scan"}, "fusion_lon": 0.0}, {"lat": 38.89747966666667, "is_disabled": 0, "type": "electric_scooter", "lon": -77.04671466666667, "bike_id": "f8a2c924a7368fab9b054bbdfda75464", "fusion_lat": 0.0, "name": "f8a2c924a7368fab9b054bbdfda75464", "is_reserved": 0, "rental_uris": {"android": "https://dc.lft.to/lastmile_qr_scan", "ios": "https://dc.lft.to/lastmile_qr_scan"}, "fusion_lon": 0.0}, {"lat": 38.92301333333333, "is_disabled": 0, "type": "electric_scooter", "lon": -77.0427115, "bike_id": "015545af700d6b58da14041dfd6fb872", "fusion_lat": 0.0, "name": "015545af700d6b58da14041dfd6fb872", "is_reserved": 0, "rental_uris": {"android": "https://dc.lft.to/lastmile_qr_scan", "ios": "https://dc.lft.to/lastmile_qr_scan"}, "fusion_lon": 0.0}, {"lat": 38.901257333333334, "is_disabled": 0, "type": "electric_scooter", "lon": -76.9872305, "bike_id": "7f7fd5a26e8a6412859f43da0ff39825", "fusion_lat": 0.0, "name": "7f7fd5a26e8a6412859f43da0ff39825", "is_reserved": 0, "rental_uris": {"android": "https://dc.lft.to/lastmile_qr_scan", "ios": "https://dc.lft.to/lastmile_qr_scan"}, "fusion_lon": 0.0}, {"lat": 38.927514333333335, "is_disabled": 0, "type": "electric_scooter", "lon": -77.02424833333333, "bike_id": "0d6b1d50097b1e3062528dee4a085a7f", "fusion_lat": 0.0, "name": "0d6b1d50097b1e3062528dee4a085a7f", "is_reserved": 0, "rental_uris": {"android": "https://dc.lft.to/lastmile_qr_scan", "ios": "https://dc.lft.to/lastmile_qr_scan"}, "fusion_lon": 0.0}, {"lat": 38.897356, "is_disabled": 0, "type": "electric_scooter", "lon": -77.02469766666667, "bike_id": "39cf3eca6e2806957653b85b94b40a26", "fusion_lat": 0.0, "name": "39cf3eca6e2806957653b85b94b40a26", "is_reserved": 0, "rental_uris": {"android": "https://dc.lft.to/lastmile_qr_scan", "ios": "https://dc.lft.to/lastmile_qr_scan"}, "fusion_lon": 0.0}, {"lat": 38.90032133333333, "is_disabled": 0, "type": "electric_scooter", "lon": -77.04413733333334, "bike_id": "acfceb870b831d34790046efe0e9464b", "fusion_lat": 0.0, "name": "acfceb870b831d34790046efe0e9464b", "is_reserved": 0, "rental_uris": {"android": "https://dc.lft.to/lastmile_qr_scan", "ios": "https://dc.lft.to/lastmile_qr_scan"}, "fusion_lon": 0.0}, {"lat": 38.91914516666667, "is_disabled": 0, "type": "electric_scooter", "lon": -77.03177816666667, "bike_id": "21cf15720d5d7de030bd9fa3c6bd1a5d", "fusion_lat": 0.0, "name": "21cf15720d5d7de030bd9fa3c6bd1a5d", "is_reserved": 0, "rental_uris": {"android": "https://dc.lft.to/lastmile_qr_scan", "ios": "https://dc.lft.to/lastmile_qr_scan"}, "fusion_lon": 0.0}, {"lat": 38.907328666666665, "is_disabled": 0, "type": "electric_scooter", "lon": -77.04788483333333, "bike_id": "d1bec5408ba57dac4ae1feca7afec432", "fusion_lat": 0.0, "name": "d1bec5408ba57dac4ae1feca7afec432", "is_reserved": 0, "rental_uris": {"android": "https://dc.lft.to/lastmile_qr_scan", "ios": "https://dc.lft.to/lastmile_qr_scan"}, "fusion_lon": 0.0}, {"lat": 38.911194, "is_disabled": 0, "type": "electric_scooter", "lon": -77.04222466666667, "bike_id": "a748186a9f22c0ef77c9e62734861f0f", "fusion_lat": 0.0, "name": "a748186a9f22c0ef77c9e62734861f0f", "is_reserved": 0, "rental_uris": {"android": "https://dc.lft.to/lastmile_qr_scan", "ios": "https://dc.lft.to/lastmile_qr_scan"}, "fusion_lon": 0.0}, {"lat": 38.92246316666667, "is_disabled": 0, "type": "electric_scooter", "lon": -77.030846, "bike_id": "d7ebfd59d1193e840129fc43cb9c6158", "fusion_lat": 0.0, "name": "d7ebfd59d1193e840129fc43cb9c6158", "is_reserved": 0, "rental_uris": {"android": "https://dc.lft.to/lastmile_qr_scan", "ios": "https://dc.lft.to/lastmile_qr_scan"}, "fusion_lon": 0.0}, {"lat": 38.9417125, "is_disabled": 0, "type": "electric_scooter", "lon": -77.03284433333333, "bike_id": "80cf889e01fc1d156addc935c935fc65", "fusion_lat": 0.0, "name": "80cf889e01fc1d156addc935c935fc65", "is_reserved": 0, "rental_uris": {"android": "https://dc.lft.to/lastmile_qr_scan", "ios": "https://dc.lft.to/lastmile_qr_scan"}, "fusion_lon": 0.0}, {"lat": 38.941568, "is_disabled": 0, "type": "electric_scooter", "lon": -77.03289316666667, "bike_id": "b028e74c5a1c1010df171cdd118f4be6", "fusion_lat": 0.0, "name": "b028e74c5a1c1010df171cdd118f4be6", "is_reserved": 0, "rental_uris": {"android": "https://dc.lft.to/lastmile_qr_scan", "ios": "https://dc.lft.to/lastmile_qr_scan"}, "fusion_lon": 0.0}, {"lat": 38.873420333333335, "is_disabled": 0, "type": "electric_scooter", "lon": -76.991624, "bike_id": "91b36d70e13a0728279a5191fde8b7e5", "fusion_lat": 0.0, "name": "91b36d70e13a0728279a5191fde8b7e5", "is_reserved": 0, "rental_uris": {"android": "https://dc.lft.to/lastmile_qr_scan", "ios": "https://dc.lft.to/lastmile_qr_scan"}, "fusion_lon": 0.0}, {"lat": 38.90237333333334, "is_disabled": 0, "type": "electric_scooter", "lon": -77.02606, "bike_id": "1c4012c21d7f84f48ca675287dd7a40f", "fusion_lat": 0.0, "name": "1c4012c21d7f84f48ca675287dd7a40f", "is_reserved": 0, "rental_uris": {"android": "https://dc.lft.to/lastmile_qr_scan", "ios": "https://dc.lft.to/lastmile_qr_scan"}, "fusion_lon": 0.0}, {"lat": 38.90136283333333, "is_disabled": 0, "type": "electric_scooter", "lon": -77.03300333333334, "bike_id": "42cfcb246a2a7f35c86cf9105e0ffb75", "fusion_lat": 0.0, "name": "42cfcb246a2a7f35c86cf9105e0ffb75", "is_reserved": 0, "rental_uris": {"android": "https://dc.lft.to/lastmile_qr_scan", "ios": "https://dc.lft.to/lastmile_qr_scan"}, "fusion_lon": 0.0}, {"lat": 38.9507545, "is_disabled": 0, "type": "electric_scooter", "lon": -77.06656483333333, "bike_id": "d4e798bef637f6db0c382c81e73faa3e", "fusion_lat": 0.0, "name": "d4e798bef637f6db0c382c81e73faa3e", "is_reserved": 0, "rental_uris": {"android": "https://dc.lft.to/lastmile_qr_scan", "ios": "https://dc.lft.to/lastmile_qr_scan"}, "fusion_lon": 0.0}, {"lat": 38.87631116666667, "is_disabled": 0, "type": "electric_scooter", "lon": -76.9652405, "bike_id": "b8d21e08bfac7f60fa0b56ab1c043d3f", "fusion_lat": 0.0, "name": "b8d21e08bfac7f60fa0b56ab1c043d3f", "is_reserved": 0, "rental_uris": {"android": "https://dc.lft.to/lastmile_qr_scan", "ios": "https://dc.lft.to/lastmile_qr_scan"}, "fusion_lon": 0.0}, {"lat": 38.90368216666667, "is_disabled": 0, "type": "electric_scooter", "lon": -77.04331116666667, "bike_id": "689862366f0f4eb3e6a5e2d7c40ee9e4", "fusion_lat": 0.0, "name": "689862366f0f4eb3e6a5e2d7c40ee9e4", "is_reserved": 0, "rental_uris": {"android": "https://dc.lft.to/lastmile_qr_scan", "ios": "https://dc.lft.to/lastmile_qr_scan"}, "fusion_lon": 0.0}, {"lat": 38.9212215, "is_disabled": 0, "type": "electric_scooter", "lon": -77.041214, "bike_id": "c824c8572267aed5649ae0f202c9cabe", "fusion_lat": 0.0, "name": "c824c8572267aed5649ae0f202c9cabe", "is_reserved": 0, "rental_uris": {"android": "https://dc.lft.to/lastmile_qr_scan", "ios": "https://dc.lft.to/lastmile_qr_scan"}, "fusion_lon": 0.0}, {"lat": 38.95293916666667, "is_disabled": 0, "type": "electric_bike", "lon": -76.98205833333333, "bike_id": "7169663d1b1db1af78a968c75d776dff", "fusion_lat": 0.0, "name": "7169663d1b1db1af78a968c75d776dff", "is_reserved": 0, "rental_uris": {"android": "https://dc.lft.to/lastmile_qr_scan", "ios": "https://dc.lft.to/lastmile_qr_scan"}, "fusion_lon": 0.0}, {"lat": 38.85209966666667, "is_disabled": 0, "type": "electric_bike", "lon": -76.99580516666667, "bike_id": "5e565e3de38ac308e27569d7e0f614b2", "fusion_lat": 0.0, "name": "5e565e3de38ac308e27569d7e0f614b2", "is_reserved": 0, "rental_uris": {"android": "https://dc.lft.to/lastmile_qr_scan", "ios": "https://dc.lft.to/lastmile_qr_scan"}, "fusion_lon": 0.0}, {"lat": 38.933395, "is_disabled": 0, "type": "electric_scooter", "lon": -76.9930575, "bike_id": "b601081a1ede856b38e9d032628531a4", "fusion_lat": 0.0, "name": "b601081a1ede856b38e9d032628531a4", "is_reserved": 0, "rental_uris": {"android": "https://dc.lft.to/lastmile_qr_scan", "ios": "https://dc.lft.to/lastmile_qr_scan"}, "fusion_lon": 0.0}, {"lat": 38.90645033333333, "is_disabled": 0, "type": "electric_scooter", "lon": -76.99025716666667, "bike_id": "9cb540dea5f9e006fa2ef446bfa72a21", "fusion_lat": 0.0, "name": "9cb540dea5f9e006fa2ef446bfa72a21", "is_reserved": 0, "rental_uris": {"android": "https://dc.lft.to/lastmile_qr_scan", "ios": "https://dc.lft.to/lastmile_qr_scan"}, "fusion_lon": 0.0}, {"lat": 38.86620083333333, "is_disabled": 0, "type": "electric_scooter", "lon": -76.98638633333333, "bike_id": "acb47be7b228407ad4d8ef3b52f8803d", "fusion_lat": 0.0, "name": "acb47be7b228407ad4d8ef3b52f8803d", "is_reserved": 0, "rental_uris": {"android": "https://dc.lft.to/lastmile_qr_scan", "ios": "https://dc.lft.to/lastmile_qr_scan"}, "fusion_lon": 0.0}, {"lat": 38.93748466666667, "is_disabled": 0, "type": "electric_scooter", "lon": -77.0345305, "bike_id": "8dbc0d7690eae8a8f25154510baca355", "fusion_lat": 0.0, "name": "8dbc0d7690eae8a8f25154510baca355", "is_reserved": 0, "rental_uris": {"android": "https://dc.lft.to/lastmile_qr_scan", "ios": "https://dc.lft.to/lastmile_qr_scan"}, "fusion_lon": 0.0}, {"lat": 38.908023166666666, "is_disabled": 0, "type": "electric_scooter", "lon": -77.03133266666667, "bike_id": "48fd9e369a3eb5e817de9830ab5d7694", "fusion_lat": 0.0, "name": "48fd9e369a3eb5e817de9830ab5d7694", "is_reserved": 0, "rental_uris": {"android": "https://dc.lft.to/lastmile_qr_scan", "ios": "https://dc.lft.to/lastmile_qr_scan"}, "fusion_lon": 0.0}, {"lat": 38.844269833333335, "is_disabled": 0, "type": "electric_scooter", "lon": -76.9978115, "bike_id": "d7a6436427b5d643d6ba766ad391707a", "fusion_lat": 0.0, "name": "d7a6436427b5d643d6ba766ad391707a", "is_reserved": 0, "rental_uris": {"android": "https://dc.lft.to/lastmile_qr_scan", "ios": "https://dc.lft.to/lastmile_qr_scan"}, "fusion_lon": 0.0}, {"lat": 38.80494566666667, "is_disabled": 0, "type": "electric_bike", "lon": -77.04130183333334, "bike_id": "0203139e5a1b5ee3fe78988890a1cf3c", "fusion_lat": 0.0, "name": "0203139e5a1b5ee3fe78988890a1cf3c", "is_reserved": 0, "rental_uris": {"android": "https://dc.lft.to/lastmile_qr_scan", "ios": "https://dc.lft.to/lastmile_qr_scan"}, "fusion_lon": 0.0}, {"lat": 38.956107333333335, "is_disabled": 0, "type": "electric_scooter", "lon": -77.01016333333334, "bike_id": "ef56fe906df9d2055f58e5b0603a3953", "fusion_lat": 0.0, "name": "ef56fe906df9d2055f58e5b0603a3953", "is_reserved": 0, "rental_uris": {"android": "https://dc.lft.to/lastmile_qr_scan", "ios": "https://dc.lft.to/lastmile_qr_scan"}, "fusion_lon": 0.0}, {"lat": 38.90766216666667, "is_disabled": 0, "type": "electric_scooter", "lon": -77.00221033333334, "bike_id": "00f69932dacbb43d29af32c5178ee7d1", "fusion_lat": 0.0, "name": "00f69932dacbb43d29af32c5178ee7d1", "is_reserved": 0, "rental_uris": {"android": "https://dc.lft.to/lastmile_qr_scan", "ios": "https://dc.lft.to/lastmile_qr_scan"}, "fusion_lon": 0.0}, {"lat": 38.921000666666664, "is_disabled": 0, "type": "electric_scooter", "lon": -77.03921566666666, "bike_id": "384c09760a38c86df8a83a2937402fdd", "fusion_lat": 0.0, "name": "384c09760a38c86df8a83a2937402fdd", "is_reserved": 0, "rental_uris": {"android": "https://dc.lft.to/lastmile_qr_scan", "ios": "https://dc.lft.to/lastmile_qr_scan"}, "fusion_lon": 0.0}, {"lat": 38.91838216666667, "is_disabled": 0, "type": "electric_scooter", "lon": -77.02319333333334, "bike_id": "193ae34ad0513ea48a70c04c2266a1a8", "fusion_lat": 0.0, "name": "193ae34ad0513ea48a70c04c2266a1a8", "is_reserved": 0, "rental_uris": {"android": "https://dc.lft.to/lastmile_qr_scan", "ios": "https://dc.lft.to/lastmile_qr_scan"}, "fusion_lon": 0.0}, {"lat": 38.8767325, "is_disabled": 0, "type": "electric_scooter", "lon": -77.00408516666667, "bike_id": "9dad10bed029efd33e9e75fdec1eec43", "fusion_lat": 0.0, "name": "9dad10bed029efd33e9e75fdec1eec43", "is_reserved": 0, "rental_uris": {"android": "https://dc.lft.to/lastmile_qr_scan", "ios": "https://dc.lft.to/lastmile_qr_scan"}, "fusion_lon": 0.0}, {"lat": 38.84035033333333, "is_disabled": 0, "type": "electric_bike", "lon": -76.97621983333333, "bike_id": "38216c6d35a1a0153b44bd673591882d", "fusion_lat": 0.0, "name": "38216c6d35a1a0153b44bd673591882d", "is_reserved": 0, "rental_uris": {"android": "https://dc.lft.to/lastmile_qr_scan", "ios": "https://dc.lft.to/lastmile_qr_scan"}, "fusion_lon": 0.0}, {"lat": 38.917477, "is_disabled": 0, "type": "electric_scooter", "lon": -77.00758, "bike_id": "f3858134e18f72c86e40baf753eaa345", "fusion_lat": 0.0, "name": "f3858134e18f72c86e40baf753eaa345", "is_reserved": 0, "rental_uris": {"android": "https://dc.lft.to/lastmile_qr_scan", "ios": "https://dc.lft.to/lastmile_qr_scan"}, "fusion_lon": 0.0}, {"lat": 38.931762166666665, "is_disabled": 0, "type": "electric_scooter", "lon": -77.02815416666667, "bike_id": "3decddf2e912256a25da5e1cef8d5a1d", "fusion_lat": 0.0, "name": "3decddf2e912256a25da5e1cef8d5a1d", "is_reserved": 0, "rental_uris": {"android": "https://dc.lft.to/lastmile_qr_scan", "ios": "https://dc.lft.to/lastmile_qr_scan"}, "fusion_lon": 0.0}, {"lat": 38.921149666666665, "is_disabled": 0, "type": "electric_scooter", "lon": -77.0421555, "bike_id": "1473a564191202ab76c3df2b5747d7c2", "fusion_lat": 0.0, "name": "1473a564191202ab76c3df2b5747d7c2", "is_reserved": 0, "rental_uris": {"android": "https://dc.lft.to/lastmile_qr_scan", "ios": "https://dc.lft.to/lastmile_qr_scan"}, "fusion_lon": 0.0}, {"lat": 38.89044783333333, "is_disabled": 0, "type": "electric_scooter", "lon": -76.95140583333334, "bike_id": "5791418a25cf68e92125aed7e94c93bf", "fusion_lat": 0.0, "name": "5791418a25cf68e92125aed7e94c93bf", "is_reserved": 0, "rental_uris": {"android": "https://dc.lft.to/lastmile_qr_scan", "ios": "https://dc.lft.to/lastmile_qr_scan"}, "fusion_lon": 0.0}, {"lat": 38.9057215, "is_disabled": 0, "type": "electric_scooter", "lon": -77.03408466666667, "bike_id": "0488bf2d1b25d3c0038dba97378bb536", "fusion_lat": 0.0, "name": "0488bf2d1b25d3c0038dba97378bb536", "is_reserved": 0, "rental_uris": {"android": "https://dc.lft.to/lastmile_qr_scan", "ios": "https://dc.lft.to/lastmile_qr_scan"}, "fusion_lon": 0.0}, {"lat": 38.91048683333333, "is_disabled": 0, "type": "electric_scooter", "lon": -77.01508666666666, "bike_id": "064e8e5e3482dc72b0765dc7f76fba36", "fusion_lat": 0.0, "name": "064e8e5e3482dc72b0765dc7f76fba36", "is_reserved": 0, "rental_uris": {"android": "https://dc.lft.to/lastmile_qr_scan", "ios": "https://dc.lft.to/lastmile_qr_scan"}, "fusion_lon": 0.0}, {"lat": 38.90646433333333, "is_disabled": 0, "type": "electric_scooter", "lon": -77.02587783333334, "bike_id": "1944099c352e79f646e3190ce5eba0f9", "fusion_lat": 0.0, "name": "1944099c352e79f646e3190ce5eba0f9", "is_reserved": 0, "rental_uris": {"android": "https://dc.lft.to/lastmile_qr_scan", "ios": "https://dc.lft.to/lastmile_qr_scan"}, "fusion_lon": 0.0}, {"lat": 38.901010166666666, "is_disabled": 0, "type": "electric_scooter", "lon": -76.98483966666667, "bike_id": "38a9b66cfbdce5739cc50513ae1ea049", "fusion_lat": 0.0, "name": "38a9b66cfbdce5739cc50513ae1ea049", "is_reserved": 0, "rental_uris": {"android": "https://dc.lft.to/lastmile_qr_scan", "ios": "https://dc.lft.to/lastmile_qr_scan"}, "fusion_lon": 0.0}, {"lat": 38.907768833333336, "is_disabled": 0, "type": "electric_scooter", "lon": -77.0425235, "bike_id": "75a85ab962a6c0cd466baea92803c1e1", "fusion_lat": 0.0, "name": "75a85ab962a6c0cd466baea92803c1e1", "is_reserved": 0, "rental_uris": {"android": "https://dc.lft.to/lastmile_qr_scan", "ios": "https://dc.lft.to/lastmile_qr_scan"}, "fusion_lon": 0.0}, {"lat": 38.93417866666667, "is_disabled": 0, "type": "electric_scooter", "lon": -77.057808, "bike_id": "4e9b17fd057a4c70814aed3619ae6c04", "fusion_lat": 0.0, "name": "4e9b17fd057a4c70814aed3619ae6c04", "is_reserved": 0, "rental_uris": {"android": "https://dc.lft.to/lastmile_qr_scan", "ios": "https://dc.lft.to/lastmile_qr_scan"}, "fusion_lon": 0.0}, {"lat": 38.9037645, "is_disabled": 0, "type": "electric_scooter", "lon": -77.04337283333334, "bike_id": "332553277fbe6e4b8963390d8c578cb1", "fusion_lat": 0.0, "name": "332553277fbe6e4b8963390d8c578cb1", "is_reserved": 0, "rental_uris": {"android": "https://dc.lft.to/lastmile_qr_scan", "ios": "https://dc.lft.to/lastmile_qr_scan"}, "fusion_lon": 0.0}, {"lat": 38.910599166666664, "is_disabled": 0, "type": "electric_scooter", "lon": -77.02655533333333, "bike_id": "9b4f01146e295bb8d5fb93f04ad25113", "fusion_lat": 0.0, "name": "9b4f01146e295bb8d5fb93f04ad25113", "is_reserved": 0, "rental_uris": {"android": "https://dc.lft.to/lastmile_qr_scan", "ios": "https://dc.lft.to/lastmile_qr_scan"}, "fusion_lon": 0.0}, {"lat": 38.9219875, "is_disabled": 0, "type": "electric_scooter", "lon": -77.04010816666667, "bike_id": "ca9596f0016f920310cea5b81eefa5d2", "fusion_lat": 0.0, "name": "ca9596f0016f920310cea5b81eefa5d2", "is_reserved": 0, "rental_uris": {"android": "https://dc.lft.to/lastmile_qr_scan", "ios": "https://dc.lft.to/lastmile_qr_scan"}, "fusion_lon": 0.0}, {"lat": 38.86906666666667, "is_disabled": 0, "type": "electric_bike", "lon": -77.131804, "bike_id": "c732f16df878d125e97cf1d6adbe250e", "fusion_lat": 0.0, "name": "c732f16df878d125e97cf1d6adbe250e", "is_reserved": 0, "rental_uris": {"android": "https://dc.lft.to/lastmile_qr_scan", "ios": "https://dc.lft.to/lastmile_qr_scan"}, "fusion_lon": 0.0}, {"lat": 38.9540335, "is_disabled": 0, "type": "electric_scooter", "lon": -77.03624233333333, "bike_id": "8241d11b1a9fc5af14f7c529b5a30a63", "fusion_lat": 0.0, "name": "8241d11b1a9fc5af14f7c529b5a30a63", "is_reserved": 0, "rental_uris": {"android": "https://dc.lft.to/lastmile_qr_scan", "ios": "https://dc.lft.to/lastmile_qr_scan"}, "fusion_lon": 0.0}, {"lat": 38.886016166666664, "is_disabled": 0, "type": "electric_scooter", "lon": -77.022069, "bike_id": "4b53676aec9b7e073f8ca4ee149a098f", "fusion_lat": 0.0, "name": "4b53676aec9b7e073f8ca4ee149a098f", "is_reserved": 0, "rental_uris": {"android": "https://dc.lft.to/lastmile_qr_scan", "ios": "https://dc.lft.to/lastmile_qr_scan"}, "fusion_lon": 0.0}, {"lat": 38.90487566666667, "is_disabled": 0, "type": "electric_scooter", "lon": -77.05739266666667, "bike_id": "8714e4c04a8fcc12571a8b6d9a58c569", "fusion_lat": 0.0, "name": "8714e4c04a8fcc12571a8b6d9a58c569", "is_reserved": 0, "rental_uris": {"android": "https://dc.lft.to/lastmile_qr_scan", "ios": "https://dc.lft.to/lastmile_qr_scan"}, "fusion_lon": 0.0}, {"lat": 38.904576166666665, "is_disabled": 0, "type": "electric_scooter", "lon": -77.04879816666667, "bike_id": "1d369ea5fec946f9595f6f03a9e45caa", "fusion_lat": 0.0, "name": "1d369ea5fec946f9595f6f03a9e45caa", "is_reserved": 0, "rental_uris": {"android": "https://dc.lft.to/lastmile_qr_scan", "ios": "https://dc.lft.to/lastmile_qr_scan"}, "fusion_lon": 0.0}, {"lat": 38.90562333333333, "is_disabled": 0, "type": "electric_scooter", "lon": -77.0361725, "bike_id": "070be3e58ac7d984367adebd7a02f68c", "fusion_lat": 0.0, "name": "070be3e58ac7d984367adebd7a02f68c", "is_reserved": 0, "rental_uris": {"android": "https://dc.lft.to/lastmile_qr_scan", "ios": "https://dc.lft.to/lastmile_qr_scan"}, "fusion_lon": 0.0}, {"lat": 38.92190766666667, "is_disabled": 0, "type": "electric_scooter", "lon": -77.04248516666667, "bike_id": "fa32e2d729dadae8424327e7e865144f", "fusion_lat": 0.0, "name": "fa32e2d729dadae8424327e7e865144f", "is_reserved": 0, "rental_uris": {"android": "https://dc.lft.to/lastmile_qr_scan", "ios": "https://dc.lft.to/lastmile_qr_scan"}, "fusion_lon": 0.0}, {"lat": 38.96528266666667, "is_disabled": 0, "type": "electric_bike", "lon": -77.03518816666667, "bike_id": "fb8c5328b092588e7a03c0e4fb5f071a", "fusion_lat": 0.0, "name": "fb8c5328b092588e7a03c0e4fb5f071a", "is_reserved": 0, "rental_uris": {"android": "https://dc.lft.to/lastmile_qr_scan", "ios": "https://dc.lft.to/lastmile_qr_scan"}, "fusion_lon": 0.0}, {"lat": 38.91742, "is_disabled": 0, "type": "electric_scooter", "lon": -77.025211, "bike_id": "b4f7537ac770276eb9419c9cd4404ba3", "fusion_lat": 0.0, "name": "b4f7537ac770276eb9419c9cd4404ba3", "is_reserved": 0, "rental_uris": {"android": "https://dc.lft.to/lastmile_qr_scan", "ios": "https://dc.lft.to/lastmile_qr_scan"}, "fusion_lon": 0.0}, {"lat": 38.915180166666666, "is_disabled": 0, "type": "electric_scooter", "lon": -77.03838983333333, "bike_id": "82d47d15c9853107980b3cdb1943c9dc", "fusion_lat": 0.0, "name": "82d47d15c9853107980b3cdb1943c9dc", "is_reserved": 0, "rental_uris": {"android": "https://dc.lft.to/lastmile_qr_scan", "ios": "https://dc.lft.to/lastmile_qr_scan"}, "fusion_lon": 0.0}, {"lat": 38.924062666666664, "is_disabled": 0, "type": "electric_scooter", "lon": -77.0298105, "bike_id": "11d5d14494ff87df341fa21583c33cee", "fusion_lat": 0.0, "name": "11d5d14494ff87df341fa21583c33cee", "is_reserved": 0, "rental_uris": {"android": "https://dc.lft.to/lastmile_qr_scan", "ios": "https://dc.lft.to/lastmile_qr_scan"}, "fusion_lon": 0.0}, {"lat": 38.89607566666667, "is_disabled": 0, "type": "electric_scooter", "lon": -77.00928183333333, "bike_id": "100944032c0e29dca771ab913f159669", "fusion_lat": 0.0, "name": "100944032c0e29dca771ab913f159669", "is_reserved": 0, "rental_uris": {"android": "https://dc.lft.to/lastmile_qr_scan", "ios": "https://dc.lft.to/lastmile_qr_scan"}, "fusion_lon": 0.0}, {"lat": 38.92777183333333, "is_disabled": 0, "type": "electric_scooter", "lon": -77.05255166666667, "bike_id": "2943e0d5a07a27ea6fba536b82244782", "fusion_lat": 0.0, "name": "2943e0d5a07a27ea6fba536b82244782", "is_reserved": 0, "rental_uris": {"android": "https://dc.lft.to/lastmile_qr_scan", "ios": "https://dc.lft.to/lastmile_qr_scan"}, "fusion_lon": 0.0}, {"lat": 38.935656, "is_disabled": 0, "type": "electric_scooter", "lon": -77.03258516666666, "bike_id": "93662d22af426891a9e6e9138bbca0c4", "fusion_lat": 0.0, "name": "93662d22af426891a9e6e9138bbca0c4", "is_reserved": 0, "rental_uris": {"android": "https://dc.lft.to/lastmile_qr_scan", "ios": "https://dc.lft.to/lastmile_qr_scan"}, "fusion_lon": 0.0}, {"lat": 38.931134166666666, "is_disabled": 0, "type": "electric_scooter", "lon": -77.030159, "bike_id": "899f796f8cd2589b9bd5420a1b085511", "fusion_lat": 0.0, "name": "899f796f8cd2589b9bd5420a1b085511", "is_reserved": 0, "rental_uris": {"android": "https://dc.lft.to/lastmile_qr_scan", "ios": "https://dc.lft.to/lastmile_qr_scan"}, "fusion_lon": 0.0}, {"lat": 38.93378883333333, "is_disabled": 0, "type": "electric_scooter", "lon": -76.99506866666667, "bike_id": "2254024f48d26a458d0be2fc6afb6c0a", "fusion_lat": 0.0, "name": "2254024f48d26a458d0be2fc6afb6c0a", "is_reserved": 0, "rental_uris": {"android": "https://dc.lft.to/lastmile_qr_scan", "ios": "https://dc.lft.to/lastmile_qr_scan"}, "fusion_lon": 0.0}, {"lat": 38.91478133333333, "is_disabled": 0, "type": "electric_scooter", "lon": -77.03195833333334, "bike_id": "fa333e4edb71e39ee01fa7c4fe3d22cd", "fusion_lat": 0.0, "name": "fa333e4edb71e39ee01fa7c4fe3d22cd", "is_reserved": 0, "rental_uris": {"android": "https://dc.lft.to/lastmile_qr_scan", "ios": "https://dc.lft.to/lastmile_qr_scan"}, "fusion_lon": 0.0}, {"lat": 38.923981, "is_disabled": 0, "type": "electric_scooter", "lon": -77.07329266666666, "bike_id": "5a2ce44e2b900448a7725fb7f465c196", "fusion_lat": 0.0, "name": "5a2ce44e2b900448a7725fb7f465c196", "is_reserved": 0, "rental_uris": {"android": "https://dc.lft.to/lastmile_qr_scan", "ios": "https://dc.lft.to/lastmile_qr_scan"}, "fusion_lon": 0.0}, {"lat": 38.90938666666667, "is_disabled": 0, "type": "electric_scooter", "lon": -77.03212233333333, "bike_id": "8f2552f4b7cb15e415b5bf39d860f232", "fusion_lat": 0.0, "name": "8f2552f4b7cb15e415b5bf39d860f232", "is_reserved": 0, "rental_uris": {"android": "https://dc.lft.to/lastmile_qr_scan", "ios": "https://dc.lft.to/lastmile_qr_scan"}, "fusion_lon": 0.0}, {"lat": 38.89658283333333, "is_disabled": 0, "type": "electric_scooter", "lon": -77.03973783333333, "bike_id": "53862c0a8bc3ac0dfe93f69ef7ddce8f", "fusion_lat": 0.0, "name": "53862c0a8bc3ac0dfe93f69ef7ddce8f", "is_reserved": 0, "rental_uris": {"android": "https://dc.lft.to/lastmile_qr_scan", "ios": "https://dc.lft.to/lastmile_qr_scan"}, "fusion_lon": 0.0}, {"lat": 38.90054216666667, "is_disabled": 0, "type": "electric_scooter", "lon": -77.00194516666667, "bike_id": "b036e578fb915a7bd26203727970053f", "fusion_lat": 0.0, "name": "b036e578fb915a7bd26203727970053f", "is_reserved": 0, "rental_uris": {"android": "https://dc.lft.to/lastmile_qr_scan", "ios": "https://dc.lft.to/lastmile_qr_scan"}, "fusion_lon": 0.0}, {"lat": 38.9057835, "is_disabled": 0, "type": "electric_scooter", "lon": -77.008881, "bike_id": "c376074334a053234041cef46550b5a4", "fusion_lat": 0.0, "name": "c376074334a053234041cef46550b5a4", "is_reserved": 0, "rental_uris": {"android": "https://dc.lft.to/lastmile_qr_scan", "ios": "https://dc.lft.to/lastmile_qr_scan"}, "fusion_lon": 0.0}, {"lat": 38.915665833333335, "is_disabled": 0, "type": "electric_scooter", "lon": -77.02245016666667, "bike_id": "ea812ca3a5d59a08194f5a5203cb8e91", "fusion_lat": 0.0, "name": "ea812ca3a5d59a08194f5a5203cb8e91", "is_reserved": 0, "rental_uris": {"android": "https://dc.lft.to/lastmile_qr_scan", "ios": "https://dc.lft.to/lastmile_qr_scan"}, "fusion_lon": 0.0}, {"lat": 38.9212865, "is_disabled": 0, "type": "electric_scooter", "lon": -77.04127433333333, "bike_id": "1ccd3a2d7799e84c1c1498c982446878", "fusion_lat": 0.0, "name": "1ccd3a2d7799e84c1c1498c982446878", "is_reserved": 0, "rental_uris": {"android": "https://dc.lft.to/lastmile_qr_scan", "ios": "https://dc.lft.to/lastmile_qr_scan"}, "fusion_lon": 0.0}, {"lat": 38.9045395, "is_disabled": 0, "type": "electric_scooter", "lon": -76.994609, "bike_id": "ad4ee668f8f487787c80472092c25539", "fusion_lat": 0.0, "name": "ad4ee668f8f487787c80472092c25539", "is_reserved": 0, "rental_uris": {"android": "https://dc.lft.to/lastmile_qr_scan", "ios": "https://dc.lft.to/lastmile_qr_scan"}, "fusion_lon": 0.0}, {"lat": 38.918927833333335, "is_disabled": 0, "type": "electric_scooter", "lon": -77.03910116666667, "bike_id": "35a4d53417cfda3414970faab1a49752", "fusion_lat": 0.0, "name": "35a4d53417cfda3414970faab1a49752", "is_reserved": 0, "rental_uris": {"android": "https://dc.lft.to/lastmile_qr_scan", "ios": "https://dc.lft.to/lastmile_qr_scan"}, "fusion_lon": 0.0}, {"lat": 38.904096333333335, "is_disabled": 0, "type": "electric_scooter", "lon": -77.06897766666667, "bike_id": "c7417e51283e67fefb77194634a03f95", "fusion_lat": 0.0, "name": "c7417e51283e67fefb77194634a03f95", "is_reserved": 0, "rental_uris": {"android": "https://dc.lft.to/lastmile_qr_scan", "ios": "https://dc.lft.to/lastmile_qr_scan"}, "fusion_lon": 0.0}, {"lat": 38.89561616666667, "is_disabled": 0, "type": "electric_bike", "lon": -77.12733183333333, "bike_id": "3520f13b32b336f924bc7330bcbf6d81", "fusion_lat": 0.0, "name": "3520f13b32b336f924bc7330bcbf6d81", "is_reserved": 0, "rental_uris": {"android": "https://dc.lft.to/lastmile_qr_scan", "ios": "https://dc.lft.to/lastmile_qr_scan"}, "fusion_lon": 0.0}, {"lat": 38.93002766666667, "is_disabled": 0, "type": "electric_scooter", "lon": -77.0211185, "bike_id": "2d8bd553b6ac90ffbd8558ecd9288485", "fusion_lat": 0.0, "name": "2d8bd553b6ac90ffbd8558ecd9288485", "is_reserved": 0, "rental_uris": {"android": "https://dc.lft.to/lastmile_qr_scan", "ios": "https://dc.lft.to/lastmile_qr_scan"}, "fusion_lon": 0.0}, {"lat": 38.924414, "is_disabled": 0, "type": "electric_scooter", "lon": -77.033586, "bike_id": "7fa2fd6e5b54424ecbc263042594c2b2", "fusion_lat": 0.0, "name": "7fa2fd6e5b54424ecbc263042594c2b2", "is_reserved": 0, "rental_uris": {"android": "https://dc.lft.to/lastmile_qr_scan", "ios": "https://dc.lft.to/lastmile_qr_scan"}, "fusion_lon": 0.0}, {"lat": 38.9302885, "is_disabled": 0, "type": "electric_scooter", "lon": -77.02038883333333, "bike_id": "3240215575bc0e6b69481a785d6aed62", "fusion_lat": 0.0, "name": "3240215575bc0e6b69481a785d6aed62", "is_reserved": 0, "rental_uris": {"android": "https://dc.lft.to/lastmile_qr_scan", "ios": "https://dc.lft.to/lastmile_qr_scan"}, "fusion_lon": 0.0}, {"lat": 38.914709, "is_disabled": 0, "type": "electric_scooter", "lon": -77.06690866666666, "bike_id": "8bf06d824c83c1858aa2cdc33713698a", "fusion_lat": 0.0, "name": "8bf06d824c83c1858aa2cdc33713698a", "is_reserved": 0, "rental_uris": {"android": "https://dc.lft.to/lastmile_qr_scan", "ios": "https://dc.lft.to/lastmile_qr_scan"}, "fusion_lon": 0.0}, {"lat": 38.909911666666666, "is_disabled": 0, "type": "electric_scooter", "lon": -76.99738183333334, "bike_id": "eca8a23507a87db6566bc94e57c9eaad", "fusion_lat": 0.0, "name": "eca8a23507a87db6566bc94e57c9eaad", "is_reserved": 0, "rental_uris": {"android": "https://dc.lft.to/lastmile_qr_scan", "ios": "https://dc.lft.to/lastmile_qr_scan"}, "fusion_lon": 0.0}, {"lat": 38.924283333333335, "is_disabled": 0, "type": "electric_scooter", "lon": -77.03423266666667, "bike_id": "e4e1bad0f5902fbc984947e4ed3a4ecb", "fusion_lat": 0.0, "name": "e4e1bad0f5902fbc984947e4ed3a4ecb", "is_reserved": 0, "rental_uris": {"android": "https://dc.lft.to/lastmile_qr_scan", "ios": "https://dc.lft.to/lastmile_qr_scan"}, "fusion_lon": 0.0}, {"lat": 38.92409266666667, "is_disabled": 0, "type": "electric_scooter", "lon": -77.0341805, "bike_id": "c01fab7548f977fac703ff0b5391b218", "fusion_lat": 0.0, "name": "c01fab7548f977fac703ff0b5391b218", "is_reserved": 0, "rental_uris": {"android": "https://dc.lft.to/lastmile_qr_scan", "ios": "https://dc.lft.to/lastmile_qr_scan"}, "fusion_lon": 0.0}, {"lat": 38.92656516666667, "is_disabled": 0, "type": "electric_scooter", "lon": -77.02416016666666, "bike_id": "68f83a6afe17792b171280eb7d957ff0", "fusion_lat": 0.0, "name": "68f83a6afe17792b171280eb7d957ff0", "is_reserved": 0, "rental_uris": {"android": "https://dc.lft.to/lastmile_qr_scan", "ios": "https://dc.lft.to/lastmile_qr_scan"}, "fusion_lon": 0.0}, {"lat": 38.929670333333334, "is_disabled": 0, "type": "electric_scooter", "lon": -77.03216183333333, "bike_id": "382628708388d59637aff99e5a02d50a", "fusion_lat": 0.0, "name": "382628708388d59637aff99e5a02d50a", "is_reserved": 0, "rental_uris": {"android": "https://dc.lft.to/lastmile_qr_scan", "ios": "https://dc.lft.to/lastmile_qr_scan"}, "fusion_lon": 0.0}, {"lat": 38.86663883333333, "is_disabled": 0, "type": "electric_scooter", "lon": -76.989055, "bike_id": "0c365032b4f91506b804860a54744c46", "fusion_lat": 0.0, "name": "0c365032b4f91506b804860a54744c46", "is_reserved": 0, "rental_uris": {"android": "https://dc.lft.to/lastmile_qr_scan", "ios": "https://dc.lft.to/lastmile_qr_scan"}, "fusion_lon": 0.0}, {"lat": 38.9011355, "is_disabled": 0, "type": "electric_scooter", "lon": -77.04995166666667, "bike_id": "1d83be754091670e51b589073d1ae2ef", "fusion_lat": 0.0, "name": "1d83be754091670e51b589073d1ae2ef", "is_reserved": 0, "rental_uris": {"android": "https://dc.lft.to/lastmile_qr_scan", "ios": "https://dc.lft.to/lastmile_qr_scan"}, "fusion_lon": 0.0}, {"lat": 38.9224045, "is_disabled": 0, "type": "electric_scooter", "lon": -77.03061233333334, "bike_id": "73b2df420b7bad12ef369eb490b3862c", "fusion_lat": 0.0, "name": "73b2df420b7bad12ef369eb490b3862c", "is_reserved": 0, "rental_uris": {"android": "https://dc.lft.to/lastmile_qr_scan", "ios": "https://dc.lft.to/lastmile_qr_scan"}, "fusion_lon": 0.0}, {"lat": 38.900899, "is_disabled": 0, "type": "electric_scooter", "lon": -77.05060133333333, "bike_id": "8cf105c2808243dbaadc00bf61f22138", "fusion_lat": 0.0, "name": "8cf105c2808243dbaadc00bf61f22138", "is_reserved": 0, "rental_uris": {"android": "https://dc.lft.to/lastmile_qr_scan", "ios": "https://dc.lft.to/lastmile_qr_scan"}, "fusion_lon": 0.0}, {"lat": 38.98508733333333, "is_disabled": 0, "type": "electric_bike", "lon": -76.98211983333333, "bike_id": "3c5be1dba9276ff6adcb6a98fb9f917a", "fusion_lat": 0.0, "name": "3c5be1dba9276ff6adcb6a98fb9f917a", "is_reserved": 0, "rental_uris": {"android": "https://dc.lft.to/lastmile_qr_scan", "ios": "https://dc.lft.to/lastmile_qr_scan"}, "fusion_lon": 0.0}, {"lat": 38.80573833333333, "is_disabled": 0, "type": "electric_bike", "lon": -77.0686045, "bike_id": "ff9b4b392c3ccaecc80be513c544fa76", "fusion_lat": 0.0, "name": "ff9b4b392c3ccaecc80be513c544fa76", "is_reserved": 0, "rental_uris": {"android": "https://dc.lft.to/lastmile_qr_scan", "ios": "https://dc.lft.to/lastmile_qr_scan"}, "fusion_lon": 0.0}, {"lat": 38.90012016666667, "is_disabled": 0, "type": "electric_scooter", "lon": -76.99569483333333, "bike_id": "76ef8e0700ba32ad700c1c078dfcbaae", "fusion_lat": 0.0, "name": "76ef8e0700ba32ad700c1c078dfcbaae", "is_reserved": 0, "rental_uris": {"android": "https://dc.lft.to/lastmile_qr_scan", "ios": "https://dc.lft.to/lastmile_qr_scan"}, "fusion_lon": 0.0}, {"lat": 38.930767833333334, "is_disabled": 0, "type": "electric_scooter", "lon": -77.03411616666666, "bike_id": "3680a6382e6589fbc56dc21b439f7848", "fusion_lat": 0.0, "name": "3680a6382e6589fbc56dc21b439f7848", "is_reserved": 0, "rental_uris": {"android": "https://dc.lft.to/lastmile_qr_scan", "ios": "https://dc.lft.to/lastmile_qr_scan"}, "fusion_lon": 0.0}, {"lat": 38.920306333333336, "is_disabled": 0, "type": "electric_scooter", "lon": -77.0304465, "bike_id": "17633209e8cb23692282aebffeafcbf0", "fusion_lat": 0.0, "name": "17633209e8cb23692282aebffeafcbf0", "is_reserved": 0, "rental_uris": {"android": "https://dc.lft.to/lastmile_qr_scan", "ios": "https://dc.lft.to/lastmile_qr_scan"}, "fusion_lon": 0.0}, {"lat": 38.920153166666665, "is_disabled": 0, "type": "electric_bike", "lon": -77.04530433333333, "bike_id": "3b4da06dcc093763d626066e5db1c014", "fusion_lat": 0.0, "name": "3b4da06dcc093763d626066e5db1c014", "is_reserved": 0, "rental_uris": {"android": "https://dc.lft.to/lastmile_qr_scan", "ios": "https://dc.lft.to/lastmile_qr_scan"}, "fusion_lon": 0.0}, {"lat": 38.920337333333336, "is_disabled": 0, "type": "electric_scooter", "lon": -77.0315405, "bike_id": "cd835b2f0d685f8c51704eee49b9dee1", "fusion_lat": 0.0, "name": "cd835b2f0d685f8c51704eee49b9dee1", "is_reserved": 0, "rental_uris": {"android": "https://dc.lft.to/lastmile_qr_scan", "ios": "https://dc.lft.to/lastmile_qr_scan"}, "fusion_lon": 0.0}, {"lat": 38.920502, "is_disabled": 0, "type": "electric_scooter", "lon": -77.02426266666667, "bike_id": "50c7a12d3845833cd2973665f4f9254d", "fusion_lat": 0.0, "name": "50c7a12d3845833cd2973665f4f9254d", "is_reserved": 0, "rental_uris": {"android": "https://dc.lft.to/lastmile_qr_scan", "ios": "https://dc.lft.to/lastmile_qr_scan"}, "fusion_lon": 0.0}, {"lat": 38.91118733333333, "is_disabled": 0, "type": "electric_scooter", "lon": -77.04221783333334, "bike_id": "4e89aaf555a3c9ef38c16ddeb39c196f", "fusion_lat": 0.0, "name": "4e89aaf555a3c9ef38c16ddeb39c196f", "is_reserved": 0, "rental_uris": {"android": "https://dc.lft.to/lastmile_qr_scan", "ios": "https://dc.lft.to/lastmile_qr_scan"}, "fusion_lon": 0.0}, {"lat": 38.866758, "is_disabled": 0, "type": "electric_scooter", "lon": -76.98539716666667, "bike_id": "9ee0e389f31c4c457a87246f63ecb5e6", "fusion_lat": 0.0, "name": "9ee0e389f31c4c457a87246f63ecb5e6", "is_reserved": 0, "rental_uris": {"android": "https://dc.lft.to/lastmile_qr_scan", "ios": "https://dc.lft.to/lastmile_qr_scan"}, "fusion_lon": 0.0}, {"lat": 38.832314833333335, "is_disabled": 0, "type": "electric_bike", "lon": -77.04974116666666, "bike_id": "293eacd32b69a7f6be7f6f4f7af4b87f", "fusion_lat": 0.0, "name": "293eacd32b69a7f6be7f6f4f7af4b87f", "is_reserved": 0, "rental_uris": {"android": "https://dc.lft.to/lastmile_qr_scan", "ios": "https://dc.lft.to/lastmile_qr_scan"}, "fusion_lon": 0.0}, {"lat": 38.92063683333333, "is_disabled": 0, "type": "electric_scooter", "lon": -77.04802133333334, "bike_id": "7c6d2733d5b7fa0297644bfe265f44e1", "fusion_lat": 0.0, "name": "7c6d2733d5b7fa0297644bfe265f44e1", "is_reserved": 0, "rental_uris": {"android": "https://dc.lft.to/lastmile_qr_scan", "ios": "https://dc.lft.to/lastmile_qr_scan"}, "fusion_lon": 0.0}, {"lat": 38.90011066666667, "is_disabled": 0, "type": "electric_scooter", "lon": -77.0119745, "bike_id": "e813786f38827604d6910b0735b2492b", "fusion_lat": 0.0, "name": "e813786f38827604d6910b0735b2492b", "is_reserved": 0, "rental_uris": {"android": "https://dc.lft.to/lastmile_qr_scan", "ios": "https://dc.lft.to/lastmile_qr_scan"}, "fusion_lon": 0.0}, {"lat": 38.93317866666667, "is_disabled": 0, "type": "electric_scooter", "lon": -77.04520466666666, "bike_id": "b87c6666be4902adafe0f9ce56366c92", "fusion_lat": 0.0, "name": "b87c6666be4902adafe0f9ce56366c92", "is_reserved": 0, "rental_uris": {"android": "https://dc.lft.to/lastmile_qr_scan", "ios": "https://dc.lft.to/lastmile_qr_scan"}, "fusion_lon": 0.0}, {"lat": 38.91774383333333, "is_disabled": 0, "type": "electric_scooter", "lon": -77.04101783333333, "bike_id": "b1616419019698d9f50aa231d93bedb6", "fusion_lat": 0.0, "name": "b1616419019698d9f50aa231d93bedb6", "is_reserved": 0, "rental_uris": {"android": "https://dc.lft.to/lastmile_qr_scan", "ios": "https://dc.lft.to/lastmile_qr_scan"}, "fusion_lon": 0.0}, {"lat": 38.909709666666664, "is_disabled": 0, "type": "electric_scooter", "lon": -77.0395085, "bike_id": "c07de588dea0d4e76004e50fbda330a2", "fusion_lat": 0.0, "name": "c07de588dea0d4e76004e50fbda330a2", "is_reserved": 0, "rental_uris": {"android": "https://dc.lft.to/lastmile_qr_scan", "ios": "https://dc.lft.to/lastmile_qr_scan"}, "fusion_lon": 0.0}, {"lat": 38.878744, "is_disabled": 0, "type": "electric_scooter", "lon": -77.0074545, "bike_id": "1f266f52873dee4605e75d67333a97de", "fusion_lat": 0.0, "name": "1f266f52873dee4605e75d67333a97de", "is_reserved": 0, "rental_uris": {"android": "https://dc.lft.to/lastmile_qr_scan", "ios": "https://dc.lft.to/lastmile_qr_scan"}, "fusion_lon": 0.0}, {"lat": 38.872931333333334, "is_disabled": 0, "type": "electric_scooter", "lon": -77.00985816666666, "bike_id": "299d2294d45643b57825ff2b5aa7c8a0", "fusion_lat": 0.0, "name": "299d2294d45643b57825ff2b5aa7c8a0", "is_reserved": 0, "rental_uris": {"android": "https://dc.lft.to/lastmile_qr_scan", "ios": "https://dc.lft.to/lastmile_qr_scan"}, "fusion_lon": 0.0}, {"lat": 38.926263666666664, "is_disabled": 0, "type": "electric_scooter", "lon": -77.0378615, "bike_id": "732c3e6dad9c1e1f7180a7ab48988ca9", "fusion_lat": 0.0, "name": "732c3e6dad9c1e1f7180a7ab48988ca9", "is_reserved": 0, "rental_uris": {"android": "https://dc.lft.to/lastmile_qr_scan", "ios": "https://dc.lft.to/lastmile_qr_scan"}, "fusion_lon": 0.0}, {"lat": 38.87732116666667, "is_disabled": 0, "type": "electric_bike", "lon": -76.98107316666666, "bike_id": "86413b28febf990f54c0b25068349b0c", "fusion_lat": 0.0, "name": "86413b28febf990f54c0b25068349b0c", "is_reserved": 0, "rental_uris": {"android": "https://dc.lft.to/lastmile_qr_scan", "ios": "https://dc.lft.to/lastmile_qr_scan"}, "fusion_lon": 0.0}, {"lat": 38.8987095, "is_disabled": 0, "type": "electric_scooter", "lon": -77.02047966666666, "bike_id": "db74a424b0e990478ddac6db40ea85e8", "fusion_lat": 0.0, "name": "db74a424b0e990478ddac6db40ea85e8", "is_reserved": 0, "rental_uris": {"android": "https://dc.lft.to/lastmile_qr_scan", "ios": "https://dc.lft.to/lastmile_qr_scan"}, "fusion_lon": 0.0}, {"lat": 38.916759166666665, "is_disabled": 0, "type": "electric_scooter", "lon": -77.02384816666667, "bike_id": "d8c39f8bf5c5fe4c52c784b0be843be9", "fusion_lat": 0.0, "name": "d8c39f8bf5c5fe4c52c784b0be843be9", "is_reserved": 0, "rental_uris": {"android": "https://dc.lft.to/lastmile_qr_scan", "ios": "https://dc.lft.to/lastmile_qr_scan"}, "fusion_lon": 0.0}, {"lat": 38.9156805, "is_disabled": 0, "type": "electric_scooter", "lon": -77.04109733333334, "bike_id": "caefecac71ac31ce1e6d03e70499aa79", "fusion_lat": 0.0, "name": "caefecac71ac31ce1e6d03e70499aa79", "is_reserved": 0, "rental_uris": {"android": "https://dc.lft.to/lastmile_qr_scan", "ios": "https://dc.lft.to/lastmile_qr_scan"}, "fusion_lon": 0.0}, {"lat": 38.87535066666667, "is_disabled": 0, "type": "electric_scooter", "lon": -77.005087, "bike_id": "0f9736c11056fb63dbdccb9a5b73b249", "fusion_lat": 0.0, "name": "0f9736c11056fb63dbdccb9a5b73b249", "is_reserved": 0, "rental_uris": {"android": "https://dc.lft.to/lastmile_qr_scan", "ios": "https://dc.lft.to/lastmile_qr_scan"}, "fusion_lon": 0.0}, {"lat": 38.928556666666665, "is_disabled": 0, "type": "electric_scooter", "lon": -77.02999033333333, "bike_id": "99fce1713be5f1aad5ea7bb5ed3e1317", "fusion_lat": 0.0, "name": "99fce1713be5f1aad5ea7bb5ed3e1317", "is_reserved": 0, "rental_uris": {"android": "https://dc.lft.to/lastmile_qr_scan", "ios": "https://dc.lft.to/lastmile_qr_scan"}, "fusion_lon": 0.0}, {"lat": 38.91884016666667, "is_disabled": 0, "type": "electric_scooter", "lon": -77.03508366666667, "bike_id": "e3a1d24093d261d79add17c0eb7fba2c", "fusion_lat": 0.0, "name": "e3a1d24093d261d79add17c0eb7fba2c", "is_reserved": 0, "rental_uris": {"android": "https://dc.lft.to/lastmile_qr_scan", "ios": "https://dc.lft.to/lastmile_qr_scan"}, "fusion_lon": 0.0}, {"lat": 38.925941, "is_disabled": 0, "type": "electric_scooter", "lon": -77.02494, "bike_id": "47e4dac5387015242acb021bed71ea6a", "fusion_lat": 0.0, "name": "47e4dac5387015242acb021bed71ea6a", "is_reserved": 0, "rental_uris": {"android": "https://dc.lft.to/lastmile_qr_scan", "ios": "https://dc.lft.to/lastmile_qr_scan"}, "fusion_lon": 0.0}, {"lat": 38.902064833333334, "is_disabled": 0, "type": "electric_scooter", "lon": -76.9883795, "bike_id": "8da12d21fbe5daa54bdb7d98bc0987f8", "fusion_lat": 0.0, "name": "8da12d21fbe5daa54bdb7d98bc0987f8", "is_reserved": 0, "rental_uris": {"android": "https://dc.lft.to/lastmile_qr_scan", "ios": "https://dc.lft.to/lastmile_qr_scan"}, "fusion_lon": 0.0}, {"lat": 38.903643833333334, "is_disabled": 0, "type": "electric_scooter", "lon": -76.97656383333333, "bike_id": "dddeefb6e61e1c7dd8585769896ebcf1", "fusion_lat": 0.0, "name": "dddeefb6e61e1c7dd8585769896ebcf1", "is_reserved": 0, "rental_uris": {"android": "https://dc.lft.to/lastmile_qr_scan", "ios": "https://dc.lft.to/lastmile_qr_scan"}, "fusion_lon": 0.0}, {"lat": 38.89627433333333, "is_disabled": 0, "type": "electric_scooter", "lon": -77.044955, "bike_id": "71492d08c5e3c465a9ef28f0c5c34aa8", "fusion_lat": 0.0, "name": "71492d08c5e3c465a9ef28f0c5c34aa8", "is_reserved": 0, "rental_uris": {"android": "https://dc.lft.to/lastmile_qr_scan", "ios": "https://dc.lft.to/lastmile_qr_scan"}, "fusion_lon": 0.0}, {"lat": 38.960591, "is_disabled": 0, "type": "electric_scooter", "lon": -77.0730005, "bike_id": "7407a7dfc993a12d6b254d2dbb1e5cdc", "fusion_lat": 0.0, "name": "7407a7dfc993a12d6b254d2dbb1e5cdc", "is_reserved": 0, "rental_uris": {"android": "https://dc.lft.to/lastmile_qr_scan", "ios": "https://dc.lft.to/lastmile_qr_scan"}, "fusion_lon": 0.0}, {"lat": 38.914870666666665, "is_disabled": 0, "type": "electric_scooter", "lon": -77.03230483333333, "bike_id": "576d4ab5d6b5daa335240990ef0d32a3", "fusion_lat": 0.0, "name": "576d4ab5d6b5daa335240990ef0d32a3", "is_reserved": 0, "rental_uris": {"android": "https://dc.lft.to/lastmile_qr_scan", "ios": "https://dc.lft.to/lastmile_qr_scan"}, "fusion_lon": 0.0}, {"lat": 38.93112633333333, "is_disabled": 0, "type": "electric_scooter", "lon": -77.02082466666667, "bike_id": "6897c09526cffd65e2c722da60f04b35", "fusion_lat": 0.0, "name": "6897c09526cffd65e2c722da60f04b35", "is_reserved": 0, "rental_uris": {"android": "https://dc.lft.to/lastmile_qr_scan", "ios": "https://dc.lft.to/lastmile_qr_scan"}, "fusion_lon": 0.0}, {"lat": 38.90561366666667, "is_disabled": 0, "type": "electric_scooter", "lon": -77.03455333333333, "bike_id": "2c9fc7b37c1eb389a0ed02a0612c121e", "fusion_lat": 0.0, "name": "2c9fc7b37c1eb389a0ed02a0612c121e", "is_reserved": 0, "rental_uris": {"android": "https://dc.lft.to/lastmile_qr_scan", "ios": "https://dc.lft.to/lastmile_qr_scan"}, "fusion_lon": 0.0}, {"lat": 38.926621, "is_disabled": 0, "type": "electric_scooter", "lon": -77.05599766666667, "bike_id": "10eec0630dd7258e623f3b281631e2ba", "fusion_lat": 0.0, "name": "10eec0630dd7258e623f3b281631e2ba", "is_reserved": 0, "rental_uris": {"android": "https://dc.lft.to/lastmile_qr_scan", "ios": "https://dc.lft.to/lastmile_qr_scan"}, "fusion_lon": 0.0}, {"lat": 38.8922855, "is_disabled": 0, "type": "electric_scooter", "lon": -77.05006816666666, "bike_id": "815c8cac459dc425f5396a3ba95dbdda", "fusion_lat": 0.0, "name": "815c8cac459dc425f5396a3ba95dbdda", "is_reserved": 0, "rental_uris": {"android": "https://dc.lft.to/lastmile_qr_scan", "ios": "https://dc.lft.to/lastmile_qr_scan"}, "fusion_lon": 0.0}, {"lat": 38.876848833333334, "is_disabled": 0, "type": "electric_bike", "lon": -77.0161455, "bike_id": "0962c3d49cfb866dc6c3e7c84de0a9a1", "fusion_lat": 0.0, "name": "0962c3d49cfb866dc6c3e7c84de0a9a1", "is_reserved": 0, "rental_uris": {"android": "https://dc.lft.to/lastmile_qr_scan", "ios": "https://dc.lft.to/lastmile_qr_scan"}, "fusion_lon": 0.0}, {"lat": 38.895518, "is_disabled": 0, "type": "electric_scooter", "lon": -76.93380483333334, "bike_id": "9685752761a20adf438963e7f2ed6982", "fusion_lat": 0.0, "name": "9685752761a20adf438963e7f2ed6982", "is_reserved": 0, "rental_uris": {"android": "https://dc.lft.to/lastmile_qr_scan", "ios": "https://dc.lft.to/lastmile_qr_scan"}, "fusion_lon": 0.0}, {"lat": 38.91645183333333, "is_disabled": 0, "type": "electric_scooter", "lon": -77.02414216666666, "bike_id": "ba6569f06bc805f78c917715e1833c46", "fusion_lat": 0.0, "name": "ba6569f06bc805f78c917715e1833c46", "is_reserved": 0, "rental_uris": {"android": "https://dc.lft.to/lastmile_qr_scan", "ios": "https://dc.lft.to/lastmile_qr_scan"}, "fusion_lon": 0.0}, {"lat": 38.92591016666667, "is_disabled": 0, "type": "electric_scooter", "lon": -77.022707, "bike_id": "deee02bbf03e08a3b1f8112eef6b820a", "fusion_lat": 0.0, "name": "deee02bbf03e08a3b1f8112eef6b820a", "is_reserved": 0, "rental_uris": {"android": "https://dc.lft.to/lastmile_qr_scan", "ios": "https://dc.lft.to/lastmile_qr_scan"}, "fusion_lon": 0.0}, {"lat": 38.9007595, "is_disabled": 0, "type": "electric_scooter", "lon": -77.049262, "bike_id": "8139a22de3f68eebc4a47df4cf4589e0", "fusion_lat": 0.0, "name": "8139a22de3f68eebc4a47df4cf4589e0", "is_reserved": 0, "rental_uris": {"android": "https://dc.lft.to/lastmile_qr_scan", "ios": "https://dc.lft.to/lastmile_qr_scan"}, "fusion_lon": 0.0}, {"lat": 38.920236833333334, "is_disabled": 0, "type": "electric_scooter", "lon": -77.03733416666667, "bike_id": "ec46d8d569a706a0e36453524f0a20bb", "fusion_lat": 0.0, "name": "ec46d8d569a706a0e36453524f0a20bb", "is_reserved": 0, "rental_uris": {"android": "https://dc.lft.to/lastmile_qr_scan", "ios": "https://dc.lft.to/lastmile_qr_scan"}, "fusion_lon": 0.0}, {"lat": 38.93977366666667, "is_disabled": 0, "type": "electric_scooter", "lon": -77.03588733333333, "bike_id": "0f11fe0d960dea1bd9a4b1075ede6d78", "fusion_lat": 0.0, "name": "0f11fe0d960dea1bd9a4b1075ede6d78", "is_reserved": 0, "rental_uris": {"android": "https://dc.lft.to/lastmile_qr_scan", "ios": "https://dc.lft.to/lastmile_qr_scan"}, "fusion_lon": 0.0}, {"lat": 38.907768, "is_disabled": 0, "type": "electric_scooter", "lon": -77.0386065, "bike_id": "4a309c748b29fad857fce9dbf939de1b", "fusion_lat": 0.0, "name": "4a309c748b29fad857fce9dbf939de1b", "is_reserved": 0, "rental_uris": {"android": "https://dc.lft.to/lastmile_qr_scan", "ios": "https://dc.lft.to/lastmile_qr_scan"}, "fusion_lon": 0.0}, {"lat": 38.932896666666664, "is_disabled": 0, "type": "electric_scooter", "lon": -77.03553383333333, "bike_id": "54a93f6392e00d4429deeb9d937cbf65", "fusion_lat": 0.0, "name": "54a93f6392e00d4429deeb9d937cbf65", "is_reserved": 0, "rental_uris": {"android": "https://dc.lft.to/lastmile_qr_scan", "ios": "https://dc.lft.to/lastmile_qr_scan"}, "fusion_lon": 0.0}, {"lat": 38.9577895, "is_disabled": 0, "type": "electric_scooter", "lon": -77.02760466666666, "bike_id": "0196c2d8aa5d9fd4e65837a98d75200b", "fusion_lat": 0.0, "name": "0196c2d8aa5d9fd4e65837a98d75200b", "is_reserved": 0, "rental_uris": {"android": "https://dc.lft.to/lastmile_qr_scan", "ios": "https://dc.lft.to/lastmile_qr_scan"}, "fusion_lon": 0.0}, {"lat": 38.90873783333333, "is_disabled": 0, "type": "electric_scooter", "lon": -77.0366695, "bike_id": "f7e603bafb17b811e2cc072ba2f22f9d", "fusion_lat": 0.0, "name": "f7e603bafb17b811e2cc072ba2f22f9d", "is_reserved": 0, "rental_uris": {"android": "https://dc.lft.to/lastmile_qr_scan", "ios": "https://dc.lft.to/lastmile_qr_scan"}, "fusion_lon": 0.0}, {"lat": 38.907436833333335, "is_disabled": 0, "type": "electric_scooter", "lon": -76.998859, "bike_id": "d15e1b2b7b4c44fec66d2c51294f1dbd", "fusion_lat": 0.0, "name": "d15e1b2b7b4c44fec66d2c51294f1dbd", "is_reserved": 0, "rental_uris": {"android": "https://dc.lft.to/lastmile_qr_scan", "ios": "https://dc.lft.to/lastmile_qr_scan"}, "fusion_lon": 0.0}, {"lat": 38.962066666666665, "is_disabled": 0, "type": "electric_bike", "lon": -77.03513083333333, "bike_id": "bfb5125ee45b2c57bfcd10efb26412ad", "fusion_lat": 0.0, "name": "bfb5125ee45b2c57bfcd10efb26412ad", "is_reserved": 0, "rental_uris": {"android": "https://dc.lft.to/lastmile_qr_scan", "ios": "https://dc.lft.to/lastmile_qr_scan"}, "fusion_lon": 0.0}, {"lat": 38.93378966666667, "is_disabled": 0, "type": "electric_scooter", "lon": -76.9951005, "bike_id": "bdf42986b2a72b5c2d7f739356b14c5b", "fusion_lat": 0.0, "name": "bdf42986b2a72b5c2d7f739356b14c5b", "is_reserved": 0, "rental_uris": {"android": "https://dc.lft.to/lastmile_qr_scan", "ios": "https://dc.lft.to/lastmile_qr_scan"}, "fusion_lon": 0.0}, {"lat": 38.90023266666667, "is_disabled": 0, "type": "electric_scooter", "lon": -77.033159, "bike_id": "e304cca9ac044ad1093ffb0b455ca10c", "fusion_lat": 0.0, "name": "e304cca9ac044ad1093ffb0b455ca10c", "is_reserved": 0, "rental_uris": {"android": "https://dc.lft.to/lastmile_qr_scan", "ios": "https://dc.lft.to/lastmile_qr_scan"}, "fusion_lon": 0.0}, {"lat": 38.81349216666667, "is_disabled": 0, "type": "electric_bike", "lon": -77.04927133333334, "bike_id": "5ce4b699cc4cc211c4b1a772537e0fc2", "fusion_lat": 0.0, "name": "5ce4b699cc4cc211c4b1a772537e0fc2", "is_reserved": 0, "rental_uris": {"android": "https://dc.lft.to/lastmile_qr_scan", "ios": "https://dc.lft.to/lastmile_qr_scan"}, "fusion_lon": 0.0}, {"lat": 38.89558133333333, "is_disabled": 0, "type": "electric_scooter", "lon": -77.0036975, "bike_id": "28bb07b439df88458bf423c6fed3adac", "fusion_lat": 0.0, "name": "28bb07b439df88458bf423c6fed3adac", "is_reserved": 0, "rental_uris": {"android": "https://dc.lft.to/lastmile_qr_scan", "ios": "https://dc.lft.to/lastmile_qr_scan"}, "fusion_lon": 0.0}, {"lat": 38.916284833333336, "is_disabled": 0, "type": "electric_scooter", "lon": -77.02394766666667, "bike_id": "1c0a11c1c9a131778b3168cd212461b2", "fusion_lat": 0.0, "name": "1c0a11c1c9a131778b3168cd212461b2", "is_reserved": 0, "rental_uris": {"android": "https://dc.lft.to/lastmile_qr_scan", "ios": "https://dc.lft.to/lastmile_qr_scan"}, "fusion_lon": 0.0}, {"lat": 38.877325666666664, "is_disabled": 0, "type": "electric_scooter", "lon": -77.00379933333333, "bike_id": "d68270f102d0aa7e130b8db9a92ec381", "fusion_lat": 0.0, "name": "d68270f102d0aa7e130b8db9a92ec381", "is_reserved": 0, "rental_uris": {"android": "https://dc.lft.to/lastmile_qr_scan", "ios": "https://dc.lft.to/lastmile_qr_scan"}, "fusion_lon": 0.0}, {"lat": 38.874043, "is_disabled": 0, "type": "electric_scooter", "lon": -77.01455633333333, "bike_id": "d6af69d662f1b100bc29cbadcccbb41c", "fusion_lat": 0.0, "name": "d6af69d662f1b100bc29cbadcccbb41c", "is_reserved": 0, "rental_uris": {"android": "https://dc.lft.to/lastmile_qr_scan", "ios": "https://dc.lft.to/lastmile_qr_scan"}, "fusion_lon": 0.0}, {"lat": 38.902520833333334, "is_disabled": 0, "type": "electric_scooter", "lon": -77.00545483333333, "bike_id": "062ad7c077b88675181a1712cf799e1a", "fusion_lat": 0.0, "name": "062ad7c077b88675181a1712cf799e1a", "is_reserved": 0, "rental_uris": {"android": "https://dc.lft.to/lastmile_qr_scan", "ios": "https://dc.lft.to/lastmile_qr_scan"}, "fusion_lon": 0.0}, {"lat": 38.8960905, "is_disabled": 0, "type": "electric_scooter", "lon": -76.956545, "bike_id": "e26e77d2cfc9ec14f660c9ea06c1e3d2", "fusion_lat": 0.0, "name": "e26e77d2cfc9ec14f660c9ea06c1e3d2", "is_reserved": 0, "rental_uris": {"android": "https://dc.lft.to/lastmile_qr_scan", "ios": "https://dc.lft.to/lastmile_qr_scan"}, "fusion_lon": 0.0}, {"lat": 38.94912333333333, "is_disabled": 0, "type": "electric_scooter", "lon": -77.06623633333334, "bike_id": "bb493cf2eecea48c671dc030edf750cf", "fusion_lat": 0.0, "name": "bb493cf2eecea48c671dc030edf750cf", "is_reserved": 0, "rental_uris": {"android": "https://dc.lft.to/lastmile_qr_scan", "ios": "https://dc.lft.to/lastmile_qr_scan"}, "fusion_lon": 0.0}, {"lat": 38.93865916666667, "is_disabled": 0, "type": "electric_scooter", "lon": -77.03202766666666, "bike_id": "b885ca50561a58a2337d6a073b73bd49", "fusion_lat": 0.0, "name": "b885ca50561a58a2337d6a073b73bd49", "is_reserved": 0, "rental_uris": {"android": "https://dc.lft.to/lastmile_qr_scan", "ios": "https://dc.lft.to/lastmile_qr_scan"}, "fusion_lon": 0.0}, {"lat": 38.9104905, "is_disabled": 0, "type": "electric_scooter", "lon": -77.01524633333334, "bike_id": "e774d726a9773b15f68ae97150c474ac", "fusion_lat": 0.0, "name": "e774d726a9773b15f68ae97150c474ac", "is_reserved": 0, "rental_uris": {"android": "https://dc.lft.to/lastmile_qr_scan", "ios": "https://dc.lft.to/lastmile_qr_scan"}, "fusion_lon": 0.0}, {"lat": 38.8716635, "is_disabled": 0, "type": "electric_scooter", "lon": -77.01362366666666, "bike_id": "ccd3b3591a8764026d5794c248ace812", "fusion_lat": 0.0, "name": "ccd3b3591a8764026d5794c248ace812", "is_reserved": 0, "rental_uris": {"android": "https://dc.lft.to/lastmile_qr_scan", "ios": "https://dc.lft.to/lastmile_qr_scan"}, "fusion_lon": 0.0}, {"lat": 38.91423566666667, "is_disabled": 0, "type": "electric_scooter", "lon": -77.021763, "bike_id": "bbcc23ef896831bb850031b2d20c5040", "fusion_lat": 0.0, "name": "bbcc23ef896831bb850031b2d20c5040", "is_reserved": 0, "rental_uris": {"android": "https://dc.lft.to/lastmile_qr_scan", "ios": "https://dc.lft.to/lastmile_qr_scan"}, "fusion_lon": 0.0}, {"lat": 38.8922425, "is_disabled": 0, "type": "electric_scooter", "lon": -77.04871166666666, "bike_id": "733b8a317dc4b1b17fc66dbac1627c56", "fusion_lat": 0.0, "name": "733b8a317dc4b1b17fc66dbac1627c56", "is_reserved": 0, "rental_uris": {"android": "https://dc.lft.to/lastmile_qr_scan", "ios": "https://dc.lft.to/lastmile_qr_scan"}, "fusion_lon": 0.0}, {"lat": 38.925741333333335, "is_disabled": 0, "type": "electric_scooter", "lon": -77.0401355, "bike_id": "27f0196e10a0dda3fe8a65bc18d9ac29", "fusion_lat": 0.0, "name": "27f0196e10a0dda3fe8a65bc18d9ac29", "is_reserved": 0, "rental_uris": {"android": "https://dc.lft.to/lastmile_qr_scan", "ios": "https://dc.lft.to/lastmile_qr_scan"}, "fusion_lon": 0.0}, {"lat": 38.8531295, "is_disabled": 0, "type": "electric_scooter", "lon": -76.98017316666666, "bike_id": "a9d7b263790b908b61ac136a24f29960", "fusion_lat": 0.0, "name": "a9d7b263790b908b61ac136a24f29960", "is_reserved": 0, "rental_uris": {"android": "https://dc.lft.to/lastmile_qr_scan", "ios": "https://dc.lft.to/lastmile_qr_scan"}, "fusion_lon": 0.0}, {"lat": 38.891241, "is_disabled": 0, "type": "electric_scooter", "lon": -76.94090316666667, "bike_id": "7b8febd70ebaa96087e0be0c2e2cd1d5", "fusion_lat": 0.0, "name": "7b8febd70ebaa96087e0be0c2e2cd1d5", "is_reserved": 0, "rental_uris": {"android": "https://dc.lft.to/lastmile_qr_scan", "ios": "https://dc.lft.to/lastmile_qr_scan"}, "fusion_lon": 0.0}, {"lat": 38.902331833333335, "is_disabled": 0, "type": "electric_scooter", "lon": -77.01922266666666, "bike_id": "78d9f7149b05a5add05825e8d5da01b1", "fusion_lat": 0.0, "name": "78d9f7149b05a5add05825e8d5da01b1", "is_reserved": 0, "rental_uris": {"android": "https://dc.lft.to/lastmile_qr_scan", "ios": "https://dc.lft.to/lastmile_qr_scan"}, "fusion_lon": 0.0}, {"lat": 38.935515333333335, "is_disabled": 0, "type": "electric_scooter", "lon": -77.058701, "bike_id": "9916b4fec318c08ba339dcc808fc5e49", "fusion_lat": 0.0, "name": "9916b4fec318c08ba339dcc808fc5e49", "is_reserved": 0, "rental_uris": {"android": "https://dc.lft.to/lastmile_qr_scan", "ios": "https://dc.lft.to/lastmile_qr_scan"}, "fusion_lon": 0.0}, {"lat": 38.91198, "is_disabled": 0, "type": "electric_scooter", "lon": -77.032214, "bike_id": "367de33152acaa8b3b625fb2a9a80ab7", "fusion_lat": 0.0, "name": "367de33152acaa8b3b625fb2a9a80ab7", "is_reserved": 0, "rental_uris": {"android": "https://dc.lft.to/lastmile_qr_scan", "ios": "https://dc.lft.to/lastmile_qr_scan"}, "fusion_lon": 0.0}, {"lat": 38.919640666666666, "is_disabled": 0, "type": "electric_scooter", "lon": -77.043141, "bike_id": "02e591c39ddc9124880882d894b11e59", "fusion_lat": 0.0, "name": "02e591c39ddc9124880882d894b11e59", "is_reserved": 0, "rental_uris": {"android": "https://dc.lft.to/lastmile_qr_scan", "ios": "https://dc.lft.to/lastmile_qr_scan"}, "fusion_lon": 0.0}, {"lat": 38.905161666666665, "is_disabled": 0, "type": "electric_scooter", "lon": -77.02721183333334, "bike_id": "de42e4643b372659ed902725dc74bcbd", "fusion_lat": 0.0, "name": "de42e4643b372659ed902725dc74bcbd", "is_reserved": 0, "rental_uris": {"android": "https://dc.lft.to/lastmile_qr_scan", "ios": "https://dc.lft.to/lastmile_qr_scan"}, "fusion_lon": 0.0}, {"lat": 38.96095433333333, "is_disabled": 0, "type": "electric_scooter", "lon": -77.08287916666667, "bike_id": "2f04e0ead7aa37ebfad6499c403c56d4", "fusion_lat": 0.0, "name": "2f04e0ead7aa37ebfad6499c403c56d4", "is_reserved": 0, "rental_uris": {"android": "https://dc.lft.to/lastmile_qr_scan", "ios": "https://dc.lft.to/lastmile_qr_scan"}, "fusion_lon": 0.0}, {"lat": 39.015946166666666, "is_disabled": 0, "type": "electric_bike", "lon": -77.04429883333333, "bike_id": "fa7a4e8714ca08fdddc2ecc2766160d3", "fusion_lat": 0.0, "name": "fa7a4e8714ca08fdddc2ecc2766160d3", "is_reserved": 0, "rental_uris": {"android": "https://dc.lft.to/lastmile_qr_scan", "ios": "https://dc.lft.to/lastmile_qr_scan"}, "fusion_lon": 0.0}, {"lat": 38.90005933333333, "is_disabled": 0, "type": "electric_scooter", "lon": -76.99852833333334, "bike_id": "5194e353658c370c0af4bc23559e503d", "fusion_lat": 0.0, "name": "5194e353658c370c0af4bc23559e503d", "is_reserved": 0, "rental_uris": {"android": "https://dc.lft.to/lastmile_qr_scan", "ios": "https://dc.lft.to/lastmile_qr_scan"}, "fusion_lon": 0.0}, {"lat": 38.92220966666667, "is_disabled": 0, "type": "electric_scooter", "lon": -77.0329335, "bike_id": "d310a9fa9056383786f82534aeff988b", "fusion_lat": 0.0, "name": "d310a9fa9056383786f82534aeff988b", "is_reserved": 0, "rental_uris": {"android": "https://dc.lft.to/lastmile_qr_scan", "ios": "https://dc.lft.to/lastmile_qr_scan"}, "fusion_lon": 0.0}, {"lat": 38.9049375, "is_disabled": 0, "type": "electric_scooter", "lon": -77.02962516666666, "bike_id": "6dde644231e46f883c48ba3dd1b8b3a8", "fusion_lat": 0.0, "name": "6dde644231e46f883c48ba3dd1b8b3a8", "is_reserved": 0, "rental_uris": {"android": "https://dc.lft.to/lastmile_qr_scan", "ios": "https://dc.lft.to/lastmile_qr_scan"}, "fusion_lon": 0.0}, {"lat": 38.89232833333333, "is_disabled": 0, "type": "electric_scooter", "lon": -77.05003966666666, "bike_id": "de56ecff48b1e3e9744484365d6e2fec", "fusion_lat": 0.0, "name": "de56ecff48b1e3e9744484365d6e2fec", "is_reserved": 0, "rental_uris": {"android": "https://dc.lft.to/lastmile_qr_scan", "ios": "https://dc.lft.to/lastmile_qr_scan"}, "fusion_lon": 0.0}, {"lat": 38.9069315, "is_disabled": 0, "type": "electric_scooter", "lon": -77.04206583333334, "bike_id": "be44f72250c6f87bdde460efd990559b", "fusion_lat": 0.0, "name": "be44f72250c6f87bdde460efd990559b", "is_reserved": 0, "rental_uris": {"android": "https://dc.lft.to/lastmile_qr_scan", "ios": "https://dc.lft.to/lastmile_qr_scan"}, "fusion_lon": 0.0}, {"lat": 38.900684, "is_disabled": 0, "type": "electric_scooter", "lon": -77.00215633333333, "bike_id": "e82608dd6d17962901a34ac51da9ec41", "fusion_lat": 0.0, "name": "e82608dd6d17962901a34ac51da9ec41", "is_reserved": 0, "rental_uris": {"android": "https://dc.lft.to/lastmile_qr_scan", "ios": "https://dc.lft.to/lastmile_qr_scan"}, "fusion_lon": 0.0}, {"lat": 38.9233345, "is_disabled": 0, "type": "electric_scooter", "lon": -77.02701266666666, "bike_id": "d262e13fd3334f36d24e8e348c6ab2fd", "fusion_lat": 0.0, "name": "d262e13fd3334f36d24e8e348c6ab2fd", "is_reserved": 0, "rental_uris": {"android": "https://dc.lft.to/lastmile_qr_scan", "ios": "https://dc.lft.to/lastmile_qr_scan"}, "fusion_lon": 0.0}, {"lat": 38.900727833333335, "is_disabled": 0, "type": "electric_scooter", "lon": -77.0258745, "bike_id": "0fe4d2f2edb94c166564b5df8c898855", "fusion_lat": 0.0, "name": "0fe4d2f2edb94c166564b5df8c898855", "is_reserved": 0, "rental_uris": {"android": "https://dc.lft.to/lastmile_qr_scan", "ios": "https://dc.lft.to/lastmile_qr_scan"}, "fusion_lon": 0.0}, {"lat": 38.90970633333333, "is_disabled": 0, "type": "electric_scooter", "lon": -77.03440566666667, "bike_id": "1424561a796db444acdeccb156cd9670", "fusion_lat": 0.0, "name": "1424561a796db444acdeccb156cd9670", "is_reserved": 0, "rental_uris": {"android": "https://dc.lft.to/lastmile_qr_scan", "ios": "https://dc.lft.to/lastmile_qr_scan"}, "fusion_lon": 0.0}, {"lat": 38.89970983333333, "is_disabled": 0, "type": "electric_scooter", "lon": -76.92659466666667, "bike_id": "97153fc9480e0f3bfc50515d7e2f6818", "fusion_lat": 0.0, "name": "97153fc9480e0f3bfc50515d7e2f6818", "is_reserved": 0, "rental_uris": {"android": "https://dc.lft.to/lastmile_qr_scan", "ios": "https://dc.lft.to/lastmile_qr_scan"}, "fusion_lon": 0.0}, {"lat": 38.92321966666667, "is_disabled": 0, "type": "electric_scooter", "lon": -77.0385855, "bike_id": "67ace13926e5ccbca02a3ca9a5a40f89", "fusion_lat": 0.0, "name": "67ace13926e5ccbca02a3ca9a5a40f89", "is_reserved": 0, "rental_uris": {"android": "https://dc.lft.to/lastmile_qr_scan", "ios": "https://dc.lft.to/lastmile_qr_scan"}, "fusion_lon": 0.0}, {"lat": 39.05201183333333, "is_disabled": 0, "type": "electric_bike", "lon": -77.10921483333334, "bike_id": "8eb9a0b7b51bf1b325fc0e1e219129c3", "fusion_lat": 0.0, "name": "8eb9a0b7b51bf1b325fc0e1e219129c3", "is_reserved": 0, "rental_uris": {"android": "https://dc.lft.to/lastmile_qr_scan", "ios": "https://dc.lft.to/lastmile_qr_scan"}, "fusion_lon": 0.0}, {"lat": 38.929370666666664, "is_disabled": 0, "type": "electric_scooter", "lon": -77.0198365, "bike_id": "9e7465afda947e51936106d6a0e8c1aa", "fusion_lat": 0.0, "name": "9e7465afda947e51936106d6a0e8c1aa", "is_reserved": 0, "rental_uris": {"android": "https://dc.lft.to/lastmile_qr_scan", "ios": "https://dc.lft.to/lastmile_qr_scan"}, "fusion_lon": 0.0}, {"lat": 38.924063833333335, "is_disabled": 0, "type": "electric_scooter", "lon": -77.05257216666666, "bike_id": "7a76746fe5b580e83e52c9c729389bfa", "fusion_lat": 0.0, "name": "7a76746fe5b580e83e52c9c729389bfa", "is_reserved": 0, "rental_uris": {"android": "https://dc.lft.to/lastmile_qr_scan", "ios": "https://dc.lft.to/lastmile_qr_scan"}, "fusion_lon": 0.0}, {"lat": 38.904214, "is_disabled": 0, "type": "electric_scooter", "lon": -77.02505316666667, "bike_id": "f40a04bbaefa6e5215857d37e2a12e97", "fusion_lat": 0.0, "name": "f40a04bbaefa6e5215857d37e2a12e97", "is_reserved": 0, "rental_uris": {"android": "https://dc.lft.to/lastmile_qr_scan", "ios": "https://dc.lft.to/lastmile_qr_scan"}, "fusion_lon": 0.0}, {"lat": 38.92402666666667, "is_disabled": 0, "type": "electric_scooter", "lon": -77.025667, "bike_id": "0fa0fa2d1c4b30281d756ecf461209f9", "fusion_lat": 0.0, "name": "0fa0fa2d1c4b30281d756ecf461209f9", "is_reserved": 0, "rental_uris": {"android": "https://dc.lft.to/lastmile_qr_scan", "ios": "https://dc.lft.to/lastmile_qr_scan"}, "fusion_lon": 0.0}, {"lat": 38.881126333333334, "is_disabled": 0, "type": "electric_scooter", "lon": -77.01650866666667, "bike_id": "5c309674ea19732afb429217438b0f4e", "fusion_lat": 0.0, "name": "5c309674ea19732afb429217438b0f4e", "is_reserved": 0, "rental_uris": {"android": "https://dc.lft.to/lastmile_qr_scan", "ios": "https://dc.lft.to/lastmile_qr_scan"}, "fusion_lon": 0.0}, {"lat": 38.912584833333334, "is_disabled": 0, "type": "electric_scooter", "lon": -77.03863766666667, "bike_id": "bb75491b0833a7e3e767f8a9bcaae34d", "fusion_lat": 0.0, "name": "bb75491b0833a7e3e767f8a9bcaae34d", "is_reserved": 0, "rental_uris": {"android": "https://dc.lft.to/lastmile_qr_scan", "ios": "https://dc.lft.to/lastmile_qr_scan"}, "fusion_lon": 0.0}, {"lat": 38.839877, "is_disabled": 0, "type": "electric_bike", "lon": -77.00565783333333, "bike_id": "f414cc036ecd4e0f443e53f021b3940d", "fusion_lat": 0.0, "name": "f414cc036ecd4e0f443e53f021b3940d", "is_reserved": 0, "rental_uris": {"android": "https://dc.lft.to/lastmile_qr_scan", "ios": "https://dc.lft.to/lastmile_qr_scan"}, "fusion_lon": 0.0}, {"lat": 38.90988733333333, "is_disabled": 0, "type": "electric_scooter", "lon": -76.98469983333334, "bike_id": "ad079fc2fe314435d312eea3a465c8c4", "fusion_lat": 0.0, "name": "ad079fc2fe314435d312eea3a465c8c4", "is_reserved": 0, "rental_uris": {"android": "https://dc.lft.to/lastmile_qr_scan", "ios": "https://dc.lft.to/lastmile_qr_scan"}, "fusion_lon": 0.0}, {"lat": 38.90042, "is_disabled": 0, "type": "electric_scooter", "lon": -76.9949765, "bike_id": "1853ad792398747bc31726c2716eb38c", "fusion_lat": 0.0, "name": "1853ad792398747bc31726c2716eb38c", "is_reserved": 0, "rental_uris": {"android": "https://dc.lft.to/lastmile_qr_scan", "ios": "https://dc.lft.to/lastmile_qr_scan"}, "fusion_lon": 0.0}, {"lat": 38.88405783333333, "is_disabled": 0, "type": "electric_bike", "lon": -76.96059533333333, "bike_id": "6f402c4e752a8b87ec04a5d5e7ee0499", "fusion_lat": 0.0, "name": "6f402c4e752a8b87ec04a5d5e7ee0499", "is_reserved": 0, "rental_uris": {"android": "https://dc.lft.to/lastmile_qr_scan", "ios": "https://dc.lft.to/lastmile_qr_scan"}, "fusion_lon": 0.0}, {"lat": 38.93636216666667, "is_disabled": 0, "type": "electric_scooter", "lon": -77.03662233333333, "bike_id": "87ef44d330851ad4456117fb4511589a", "fusion_lat": 0.0, "name": "87ef44d330851ad4456117fb4511589a", "is_reserved": 0, "rental_uris": {"android": "https://dc.lft.to/lastmile_qr_scan", "ios": "https://dc.lft.to/lastmile_qr_scan"}, "fusion_lon": 0.0}, {"lat": 38.908282, "is_disabled": 0, "type": "electric_scooter", "lon": -76.94144683333333, "bike_id": "b6129e436310ba3349defd57474b013d", "fusion_lat": 0.0, "name": "b6129e436310ba3349defd57474b013d", "is_reserved": 0, "rental_uris": {"android": "https://dc.lft.to/lastmile_qr_scan", "ios": "https://dc.lft.to/lastmile_qr_scan"}, "fusion_lon": 0.0}, {"lat": 38.905319166666665, "is_disabled": 0, "type": "electric_scooter", "lon": -77.04876283333333, "bike_id": "476b57edc1d25d0df5cb458930b2202c", "fusion_lat": 0.0, "name": "476b57edc1d25d0df5cb458930b2202c", "is_reserved": 0, "rental_uris": {"android": "https://dc.lft.to/lastmile_qr_scan", "ios": "https://dc.lft.to/lastmile_qr_scan"}, "fusion_lon": 0.0}, {"lat": 38.90014083333333, "is_disabled": 0, "type": "electric_scooter", "lon": -77.0119935, "bike_id": "148c5898698669515a72e6786af05bbb", "fusion_lat": 0.0, "name": "148c5898698669515a72e6786af05bbb", "is_reserved": 0, "rental_uris": {"android": "https://dc.lft.to/lastmile_qr_scan", "ios": "https://dc.lft.to/lastmile_qr_scan"}, "fusion_lon": 0.0}, {"lat": 38.88473183333333, "is_disabled": 0, "type": "electric_scooter", "lon": -77.023954, "bike_id": "ce63e0b8f382a7a374ba083ec0025cfc", "fusion_lat": 0.0, "name": "ce63e0b8f382a7a374ba083ec0025cfc", "is_reserved": 0, "rental_uris": {"android": "https://dc.lft.to/lastmile_qr_scan", "ios": "https://dc.lft.to/lastmile_qr_scan"}, "fusion_lon": 0.0}, {"lat": 38.90086683333333, "is_disabled": 0, "type": "electric_scooter", "lon": -77.050629, "bike_id": "f6959a437a614db6fcca64a8d176a72b", "fusion_lat": 0.0, "name": "f6959a437a614db6fcca64a8d176a72b", "is_reserved": 0, "rental_uris": {"android": "https://dc.lft.to/lastmile_qr_scan", "ios": "https://dc.lft.to/lastmile_qr_scan"}, "fusion_lon": 0.0}, {"lat": 38.86509083333333, "is_disabled": 0, "type": "electric_scooter", "lon": -76.99007116666667, "bike_id": "67d37e0de14fe2cfb1bce53b4d8513c7", "fusion_lat": 0.0, "name": "67d37e0de14fe2cfb1bce53b4d8513c7", "is_reserved": 0, "rental_uris": {"android": "https://dc.lft.to/lastmile_qr_scan", "ios": "https://dc.lft.to/lastmile_qr_scan"}, "fusion_lon": 0.0}, {"lat": 38.867207666666665, "is_disabled": 0, "type": "electric_scooter", "lon": -76.98727733333334, "bike_id": "045def43a7b49ee5d27b78826d03ff98", "fusion_lat": 0.0, "name": "045def43a7b49ee5d27b78826d03ff98", "is_reserved": 0, "rental_uris": {"android": "https://dc.lft.to/lastmile_qr_scan", "ios": "https://dc.lft.to/lastmile_qr_scan"}, "fusion_lon": 0.0}, {"lat": 38.91654283333333, "is_disabled": 0, "type": "electric_scooter", "lon": -77.0239105, "bike_id": "92430a09329dc7fe480ff0c4bd895fad", "fusion_lat": 0.0, "name": "92430a09329dc7fe480ff0c4bd895fad", "is_reserved": 0, "rental_uris": {"android": "https://dc.lft.to/lastmile_qr_scan", "ios": "https://dc.lft.to/lastmile_qr_scan"}, "fusion_lon": 0.0}, {"lat": 38.925128666666666, "is_disabled": 0, "type": "electric_scooter", "lon": -76.982324, "bike_id": "ca302bf3949f83e1ede9cbc1867c6ad6", "fusion_lat": 0.0, "name": "ca302bf3949f83e1ede9cbc1867c6ad6", "is_reserved": 0, "rental_uris": {"android": "https://dc.lft.to/lastmile_qr_scan", "ios": "https://dc.lft.to/lastmile_qr_scan"}, "fusion_lon": 0.0}, {"lat": 38.94919466666666, "is_disabled": 0, "type": "electric_bike", "lon": -77.00792333333334, "bike_id": "9cc63fa3f03630601682062e892ad8d2", "fusion_lat": 0.0, "name": "9cc63fa3f03630601682062e892ad8d2", "is_reserved": 0, "rental_uris": {"android": "https://dc.lft.to/lastmile_qr_scan", "ios": "https://dc.lft.to/lastmile_qr_scan"}, "fusion_lon": 0.0}, {"lat": 38.92182316666667, "is_disabled": 0, "type": "electric_scooter", "lon": -77.04711966666666, "bike_id": "1da4a1b7cc31360c07d81b1ba9740c87", "fusion_lat": 0.0, "name": "1da4a1b7cc31360c07d81b1ba9740c87", "is_reserved": 0, "rental_uris": {"android": "https://dc.lft.to/lastmile_qr_scan", "ios": "https://dc.lft.to/lastmile_qr_scan"}, "fusion_lon": 0.0}, {"lat": 38.926044833333336, "is_disabled": 0, "type": "electric_scooter", "lon": -77.05691983333334, "bike_id": "2e57ee47ee7c09d72571c71d7fad3a49", "fusion_lat": 0.0, "name": "2e57ee47ee7c09d72571c71d7fad3a49", "is_reserved": 0, "rental_uris": {"android": "https://dc.lft.to/lastmile_qr_scan", "ios": "https://dc.lft.to/lastmile_qr_scan"}, "fusion_lon": 0.0}, {"lat": 38.90775333333333, "is_disabled": 0, "type": "electric_scooter", "lon": -77.03860083333333, "bike_id": "cfe3afdf6f0f772f6b6a38f343890345", "fusion_lat": 0.0, "name": "cfe3afdf6f0f772f6b6a38f343890345", "is_reserved": 0, "rental_uris": {"android": "https://dc.lft.to/lastmile_qr_scan", "ios": "https://dc.lft.to/lastmile_qr_scan"}, "fusion_lon": 0.0}, {"lat": 38.9540615, "is_disabled": 0, "type": "electric_scooter", "lon": -77.02745733333333, "bike_id": "409b4fb4bc3c0cb8dc8e8604545c8057", "fusion_lat": 0.0, "name": "409b4fb4bc3c0cb8dc8e8604545c8057", "is_reserved": 0, "rental_uris": {"android": "https://dc.lft.to/lastmile_qr_scan", "ios": "https://dc.lft.to/lastmile_qr_scan"}, "fusion_lon": 0.0}, {"lat": 38.900325, "is_disabled": 0, "type": "electric_scooter", "lon": -77.032035, "bike_id": "1274adef389b72772be1163f8ba40791", "fusion_lat": 0.0, "name": "1274adef389b72772be1163f8ba40791", "is_reserved": 0, "rental_uris": {"android": "https://dc.lft.to/lastmile_qr_scan", "ios": "https://dc.lft.to/lastmile_qr_scan"}, "fusion_lon": 0.0}, {"lat": 38.93741083333333, "is_disabled": 0, "type": "electric_scooter", "lon": -77.03471833333333, "bike_id": "f99d410fc7353f1b56f370e5024777f1", "fusion_lat": 0.0, "name": "f99d410fc7353f1b56f370e5024777f1", "is_reserved": 0, "rental_uris": {"android": "https://dc.lft.to/lastmile_qr_scan", "ios": "https://dc.lft.to/lastmile_qr_scan"}, "fusion_lon": 0.0}, {"lat": 38.922488333333334, "is_disabled": 0, "type": "electric_scooter", "lon": -77.03083483333333, "bike_id": "2c193c2d0f064b24468cf2587112927a", "fusion_lat": 0.0, "name": "2c193c2d0f064b24468cf2587112927a", "is_reserved": 0, "rental_uris": {"android": "https://dc.lft.to/lastmile_qr_scan", "ios": "https://dc.lft.to/lastmile_qr_scan"}, "fusion_lon": 0.0}, {"lat": 38.927352166666665, "is_disabled": 0, "type": "electric_scooter", "lon": -77.02588766666666, "bike_id": "69f7decc3fcac87539de27561bbd2707", "fusion_lat": 0.0, "name": "69f7decc3fcac87539de27561bbd2707", "is_reserved": 0, "rental_uris": {"android": "https://dc.lft.to/lastmile_qr_scan", "ios": "https://dc.lft.to/lastmile_qr_scan"}, "fusion_lon": 0.0}, {"lat": 38.920840166666665, "is_disabled": 0, "type": "electric_scooter", "lon": -77.04205216666666, "bike_id": "2bda32464b1039ccc58ce0508e6a5248", "fusion_lat": 0.0, "name": "2bda32464b1039ccc58ce0508e6a5248", "is_reserved": 0, "rental_uris": {"android": "https://dc.lft.to/lastmile_qr_scan", "ios": "https://dc.lft.to/lastmile_qr_scan"}, "fusion_lon": 0.0}, {"lat": 38.898528, "is_disabled": 0, "type": "electric_scooter", "lon": -76.98182566666667, "bike_id": "2cc607f095c4efe30d72d7713b579ebc", "fusion_lat": 0.0, "name": "2cc607f095c4efe30d72d7713b579ebc", "is_reserved": 0, "rental_uris": {"android": "https://dc.lft.to/lastmile_qr_scan", "ios": "https://dc.lft.to/lastmile_qr_scan"}, "fusion_lon": 0.0}, {"lat": 38.91780383333333, "is_disabled": 0, "type": "electric_scooter", "lon": -77.04301633333333, "bike_id": "3f4b60f5cb57ada27a339c09bbad7726", "fusion_lat": 0.0, "name": "3f4b60f5cb57ada27a339c09bbad7726", "is_reserved": 0, "rental_uris": {"android": "https://dc.lft.to/lastmile_qr_scan", "ios": "https://dc.lft.to/lastmile_qr_scan"}, "fusion_lon": 0.0}, {"lat": 38.919214333333336, "is_disabled": 0, "type": "electric_scooter", "lon": -77.048084, "bike_id": "2eab05409a1b26e374eb955fdf50bda3", "fusion_lat": 0.0, "name": "2eab05409a1b26e374eb955fdf50bda3", "is_reserved": 0, "rental_uris": {"android": "https://dc.lft.to/lastmile_qr_scan", "ios": "https://dc.lft.to/lastmile_qr_scan"}, "fusion_lon": 0.0}, {"lat": 38.8922995, "is_disabled": 0, "type": "electric_scooter", "lon": -77.05003433333333, "bike_id": "071ce1b12dc031612907835724b59914", "fusion_lat": 0.0, "name": "071ce1b12dc031612907835724b59914", "is_reserved": 0, "rental_uris": {"android": "https://dc.lft.to/lastmile_qr_scan", "ios": "https://dc.lft.to/lastmile_qr_scan"}, "fusion_lon": 0.0}, {"lat": 38.899042666666666, "is_disabled": 0, "type": "electric_scooter", "lon": -77.03226133333334, "bike_id": "90f3d3388d3d1728d569d5522aeb92af", "fusion_lat": 0.0, "name": "90f3d3388d3d1728d569d5522aeb92af", "is_reserved": 0, "rental_uris": {"android": "https://dc.lft.to/lastmile_qr_scan", "ios": "https://dc.lft.to/lastmile_qr_scan"}, "fusion_lon": 0.0}, {"lat": 38.89682916666667, "is_disabled": 0, "type": "electric_scooter", "lon": -76.93531333333334, "bike_id": "497dc2952f49cc324c5a53a5a7163c31", "fusion_lat": 0.0, "name": "497dc2952f49cc324c5a53a5a7163c31", "is_reserved": 0, "rental_uris": {"android": "https://dc.lft.to/lastmile_qr_scan", "ios": "https://dc.lft.to/lastmile_qr_scan"}, "fusion_lon": 0.0}, {"lat": 38.9006205, "is_disabled": 0, "type": "electric_scooter", "lon": -77.0021845, "bike_id": "9a22728aef05fb0c1a7dd50a65506e4d", "fusion_lat": 0.0, "name": "9a22728aef05fb0c1a7dd50a65506e4d", "is_reserved": 0, "rental_uris": {"android": "https://dc.lft.to/lastmile_qr_scan", "ios": "https://dc.lft.to/lastmile_qr_scan"}, "fusion_lon": 0.0}, {"lat": 38.892289833333336, "is_disabled": 0, "type": "electric_scooter", "lon": -77.048776, "bike_id": "bbc74a6a20cfc255587e9793b153ad8d", "fusion_lat": 0.0, "name": "bbc74a6a20cfc255587e9793b153ad8d", "is_reserved": 0, "rental_uris": {"android": "https://dc.lft.to/lastmile_qr_scan", "ios": "https://dc.lft.to/lastmile_qr_scan"}, "fusion_lon": 0.0}, {"lat": 38.91864266666666, "is_disabled": 0, "type": "electric_scooter", "lon": -77.04603666666667, "bike_id": "7c7b3ffa1fce2498058194bd73c39134", "fusion_lat": 0.0, "name": "7c7b3ffa1fce2498058194bd73c39134", "is_reserved": 0, "rental_uris": {"android": "https://dc.lft.to/lastmile_qr_scan", "ios": "https://dc.lft.to/lastmile_qr_scan"}, "fusion_lon": 0.0}, {"lat": 38.96142916666667, "is_disabled": 0, "type": "electric_scooter", "lon": -77.02800983333333, "bike_id": "c0ba32d8e62021da201ad88151aa9f41", "fusion_lat": 0.0, "name": "c0ba32d8e62021da201ad88151aa9f41", "is_reserved": 0, "rental_uris": {"android": "https://dc.lft.to/lastmile_qr_scan", "ios": "https://dc.lft.to/lastmile_qr_scan"}, "fusion_lon": 0.0}, {"lat": 38.913242, "is_disabled": 0, "type": "electric_scooter", "lon": -77.03265583333334, "bike_id": "1f4783dc1a3f9c69c06a034853f1ff55", "fusion_lat": 0.0, "name": "1f4783dc1a3f9c69c06a034853f1ff55", "is_reserved": 0, "rental_uris": {"android": "https://dc.lft.to/lastmile_qr_scan", "ios": "https://dc.lft.to/lastmile_qr_scan"}, "fusion_lon": 0.0}, {"lat": 38.914852333333336, "is_disabled": 0, "type": "electric_scooter", "lon": -77.03255333333334, "bike_id": "6a4d29602d0ada4da69b254443bd43b7", "fusion_lat": 0.0, "name": "6a4d29602d0ada4da69b254443bd43b7", "is_reserved": 0, "rental_uris": {"android": "https://dc.lft.to/lastmile_qr_scan", "ios": "https://dc.lft.to/lastmile_qr_scan"}, "fusion_lon": 0.0}, {"lat": 38.9206645, "is_disabled": 0, "type": "electric_scooter", "lon": -77.04339833333333, "bike_id": "114c2e2afc63b8b8db0a6763fe36863a", "fusion_lat": 0.0, "name": "114c2e2afc63b8b8db0a6763fe36863a", "is_reserved": 0, "rental_uris": {"android": "https://dc.lft.to/lastmile_qr_scan", "ios": "https://dc.lft.to/lastmile_qr_scan"}, "fusion_lon": 0.0}, {"lat": 38.908844, "is_disabled": 0, "type": "electric_scooter", "lon": -77.04391733333334, "bike_id": "10ecfb6acc58aa20e2880ffc5b215843", "fusion_lat": 0.0, "name": "10ecfb6acc58aa20e2880ffc5b215843", "is_reserved": 0, "rental_uris": {"android": "https://dc.lft.to/lastmile_qr_scan", "ios": "https://dc.lft.to/lastmile_qr_scan"}, "fusion_lon": 0.0}, {"lat": 38.866196333333335, "is_disabled": 0, "type": "electric_bike", "lon": -76.94570783333333, "bike_id": "7920466171f1a5d52149d938ff7ca582", "fusion_lat": 0.0, "name": "7920466171f1a5d52149d938ff7ca582", "is_reserved": 0, "rental_uris": {"android": "https://dc.lft.to/lastmile_qr_scan", "ios": "https://dc.lft.to/lastmile_qr_scan"}, "fusion_lon": 0.0}, {"lat": 38.95954566666666, "is_disabled": 0, "type": "electric_bike", "lon": -77.1008915, "bike_id": "e80fc7a43a85e8d19dab7f421eb8165a", "fusion_lat": 0.0, "name": "e80fc7a43a85e8d19dab7f421eb8165a", "is_reserved": 0, "rental_uris": {"android": "https://dc.lft.to/lastmile_qr_scan", "ios": "https://dc.lft.to/lastmile_qr_scan"}, "fusion_lon": 0.0}, {"lat": 38.931018, "is_disabled": 0, "type": "electric_scooter", "lon": -77.0326975, "bike_id": "5d072fb8334f393b07ca049bdb496a37", "fusion_lat": 0.0, "name": "5d072fb8334f393b07ca049bdb496a37", "is_reserved": 0, "rental_uris": {"android": "https://dc.lft.to/lastmile_qr_scan", "ios": "https://dc.lft.to/lastmile_qr_scan"}, "fusion_lon": 0.0}, {"lat": 38.915658666666666, "is_disabled": 0, "type": "electric_scooter", "lon": -77.01274266666667, "bike_id": "a6f4eff8155f644c29cdf92124df2563", "fusion_lat": 0.0, "name": "a6f4eff8155f644c29cdf92124df2563", "is_reserved": 0, "rental_uris": {"android": "https://dc.lft.to/lastmile_qr_scan", "ios": "https://dc.lft.to/lastmile_qr_scan"}, "fusion_lon": 0.0}, {"lat": 38.90135466666667, "is_disabled": 0, "type": "electric_scooter", "lon": -77.01782316666667, "bike_id": "437817f16727830a3e602f05a48d4bb2", "fusion_lat": 0.0, "name": "437817f16727830a3e602f05a48d4bb2", "is_reserved": 0, "rental_uris": {"android": "https://dc.lft.to/lastmile_qr_scan", "ios": "https://dc.lft.to/lastmile_qr_scan"}, "fusion_lon": 0.0}, {"lat": 38.903780833333336, "is_disabled": 0, "type": "electric_scooter", "lon": -77.03096183333334, "bike_id": "7936a4805bf7633c018b80279734b55e", "fusion_lat": 0.0, "name": "7936a4805bf7633c018b80279734b55e", "is_reserved": 0, "rental_uris": {"android": "https://dc.lft.to/lastmile_qr_scan", "ios": "https://dc.lft.to/lastmile_qr_scan"}, "fusion_lon": 0.0}, {"lat": 38.92568033333333, "is_disabled": 0, "type": "electric_scooter", "lon": -77.05756666666667, "bike_id": "7d2350132e95e84eaae1471330adc747", "fusion_lat": 0.0, "name": "7d2350132e95e84eaae1471330adc747", "is_reserved": 0, "rental_uris": {"android": "https://dc.lft.to/lastmile_qr_scan", "ios": "https://dc.lft.to/lastmile_qr_scan"}, "fusion_lon": 0.0}, {"lat": 38.901576, "is_disabled": 0, "type": "electric_scooter", "lon": -76.9863775, "bike_id": "20ad3ebcfb2cf6ed2927d94c2cf0c24a", "fusion_lat": 0.0, "name": "20ad3ebcfb2cf6ed2927d94c2cf0c24a", "is_reserved": 0, "rental_uris": {"android": "https://dc.lft.to/lastmile_qr_scan", "ios": "https://dc.lft.to/lastmile_qr_scan"}, "fusion_lon": 0.0}, {"lat": 38.927501166666666, "is_disabled": 0, "type": "electric_scooter", "lon": -76.99714616666667, "bike_id": "c4765b34c5c1adf80e29140327836d5b", "fusion_lat": 0.0, "name": "c4765b34c5c1adf80e29140327836d5b", "is_reserved": 0, "rental_uris": {"android": "https://dc.lft.to/lastmile_qr_scan", "ios": "https://dc.lft.to/lastmile_qr_scan"}, "fusion_lon": 0.0}, {"lat": 38.84281133333333, "is_disabled": 0, "type": "electric_bike", "lon": -76.98845783333333, "bike_id": "8d1aba3239ce2ffd13d12eced18e83aa", "fusion_lat": 0.0, "name": "8d1aba3239ce2ffd13d12eced18e83aa", "is_reserved": 0, "rental_uris": {"android": "https://dc.lft.to/lastmile_qr_scan", "ios": "https://dc.lft.to/lastmile_qr_scan"}, "fusion_lon": 0.0}, {"lat": 38.956368499999996, "is_disabled": 0, "type": "electric_bike", "lon": -76.93883716666667, "bike_id": "d8a2e4b59170b491fd646bc905f51e16", "fusion_lat": 0.0, "name": "d8a2e4b59170b491fd646bc905f51e16", "is_reserved": 0, "rental_uris": {"android": "https://dc.lft.to/lastmile_qr_scan", "ios": "https://dc.lft.to/lastmile_qr_scan"}, "fusion_lon": 0.0},