{"data": {"bikes": [{"fusion_lat": 0.0, "name": "2b7ce71ad075470fa126cffc46bd444a", "is_disabled": 0, "rental_uris": {"android": "https://dc.lft.to/lastmile_qr_scan", "ios": "https://dc.lft.to/lastmile_qr_scan"}, "fusion_lon": 0.0, "lat": 38.912918166666664, "bike_id": "2b7ce71ad075470fa126cffc46bd444a", "type": "electric_scooter", "is_reserved": 0, "lon": -77.04746216666666}, {"fusion_lat": 0.0, "name": "4bcdd64bb593e5993bfd899b5a778314", "is_disabled": 0, "rental_uris": {"android": "https://dc.lft.to/lastmile_qr_scan", "ios": "https://dc.lft.to/lastmile_qr_scan"}, "fusion_lon": 0.0, "lat": 38.896155666666665, "bike_id": "4bcdd64bb593e5993bfd899b5a778314", "type": "electric_scooter", "is_reserved": 0, "lon": -77.04481183333333}, {"fusion_lat": 0.0, "name": "89551ae942e0f5b1c4f2aab8f37c8989", "is_disabled": 0, "rental_uris": {"android": "https://dc.lft.to/lastmile_qr_scan", "ios": "https://dc.lft.to/lastmile_qr_scan"}, "fusion_lon": 0.0, "lat": 38.95795366666667, "bike_id": "89551ae942e0f5b1c4f2aab8f37c8989", "type": "electric_bike", "is_reserved": 0, "lon": -76.99966933333333}, {"fusion_lat": 0.0, "name": "5e5776daa0dd3af99f7b7949e98e9fb1", "is_disabled": 0, "rental_uris": {"android": "https://dc.lft.to/lastmile_qr_scan", "ios": "https://dc.lft.to/lastmile_qr_scan"}, "fusion_lon": 0.0, "lat": 38.9695585, "bike_id": "5e5776daa0dd3af99f7b7949e98e9fb1", "type": "electric_bike", "is_reserved": 0, "lon": -77.03349733333333}, {"fusion_lat": 0.0, "name": "f19bd835f32a5684f3dc247db004aa75", "is_disabled": 0, "rental_uris": {"android": "https://dc.lft.to/lastmile_qr_scan", "ios": "https://dc.lft.to/lastmile_qr_scan"}, "fusion_lon": 0.0, "lat": 38.917566, "bike_id": "f19bd835f32a5684f3dc247db004aa75", "type": "electric_scooter", "is_reserved": 0, "lon": -77.02308283333333}, {"fusion_lat": 0.0, "name": "f31ff95cb856e7532a93dd99f4bc8fbc", "is_disabled": 0, "rental_uris": {"android": "https://dc.lft.to/lastmile_qr_scan", "ios": "https://dc.lft.to/lastmile_qr_scan"}, "fusion_lon": 0.0, "lat": 38.90068466666666, "bike_id": "f31ff95cb856e7532a93dd99f4bc8fbc", "type": "electric_scooter", "is_reserved": 0, "lon": -76.93382216666667}, {"fusion_lat": 0.0, "name": "f2d4b9c52c22edeae8b7dfabc5744228", "is_disabled": 0, "rental_uris": {"android": "https://dc.lft.to/lastmile_qr_scan", "ios": "https://dc.lft.to/lastmile_qr_scan"}, "fusion_lon": 0.0, "lat": 38.85780616666667, "bike_id": "f2d4b9c52c22edeae8b7dfabc5744228", "type": "electric_scooter", "is_reserved": 0, "lon": -76.97299833333334}, {"fusion_lat": 0.0, "name": "9af02cf51b73739e21a377dfde0b65a2", "is_disabled": 0, "rental_uris": {"android": "https://dc.lft.to/lastmile_qr_scan", "ios": "https://dc.lft.to/lastmile_qr_scan"}, "fusion_lon": 0.0, "lat": 38.9037135, "bike_id": "9af02cf51b73739e21a377dfde0b65a2", "type": "electric_scooter", "is_reserved": 0, "lon": -77.061251}, {"fusion_lat": 0.0, "name": "a5d88c33b7207e2777948e1a0903a329", "is_disabled": 0, "rental_uris": {"android": "https://dc.lft.to/lastmile_qr_scan", "ios": "https://dc.lft.to/lastmile_qr_scan"}, "fusion_lon": 0.0, "lat": 38.920555666666665, "bike_id": "a5d88c33b7207e2777948e1a0903a329", "type": "electric_scooter", "is_reserved": 0, "lon": -77.02534733333333}, {"fusion_lat": 0.0, "name": "b7d4edbf26717b38f17c5967e57d5b2e", "is_disabled": 0, "rental_uris": {"android": "https://dc.lft.to/lastmile_qr_scan", "ios": "https://dc.lft.to/lastmile_qr_scan"}, "fusion_lon": 0.0, "lat": 38.9297065, "bike_id": "b7d4edbf26717b38f17c5967e57d5b2e", "type": "electric_scooter", "is_reserved": 0, "lon": -77.0282615}, {"fusion_lat": 0.0, "name": "a6dfaabe12e7cb2ec877267fc8aa0e4d", "is_disabled": 0, "rental_uris": {"android": "https://dc.lft.to/lastmile_qr_scan", "ios": "https://dc.lft.to/lastmile_qr_scan"}, "fusion_lon": 0.0, "lat": 38.899999, "bike_id": "a6dfaabe12e7cb2ec877267fc8aa0e4d", "type": "electric_scooter", "is_reserved": 0, "lon": -77.0393995}, {"fusion_lat": 0.0, "name": "ec95871f5a88cc0494bc6b365429bae5", "is_disabled": 0, "rental_uris": {"android": "https://dc.lft.to/lastmile_qr_scan", "ios": "https://dc.lft.to/lastmile_qr_scan"}, "fusion_lon": 0.0, "lat": 38.925273, "bike_id": "ec95871f5a88cc0494bc6b365429bae5", "type": "electric_scooter", "is_reserved": 0, "lon": -77.05562716666667}, {"fusion_lat": 0.0, "name": "8ffeb02b161f162265d84c6899a4aa39", "is_disabled": 0, "rental_uris": {"android": "https://dc.lft.to/lastmile_qr_scan", "ios": "https://dc.lft.to/lastmile_qr_scan"}, "fusion_lon": 0.0, "lat": 38.91914333333333, "bike_id": "8ffeb02b161f162265d84c6899a4aa39", "type": "electric_scooter", "is_reserved": 0, "lon": -77.03577616666666}, {"fusion_lat": 0.0, "name": "8b77f2966e44a7a047ac9ee7057b5cdc", "is_disabled": 0, "rental_uris": {"android": "https://dc.lft.to/lastmile_qr_scan", "ios": "https://dc.lft.to/lastmile_qr_scan"}, "fusion_lon": 0.0, "lat": 38.939063, "bike_id": "8b77f2966e44a7a047ac9ee7057b5cdc", "type": "electric_scooter", "is_reserved": 0, "lon": -77.02469133333334}, {"fusion_lat": 0.0, "name": "5b6d15927fb6f1e2dd91f14244844b8e", "is_disabled": 0, "rental_uris": {"android": "https://dc.lft.to/lastmile_qr_scan", "ios": "https://dc.lft.to/lastmile_qr_scan"}, "fusion_lon": 0.0, "lat": 38.93548916666667, "bike_id": "5b6d15927fb6f1e2dd91f14244844b8e", "type": "electric_scooter", "is_reserved": 0, "lon": -77.03252416666666}, {"fusion_lat": 0.0, "name": "76e25decac2eeeb439f55d31b0499068", "is_disabled": 0, "rental_uris": {"android": "https://dc.lft.to/lastmile_qr_scan", "ios": "https://dc.lft.to/lastmile_qr_scan"}, "fusion_lon": 0.0, "lat": 38.845073166666666, "bike_id": "76e25decac2eeeb439f55d31b0499068", "type": "electric_bike", "is_reserved": 0, "lon": -76.9934995}, {"fusion_lat": 0.0, "name": "68e43ea44a6b5cd76d3399d38c15f049", "is_disabled": 0, "rental_uris": {"android": "https://dc.lft.to/lastmile_qr_scan", "ios": "https://dc.lft.to/lastmile_qr_scan"}, "fusion_lon": 0.0, "lat": 38.90050316666667, "bike_id": "68e43ea44a6b5cd76d3399d38c15f049", "type": "electric_scooter", "is_reserved": 0, "lon": -77.0320425}, {"fusion_lat": 0.0, "name": "ffb36b9259124ad9068406c15c205a3b", "is_disabled": 0, "rental_uris": {"android": "https://dc.lft.to/lastmile_qr_scan", "ios": "https://dc.lft.to/lastmile_qr_scan"}, "fusion_lon": 0.0, "lat": 38.92957666666667, "bike_id": "ffb36b9259124ad9068406c15c205a3b", "type": "electric_scooter", "is_reserved": 0, "lon": -77.02979566666667}, {"fusion_lat": 0.0, "name": "39364e2bacbde4826c42eadb8fe112b9", "is_disabled": 0, "rental_uris": {"android": "https://dc.lft.to/lastmile_qr_scan", "ios": "https://dc.lft.to/lastmile_qr_scan"}, "fusion_lon": 0.0, "lat": 38.92308516666667, "bike_id": "39364e2bacbde4826c42eadb8fe112b9", "type": "electric_scooter", "is_reserved": 0, "lon": -77.02908516666666}, {"fusion_lat": 0.0, "name": "f456e470b5ae2bbf13589e2f3d154ee8", "is_disabled": 0, "rental_uris": {"android": "https://dc.lft.to/lastmile_qr_scan", "ios": "https://dc.lft.to/lastmile_qr_scan"}, "fusion_lon": 0.0, "lat": 38.932174, "bike_id": "f456e470b5ae2bbf13589e2f3d154ee8", "type": "electric_scooter", "is_reserved": 0, "lon": -77.03512983333333}, {"fusion_lat": 0.0, "name": "53ba491466fd1d09971ca621a1945de0", "is_disabled": 0, "rental_uris": {"android": "https://dc.lft.to/lastmile_qr_scan", "ios": "https://dc.lft.to/lastmile_qr_scan"}, "fusion_lon": 0.0, "lat": 38.8856135, "bike_id": "53ba491466fd1d09971ca621a1945de0", "type": "electric_scooter", "is_reserved": 0, "lon": -76.97716333333334}, {"fusion_lat": 0.0, "name": "cd9b0e588c48158af54bd6a3e2d2796d", "is_disabled": 0, "rental_uris": {"android": "https://dc.lft.to/lastmile_qr_scan", "ios": "https://dc.lft.to/lastmile_qr_scan"}, "fusion_lon": 0.0, "lat": 38.91658016666667, "bike_id": "cd9b0e588c48158af54bd6a3e2d2796d", "type": "electric_scooter", "is_reserved": 0, "lon": -77.02809766666667}, {"fusion_lat": 0.0, "name": "2ee404a33504363d980be4c7578da7db", "is_disabled": 0, "rental_uris": {"android": "https://dc.lft.to/lastmile_qr_scan", "ios": "https://dc.lft.to/lastmile_qr_scan"}, "fusion_lon": 0.0, "lat": 38.9192235, "bike_id": "2ee404a33504363d980be4c7578da7db", "type": "electric_scooter", "is_reserved": 0, "lon": -77.00972716666666}, {"fusion_lat": 0.0, "name": "e7b0329f9f78007717edd133e14aac0f", "is_disabled": 0, "rental_uris": {"android": "https://dc.lft.to/lastmile_qr_scan", "ios": "https://dc.lft.to/lastmile_qr_scan"}, "fusion_lon": 0.0, "lat": 38.900667166666665, "bike_id": "e7b0329f9f78007717edd133e14aac0f", "type": "electric_scooter", "is_reserved": 0, "lon": -77.054219}, {"fusion_lat": 0.0, "name": "6f7adc86bfc2fdeaae48c1b2a9665961", "is_disabled": 0, "rental_uris": {"android": "https://dc.lft.to/lastmile_qr_scan", "ios": "https://dc.lft.to/lastmile_qr_scan"}, "fusion_lon": 0.0, "lat": 38.91658116666667, "bike_id": "6f7adc86bfc2fdeaae48c1b2a9665961", "type": "electric_scooter", "is_reserved": 0, "lon": -77.02278883333334}, {"fusion_lat": 0.0, "name": "6ca948616321b33df77ce419e7106068", "is_disabled": 0, "rental_uris": {"android": "https://dc.lft.to/lastmile_qr_scan", "ios": "https://dc.lft.to/lastmile_qr_scan"}, "fusion_lon": 0.0, "lat": 38.95927, "bike_id": "6ca948616321b33df77ce419e7106068", "type": "electric_bike", "is_reserved": 0, "lon": -77.0311675}, {"fusion_lat": 0.0, "name": "ca77f6db0eef76f0efc9c72d477f466e", "is_disabled": 0, "rental_uris": {"android": "https://dc.lft.to/lastmile_qr_scan", "ios": "https://dc.lft.to/lastmile_qr_scan"}, "fusion_lon": 0.0, "lat": 38.92102933333334, "bike_id": "ca77f6db0eef76f0efc9c72d477f466e", "type": "electric_scooter", "is_reserved": 0, "lon": -77.04167633333333}, {"fusion_lat": 0.0, "name": "b8b71be01afe844dee74f36495aea0ea", "is_disabled": 0, "rental_uris": {"android": "https://dc.lft.to/lastmile_qr_scan", "ios": "https://dc.lft.to/lastmile_qr_scan"}, "fusion_lon": 0.0, "lat": 38.90513466666667, "bike_id": "b8b71be01afe844dee74f36495aea0ea", "type": "electric_scooter", "is_reserved": 0, "lon": -77.0688535}, {"fusion_lat": 0.0, "name": "59a51c69d96ceb3b64df7b605dec4855", "is_disabled": 0, "rental_uris": {"android": "https://dc.lft.to/lastmile_qr_scan", "ios": "https://dc.lft.to/lastmile_qr_scan"}, "fusion_lon": 0.0, "lat": 38.885926166666664, "bike_id": "59a51c69d96ceb3b64df7b605dec4855", "type": "electric_scooter", "is_reserved": 0, "lon": -77.01946116666667}, {"fusion_lat": 0.0, "name": "d575843eb4b3be1cf843219cf904c500", "is_disabled": 0, "rental_uris": {"android": "https://dc.lft.to/lastmile_qr_scan", "ios": "https://dc.lft.to/lastmile_qr_scan"}, "fusion_lon": 0.0, "lat": 38.908902, "bike_id": "d575843eb4b3be1cf843219cf904c500", "type": "electric_scooter", "is_reserved": 0, "lon": -76.99871016666667}, {"fusion_lat": 0.0, "name": "c26c99782c2e6ea8e64220415fc5ecb4", "is_disabled": 0, "rental_uris": {"android": "https://dc.lft.to/lastmile_qr_scan", "ios": "https://dc.lft.to/lastmile_qr_scan"}, "fusion_lon": 0.0, "lat": 38.88609316666667, "bike_id": "c26c99782c2e6ea8e64220415fc5ecb4", "type": "electric_scooter", "is_reserved": 0, "lon": -77.0124805}, {"fusion_lat": 0.0, "name": "e922d7afd8174099d982d0787df1cbac", "is_disabled": 0, "rental_uris": {"android": "https://dc.lft.to/lastmile_qr_scan", "ios": "https://dc.lft.to/lastmile_qr_scan"}, "fusion_lon": 0.0, "lat": 38.91117833333333, "bike_id": "e922d7afd8174099d982d0787df1cbac", "type": "electric_scooter", "is_reserved": 0, "lon": -76.99761016666666}, {"fusion_lat": 0.0, "name": "b3139eb0603d6b1100f03b9eae16f784", "is_disabled": 0, "rental_uris": {"android": "https://dc.lft.to/lastmile_qr_scan", "ios": "https://dc.lft.to/lastmile_qr_scan"}, "fusion_lon": 0.0, "lat": 38.89974516666667, "bike_id": "b3139eb0603d6b1100f03b9eae16f784", "type": "electric_scooter", "is_reserved": 0, "lon": -77.00672366666667}, {"fusion_lat": 0.0, "name": "9939b05fb32ccf6f39febc00a0d840a9", "is_disabled": 0, "rental_uris": {"android": "https://dc.lft.to/lastmile_qr_scan", "ios": "https://dc.lft.to/lastmile_qr_scan"}, "fusion_lon": 0.0, "lat": 38.9011825, "bike_id": "9939b05fb32ccf6f39febc00a0d840a9", "type": "electric_scooter", "is_reserved": 0, "lon": -77.00248616666667}, {"fusion_lat": 0.0, "name": "6ad88254be6f70390e667aa132d80b60", "is_disabled": 0, "rental_uris": {"android": "https://dc.lft.to/lastmile_qr_scan", "ios": "https://dc.lft.to/lastmile_qr_scan"}, "fusion_lon": 0.0, "lat": 38.92481766666667, "bike_id": "6ad88254be6f70390e667aa132d80b60", "type": "electric_scooter", "is_reserved": 0, "lon": -77.0264495}, {"fusion_lat": 0.0, "name": "1d0531cfa88e55698516a4bb771a1001", "is_disabled": 0, "rental_uris": {"android": "https://dc.lft.to/lastmile_qr_scan", "ios": "https://dc.lft.to/lastmile_qr_scan"}, "fusion_lon": 0.0, "lat": 38.891667, "bike_id": "1d0531cfa88e55698516a4bb771a1001", "type": "electric_scooter", "is_reserved": 0, "lon": -76.99461316666667}, {"fusion_lat": 0.0, "name": "fa1f493a9f3748fcacb85e095ef95217", "is_disabled": 0, "rental_uris": {"android": "https://dc.lft.to/lastmile_qr_scan", "ios": "https://dc.lft.to/lastmile_qr_scan"}, "fusion_lon": 0.0, "lat": 38.899215, "bike_id": "fa1f493a9f3748fcacb85e095ef95217", "type": "electric_scooter", "is_reserved": 0, "lon": -77.00341366666666}, {"fusion_lat": 0.0, "name": "6fbeb46cdf4a6b52db1ecb64e3c1123a", "is_disabled": 0, "rental_uris": {"android": "https://dc.lft.to/lastmile_qr_scan", "ios": "https://dc.lft.to/lastmile_qr_scan"}, "fusion_lon": 0.0, "lat": 38.93196533333333, "bike_id": "6fbeb46cdf4a6b52db1ecb64e3c1123a", "type": "electric_scooter", "is_reserved": 0, "lon": -77.0278825}, {"fusion_lat": 0.0, "name": "e51e40fecc72305a5eecdad607b972aa", "is_disabled": 0, "rental_uris": {"android": "https://dc.lft.to/lastmile_qr_scan", "ios": "https://dc.lft.to/lastmile_qr_scan"}, "fusion_lon": 0.0, "lat": 38.89062466666667, "bike_id": "e51e40fecc72305a5eecdad607b972aa", "type": "electric_scooter", "is_reserved": 0, "lon": -76.94451533333333}, {"fusion_lat": 0.0, "name": "674c5711e7d980376a4f9fff4f46c38a", "is_disabled": 0, "rental_uris": {"android": "https://dc.lft.to/lastmile_qr_scan", "ios": "https://dc.lft.to/lastmile_qr_scan"}, "fusion_lon": 0.0, "lat": 38.895433, "bike_id": "674c5711e7d980376a4f9fff4f46c38a", "type": "electric_scooter", "is_reserved": 0, "lon": -77.01190416666667}, {"fusion_lat": 0.0, "name": "151d3b9683abbf6c777c17223ad99518", "is_disabled": 0, "rental_uris": {"android": "https://dc.lft.to/lastmile_qr_scan", "ios": "https://dc.lft.to/lastmile_qr_scan"}, "fusion_lon": 0.0, "lat": 38.9251025, "bike_id": "151d3b9683abbf6c777c17223ad99518", "type": "electric_scooter", "is_reserved": 0, "lon": -76.99552966666667}, {"fusion_lat": 0.0, "name": "c8fa634cede22523f150cbbc56dc56f9", "is_disabled": 0, "rental_uris": {"android": "https://dc.lft.to/lastmile_qr_scan", "ios": "https://dc.lft.to/lastmile_qr_scan"}, "fusion_lon": 0.0, "lat": 38.875528, "bike_id": "c8fa634cede22523f150cbbc56dc56f9", "type": "electric_scooter", "is_reserved": 0, "lon": -77.0056405}, {"fusion_lat": 0.0, "name": "dd5ec15975df56e2624d5fcc4166d430", "is_disabled": 0, "rental_uris": {"android": "https://dc.lft.to/lastmile_qr_scan", "ios": "https://dc.lft.to/lastmile_qr_scan"}, "fusion_lon": 0.0, "lat": 38.9564105, "bike_id": "dd5ec15975df56e2624d5fcc4166d430", "type": "electric_scooter", "is_reserved": 0, "lon": -77.024112}, {"fusion_lat": 0.0, "name": "9d7844ddf77e4548d2f453c53774e911", "is_disabled": 0, "rental_uris": {"android": "https://dc.lft.to/lastmile_qr_scan", "ios": "https://dc.lft.to/lastmile_qr_scan"}, "fusion_lon": 0.0, "lat": 38.91400383333333, "bike_id": "9d7844ddf77e4548d2f453c53774e911", "type": "electric_scooter", "is_reserved": 0, "lon": -77.0331775}, {"fusion_lat": 0.0, "name": "3e7b7ebc389ceba90f47cb434b1f7fe1", "is_disabled": 0, "rental_uris": {"android": "https://dc.lft.to/lastmile_qr_scan", "ios": "https://dc.lft.to/lastmile_qr_scan"}, "fusion_lon": 0.0, "lat": 38.9111855, "bike_id": "3e7b7ebc389ceba90f47cb434b1f7fe1", "type": "electric_scooter", "is_reserved": 0, "lon": -77.03830316666667}, {"fusion_lat": 0.0, "name": "fadf14b473ae94869ea47a0755607100", "is_disabled": 0, "rental_uris": {"android": "https://dc.lft.to/lastmile_qr_scan", "ios": "https://dc.lft.to/lastmile_qr_scan"}, "fusion_lon": 0.0, "lat": 38.90642, "bike_id": "fadf14b473ae94869ea47a0755607100", "type": "electric_scooter", "is_reserved": 0, "lon": -77.01135133333334}, {"fusion_lat": 0.0, "name": "6dfc42ad811e50297f34dba206afee26", "is_disabled": 0, "rental_uris": {"android": "https://dc.lft.to/lastmile_qr_scan", "ios": "https://dc.lft.to/lastmile_qr_scan"}, "fusion_lon": 0.0, "lat": 38.914004166666665, "bike_id": "6dfc42ad811e50297f34dba206afee26", "type": "electric_scooter", "is_reserved": 0, "lon": -77.03322933333334}, {"fusion_lat": 0.0, "name": "53d9d20d715294b2d45418f65a97f246", "is_disabled": 0, "rental_uris": {"android": "https://dc.lft.to/lastmile_qr_scan", "ios": "https://dc.lft.to/lastmile_qr_scan"}, "fusion_lon": 0.0, "lat": 38.92509916666667, "bike_id": "53d9d20d715294b2d45418f65a97f246", "type": "electric_scooter", "is_reserved": 0, "lon": -77.00215183333333}, {"fusion_lat": 0.0, "name": "dbcf502fc1d7d65d1d2f953a5f388a0b", "is_disabled": 0, "rental_uris": {"android": "https://dc.lft.to/lastmile_qr_scan", "ios": "https://dc.lft.to/lastmile_qr_scan"}, "fusion_lon": 0.0, "lat": 38.906075666666666, "bike_id": "dbcf502fc1d7d65d1d2f953a5f388a0b", "type": "electric_scooter", "is_reserved": 0, "lon": -77.0568335}, {"fusion_lat": 0.0, "name": "8e7aafe3daf271d8136f86b680c62b8b", "is_disabled": 0, "rental_uris": {"android": "https://dc.lft.to/lastmile_qr_scan", "ios": "https://dc.lft.to/lastmile_qr_scan"}, "fusion_lon": 0.0, "lat": 38.953308666666665, "bike_id": "8e7aafe3daf271d8136f86b680c62b8b", "type": "electric_bike", "is_reserved": 0, "lon": -76.98248133333334}, {"fusion_lat": 0.0, "name": "9821fc441ea86d52a9c7e654ccb33075", "is_disabled": 0, "rental_uris": {"android": "https://dc.lft.to/lastmile_qr_scan", "ios": "https://dc.lft.to/lastmile_qr_scan"}, "fusion_lon": 0.0, "lat": 38.840867, "bike_id": "9821fc441ea86d52a9c7e654ccb33075", "type": "electric_bike", "is_reserved": 0, "lon": -76.97024333333333}, {"fusion_lat": 0.0, "name": "038559bf6dcd333f35c7efe5ec7a049f", "is_disabled": 0, "rental_uris": {"android": "https://dc.lft.to/lastmile_qr_scan", "ios": "https://dc.lft.to/lastmile_qr_scan"}, "fusion_lon": 0.0, "lat": 38.930573333333335, "bike_id": "038559bf6dcd333f35c7efe5ec7a049f", "type": "electric_scooter", "is_reserved": 0, "lon": -77.02320483333334}, {"fusion_lat": 0.0, "name": "8b6a31b2a6c314db28c23ad164140fad", "is_disabled": 0, "rental_uris": {"android": "https://dc.lft.to/lastmile_qr_scan", "ios": "https://dc.lft.to/lastmile_qr_scan"}, "fusion_lon": 0.0, "lat": 38.92064383333334, "bike_id": "8b6a31b2a6c314db28c23ad164140fad", "type": "electric_bike", "is_reserved": 0, "lon": -77.04799816666667}, {"fusion_lat": 0.0, "name": "400aa2bdc971b6596691213c4a3b3133", "is_disabled": 0, "rental_uris": {"android": "https://dc.lft.to/lastmile_qr_scan", "ios": "https://dc.lft.to/lastmile_qr_scan"}, "fusion_lon": 0.0, "lat": 38.920400666666666, "bike_id": "400aa2bdc971b6596691213c4a3b3133", "type": "electric_scooter", "is_reserved": 0, "lon": -77.01778733333333}, {"fusion_lat": 0.0, "name": "b4e95b6de63ff05b4e1bf770515e610c", "is_disabled": 0, "rental_uris": {"android": "https://dc.lft.to/lastmile_qr_scan", "ios": "https://dc.lft.to/lastmile_qr_scan"}, "fusion_lon": 0.0, "lat": 38.92324683333333, "bike_id": "b4e95b6de63ff05b4e1bf770515e610c", "type": "electric_scooter", "is_reserved": 0, "lon": -77.02131183333333}, {"fusion_lat": 0.0, "name": "5e0b2becd7f7e11812d2937f2376853e", "is_disabled": 0, "rental_uris": {"android": "https://dc.lft.to/lastmile_qr_scan", "ios": "https://dc.lft.to/lastmile_qr_scan"}, "fusion_lon": 0.0, "lat": 38.905773833333335, "bike_id": "5e0b2becd7f7e11812d2937f2376853e", "type": "electric_scooter", "is_reserved": 0, "lon": -77.00585383333333}, {"fusion_lat": 0.0, "name": "1b6ab298c763681c938aad7b7be3d2bf", "is_disabled": 0, "rental_uris": {"android": "https://dc.lft.to/lastmile_qr_scan", "ios": "https://dc.lft.to/lastmile_qr_scan"}, "fusion_lon": 0.0, "lat": 38.91969816666667, "bike_id": "1b6ab298c763681c938aad7b7be3d2bf", "type": "electric_scooter", "is_reserved": 0, "lon": -77.044968}, {"fusion_lat": 0.0, "name": "ea2868a66e652ccb92ac239627d29b04", "is_disabled": 0, "rental_uris": {"android": "https://dc.lft.to/lastmile_qr_scan", "ios": "https://dc.lft.to/lastmile_qr_scan"}, "fusion_lon": 0.0, "lat": 38.85551733333333, "bike_id": "ea2868a66e652ccb92ac239627d29b04", "type": "electric_scooter", "is_reserved": 0, "lon": -76.987548}, {"fusion_lat": 0.0, "name": "68428e917a9d9ecf7368d3842122bd88", "is_disabled": 0, "rental_uris": {"android": "https://dc.lft.to/lastmile_qr_scan", "ios": "https://dc.lft.to/lastmile_qr_scan"}, "fusion_lon": 0.0, "lat": 38.924150166666664, "bike_id": "68428e917a9d9ecf7368d3842122bd88", "type": "electric_scooter", "is_reserved": 0, "lon": -77.03638416666666}, {"fusion_lat": 0.0, "name": "cb75a4026b81af33acc446a9f33f080f", "is_disabled": 0, "rental_uris": {"android": "https://dc.lft.to/lastmile_qr_scan", "ios": "https://dc.lft.to/lastmile_qr_scan"}, "fusion_lon": 0.0, "lat": 38.9002355, "bike_id": "cb75a4026b81af33acc446a9f33f080f", "type": "electric_scooter", "is_reserved": 0, "lon": -77.0003815}, {"fusion_lat": 0.0, "name": "b269ad33c61dac90a4de7ea12c798156", "is_disabled": 0, "rental_uris": {"android": "https://dc.lft.to/lastmile_qr_scan", "ios": "https://dc.lft.to/lastmile_qr_scan"}, "fusion_lon": 0.0, "lat": 38.897197, "bike_id": "b269ad33c61dac90a4de7ea12c798156", "type": "electric_scooter", "is_reserved": 0, "lon": -77.0432245}, {"fusion_lat": 0.0, "name": "d69e68019b61842243eb330f081e9284", "is_disabled": 0, "rental_uris": {"android": "https://dc.lft.to/lastmile_qr_scan", "ios": "https://dc.lft.to/lastmile_qr_scan"}, "fusion_lon": 0.0, "lat": 38.91624066666667, "bike_id": "d69e68019b61842243eb330f081e9284", "type": "electric_scooter", "is_reserved": 0, "lon": -77.03987816666667}, {"fusion_lat": 0.0, "name": "de39ef93a0c825b7375015ee16dad7db", "is_disabled": 0, "rental_uris": {"android": "https://dc.lft.to/lastmile_qr_scan", "ios": "https://dc.lft.to/lastmile_qr_scan"}, "fusion_lon": 0.0, "lat": 38.92020083333333, "bike_id": "de39ef93a0c825b7375015ee16dad7db", "type": "electric_scooter", "is_reserved": 0, "lon": -77.07118683333333}, {"fusion_lat": 0.0, "name": "632fd474fcf9f9f228c615640cda81de", "is_disabled": 0, "rental_uris": {"android": "https://dc.lft.to/lastmile_qr_scan", "ios": "https://dc.lft.to/lastmile_qr_scan"}, "fusion_lon": 0.0, "lat": 38.93083033333333, "bike_id": "632fd474fcf9f9f228c615640cda81de", "type": "electric_scooter", "is_reserved": 0, "lon": -77.02540516666667}, {"fusion_lat": 0.0, "name": "e4227d836363b2371abd0f6e5985b724", "is_disabled": 0, "rental_uris": {"android": "https://dc.lft.to/lastmile_qr_scan", "ios": "https://dc.lft.to/lastmile_qr_scan"}, "fusion_lon": 0.0, "lat": 38.92477616666667, "bike_id": "e4227d836363b2371abd0f6e5985b724", "type": "electric_scooter", "is_reserved": 0, "lon": -77.02624766666666}, {"fusion_lat": 0.0, "name": "00b52f5ddf88a20f41735a1aa79235a8", "is_disabled": 0, "rental_uris": {"android": "https://dc.lft.to/lastmile_qr_scan", "ios": "https://dc.lft.to/lastmile_qr_scan"}, "fusion_lon": 0.0, "lat": 38.914298333333335, "bike_id": "00b52f5ddf88a20f41735a1aa79235a8", "type": "electric_scooter", "is_reserved": 0, "lon": -77.03465016666667}, {"fusion_lat": 0.0, "name": "d63ca32effa8f96abfd75a6db833aa3f", "is_disabled": 0, "rental_uris": {"android": "https://dc.lft.to/lastmile_qr_scan", "ios": "https://dc.lft.to/lastmile_qr_scan"}, "fusion_lon": 0.0, "lat": 38.920205, "bike_id": "d63ca32effa8f96abfd75a6db833aa3f", "type": "electric_scooter", "is_reserved": 0, "lon": -77.031418}, {"fusion_lat": 0.0, "name": "76afdbbe5584ffb37b9ab85906db6db9", "is_disabled": 0, "rental_uris": {"android": "https://dc.lft.to/lastmile_qr_scan", "ios": "https://dc.lft.to/lastmile_qr_scan"}, "fusion_lon": 0.0, "lat": 38.92248033333333, "bike_id": "76afdbbe5584ffb37b9ab85906db6db9", "type": "electric_scooter", "is_reserved": 0, "lon": -77.074723}, {"fusion_lat": 0.0, "name": "27b7071617e7abfddf04d21567a87456", "is_disabled": 0, "rental_uris": {"android": "https://dc.lft.to/lastmile_qr_scan", "ios": "https://dc.lft.to/lastmile_qr_scan"}, "fusion_lon": 0.0, "lat": 38.93511633333333, "bike_id": "27b7071617e7abfddf04d21567a87456", "type": "electric_scooter", "is_reserved": 0, "lon": -77.032568}, {"fusion_lat": 0.0, "name": "116ca89526ab827d3078c76ca9a0443c", "is_disabled": 0, "rental_uris": {"android": "https://dc.lft.to/lastmile_qr_scan", "ios": "https://dc.lft.to/lastmile_qr_scan"}, "fusion_lon": 0.0, "lat": 38.92057633333334, "bike_id": "116ca89526ab827d3078c76ca9a0443c", "type": "electric_scooter", "is_reserved": 0, "lon": -77.042599}, {"fusion_lat": 0.0, "name": "07fe76e8aaf57334ace7ce574fc9d3c0", "is_disabled": 0, "rental_uris": {"android": "https://dc.lft.to/lastmile_qr_scan", "ios": "https://dc.lft.to/lastmile_qr_scan"}, "fusion_lon": 0.0, "lat": 38.90025383333333, "bike_id": "07fe76e8aaf57334ace7ce574fc9d3c0", "type": "electric_scooter", "is_reserved": 0, "lon": -77.002011}, {"fusion_lat": 0.0, "name": "48f3da8419798562fe045ffc06617e1c", "is_disabled": 0, "rental_uris": {"android": "https://dc.lft.to/lastmile_qr_scan", "ios": "https://dc.lft.to/lastmile_qr_scan"}, "fusion_lon": 0.0, "lat": 38.88323233333333, "bike_id": "48f3da8419798562fe045ffc06617e1c", "type": "electric_scooter", "is_reserved": 0, "lon": -77.01770083333334}, {"fusion_lat": 0.0, "name": "f9170a72565a1028bef0e2d9c756211e", "is_disabled": 0, "rental_uris": {"android": "https://dc.lft.to/lastmile_qr_scan", "ios": "https://dc.lft.to/lastmile_qr_scan"}, "fusion_lon": 0.0, "lat": 38.81333733333334, "bike_id": "f9170a72565a1028bef0e2d9c756211e", "type": "electric_bike", "is_reserved": 0, "lon": -77.0509225}, {"fusion_lat": 0.0, "name": "8f6b55202c4442d399f3633c2b66aa6c", "is_disabled": 0, "rental_uris": {"android": "https://dc.lft.to/lastmile_qr_scan", "ios": "https://dc.lft.to/lastmile_qr_scan"}, "fusion_lon": 0.0, "lat": 38.93194, "bike_id": "8f6b55202c4442d399f3633c2b66aa6c", "type": "electric_bike", "is_reserved": 0, "lon": -77.229246}, {"fusion_lat": 0.0, "name": "37aa0e208a1aad6e1b27c556a7d2ec9d", "is_disabled": 0, "rental_uris": {"android": "https://dc.lft.to/lastmile_qr_scan", "ios": "https://dc.lft.to/lastmile_qr_scan"}, "fusion_lon": 0.0, "lat": 38.89647983333333, "bike_id": "37aa0e208a1aad6e1b27c556a7d2ec9d", "type": "electric_scooter", "is_reserved": 0, "lon": -77.05005483333333}, {"fusion_lat": 0.0, "name": "8e85ffa52a0257ed1728019d6c9df8fb", "is_disabled": 0, "rental_uris": {"android": "https://dc.lft.to/lastmile_qr_scan", "ios": "https://dc.lft.to/lastmile_qr_scan"}, "fusion_lon": 0.0, "lat": 38.90921916666667, "bike_id": "8e85ffa52a0257ed1728019d6c9df8fb", "type": "electric_scooter", "is_reserved": 0, "lon": -77.04480916666667}, {"fusion_lat": 0.0, "name": "3ac585b6fd1f0e6324ef7e59f83ccc43", "is_disabled": 0, "rental_uris": {"android": "https://dc.lft.to/lastmile_qr_scan", "ios": "https://dc.lft.to/lastmile_qr_scan"}, "fusion_lon": 0.0, "lat": 38.95892166666667, "bike_id": "3ac585b6fd1f0e6324ef7e59f83ccc43", "type": "electric_scooter", "is_reserved": 0, "lon": -77.0275865}, {"fusion_lat": 0.0, "name": "e7771ef854cdb94711580d35f373d092", "is_disabled": 0, "rental_uris": {"android": "https://dc.lft.to/lastmile_qr_scan", "ios": "https://dc.lft.to/lastmile_qr_scan"}, "fusion_lon": 0.0, "lat": 38.813331833333336, "bike_id": "e7771ef854cdb94711580d35f373d092", "type": "electric_bike", "is_reserved": 0, "lon": -77.05080783333334}, {"fusion_lat": 0.0, "name": "b8bbc9760ea76f49a07f8bbdb7d97bea", "is_disabled": 0, "rental_uris": {"android": "https://dc.lft.to/lastmile_qr_scan", "ios": "https://dc.lft.to/lastmile_qr_scan"}, "fusion_lon": 0.0, "lat": 38.90524633333333, "bike_id": "b8bbc9760ea76f49a07f8bbdb7d97bea", "type": "electric_scooter", "is_reserved": 0, "lon": -77.0348465}, {"fusion_lat": 0.0, "name": "6b30bf7d8d29aa071c26c355246ee413", "is_disabled": 0, "rental_uris": {"android": "https://dc.lft.to/lastmile_qr_scan", "ios": "https://dc.lft.to/lastmile_qr_scan"}, "fusion_lon": 0.0, "lat": 38.88389516666667, "bike_id": "6b30bf7d8d29aa071c26c355246ee413", "type": "electric_scooter", "is_reserved": 0, "lon": -76.93053683333333}, {"fusion_lat": 0.0, "name": "cc598f49103ec9046f71cc6cb00c1792", "is_disabled": 0, "rental_uris": {"android": "https://dc.lft.to/lastmile_qr_scan", "ios": "https://dc.lft.to/lastmile_qr_scan"}, "fusion_lon": 0.0, "lat": 38.903721166666664, "bike_id": "cc598f49103ec9046f71cc6cb00c1792", "type": "electric_scooter", "is_reserved": 0, "lon": -77.06716983333334}, {"fusion_lat": 0.0, "name": "8730e057e0dcb97d34133b557d4e7274", "is_disabled": 0, "rental_uris": {"android": "https://dc.lft.to/lastmile_qr_scan", "ios": "https://dc.lft.to/lastmile_qr_scan"}, "fusion_lon": 0.0, "lat": 38.9224845, "bike_id": "8730e057e0dcb97d34133b557d4e7274", "type": "electric_scooter", "is_reserved": 0, "lon": -77.0807575}, {"fusion_lat": 0.0, "name": "f5c6891ad3a5be0eaf5a8308accd92cc", "is_disabled": 0, "rental_uris": {"android": "https://dc.lft.to/lastmile_qr_scan", "ios": "https://dc.lft.to/lastmile_qr_scan"}, "fusion_lon": 0.0, "lat": 38.8967975, "bike_id": "f5c6891ad3a5be0eaf5a8308accd92cc", "type": "electric_scooter", "is_reserved": 0, "lon": -77.0051255}, {"fusion_lat": 0.0, "name": "c17ff1bf71fe0776f0b0d3b72b2ddc27", "is_disabled": 0, "rental_uris": {"android": "https://dc.lft.to/lastmile_qr_scan", "ios": "https://dc.lft.to/lastmile_qr_scan"}, "fusion_lon": 0.0, "lat": 38.91552866666667, "bike_id": "c17ff1bf71fe0776f0b0d3b72b2ddc27", "type": "electric_scooter", "is_reserved": 0, "lon": -77.04112166666667}, {"fusion_lat": 0.0, "name": "1e333d3caf257afacbcea2ef01c287c5", "is_disabled": 0, "rental_uris": {"android": "https://dc.lft.to/lastmile_qr_scan", "ios": "https://dc.lft.to/lastmile_qr_scan"}, "fusion_lon": 0.0, "lat": 38.90382566666667, "bike_id": "1e333d3caf257afacbcea2ef01c287c5", "type": "electric_scooter", "is_reserved": 0, "lon": -77.03192366666667}, {"fusion_lat": 0.0, "name": "85d1613b7c10cd849a7e94751146d900", "is_disabled": 0, "rental_uris": {"android": "https://dc.lft.to/lastmile_qr_scan", "ios": "https://dc.lft.to/lastmile_qr_scan"}, "fusion_lon": 0.0, "lat": 38.9051105, "bike_id": "85d1613b7c10cd849a7e94751146d900", "type": "electric_scooter", "is_reserved": 0, "lon": -77.06381}, {"fusion_lat": 0.0, "name": "4768f66f29644d60937b297c3876d04e", "is_disabled": 0, "rental_uris": {"android": "https://dc.lft.to/lastmile_qr_scan", "ios": "https://dc.lft.to/lastmile_qr_scan"}, "fusion_lon": 0.0, "lat": 38.9183545, "bike_id": "4768f66f29644d60937b297c3876d04e", "type": "electric_scooter", "is_reserved": 0, "lon": -77.0351395}, {"fusion_lat": 0.0, "name": "cb512f8f8ef8d8e9f10ab47bc4603361", "is_disabled": 0, "rental_uris": {"android": "https://dc.lft.to/lastmile_qr_scan", "ios": "https://dc.lft.to/lastmile_qr_scan"}, "fusion_lon": 0.0, "lat": 38.957328833333335, "bike_id": "cb512f8f8ef8d8e9f10ab47bc4603361", "type": "electric_scooter", "is_reserved": 0, "lon": -77.02395783333333}, {"fusion_lat": 0.0, "name": "4320e6e279460d040d7432540a427db0", "is_disabled": 0, "rental_uris": {"android": "https://dc.lft.to/lastmile_qr_scan", "ios": "https://dc.lft.to/lastmile_qr_scan"}, "fusion_lon": 0.0, "lat": 38.91573066666667, "bike_id": "4320e6e279460d040d7432540a427db0", "type": "electric_scooter", "is_reserved": 0, "lon": -77.03848383333333}, {"fusion_lat": 0.0, "name": "402ebc7496a9e3a666e8eb1675f75f41", "is_disabled": 0, "rental_uris": {"android": "https://dc.lft.to/lastmile_qr_scan", "ios": "https://dc.lft.to/lastmile_qr_scan"}, "fusion_lon": 0.0, "lat": 38.90567883333333, "bike_id": "402ebc7496a9e3a666e8eb1675f75f41", "type": "electric_scooter", "is_reserved": 0, "lon": -77.03462233333333}, {"fusion_lat": 0.0, "name": "caa7fdc4461c22ad43feb196a0eac01c", "is_disabled": 0, "rental_uris": {"android": "https://dc.lft.to/lastmile_qr_scan", "ios": "https://dc.lft.to/lastmile_qr_scan"}, "fusion_lon": 0.0, "lat": 38.917190166666664, "bike_id": "caa7fdc4461c22ad43feb196a0eac01c", "type": "electric_scooter", "is_reserved": 0, "lon": -77.04589983333334}, {"fusion_lat": 0.0, "name": "096692fc77dee651f11cb6029640231e", "is_disabled": 0, "rental_uris": {"android": "https://dc.lft.to/lastmile_qr_scan", "ios": "https://dc.lft.to/lastmile_qr_scan"}, "fusion_lon": 0.0, "lat": 38.90972333333333, "bike_id": "096692fc77dee651f11cb6029640231e", "type": "electric_scooter", "is_reserved": 0, "lon": -77.00881}, {"fusion_lat": 0.0, "name": "b23bc13c892a22752e4e35fb01a88916", "is_disabled": 0, "rental_uris": {"android": "https://dc.lft.to/lastmile_qr_scan", "ios": "https://dc.lft.to/lastmile_qr_scan"}, "fusion_lon": 0.0, "lat": 38.86243416666667, "bike_id": "b23bc13c892a22752e4e35fb01a88916", "type": "electric_scooter", "is_reserved": 0, "lon": -76.99496683333334}, {"fusion_lat": 0.0, "name": "f97df9dabde54108db3434bdafae5d4a", "is_disabled": 0, "rental_uris": {"android": "https://dc.lft.to/lastmile_qr_scan", "ios": "https://dc.lft.to/lastmile_qr_scan"}, "fusion_lon": 0.0, "lat": 38.90578683333333, "bike_id": "f97df9dabde54108db3434bdafae5d4a", "type": "electric_scooter", "is_reserved": 0, "lon": -77.00883783333333}, {"fusion_lat": 0.0, "name": "a17ec1b87a778da3ebd9402135ab7999", "is_disabled": 0, "rental_uris": {"android": "https://dc.lft.to/lastmile_qr_scan", "ios": "https://dc.lft.to/lastmile_qr_scan"}, "fusion_lon": 0.0, "lat": 38.90735266666667, "bike_id": "a17ec1b87a778da3ebd9402135ab7999", "type": "electric_scooter", "is_reserved": 0, "lon": -77.02965083333333}, {"fusion_lat": 0.0, "name": "0055f34179b973a24ef30783dd859d74", "is_disabled": 0, "rental_uris": {"android": "https://dc.lft.to/lastmile_qr_scan", "ios": "https://dc.lft.to/lastmile_qr_scan"}, "fusion_lon": 0.0, "lat": 38.93101266666667, "bike_id": "0055f34179b973a24ef30783dd859d74", "type": "electric_scooter", "is_reserved": 0, "lon": -77.02395883333334}, {"fusion_lat": 0.0, "name": "f9ddba744fd8af645449209d89f43a14", "is_disabled": 0, "rental_uris": {"android": "https://dc.lft.to/lastmile_qr_scan", "ios": "https://dc.lft.to/lastmile_qr_scan"}, "fusion_lon": 0.0, "lat": 38.94167133333333, "bike_id": "f9ddba744fd8af645449209d89f43a14", "type": "electric_scooter", "is_reserved": 0, "lon": -77.02511166666666}, {"fusion_lat": 0.0, "name": "59de299b7db3263500f2a842ef0617e2", "is_disabled": 0, "rental_uris": {"android": "https://dc.lft.to/lastmile_qr_scan", "ios": "https://dc.lft.to/lastmile_qr_scan"}, "fusion_lon": 0.0, "lat": 38.88808233333334, "bike_id": "59de299b7db3263500f2a842ef0617e2", "type": "electric_scooter", "is_reserved": 0, "lon": -76.98354933333333}, {"fusion_lat": 0.0, "name": "a922c27366058d84211a71621788a698", "is_disabled": 0, "rental_uris": {"android": "https://dc.lft.to/lastmile_qr_scan", "ios": "https://dc.lft.to/lastmile_qr_scan"}, "fusion_lon": 0.0, "lat": 38.866408, "bike_id": "a922c27366058d84211a71621788a698", "type": "electric_scooter", "is_reserved": 0, "lon": -76.983038}, {"fusion_lat": 0.0, "name": "ffd3f8fe9bfaddc078b1f7379077de12", "is_disabled": 0, "rental_uris": {"android": "https://dc.lft.to/lastmile_qr_scan", "ios": "https://dc.lft.to/lastmile_qr_scan"}, "fusion_lon": 0.0, "lat": 38.90562233333333, "bike_id": "ffd3f8fe9bfaddc078b1f7379077de12", "type": "electric_scooter", "is_reserved": 0, "lon": -77.0057335}, {"fusion_lat": 0.0, "name": "64883b9fc11d48ef35e30138d23c90a0", "is_disabled": 0, "rental_uris": {"android": "https://dc.lft.to/lastmile_qr_scan", "ios": "https://dc.lft.to/lastmile_qr_scan"}, "fusion_lon": 0.0, "lat": 38.9134495, "bike_id": "64883b9fc11d48ef35e30138d23c90a0", "type": "electric_scooter", "is_reserved": 0, "lon": -77.04346433333333}, {"fusion_lat": 0.0, "name": "478d564bfb0d0e2729caa4d822efee66", "is_disabled": 0, "rental_uris": {"android": "https://dc.lft.to/lastmile_qr_scan", "ios": "https://dc.lft.to/lastmile_qr_scan"}, "fusion_lon": 0.0, "lat": 38.93132033333333, "bike_id": "478d564bfb0d0e2729caa4d822efee66", "type": "electric_scooter", "is_reserved": 0, "lon": -77.02194916666667}, {"fusion_lat": 0.0, "name": "847c78358319f0d1f550def67def8b7e", "is_disabled": 0, "rental_uris": {"android": "https://dc.lft.to/lastmile_qr_scan", "ios": "https://dc.lft.to/lastmile_qr_scan"}, "fusion_lon": 0.0, "lat": 38.925538833333334, "bike_id": "847c78358319f0d1f550def67def8b7e", "type": "electric_scooter", "is_reserved": 0, "lon": -76.982994}, {"fusion_lat": 0.0, "name": "f04478c6380270a0cd2b201a50a4f9ab", "is_disabled": 0, "rental_uris": {"android": "https://dc.lft.to/lastmile_qr_scan", "ios": "https://dc.lft.to/lastmile_qr_scan"}, "fusion_lon": 0.0, "lat": 38.90203783333333, "bike_id": "f04478c6380270a0cd2b201a50a4f9ab", "type": "electric_scooter", "is_reserved": 0, "lon": -77.01603616666667}, {"fusion_lat": 0.0, "name": "7536deaaeb240015ba3162124e510ba9", "is_disabled": 0, "rental_uris": {"android": "https://dc.lft.to/lastmile_qr_scan", "ios": "https://dc.lft.to/lastmile_qr_scan"}, "fusion_lon": 0.0, "lat": 38.916686166666665, "bike_id": "7536deaaeb240015ba3162124e510ba9", "type": "electric_scooter", "is_reserved": 0, "lon": -77.038462}, {"fusion_lat": 0.0, "name": "230c42c3b43f5558ae345f00ae91e916", "is_disabled": 0, "rental_uris": {"android": "https://dc.lft.to/lastmile_qr_scan", "ios": "https://dc.lft.to/lastmile_qr_scan"}, "fusion_lon": 0.0, "lat": 38.9267185, "bike_id": "230c42c3b43f5558ae345f00ae91e916", "type": "electric_scooter", "is_reserved": 0, "lon": -77.03142033333333}, {"fusion_lat": 0.0, "name": "c16fbb3c44a62e8e09f4b3f7f05e2d2a", "is_disabled": 0, "rental_uris": {"android": "https://dc.lft.to/lastmile_qr_scan", "ios": "https://dc.lft.to/lastmile_qr_scan"}, "fusion_lon": 0.0, "lat": 38.906949166666664, "bike_id": "c16fbb3c44a62e8e09f4b3f7f05e2d2a", "type": "electric_scooter", "is_reserved": 0, "lon": -77.07481883333334}, {"fusion_lat": 0.0, "name": "d7fc8d6fc57de612d76faf34dc9d8b78", "is_disabled": 0, "rental_uris": {"android": "https://dc.lft.to/lastmile_qr_scan", "ios": "https://dc.lft.to/lastmile_qr_scan"}, "fusion_lon": 0.0, "lat": 38.89350783333333, "bike_id": "d7fc8d6fc57de612d76faf34dc9d8b78", "type": "electric_scooter", "is_reserved": 0, "lon": -77.02797083333333}, {"fusion_lat": 0.0, "name": "6e8dfd87fc066abcc0b936a334321b20", "is_disabled": 0, "rental_uris": {"android": "https://dc.lft.to/lastmile_qr_scan", "ios": "https://dc.lft.to/lastmile_qr_scan"}, "fusion_lon": 0.0, "lat": 38.91977216666667, "bike_id": "6e8dfd87fc066abcc0b936a334321b20", "type": "electric_scooter", "is_reserved": 0, "lon": -77.02367366666667}, {"fusion_lat": 0.0, "name": "a1229ea555d7c7755f0f974ae3b24e99", "is_disabled": 0, "rental_uris": {"android": "https://dc.lft.to/lastmile_qr_scan", "ios": "https://dc.lft.to/lastmile_qr_scan"}, "fusion_lon": 0.0, "lat": 38.8645645, "bike_id": "a1229ea555d7c7755f0f974ae3b24e99", "type": "electric_bike", "is_reserved": 0, "lon": -76.94533633333333}, {"fusion_lat": 0.0, "name": "4b89d491cc4f55e9ef92c2b015c2a88f", "is_disabled": 0, "rental_uris": {"android": "https://dc.lft.to/lastmile_qr_scan", "ios": "https://dc.lft.to/lastmile_qr_scan"}, "fusion_lon": 0.0, "lat": 38.866244, "bike_id": "4b89d491cc4f55e9ef92c2b015c2a88f", "type": "electric_bike", "is_reserved": 0, "lon": -76.94565833333333}, {"fusion_lat": 0.0, "name": "e59d384084ab0b785b536c02bc3f7f33", "is_disabled": 0, "rental_uris": {"android": "https://dc.lft.to/lastmile_qr_scan", "ios": "https://dc.lft.to/lastmile_qr_scan"}, "fusion_lon": 0.0, "lat": 38.91413166666667, "bike_id": "e59d384084ab0b785b536c02bc3f7f33", "type": "electric_scooter", "is_reserved": 0, "lon": -77.01321633333333}, {"fusion_lat": 0.0, "name": "a9497b6fbc810d16bd1d878eb2208370", "is_disabled": 0, "rental_uris": {"android": "https://dc.lft.to/lastmile_qr_scan", "ios": "https://dc.lft.to/lastmile_qr_scan"}, "fusion_lon": 0.0, "lat": 38.92244633333333, "bike_id": "a9497b6fbc810d16bd1d878eb2208370", "type": "electric_scooter", "is_reserved": 0, "lon": -77.04251483333333}, {"fusion_lat": 0.0, "name": "62e663edd0bebfba29dca5079f3b606d", "is_disabled": 0, "rental_uris": {"android": "https://dc.lft.to/lastmile_qr_scan", "ios": "https://dc.lft.to/lastmile_qr_scan"}, "fusion_lon": 0.0, "lat": 38.91925616666666, "bike_id": "62e663edd0bebfba29dca5079f3b606d", "type": "electric_scooter", "is_reserved": 0, "lon": -77.04491516666667}, {"fusion_lat": 0.0, "name": "adcc7d248586f2b3c03ff32e1644e86f", "is_disabled": 0, "rental_uris": {"android": "https://dc.lft.to/lastmile_qr_scan", "ios": "https://dc.lft.to/lastmile_qr_scan"}, "fusion_lon": 0.0, "lat": 38.903778, "bike_id": "adcc7d248586f2b3c03ff32e1644e86f", "type": "electric_scooter", "is_reserved": 0, "lon": -77.05349666666666}, {"fusion_lat": 0.0, "name": "005a3026b426b055216ed9574e6233a8", "is_disabled": 0, "rental_uris": {"android": "https://dc.lft.to/lastmile_qr_scan", "ios": "https://dc.lft.to/lastmile_qr_scan"}, "fusion_lon": 0.0, "lat": 38.949249333333334, "bike_id": "005a3026b426b055216ed9574e6233a8", "type": "electric_bike", "is_reserved": 0, "lon": -77.06526816666667}, {"fusion_lat": 0.0, "name": "f54327d67c71304acad6f838646fe39c", "is_disabled": 0, "rental_uris": {"android": "https://dc.lft.to/lastmile_qr_scan", "ios": "https://dc.lft.to/lastmile_qr_scan"}, "fusion_lon": 0.0, "lat": 38.91633216666666, "bike_id": "f54327d67c71304acad6f838646fe39c", "type": "electric_scooter", "is_reserved": 0, "lon": -77.039795}, {"fusion_lat": 0.0, "name": "54367248b0a4bf00293beba40649e195", "is_disabled": 0, "rental_uris": {"android": "https://dc.lft.to/lastmile_qr_scan", "ios": "https://dc.lft.to/lastmile_qr_scan"}, "fusion_lon": 0.0, "lat": 38.92848033333333, "bike_id": "54367248b0a4bf00293beba40649e195", "type": "electric_scooter", "is_reserved": 0, "lon": -77.01408583333334}, {"fusion_lat": 0.0, "name": "00ac32484d984dccada6260218b7dfe3", "is_disabled": 0, "rental_uris": {"android": "https://dc.lft.to/lastmile_qr_scan", "ios": "https://dc.lft.to/lastmile_qr_scan"}, "fusion_lon": 0.0, "lat": 38.92067816666667, "bike_id": "00ac32484d984dccada6260218b7dfe3", "type": "electric_scooter", "is_reserved": 0, "lon": -77.02383516666667}, {"fusion_lat": 0.0, "name": "222ccc665ec7cdb59e142bd4d8524d6a", "is_disabled": 0, "rental_uris": {"android": "https://dc.lft.to/lastmile_qr_scan", "ios": "https://dc.lft.to/lastmile_qr_scan"}, "fusion_lon": 0.0, "lat": 38.91728616666666, "bike_id": "222ccc665ec7cdb59e142bd4d8524d6a", "type": "electric_scooter", "is_reserved": 0, "lon": -77.02500716666667}, {"fusion_lat": 0.0, "name": "7981d45751a6b5756194a7f3ba5bd264", "is_disabled": 0, "rental_uris": {"android": "https://dc.lft.to/lastmile_qr_scan", "ios": "https://dc.lft.to/lastmile_qr_scan"}, "fusion_lon": 0.0, "lat": 38.920815833333336, "bike_id": "7981d45751a6b5756194a7f3ba5bd264", "type": "electric_bike", "is_reserved": 0, "lon": -76.98943566666667}, {"fusion_lat": 0.0, "name": "11acfe85272de5947f8d360023c1c3ce", "is_disabled": 0, "rental_uris": {"android": "https://dc.lft.to/lastmile_qr_scan", "ios": "https://dc.lft.to/lastmile_qr_scan"}, "fusion_lon": 0.0, "lat": 38.8950025, "bike_id": "11acfe85272de5947f8d360023c1c3ce", "type": "electric_scooter", "is_reserved": 0, "lon": -77.02179066666666}, {"fusion_lat": 0.0, "name": "f3654c1c2a2bcaa56aa9cd43ec147663", "is_disabled": 0, "rental_uris": {"android": "https://dc.lft.to/lastmile_qr_scan", "ios": "https://dc.lft.to/lastmile_qr_scan"}, "fusion_lon": 0.0, "lat": 38.937304833333336, "bike_id": "f3654c1c2a2bcaa56aa9cd43ec147663", "type": "electric_scooter", "is_reserved": 0, "lon": -77.0243195}, {"fusion_lat": 0.0, "name": "7273a1bc7b6c02ce4612fd117e47344a", "is_disabled": 0, "rental_uris": {"android": "https://dc.lft.to/lastmile_qr_scan", "ios": "https://dc.lft.to/lastmile_qr_scan"}, "fusion_lon": 0.0, "lat": 38.94233833333333, "bike_id": "7273a1bc7b6c02ce4612fd117e47344a", "type": "electric_scooter", "is_reserved": 0, "lon": -77.01388616666667}, {"fusion_lat": 0.0, "name": "5477c85bcfca817d184a97774f2fcea7", "is_disabled": 0, "rental_uris": {"android": "https://dc.lft.to/lastmile_qr_scan", "ios": "https://dc.lft.to/lastmile_qr_scan"}, "fusion_lon": 0.0, "lat": 38.898288666666666, "bike_id": "5477c85bcfca817d184a97774f2fcea7", "type": "electric_scooter", "is_reserved": 0, "lon": -77.0467925}, {"fusion_lat": 0.0, "name": "d84aaa81d522ef8b5f0ed268314662bd", "is_disabled": 0, "rental_uris": {"android": "https://dc.lft.to/lastmile_qr_scan", "ios": "https://dc.lft.to/lastmile_qr_scan"}, "fusion_lon": 0.0, "lat": 38.9236175, "bike_id": "d84aaa81d522ef8b5f0ed268314662bd", "type": "electric_scooter", "is_reserved": 0, "lon": -77.05047083333334}, {"fusion_lat": 0.0, "name": "cb31ea9762a1da566dec8392bb21ba66", "is_disabled": 0, "rental_uris": {"android": "https://dc.lft.to/lastmile_qr_scan", "ios": "https://dc.lft.to/lastmile_qr_scan"}, "fusion_lon": 0.0, "lat": 38.93651066666666, "bike_id": "cb31ea9762a1da566dec8392bb21ba66", "type": "electric_scooter", "is_reserved": 0, "lon": -77.030493}, {"fusion_lat": 0.0, "name": "ed4a3255302e929a64476d27305787f4", "is_disabled": 0, "rental_uris": {"android": "https://dc.lft.to/lastmile_qr_scan", "ios": "https://dc.lft.to/lastmile_qr_scan"}, "fusion_lon": 0.0, "lat": 38.88532433333334, "bike_id": "ed4a3255302e929a64476d27305787f4", "type": "electric_scooter", "is_reserved": 0, "lon": -77.01510116666667}, {"fusion_lat": 0.0, "name": "ec6600e07a4684cc1146bec4b7f05615", "is_disabled": 0, "rental_uris": {"android": "https://dc.lft.to/lastmile_qr_scan", "ios": "https://dc.lft.to/lastmile_qr_scan"}, "fusion_lon": 0.0, "lat": 38.92338316666667, "bike_id": "ec6600e07a4684cc1146bec4b7f05615", "type": "electric_scooter", "is_reserved": 0, "lon": -77.03521283333333}, {"fusion_lat": 0.0, "name": "5f2912f87dbe08223b953fee01676e83", "is_disabled": 0, "rental_uris": {"android": "https://dc.lft.to/lastmile_qr_scan", "ios": "https://dc.lft.to/lastmile_qr_scan"}, "fusion_lon": 0.0, "lat": 38.90241433333333, "bike_id": "5f2912f87dbe08223b953fee01676e83", "type": "electric_scooter", "is_reserved": 0, "lon": -77.05930383333333}, {"fusion_lat": 0.0, "name": "4efc4696256ffbcb5884f11e1f697fd1", "is_disabled": 0, "rental_uris": {"android": "https://dc.lft.to/lastmile_qr_scan", "ios": "https://dc.lft.to/lastmile_qr_scan"}, "fusion_lon": 0.0, "lat": 38.918019, "bike_id": "4efc4696256ffbcb5884f11e1f697fd1", "type": "electric_scooter", "is_reserved": 0, "lon": -77.04447533333334}, {"fusion_lat": 0.0, "name": "8d972c055a5824550c864df3bd0fb2fc", "is_disabled": 0, "rental_uris": {"android": "https://dc.lft.to/lastmile_qr_scan", "ios": "https://dc.lft.to/lastmile_qr_scan"}, "fusion_lon": 0.0, "lat": 38.927913, "bike_id": "8d972c055a5824550c864df3bd0fb2fc", "type": "electric_scooter", "is_reserved": 0, "lon": -77.03202166666667}, {"fusion_lat": 0.0, "name": "f0a396a1793084ce6385fa2f2efee4b0", "is_disabled": 0, "rental_uris": {"android": "https://dc.lft.to/lastmile_qr_scan", "ios": "https://dc.lft.to/lastmile_qr_scan"}, "fusion_lon": 0.0, "lat": 38.914143333333335, "bike_id": "f0a396a1793084ce6385fa2f2efee4b0", "type": "electric_scooter", "is_reserved": 0, "lon": -77.02212066666667}, {"fusion_lat": 0.0, "name": "a87357f9b7b27c3470f1bb7b41beffc3", "is_disabled": 0, "rental_uris": {"android": "https://dc.lft.to/lastmile_qr_scan", "ios": "https://dc.lft.to/lastmile_qr_scan"}, "fusion_lon": 0.0, "lat": 38.918429, "bike_id": "a87357f9b7b27c3470f1bb7b41beffc3", "type": "electric_scooter", "is_reserved": 0, "lon": -77.03512966666666}, {"fusion_lat": 0.0, "name": "01cd924697c76656e30b0cbd4de694b9", "is_disabled": 0, "rental_uris": {"android": "https://dc.lft.to/lastmile_qr_scan", "ios": "https://dc.lft.to/lastmile_qr_scan"}, "fusion_lon": 0.0, "lat": 38.90829683333333, "bike_id": "01cd924697c76656e30b0cbd4de694b9", "type": "electric_scooter", "is_reserved": 0, "lon": -76.9825845}, {"fusion_lat": 0.0, "name": "4da0de9aea25836d7b8870b90931d887", "is_disabled": 0, "rental_uris": {"android": "https://dc.lft.to/lastmile_qr_scan", "ios": "https://dc.lft.to/lastmile_qr_scan"}, "fusion_lon": 0.0, "lat": 38.91764516666667, "bike_id": "4da0de9aea25836d7b8870b90931d887", "type": "electric_scooter", "is_reserved": 0, "lon": -77.03641083333333}, {"fusion_lat": 0.0, "name": "5c114aca1a83c06fed73901628910fdb", "is_disabled": 0, "rental_uris": {"android": "https://dc.lft.to/lastmile_qr_scan", "ios": "https://dc.lft.to/lastmile_qr_scan"}, "fusion_lon": 0.0, "lat": 38.91570883333333, "bike_id": "5c114aca1a83c06fed73901628910fdb", "type": "electric_scooter", "is_reserved": 0, "lon": -77.03857683333334}, {"fusion_lat": 0.0, "name": "055acf70971b1e403cf36153ab1c025e", "is_disabled": 0, "rental_uris": {"android": "https://dc.lft.to/lastmile_qr_scan", "ios": "https://dc.lft.to/lastmile_qr_scan"}, "fusion_lon": 0.0, "lat": 38.912934, "bike_id": "055acf70971b1e403cf36153ab1c025e", "type": "electric_scooter", "is_reserved": 0, "lon": -77.04868283333333}, {"fusion_lat": 0.0, "name": "d3ae8666976948ef05a0ca27d2511437", "is_disabled": 0, "rental_uris": {"android": "https://dc.lft.to/lastmile_qr_scan", "ios": "https://dc.lft.to/lastmile_qr_scan"}, "fusion_lon": 0.0, "lat": 38.91961933333333, "bike_id": "d3ae8666976948ef05a0ca27d2511437", "type": "electric_scooter", "is_reserved": 0, "lon": -77.07089033333334}, {"fusion_lat": 0.0, "name": "6521a7237d7848fec6320fd3d65e34d5", "is_disabled": 0, "rental_uris": {"android": "https://dc.lft.to/lastmile_qr_scan", "ios": "https://dc.lft.to/lastmile_qr_scan"}, "fusion_lon": 0.0, "lat": 38.92047066666667, "bike_id": "6521a7237d7848fec6320fd3d65e34d5", "type": "electric_scooter", "is_reserved": 0, "lon": -77.00202966666667}, {"fusion_lat": 0.0, "name": "d982df3bff16581850b90f1009bfa2a2", "is_disabled": 0, "rental_uris": {"android": "https://dc.lft.to/lastmile_qr_scan", "ios": "https://dc.lft.to/lastmile_qr_scan"}, "fusion_lon": 0.0, "lat": 38.935987, "bike_id": "d982df3bff16581850b90f1009bfa2a2", "type": "electric_scooter", "is_reserved": 0, "lon": -77.02281933333333}, {"fusion_lat": 0.0, "name": "08d90c84bc77e01825ed79eab90bb802", "is_disabled": 0, "rental_uris": {"android": "https://dc.lft.to/lastmile_qr_scan", "ios": "https://dc.lft.to/lastmile_qr_scan"}, "fusion_lon": 0.0, "lat": 38.861631, "bike_id": "08d90c84bc77e01825ed79eab90bb802", "type": "electric_scooter", "is_reserved": 0, "lon": -76.983673}, {"fusion_lat": 0.0, "name": "7c20b47a2a1ed68428d8d4f4799d00c7", "is_disabled": 0, "rental_uris": {"android": "https://dc.lft.to/lastmile_qr_scan", "ios": "https://dc.lft.to/lastmile_qr_scan"}, "fusion_lon": 0.0, "lat": 38.942299166666665, "bike_id": "7c20b47a2a1ed68428d8d4f4799d00c7", "type": "electric_bike", "is_reserved": 0, "lon": -77.013851}, {"fusion_lat": 0.0, "name": "8358d26b1f28a2fc1a47aaec724c233c", "is_disabled": 0, "rental_uris": {"android": "https://dc.lft.to/lastmile_qr_scan", "ios": "https://dc.lft.to/lastmile_qr_scan"}, "fusion_lon": 0.0, "lat": 38.9201385, "bike_id": "8358d26b1f28a2fc1a47aaec724c233c", "type": "electric_scooter", "is_reserved": 0, "lon": -77.031307}, {"fusion_lat": 0.0, "name": "dc63900349995b5da7609936dff2632c", "is_disabled": 0, "rental_uris": {"android": "https://dc.lft.to/lastmile_qr_scan", "ios": "https://dc.lft.to/lastmile_qr_scan"}, "fusion_lon": 0.0, "lat": 38.892887333333334, "bike_id": "dc63900349995b5da7609936dff2632c", "type": "electric_scooter", "is_reserved": 0, "lon": -76.98304683333333}, {"fusion_lat": 0.0, "name": "f64bdb8d0a178b07842dab532384e750", "is_disabled": 0, "rental_uris": {"android": "https://dc.lft.to/lastmile_qr_scan", "ios": "https://dc.lft.to/lastmile_qr_scan"}, "fusion_lon": 0.0, "lat": 38.925029, "bike_id": "f64bdb8d0a178b07842dab532384e750", "type": "electric_scooter", "is_reserved": 0, "lon": -77.021397}, {"fusion_lat": 0.0, "name": "684144d97602a57af42a2dfe27368732", "is_disabled": 0, "rental_uris": {"android": "https://dc.lft.to/lastmile_qr_scan", "ios": "https://dc.lft.to/lastmile_qr_scan"}, "fusion_lon": 0.0, "lat": 38.933992333333336, "bike_id": "684144d97602a57af42a2dfe27368732", "type": "electric_scooter", "is_reserved": 0, "lon": -77.0576845}, {"fusion_lat": 0.0, "name": "23cefcc56910c2cd5988bb5b804e2edc", "is_disabled": 0, "rental_uris": {"android": "https://dc.lft.to/lastmile_qr_scan", "ios": "https://dc.lft.to/lastmile_qr_scan"}, "fusion_lon": 0.0, "lat": 38.91537366666667, "bike_id": "23cefcc56910c2cd5988bb5b804e2edc", "type": "electric_scooter", "is_reserved": 0, "lon": -76.98238083333334}, {"fusion_lat": 0.0, "name": "359b32620abcf8b376f89b2799aa8693", "is_disabled": 0, "rental_uris": {"android": "https://dc.lft.to/lastmile_qr_scan", "ios": "https://dc.lft.to/lastmile_qr_scan"}, "fusion_lon": 0.0, "lat": 38.89237816666667, "bike_id": "359b32620abcf8b376f89b2799aa8693", "type": "electric_scooter", "is_reserved": 0, "lon": -77.033539}, {"fusion_lat": 0.0, "name": "36d8d27639577854cc86f96b4996625f", "is_disabled": 0, "rental_uris": {"android": "https://dc.lft.to/lastmile_qr_scan", "ios": "https://dc.lft.to/lastmile_qr_scan"}, "fusion_lon": 0.0, "lat": 38.92497933333333, "bike_id": "36d8d27639577854cc86f96b4996625f", "type": "electric_scooter", "is_reserved": 0, "lon": -77.05117283333334}, {"fusion_lat": 0.0, "name": "d2480b65614557f33a310a7c42ef875e", "is_disabled": 0, "rental_uris": {"android": "https://dc.lft.to/lastmile_qr_scan", "ios": "https://dc.lft.to/lastmile_qr_scan"}, "fusion_lon": 0.0, "lat": 38.9381855, "bike_id": "d2480b65614557f33a310a7c42ef875e", "type": "electric_scooter", "is_reserved": 0, "lon": -77.06014616666667}, {"fusion_lat": 0.0, "name": "c0b9590159e4ef1340a89628c5fd5176", "is_disabled": 0, "rental_uris": {"android": "https://dc.lft.to/lastmile_qr_scan", "ios": "https://dc.lft.to/lastmile_qr_scan"}, "fusion_lon": 0.0, "lat": 38.90445283333333, "bike_id": "c0b9590159e4ef1340a89628c5fd5176", "type": "electric_scooter", "is_reserved": 0, "lon": -76.97416433333333}, {"fusion_lat": 0.0, "name": "cf7f30e1bd9da12e2a64582b7c2207bc", "is_disabled": 0, "rental_uris": {"android": "https://dc.lft.to/lastmile_qr_scan", "ios": "https://dc.lft.to/lastmile_qr_scan"}, "fusion_lon": 0.0, "lat": 38.919244666666664, "bike_id": "cf7f30e1bd9da12e2a64582b7c2207bc", "type": "electric_scooter", "is_reserved": 0, "lon": -77.025377}, {"fusion_lat": 0.0, "name": "3592327a1f9ac7010db6141089fccbca", "is_disabled": 0, "rental_uris": {"android": "https://dc.lft.to/lastmile_qr_scan", "ios": "https://dc.lft.to/lastmile_qr_scan"}, "fusion_lon": 0.0, "lat": 38.90225366666667, "bike_id": "3592327a1f9ac7010db6141089fccbca", "type": "electric_scooter", "is_reserved": 0, "lon": -76.99500033333334}, {"fusion_lat": 0.0, "name": "2918dc51d1fb7338d34ab641bdc22a17", "is_disabled": 0, "rental_uris": {"android": "https://dc.lft.to/lastmile_qr_scan", "ios": "https://dc.lft.to/lastmile_qr_scan"}, "fusion_lon": 0.0, "lat": 38.9287195, "bike_id": "2918dc51d1fb7338d34ab641bdc22a17", "type": "electric_scooter", "is_reserved": 0, "lon": -77.03224933333334}, {"fusion_lat": 0.0, "name": "667ff3f80ae4febd47db778af323d1a4", "is_disabled": 0, "rental_uris": {"android": "https://dc.lft.to/lastmile_qr_scan", "ios": "https://dc.lft.to/lastmile_qr_scan"}, "fusion_lon": 0.0, "lat": 38.90771683333333, "bike_id": "667ff3f80ae4febd47db778af323d1a4", "type": "electric_scooter", "is_reserved": 0, "lon": -77.03860216666666}, {"fusion_lat": 0.0, "name": "3ccd9d85a4f7c34ce27d05c3047a6b88", "is_disabled": 0, "rental_uris": {"android": "https://dc.lft.to/lastmile_qr_scan", "ios": "https://dc.lft.to/lastmile_qr_scan"}, "fusion_lon": 0.0, "lat": 38.91563033333333, "bike_id": "3ccd9d85a4f7c34ce27d05c3047a6b88", "type": "electric_scooter", "is_reserved": 0, "lon": -77.0222455}, {"fusion_lat": 0.0, "name": "eaed3035441896756b376f19de4a4212", "is_disabled": 0, "rental_uris": {"android": "https://dc.lft.to/lastmile_qr_scan", "ios": "https://dc.lft.to/lastmile_qr_scan"}, "fusion_lon": 0.0, "lat": 38.90148683333334, "bike_id": "eaed3035441896756b376f19de4a4212", "type": "electric_scooter", "is_reserved": 0, "lon": -77.00920166666667}, {"fusion_lat": 0.0, "name": "2267e898ff974a64c24455905ab62d7a", "is_disabled": 0, "rental_uris": {"android": "https://dc.lft.to/lastmile_qr_scan", "ios": "https://dc.lft.to/lastmile_qr_scan"}, "fusion_lon": 0.0, "lat": 38.8996455, "bike_id": "2267e898ff974a64c24455905ab62d7a", "type": "electric_scooter", "is_reserved": 0, "lon": -76.98159533333333}, {"fusion_lat": 0.0, "name": "28e90adb8e5957c5afb5940040ec22f2", "is_disabled": 0, "rental_uris": {"android": "https://dc.lft.to/lastmile_qr_scan", "ios": "https://dc.lft.to/lastmile_qr_scan"}, "fusion_lon": 0.0, "lat": 38.952990666666665, "bike_id": "28e90adb8e5957c5afb5940040ec22f2", "type": "electric_bike", "is_reserved": 0, "lon": -76.9997925}, {"fusion_lat": 0.0, "name": "6e411902fe9e9e554800a5538ed55835", "is_disabled": 0, "rental_uris": {"android": "https://dc.lft.to/lastmile_qr_scan", "ios": "https://dc.lft.to/lastmile_qr_scan"}, "fusion_lon": 0.0, "lat": 38.902605333333334, "bike_id": "6e411902fe9e9e554800a5538ed55835", "type": "electric_scooter", "is_reserved": 0, "lon": -77.01752866666666}, {"fusion_lat": 0.0, "name": "29db825193d0e9fe8641c07d66dc9986", "is_disabled": 0, "rental_uris": {"android": "https://dc.lft.to/lastmile_qr_scan", "ios": "https://dc.lft.to/lastmile_qr_scan"}, "fusion_lon": 0.0, "lat": 38.84130233333333, "bike_id": "29db825193d0e9fe8641c07d66dc9986", "type": "electric_bike", "is_reserved": 0, "lon": -77.0630375}, {"fusion_lat": 0.0, "name": "27625f8742c73fdb4f458b042b3d0d2e", "is_disabled": 0, "rental_uris": {"android": "https://dc.lft.to/lastmile_qr_scan", "ios": "https://dc.lft.to/lastmile_qr_scan"}, "fusion_lon": 0.0, "lat": 38.897539333333334, "bike_id": "27625f8742c73fdb4f458b042b3d0d2e", "type": "electric_scooter", "is_reserved": 0, "lon": -77.02405283333333}, {"fusion_lat": 0.0, "name": "7bdf4ba58fb112af50a42e7f91f3a501", "is_disabled": 0, "rental_uris": {"android": "https://dc.lft.to/lastmile_qr_scan", "ios": "https://dc.lft.to/lastmile_qr_scan"}, "fusion_lon": 0.0, "lat": 38.923973833333335, "bike_id": "7bdf4ba58fb112af50a42e7f91f3a501", "type": "electric_scooter", "is_reserved": 0, "lon": -77.0430015}, {"fusion_lat": 0.0, "name": "e8808df2432ff12c4b8d3e428352a688", "is_disabled": 0, "rental_uris": {"android": "https://dc.lft.to/lastmile_qr_scan", "ios": "https://dc.lft.to/lastmile_qr_scan"}, "fusion_lon": 0.0, "lat": 38.898559166666665, "bike_id": "e8808df2432ff12c4b8d3e428352a688", "type": "electric_scooter", "is_reserved": 0, "lon": -77.03165133333333}, {"fusion_lat": 0.0, "name": "405d039a2ae88908e116804af4eb148b", "is_disabled": 0, "rental_uris": {"android": "https://dc.lft.to/lastmile_qr_scan", "ios": "https://dc.lft.to/lastmile_qr_scan"}, "fusion_lon": 0.0, "lat": 38.93120483333333, "bike_id": "405d039a2ae88908e116804af4eb148b", "type": "electric_scooter", "is_reserved": 0, "lon": -76.98437716666666}, {"fusion_lat": 0.0, "name": "f9ad0eadad333a035a2de856a5b81fc9", "is_disabled": 0, "rental_uris": {"android": "https://dc.lft.to/lastmile_qr_scan", "ios": "https://dc.lft.to/lastmile_qr_scan"}, "fusion_lon": 0.0, "lat": 38.9062485, "bike_id": "f9ad0eadad333a035a2de856a5b81fc9", "type": "electric_scooter", "is_reserved": 0, "lon": -77.00574516666667}, {"fusion_lat": 0.0, "name": "cc0231912a2e520b586b28a1692224ee", "is_disabled": 0, "rental_uris": {"android": "https://dc.lft.to/lastmile_qr_scan", "ios": "https://dc.lft.to/lastmile_qr_scan"}, "fusion_lon": 0.0, "lat": 38.909544833333335, "bike_id": "cc0231912a2e520b586b28a1692224ee", "type": "electric_scooter", "is_reserved": 0, "lon": -76.98532983333334}, {"fusion_lat": 0.0, "name": "c0e7dfb4f4e79e745cd1f558a4ffe606", "is_disabled": 0, "rental_uris": {"android": "https://dc.lft.to/lastmile_qr_scan", "ios": "https://dc.lft.to/lastmile_qr_scan"}, "fusion_lon": 0.0, "lat": 38.93397233333334, "bike_id": "c0e7dfb4f4e79e745cd1f558a4ffe606", "type": "electric_scooter", "is_reserved": 0, "lon": -77.0283985}, {"fusion_lat": 0.0, "name": "f200d7f8f92ff232c9ce52933f2064b1", "is_disabled": 0, "rental_uris": {"android": "https://dc.lft.to/lastmile_qr_scan", "ios": "https://dc.lft.to/lastmile_qr_scan"}, "fusion_lon": 0.0, "lat": 38.929151, "bike_id": "f200d7f8f92ff232c9ce52933f2064b1", "type": "electric_scooter", "is_reserved": 0, "lon": -77.0218375}, {"fusion_lat": 0.0, "name": "61f2d3484220e99a2899dffdfe69696c", "is_disabled": 0, "rental_uris": {"android": "https://dc.lft.to/lastmile_qr_scan", "ios": "https://dc.lft.to/lastmile_qr_scan"}, "fusion_lon": 0.0, "lat": 38.89493733333333, "bike_id": "61f2d3484220e99a2899dffdfe69696c", "type": "electric_scooter", "is_reserved": 0, "lon": -77.0025405}, {"fusion_lat": 0.0, "name": "aea624e6c2fa7813a9468057167ac5f2", "is_disabled": 0, "rental_uris": {"android": "https://dc.lft.to/lastmile_qr_scan", "ios": "https://dc.lft.to/lastmile_qr_scan"}, "fusion_lon": 0.0, "lat": 38.892254666666666, "bike_id": "aea624e6c2fa7813a9468057167ac5f2", "type": "electric_scooter", "is_reserved": 0, "lon": -77.045015}, {"fusion_lat": 0.0, "name": "2ab3264ad3df5d0435ab89979a04a434", "is_disabled": 0, "rental_uris": {"android": "https://dc.lft.to/lastmile_qr_scan", "ios": "https://dc.lft.to/lastmile_qr_scan"}, "fusion_lon": 0.0, "lat": 38.942929166666666, "bike_id": "2ab3264ad3df5d0435ab89979a04a434", "type": "electric_scooter", "is_reserved": 0, "lon": -77.021698}, {"fusion_lat": 0.0, "name": "741a9d2a36e4b2a5ec968b22532125ce", "is_disabled": 0, "rental_uris": {"android": "https://dc.lft.to/lastmile_qr_scan", "ios": "https://dc.lft.to/lastmile_qr_scan"}, "fusion_lon": 0.0, "lat": 38.8972725, "bike_id": "741a9d2a36e4b2a5ec968b22532125ce", "type": "electric_scooter", "is_reserved": 0, "lon": -77.03301616666667}, {"fusion_lat": 0.0, "name": "a57bcf81707234517d82a1cb8cafa50d", "is_disabled": 0, "rental_uris": {"android": "https://dc.lft.to/lastmile_qr_scan", "ios": "https://dc.lft.to/lastmile_qr_scan"}, "fusion_lon": 0.0, "lat": 38.91561983333333, "bike_id": "a57bcf81707234517d82a1cb8cafa50d", "type": "electric_scooter", "is_reserved": 0, "lon": -77.032213}, {"fusion_lat": 0.0, "name": "8e18d0fba7969846cdb0dbae7e4995b4", "is_disabled": 0, "rental_uris": {"android": "https://dc.lft.to/lastmile_qr_scan", "ios": "https://dc.lft.to/lastmile_qr_scan"}, "fusion_lon": 0.0, "lat": 38.897406833333335, "bike_id": "8e18d0fba7969846cdb0dbae7e4995b4", "type": "electric_scooter", "is_reserved": 0, "lon": -77.03165433333334}, {"fusion_lat": 0.0, "name": "a5fc84cabe97849bb61aa9381ba56c3f", "is_disabled": 0, "rental_uris": {"android": "https://dc.lft.to/lastmile_qr_scan", "ios": "https://dc.lft.to/lastmile_qr_scan"}, "fusion_lon": 0.0, "lat": 38.918051166666665, "bike_id": "a5fc84cabe97849bb61aa9381ba56c3f", "type": "electric_scooter", "is_reserved": 0, "lon": -77.03341916666666}, {"fusion_lat": 0.0, "name": "195e7203025929b1f172ceb11a9f8cc5", "is_disabled": 0, "rental_uris": {"android": "https://dc.lft.to/lastmile_qr_scan", "ios": "https://dc.lft.to/lastmile_qr_scan"}, "fusion_lon": 0.0, "lat": 38.911528, "bike_id": "195e7203025929b1f172ceb11a9f8cc5", "type": "electric_scooter", "is_reserved": 0, "lon": -77.01070833333333}, {"fusion_lat": 0.0, "name": "5e74edee0bde95e3c10a86f72ad9dcf3", "is_disabled": 0, "rental_uris": {"android": "https://dc.lft.to/lastmile_qr_scan", "ios": "https://dc.lft.to/lastmile_qr_scan"}, "fusion_lon": 0.0, "lat": 38.940171666666664, "bike_id": "5e74edee0bde95e3c10a86f72ad9dcf3", "type": "electric_scooter", "is_reserved": 0, "lon": -77.0276815}, {"fusion_lat": 0.0, "name": "2784ef57f6e2c7d093f6261a178138a6", "is_disabled": 0, "rental_uris": {"android": "https://dc.lft.to/lastmile_qr_scan", "ios": "https://dc.lft.to/lastmile_qr_scan"}, "fusion_lon": 0.0, "lat": 38.92615683333333, "bike_id": "2784ef57f6e2c7d093f6261a178138a6", "type": "electric_scooter", "is_reserved": 0, "lon": -77.0221605}, {"fusion_lat": 0.0, "name": "c5fd8c55469a78082627ed641603f7a8", "is_disabled": 0, "rental_uris": {"android": "https://dc.lft.to/lastmile_qr_scan", "ios": "https://dc.lft.to/lastmile_qr_scan"}, "fusion_lon": 0.0, "lat": 38.919275, "bike_id": "c5fd8c55469a78082627ed641603f7a8", "type": "electric_scooter", "is_reserved": 0, "lon": -77.02533433333333}, {"fusion_lat": 0.0, "name": "73f4696ffb6bb7548d6a77948937e48b", "is_disabled": 0, "rental_uris": {"android": "https://dc.lft.to/lastmile_qr_scan", "ios": "https://dc.lft.to/lastmile_qr_scan"}, "fusion_lon": 0.0, "lat": 38.899433333333334, "bike_id": "73f4696ffb6bb7548d6a77948937e48b", "type": "electric_scooter", "is_reserved": 0, "lon": -77.0408355}, {"fusion_lat": 0.0, "name": "6dbcaf6aa6056c2a0fb05cf6465c9e0d", "is_disabled": 0, "rental_uris": {"android": "https://dc.lft.to/lastmile_qr_scan", "ios": "https://dc.lft.to/lastmile_qr_scan"}, "fusion_lon": 0.0, "lat": 38.89224866666667, "bike_id": "6dbcaf6aa6056c2a0fb05cf6465c9e0d", "type": "electric_scooter", "is_reserved": 0, "lon": -77.03217466666666}, {"fusion_lat": 0.0, "name": "5cd15fc4a6ed19e0aa86d81d0a762786", "is_disabled": 0, "rental_uris": {"android": "https://dc.lft.to/lastmile_qr_scan", "ios": "https://dc.lft.to/lastmile_qr_scan"}, "fusion_lon": 0.0, "lat": 38.87634766666667, "bike_id": "5cd15fc4a6ed19e0aa86d81d0a762786", "type": "electric_scooter", "is_reserved": 0, "lon": -77.009474}, {"fusion_lat": 0.0, "name": "bc6fa57a4783eccc662a585de13a699b", "is_disabled": 0, "rental_uris": {"android": "https://dc.lft.to/lastmile_qr_scan", "ios": "https://dc.lft.to/lastmile_qr_scan"}, "fusion_lon": 0.0, "lat": 38.92436166666667, "bike_id": "bc6fa57a4783eccc662a585de13a699b", "type": "electric_scooter", "is_reserved": 0, "lon": -77.00065266666667}, {"fusion_lat": 0.0, "name": "cf686d8e44950bacea8012a1c6423f38", "is_disabled": 0, "rental_uris": {"android": "https://dc.lft.to/lastmile_qr_scan", "ios": "https://dc.lft.to/lastmile_qr_scan"}, "fusion_lon": 0.0, "lat": 38.91771033333333, "bike_id": "cf686d8e44950bacea8012a1c6423f38", "type": "electric_scooter", "is_reserved": 0, "lon": -77.022819}, {"fusion_lat": 0.0, "name": "76a9e0994eb0255a4733a131adf718b1", "is_disabled": 0, "rental_uris": {"android": "https://dc.lft.to/lastmile_qr_scan", "ios": "https://dc.lft.to/lastmile_qr_scan"}, "fusion_lon": 0.0, "lat": 38.918144833333336, "bike_id": "76a9e0994eb0255a4733a131adf718b1", "type": "electric_scooter", "is_reserved": 0, "lon": -77.04595416666666}, {"fusion_lat": 0.0, "name": "892df908ef11acd6382200c54b14d65b", "is_disabled": 0, "rental_uris": {"android": "https://dc.lft.to/lastmile_qr_scan", "ios": "https://dc.lft.to/lastmile_qr_scan"}, "fusion_lon": 0.0, "lat": 38.866905833333334, "bike_id": "892df908ef11acd6382200c54b14d65b", "type": "electric_scooter", "is_reserved": 0, "lon": -76.98566883333334}, {"fusion_lat": 0.0, "name": "3bd24b2ee32cea2b612a85919212d2cd", "is_disabled": 0, "rental_uris": {"android": "https://dc.lft.to/lastmile_qr_scan", "ios": "https://dc.lft.to/lastmile_qr_scan"}, "fusion_lon": 0.0, "lat": 38.9234705, "bike_id": "3bd24b2ee32cea2b612a85919212d2cd", "type": "electric_scooter", "is_reserved": 0, "lon": -77.0512775}, {"fusion_lat": 0.0, "name": "deee38b88020c7c275e7ee38f65d7140", "is_disabled": 0, "rental_uris": {"android": "https://dc.lft.to/lastmile_qr_scan", "ios": "https://dc.lft.to/lastmile_qr_scan"}, "fusion_lon": 0.0, "lat": 38.87708533333333, "bike_id": "deee38b88020c7c275e7ee38f65d7140", "type": "electric_scooter", "is_reserved": 0, "lon": -77.01762833333333}, {"fusion_lat": 0.0, "name": "1ed0ef38ffdc70a88975777d4ec74bb7", "is_disabled": 0, "rental_uris": {"android": "https://dc.lft.to/lastmile_qr_scan", "ios": "https://dc.lft.to/lastmile_qr_scan"}, "fusion_lon": 0.0, "lat": 38.897983333333336, "bike_id": "1ed0ef38ffdc70a88975777d4ec74bb7", "type": "electric_scooter", "is_reserved": 0, "lon": -77.02412666666666}, {"fusion_lat": 0.0, "name": "d27060d7f73afac417a487edc9166e47", "is_disabled": 0, "rental_uris": {"android": "https://dc.lft.to/lastmile_qr_scan", "ios": "https://dc.lft.to/lastmile_qr_scan"}, "fusion_lon": 0.0, "lat": 38.931873333333336, "bike_id": "d27060d7f73afac417a487edc9166e47", "type": "electric_scooter", "is_reserved": 0, "lon": -77.04294133333333}, {"fusion_lat": 0.0, "name": "0ec632c8e440f11d7597c818c0087bca", "is_disabled": 0, "rental_uris": {"android": "https://dc.lft.to/lastmile_qr_scan", "ios": "https://dc.lft.to/lastmile_qr_scan"}, "fusion_lon": 0.0, "lat": 38.89720033333333, "bike_id": "0ec632c8e440f11d7597c818c0087bca", "type": "electric_scooter", "is_reserved": 0, "lon": -77.0079535}, {"fusion_lat": 0.0, "name": "828e1fed2b556f9a9e4553122cb33fcc", "is_disabled": 0, "rental_uris": {"android": "https://dc.lft.to/lastmile_qr_scan", "ios": "https://dc.lft.to/lastmile_qr_scan"}, "fusion_lon": 0.0, "lat": 38.9042755, "bike_id": "828e1fed2b556f9a9e4553122cb33fcc", "type": "electric_scooter", "is_reserved": 0, "lon": -76.981745}, {"fusion_lat": 0.0, "name": "68fd09d785ca93926fae52dd8060af7a", "is_disabled": 0, "rental_uris": {"android": "https://dc.lft.to/lastmile_qr_scan", "ios": "https://dc.lft.to/lastmile_qr_scan"}, "fusion_lon": 0.0, "lat": 38.8855285, "bike_id": "68fd09d785ca93926fae52dd8060af7a", "type": "electric_scooter", "is_reserved": 0, "lon": -76.99776283333334}, {"fusion_lat": 0.0, "name": "b4e036d59df4ce2e6f66d33f750084b2", "is_disabled": 0, "rental_uris": {"android": "https://dc.lft.to/lastmile_qr_scan", "ios": "https://dc.lft.to/lastmile_qr_scan"}, "fusion_lon": 0.0, "lat": 38.919842833333334, "bike_id": "b4e036d59df4ce2e6f66d33f750084b2", "type": "electric_scooter", "is_reserved": 0, "lon": -77.023736}, {"fusion_lat": 0.0, "name": "acbd5419c55d18ca2c806d594a57aade", "is_disabled": 0, "rental_uris": {"android": "https://dc.lft.to/lastmile_qr_scan", "ios": "https://dc.lft.to/lastmile_qr_scan"}, "fusion_lon": 0.0, "lat": 38.934579, "bike_id": "acbd5419c55d18ca2c806d594a57aade", "type": "electric_scooter", "is_reserved": 0, "lon": -77.07264616666667}, {"fusion_lat": 0.0, "name": "14c68c32f2a75080bd4ea5170a7e734b", "is_disabled": 0, "rental_uris": {"android": "https://dc.lft.to/lastmile_qr_scan", "ios": "https://dc.lft.to/lastmile_qr_scan"}, "fusion_lon": 0.0, "lat": 38.91616533333333, "bike_id": "14c68c32f2a75080bd4ea5170a7e734b", "type": "electric_scooter", "is_reserved": 0, "lon": -77.02939033333334}, {"fusion_lat": 0.0, "name": "eaee4a846cbd14a595b8b4f9fad3365c", "is_disabled": 0, "rental_uris": {"android": "https://dc.lft.to/lastmile_qr_scan", "ios": "https://dc.lft.to/lastmile_qr_scan"}, "fusion_lon": 0.0, "lat": 38.928681, "bike_id": "eaee4a846cbd14a595b8b4f9fad3365c", "type": "electric_scooter", "is_reserved": 0, "lon": -77.0351915}, {"fusion_lat": 0.0, "name": "bbe2f1fb002d30010bf6a4f0cb30aeb9", "is_disabled": 0, "rental_uris": {"android": "https://dc.lft.to/lastmile_qr_scan", "ios": "https://dc.lft.to/lastmile_qr_scan"}, "fusion_lon": 0.0, "lat": 38.899897, "bike_id": "bbe2f1fb002d30010bf6a4f0cb30aeb9", "type": "electric_scooter", "is_reserved": 0, "lon": -77.00647766666667}, {"fusion_lat": 0.0, "name": "fccf64a7116016b13100c798b10d876f", "is_disabled": 0, "rental_uris": {"android": "https://dc.lft.to/lastmile_qr_scan", "ios": "https://dc.lft.to/lastmile_qr_scan"}, "fusion_lon": 0.0, "lat": 38.904256333333336, "bike_id": "fccf64a7116016b13100c798b10d876f", "type": "electric_scooter", "is_reserved": 0, "lon": -76.94972583333333}, {"fusion_lat": 0.0, "name": "fea4aa11ad4b8f47a470700cffa36851", "is_disabled": 0, "rental_uris": {"android": "https://dc.lft.to/lastmile_qr_scan", "ios": "https://dc.lft.to/lastmile_qr_scan"}, "fusion_lon": 0.0, "lat": 38.92395633333334, "bike_id": "fea4aa11ad4b8f47a470700cffa36851", "type": "electric_scooter", "is_reserved": 0, "lon": -77.04293183333333}, {"fusion_lat": 0.0, "name": "589fe3be02a2661c31ce6b1887ebad32", "is_disabled": 0, "rental_uris": {"android": "https://dc.lft.to/lastmile_qr_scan", "ios": "https://dc.lft.to/lastmile_qr_scan"}, "fusion_lon": 0.0, "lat": 38.89713183333333, "bike_id": "589fe3be02a2661c31ce6b1887ebad32", "type": "electric_scooter", "is_reserved": 0, "lon": -77.01318066666667}, {"fusion_lat": 0.0, "name": "db832d11594a059c8bf3ea4262e37a38", "is_disabled": 0, "rental_uris": {"android": "https://dc.lft.to/lastmile_qr_scan", "ios": "https://dc.lft.to/lastmile_qr_scan"}, "fusion_lon": 0.0, "lat": 38.88536083333334, "bike_id": "db832d11594a059c8bf3ea4262e37a38", "type": "electric_scooter", "is_reserved": 0, "lon": -77.01504566666667}, {"fusion_lat": 0.0, "name": "a421dbc0ad7f587d1f062323e76cbcc1", "is_disabled": 0, "rental_uris": {"android": "https://dc.lft.to/lastmile_qr_scan", "ios": "https://dc.lft.to/lastmile_qr_scan"}, "fusion_lon": 0.0, "lat": 38.90640483333333, "bike_id": "a421dbc0ad7f587d1f062323e76cbcc1", "type": "electric_scooter", "is_reserved": 0, "lon": -77.01138566666667}, {"fusion_lat": 0.0, "name": "88f3981f865b5ad87273fcb4ad0f4e61", "is_disabled": 0, "rental_uris": {"android": "https://dc.lft.to/lastmile_qr_scan", "ios": "https://dc.lft.to/lastmile_qr_scan"}, "fusion_lon": 0.0, "lat": 38.89225783333333, "bike_id": "88f3981f865b5ad87273fcb4ad0f4e61", "type": "electric_scooter", "is_reserved": 0, "lon": -77.03216883333333}, {"fusion_lat": 0.0, "name": "f223c07fb789fbe193237faba2e72218", "is_disabled": 0, "rental_uris": {"android": "https://dc.lft.to/lastmile_qr_scan", "ios": "https://dc.lft.to/lastmile_qr_scan"}, "fusion_lon": 0.0, "lat": 38.92293883333333, "bike_id": "f223c07fb789fbe193237faba2e72218", "type": "electric_scooter", "is_reserved": 0, "lon": -77.02960383333334}, {"fusion_lat": 0.0, "name": "eb444d81dd30033004781161b9976737", "is_disabled": 0, "rental_uris": {"android": "https://dc.lft.to/lastmile_qr_scan", "ios": "https://dc.lft.to/lastmile_qr_scan"}, "fusion_lon": 0.0, "lat": 38.96234033333333, "bike_id": "eb444d81dd30033004781161b9976737", "type": "electric_bike", "is_reserved": 0, "lon": -76.927616}, {"fusion_lat": 0.0, "name": "1ba818ee02368c90fc11a445cb2707cb", "is_disabled": 0, "rental_uris": {"android": "https://dc.lft.to/lastmile_qr_scan", "ios": "https://dc.lft.to/lastmile_qr_scan"}, "fusion_lon": 0.0, "lat": 38.8984125, "bike_id": "1ba818ee02368c90fc11a445cb2707cb", "type": "electric_scooter", "is_reserved": 0, "lon": -76.946272}, {"fusion_lat": 0.0, "name": "0ad6cb73f63b6850cb536781c89056d2", "is_disabled": 0, "rental_uris": {"android": "https://dc.lft.to/lastmile_qr_scan", "ios": "https://dc.lft.to/lastmile_qr_scan"}, "fusion_lon": 0.0, "lat": 38.87723833333333, "bike_id": "0ad6cb73f63b6850cb536781c89056d2", "type": "electric_scooter", "is_reserved": 0, "lon": -77.0175885}, {"fusion_lat": 0.0, "name": "1194e92f81bdb59360e11d8a6f4a965e", "is_disabled": 0, "rental_uris": {"android": "https://dc.lft.to/lastmile_qr_scan", "ios": "https://dc.lft.to/lastmile_qr_scan"}, "fusion_lon": 0.0, "lat": 38.915693833333336, "bike_id": "1194e92f81bdb59360e11d8a6f4a965e", "type": "electric_scooter", "is_reserved": 0, "lon": -77.03146583333333}, {"fusion_lat": 0.0, "name": "55f8cffec46fb4e40b1cc9fc0eb731e0", "is_disabled": 0, "rental_uris": {"android": "https://dc.lft.to/lastmile_qr_scan", "ios": "https://dc.lft.to/lastmile_qr_scan"}, "fusion_lon": 0.0, "lat": 38.917699, "bike_id": "55f8cffec46fb4e40b1cc9fc0eb731e0", "type": "electric_scooter", "is_reserved": 0, "lon": -77.0228655}, {"fusion_lat": 0.0, "name": "bf9f64bf8f8d0cf79f129c1723a61086", "is_disabled": 0, "rental_uris": {"android": "https://dc.lft.to/lastmile_qr_scan", "ios": "https://dc.lft.to/lastmile_qr_scan"}, "fusion_lon": 0.0, "lat": 38.923591, "bike_id": "bf9f64bf8f8d0cf79f129c1723a61086", "type": "electric_scooter", "is_reserved": 0, "lon": -77.0337255}, {"fusion_lat": 0.0, "name": "31bfd64f70cb662a178e5d90be6a2e1d", "is_disabled": 0, "rental_uris": {"android": "https://dc.lft.to/lastmile_qr_scan", "ios": "https://dc.lft.to/lastmile_qr_scan"}, "fusion_lon": 0.0, "lat": 38.893570833333335, "bike_id": "31bfd64f70cb662a178e5d90be6a2e1d", "type": "electric_bike", "is_reserved": 0, "lon": -77.18741816666666}, {"fusion_lat": 0.0, "name": "2b3d1a5c95035e1b41d56ecb0dadcbce", "is_disabled": 0, "rental_uris": {"android": "https://dc.lft.to/lastmile_qr_scan", "ios": "https://dc.lft.to/lastmile_qr_scan"}, "fusion_lon": 0.0, "lat": 38.892537, "bike_id": "2b3d1a5c95035e1b41d56ecb0dadcbce", "type": "electric_bike", "is_reserved": 0, "lon": -76.98548633333333}, {"fusion_lat": 0.0, "name": "ace1d60c5bd2ebff7b29a9d0ff205016", "is_disabled": 0, "rental_uris": {"android": "https://dc.lft.to/lastmile_qr_scan", "ios": "https://dc.lft.to/lastmile_qr_scan"}, "fusion_lon": 0.0, "lat": 38.961324, "bike_id": "ace1d60c5bd2ebff7b29a9d0ff205016", "type": "electric_scooter", "is_reserved": 0, "lon": -77.02781466666667}, {"fusion_lat": 0.0, "name": "b17a95b3a7517c727b2dfc6cdd27b132", "is_disabled": 0, "rental_uris": {"android": "https://dc.lft.to/lastmile_qr_scan", "ios": "https://dc.lft.to/lastmile_qr_scan"}, "fusion_lon": 0.0, "lat": 38.942910166666664, "bike_id": "b17a95b3a7517c727b2dfc6cdd27b132", "type": "electric_scooter", "is_reserved": 0, "lon": -77.06070416666667}, {"fusion_lat": 0.0, "name": "0583e395199f240ab33cd6b059dee5e7", "is_disabled": 0, "rental_uris": {"android": "https://dc.lft.to/lastmile_qr_scan", "ios": "https://dc.lft.to/lastmile_qr_scan"}, "fusion_lon": 0.0, "lat": 38.90721966666667, "bike_id": "0583e395199f240ab33cd6b059dee5e7", "type": "electric_scooter", "is_reserved": 0, "lon": -77.02968316666667}, {"fusion_lat": 0.0, "name": "9df4e4756975988da7199bfbcb3b0c72", "is_disabled": 0, "rental_uris": {"android": "https://dc.lft.to/lastmile_qr_scan", "ios": "https://dc.lft.to/lastmile_qr_scan"}, "fusion_lon": 0.0, "lat": 38.91031483333333, "bike_id": "9df4e4756975988da7199bfbcb3b0c72", "type": "electric_scooter", "is_reserved": 0, "lon": -77.015131}, {"fusion_lat": 0.0, "name": "e1dbe773a401ec8e1c3d1e82c542d8c4", "is_disabled": 0, "rental_uris": {"android": "https://dc.lft.to/lastmile_qr_scan", "ios": "https://dc.lft.to/lastmile_qr_scan"}, "fusion_lon": 0.0, "lat": 38.90366183333333, "bike_id": "e1dbe773a401ec8e1c3d1e82c542d8c4", "type": "electric_bike", "is_reserved": 0, "lon": -76.97911333333333}, {"fusion_lat": 0.0, "name": "c14be46058d0de37a01f1b94ed6af32f", "is_disabled": 0, "rental_uris": {"android": "https://dc.lft.to/lastmile_qr_scan", "ios": "https://dc.lft.to/lastmile_qr_scan"}, "fusion_lon": 0.0, "lat": 38.92027133333333, "bike_id": "c14be46058d0de37a01f1b94ed6af32f", "type": "electric_scooter", "is_reserved": 0, "lon": -77.01029916666667}, {"fusion_lat": 0.0, "name": "97df9b58d1660292a0c006449daa9802", "is_disabled": 0, "rental_uris": {"android": "https://dc.lft.to/lastmile_qr_scan", "ios": "https://dc.lft.to/lastmile_qr_scan"}, "fusion_lon": 0.0, "lat": 38.923009666666665, "bike_id": "97df9b58d1660292a0c006449daa9802", "type": "electric_scooter", "is_reserved": 0, "lon": -77.04262}, {"fusion_lat": 0.0, "name": "5c937d93fe2213f30d990149812c6d67", "is_disabled": 0, "rental_uris": {"android": "https://dc.lft.to/lastmile_qr_scan", "ios": "https://dc.lft.to/lastmile_qr_scan"}, "fusion_lon": 0.0, "lat": 38.8791605, "bike_id": "5c937d93fe2213f30d990149812c6d67", "type": "electric_scooter", "is_reserved": 0, "lon": -76.9447925}, {"fusion_lat": 0.0, "name": "7b46619af2648f838ac6cf8f61e239ad", "is_disabled": 0, "rental_uris": {"android": "https://dc.lft.to/lastmile_qr_scan", "ios": "https://dc.lft.to/lastmile_qr_scan"}, "fusion_lon": 0.0, "lat": 38.92254, "bike_id": "7b46619af2648f838ac6cf8f61e239ad", "type": "electric_scooter", "is_reserved": 0, "lon": -77.029799}, {"fusion_lat": 0.0, "name": "8c5a2d2e95fe3ee0ddbc57a0c5914372", "is_disabled": 0, "rental_uris": {"android": "https://dc.lft.to/lastmile_qr_scan", "ios": "https://dc.lft.to/lastmile_qr_scan"}, "fusion_lon": 0.0, "lat": 38.92815933333333, "bike_id": "8c5a2d2e95fe3ee0ddbc57a0c5914372", "type": "electric_scooter", "is_reserved": 0, "lon": -77.0266935}, {"fusion_lat": 0.0, "name": "6be4f7b56a5f1091ddb1470850b89e64", "is_disabled": 0, "rental_uris": {"android": "https://dc.lft.to/lastmile_qr_scan", "ios": "https://dc.lft.to/lastmile_qr_scan"}, "fusion_lon": 0.0, "lat": 38.9111755, "bike_id": "6be4f7b56a5f1091ddb1470850b89e64", "type": "electric_scooter", "is_reserved": 0, "lon": -77.00667616666667}, {"fusion_lat": 0.0, "name": "307a61d65307cb68340c03d6e40c08c0", "is_disabled": 0, "rental_uris": {"android": "https://dc.lft.to/lastmile_qr_scan", "ios": "https://dc.lft.to/lastmile_qr_scan"}, "fusion_lon": 0.0, "lat": 38.889039, "bike_id": "307a61d65307cb68340c03d6e40c08c0", "type": "electric_scooter", "is_reserved": 0, "lon": -76.991974}, {"fusion_lat": 0.0, "name": "1ea31d4939cf2e52df52f101ccd34647", "is_disabled": 0, "rental_uris": {"android": "https://dc.lft.to/lastmile_qr_scan", "ios": "https://dc.lft.to/lastmile_qr_scan"}, "fusion_lon": 0.0, "lat": 38.93070733333333, "bike_id": "1ea31d4939cf2e52df52f101ccd34647", "type": "electric_scooter", "is_reserved": 0, "lon": -77.019574}, {"fusion_lat": 0.0, "name": "c0c86f914369cdd293cc88b6f9498914", "is_disabled": 0, "rental_uris": {"android": "https://dc.lft.to/lastmile_qr_scan", "ios": "https://dc.lft.to/lastmile_qr_scan"}, "fusion_lon": 0.0, "lat": 38.923328833333336, "bike_id": "c0c86f914369cdd293cc88b6f9498914", "type": "electric_scooter", "is_reserved": 0, "lon": -77.03615816666667}, {"fusion_lat": 0.0, "name": "dda2f5bdd0574f3a0a9a04ce2e75132c", "is_disabled": 0, "rental_uris": {"android": "https://dc.lft.to/lastmile_qr_scan", "ios": "https://dc.lft.to/lastmile_qr_scan"}, "fusion_lon": 0.0, "lat": 38.920516166666665, "bike_id": "dda2f5bdd0574f3a0a9a04ce2e75132c", "type": "electric_scooter", "is_reserved": 0, "lon": -77.02186483333334}, {"fusion_lat": 0.0, "name": "69413d0bae0194f56e49176e2d944426", "is_disabled": 0, "rental_uris": {"android": "https://dc.lft.to/lastmile_qr_scan", "ios": "https://dc.lft.to/lastmile_qr_scan"}, "fusion_lon": 0.0, "lat": 38.949526, "bike_id": "69413d0bae0194f56e49176e2d944426", "type": "electric_scooter", "is_reserved": 0, "lon": -77.02317033333334}, {"fusion_lat": 0.0, "name": "245ec04a1c115beebb66600a8f08d43d", "is_disabled": 0, "rental_uris": {"android": "https://dc.lft.to/lastmile_qr_scan", "ios": "https://dc.lft.to/lastmile_qr_scan"}, "fusion_lon": 0.0, "lat": 38.889141, "bike_id": "245ec04a1c115beebb66600a8f08d43d", "type": "electric_bike", "is_reserved": 0, "lon": -77.0492905}, {"fusion_lat": 0.0, "name": "b70559b54b238d66671e3dd255bdcc03", "is_disabled": 0, "rental_uris": {"android": "https://dc.lft.to/lastmile_qr_scan", "ios": "https://dc.lft.to/lastmile_qr_scan"}, "fusion_lon": 0.0, "lat": 38.89430883333333, "bike_id": "b70559b54b238d66671e3dd255bdcc03", "type": "electric_scooter", "is_reserved": 0, "lon": -77.0010145}, {"fusion_lat": 0.0, "name": "535efbdbfe9b0fed148e167846a9572a", "is_disabled": 0, "rental_uris": {"android": "https://dc.lft.to/lastmile_qr_scan", "ios": "https://dc.lft.to/lastmile_qr_scan"}, "fusion_lon": 0.0, "lat": 38.9041955, "bike_id": "535efbdbfe9b0fed148e167846a9572a", "type": "electric_scooter", "is_reserved": 0, "lon": -77.00123766666667}, {"fusion_lat": 0.0, "name": "102ed7aaef0f9b11988fe9948067ce5a", "is_disabled": 0, "rental_uris": {"android": "https://dc.lft.to/lastmile_qr_scan", "ios": "https://dc.lft.to/lastmile_qr_scan"}, "fusion_lon": 0.0, "lat": 38.892310333333334, "bike_id": "102ed7aaef0f9b11988fe9948067ce5a", "type": "electric_scooter", "is_reserved": 0, "lon": -77.031747}, {"fusion_lat": 0.0, "name": "9b1d36c588170b9b5d1a8a62de02e22a", "is_disabled": 0, "rental_uris": {"android": "https://dc.lft.to/lastmile_qr_scan", "ios": "https://dc.lft.to/lastmile_qr_scan"}, "fusion_lon": 0.0, "lat": 38.986689, "bike_id": "9b1d36c588170b9b5d1a8a62de02e22a", "type": "electric_bike", "is_reserved": 0, "lon": -76.9999275}, {"fusion_lat": 0.0, "name": "3d84f07dcf4bbfebb30bacf66d2d3d0a", "is_disabled": 0, "rental_uris": {"android": "https://dc.lft.to/lastmile_qr_scan", "ios": "https://dc.lft.to/lastmile_qr_scan"}, "fusion_lon": 0.0, "lat": 38.9354775, "bike_id": "3d84f07dcf4bbfebb30bacf66d2d3d0a", "type": "electric_scooter", "is_reserved": 0, "lon": -77.03261766666667}, {"fusion_lat": 0.0, "name": "24a1f92263cbdf2c1b34b4e84ae843e2", "is_disabled": 0, "rental_uris": {"android": "https://dc.lft.to/lastmile_qr_scan", "ios": "https://dc.lft.to/lastmile_qr_scan"}, "fusion_lon": 0.0, "lat": 38.91692283333333, "bike_id": "24a1f92263cbdf2c1b34b4e84ae843e2", "type": "electric_scooter", "is_reserved": 0, "lon": -77.02516333333334}, {"fusion_lat": 0.0, "name": "e536638a68321d0326f94cfb9ea5228b", "is_disabled": 0, "rental_uris": {"android": "https://dc.lft.to/lastmile_qr_scan", "ios": "https://dc.lft.to/lastmile_qr_scan"}, "fusion_lon": 0.0, "lat": 38.92254, "bike_id": "e536638a68321d0326f94cfb9ea5228b", "type": "electric_scooter", "is_reserved": 0, "lon": -77.03064616666667}, {"fusion_lat": 0.0, "name": "f3afd8456f4d8540791311d69e895dba", "is_disabled": 0, "rental_uris": {"android": "https://dc.lft.to/lastmile_qr_scan", "ios": "https://dc.lft.to/lastmile_qr_scan"}, "fusion_lon": 0.0, "lat": 38.90198383333333, "bike_id": "f3afd8456f4d8540791311d69e895dba", "type": "electric_scooter", "is_reserved": 0, "lon": -77.06113183333333}, {"fusion_lat": 0.0, "name": "1efe1c8935e456927578f2ff6500067f", "is_disabled": 0, "rental_uris": {"android": "https://dc.lft.to/lastmile_qr_scan", "ios": "https://dc.lft.to/lastmile_qr_scan"}, "fusion_lon": 0.0, "lat": 38.89476966666667, "bike_id": "1efe1c8935e456927578f2ff6500067f", "type": "electric_scooter", "is_reserved": 0, "lon": -77.039542}, {"fusion_lat": 0.0, "name": "b4d27fecfdedde3f87e05f491e2047d7", "is_disabled": 0, "rental_uris": {"android": "https://dc.lft.to/lastmile_qr_scan", "ios": "https://dc.lft.to/lastmile_qr_scan"}, "fusion_lon": 0.0, "lat": 38.90521, "bike_id": "b4d27fecfdedde3f87e05f491e2047d7", "type": "electric_scooter", "is_reserved": 0, "lon": -77.02947833333333}, {"fusion_lat": 0.0, "name": "560e31267079e3ebb827b88b4c19a197", "is_disabled": 0, "rental_uris": {"android": "https://dc.lft.to/lastmile_qr_scan", "ios": "https://dc.lft.to/lastmile_qr_scan"}, "fusion_lon": 0.0, "lat": 38.916667833333335, "bike_id": "560e31267079e3ebb827b88b4c19a197", "type": "electric_scooter", "is_reserved": 0, "lon": -77.03463383333333}, {"fusion_lat": 0.0, "name": "f5b8b8f7eed5c27bd503876d3175a540", "is_disabled": 0, "rental_uris": {"android": "https://dc.lft.to/lastmile_qr_scan", "ios": "https://dc.lft.to/lastmile_qr_scan"}, "fusion_lon": 0.0, "lat": 38.90784283333333, "bike_id": "f5b8b8f7eed5c27bd503876d3175a540", "type": "electric_scooter", "is_reserved": 0, "lon": -77.00350166666666}, {"fusion_lat": 0.0, "name": "005ed991b8cb921ed7ba31365aa1cbea", "is_disabled": 0, "rental_uris": {"android": "https://dc.lft.to/lastmile_qr_scan", "ios": "https://dc.lft.to/lastmile_qr_scan"}, "fusion_lon": 0.0, "lat": 38.9944555, "bike_id": "005ed991b8cb921ed7ba31365aa1cbea", "type": "electric_bike", "is_reserved": 0, "lon": -76.9958505}, {"fusion_lat": 0.0, "name": "20505111f0a3227e1928fbca496678de", "is_disabled": 0, "rental_uris": {"android": "https://dc.lft.to/lastmile_qr_scan", "ios": "https://dc.lft.to/lastmile_qr_scan"}, "fusion_lon": 0.0, "lat": 38.902367166666664, "bike_id": "20505111f0a3227e1928fbca496678de", "type": "electric_scooter", "is_reserved": 0, "lon": -77.04457416666666}, {"fusion_lat": 0.0, "name": "7a54d0aea5ccdf5cbb56c5a989e50229", "is_disabled": 0, "rental_uris": {"android": "https://dc.lft.to/lastmile_qr_scan", "ios": "https://dc.lft.to/lastmile_qr_scan"}, "fusion_lon": 0.0, "lat": 38.871110333333334, "bike_id": "7a54d0aea5ccdf5cbb56c5a989e50229", "type": "electric_scooter", "is_reserved": 0, "lon": -76.96588916666667}, {"fusion_lat": 0.0, "name": "b0ca7e2ad049f7bdc45dfc3234706641", "is_disabled": 0, "rental_uris": {"android": "https://dc.lft.to/lastmile_qr_scan", "ios": "https://dc.lft.to/lastmile_qr_scan"}, "fusion_lon": 0.0, "lat": 38.919875833333336, "bike_id": "b0ca7e2ad049f7bdc45dfc3234706641", "type": "electric_scooter", "is_reserved": 0, "lon": -77.02365133333333}, {"fusion_lat": 0.0, "name": "54201f42f66c7ec403ff9c9e0a821fe1", "is_disabled": 0, "rental_uris": {"android": "https://dc.lft.to/lastmile_qr_scan", "ios": "https://dc.lft.to/lastmile_qr_scan"}, "fusion_lon": 0.0, "lat": 38.883963, "bike_id": "54201f42f66c7ec403ff9c9e0a821fe1", "type": "electric_bike", "is_reserved": 0, "lon": -76.9604855}, {"fusion_lat": 0.0, "name": "09c9fc9f4c2e7351875dcdeac93b9d15", "is_disabled": 0, "rental_uris": {"android": "https://dc.lft.to/lastmile_qr_scan", "ios": "https://dc.lft.to/lastmile_qr_scan"}, "fusion_lon": 0.0, "lat": 38.9181165, "bike_id": "09c9fc9f4c2e7351875dcdeac93b9d15", "type": "electric_scooter", "is_reserved": 0, "lon": -77.03786133333334}, {"fusion_lat": 0.0, "name": "a3be55f41f7e5972c2a67843613a84c3", "is_disabled": 0, "rental_uris": {"android": "https://dc.lft.to/lastmile_qr_scan", "ios": "https://dc.lft.to/lastmile_qr_scan"}, "fusion_lon": 0.0, "lat": 38.85797766666666, "bike_id": "a3be55f41f7e5972c2a67843613a84c3", "type": "electric_bike", "is_reserved": 0, "lon": -77.12008633333333}, {"fusion_lat": 0.0, "name": "cfaba702c261faa83c1ecdc4fc394906", "is_disabled": 0, "rental_uris": {"android": "https://dc.lft.to/lastmile_qr_scan", "ios": "https://dc.lft.to/lastmile_qr_scan"}, "fusion_lon": 0.0, "lat": 38.9029335, "bike_id": "cfaba702c261faa83c1ecdc4fc394906", "type": "electric_scooter", "is_reserved": 0, "lon": -77.06528683333333}, {"fusion_lat": 0.0, "name": "1d2eb75216906f09b4ecd905d695baf1", "is_disabled": 0, "rental_uris": {"android": "https://dc.lft.to/lastmile_qr_scan", "ios": "https://dc.lft.to/lastmile_qr_scan"}, "fusion_lon": 0.0, "lat": 38.916655166666665, "bike_id": "1d2eb75216906f09b4ecd905d695baf1", "type": "electric_scooter", "is_reserved": 0, "lon": -77.0297095}, {"fusion_lat": 0.0, "name": "8cf23ff29e9842296102a08908dce5bf", "is_disabled": 0, "rental_uris": {"android": "https://dc.lft.to/lastmile_qr_scan", "ios": "https://dc.lft.to/lastmile_qr_scan"}, "fusion_lon": 0.0, "lat": 38.930594166666666, "bike_id": "8cf23ff29e9842296102a08908dce5bf", "type": "electric_scooter", "is_reserved": 0, "lon": -77.02966483333333}, {"fusion_lat": 0.0, "name": "e7a21e727ad932fd82a873c38953c6cf", "is_disabled": 0, "rental_uris": {"android": "https://dc.lft.to/lastmile_qr_scan", "ios": "https://dc.lft.to/lastmile_qr_scan"}, "fusion_lon": 0.0, "lat": 38.90563083333333, "bike_id": "e7a21e727ad932fd82a873c38953c6cf", "type": "electric_scooter", "is_reserved": 0, "lon": -77.013048}, {"fusion_lat": 0.0, "name": "5c336e9f41ace1a71d7d0ed4b7a30710", "is_disabled": 0, "rental_uris": {"android": "https://dc.lft.to/lastmile_qr_scan", "ios": "https://dc.lft.to/lastmile_qr_scan"}, "fusion_lon": 0.0, "lat": 38.87183666666667, "bike_id": "5c336e9f41ace1a71d7d0ed4b7a30710", "type": "electric_scooter", "is_reserved": 0, "lon": -77.00612233333334}, {"fusion_lat": 0.0, "name": "362dcb4077ba69b11b337c3d188b2ed5", "is_disabled": 0, "rental_uris": {"android": "https://dc.lft.to/lastmile_qr_scan", "ios": "https://dc.lft.to/lastmile_qr_scan"}, "fusion_lon": 0.0, "lat": 38.917995166666664, "bike_id": "362dcb4077ba69b11b337c3d188b2ed5", "type": "electric_scooter", "is_reserved": 0, "lon": -77.03431983333333}, {"fusion_lat": 0.0, "name": "7081388206761c0c2b1a651a76cbda1a", "is_disabled": 0, "rental_uris": {"android": "https://dc.lft.to/lastmile_qr_scan", "ios": "https://dc.lft.to/lastmile_qr_scan"}, "fusion_lon": 0.0, "lat": 38.9318095, "bike_id": "7081388206761c0c2b1a651a76cbda1a", "type": "electric_scooter", "is_reserved": 0, "lon": -77.04296783333334}, {"fusion_lat": 0.0, "name": "2159f3870cd998c437da8e6fcfc84853", "is_disabled": 0, "rental_uris": {"android": "https://dc.lft.to/lastmile_qr_scan", "ios": "https://dc.lft.to/lastmile_qr_scan"}, "fusion_lon": 0.0, "lat": 38.911121333333334, "bike_id": "2159f3870cd998c437da8e6fcfc84853", "type": "electric_scooter", "is_reserved": 0, "lon": -77.021762}, {"fusion_lat": 0.0, "name": "796653448a5cc3e05c1905aa39c97f68", "is_disabled": 0, "rental_uris": {"android": "https://dc.lft.to/lastmile_qr_scan", "ios": "https://dc.lft.to/lastmile_qr_scan"}, "fusion_lon": 0.0, "lat": 38.91705983333333, "bike_id": "796653448a5cc3e05c1905aa39c97f68", "type": "electric_scooter", "is_reserved": 0, "lon": -77.041225}, {"fusion_lat": 0.0, "name": "358bd72653c720564346d0c8dfb9b4cb", "is_disabled": 0, "rental_uris": {"android": "https://dc.lft.to/lastmile_qr_scan", "ios": "https://dc.lft.to/lastmile_qr_scan"}, "fusion_lon": 0.0, "lat": 38.819900833333335, "bike_id": "358bd72653c720564346d0c8dfb9b4cb", "type": "electric_bike", "is_reserved": 0, "lon": -76.998103}, {"fusion_lat": 0.0, "name": "e71450b051f80ff090eae64fb064fc05", "is_disabled": 0, "rental_uris": {"android": "https://dc.lft.to/lastmile_qr_scan", "ios": "https://dc.lft.to/lastmile_qr_scan"}, "fusion_lon": 0.0, "lat": 38.916659, "bike_id": "e71450b051f80ff090eae64fb064fc05", "type": "electric_scooter", "is_reserved": 0, "lon": -77.029659}, {"fusion_lat": 0.0, "name": "2f4509b243221b95367f71dc89bbdb2c", "is_disabled": 0, "rental_uris": {"android": "https://dc.lft.to/lastmile_qr_scan", "ios": "https://dc.lft.to/lastmile_qr_scan"}, "fusion_lon": 0.0, "lat": 38.909348666666666, "bike_id": "2f4509b243221b95367f71dc89bbdb2c", "type": "electric_scooter", "is_reserved": 0, "lon": -77.03855583333333}, {"fusion_lat": 0.0, "name": "6d7faf5c1b9f57b672b0343ae21d9904", "is_disabled": 0, "rental_uris": {"android": "https://dc.lft.to/lastmile_qr_scan", "ios": "https://dc.lft.to/lastmile_qr_scan"}, "fusion_lon": 0.0, "lat": 38.9518275, "bike_id": "6d7faf5c1b9f57b672b0343ae21d9904", "type": "electric_scooter", "is_reserved": 0, "lon": -77.026148}, {"fusion_lat": 0.0, "name": "5b6346248ec00cc7f4352daddfbe3ab2", "is_disabled": 0, "rental_uris": {"android": "https://dc.lft.to/lastmile_qr_scan", "ios": "https://dc.lft.to/lastmile_qr_scan"}, "fusion_lon": 0.0, "lat": 38.87670883333333, "bike_id": "5b6346248ec00cc7f4352daddfbe3ab2", "type": "electric_bike", "is_reserved": 0, "lon": -77.01445116666666}, {"fusion_lat": 0.0, "name": "653e95c81e3d51790dd4119fc403ea6c", "is_disabled": 0, "rental_uris": {"android": "https://dc.lft.to/lastmile_qr_scan", "ios": "https://dc.lft.to/lastmile_qr_scan"}, "fusion_lon": 0.0, "lat": 38.908949, "bike_id": "653e95c81e3d51790dd4119fc403ea6c", "type": "electric_scooter", "is_reserved": 0, "lon": -77.00230383333333}, {"fusion_lat": 0.0, "name": "81ff8014041714f35e0eef2947b45d81", "is_disabled": 0, "rental_uris": {"android": "https://dc.lft.to/lastmile_qr_scan", "ios": "https://dc.lft.to/lastmile_qr_scan"}, "fusion_lon": 0.0, "lat": 38.94952416666667, "bike_id": "81ff8014041714f35e0eef2947b45d81", "type": "electric_scooter", "is_reserved": 0, "lon": -77.066468}, {"fusion_lat": 0.0, "name": "e21065a71cf50c6e9538a9fe356b1f1a", "is_disabled": 0, "rental_uris": {"android": "https://dc.lft.to/lastmile_qr_scan", "ios": "https://dc.lft.to/lastmile_qr_scan"}, "fusion_lon": 0.0, "lat": 38.911103, "bike_id": "e21065a71cf50c6e9538a9fe356b1f1a", "type": "electric_scooter", "is_reserved": 0, "lon": -77.03830266666667}, {"fusion_lat": 0.0, "name": "abcc3e75435c8851174a99cf287f1c40", "is_disabled": 0, "rental_uris": {"android": "https://dc.lft.to/lastmile_qr_scan", "ios": "https://dc.lft.to/lastmile_qr_scan"}, "fusion_lon": 0.0, "lat": 38.9155225, "bike_id": "abcc3e75435c8851174a99cf287f1c40", "type": "electric_scooter", "is_reserved": 0, "lon": -77.03470083333333}, {"fusion_lat": 0.0, "name": "cc3d2a336adbb283f95b8342d53d0dea", "is_disabled": 0, "rental_uris": {"android": "https://dc.lft.to/lastmile_qr_scan", "ios": "https://dc.lft.to/lastmile_qr_scan"}, "fusion_lon": 0.0, "lat": 38.93269816666667, "bike_id": "cc3d2a336adbb283f95b8342d53d0dea", "type": "electric_scooter", "is_reserved": 0, "lon": -77.04075883333333}, {"fusion_lat": 0.0, "name": "442102cf5d5fedc78b7f783617d2412f", "is_disabled": 0, "rental_uris": {"android": "https://dc.lft.to/lastmile_qr_scan", "ios": "https://dc.lft.to/lastmile_qr_scan"}, "fusion_lon": 0.0, "lat": 38.95056983333333, "bike_id": "442102cf5d5fedc78b7f783617d2412f", "type": "electric_scooter", "is_reserved": 0, "lon": -77.08027716666666}, {"fusion_lat": 0.0, "name": "3386d7ec5a604484083c53b0331905ce", "is_disabled": 0, "rental_uris": {"android": "https://dc.lft.to/lastmile_qr_scan", "ios": "https://dc.lft.to/lastmile_qr_scan"}, "fusion_lon": 0.0, "lat": 38.86627266666667, "bike_id": "3386d7ec5a604484083c53b0331905ce", "type": "electric_scooter", "is_reserved": 0, "lon": -76.9871545}, {"fusion_lat": 0.0, "name": "743806952b72ab18f708cb5e61904c02", "is_disabled": 0, "rental_uris": {"android": "https://dc.lft.to/lastmile_qr_scan", "ios": "https://dc.lft.to/lastmile_qr_scan"}, "fusion_lon": 0.0, "lat": 38.9030565, "bike_id": "743806952b72ab18f708cb5e61904c02", "type": "electric_scooter", "is_reserved": 0, "lon": -77.06024083333334}, {"fusion_lat": 0.0, "name": "ace58493889ede49e825419c4feb006a", "is_disabled": 0, "rental_uris": {"android": "https://dc.lft.to/lastmile_qr_scan", "ios": "https://dc.lft.to/lastmile_qr_scan"}, "fusion_lon": 0.0, "lat": 38.909764, "bike_id": "ace58493889ede49e825419c4feb006a", "type": "electric_scooter", "is_reserved": 0, "lon": -77.02689416666666}, {"fusion_lat": 0.0, "name": "daef57ac833d7eb973eff6cee030e848", "is_disabled": 0, "rental_uris": {"android": "https://dc.lft.to/lastmile_qr_scan", "ios": "https://dc.lft.to/lastmile_qr_scan"}, "fusion_lon": 0.0, "lat": 38.897996166666665, "bike_id": "daef57ac833d7eb973eff6cee030e848", "type": "electric_bike", "is_reserved": 0, "lon": -76.99954766666667}, {"fusion_lat": 0.0, "name": "044d7ee517ac6055c18cc08205d5be1f", "is_disabled": 0, "rental_uris": {"android": "https://dc.lft.to/lastmile_qr_scan", "ios": "https://dc.lft.to/lastmile_qr_scan"}, "fusion_lon": 0.0, "lat": 38.87626683333333, "bike_id": "044d7ee517ac6055c18cc08205d5be1f", "type": "electric_scooter", "is_reserved": 0, "lon": -77.00641783333333}, {"fusion_lat": 0.0, "name": "f169f0b86b5e9cb0a7e77aa2a980a7a7", "is_disabled": 0, "rental_uris": {"android": "https://dc.lft.to/lastmile_qr_scan", "ios": "https://dc.lft.to/lastmile_qr_scan"}, "fusion_lon": 0.0, "lat": 38.8974125, "bike_id": "f169f0b86b5e9cb0a7e77aa2a980a7a7", "type": "electric_scooter", "is_reserved": 0, "lon": -77.02714933333333}, {"fusion_lat": 0.0, "name": "3dd47c9535b6827385b694de8bba4303", "is_disabled": 0, "rental_uris": {"android": "https://dc.lft.to/lastmile_qr_scan", "ios": "https://dc.lft.to/lastmile_qr_scan"}, "fusion_lon": 0.0, "lat": 38.88738516666667, "bike_id": "3dd47c9535b6827385b694de8bba4303", "type": "electric_scooter", "is_reserved": 0, "lon": -77.02573966666667}, {"fusion_lat": 0.0, "name": "d88c129bfb3e9eaa4207a1b0280870ee", "is_disabled": 0, "rental_uris": {"android": "https://dc.lft.to/lastmile_qr_scan", "ios": "https://dc.lft.to/lastmile_qr_scan"}, "fusion_lon": 0.0, "lat": 38.980563333333336, "bike_id": "d88c129bfb3e9eaa4207a1b0280870ee", "type": "electric_bike", "is_reserved": 0, "lon": -77.09570983333333}, {"fusion_lat": 0.0, "name": "9d188e4a020235674459e85be64ddfe0", "is_disabled": 0, "rental_uris": {"android": "https://dc.lft.to/lastmile_qr_scan", "ios": "https://dc.lft.to/lastmile_qr_scan"}, "fusion_lon": 0.0, "lat": 38.92394083333333, "bike_id": "9d188e4a020235674459e85be64ddfe0", "type": "electric_scooter", "is_reserved": 0, "lon": -77.02612116666667}, {"fusion_lat": 0.0, "name": "5bbc3d7201b1291e5c36e04c91350a94", "is_disabled": 0, "rental_uris": {"android": "https://dc.lft.to/lastmile_qr_scan", "ios": "https://dc.lft.to/lastmile_qr_scan"}, "fusion_lon": 0.0, "lat": 38.926915666666666, "bike_id": "5bbc3d7201b1291e5c36e04c91350a94", "type": "electric_scooter", "is_reserved": 0, "lon": -77.02297916666667}, {"fusion_lat": 0.0, "name": "661485a14814db12e8300a0712241329", "is_disabled": 0, "rental_uris": {"android": "https://dc.lft.to/lastmile_qr_scan", "ios": "https://dc.lft.to/lastmile_qr_scan"}, "fusion_lon": 0.0, "lat": 38.915529, "bike_id": "661485a14814db12e8300a0712241329", "type": "electric_scooter", "is_reserved": 0, "lon": -77.005471},