{"data": {"bikes": [{"bike_id": "8611987851481b5a59418d77efea6549", "lat": 38.9431025, "is_disabled": 0, "lon": -77.05922816666667, "fusion_lon": 0.0, "is_reserved": 0, "fusion_lat": 0.0, "rental_uris": {"android": "https://dc.lft.to/lastmile_qr_scan", "ios": "https://dc.lft.to/lastmile_qr_scan"}, "type": "electric_scooter", "name": "8611987851481b5a59418d77efea6549"}, {"bike_id": "0941c3943b70e1ceeb8544e6ed082969", "lat": 38.892542166666665, "is_disabled": 0, "lon": -77.0450515, "fusion_lon": 0.0, "is_reserved": 0, "fusion_lat": 0.0, "rental_uris": {"android": "https://dc.lft.to/lastmile_qr_scan", "ios": "https://dc.lft.to/lastmile_qr_scan"}, "type": "electric_scooter", "name": "0941c3943b70e1ceeb8544e6ed082969"}, {"bike_id": "0e9bec634db9f04aa7b20e3f91cad7b9", "lat": 38.889917, "is_disabled": 0, "lon": -77.0032795, "fusion_lon": 0.0, "is_reserved": 0, "fusion_lat": 0.0, "rental_uris": {"android": "https://dc.lft.to/lastmile_qr_scan", "ios": "https://dc.lft.to/lastmile_qr_scan"}, "type": "electric_scooter", "name": "0e9bec634db9f04aa7b20e3f91cad7b9"}, {"bike_id": "e5ac457312cd95d9d3acc5d43684efd8", "lat": 38.936946666666664, "is_disabled": 0, "lon": -77.05600016666666, "fusion_lon": 0.0, "is_reserved": 0, "fusion_lat": 0.0, "rental_uris": {"android": "https://dc.lft.to/lastmile_qr_scan", "ios": "https://dc.lft.to/lastmile_qr_scan"}, "type": "electric_scooter", "name": "e5ac457312cd95d9d3acc5d43684efd8"}, {"bike_id": "340758fce2101c693f994eb73d60cfb8", "lat": 38.91044133333333, "is_disabled": 0, "lon": -77.02184033333333, "fusion_lon": 0.0, "is_reserved": 0, "fusion_lat": 0.0, "rental_uris": {"android": "https://dc.lft.to/lastmile_qr_scan", "ios": "https://dc.lft.to/lastmile_qr_scan"}, "type": "electric_scooter", "name": "340758fce2101c693f994eb73d60cfb8"}, {"bike_id": "36d86644c869b0a3cb2d4080779f66c3", "lat": 38.907886, "is_disabled": 0, "lon": -77.0451205, "fusion_lon": 0.0, "is_reserved": 0, "fusion_lat": 0.0, "rental_uris": {"android": "https://dc.lft.to/lastmile_qr_scan", "ios": "https://dc.lft.to/lastmile_qr_scan"}, "type": "electric_scooter", "name": "36d86644c869b0a3cb2d4080779f66c3"}, {"bike_id": "37bd1f6158737a6b09a3480afaa7b478", "lat": 38.887578500000004, "is_disabled": 0, "lon": -77.03323166666667, "fusion_lon": 0.0, "is_reserved": 0, "fusion_lat": 0.0, "rental_uris": {"android": "https://dc.lft.to/lastmile_qr_scan", "ios": "https://dc.lft.to/lastmile_qr_scan"}, "type": "electric_scooter", "name": "37bd1f6158737a6b09a3480afaa7b478"}, {"bike_id": "d99d5201dc8b7b36371941f06c5db2f8", "lat": 38.92661233333333, "is_disabled": 0, "lon": -76.99503933333334, "fusion_lon": 0.0, "is_reserved": 0, "fusion_lat": 0.0, "rental_uris": {"android": "https://dc.lft.to/lastmile_qr_scan", "ios": "https://dc.lft.to/lastmile_qr_scan"}, "type": "electric_scooter", "name": "d99d5201dc8b7b36371941f06c5db2f8"}, {"bike_id": "4e895f6c23403485f05fd3644d44c34f", "lat": 38.892194333333336, "is_disabled": 0, "lon": -77.0278135, "fusion_lon": 0.0, "is_reserved": 0, "fusion_lat": 0.0, "rental_uris": {"android": "https://dc.lft.to/lastmile_qr_scan", "ios": "https://dc.lft.to/lastmile_qr_scan"}, "type": "electric_scooter", "name": "4e895f6c23403485f05fd3644d44c34f"}, {"bike_id": "8bbc3792b52a355338e92b2bca90526b", "lat": 38.92409516666667, "is_disabled": 0, "lon": -76.99807333333334, "fusion_lon": 0.0, "is_reserved": 0, "fusion_lat": 0.0, "rental_uris": {"android": "https://dc.lft.to/lastmile_qr_scan", "ios": "https://dc.lft.to/lastmile_qr_scan"}, "type": "electric_scooter", "name": "8bbc3792b52a355338e92b2bca90526b"}, {"bike_id": "b5d08285bfd1a5e261828175109b8d5c", "lat": 38.91136916666667, "is_disabled": 0, "lon": -77.04670166666666, "fusion_lon": 0.0, "is_reserved": 0, "fusion_lat": 0.0, "rental_uris": {"android": "https://dc.lft.to/lastmile_qr_scan", "ios": "https://dc.lft.to/lastmile_qr_scan"}, "type": "electric_scooter", "name": "b5d08285bfd1a5e261828175109b8d5c"}, {"bike_id": "75a5e477f8b18e52b0661cda75c85422", "lat": 38.9057515, "is_disabled": 0, "lon": -77.03346033333334, "fusion_lon": 0.0, "is_reserved": 0, "fusion_lat": 0.0, "rental_uris": {"android": "https://dc.lft.to/lastmile_qr_scan", "ios": "https://dc.lft.to/lastmile_qr_scan"}, "type": "electric_scooter", "name": "75a5e477f8b18e52b0661cda75c85422"}, {"bike_id": "e491bff1f6e0604cbc2d517ea785c8df", "lat": 38.91006516666667, "is_disabled": 0, "lon": -77.04005933333333, "fusion_lon": 0.0, "is_reserved": 0, "fusion_lat": 0.0, "rental_uris": {"android": "https://dc.lft.to/lastmile_qr_scan", "ios": "https://dc.lft.to/lastmile_qr_scan"}, "type": "electric_scooter", "name": "e491bff1f6e0604cbc2d517ea785c8df"}, {"bike_id": "9f2193d4210779660af22c1ea3cb3cc8", "lat": 38.84267916666667, "is_disabled": 0, "lon": -76.98816816666667, "fusion_lon": 0.0, "is_reserved": 0, "fusion_lat": 0.0, "rental_uris": {"android": "https://dc.lft.to/lastmile_qr_scan", "ios": "https://dc.lft.to/lastmile_qr_scan"}, "type": "electric_bike", "name": "9f2193d4210779660af22c1ea3cb3cc8"}, {"bike_id": "e07c587d5ee1d9140471196f8f8ddd75", "lat": 38.902514333333336, "is_disabled": 0, "lon": -77.03843066666667, "fusion_lon": 0.0, "is_reserved": 0, "fusion_lat": 0.0, "rental_uris": {"android": "https://dc.lft.to/lastmile_qr_scan", "ios": "https://dc.lft.to/lastmile_qr_scan"}, "type": "electric_scooter", "name": "e07c587d5ee1d9140471196f8f8ddd75"}, {"bike_id": "c300bd1318b23b6ff0949dc255404c45", "lat": 38.89215883333333, "is_disabled": 0, "lon": -77.02371216666667, "fusion_lon": 0.0, "is_reserved": 0, "fusion_lat": 0.0, "rental_uris": {"android": "https://dc.lft.to/lastmile_qr_scan", "ios": "https://dc.lft.to/lastmile_qr_scan"}, "type": "electric_scooter", "name": "c300bd1318b23b6ff0949dc255404c45"}, {"bike_id": "9fb99b54896a98a798130ec7f33dbef7", "lat": 38.89850766666667, "is_disabled": 0, "lon": -77.05229216666666, "fusion_lon": 0.0, "is_reserved": 0, "fusion_lat": 0.0, "rental_uris": {"android": "https://dc.lft.to/lastmile_qr_scan", "ios": "https://dc.lft.to/lastmile_qr_scan"}, "type": "electric_scooter", "name": "9fb99b54896a98a798130ec7f33dbef7"}, {"bike_id": "d9d10a8704adf11d6608427b476f6de9", "lat": 38.878489, "is_disabled": 0, "lon": -77.00745716666667, "fusion_lon": 0.0, "is_reserved": 0, "fusion_lat": 0.0, "rental_uris": {"android": "https://dc.lft.to/lastmile_qr_scan", "ios": "https://dc.lft.to/lastmile_qr_scan"}, "type": "electric_scooter", "name": "d9d10a8704adf11d6608427b476f6de9"}, {"bike_id": "dc7658c2113fe6d3bb072b113c78f5c6", "lat": 38.91922366666667, "is_disabled": 0, "lon": -77.04539466666667, "fusion_lon": 0.0, "is_reserved": 0, "fusion_lat": 0.0, "rental_uris": {"android": "https://dc.lft.to/lastmile_qr_scan", "ios": "https://dc.lft.to/lastmile_qr_scan"}, "type": "electric_scooter", "name": "dc7658c2113fe6d3bb072b113c78f5c6"}, {"bike_id": "e1dacd6773ab320e4143ae08d1a68f4f", "lat": 38.9324785, "is_disabled": 0, "lon": -77.038508, "fusion_lon": 0.0, "is_reserved": 0, "fusion_lat": 0.0, "rental_uris": {"android": "https://dc.lft.to/lastmile_qr_scan", "ios": "https://dc.lft.to/lastmile_qr_scan"}, "type": "electric_bike", "name": "e1dacd6773ab320e4143ae08d1a68f4f"}, {"bike_id": "ebc23babed061db004e5690f5c9eea85", "lat": 38.932742833333336, "is_disabled": 0, "lon": -77.03697633333333, "fusion_lon": 0.0, "is_reserved": 0, "fusion_lat": 0.0, "rental_uris": {"android": "https://dc.lft.to/lastmile_qr_scan", "ios": "https://dc.lft.to/lastmile_qr_scan"}, "type": "electric_scooter", "name": "ebc23babed061db004e5690f5c9eea85"}, {"bike_id": "7c132837b13ee4f17158fa9117c97808", "lat": 38.9016635, "is_disabled": 0, "lon": -77.03926316666667, "fusion_lon": 0.0, "is_reserved": 0, "fusion_lat": 0.0, "rental_uris": {"android": "https://dc.lft.to/lastmile_qr_scan", "ios": "https://dc.lft.to/lastmile_qr_scan"}, "type": "electric_scooter", "name": "7c132837b13ee4f17158fa9117c97808"}, {"bike_id": "9278cdd0514da214dfd3e0130112e984", "lat": 38.899744, "is_disabled": 0, "lon": -77.03353083333333, "fusion_lon": 0.0, "is_reserved": 0, "fusion_lat": 0.0, "rental_uris": {"android": "https://dc.lft.to/lastmile_qr_scan", "ios": "https://dc.lft.to/lastmile_qr_scan"}, "type": "electric_scooter", "name": "9278cdd0514da214dfd3e0130112e984"}, {"bike_id": "3088943417e2f73ddb924fe19f7db05f", "lat": 38.8916565, "is_disabled": 0, "lon": -77.01552466666666, "fusion_lon": 0.0, "is_reserved": 0, "fusion_lat": 0.0, "rental_uris": {"android": "https://dc.lft.to/lastmile_qr_scan", "ios": "https://dc.lft.to/lastmile_qr_scan"}, "type": "electric_scooter", "name": "3088943417e2f73ddb924fe19f7db05f"}, {"bike_id": "a6725b78051a416559abf8920737d87c", "lat": 38.916171, "is_disabled": 0, "lon": -77.03223083333333, "fusion_lon": 0.0, "is_reserved": 0, "fusion_lat": 0.0, "rental_uris": {"android": "https://dc.lft.to/lastmile_qr_scan", "ios": "https://dc.lft.to/lastmile_qr_scan"}, "type": "electric_scooter", "name": "a6725b78051a416559abf8920737d87c"}, {"bike_id": "9bc495b4bce857d4392561e56ca5b84e", "lat": 38.917544, "is_disabled": 0, "lon": -77.02395133333333, "fusion_lon": 0.0, "is_reserved": 0, "fusion_lat": 0.0, "rental_uris": {"android": "https://dc.lft.to/lastmile_qr_scan", "ios": "https://dc.lft.to/lastmile_qr_scan"}, "type": "electric_scooter", "name": "9bc495b4bce857d4392561e56ca5b84e"}, {"bike_id": "ac8ae96150203b889a7a8ba5cd6335da", "lat": 38.908661, "is_disabled": 0, "lon": -77.03185416666666, "fusion_lon": 0.0, "is_reserved": 0, "fusion_lat": 0.0, "rental_uris": {"android": "https://dc.lft.to/lastmile_qr_scan", "ios": "https://dc.lft.to/lastmile_qr_scan"}, "type": "electric_scooter", "name": "ac8ae96150203b889a7a8ba5cd6335da"}, {"bike_id": "54cb24a7287fa64331813903d4c9be18", "lat": 38.918118166666666, "is_disabled": 0, "lon": -77.03189266666666, "fusion_lon": 0.0, "is_reserved": 0, "fusion_lat": 0.0, "rental_uris": {"android": "https://dc.lft.to/lastmile_qr_scan", "ios": "https://dc.lft.to/lastmile_qr_scan"}, "type": "electric_scooter", "name": "54cb24a7287fa64331813903d4c9be18"}, {"bike_id": "72ab1f797812c8ab09744f107d1f5775", "lat": 38.901284833333335, "is_disabled": 0, "lon": -77.04433733333333, "fusion_lon": 0.0, "is_reserved": 0, "fusion_lat": 0.0, "rental_uris": {"android": "https://dc.lft.to/lastmile_qr_scan", "ios": "https://dc.lft.to/lastmile_qr_scan"}, "type": "electric_scooter", "name": "72ab1f797812c8ab09744f107d1f5775"}, {"bike_id": "c1b7e4e05cac1c5bb2515a70cba8242d", "lat": 38.92844483333333, "is_disabled": 0, "lon": -77.0309595, "fusion_lon": 0.0, "is_reserved": 0, "fusion_lat": 0.0, "rental_uris": {"android": "https://dc.lft.to/lastmile_qr_scan", "ios": "https://dc.lft.to/lastmile_qr_scan"}, "type": "electric_scooter", "name": "c1b7e4e05cac1c5bb2515a70cba8242d"}, {"bike_id": "0d09e6f6c6f418e8c6bcd61fd36a66cd", "lat": 38.92160833333333, "is_disabled": 0, "lon": -77.03185816666667, "fusion_lon": 0.0, "is_reserved": 0, "fusion_lat": 0.0, "rental_uris": {"android": "https://dc.lft.to/lastmile_qr_scan", "ios": "https://dc.lft.to/lastmile_qr_scan"}, "type": "electric_scooter", "name": "0d09e6f6c6f418e8c6bcd61fd36a66cd"}, {"bike_id": "b5a0456c455da57c09b0be41d3dd4f39", "lat": 38.94228233333333, "is_disabled": 0, "lon": -77.03871533333333, "fusion_lon": 0.0, "is_reserved": 0, "fusion_lat": 0.0, "rental_uris": {"android": "https://dc.lft.to/lastmile_qr_scan", "ios": "https://dc.lft.to/lastmile_qr_scan"}, "type": "electric_scooter", "name": "b5a0456c455da57c09b0be41d3dd4f39"}, {"bike_id": "4fd48cd49910e2a954aeb2a371cc66f7", "lat": 38.88487933333333, "is_disabled": 0, "lon": -76.95760266666667, "fusion_lon": 0.0, "is_reserved": 0, "fusion_lat": 0.0, "rental_uris": {"android": "https://dc.lft.to/lastmile_qr_scan", "ios": "https://dc.lft.to/lastmile_qr_scan"}, "type": "electric_bike", "name": "4fd48cd49910e2a954aeb2a371cc66f7"}, {"bike_id": "0fda7d5fd444840c2902aa9b4bb63158", "lat": 38.921634166666664, "is_disabled": 0, "lon": -77.04704666666666, "fusion_lon": 0.0, "is_reserved": 0, "fusion_lat": 0.0, "rental_uris": {"android": "https://dc.lft.to/lastmile_qr_scan", "ios": "https://dc.lft.to/lastmile_qr_scan"}, "type": "electric_scooter", "name": "0fda7d5fd444840c2902aa9b4bb63158"}, {"bike_id": "8c29e51b6d19300ac97a179adf5bd8b5", "lat": 38.923906, "is_disabled": 0, "lon": -77.03410816666667, "fusion_lon": 0.0, "is_reserved": 0, "fusion_lat": 0.0, "rental_uris": {"android": "https://dc.lft.to/lastmile_qr_scan", "ios": "https://dc.lft.to/lastmile_qr_scan"}, "type": "electric_scooter", "name": "8c29e51b6d19300ac97a179adf5bd8b5"}, {"bike_id": "8de379059a256353ea4f67ceba6726e6", "lat": 38.887136, "is_disabled": 0, "lon": -77.02206033333333, "fusion_lon": 0.0, "is_reserved": 0, "fusion_lat": 0.0, "rental_uris": {"android": "https://dc.lft.to/lastmile_qr_scan", "ios": "https://dc.lft.to/lastmile_qr_scan"}, "type": "electric_scooter", "name": "8de379059a256353ea4f67ceba6726e6"}, {"bike_id": "033144f37398f916ff1010dbcd00b7c6", "lat": 38.90616833333333, "is_disabled": 0, "lon": -77.04337416666667, "fusion_lon": 0.0, "is_reserved": 0, "fusion_lat": 0.0, "rental_uris": {"android": "https://dc.lft.to/lastmile_qr_scan", "ios": "https://dc.lft.to/lastmile_qr_scan"}, "type": "electric_scooter", "name": "033144f37398f916ff1010dbcd00b7c6"}, {"bike_id": "d2696a9f24bd2ef5a82732670e568278", "lat": 38.91714, "is_disabled": 0, "lon": -77.02565916666667, "fusion_lon": 0.0, "is_reserved": 0, "fusion_lat": 0.0, "rental_uris": {"android": "https://dc.lft.to/lastmile_qr_scan", "ios": "https://dc.lft.to/lastmile_qr_scan"}, "type": "electric_scooter", "name": "d2696a9f24bd2ef5a82732670e568278"}, {"bike_id": "6c4cba5770d24a614c905dda252e792a", "lat": 38.908421833333335, "is_disabled": 0, "lon": -77.036553, "fusion_lon": 0.0, "is_reserved": 0, "fusion_lat": 0.0, "rental_uris": {"android": "https://dc.lft.to/lastmile_qr_scan", "ios": "https://dc.lft.to/lastmile_qr_scan"}, "type": "electric_scooter", "name": "6c4cba5770d24a614c905dda252e792a"}, {"bike_id": "e920316768984f5b51d147fba7b6d9a8", "lat": 38.90856683333333, "is_disabled": 0, "lon": -77.04534816666667, "fusion_lon": 0.0, "is_reserved": 0, "fusion_lat": 0.0, "rental_uris": {"android": "https://dc.lft.to/lastmile_qr_scan", "ios": "https://dc.lft.to/lastmile_qr_scan"}, "type": "electric_scooter", "name": "e920316768984f5b51d147fba7b6d9a8"}, {"bike_id": "040c1886adc021f9259718dbc6257885", "lat": 38.902870166666666, "is_disabled": 0, "lon": -77.0451185, "fusion_lon": 0.0, "is_reserved": 0, "fusion_lat": 0.0, "rental_uris": {"android": "https://dc.lft.to/lastmile_qr_scan", "ios": "https://dc.lft.to/lastmile_qr_scan"}, "type": "electric_scooter", "name": "040c1886adc021f9259718dbc6257885"}, {"bike_id": "d846fa330665c056a97a11bf032879f0", "lat": 38.913964, "is_disabled": 0, "lon": -77.0641925, "fusion_lon": 0.0, "is_reserved": 0, "fusion_lat": 0.0, "rental_uris": {"android": "https://dc.lft.to/lastmile_qr_scan", "ios": "https://dc.lft.to/lastmile_qr_scan"}, "type": "electric_scooter", "name": "d846fa330665c056a97a11bf032879f0"}, {"bike_id": "bfe6029043de5513d7e90e6c73699444", "lat": 38.907618166666666, "is_disabled": 0, "lon": -77.03580283333334, "fusion_lon": 0.0, "is_reserved": 0, "fusion_lat": 0.0, "rental_uris": {"android": "https://dc.lft.to/lastmile_qr_scan", "ios": "https://dc.lft.to/lastmile_qr_scan"}, "type": "electric_scooter", "name": "bfe6029043de5513d7e90e6c73699444"}, {"bike_id": "dd97a839eee5122e7b1a3041164c7541", "lat": 38.91692166666667, "is_disabled": 0, "lon": -77.035108, "fusion_lon": 0.0, "is_reserved": 0, "fusion_lat": 0.0, "rental_uris": {"android": "https://dc.lft.to/lastmile_qr_scan", "ios": "https://dc.lft.to/lastmile_qr_scan"}, "type": "electric_scooter", "name": "dd97a839eee5122e7b1a3041164c7541"}, {"bike_id": "607a3f9fd993bc5893c7cca469b768d2", "lat": 38.929858833333334, "is_disabled": 0, "lon": -77.03257666666667, "fusion_lon": 0.0, "is_reserved": 0, "fusion_lat": 0.0, "rental_uris": {"android": "https://dc.lft.to/lastmile_qr_scan", "ios": "https://dc.lft.to/lastmile_qr_scan"}, "type": "electric_scooter", "name": "607a3f9fd993bc5893c7cca469b768d2"}, {"bike_id": "30cd806a515c51211ad0721f3b88f4d1", "lat": 38.885453, "is_disabled": 0, "lon": -76.98323866666667, "fusion_lon": 0.0, "is_reserved": 0, "fusion_lat": 0.0, "rental_uris": {"android": "https://dc.lft.to/lastmile_qr_scan", "ios": "https://dc.lft.to/lastmile_qr_scan"}, "type": "electric_scooter", "name": "30cd806a515c51211ad0721f3b88f4d1"}, {"bike_id": "c061c73d9bd93c9423e543e93159da07", "lat": 38.91559616666667, "is_disabled": 0, "lon": -77.0205665, "fusion_lon": 0.0, "is_reserved": 0, "fusion_lat": 0.0, "rental_uris": {"android": "https://dc.lft.to/lastmile_qr_scan", "ios": "https://dc.lft.to/lastmile_qr_scan"}, "type": "electric_scooter", "name": "c061c73d9bd93c9423e543e93159da07"}, {"bike_id": "6efd50fbbaa3bb54e9ec6be521b8ba9e", "lat": 38.9154775, "is_disabled": 0, "lon": -77.04614416666666, "fusion_lon": 0.0, "is_reserved": 0, "fusion_lat": 0.0, "rental_uris": {"android": "https://dc.lft.to/lastmile_qr_scan", "ios": "https://dc.lft.to/lastmile_qr_scan"}, "type": "electric_scooter", "name": "6efd50fbbaa3bb54e9ec6be521b8ba9e"}, {"bike_id": "a8fb3e7ba3a072c5337cc4a19361c20a", "lat": 38.922988833333335, "is_disabled": 0, "lon": -77.02324416666667, "fusion_lon": 0.0, "is_reserved": 0, "fusion_lat": 0.0, "rental_uris": {"android": "https://dc.lft.to/lastmile_qr_scan", "ios": "https://dc.lft.to/lastmile_qr_scan"}, "type": "electric_scooter", "name": "a8fb3e7ba3a072c5337cc4a19361c20a"}, {"bike_id": "8242fbdc5cb704c44c78bf50880f7232", "lat": 38.914266, "is_disabled": 0, "lon": -77.04588166666667, "fusion_lon": 0.0, "is_reserved": 0, "fusion_lat": 0.0, "rental_uris": {"android": "https://dc.lft.to/lastmile_qr_scan", "ios": "https://dc.lft.to/lastmile_qr_scan"}, "type": "electric_scooter", "name": "8242fbdc5cb704c44c78bf50880f7232"}, {"bike_id": "4589474baae9c4c5c877a51a050a179b", "lat": 38.93318516666667, "is_disabled": 0, "lon": -77.02927983333333, "fusion_lon": 0.0, "is_reserved": 0, "fusion_lat": 0.0, "rental_uris": {"android": "https://dc.lft.to/lastmile_qr_scan", "ios": "https://dc.lft.to/lastmile_qr_scan"}, "type": "electric_scooter", "name": "4589474baae9c4c5c877a51a050a179b"}, {"bike_id": "fcd6d61c2f69be9d54f3d77ebd8ae270", "lat": 38.913099833333334, "is_disabled": 0, "lon": -77.0471685, "fusion_lon": 0.0, "is_reserved": 0, "fusion_lat": 0.0, "rental_uris": {"android": "https://dc.lft.to/lastmile_qr_scan", "ios": "https://dc.lft.to/lastmile_qr_scan"}, "type": "electric_scooter", "name": "fcd6d61c2f69be9d54f3d77ebd8ae270"}, {"bike_id": "1083cff64e8f61557f11eb56aa6c39f6", "lat": 38.9187005, "is_disabled": 0, "lon": -77.04485733333334, "fusion_lon": 0.0, "is_reserved": 0, "fusion_lat": 0.0, "rental_uris": {"android": "https://dc.lft.to/lastmile_qr_scan", "ios": "https://dc.lft.to/lastmile_qr_scan"}, "type": "electric_scooter", "name": "1083cff64e8f61557f11eb56aa6c39f6"}, {"bike_id": "e132d522c66988210c48401ea9a421da", "lat": 38.857254166666664, "is_disabled": 0, "lon": -76.99098116666667, "fusion_lon": 0.0, "is_reserved": 0, "fusion_lat": 0.0, "rental_uris": {"android": "https://dc.lft.to/lastmile_qr_scan", "ios": "https://dc.lft.to/lastmile_qr_scan"}, "type": "electric_scooter", "name": "e132d522c66988210c48401ea9a421da"}, {"bike_id": "a1ffabb90b9389ad42dab8a5a3438f3f", "lat": 38.9069905, "is_disabled": 0, "lon": -77.0448515, "fusion_lon": 0.0, "is_reserved": 0, "fusion_lat": 0.0, "rental_uris": {"android": "https://dc.lft.to/lastmile_qr_scan", "ios": "https://dc.lft.to/lastmile_qr_scan"}, "type": "electric_scooter", "name": "a1ffabb90b9389ad42dab8a5a3438f3f"}, {"bike_id": "e37ae02c8a01b75f18886fbebaf55e26", "lat": 38.904651, "is_disabled": 0, "lon": -76.99504066666667, "fusion_lon": 0.0, "is_reserved": 0, "fusion_lat": 0.0, "rental_uris": {"android": "https://dc.lft.to/lastmile_qr_scan", "ios": "https://dc.lft.to/lastmile_qr_scan"}, "type": "electric_scooter", "name": "e37ae02c8a01b75f18886fbebaf55e26"}, {"bike_id": "2b60a9da45eb9f09050abd9a6380c55b", "lat": 38.9055335, "is_disabled": 0, "lon": -77.03250533333333, "fusion_lon": 0.0, "is_reserved": 0, "fusion_lat": 0.0, "rental_uris": {"android": "https://dc.lft.to/lastmile_qr_scan", "ios": "https://dc.lft.to/lastmile_qr_scan"}, "type": "electric_scooter", "name": "2b60a9da45eb9f09050abd9a6380c55b"}, {"bike_id": "001dd42f3afe6f2dd76275d7e070f768", "lat": 38.922328, "is_disabled": 0, "lon": -77.02000416666667, "fusion_lon": 0.0, "is_reserved": 0, "fusion_lat": 0.0, "rental_uris": {"android": "https://dc.lft.to/lastmile_qr_scan", "ios": "https://dc.lft.to/lastmile_qr_scan"}, "type": "electric_scooter", "name": "001dd42f3afe6f2dd76275d7e070f768"}, {"bike_id": "d6f5cb405724e634676639dab5ae5ed9", "lat": 38.923393833333336, "is_disabled": 0, "lon": -77.01902883333334, "fusion_lon": 0.0, "is_reserved": 0, "fusion_lat": 0.0, "rental_uris": {"android": "https://dc.lft.to/lastmile_qr_scan", "ios": "https://dc.lft.to/lastmile_qr_scan"}, "type": "electric_scooter", "name": "d6f5cb405724e634676639dab5ae5ed9"}, {"bike_id": "ef726a147f2743e20dc2c5144acecdf7", "lat": 38.9191595, "is_disabled": 0, "lon": -77.07937833333334, "fusion_lon": 0.0, "is_reserved": 0, "fusion_lat": 0.0, "rental_uris": {"android": "https://dc.lft.to/lastmile_qr_scan", "ios": "https://dc.lft.to/lastmile_qr_scan"}, "type": "electric_scooter", "name": "ef726a147f2743e20dc2c5144acecdf7"}, {"bike_id": "e9c6d946c39b418cb25ac20193ffe8ab", "lat": 38.87573533333333, "is_disabled": 0, "lon": -77.02046166666666, "fusion_lon": 0.0, "is_reserved": 0, "fusion_lat": 0.0, "rental_uris": {"android": "https://dc.lft.to/lastmile_qr_scan", "ios": "https://dc.lft.to/lastmile_qr_scan"}, "type": "electric_scooter", "name": "e9c6d946c39b418cb25ac20193ffe8ab"}, {"bike_id": "6abf30f7c39bf8457357ca1f84cf177c", "lat": 38.899106833333335, "is_disabled": 0, "lon": -77.02421483333333, "fusion_lon": 0.0, "is_reserved": 0, "fusion_lat": 0.0, "rental_uris": {"android": "https://dc.lft.to/lastmile_qr_scan", "ios": "https://dc.lft.to/lastmile_qr_scan"}, "type": "electric_scooter", "name": "6abf30f7c39bf8457357ca1f84cf177c"}, {"bike_id": "2cea99f2bd984cdfaa94fcce6307cdc7", "lat": 38.877089833333336, "is_disabled": 0, "lon": -77.0066155, "fusion_lon": 0.0, "is_reserved": 0, "fusion_lat": 0.0, "rental_uris": {"android": "https://dc.lft.to/lastmile_qr_scan", "ios": "https://dc.lft.to/lastmile_qr_scan"}, "type": "electric_scooter", "name": "2cea99f2bd984cdfaa94fcce6307cdc7"}, {"bike_id": "b4fdf569861cd80f39fbb026970d0b0e", "lat": 38.902118333333334, "is_disabled": 0, "lon": -77.03754733333334, "fusion_lon": 0.0, "is_reserved": 0, "fusion_lat": 0.0, "rental_uris": {"android": "https://dc.lft.to/lastmile_qr_scan", "ios": "https://dc.lft.to/lastmile_qr_scan"}, "type": "electric_scooter", "name": "b4fdf569861cd80f39fbb026970d0b0e"}, {"bike_id": "3db4fd98aa1fec97be024129f0173d74", "lat": 38.8922015, "is_disabled": 0, "lon": -77.02779533333333, "fusion_lon": 0.0, "is_reserved": 0, "fusion_lat": 0.0, "rental_uris": {"android": "https://dc.lft.to/lastmile_qr_scan", "ios": "https://dc.lft.to/lastmile_qr_scan"}, "type": "electric_scooter", "name": "3db4fd98aa1fec97be024129f0173d74"}, {"bike_id": "e9579b36de162b3d123bf7eaaad1dacd", "lat": 38.922338333333336, "is_disabled": 0, "lon": -77.03349416666667, "fusion_lon": 0.0, "is_reserved": 0, "fusion_lat": 0.0, "rental_uris": {"android": "https://dc.lft.to/lastmile_qr_scan", "ios": "https://dc.lft.to/lastmile_qr_scan"}, "type": "electric_scooter", "name": "e9579b36de162b3d123bf7eaaad1dacd"}, {"bike_id": "f6c882b35f51c683b8438fe6f1463ffd", "lat": 38.90271966666667, "is_disabled": 0, "lon": -77.02753566666667, "fusion_lon": 0.0, "is_reserved": 0, "fusion_lat": 0.0, "rental_uris": {"android": "https://dc.lft.to/lastmile_qr_scan", "ios": "https://dc.lft.to/lastmile_qr_scan"}, "type": "electric_scooter", "name": "f6c882b35f51c683b8438fe6f1463ffd"}, {"bike_id": "15f77d23067f79e41060d8dd8c1534d2", "lat": 38.89218, "is_disabled": 0, "lon": -77.04513016666667, "fusion_lon": 0.0, "is_reserved": 0, "fusion_lat": 0.0, "rental_uris": {"android": "https://dc.lft.to/lastmile_qr_scan", "ios": "https://dc.lft.to/lastmile_qr_scan"}, "type": "electric_scooter", "name": "15f77d23067f79e41060d8dd8c1534d2"}, {"bike_id": "838eb08f0687e3127cc3296a39fb7a8d", "lat": 38.85753316666667, "is_disabled": 0, "lon": -76.9874385, "fusion_lon": 0.0, "is_reserved": 0, "fusion_lat": 0.0, "rental_uris": {"android": "https://dc.lft.to/lastmile_qr_scan", "ios": "https://dc.lft.to/lastmile_qr_scan"}, "type": "electric_bike", "name": "838eb08f0687e3127cc3296a39fb7a8d"}, {"bike_id": "7ec2d9c2c0eae103a72a1014c4017c56", "lat": 38.8994715, "is_disabled": 0, "lon": -77.016339, "fusion_lon": 0.0, "is_reserved": 0, "fusion_lat": 0.0, "rental_uris": {"android": "https://dc.lft.to/lastmile_qr_scan", "ios": "https://dc.lft.to/lastmile_qr_scan"}, "type": "electric_scooter", "name": "7ec2d9c2c0eae103a72a1014c4017c56"}, {"bike_id": "f717367c607a5d0ae047dc34306792a2", "lat": 38.924712666666665, "is_disabled": 0, "lon": -77.05105983333333, "fusion_lon": 0.0, "is_reserved": 0, "fusion_lat": 0.0, "rental_uris": {"android": "https://dc.lft.to/lastmile_qr_scan", "ios": "https://dc.lft.to/lastmile_qr_scan"}, "type": "electric_scooter", "name": "f717367c607a5d0ae047dc34306792a2"}, {"bike_id": "1fd1028d1f5ca81dcd58c339674f644c", "lat": 38.906017166666665, "is_disabled": 0, "lon": -77.0332165, "fusion_lon": 0.0, "is_reserved": 0, "fusion_lat": 0.0, "rental_uris": {"android": "https://dc.lft.to/lastmile_qr_scan", "ios": "https://dc.lft.to/lastmile_qr_scan"}, "type": "electric_scooter", "name": "1fd1028d1f5ca81dcd58c339674f644c"}, {"bike_id": "c4a4c82db45c8c3ef9538bae3d917bd3", "lat": 38.935937833333334, "is_disabled": 0, "lon": -77.0570965, "fusion_lon": 0.0, "is_reserved": 0, "fusion_lat": 0.0, "rental_uris": {"android": "https://dc.lft.to/lastmile_qr_scan", "ios": "https://dc.lft.to/lastmile_qr_scan"}, "type": "electric_scooter", "name": "c4a4c82db45c8c3ef9538bae3d917bd3"}, {"bike_id": "9bad87d8f036154544d302cce336f82d", "lat": 38.9024245, "is_disabled": 0, "lon": -77.0444965, "fusion_lon": 0.0, "is_reserved": 0, "fusion_lat": 0.0, "rental_uris": {"android": "https://dc.lft.to/lastmile_qr_scan", "ios": "https://dc.lft.to/lastmile_qr_scan"}, "type": "electric_scooter", "name": "9bad87d8f036154544d302cce336f82d"}, {"bike_id": "26c31bc66b1c3fc3578dc2ebc6cfa273", "lat": 38.899396833333334, "is_disabled": 0, "lon": -77.01389366666666, "fusion_lon": 0.0, "is_reserved": 0, "fusion_lat": 0.0, "rental_uris": {"android": "https://dc.lft.to/lastmile_qr_scan", "ios": "https://dc.lft.to/lastmile_qr_scan"}, "type": "electric_scooter", "name": "26c31bc66b1c3fc3578dc2ebc6cfa273"}, {"bike_id": "f413befc728b306d77a2d51810661ad4", "lat": 38.900974166666664, "is_disabled": 0, "lon": -77.05791233333333, "fusion_lon": 0.0, "is_reserved": 0, "fusion_lat": 0.0, "rental_uris": {"android": "https://dc.lft.to/lastmile_qr_scan", "ios": "https://dc.lft.to/lastmile_qr_scan"}, "type": "electric_scooter", "name": "f413befc728b306d77a2d51810661ad4"}, {"bike_id": "59f7fc65df9d620b7e6c19d4ecea51cf", "lat": 38.919807166666665, "is_disabled": 0, "lon": -77.04162066666666, "fusion_lon": 0.0, "is_reserved": 0, "fusion_lat": 0.0, "rental_uris": {"android": "https://dc.lft.to/lastmile_qr_scan", "ios": "https://dc.lft.to/lastmile_qr_scan"}, "type": "electric_scooter", "name": "59f7fc65df9d620b7e6c19d4ecea51cf"}, {"bike_id": "ff8893d5be2071122de24a0ee7ffe3ce", "lat": 38.887156833333336, "is_disabled": 0, "lon": -77.01978183333334, "fusion_lon": 0.0, "is_reserved": 0, "fusion_lat": 0.0, "rental_uris": {"android": "https://dc.lft.to/lastmile_qr_scan", "ios": "https://dc.lft.to/lastmile_qr_scan"}, "type": "electric_scooter", "name": "ff8893d5be2071122de24a0ee7ffe3ce"}, {"bike_id": "7dd9aaf9dd3e83ba95b47b0e08761b7a", "lat": 38.90642316666667, "is_disabled": 0, "lon": -77.02469566666667, "fusion_lon": 0.0, "is_reserved": 0, "fusion_lat": 0.0, "rental_uris": {"android": "https://dc.lft.to/lastmile_qr_scan", "ios": "https://dc.lft.to/lastmile_qr_scan"}, "type": "electric_scooter", "name": "7dd9aaf9dd3e83ba95b47b0e08761b7a"}, {"bike_id": "001632f16cef1cead4bff33a3c88c284", "lat": 38.915919833333334, "is_disabled": 0, "lon": -77.01214566666667, "fusion_lon": 0.0, "is_reserved": 0, "fusion_lat": 0.0, "rental_uris": {"android": "https://dc.lft.to/lastmile_qr_scan", "ios": "https://dc.lft.to/lastmile_qr_scan"}, "type": "electric_scooter", "name": "001632f16cef1cead4bff33a3c88c284"}, {"bike_id": "b44e64b1c54b838a03f56e1586007ccc", "lat": 38.89624966666667, "is_disabled": 0, "lon": -77.03217383333333, "fusion_lon": 0.0, "is_reserved": 0, "fusion_lat": 0.0, "rental_uris": {"android": "https://dc.lft.to/lastmile_qr_scan", "ios": "https://dc.lft.to/lastmile_qr_scan"}, "type": "electric_scooter", "name": "b44e64b1c54b838a03f56e1586007ccc"}, {"bike_id": "087afe0cb1ed585aa2c14e80c8120e74", "lat": 38.9072275, "is_disabled": 0, "lon": -77.0476975, "fusion_lon": 0.0, "is_reserved": 0, "fusion_lat": 0.0, "rental_uris": {"android": "https://dc.lft.to/lastmile_qr_scan", "ios": "https://dc.lft.to/lastmile_qr_scan"}, "type": "electric_scooter", "name": "087afe0cb1ed585aa2c14e80c8120e74"}, {"bike_id": "9eca6fb9e4ac8554203632e0d68306ee", "lat": 38.92065216666667, "is_disabled": 0, "lon": -77.01697766666666, "fusion_lon": 0.0, "is_reserved": 0, "fusion_lat": 0.0, "rental_uris": {"android": "https://dc.lft.to/lastmile_qr_scan", "ios": "https://dc.lft.to/lastmile_qr_scan"}, "type": "electric_scooter", "name": "9eca6fb9e4ac8554203632e0d68306ee"}, {"bike_id": "84e7fd9b4145efbd3a9086cd4c09e1a4", "lat": 38.8628545, "is_disabled": 0, "lon": -76.992319, "fusion_lon": 0.0, "is_reserved": 0, "fusion_lat": 0.0, "rental_uris": {"android": "https://dc.lft.to/lastmile_qr_scan", "ios": "https://dc.lft.to/lastmile_qr_scan"}, "type": "electric_scooter", "name": "84e7fd9b4145efbd3a9086cd4c09e1a4"}, {"bike_id": "c5919e53f23b6cbf727ac167a76a04c9", "lat": 38.9000635, "is_disabled": 0, "lon": -77.043193, "fusion_lon": 0.0, "is_reserved": 0, "fusion_lat": 0.0, "rental_uris": {"android": "https://dc.lft.to/lastmile_qr_scan", "ios": "https://dc.lft.to/lastmile_qr_scan"}, "type": "electric_scooter", "name": "c5919e53f23b6cbf727ac167a76a04c9"}, {"bike_id": "d0f839e8e8742b5976a794423f816d9f", "lat": 38.927375166666664, "is_disabled": 0, "lon": -76.95563333333334, "fusion_lon": 0.0, "is_reserved": 0, "fusion_lat": 0.0, "rental_uris": {"android": "https://dc.lft.to/lastmile_qr_scan", "ios": "https://dc.lft.to/lastmile_qr_scan"}, "type": "electric_scooter", "name": "d0f839e8e8742b5976a794423f816d9f"}, {"bike_id": "25c415dad939532ee1b09952e7cd9ded", "lat": 38.9232605, "is_disabled": 0, "lon": -77.02299383333333, "fusion_lon": 0.0, "is_reserved": 0, "fusion_lat": 0.0, "rental_uris": {"android": "https://dc.lft.to/lastmile_qr_scan", "ios": "https://dc.lft.to/lastmile_qr_scan"}, "type": "electric_scooter", "name": "25c415dad939532ee1b09952e7cd9ded"}, {"bike_id": "3ef5eaf2b8fc9ac35999270730931e58", "lat": 38.948837833333336, "is_disabled": 0, "lon": -77.018538, "fusion_lon": 0.0, "is_reserved": 0, "fusion_lat": 0.0, "rental_uris": {"android": "https://dc.lft.to/lastmile_qr_scan", "ios": "https://dc.lft.to/lastmile_qr_scan"}, "type": "electric_scooter", "name": "3ef5eaf2b8fc9ac35999270730931e58"}, {"bike_id": "caadd7b594f79cef7819ad55a72613be", "lat": 38.87651233333333, "is_disabled": 0, "lon": -77.00343533333333, "fusion_lon": 0.0, "is_reserved": 0, "fusion_lat": 0.0, "rental_uris": {"android": "https://dc.lft.to/lastmile_qr_scan", "ios": "https://dc.lft.to/lastmile_qr_scan"}, "type": "electric_scooter", "name": "caadd7b594f79cef7819ad55a72613be"}, {"bike_id": "595a91f96a0f8d48411f6f15ba3ce4bb", "lat": 38.89853083333333, "is_disabled": 0, "lon": -77.02876733333333, "fusion_lon": 0.0, "is_reserved": 0, "fusion_lat": 0.0, "rental_uris": {"android": "https://dc.lft.to/lastmile_qr_scan", "ios": "https://dc.lft.to/lastmile_qr_scan"}, "type": "electric_scooter", "name": "595a91f96a0f8d48411f6f15ba3ce4bb"}, {"bike_id": "9ea4685ba824df580250dbcf484fc0ac", "lat": 38.91792683333333, "is_disabled": 0, "lon": -77.0234565, "fusion_lon": 0.0, "is_reserved": 0, "fusion_lat": 0.0, "rental_uris": {"android": "https://dc.lft.to/lastmile_qr_scan", "ios": "https://dc.lft.to/lastmile_qr_scan"}, "type": "electric_scooter", "name": "9ea4685ba824df580250dbcf484fc0ac"}, {"bike_id": "647ba7cd8f9271f3786578dcf3f7edaa", "lat": 38.92126416666667, "is_disabled": 0, "lon": -77.042194, "fusion_lon": 0.0, "is_reserved": 0, "fusion_lat": 0.0, "rental_uris": {"android": "https://dc.lft.to/lastmile_qr_scan", "ios": "https://dc.lft.to/lastmile_qr_scan"}, "type": "electric_scooter", "name": "647ba7cd8f9271f3786578dcf3f7edaa"}, {"bike_id": "beccf849954f8b0c6bddfce7d958c996", "lat": 38.902398833333336, "is_disabled": 0, "lon": -77.00201766666666, "fusion_lon": 0.0, "is_reserved": 0, "fusion_lat": 0.0, "rental_uris": {"android": "https://dc.lft.to/lastmile_qr_scan", "ios": "https://dc.lft.to/lastmile_qr_scan"}, "type": "electric_scooter", "name": "beccf849954f8b0c6bddfce7d958c996"}, {"bike_id": "dcba380919b7bfd158465a61d7bc0dd0", "lat": 38.884657, "is_disabled": 0, "lon": -76.95239883333333, "fusion_lon": 0.0, "is_reserved": 0, "fusion_lat": 0.0, "rental_uris": {"android": "https://dc.lft.to/lastmile_qr_scan", "ios": "https://dc.lft.to/lastmile_qr_scan"}, "type": "electric_bike", "name": "dcba380919b7bfd158465a61d7bc0dd0"}, {"bike_id": "ac90158243980960ae53dc148c2f57db", "lat": 38.907952, "is_disabled": 0, "lon": -77.08401316666667, "fusion_lon": 0.0, "is_reserved": 0, "fusion_lat": 0.0, "rental_uris": {"android": "https://dc.lft.to/lastmile_qr_scan", "ios": "https://dc.lft.to/lastmile_qr_scan"}, "type": "electric_scooter", "name": "ac90158243980960ae53dc148c2f57db"}, {"bike_id": "b3b588e038cf2b3b814a874328f3ab6f", "lat": 38.934931, "is_disabled": 0, "lon": -77.043787, "fusion_lon": 0.0, "is_reserved": 0, "fusion_lat": 0.0, "rental_uris": {"android": "https://dc.lft.to/lastmile_qr_scan", "ios": "https://dc.lft.to/lastmile_qr_scan"}, "type": "electric_scooter", "name": "b3b588e038cf2b3b814a874328f3ab6f"}, {"bike_id": "89d5572fc3e55f80e117bdaff4a66026", "lat": 38.898691, "is_disabled": 0, "lon": -76.9466405, "fusion_lon": 0.0, "is_reserved": 0, "fusion_lat": 0.0, "rental_uris": {"android": "https://dc.lft.to/lastmile_qr_scan", "ios": "https://dc.lft.to/lastmile_qr_scan"}, "type": "electric_scooter", "name": "89d5572fc3e55f80e117bdaff4a66026"}, {"bike_id": "93071e971d282e87904745f8094e7941", "lat": 38.941092833333336, "is_disabled": 0, "lon": -77.07621783333333, "fusion_lon": 0.0, "is_reserved": 0, "fusion_lat": 0.0, "rental_uris": {"android": "https://dc.lft.to/lastmile_qr_scan", "ios": "https://dc.lft.to/lastmile_qr_scan"}, "type": "electric_scooter", "name": "93071e971d282e87904745f8094e7941"}, {"bike_id": "430c6f68226b0b376b9d624812505516", "lat": 38.909168666666666, "is_disabled": 0, "lon": -76.99962966666666, "fusion_lon": 0.0, "is_reserved": 0, "fusion_lat": 0.0, "rental_uris": {"android": "https://dc.lft.to/lastmile_qr_scan", "ios": "https://dc.lft.to/lastmile_qr_scan"}, "type": "electric_scooter", "name": "430c6f68226b0b376b9d624812505516"}, {"bike_id": "7758e3b25a2e10cfa0fb7a115afe0d0e", "lat": 38.929757333333335, "is_disabled": 0, "lon": -77.05503433333334, "fusion_lon": 0.0, "is_reserved": 0, "fusion_lat": 0.0, "rental_uris": {"android": "https://dc.lft.to/lastmile_qr_scan", "ios": "https://dc.lft.to/lastmile_qr_scan"}, "type": "electric_scooter", "name": "7758e3b25a2e10cfa0fb7a115afe0d0e"}, {"bike_id": "f0e52a475fe4f8e49a0de5f0961224f5", "lat": 38.988079666666664, "is_disabled": 0, "lon": -76.93963666666667, "fusion_lon": 0.0, "is_reserved": 0, "fusion_lat": 0.0, "rental_uris": {"android": "https://dc.lft.to/lastmile_qr_scan", "ios": "https://dc.lft.to/lastmile_qr_scan"}, "type": "electric_bike", "name": "f0e52a475fe4f8e49a0de5f0961224f5"}, {"bike_id": "cfa32c759dd6b64a770351cad3a85637", "lat": 38.922374166666664, "is_disabled": 0, "lon": -77.02260733333334, "fusion_lon": 0.0, "is_reserved": 0, "fusion_lat": 0.0, "rental_uris": {"android": "https://dc.lft.to/lastmile_qr_scan", "ios": "https://dc.lft.to/lastmile_qr_scan"}, "type": "electric_scooter", "name": "cfa32c759dd6b64a770351cad3a85637"}, {"bike_id": "78a02f6b42642c53618d3d511ed99e64", "lat": 38.993797, "is_disabled": 0, "lon": -77.0406695, "fusion_lon": 0.0, "is_reserved": 0, "fusion_lat": 0.0, "rental_uris": {"android": "https://dc.lft.to/lastmile_qr_scan", "ios": "https://dc.lft.to/lastmile_qr_scan"}, "type": "electric_bike", "name": "78a02f6b42642c53618d3d511ed99e64"}, {"bike_id": "710d3f13d74d0073a8a85a01fb1a1145", "lat": 38.8591195, "is_disabled": 0, "lon": -77.05132116666667, "fusion_lon": 0.0, "is_reserved": 0, "fusion_lat": 0.0, "rental_uris": {"android": "https://dc.lft.to/lastmile_qr_scan", "ios": "https://dc.lft.to/lastmile_qr_scan"}, "type": "electric_bike", "name": "710d3f13d74d0073a8a85a01fb1a1145"}, {"bike_id": "467cbb2f538ab0c47d138d05e055f7ef", "lat": 38.93469833333333, "is_disabled": 0, "lon": -77.04136166666666, "fusion_lon": 0.0, "is_reserved": 0, "fusion_lat": 0.0, "rental_uris": {"android": "https://dc.lft.to/lastmile_qr_scan", "ios": "https://dc.lft.to/lastmile_qr_scan"}, "type": "electric_scooter", "name": "467cbb2f538ab0c47d138d05e055f7ef"}, {"bike_id": "0701d879ab7e84d00dd8016785ec266f", "lat": 38.911084833333334, "is_disabled": 0, "lon": -77.044557, "fusion_lon": 0.0, "is_reserved": 0, "fusion_lat": 0.0, "rental_uris": {"android": "https://dc.lft.to/lastmile_qr_scan", "ios": "https://dc.lft.to/lastmile_qr_scan"}, "type": "electric_scooter", "name": "0701d879ab7e84d00dd8016785ec266f"}, {"bike_id": "178471964937b066ab0bbe61b6ec91ac", "lat": 38.90714833333333, "is_disabled": 0, "lon": -77.04164316666666, "fusion_lon": 0.0, "is_reserved": 0, "fusion_lat": 0.0, "rental_uris": {"android": "https://dc.lft.to/lastmile_qr_scan", "ios": "https://dc.lft.to/lastmile_qr_scan"}, "type": "electric_scooter", "name": "178471964937b066ab0bbe61b6ec91ac"}, {"bike_id": "44e1387c51b3baac264163ad6e952620", "lat": 38.89213766666667, "is_disabled": 0, "lon": -77.045205, "fusion_lon": 0.0, "is_reserved": 0, "fusion_lat": 0.0, "rental_uris": {"android": "https://dc.lft.to/lastmile_qr_scan", "ios": "https://dc.lft.to/lastmile_qr_scan"}, "type": "electric_scooter", "name": "44e1387c51b3baac264163ad6e952620"}, {"bike_id": "28b59aae0e47fdca9f45d83a3f751104", "lat": 38.90815766666667, "is_disabled": 0, "lon": -76.9971345, "fusion_lon": 0.0, "is_reserved": 0, "fusion_lat": 0.0, "rental_uris": {"android": "https://dc.lft.to/lastmile_qr_scan", "ios": "https://dc.lft.to/lastmile_qr_scan"}, "type": "electric_scooter", "name": "28b59aae0e47fdca9f45d83a3f751104"}, {"bike_id": "57c6c4c4acccc6b29967ae4e2e7b9c81", "lat": 38.929748333333336, "is_disabled": 0, "lon": -77.03774566666667, "fusion_lon": 0.0, "is_reserved": 0, "fusion_lat": 0.0, "rental_uris": {"android": "https://dc.lft.to/lastmile_qr_scan", "ios": "https://dc.lft.to/lastmile_qr_scan"}, "type": "electric_scooter", "name": "57c6c4c4acccc6b29967ae4e2e7b9c81"}, {"bike_id": "1bee536e9b08d4a36701ed559a375896", "lat": 38.900573666666666, "is_disabled": 0, "lon": -77.02608933333333, "fusion_lon": 0.0, "is_reserved": 0, "fusion_lat": 0.0, "rental_uris": {"android": "https://dc.lft.to/lastmile_qr_scan", "ios": "https://dc.lft.to/lastmile_qr_scan"}, "type": "electric_scooter", "name": "1bee536e9b08d4a36701ed559a375896"}, {"bike_id": "0f54fc877358bf1219733e21010a4a38", "lat": 38.89221283333333, "is_disabled": 0, "lon": -77.04196933333333, "fusion_lon": 0.0, "is_reserved": 0, "fusion_lat": 0.0, "rental_uris": {"android": "https://dc.lft.to/lastmile_qr_scan", "ios": "https://dc.lft.to/lastmile_qr_scan"}, "type": "electric_scooter", "name": "0f54fc877358bf1219733e21010a4a38"}, {"bike_id": "d3729b89ffe89e13a0e68b2f40ac38e4", "lat": 38.938423, "is_disabled": 0, "lon": -77.02839066666667, "fusion_lon": 0.0, "is_reserved": 0, "fusion_lat": 0.0, "rental_uris": {"android": "https://dc.lft.to/lastmile_qr_scan", "ios": "https://dc.lft.to/lastmile_qr_scan"}, "type": "electric_scooter", "name": "d3729b89ffe89e13a0e68b2f40ac38e4"}, {"bike_id": "c196f102851446b838624324b50ea602", "lat": 38.892242, "is_disabled": 0, "lon": -77.02826916666666, "fusion_lon": 0.0, "is_reserved": 0, "fusion_lat": 0.0, "rental_uris": {"android": "https://dc.lft.to/lastmile_qr_scan", "ios": "https://dc.lft.to/lastmile_qr_scan"}, "type": "electric_scooter", "name": "c196f102851446b838624324b50ea602"}, {"bike_id": "4870d1923daee31e8b19894b5234bbdf", "lat": 38.93560183333334, "is_disabled": 0, "lon": -77.07463283333334, "fusion_lon": 0.0, "is_reserved": 0, "fusion_lat": 0.0, "rental_uris": {"android": "https://dc.lft.to/lastmile_qr_scan", "ios": "https://dc.lft.to/lastmile_qr_scan"}, "type": "electric_scooter", "name": "4870d1923daee31e8b19894b5234bbdf"}, {"bike_id": "b4f3a8047fdf14cc4cc1f49368e7946c", "lat": 38.95708366666667, "is_disabled": 0, "lon": -77.02404416666667, "fusion_lon": 0.0, "is_reserved": 0, "fusion_lat": 0.0, "rental_uris": {"android": "https://dc.lft.to/lastmile_qr_scan", "ios": "https://dc.lft.to/lastmile_qr_scan"}, "type": "electric_scooter", "name": "b4f3a8047fdf14cc4cc1f49368e7946c"}, {"bike_id": "83f1dd7dd257ca7d62924a1787f387c4", "lat": 38.95108666666667, "is_disabled": 0, "lon": -77.03354816666666, "fusion_lon": 0.0, "is_reserved": 0, "fusion_lat": 0.0, "rental_uris": {"android": "https://dc.lft.to/lastmile_qr_scan", "ios": "https://dc.lft.to/lastmile_qr_scan"}, "type": "electric_scooter", "name": "83f1dd7dd257ca7d62924a1787f387c4"}, {"bike_id": "75f33f4aa1f34c68ab379eda0b3346f4", "lat": 38.892201666666665, "is_disabled": 0, "lon": -77.03165033333333, "fusion_lon": 0.0, "is_reserved": 0, "fusion_lat": 0.0, "rental_uris": {"android": "https://dc.lft.to/lastmile_qr_scan", "ios": "https://dc.lft.to/lastmile_qr_scan"}, "type": "electric_scooter", "name": "75f33f4aa1f34c68ab379eda0b3346f4"}, {"bike_id": "16ca984bc0066c2714a8f1f970c5dbeb", "lat": 38.9358275, "is_disabled": 0, "lon": -77.03798783333333, "fusion_lon": 0.0, "is_reserved": 0, "fusion_lat": 0.0, "rental_uris": {"android": "https://dc.lft.to/lastmile_qr_scan", "ios": "https://dc.lft.to/lastmile_qr_scan"}, "type": "electric_scooter", "name": "16ca984bc0066c2714a8f1f970c5dbeb"}, {"bike_id": "5802abc5c0ce17f93d672decb9610331", "lat": 38.89840916666667, "is_disabled": 0, "lon": -77.02937316666667, "fusion_lon": 0.0, "is_reserved": 0, "fusion_lat": 0.0, "rental_uris": {"android": "https://dc.lft.to/lastmile_qr_scan", "ios": "https://dc.lft.to/lastmile_qr_scan"}, "type": "electric_scooter", "name": "5802abc5c0ce17f93d672decb9610331"}, {"bike_id": "8e2394f3d0e573b6895e7fb3d4714e75", "lat": 38.911003, "is_disabled": 0, "lon": -77.02096733333333, "fusion_lon": 0.0, "is_reserved": 0, "fusion_lat": 0.0, "rental_uris": {"android": "https://dc.lft.to/lastmile_qr_scan", "ios": "https://dc.lft.to/lastmile_qr_scan"}, "type": "electric_scooter", "name": "8e2394f3d0e573b6895e7fb3d4714e75"}, {"bike_id": "c5f783f14fdd7efd2145e9b637d659b5", "lat": 38.8075605, "is_disabled": 0, "lon": -77.09455033333333, "fusion_lon": 0.0, "is_reserved": 0, "fusion_lat": 0.0, "rental_uris": {"android": "https://dc.lft.to/lastmile_qr_scan", "ios": "https://dc.lft.to/lastmile_qr_scan"}, "type": "electric_bike", "name": "c5f783f14fdd7efd2145e9b637d659b5"}, {"bike_id": "a9e00c2a0002ba132c010e5ed7891a91", "lat": 38.946084166666665, "is_disabled": 0, "lon": -77.07874916666667, "fusion_lon": 0.0, "is_reserved": 0, "fusion_lat": 0.0, "rental_uris": {"android": "https://dc.lft.to/lastmile_qr_scan", "ios": "https://dc.lft.to/lastmile_qr_scan"}, "type": "electric_scooter", "name": "a9e00c2a0002ba132c010e5ed7891a91"}, {"bike_id": "7beab5e6aaa09c5e45687db4b269572b", "lat": 38.923186333333334, "is_disabled": 0, "lon": -77.01994833333333, "fusion_lon": 0.0, "is_reserved": 0, "fusion_lat": 0.0, "rental_uris": {"android": "https://dc.lft.to/lastmile_qr_scan", "ios": "https://dc.lft.to/lastmile_qr_scan"}, "type": "electric_scooter", "name": "7beab5e6aaa09c5e45687db4b269572b"}, {"bike_id": "b6d1cf331cb265544d5a8fa7e5e992a6", "lat": 38.874194833333334, "is_disabled": 0, "lon": -77.08570816666666, "fusion_lon": 0.0, "is_reserved": 0, "fusion_lat": 0.0, "rental_uris": {"android": "https://dc.lft.to/lastmile_qr_scan", "ios": "https://dc.lft.to/lastmile_qr_scan"}, "type": "electric_bike", "name": "b6d1cf331cb265544d5a8fa7e5e992a6"}, {"bike_id": "c02dd941576a387f27e45a9cc8bd7051", "lat": 38.876511, "is_disabled": 0, "lon": -77.00060666666667, "fusion_lon": 0.0, "is_reserved": 0, "fusion_lat": 0.0, "rental_uris": {"android": "https://dc.lft.to/lastmile_qr_scan", "ios": "https://dc.lft.to/lastmile_qr_scan"}, "type": "electric_scooter", "name": "c02dd941576a387f27e45a9cc8bd7051"}, {"bike_id": "57d5076f67ca2cd544c3ececb6c8ace3", "lat": 38.924964833333334, "is_disabled": 0, "lon": -77.03880633333333, "fusion_lon": 0.0, "is_reserved": 0, "fusion_lat": 0.0, "rental_uris": {"android": "https://dc.lft.to/lastmile_qr_scan", "ios": "https://dc.lft.to/lastmile_qr_scan"}, "type": "electric_scooter", "name": "57d5076f67ca2cd544c3ececb6c8ace3"}, {"bike_id": "dcb3c0c60eb12483790841fb66360c35", "lat": 38.89616816666667, "is_disabled": 0, "lon": -76.907405, "fusion_lon": 0.0, "is_reserved": 0, "fusion_lat": 0.0, "rental_uris": {"android": "https://dc.lft.to/lastmile_qr_scan", "ios": "https://dc.lft.to/lastmile_qr_scan"}, "type": "electric_bike", "name": "dcb3c0c60eb12483790841fb66360c35"}, {"bike_id": "116d4c6d54fddb366acc28ef8541a837", "lat": 38.919455666666664, "is_disabled": 0, "lon": -77.02494116666666, "fusion_lon": 0.0, "is_reserved": 0, "fusion_lat": 0.0, "rental_uris": {"android": "https://dc.lft.to/lastmile_qr_scan", "ios": "https://dc.lft.to/lastmile_qr_scan"}, "type": "electric_scooter", "name": "116d4c6d54fddb366acc28ef8541a837"}, {"bike_id": "fc4c343d5b4023026bdd75323704bf8d", "lat": 38.89177166666666, "is_disabled": 0, "lon": -77.01564333333333, "fusion_lon": 0.0, "is_reserved": 0, "fusion_lat": 0.0, "rental_uris": {"android": "https://dc.lft.to/lastmile_qr_scan", "ios": "https://dc.lft.to/lastmile_qr_scan"}, "type": "electric_scooter", "name": "fc4c343d5b4023026bdd75323704bf8d"}, {"bike_id": "9ac14456fd9acdf55d5a62ef0367c333", "lat": 38.92328583333333, "is_disabled": 0, "lon": -77.01904483333334, "fusion_lon": 0.0, "is_reserved": 0, "fusion_lat": 0.0, "rental_uris": {"android": "https://dc.lft.to/lastmile_qr_scan", "ios": "https://dc.lft.to/lastmile_qr_scan"}, "type": "electric_scooter", "name": "9ac14456fd9acdf55d5a62ef0367c333"}, {"bike_id": "0e066da22e831af65f987466464b1541", "lat": 38.9164655, "is_disabled": 0, "lon": -77.02270233333333, "fusion_lon": 0.0, "is_reserved": 0, "fusion_lat": 0.0, "rental_uris": {"android": "https://dc.lft.to/lastmile_qr_scan", "ios": "https://dc.lft.to/lastmile_qr_scan"}, "type": "electric_scooter", "name": "0e066da22e831af65f987466464b1541"}, {"bike_id": "eff160e8b61fd2cc5c9a7204406c11fe", "lat": 38.92081866666667, "is_disabled": 0, "lon": -77.02384816666667, "fusion_lon": 0.0, "is_reserved": 0, "fusion_lat": 0.0, "rental_uris": {"android": "https://dc.lft.to/lastmile_qr_scan", "ios": "https://dc.lft.to/lastmile_qr_scan"}, "type": "electric_scooter", "name": "eff160e8b61fd2cc5c9a7204406c11fe"}, {"bike_id": "80c8d3f3db3781e477b3218711b6d8b3", "lat": 38.92291433333333, "is_disabled": 0, "lon": -77.04146416666667, "fusion_lon": 0.0, "is_reserved": 0, "fusion_lat": 0.0, "rental_uris": {"android": "https://dc.lft.to/lastmile_qr_scan", "ios": "https://dc.lft.to/lastmile_qr_scan"}, "type": "electric_scooter", "name": "80c8d3f3db3781e477b3218711b6d8b3"}, {"bike_id": "f2da664208b3bb549f97b52888f2f74e", "lat": 38.91564533333333, "is_disabled": 0, "lon": -77.02006, "fusion_lon": 0.0, "is_reserved": 0, "fusion_lat": 0.0, "rental_uris": {"android": "https://dc.lft.to/lastmile_qr_scan", "ios": "https://dc.lft.to/lastmile_qr_scan"}, "type": "electric_scooter", "name": "f2da664208b3bb549f97b52888f2f74e"}, {"bike_id": "00a5dd6bd74edffd87f324f13b404678", "lat": 38.92153366666667, "is_disabled": 0, "lon": -77.03389333333334, "fusion_lon": 0.0, "is_reserved": 0, "fusion_lat": 0.0, "rental_uris": {"android": "https://dc.lft.to/lastmile_qr_scan", "ios": "https://dc.lft.to/lastmile_qr_scan"}, "type": "electric_scooter", "name": "00a5dd6bd74edffd87f324f13b404678"}, {"bike_id": "a7b43b99c5d312f6b8d772cde5c780ca", "lat": 38.89221116666667, "is_disabled": 0, "lon": -77.04337633333333, "fusion_lon": 0.0, "is_reserved": 0, "fusion_lat": 0.0, "rental_uris": {"android": "https://dc.lft.to/lastmile_qr_scan", "ios": "https://dc.lft.to/lastmile_qr_scan"}, "type": "electric_scooter", "name": "a7b43b99c5d312f6b8d772cde5c780ca"}, {"bike_id": "0e15c18e6316620a34be611c80f69c1a", "lat": 38.92048116666667, "is_disabled": 0, "lon": -77.03260816666666, "fusion_lon": 0.0, "is_reserved": 0, "fusion_lat": 0.0, "rental_uris": {"android": "https://dc.lft.to/lastmile_qr_scan", "ios": "https://dc.lft.to/lastmile_qr_scan"}, "type": "electric_scooter", "name": "0e15c18e6316620a34be611c80f69c1a"}, {"bike_id": "43b6a39b59dc0fed0a27b3d17743bca2", "lat": 38.924066333333336, "is_disabled": 0, "lon": -77.01946833333334, "fusion_lon": 0.0, "is_reserved": 0, "fusion_lat": 0.0, "rental_uris": {"android": "https://dc.lft.to/lastmile_qr_scan", "ios": "https://dc.lft.to/lastmile_qr_scan"}, "type": "electric_scooter", "name": "43b6a39b59dc0fed0a27b3d17743bca2"}, {"bike_id": "a4ce5edd7255a48dfabb64276ed8da4b", "lat": 38.909757, "is_disabled": 0, "lon": -76.99509366666666, "fusion_lon": 0.0, "is_reserved": 0, "fusion_lat": 0.0, "rental_uris": {"android": "https://dc.lft.to/lastmile_qr_scan", "ios": "https://dc.lft.to/lastmile_qr_scan"}, "type": "electric_scooter", "name": "a4ce5edd7255a48dfabb64276ed8da4b"}, {"bike_id": "0abd4ce6abdf4998b1fc374524ee16eb", "lat": 38.885067166666666, "is_disabled": 0, "lon": -76.95286566666667, "fusion_lon": 0.0, "is_reserved": 0, "fusion_lat": 0.0, "rental_uris": {"android": "https://dc.lft.to/lastmile_qr_scan", "ios": "https://dc.lft.to/lastmile_qr_scan"}, "type": "electric_scooter", "name": "0abd4ce6abdf4998b1fc374524ee16eb"}, {"bike_id": "996cae32810b74d4f41663c098afe10b", "lat": 38.91251233333333, "is_disabled": 0, "lon": -77.0420025, "fusion_lon": 0.0, "is_reserved": 0, "fusion_lat": 0.0, "rental_uris": {"android": "https://dc.lft.to/lastmile_qr_scan", "ios": "https://dc.lft.to/lastmile_qr_scan"}, "type": "electric_scooter", "name": "996cae32810b74d4f41663c098afe10b"}, {"bike_id": "2c8b0c17a5d1fa1486e91cdad3fa953c", "lat": 38.904946833333334, "is_disabled": 0, "lon": -77.043328, "fusion_lon": 0.0, "is_reserved": 0, "fusion_lat": 0.0, "rental_uris": {"android": "https://dc.lft.to/lastmile_qr_scan", "ios": "https://dc.lft.to/lastmile_qr_scan"}, "type": "electric_scooter", "name": "2c8b0c17a5d1fa1486e91cdad3fa953c"}, {"bike_id": "0512b1109124ab4d6b25a0b58cd084aa", "lat": 38.9506285, "is_disabled": 0, "lon": -77.0665725, "fusion_lon": 0.0, "is_reserved": 0, "fusion_lat": 0.0, "rental_uris": {"android": "https://dc.lft.to/lastmile_qr_scan", "ios": "https://dc.lft.to/lastmile_qr_scan"}, "type": "electric_bike", "name": "0512b1109124ab4d6b25a0b58cd084aa"}, {"bike_id": "4b3614379d615fd928a824100cdfb9c3", "lat": 38.9117255, "is_disabled": 0, "lon": -77.04159766666666, "fusion_lon": 0.0, "is_reserved": 0, "fusion_lat": 0.0, "rental_uris": {"android": "https://dc.lft.to/lastmile_qr_scan", "ios": "https://dc.lft.to/lastmile_qr_scan"}, "type": "electric_scooter", "name": "4b3614379d615fd928a824100cdfb9c3"}, {"bike_id": "8fca3f26bb5e6950672762210ecfc8e9", "lat": 38.91923666666667, "is_disabled": 0, "lon": -77.02501916666667, "fusion_lon": 0.0, "is_reserved": 0, "fusion_lat": 0.0, "rental_uris": {"android": "https://dc.lft.to/lastmile_qr_scan", "ios": "https://dc.lft.to/lastmile_qr_scan"}, "type": "electric_scooter", "name": "8fca3f26bb5e6950672762210ecfc8e9"}, {"bike_id": "b5ad2fddf92a2c36c92aaa05eb7ff0ed", "lat": 38.92132133333333, "is_disabled": 0, "lon": -77.0179775, "fusion_lon": 0.0, "is_reserved": 0, "fusion_lat": 0.0, "rental_uris": {"android": "https://dc.lft.to/lastmile_qr_scan", "ios": "https://dc.lft.to/lastmile_qr_scan"}, "type": "electric_scooter", "name": "b5ad2fddf92a2c36c92aaa05eb7ff0ed"}, {"bike_id": "f329b475c62e7f3c761686d5121c945c", "lat": 38.8793295, "is_disabled": 0, "lon": -77.00589633333334, "fusion_lon": 0.0, "is_reserved": 0, "fusion_lat": 0.0, "rental_uris": {"android": "https://dc.lft.to/lastmile_qr_scan", "ios": "https://dc.lft.to/lastmile_qr_scan"}, "type": "electric_scooter", "name": "f329b475c62e7f3c761686d5121c945c"}, {"bike_id": "a94c0f3feaefc3f470d844587b4df741", "lat": 38.86401683333333, "is_disabled": 0, "lon": -77.0137455, "fusion_lon": 0.0, "is_reserved": 0, "fusion_lat": 0.0, "rental_uris": {"android": "https://dc.lft.to/lastmile_qr_scan", "ios": "https://dc.lft.to/lastmile_qr_scan"}, "type": "electric_scooter", "name": "a94c0f3feaefc3f470d844587b4df741"}, {"bike_id": "b5bfca2238a6158a0c54ae0fdd94acbb", "lat": 38.9018975, "is_disabled": 0, "lon": -76.9263525, "fusion_lon": 0.0, "is_reserved": 0, "fusion_lat": 0.0, "rental_uris": {"android": "https://dc.lft.to/lastmile_qr_scan", "ios": "https://dc.lft.to/lastmile_qr_scan"}, "type": "electric_scooter", "name": "b5bfca2238a6158a0c54ae0fdd94acbb"}, {"bike_id": "f00e569dbfb6efec13ebe59e81c490e1", "lat": 38.89284683333333, "is_disabled": 0, "lon": -77.02045283333334, "fusion_lon": 0.0, "is_reserved": 0, "fusion_lat": 0.0, "rental_uris": {"android": "https://dc.lft.to/lastmile_qr_scan", "ios": "https://dc.lft.to/lastmile_qr_scan"}, "type": "electric_scooter", "name": "f00e569dbfb6efec13ebe59e81c490e1"}, {"bike_id": "ae6ad1f9885887e140b9367f506b9f38", "lat": 38.90506833333333, "is_disabled": 0, "lon": -76.9520325, "fusion_lon": 0.0, "is_reserved": 0, "fusion_lat": 0.0, "rental_uris": {"android": "https://dc.lft.to/lastmile_qr_scan", "ios": "https://dc.lft.to/lastmile_qr_scan"}, "type": "electric_scooter", "name": "ae6ad1f9885887e140b9367f506b9f38"}, {"bike_id": "ae24fa3c950e7a14b8ac4ceff6225c4e", "lat": 38.90388433333333, "is_disabled": 0, "lon": -76.98492616666667, "fusion_lon": 0.0, "is_reserved": 0, "fusion_lat": 0.0, "rental_uris": {"android": "https://dc.lft.to/lastmile_qr_scan", "ios": "https://dc.lft.to/lastmile_qr_scan"}, "type": "electric_scooter", "name": "ae24fa3c950e7a14b8ac4ceff6225c4e"}, {"bike_id": "ff4b13178ff5166fcda4bd6f636d8832", "lat": 38.896058, "is_disabled": 0, "lon": -76.980959, "fusion_lon": 0.0, "is_reserved": 0, "fusion_lat": 0.0, "rental_uris": {"android": "https://dc.lft.to/lastmile_qr_scan", "ios": "https://dc.lft.to/lastmile_qr_scan"}, "type": "electric_scooter", "name": "ff4b13178ff5166fcda4bd6f636d8832"}, {"bike_id": "cb695a59ec8daf17ece68dc485cfc312", "lat": 38.86474316666666, "is_disabled": 0, "lon": -76.982296, "fusion_lon": 0.0, "is_reserved": 0, "fusion_lat": 0.0, "rental_uris": {"android": "https://dc.lft.to/lastmile_qr_scan", "ios": "https://dc.lft.to/lastmile_qr_scan"}, "type": "electric_scooter", "name": "cb695a59ec8daf17ece68dc485cfc312"}, {"bike_id": "eac06bd899d08aca6d952f18ddcf784d", "lat": 38.899889, "is_disabled": 0, "lon": -77.0292635, "fusion_lon": 0.0, "is_reserved": 0, "fusion_lat": 0.0, "rental_uris": {"android": "https://dc.lft.to/lastmile_qr_scan", "ios": "https://dc.lft.to/lastmile_qr_scan"}, "type": "electric_scooter", "name": "eac06bd899d08aca6d952f18ddcf784d"}, {"bike_id": "6d6b617cd87b602d319f0d4b17aaa9bb", "lat": 38.924677333333335, "is_disabled": 0, "lon": -77.0221815, "fusion_lon": 0.0, "is_reserved": 0, "fusion_lat": 0.0, "rental_uris": {"android": "https://dc.lft.to/lastmile_qr_scan", "ios": "https://dc.lft.to/lastmile_qr_scan"}, "type": "electric_scooter", "name": "6d6b617cd87b602d319f0d4b17aaa9bb"}, {"bike_id": "dee3df57a35b05efc6da70e9fac3f420", "lat": 38.90551116666666, "is_disabled": 0, "lon": -77.04602733333333, "fusion_lon": 0.0, "is_reserved": 0, "fusion_lat": 0.0, "rental_uris": {"android": "https://dc.lft.to/lastmile_qr_scan", "ios": "https://dc.lft.to/lastmile_qr_scan"}, "type": "electric_scooter", "name": "dee3df57a35b05efc6da70e9fac3f420"}, {"bike_id": "4dfee9ad693435538b2ede7df03814d3", "lat": 38.94152166666667, "is_disabled": 0, "lon": -77.0019385, "fusion_lon": 0.0, "is_reserved": 0, "fusion_lat": 0.0, "rental_uris": {"android": "https://dc.lft.to/lastmile_qr_scan", "ios": "https://dc.lft.to/lastmile_qr_scan"}, "type": "electric_bike", "name": "4dfee9ad693435538b2ede7df03814d3"}, {"bike_id": "a255e566851322a6ad92572031b4532c", "lat": 38.9156135, "is_disabled": 0, "lon": -77.03254766666667, "fusion_lon": 0.0, "is_reserved": 0, "fusion_lat": 0.0, "rental_uris": {"android": "https://dc.lft.to/lastmile_qr_scan", "ios": "https://dc.lft.to/lastmile_qr_scan"}, "type": "electric_scooter", "name": "a255e566851322a6ad92572031b4532c"}, {"bike_id": "778fa83d0eea32a6fefbad13d9503164", "lat": 38.90947, "is_disabled": 0, "lon": -77.04885116666667, "fusion_lon": 0.0, "is_reserved": 0, "fusion_lat": 0.0, "rental_uris": {"android": "https://dc.lft.to/lastmile_qr_scan", "ios": "https://dc.lft.to/lastmile_qr_scan"}, "type": "electric_scooter", "name": "778fa83d0eea32a6fefbad13d9503164"}, {"bike_id": "8697e4fd5b88ee8a84c41e4df4f3890b", "lat": 38.92091516666667, "is_disabled": 0, "lon": -77.02505666666667, "fusion_lon": 0.0, "is_reserved": 0, "fusion_lat": 0.0, "rental_uris": {"android": "https://dc.lft.to/lastmile_qr_scan", "ios": "https://dc.lft.to/lastmile_qr_scan"}, "type": "electric_scooter", "name": "8697e4fd5b88ee8a84c41e4df4f3890b"}, {"bike_id": "ec5f84908305024cf752673aeeb2e6cd", "lat": 38.89876, "is_disabled": 0, "lon": -77.02178083333334, "fusion_lon": 0.0, "is_reserved": 0, "fusion_lat": 0.0, "rental_uris": {"android": "https://dc.lft.to/lastmile_qr_scan", "ios": "https://dc.lft.to/lastmile_qr_scan"}, "type": "electric_scooter", "name": "ec5f84908305024cf752673aeeb2e6cd"}, {"bike_id": "fea23d1caeadc3628dc49275cbf81a27", "lat": 38.93467483333333, "is_disabled": 0, "lon": -77.041383, "fusion_lon": 0.0, "is_reserved": 0, "fusion_lat": 0.0, "rental_uris": {"android": "https://dc.lft.to/lastmile_qr_scan", "ios": "https://dc.lft.to/lastmile_qr_scan"}, "type": "electric_scooter", "name": "fea23d1caeadc3628dc49275cbf81a27"}, {"bike_id": "d0325bc867d6bc7adc9f797798c8b596", "lat": 38.905659666666665, "is_disabled": 0, "lon": -77.039828, "fusion_lon": 0.0, "is_reserved": 0, "fusion_lat": 0.0, "rental_uris": {"android": "https://dc.lft.to/lastmile_qr_scan", "ios": "https://dc.lft.to/lastmile_qr_scan"}, "type": "electric_scooter", "name": "d0325bc867d6bc7adc9f797798c8b596"}, {"bike_id": "3f1ec28e1d882b1ce9415e955f366e55", "lat": 38.90968683333333, "is_disabled": 0, "lon": -77.0446885, "fusion_lon": 0.0, "is_reserved": 0, "fusion_lat": 0.0, "rental_uris": {"android": "https://dc.lft.to/lastmile_qr_scan", "ios": "https://dc.lft.to/lastmile_qr_scan"}, "type": "electric_scooter", "name": "3f1ec28e1d882b1ce9415e955f366e55"}, {"bike_id": "b371810dd4719139fd46dae46e116eff", "lat": 38.900918, "is_disabled": 0, "lon": -77.0499115, "fusion_lon": 0.0, "is_reserved": 0, "fusion_lat": 0.0, "rental_uris": {"android": "https://dc.lft.to/lastmile_qr_scan", "ios": "https://dc.lft.to/lastmile_qr_scan"}, "type": "electric_scooter", "name": "b371810dd4719139fd46dae46e116eff"}, {"bike_id": "47a9f20d37dedcec094592a096d84c3d", "lat": 38.971910666666666, "is_disabled": 0, "lon": -77.02719033333334, "fusion_lon": 0.0, "is_reserved": 0, "fusion_lat": 0.0, "rental_uris": {"android": "https://dc.lft.to/lastmile_qr_scan", "ios": "https://dc.lft.to/lastmile_qr_scan"}, "type": "electric_bike", "name": "47a9f20d37dedcec094592a096d84c3d"}, {"bike_id": "ebbc868fb78275969ff2eb07ebdfeed5", "lat": 38.87923833333333, "is_disabled": 0, "lon": -76.99542666666666, "fusion_lon": 0.0, "is_reserved": 0, "fusion_lat": 0.0, "rental_uris": {"android": "https://dc.lft.to/lastmile_qr_scan", "ios": "https://dc.lft.to/lastmile_qr_scan"}, "type": "electric_scooter", "name": "ebbc868fb78275969ff2eb07ebdfeed5"}, {"bike_id": "dee81893fd487e1fbd69d74f3869c5c5", "lat": 38.901254, "is_disabled": 0, "lon": -77.03194866666666, "fusion_lon": 0.0, "is_reserved": 0, "fusion_lat": 0.0, "rental_uris": {"android": "https://dc.lft.to/lastmile_qr_scan", "ios": "https://dc.lft.to/lastmile_qr_scan"}, "type": "electric_scooter", "name": "dee81893fd487e1fbd69d74f3869c5c5"}, {"bike_id": "a27334769adac29bd4956d6c0ce7b6b4", "lat": 38.910832666666664, "is_disabled": 0, "lon": -76.99939166666667, "fusion_lon": 0.0, "is_reserved": 0, "fusion_lat": 0.0, "rental_uris": {"android": "https://dc.lft.to/lastmile_qr_scan", "ios": "https://dc.lft.to/lastmile_qr_scan"}, "type": "electric_scooter", "name": "a27334769adac29bd4956d6c0ce7b6b4"}, {"bike_id": "3e082fa82b727ac62a7d46f38e1467ef", "lat": 38.891952, "is_disabled": 0, "lon": -77.02375966666666, "fusion_lon": 0.0, "is_reserved": 0, "fusion_lat": 0.0, "rental_uris": {"android": "https://dc.lft.to/lastmile_qr_scan", "ios": "https://dc.lft.to/lastmile_qr_scan"}, "type": "electric_scooter", "name": "3e082fa82b727ac62a7d46f38e1467ef"}, {"bike_id": "5ae0310d5193657007951f16d03049ec", "lat": 38.9170275, "is_disabled": 0, "lon": -77.03165633333333, "fusion_lon": 0.0, "is_reserved": 0, "fusion_lat": 0.0, "rental_uris": {"android": "https://dc.lft.to/lastmile_qr_scan", "ios": "https://dc.lft.to/lastmile_qr_scan"}, "type": "electric_scooter", "name": "5ae0310d5193657007951f16d03049ec"}, {"bike_id": "a92245d964f203f65156f60521fa712f", "lat": 38.90250416666667, "is_disabled": 0, "lon": -77.00204033333333, "fusion_lon": 0.0, "is_reserved": 0, "fusion_lat": 0.0, "rental_uris": {"android": "https://dc.lft.to/lastmile_qr_scan", "ios": "https://dc.lft.to/lastmile_qr_scan"}, "type": "electric_scooter", "name": "a92245d964f203f65156f60521fa712f"}, {"bike_id": "3e517197ec50fafcd32668c3ea940884", "lat": 38.9206495, "is_disabled": 0, "lon": -77.032096, "fusion_lon": 0.0, "is_reserved": 0, "fusion_lat": 0.0, "rental_uris": {"android": "https://dc.lft.to/lastmile_qr_scan", "ios": "https://dc.lft.to/lastmile_qr_scan"}, "type": "electric_scooter", "name": "3e517197ec50fafcd32668c3ea940884"}, {"bike_id": "57a7f1e27ac432735f52b22f79112e27", "lat": 38.871720333333336, "is_disabled": 0, "lon": -77.006925, "fusion_lon": 0.0, "is_reserved": 0, "fusion_lat": 0.0, "rental_uris": {"android": "https://dc.lft.to/lastmile_qr_scan", "ios": "https://dc.lft.to/lastmile_qr_scan"}, "type": "electric_scooter", "name": "57a7f1e27ac432735f52b22f79112e27"}, {"bike_id": "87feb936401d30d2f80bf6a93bcffd3a", "lat": 38.87174733333333, "is_disabled": 0, "lon": -77.0062625, "fusion_lon": 0.0, "is_reserved": 0, "fusion_lat": 0.0, "rental_uris": {"android": "https://dc.lft.to/lastmile_qr_scan", "ios": "https://dc.lft.to/lastmile_qr_scan"}, "type": "electric_scooter", "name": "87feb936401d30d2f80bf6a93bcffd3a"}, {"bike_id": "0e9b1843e7af9f992bd22ff200028672", "lat": 38.8807545, "is_disabled": 0, "lon": -76.98531783333334, "fusion_lon": 0.0, "is_reserved": 0, "fusion_lat": 0.0, "rental_uris": {"android": "https://dc.lft.to/lastmile_qr_scan", "ios": "https://dc.lft.to/lastmile_qr_scan"}, "type": "electric_scooter", "name": "0e9b1843e7af9f992bd22ff200028672"}, {"bike_id": "c9727dd4b3c67e3af78ff3bb663b9738", "lat": 38.89216483333333, "is_disabled": 0, "lon": -77.02627416666667, "fusion_lon": 0.0, "is_reserved": 0, "fusion_lat": 0.0, "rental_uris": {"android": "https://dc.lft.to/lastmile_qr_scan", "ios": "https://dc.lft.to/lastmile_qr_scan"}, "type": "electric_scooter", "name": "c9727dd4b3c67e3af78ff3bb663b9738"}, {"bike_id": "8ad76f78ee1e4b2c2bdd63013bc7e355", "lat": 38.95656966666667, "is_disabled": 0, "lon": -77.01970666666666, "fusion_lon": 0.0, "is_reserved": 0, "fusion_lat": 0.0, "rental_uris": {"android": "https://dc.lft.to/lastmile_qr_scan", "ios": "https://dc.lft.to/lastmile_qr_scan"}, "type": "electric_scooter", "name": "8ad76f78ee1e4b2c2bdd63013bc7e355"}, {"bike_id": "cf827567a6f07a6362d6636152209047", "lat": 38.92326633333333, "is_disabled": 0, "lon": -77.03514983333334, "fusion_lon": 0.0, "is_reserved": 0, "fusion_lat": 0.0, "rental_uris": {"android": "https://dc.lft.to/lastmile_qr_scan", "ios": "https://dc.lft.to/lastmile_qr_scan"}, "type": "electric_scooter", "name": "cf827567a6f07a6362d6636152209047"}, {"bike_id": "4746d7ffb60858cbd8b0c3adfa4072fe", "lat": 38.91707516666666, "is_disabled": 0, "lon": -77.033387, "fusion_lon": 0.0, "is_reserved": 0, "fusion_lat": 0.0, "rental_uris": {"android": "https://dc.lft.to/lastmile_qr_scan", "ios": "https://dc.lft.to/lastmile_qr_scan"}, "type": "electric_scooter", "name": "4746d7ffb60858cbd8b0c3adfa4072fe"}, {"bike_id": "c2907ff2393b22d694e02b598a8fc870", "lat": 38.92044166666667, "is_disabled": 0, "lon": -77.07141183333333, "fusion_lon": 0.0, "is_reserved": 0, "fusion_lat": 0.0, "rental_uris": {"android": "https://dc.lft.to/lastmile_qr_scan", "ios": "https://dc.lft.to/lastmile_qr_scan"}, "type": "electric_bike", "name": "c2907ff2393b22d694e02b598a8fc870"}, {"bike_id": "3d6661148c0f19fc474df9f1763faba9", "lat": 38.900378833333335, "is_disabled": 0, "lon": -76.99826666666667, "fusion_lon": 0.0, "is_reserved": 0, "fusion_lat": 0.0, "rental_uris": {"android": "https://dc.lft.to/lastmile_qr_scan", "ios": "https://dc.lft.to/lastmile_qr_scan"}, "type": "electric_scooter", "name": "3d6661148c0f19fc474df9f1763faba9"}, {"bike_id": "a4e62d6f3a19815bd113b7a6dc290fcb", "lat": 38.8975435, "is_disabled": 0, "lon": -77.055454, "fusion_lon": 0.0, "is_reserved": 0, "fusion_lat": 0.0, "rental_uris": {"android": "https://dc.lft.to/lastmile_qr_scan", "ios": "https://dc.lft.to/lastmile_qr_scan"}, "type": "electric_scooter", "name": "a4e62d6f3a19815bd113b7a6dc290fcb"}, {"bike_id": "558cdb255907eb042f68efc7383584e2", "lat": 38.907144333333335, "is_disabled": 0, "lon": -77.04009316666667, "fusion_lon": 0.0, "is_reserved": 0, "fusion_lat": 0.0, "rental_uris": {"android": "https://dc.lft.to/lastmile_qr_scan", "ios": "https://dc.lft.to/lastmile_qr_scan"}, "type": "electric_scooter", "name": "558cdb255907eb042f68efc7383584e2"}, {"bike_id": "6b44dcf43e845fa219a814cfe40e4f3f", "lat": 38.878352, "is_disabled": 0, "lon": -77.0003355, "fusion_lon": 0.0, "is_reserved": 0, "fusion_lat": 0.0, "rental_uris": {"android": "https://dc.lft.to/lastmile_qr_scan", "ios": "https://dc.lft.to/lastmile_qr_scan"}, "type": "electric_scooter", "name": "6b44dcf43e845fa219a814cfe40e4f3f"}, {"bike_id": "f97b569d8c0e2d47fe83f1c0bd40ee06", "lat": 38.93238616666667, "is_disabled": 0, "lon": -77.038717, "fusion_lon": 0.0, "is_reserved": 0, "fusion_lat": 0.0, "rental_uris": {"android": "https://dc.lft.to/lastmile_qr_scan", "ios": "https://dc.lft.to/lastmile_qr_scan"}, "type": "electric_scooter", "name": "f97b569d8c0e2d47fe83f1c0bd40ee06"}, {"bike_id": "59e60befe990931f9ab970bcb2f094b8", "lat": 38.87579783333334, "is_disabled": 0, "lon": -77.23411433333334, "fusion_lon": 0.0, "is_reserved": 0, "fusion_lat": 0.0, "rental_uris": {"android": "https://dc.lft.to/lastmile_qr_scan", "ios": "https://dc.lft.to/lastmile_qr_scan"}, "type": "electric_bike", "name": "59e60befe990931f9ab970bcb2f094b8"}, {"bike_id": "3af079f5ccabb310a817a955c503be76", "lat": 38.918133, "is_disabled": 0, "lon": -77.02894283333333, "fusion_lon": 0.0, "is_reserved": 0, "fusion_lat": 0.0, "rental_uris": {"android": "https://dc.lft.to/lastmile_qr_scan", "ios": "https://dc.lft.to/lastmile_qr_scan"}, "type": "electric_scooter", "name": "3af079f5ccabb310a817a955c503be76"}, {"bike_id": "a8172402798ebe383a84b01923ab1b2e", "lat": 38.9613515, "is_disabled": 0, "lon": -77.000553, "fusion_lon": 0.0, "is_reserved": 0, "fusion_lat": 0.0, "rental_uris": {"android": "https://dc.lft.to/lastmile_qr_scan", "ios": "https://dc.lft.to/lastmile_qr_scan"}, "type": "electric_scooter", "name": "a8172402798ebe383a84b01923ab1b2e"}, {"bike_id": "baa56f7d57ca22cc0e186fa150ab44b7", "lat": 38.909185666666666, "is_disabled": 0, "lon": -77.044005, "fusion_lon": 0.0, "is_reserved": 0, "fusion_lat": 0.0, "rental_uris": {"android": "https://dc.lft.to/lastmile_qr_scan", "ios": "https://dc.lft.to/lastmile_qr_scan"}, "type": "electric_scooter", "name": "baa56f7d57ca22cc0e186fa150ab44b7"}, {"bike_id": "30b519548bc4dd471c86e6b88bdf631d", "lat": 38.921069, "is_disabled": 0, "lon": -77.0470555, "fusion_lon": 0.0, "is_reserved": 0, "fusion_lat": 0.0, "rental_uris": {"android": "https://dc.lft.to/lastmile_qr_scan", "ios": "https://dc.lft.to/lastmile_qr_scan"}, "type": "electric_scooter", "name": "30b519548bc4dd471c86e6b88bdf631d"}, {"bike_id": "8ce25383962b0c5d71bd016cd8b51746", "lat": 38.92379233333333, "is_disabled": 0, "lon": -77.03777583333333, "fusion_lon": 0.0, "is_reserved": 0, "fusion_lat": 0.0, "rental_uris": {"android": "https://dc.lft.to/lastmile_qr_scan", "ios": "https://dc.lft.to/lastmile_qr_scan"}, "type": "electric_scooter", "name": "8ce25383962b0c5d71bd016cd8b51746"}, {"bike_id": "bf70bb87dca1808a98b1c7d79256fa46", "lat": 38.91685666666667, "is_disabled": 0, "lon": -77.03479116666666, "fusion_lon": 0.0, "is_reserved": 0, "fusion_lat": 0.0, "rental_uris": {"android": "https://dc.lft.to/lastmile_qr_scan", "ios": "https://dc.lft.to/lastmile_qr_scan"}, "type": "electric_scooter", "name": "bf70bb87dca1808a98b1c7d79256fa46"}, {"bike_id": "16ff704cafc63ffb1c12b6c897dba157", "lat": 38.922359, "is_disabled": 0, "lon": -77.044528, "fusion_lon": 0.0, "is_reserved": 0, "fusion_lat": 0.0, "rental_uris": {"android": "https://dc.lft.to/lastmile_qr_scan", "ios": "https://dc.lft.to/lastmile_qr_scan"}, "type": "electric_scooter", "name": "16ff704cafc63ffb1c12b6c897dba157"}, {"bike_id": "a6e979f577be13f32833ceee44ad04c6", "lat": 38.9116545, "is_disabled": 0, "lon": -77.01616916666667, "fusion_lon": 0.0, "is_reserved": 0, "fusion_lat": 0.0, "rental_uris": {"android": "https://dc.lft.to/lastmile_qr_scan", "ios": "https://dc.lft.to/lastmile_qr_scan"}, "type": "electric_scooter", "name": "a6e979f577be13f32833ceee44ad04c6"}, {"bike_id": "728a0010bed39b8ee3685c354f5fac7b", "lat": 38.89274733333333, "is_disabled": 0, "lon": -77.0467165, "fusion_lon": 0.0, "is_reserved": 0, "fusion_lat": 0.0, "rental_uris": {"android": "https://dc.lft.to/lastmile_qr_scan", "ios": "https://dc.lft.to/lastmile_qr_scan"}, "type": "electric_scooter", "name": "728a0010bed39b8ee3685c354f5fac7b"}, {"bike_id": "829aad1b6d7ee4e64b9fecffe2fc8503", "lat": 38.9175365, "is_disabled": 0, "lon": -77.04157033333334, "fusion_lon": 0.0, "is_reserved": 0, "fusion_lat": 0.0, "rental_uris": {"android": "https://dc.lft.to/lastmile_qr_scan", "ios": "https://dc.lft.to/lastmile_qr_scan"}, "type": "electric_scooter", "name": "829aad1b6d7ee4e64b9fecffe2fc8503"}, {"bike_id": "1a516a9cbbbb42d2665cee3837b03672", "lat": 38.89219583333333, "is_disabled": 0, "lon": -77.03992483333333, "fusion_lon": 0.0, "is_reserved": 0, "fusion_lat": 0.0, "rental_uris": {"android": "https://dc.lft.to/lastmile_qr_scan", "ios": "https://dc.lft.to/lastmile_qr_scan"}, "type": "electric_scooter", "name": "1a516a9cbbbb42d2665cee3837b03672"}, {"bike_id": "8ee4f35b7e5aee0ecf6dba83be785cfb", "lat": 38.89531566666667, "is_disabled": 0, "lon": -77.04644516666667, "fusion_lon": 0.0, "is_reserved": 0, "fusion_lat": 0.0, "rental_uris": {"android": "https://dc.lft.to/lastmile_qr_scan", "ios": "https://dc.lft.to/lastmile_qr_scan"}, "type": "electric_scooter", "name": "8ee4f35b7e5aee0ecf6dba83be785cfb"}, {"bike_id": "9930eea5afcae9e0c1de68353bfd69a8", "lat": 38.94065416666667, "is_disabled": 0, "lon": -77.003937, "fusion_lon": 0.0, "is_reserved": 0, "fusion_lat": 0.0, "rental_uris": {"android": "https://dc.lft.to/lastmile_qr_scan", "ios": "https://dc.lft.to/lastmile_qr_scan"}, "type": "electric_scooter", "name": "9930eea5afcae9e0c1de68353bfd69a8"}, {"bike_id": "5728526c34cf55d39ef16a875883aedf", "lat": 38.9440535, "is_disabled": 0, "lon": -77.055162, "fusion_lon": 0.0, "is_reserved": 0, "fusion_lat": 0.0, "rental_uris": {"android": "https://dc.lft.to/lastmile_qr_scan", "ios": "https://dc.lft.to/lastmile_qr_scan"}, "type": "electric_bike", "name": "5728526c34cf55d39ef16a875883aedf"}, {"bike_id": "641eb3edc133eaadfe93885da7716537", "lat": 38.90987783333333, "is_disabled": 0, "lon": -77.03828866666667, "fusion_lon": 0.0, "is_reserved": 0, "fusion_lat": 0.0, "rental_uris": {"android": "https://dc.lft.to/lastmile_qr_scan", "ios": "https://dc.lft.to/lastmile_qr_scan"}, "type": "electric_scooter", "name": "641eb3edc133eaadfe93885da7716537"}, {"bike_id": "714f9185d3ee615f143582dde3855c20", "lat": 38.909045166666665, "is_disabled": 0, "lon": -77.031816, "fusion_lon": 0.0, "is_reserved": 0, "fusion_lat": 0.0, "rental_uris": {"android": "https://dc.lft.to/lastmile_qr_scan", "ios": "https://dc.lft.to/lastmile_qr_scan"}, "type": "electric_scooter", "name": "714f9185d3ee615f143582dde3855c20"}, {"bike_id": "f7bc286c90ca7852880c50f62ab7e146", "lat": 38.92843166666667, "is_disabled": 0, "lon": -77.0327915, "fusion_lon": 0.0, "is_reserved": 0, "fusion_lat": 0.0, "rental_uris": {"android": "https://dc.lft.to/lastmile_qr_scan", "ios": "https://dc.lft.to/lastmile_qr_scan"}, "type": "electric_scooter", "name": "f7bc286c90ca7852880c50f62ab7e146"}, {"bike_id": "39580173281e6ca673150cfb2a0e9ae2", "lat": 38.90590316666667, "is_disabled": 0, "lon": -77.0651865, "fusion_lon": 0.0, "is_reserved": 0, "fusion_lat": 0.0, "rental_uris": {"android": "https://dc.lft.to/lastmile_qr_scan", "ios": "https://dc.lft.to/lastmile_qr_scan"}, "type": "electric_scooter", "name": "39580173281e6ca673150cfb2a0e9ae2"}, {"bike_id": "f50f9ab8a4cc22872d8427eadcf3746d", "lat": 38.8928365, "is_disabled": 0, "lon": -76.95094383333333, "fusion_lon": 0.0, "is_reserved": 0, "fusion_lat": 0.0, "rental_uris": {"android": "https://dc.lft.to/lastmile_qr_scan", "ios": "https://dc.lft.to/lastmile_qr_scan"}, "type": "electric_scooter", "name": "f50f9ab8a4cc22872d8427eadcf3746d"}, {"bike_id": "5eb72082ce4e79efbefdd0e26558ec4c", "lat": 38.92268983333334, "is_disabled": 0, "lon": -77.0192045, "fusion_lon": 0.0, "is_reserved": 0, "fusion_lat": 0.0, "rental_uris": {"android": "https://dc.lft.to/lastmile_qr_scan", "ios": "https://dc.lft.to/lastmile_qr_scan"}, "type": "electric_scooter", "name": "5eb72082ce4e79efbefdd0e26558ec4c"}, {"bike_id": "b0bfdc806df4bb947940311108d31a1a", "lat": 38.905073333333334, "is_disabled": 0, "lon": -77.05905833333334, "fusion_lon": 0.0, "is_reserved": 0, "fusion_lat": 0.0, "rental_uris": {"android": "https://dc.lft.to/lastmile_qr_scan", "ios": "https://dc.lft.to/lastmile_qr_scan"}, "type": "electric_scooter", "name": "b0bfdc806df4bb947940311108d31a1a"}, {"bike_id": "92a694bf3671fe1ad0fba883e1569bdf", "lat": 38.92446866666667, "is_disabled": 0, "lon": -77.03296733333333, "fusion_lon": 0.0, "is_reserved": 0, "fusion_lat": 0.0, "rental_uris": {"android": "https://dc.lft.to/lastmile_qr_scan", "ios": "https://dc.lft.to/lastmile_qr_scan"}, "type": "electric_scooter", "name": "92a694bf3671fe1ad0fba883e1569bdf"}, {"bike_id": "d721810837cfee7887f5ca4ebefba39c", "lat": 38.9168125, "is_disabled": 0, "lon": -77.04143466666666, "fusion_lon": 0.0, "is_reserved": 0, "fusion_lat": 0.0, "rental_uris": {"android": "https://dc.lft.to/lastmile_qr_scan", "ios": "https://dc.lft.to/lastmile_qr_scan"}, "type": "electric_scooter", "name": "d721810837cfee7887f5ca4ebefba39c"}, {"bike_id": "ce60e1ec9aa6a2badadd01db97179508", "lat": 38.919417333333335, "is_disabled": 0, "lon": -77.02501933333333, "fusion_lon": 0.0, "is_reserved": 0, "fusion_lat": 0.0, "rental_uris": {"android": "https://dc.lft.to/lastmile_qr_scan", "ios": "https://dc.lft.to/lastmile_qr_scan"}, "type": "electric_scooter", "name": "ce60e1ec9aa6a2badadd01db97179508"}, {"bike_id": "10891cc364d6e1af884bc415ebb2b7ac", "lat": 38.924473, "is_disabled": 0, "lon": -77.051963, "fusion_lon": 0.0, "is_reserved": 0, "fusion_lat": 0.0, "rental_uris": {"android": "https://dc.lft.to/lastmile_qr_scan", "ios": "https://dc.lft.to/lastmile_qr_scan"}, "type": "electric_scooter", "name": "10891cc364d6e1af884bc415ebb2b7ac"}, {"bike_id": "cfa9f54108caeb94f7bc7dc1347ca9b7", "lat": 38.93279866666666, "is_disabled": 0, "lon": -77.03699333333333, "fusion_lon": 0.0, "is_reserved": 0, "fusion_lat": 0.0, "rental_uris": {"android": "https://dc.lft.to/lastmile_qr_scan", "ios": "https://dc.lft.to/lastmile_qr_scan"}, "type": "electric_scooter", "name": "cfa9f54108caeb94f7bc7dc1347ca9b7"}, {"bike_id": "1db27e9da28b5a62dbc4cf8d74d6fef1", "lat": 38.92012583333333, "is_disabled": 0, "lon": -77.03209233333334, "fusion_lon": 0.0, "is_reserved": 0, "fusion_lat": 0.0, "rental_uris": {"android": "https://dc.lft.to/lastmile_qr_scan", "ios": "https://dc.lft.to/lastmile_qr_scan"}, "type": "electric_scooter", "name": "1db27e9da28b5a62dbc4cf8d74d6fef1"}, {"bike_id": "a2c3a8a0ab3cdf97a743fc51e8cafc36", "lat": 38.95654716666667, "is_disabled": 0, "lon": -77.01316633333333, "fusion_lon": 0.0, "is_reserved": 0, "fusion_lat": 0.0, "rental_uris": {"android": "https://dc.lft.to/lastmile_qr_scan", "ios": "https://dc.lft.to/lastmile_qr_scan"}, "type": "electric_bike", "name": "a2c3a8a0ab3cdf97a743fc51e8cafc36"}, {"bike_id": "b71ce16e80ceb0fe0d9bd7c6f5d16100", "lat": 38.9106405, "is_disabled": 0, "lon": -76.99709866666667, "fusion_lon": 0.0, "is_reserved": 0, "fusion_lat": 0.0, "rental_uris": {"android": "https://dc.lft.to/lastmile_qr_scan", "ios": "https://dc.lft.to/lastmile_qr_scan"}, "type": "electric_scooter", "name": "b71ce16e80ceb0fe0d9bd7c6f5d16100"}, {"bike_id": "f42f51e630efbd3ec9c06c4884a0d4f7", "lat": 38.89621916666667, "is_disabled": 0, "lon": -77.0321225, "fusion_lon": 0.0, "is_reserved": 0, "fusion_lat": 0.0, "rental_uris": {"android": "https://dc.lft.to/lastmile_qr_scan", "ios": "https://dc.lft.to/lastmile_qr_scan"}, "type": "electric_scooter", "name": "f42f51e630efbd3ec9c06c4884a0d4f7"}, {"bike_id": "f1bb17768398823f3b538996ffebbc3a", "lat": 38.906964, "is_disabled": 0, "lon": -76.98856483333333, "fusion_lon": 0.0, "is_reserved": 0, "fusion_lat": 0.0, "rental_uris": {"android": "https://dc.lft.to/lastmile_qr_scan", "ios": "https://dc.lft.to/lastmile_qr_scan"}, "type": "electric_scooter", "name": "f1bb17768398823f3b538996ffebbc3a"}, {"bike_id": "6d3d87ceba790ae012d2dc0b30212853", "lat": 38.915334333333334, "is_disabled": 0, "lon": -77.03858766666667, "fusion_lon": 0.0, "is_reserved": 0, "fusion_lat": 0.0, "rental_uris": {"android": "https://dc.lft.to/lastmile_qr_scan", "ios": "https://dc.lft.to/lastmile_qr_scan"}, "type": "electric_scooter", "name": "6d3d87ceba790ae012d2dc0b30212853"}, {"bike_id": "9c323ebe05a4be5d5dbe1eec7af92b1d", "lat": 38.9082935, "is_disabled": 0, "lon": -77.043306, "fusion_lon": 0.0, "is_reserved": 0, "fusion_lat": 0.0, "rental_uris": {"android": "https://dc.lft.to/lastmile_qr_scan", "ios": "https://dc.lft.to/lastmile_qr_scan"}, "type": "electric_scooter", "name": "9c323ebe05a4be5d5dbe1eec7af92b1d"}, {"bike_id": "f5c3e8ea8701129826bd40ae3b968389", "lat": 38.94501983333333, "is_disabled": 0, "lon": -77.03830333333333, "fusion_lon": 0.0, "is_reserved": 0, "fusion_lat": 0.0, "rental_uris": {"android": "https://dc.lft.to/lastmile_qr_scan", "ios": "https://dc.lft.to/lastmile_qr_scan"}, "type": "electric_scooter", "name": "f5c3e8ea8701129826bd40ae3b968389"}, {"bike_id": "834575dcbb0c491d6d67222bd4fdaf31", "lat": 38.9768095, "is_disabled": 0, "lon": -77.0191285, "fusion_lon": 0.0, "is_reserved": 0, "fusion_lat": 0.0, "rental_uris": {"android": "https://dc.lft.to/lastmile_qr_scan", "ios": "https://dc.lft.to/lastmile_qr_scan"}, "type": "electric_bike", "name": "834575dcbb0c491d6d67222bd4fdaf31"}, {"bike_id": "fc6a5502b39afd69bec33543f4684b21", "lat": 38.911172666666666, "is_disabled": 0, "lon": -77.007446, "fusion_lon": 0.0, "is_reserved": 0, "fusion_lat": 0.0, "rental_uris": {"android": "https://dc.lft.to/lastmile_qr_scan", "ios": "https://dc.lft.to/lastmile_qr_scan"}, "type": "electric_scooter", "name": "fc6a5502b39afd69bec33543f4684b21"}, {"bike_id": "bd15dfbe4e3672517615ef5a2cfe36a3", "lat": 38.97348016666667, "is_disabled": 0, "lon": -77.0278425, "fusion_lon": 0.0, "is_reserved": 0, "fusion_lat": 0.0, "rental_uris": {"android": "https://dc.lft.to/lastmile_qr_scan", "ios": "https://dc.lft.to/lastmile_qr_scan"}, "type": "electric_scooter", "name": "bd15dfbe4e3672517615ef5a2cfe36a3"}, {"bike_id": "e8a5bc7d2acd5b08f527d34f1b217f72", "lat": 38.88773333333334, "is_disabled": 0, "lon": -77.0030815, "fusion_lon": 0.0, "is_reserved": 0, "fusion_lat": 0.0, "rental_uris": {"android": "https://dc.lft.to/lastmile_qr_scan", "ios": "https://dc.lft.to/lastmile_qr_scan"}, "type": "electric_scooter", "name": "e8a5bc7d2acd5b08f527d34f1b217f72"}, {"bike_id": "23ee405a1f368f92d879cca1dcd84051", "lat": 38.93352466666666, "is_disabled": 0, "lon": -77.036542, "fusion_lon": 0.0, "is_reserved": 0, "fusion_lat": 0.0, "rental_uris": {"android": "https://dc.lft.to/lastmile_qr_scan", "ios": "https://dc.lft.to/lastmile_qr_scan"}, "type": "electric_scooter", "name": "23ee405a1f368f92d879cca1dcd84051"}, {"bike_id": "7276291a9093da878ae821eb933c6b3a", "lat": 38.913369, "is_disabled": 0, "lon": -77.063235, "fusion_lon": 0.0, "is_reserved": 0, "fusion_lat": 0.0, "rental_uris": {"android": "https://dc.lft.to/lastmile_qr_scan", "ios": "https://dc.lft.to/lastmile_qr_scan"}, "type": "electric_scooter", "name": "7276291a9093da878ae821eb933c6b3a"}, {"bike_id": "027baa191a93db0641418c1b8ec6f72d", "lat": 38.89459983333333, "is_disabled": 0, "lon": -77.003488, "fusion_lon": 0.0, "is_reserved": 0, "fusion_lat": 0.0, "rental_uris": {"android": "https://dc.lft.to/lastmile_qr_scan", "ios": "https://dc.lft.to/lastmile_qr_scan"}, "type": "electric_scooter", "name": "027baa191a93db0641418c1b8ec6f72d"}, {"bike_id": "b126d62e7ee378e088ffeac6ca2a7f24", "lat": 38.83105366666667, "is_disabled": 0, "lon": -77.11283566666667, "fusion_lon": 0.0, "is_reserved": 0, "fusion_lat": 0.0, "rental_uris": {"android": "https://dc.lft.to/lastmile_qr_scan", "ios": "https://dc.lft.to/lastmile_qr_scan"}, "type": "electric_bike", "name": "b126d62e7ee378e088ffeac6ca2a7f24"}, {"bike_id": "826bff338f0a72f2b68643047a866ac5", "lat": 38.916900166666665, "is_disabled": 0, "lon": -77.03597833333333, "fusion_lon": 0.0, "is_reserved": 0, "fusion_lat": 0.0, "rental_uris": {"android": "https://dc.lft.to/lastmile_qr_scan", "ios": "https://dc.lft.to/lastmile_qr_scan"}, "type": "electric_scooter", "name": "826bff338f0a72f2b68643047a866ac5"}, {"bike_id": "ddce1d7b80b7c6648b8dc4c2b0077134", "lat": 38.90012883333333, "is_disabled": 0, "lon": -77.00546083333333, "fusion_lon": 0.0, "is_reserved": 0, "fusion_lat": 0.0, "rental_uris": {"android": "https://dc.lft.to/lastmile_qr_scan", "ios": "https://dc.lft.to/lastmile_qr_scan"}, "type": "electric_bike", "name": "ddce1d7b80b7c6648b8dc4c2b0077134"}, {"bike_id": "dfd4ec0279468ef3279ed26ad1dfff7d", "lat": 38.899297833333335, "is_disabled": 0, "lon": -77.04167966666667, "fusion_lon": 0.0, "is_reserved": 0, "fusion_lat": 0.0, "rental_uris": {"android": "https://dc.lft.to/lastmile_qr_scan", "ios": "https://dc.lft.to/lastmile_qr_scan"}, "type": "electric_scooter", "name": "dfd4ec0279468ef3279ed26ad1dfff7d"}, {"bike_id": "4ae2d209b76bdc7f3be8cd5f074fd479", "lat": 38.905610333333335, "is_disabled": 0, "lon": -76.998211, "fusion_lon": 0.0, "is_reserved": 0, "fusion_lat": 0.0, "rental_uris": {"android": "https://dc.lft.to/lastmile_qr_scan", "ios": "https://dc.lft.to/lastmile_qr_scan"}, "type": "electric_bike", "name": "4ae2d209b76bdc7f3be8cd5f074fd479"}, {"bike_id": "eb9c39fc6b5751e289e488c684d92a3b", "lat": 38.90206116666667, "is_disabled": 0, "lon": -77.0249395, "fusion_lon": 0.0, "is_reserved": 0, "fusion_lat": 0.0, "rental_uris": {"android": "https://dc.lft.to/lastmile_qr_scan", "ios": "https://dc.lft.to/lastmile_qr_scan"}, "type": "electric_scooter", "name": "eb9c39fc6b5751e289e488c684d92a3b"}, {"bike_id": "ec38e3d8415f4e75ce61ec86ca4b0109", "lat": 38.9067175, "is_disabled": 0, "lon": -77.0624285, "fusion_lon": 0.0, "is_reserved": 0, "fusion_lat": 0.0, "rental_uris": {"android": "https://dc.lft.to/lastmile_qr_scan", "ios": "https://dc.lft.to/lastmile_qr_scan"}, "type": "electric_scooter", "name": "ec38e3d8415f4e75ce61ec86ca4b0109"}, {"bike_id": "50b6b2911a2406470f67d8d6d686c861", "lat": 38.920310666666666, "is_disabled": 0, "lon": -77.01432283333334, "fusion_lon": 0.0, "is_reserved": 0, "fusion_lat": 0.0, "rental_uris": {"android": "https://dc.lft.to/lastmile_qr_scan", "ios": "https://dc.lft.to/lastmile_qr_scan"}, "type": "electric_scooter", "name": "50b6b2911a2406470f67d8d6d686c861"}, {"bike_id": "a15503d88bebaee8388633faab9eabd2", "lat": 38.8987995, "is_disabled": 0, "lon": -77.03352083333333, "fusion_lon": 0.0, "is_reserved": 0, "fusion_lat": 0.0, "rental_uris": {"android": "https://dc.lft.to/lastmile_qr_scan", "ios": "https://dc.lft.to/lastmile_qr_scan"}, "type": "electric_scooter", "name": "a15503d88bebaee8388633faab9eabd2"}, {"bike_id": "367af92f462b8d808b75b77b139321fe", "lat": 38.919472999999996, "is_disabled": 0, "lon": -77.02595016666666, "fusion_lon": 0.0, "is_reserved": 0, "fusion_lat": 0.0, "rental_uris": {"android": "https://dc.lft.to/lastmile_qr_scan", "ios": "https://dc.lft.to/lastmile_qr_scan"}, "type": "electric_scooter", "name": "367af92f462b8d808b75b77b139321fe"}, {"bike_id": "0ef8f62ba49a08ef18c14f939fabbd0d", "lat": 38.89077966666667, "is_disabled": 0, "lon": -76.94720833333334, "fusion_lon": 0.0, "is_reserved": 0, "fusion_lat": 0.0, "rental_uris": {"android": "https://dc.lft.to/lastmile_qr_scan", "ios": "https://dc.lft.to/lastmile_qr_scan"}, "type": "electric_scooter", "name": "0ef8f62ba49a08ef18c14f939fabbd0d"}, {"bike_id": "18a49412b6c3a0c6081918d62deaa814", "lat": 38.90956666666666, "is_disabled": 0, "lon": -77.04548566666666, "fusion_lon": 0.0, "is_reserved": 0, "fusion_lat": 0.0, "rental_uris": {"android": "https://dc.lft.to/lastmile_qr_scan", "ios": "https://dc.lft.to/lastmile_qr_scan"}, "type": "electric_scooter", "name": "18a49412b6c3a0c6081918d62deaa814"}, {"bike_id": "7eb46e96e77b4d858f2abbde3b669407", "lat": 38.88849183333333, "is_disabled": 0, "lon": -76.9574025, "fusion_lon": 0.0, "is_reserved": 0, "fusion_lat": 0.0, "rental_uris": {"android": "https://dc.lft.to/lastmile_qr_scan", "ios": "https://dc.lft.to/lastmile_qr_scan"}, "type": "electric_bike", "name": "7eb46e96e77b4d858f2abbde3b669407"}, {"bike_id": "10af6d612477614615582110590289b5", "lat": 38.915424, "is_disabled": 0, "lon": -77.02715416666666, "fusion_lon": 0.0, "is_reserved": 0, "fusion_lat": 0.0, "rental_uris": {"android": "https://dc.lft.to/lastmile_qr_scan", "ios": "https://dc.lft.to/lastmile_qr_scan"}, "type": "electric_scooter", "name": "10af6d612477614615582110590289b5"}, {"bike_id": "5b867e9acb4173025013c905093ca939", "lat": 38.9027175, "is_disabled": 0, "lon": -77.0267075, "fusion_lon": 0.0, "is_reserved": 0, "fusion_lat": 0.0, "rental_uris": {"android": "https://dc.lft.to/lastmile_qr_scan", "ios": "https://dc.lft.to/lastmile_qr_scan"}, "type": "electric_scooter", "name": "5b867e9acb4173025013c905093ca939"}, {"bike_id": "537f655edfaff5e4982be73a169bb674", "lat": 38.908808, "is_disabled": 0, "lon": -77.06774916666667, "fusion_lon": 0.0, "is_reserved": 0, "fusion_lat": 0.0, "rental_uris": {"android": "https://dc.lft.to/lastmile_qr_scan", "ios": "https://dc.lft.to/lastmile_qr_scan"}, "type": "electric_scooter", "name": "537f655edfaff5e4982be73a169bb674"}, {"bike_id": "57190e841cb3878c3cb9f7068f18a788", "lat": 38.918361166666664, "is_disabled": 0, "lon": -77.02313883333333, "fusion_lon": 0.0, "is_reserved": 0, "fusion_lat": 0.0, "rental_uris": {"android": "https://dc.lft.to/lastmile_qr_scan", "ios": "https://dc.lft.to/lastmile_qr_scan"}, "type": "electric_scooter", "name": "57190e841cb3878c3cb9f7068f18a788"}, {"bike_id": "08be4560741994fbffb857b784490cd7", "lat": 38.895009333333334, "is_disabled": 0, "lon": -76.934805, "fusion_lon": 0.0, "is_reserved": 0, "fusion_lat": 0.0, "rental_uris": {"android": "https://dc.lft.to/lastmile_qr_scan", "ios": "https://dc.lft.to/lastmile_qr_scan"}, "type": "electric_scooter", "name": "08be4560741994fbffb857b784490cd7"}, {"bike_id": "672bf7d24cf6b5391d0779c93d3c025d", "lat": 38.93963433333333, "is_disabled": 0, "lon": -77.03746533333333, "fusion_lon": 0.0, "is_reserved": 0, "fusion_lat": 0.0, "rental_uris": {"android": "https://dc.lft.to/lastmile_qr_scan", "ios": "https://dc.lft.to/lastmile_qr_scan"}, "type": "electric_scooter", "name": "672bf7d24cf6b5391d0779c93d3c025d"}, {"bike_id": "296a0de771b6dd016d9b4bce9a43bf68", "lat": 38.918237500000004, "is_disabled": 0, "lon": -77.02294766666667, "fusion_lon": 0.0, "is_reserved": 0, "fusion_lat": 0.0, "rental_uris": {"android": "https://dc.lft.to/lastmile_qr_scan", "ios": "https://dc.lft.to/lastmile_qr_scan"}, "type": "electric_scooter", "name": "296a0de771b6dd016d9b4bce9a43bf68"}, {"bike_id": "9a61128dc741c25e88a4fb4f47f8e2ec", "lat": 38.901340833333336, "is_disabled": 0, "lon": -77.03902566666666, "fusion_lon": 0.0, "is_reserved": 0, "fusion_lat": 0.0, "rental_uris": {"android": "https://dc.lft.to/lastmile_qr_scan", "ios": "https://dc.lft.to/lastmile_qr_scan"}, "type": "electric_scooter", "name": "9a61128dc741c25e88a4fb4f47f8e2ec"}, {"bike_id": "b9b950a524236c874d9817aadf06930d", "lat": 38.885497, "is_disabled": 0, "lon": -77.1564775, "fusion_lon": 0.0, "is_reserved": 0, "fusion_lat": 0.0, "rental_uris": {"android": "https://dc.lft.to/lastmile_qr_scan", "ios": "https://dc.lft.to/lastmile_qr_scan"}, "type": "electric_bike", "name": "b9b950a524236c874d9817aadf06930d"}, {"bike_id": "d6378152b1ffae6bd0cfe5de207de762", "lat": 38.900290166666665, "is_disabled": 0, "lon": -76.9895965, "fusion_lon": 0.0, "is_reserved": 0, "fusion_lat": 0.0, "rental_uris": {"android": "https://dc.lft.to/lastmile_qr_scan", "ios": "https://dc.lft.to/lastmile_qr_scan"}, "type": "electric_scooter", "name": "d6378152b1ffae6bd0cfe5de207de762"}, {"bike_id": "a908d0b58255cba9a4080043988d3929", "lat": 38.89716766666667, "is_disabled": 0, "lon": -77.03041916666666, "fusion_lon": 0.0, "is_reserved": 0, "fusion_lat": 0.0, "rental_uris": {"android": "https://dc.lft.to/lastmile_qr_scan", "ios": "https://dc.lft.to/lastmile_qr_scan"}, "type": "electric_scooter", "name": "a908d0b58255cba9a4080043988d3929"}, {"bike_id": "0576036c3bc434ccbdbfdb3a5b9933f7", "lat": 38.9034055, "is_disabled": 0, "lon": -77.0344365, "fusion_lon": 0.0, "is_reserved": 0, "fusion_lat": 0.0, "rental_uris": {"android": "https://dc.lft.to/lastmile_qr_scan", "ios": "https://dc.lft.to/lastmile_qr_scan"}, "type": "electric_scooter", "name": "0576036c3bc434ccbdbfdb3a5b9933f7"}, {"bike_id": "44f954eea61aed0fd6fa81807a343f32", "lat": 38.89781766666667, "is_disabled": 0, "lon": -77.01358866666666, "fusion_lon": 0.0, "is_reserved": 0, "fusion_lat": 0.0, "rental_uris": {"android": "https://dc.lft.to/lastmile_qr_scan", "ios": "https://dc.lft.to/lastmile_qr_scan"}, "type": "electric_bike", "name": "44f954eea61aed0fd6fa81807a343f32"}, {"bike_id": "b676b736470df7345fcdb5f08eb05504", "lat": 38.91353, "is_disabled": 0, "lon": -77.04557433333333, "fusion_lon": 0.0, "is_reserved": 0, "fusion_lat": 0.0, "rental_uris": {"android": "https://dc.lft.to/lastmile_qr_scan", "ios": "https://dc.lft.to/lastmile_qr_scan"}, "type": "electric_scooter", "name": "b676b736470df7345fcdb5f08eb05504"}, {"bike_id": "0298292b579a4a14a7bb29b46ada09e5", "lat": 38.9057155, "is_disabled": 0, "lon": -77.00788883333334, "fusion_lon": 0.0, "is_reserved": 0, "fusion_lat": 0.0, "rental_uris": {"android": "https://dc.lft.to/lastmile_qr_scan", "ios": "https://dc.lft.to/lastmile_qr_scan"}, "type": "electric_scooter", "name": "0298292b579a4a14a7bb29b46ada09e5"}, {"bike_id": "e6a4835789a4a9b879d053b4ead32189", "lat": 38.91937083333333, "is_disabled": 0, "lon": -77.07057983333333, "fusion_lon": 0.0, "is_reserved": 0, "fusion_lat": 0.0, "rental_uris": {"android": "https://dc.lft.to/lastmile_qr_scan", "ios": "https://dc.lft.to/lastmile_qr_scan"}, "type": "electric_scooter", "name": "e6a4835789a4a9b879d053b4ead32189"}, {"bike_id": "34505c917fd4d31af7166ff4b620aba6", "lat": 38.9211545, "is_disabled": 0, "lon": -77.01750183333333, "fusion_lon": 0.0, "is_reserved": 0, "fusion_lat": 0.0, "rental_uris": {"android": "https://dc.lft.to/lastmile_qr_scan", "ios": "https://dc.lft.to/lastmile_qr_scan"}, "type": "electric_scooter", "name": "34505c917fd4d31af7166ff4b620aba6"}, {"bike_id": "2af72f984ab51754fa5a6369c1a99fab", "lat": 38.87924183333333, "is_disabled": 0, "lon": -76.94330666666667, "fusion_lon": 0.0, "is_reserved": 0, "fusion_lat": 0.0, "rental_uris": {"android": "https://dc.lft.to/lastmile_qr_scan", "ios": "https://dc.lft.to/lastmile_qr_scan"}, "type": "electric_scooter", "name": "2af72f984ab51754fa5a6369c1a99fab"}, {"bike_id": "1ea7e13392e8f669de204c2e11abba20", "lat": 38.898419833333335, "is_disabled": 0, "lon": -77.03937733333333, "fusion_lon": 0.0, "is_reserved": 0, "fusion_lat": 0.0, "rental_uris": {"android": "https://dc.lft.to/lastmile_qr_scan", "ios": "https://dc.lft.to/lastmile_qr_scan"}, "type": "electric_scooter", "name": "1ea7e13392e8f669de204c2e11abba20"}, {"bike_id": "cb63aff542237e5846e2375a2490b029", "lat": 38.896543666666666, "is_disabled": 0, "lon": -77.03373833333333, "fusion_lon": 0.0, "is_reserved": 0, "fusion_lat": 0.0, "rental_uris": {"android": "https://dc.lft.to/lastmile_qr_scan", "ios": "https://dc.lft.to/lastmile_qr_scan"}, "type": "electric_scooter", "name": "cb63aff542237e5846e2375a2490b029"}, {"bike_id": "e15a6625d6b9c19b3bfb9ab1a3da9d28", "lat": 38.892194, "is_disabled": 0, "lon": -77.02368783333333, "fusion_lon": 0.0, "is_reserved": 0, "fusion_lat": 0.0, "rental_uris": {"android": "https://dc.lft.to/lastmile_qr_scan", "ios": "https://dc.lft.to/lastmile_qr_scan"}, "type": "electric_scooter", "name": "e15a6625d6b9c19b3bfb9ab1a3da9d28"}, {"bike_id": "d5cd2d3221c21dbdf2a61132fce4bbfb", "lat": 38.90041083333333, "is_disabled": 0, "lon": -76.99850833333333, "fusion_lon": 0.0, "is_reserved": 0, "fusion_lat": 0.0, "rental_uris": {"android": "https://dc.lft.to/lastmile_qr_scan", "ios": "https://dc.lft.to/lastmile_qr_scan"}, "type": "electric_scooter", "name": "d5cd2d3221c21dbdf2a61132fce4bbfb"}, {"bike_id": "fcc163f2f9761701492d16d960f9b475", "lat": 38.903690833333336, "is_disabled": 0, "lon": -77.03206766666666, "fusion_lon": 0.0, "is_reserved": 0, "fusion_lat": 0.0, "rental_uris": {"android": "https://dc.lft.to/lastmile_qr_scan", "ios": "https://dc.lft.to/lastmile_qr_scan"}, "type": "electric_scooter", "name": "fcc163f2f9761701492d16d960f9b475"}, {"bike_id": "7fba0ae57a29bc035491d30f3bdcfaf2", "lat": 38.892422, "is_disabled": 0, "lon": -77.039599, "fusion_lon": 0.0, "is_reserved": 0, "fusion_lat": 0.0, "rental_uris": {"android": "https://dc.lft.to/lastmile_qr_scan", "ios": "https://dc.lft.to/lastmile_qr_scan"}, "type": "electric_scooter", "name": "7fba0ae57a29bc035491d30f3bdcfaf2"}, {"bike_id": "0e100e8df882fe3ac211cc52c5484b27", "lat": 38.92459566666667, "is_disabled": 0, "lon": -77.0405265, "fusion_lon": 0.0, "is_reserved": 0, "fusion_lat": 0.0, "rental_uris": {"android": "https://dc.lft.to/lastmile_qr_scan", "ios": "https://dc.lft.to/lastmile_qr_scan"}, "type": "electric_scooter", "name": "0e100e8df882fe3ac211cc52c5484b27"}, {"bike_id": "50381faf39b3ba75b751822f286760be", "lat": 38.80641333333333, "is_disabled": 0, "lon": -77.0625235, "fusion_lon": 0.0, "is_reserved": 0, "fusion_lat": 0.0, "rental_uris": {"android": "https://dc.lft.to/lastmile_qr_scan", "ios": "https://dc.lft.to/lastmile_qr_scan"}, "type": "electric_bike", "name": "50381faf39b3ba75b751822f286760be"}, {"bike_id": "d985f01e3050060a58c4e85bd0330ea4", "lat": 38.900178833333335, "is_disabled": 0, "lon": -77.011847, "fusion_lon": 0.0, "is_reserved": 0, "fusion_lat": 0.0, "rental_uris": {"android": "https://dc.lft.to/lastmile_qr_scan", "ios": "https://dc.lft.to/lastmile_qr_scan"}, "type": "electric_scooter", "name": "d985f01e3050060a58c4e85bd0330ea4"}, {"bike_id": "a9efe6b0df1f2b6c2283f1a2ca610f9b", "lat": 38.92991466666667, "is_disabled": 0, "lon": -77.02536783333333, "fusion_lon": 0.0, "is_reserved": 0, "fusion_lat": 0.0, "rental_uris": {"android": "https://dc.lft.to/lastmile_qr_scan", "ios": "https://dc.lft.to/lastmile_qr_scan"}, "type": "electric_scooter", "name": "a9efe6b0df1f2b6c2283f1a2ca610f9b"}, {"bike_id": "3e6fc0ea4635cf27e57646a228826759", "lat": 38.918418833333334, "is_disabled": 0, "lon": -77.040118, "fusion_lon": 0.0, "is_reserved": 0, "fusion_lat": 0.0, "rental_uris": {"android": "https://dc.lft.to/lastmile_qr_scan", "ios": "https://dc.lft.to/lastmile_qr_scan"}, "type": "electric_scooter", "name": "3e6fc0ea4635cf27e57646a228826759"}, {"bike_id": "42b89c811e586d6d8c41d3f4fbf1e79b", "lat": 38.916934166666664, "is_disabled": 0, "lon": -77.02597566666667, "fusion_lon": 0.0, "is_reserved": 0, "fusion_lat": 0.0, "rental_uris": {"android": "https://dc.lft.to/lastmile_qr_scan", "ios": "https://dc.lft.to/lastmile_qr_scan"}, "type": "electric_scooter", "name": "42b89c811e586d6d8c41d3f4fbf1e79b"}, {"bike_id": "cb450e82c9d51a5bf2bbbd9252b357c4", "lat": 38.894841, "is_disabled": 0, "lon": -77.002004, "fusion_lon": 0.0, "is_reserved": 0, "fusion_lat": 0.0, "rental_uris": {"android": "https://dc.lft.to/lastmile_qr_scan", "ios": "https://dc.lft.to/lastmile_qr_scan"}, "type": "electric_scooter", "name": "cb450e82c9d51a5bf2bbbd9252b357c4"}, {"bike_id": "7e108662179ed82beaf331eb59f63a22", "lat": 38.92119733333333, "is_disabled": 0, "lon": -77.03177716666667, "fusion_lon": 0.0, "is_reserved": 0, "fusion_lat": 0.0, "rental_uris": {"android": "https://dc.lft.to/lastmile_qr_scan", "ios": "https://dc.lft.to/lastmile_qr_scan"}, "type": "electric_scooter", "name": "7e108662179ed82beaf331eb59f63a22"}, {"bike_id": "72f3d81cd4d93ed18cca8609c0ad79b9", "lat": 38.9246295, "is_disabled": 0, "lon": -77.03915766666667, "fusion_lon": 0.0, "is_reserved": 0, "fusion_lat": 0.0, "rental_uris": {"android": "https://dc.lft.to/lastmile_qr_scan", "ios": "https://dc.lft.to/lastmile_qr_scan"}, "type": "electric_scooter", "name": "72f3d81cd4d93ed18cca8609c0ad79b9"}, {"bike_id": "4a25be8bb4e247f4bec593d1d1a1904d", "lat": 38.96611, "is_disabled": 0, "lon": -77.02752016666666, "fusion_lon": 0.0, "is_reserved": 0, "fusion_lat": 0.0, "rental_uris": {"android": "https://dc.lft.to/lastmile_qr_scan", "ios": "https://dc.lft.to/lastmile_qr_scan"}, "type": "electric_scooter", "name": "4a25be8bb4e247f4bec593d1d1a1904d"}, {"bike_id": "3b299d617dfc69c88d5e0a04f1a2c2f0", "lat": 38.9224455, "is_disabled": 0, "lon": -77.04026933333333, "fusion_lon": 0.0, "is_reserved": 0, "fusion_lat": 0.0, "rental_uris": {"android": "https://dc.lft.to/lastmile_qr_scan", "ios": "https://dc.lft.to/lastmile_qr_scan"}, "type": "electric_scooter", "name": "3b299d617dfc69c88d5e0a04f1a2c2f0"}, {"bike_id": "99c43d548907cd0f69b4b17de168f124", "lat": 38.92088966666667, "is_disabled": 0, "lon": -77.0250635, "fusion_lon": 0.0, "is_reserved": 0, "fusion_lat": 0.0, "rental_uris": {"android": "https://dc.lft.to/lastmile_qr_scan", "ios": "https://dc.lft.to/lastmile_qr_scan"}, "type": "electric_scooter", "name": "99c43d548907cd0f69b4b17de168f124"}, {"bike_id": "b8b118a5f33bc2054ffdd440503e9834", "lat": 38.905466, "is_disabled": 0, "lon": -77.0265135, "fusion_lon": 0.0, "is_reserved": 0, "fusion_lat": 0.0, "rental_uris": {"android": "https://dc.lft.to/lastmile_qr_scan", "ios": "https://dc.lft.to/lastmile_qr_scan"}, "type": "electric_scooter", "name": "b8b118a5f33bc2054ffdd440503e9834"}, {"bike_id": "928b55019248d83be073ab5d18e1bb43", "lat": 38.9234225, "is_disabled": 0, "lon": -77.00018133333333, "fusion_lon": 0.0, "is_reserved": 0, "fusion_lat": 0.0, "rental_uris": {"android": "https://dc.lft.to/lastmile_qr_scan", "ios": "https://dc.lft.to/lastmile_qr_scan"}, "type": "electric_bike", "name": "928b55019248d83be073ab5d18e1bb43"}, {"bike_id": "99102a1e686d7ec9dcbca720913e8002", "lat": 38.83791033333333, "is_disabled": 0, "lon": -77.00453916666666, "fusion_lon": 0.0, "is_reserved": 0, "fusion_lat": 0.0, "rental_uris": {"android": "https://dc.lft.to/lastmile_qr_scan", "ios": "https://dc.lft.to/lastmile_qr_scan"}, "type": "electric_scooter", "name": "99102a1e686d7ec9dcbca720913e8002"},