{"data": {"bikes": [{"rental_uris": {"ios": "https://dc.lft.to/lastmile_qr_scan", "android": "https://dc.lft.to/lastmile_qr_scan"}, "type": "electric_scooter", "name": "9eab5265cd91266c08b14abe96a81d79", "is_reserved": 0, "lon": -77.03434533333333, "is_disabled": 0, "fusion_lat": 0.0, "lat": 38.9056005, "bike_id": "9eab5265cd91266c08b14abe96a81d79", "fusion_lon": 0.0}, {"rental_uris": {"ios": "https://dc.lft.to/lastmile_qr_scan", "android": "https://dc.lft.to/lastmile_qr_scan"}, "type": "electric_bike", "name": "34b73bde6481b580a8fa73688aec3404", "is_reserved": 0, "lon": -77.02583333333334, "is_disabled": 0, "fusion_lat": 0.0, "lat": 38.978748833333334, "bike_id": "34b73bde6481b580a8fa73688aec3404", "fusion_lon": 0.0}, {"rental_uris": {"ios": "https://dc.lft.to/lastmile_qr_scan", "android": "https://dc.lft.to/lastmile_qr_scan"}, "type": "electric_scooter", "name": "ad6e21a0968866700b590813fba99ab4", "is_reserved": 0, "lon": -77.03446266666667, "is_disabled": 0, "fusion_lat": 0.0, "lat": 38.907353666666666, "bike_id": "ad6e21a0968866700b590813fba99ab4", "fusion_lon": 0.0}, {"rental_uris": {"ios": "https://dc.lft.to/lastmile_qr_scan", "android": "https://dc.lft.to/lastmile_qr_scan"}, "type": "electric_scooter", "name": "e9d4abeb40251d4aa333b84f003031b0", "is_reserved": 0, "lon": -77.02305566666666, "is_disabled": 0, "fusion_lat": 0.0, "lat": 38.911078833333335, "bike_id": "e9d4abeb40251d4aa333b84f003031b0", "fusion_lon": 0.0}, {"rental_uris": {"ios": "https://dc.lft.to/lastmile_qr_scan", "android": "https://dc.lft.to/lastmile_qr_scan"}, "type": "electric_scooter", "name": "67aa23e70c49092cb2d9b20a24fc4ede", "is_reserved": 0, "lon": -77.04074733333333, "is_disabled": 0, "fusion_lat": 0.0, "lat": 38.947730166666666, "bike_id": "67aa23e70c49092cb2d9b20a24fc4ede", "fusion_lon": 0.0}, {"rental_uris": {"ios": "https://dc.lft.to/lastmile_qr_scan", "android": "https://dc.lft.to/lastmile_qr_scan"}, "type": "electric_scooter", "name": "62c2dd880cd52d0fbf759a62d0421ee9", "is_reserved": 0, "lon": -77.04333616666666, "is_disabled": 0, "fusion_lat": 0.0, "lat": 38.90722683333333, "bike_id": "62c2dd880cd52d0fbf759a62d0421ee9", "fusion_lon": 0.0}, {"rental_uris": {"ios": "https://dc.lft.to/lastmile_qr_scan", "android": "https://dc.lft.to/lastmile_qr_scan"}, "type": "electric_scooter", "name": "4f23fc828a68ade859f9976ee6b8c203", "is_reserved": 0, "lon": -77.007266, "is_disabled": 0, "fusion_lat": 0.0, "lat": 38.89705466666667, "bike_id": "4f23fc828a68ade859f9976ee6b8c203", "fusion_lon": 0.0}, {"rental_uris": {"ios": "https://dc.lft.to/lastmile_qr_scan", "android": "https://dc.lft.to/lastmile_qr_scan"}, "type": "electric_bike", "name": "614d89855c19af72789ca14565eac72e", "is_reserved": 0, "lon": -76.99912466666666, "is_disabled": 0, "fusion_lat": 0.0, "lat": 38.8644805, "bike_id": "614d89855c19af72789ca14565eac72e", "fusion_lon": 0.0}, {"rental_uris": {"ios": "https://dc.lft.to/lastmile_qr_scan", "android": "https://dc.lft.to/lastmile_qr_scan"}, "type": "electric_scooter", "name": "83784a4b55efb75905197f1933a6406c", "is_reserved": 0, "lon": -77.039579, "is_disabled": 0, "fusion_lat": 0.0, "lat": 38.892471, "bike_id": "83784a4b55efb75905197f1933a6406c", "fusion_lon": 0.0}, {"rental_uris": {"ios": "https://dc.lft.to/lastmile_qr_scan", "android": "https://dc.lft.to/lastmile_qr_scan"}, "type": "electric_scooter", "name": "505ca9b23c7bd6b4433759941a3cbb84", "is_reserved": 0, "lon": -77.049448, "is_disabled": 0, "fusion_lat": 0.0, "lat": 38.90060583333333, "bike_id": "505ca9b23c7bd6b4433759941a3cbb84", "fusion_lon": 0.0}, {"rental_uris": {"ios": "https://dc.lft.to/lastmile_qr_scan", "android": "https://dc.lft.to/lastmile_qr_scan"}, "type": "electric_scooter", "name": "d4d348fe9f3e3d5d7f0f5807d7cc8516", "is_reserved": 0, "lon": -77.03168033333333, "is_disabled": 0, "fusion_lat": 0.0, "lat": 38.921142333333336, "bike_id": "d4d348fe9f3e3d5d7f0f5807d7cc8516", "fusion_lon": 0.0}, {"rental_uris": {"ios": "https://dc.lft.to/lastmile_qr_scan", "android": "https://dc.lft.to/lastmile_qr_scan"}, "type": "electric_scooter", "name": "f8b8b3bdaa2b2a5f93c4950d066521a0", "is_reserved": 0, "lon": -77.03662716666666, "is_disabled": 0, "fusion_lat": 0.0, "lat": 38.91820333333333, "bike_id": "f8b8b3bdaa2b2a5f93c4950d066521a0", "fusion_lon": 0.0}, {"rental_uris": {"ios": "https://dc.lft.to/lastmile_qr_scan", "android": "https://dc.lft.to/lastmile_qr_scan"}, "type": "electric_scooter", "name": "285cd80e3bfa679b676068f8c1ac5486", "is_reserved": 0, "lon": -76.97841316666667, "is_disabled": 0, "fusion_lat": 0.0, "lat": 38.8720325, "bike_id": "285cd80e3bfa679b676068f8c1ac5486", "fusion_lon": 0.0}, {"rental_uris": {"ios": "https://dc.lft.to/lastmile_qr_scan", "android": "https://dc.lft.to/lastmile_qr_scan"}, "type": "electric_scooter", "name": "07849ee2a24b602fee43dc8b938171b6", "is_reserved": 0, "lon": -77.00680716666666, "is_disabled": 0, "fusion_lat": 0.0, "lat": 38.8715155, "bike_id": "07849ee2a24b602fee43dc8b938171b6", "fusion_lon": 0.0}, {"rental_uris": {"ios": "https://dc.lft.to/lastmile_qr_scan", "android": "https://dc.lft.to/lastmile_qr_scan"}, "type": "electric_scooter", "name": "d8be3ff7aac9e82b0696ded21bb01457", "is_reserved": 0, "lon": -77.01367616666667, "is_disabled": 0, "fusion_lat": 0.0, "lat": 38.895850833333334, "bike_id": "d8be3ff7aac9e82b0696ded21bb01457", "fusion_lon": 0.0}, {"rental_uris": {"ios": "https://dc.lft.to/lastmile_qr_scan", "android": "https://dc.lft.to/lastmile_qr_scan"}, "type": "electric_scooter", "name": "ed470f69099fb2b62254e77de8e361db", "is_reserved": 0, "lon": -77.03225883333333, "is_disabled": 0, "fusion_lat": 0.0, "lat": 38.92055633333333, "bike_id": "ed470f69099fb2b62254e77de8e361db", "fusion_lon": 0.0}, {"rental_uris": {"ios": "https://dc.lft.to/lastmile_qr_scan", "android": "https://dc.lft.to/lastmile_qr_scan"}, "type": "electric_scooter", "name": "220b1871fb7074f5dabe3c5290181a32", "is_reserved": 0, "lon": -77.04276666666667, "is_disabled": 0, "fusion_lat": 0.0, "lat": 38.90424466666666, "bike_id": "220b1871fb7074f5dabe3c5290181a32", "fusion_lon": 0.0}, {"rental_uris": {"ios": "https://dc.lft.to/lastmile_qr_scan", "android": "https://dc.lft.to/lastmile_qr_scan"}, "type": "electric_scooter", "name": "0c0e6cc2d14936f1156dbb1d76995a2f", "is_reserved": 0, "lon": -77.03058283333333, "is_disabled": 0, "fusion_lat": 0.0, "lat": 38.924660833333334, "bike_id": "0c0e6cc2d14936f1156dbb1d76995a2f", "fusion_lon": 0.0}, {"rental_uris": {"ios": "https://dc.lft.to/lastmile_qr_scan", "android": "https://dc.lft.to/lastmile_qr_scan"}, "type": "electric_scooter", "name": "1f39ae61aea8ac8f8e3ea0143f3fcfac", "is_reserved": 0, "lon": -77.0352315, "is_disabled": 0, "fusion_lat": 0.0, "lat": 38.92146316666667, "bike_id": "1f39ae61aea8ac8f8e3ea0143f3fcfac", "fusion_lon": 0.0}, {"rental_uris": {"ios": "https://dc.lft.to/lastmile_qr_scan", "android": "https://dc.lft.to/lastmile_qr_scan"}, "type": "electric_scooter", "name": "dedfba970428d6ae2fb334186d70298a", "is_reserved": 0, "lon": -77.01803816666667, "is_disabled": 0, "fusion_lat": 0.0, "lat": 38.91987683333333, "bike_id": "dedfba970428d6ae2fb334186d70298a", "fusion_lon": 0.0}, {"rental_uris": {"ios": "https://dc.lft.to/lastmile_qr_scan", "android": "https://dc.lft.to/lastmile_qr_scan"}, "type": "electric_scooter", "name": "ee073e5ac14f61f0b204d605a1823f00", "is_reserved": 0, "lon": -77.05569116666666, "is_disabled": 0, "fusion_lat": 0.0, "lat": 38.89998333333333, "bike_id": "ee073e5ac14f61f0b204d605a1823f00", "fusion_lon": 0.0}, {"rental_uris": {"ios": "https://dc.lft.to/lastmile_qr_scan", "android": "https://dc.lft.to/lastmile_qr_scan"}, "type": "electric_scooter", "name": "b518321dfae04b1095620284b41a48ea", "is_reserved": 0, "lon": -76.95195916666667, "is_disabled": 0, "fusion_lat": 0.0, "lat": 38.9050875, "bike_id": "b518321dfae04b1095620284b41a48ea", "fusion_lon": 0.0}, {"rental_uris": {"ios": "https://dc.lft.to/lastmile_qr_scan", "android": "https://dc.lft.to/lastmile_qr_scan"}, "type": "electric_bike", "name": "445950fd09cb9c4c93b6b1b8242705fc", "is_reserved": 0, "lon": -76.93745783333334, "is_disabled": 0, "fusion_lat": 0.0, "lat": 38.8714405, "bike_id": "445950fd09cb9c4c93b6b1b8242705fc", "fusion_lon": 0.0}, {"rental_uris": {"ios": "https://dc.lft.to/lastmile_qr_scan", "android": "https://dc.lft.to/lastmile_qr_scan"}, "type": "electric_scooter", "name": "a34a3c7e716fc29ee0c7d3318c57556d", "is_reserved": 0, "lon": -76.99931766666667, "is_disabled": 0, "fusion_lat": 0.0, "lat": 38.957524666666664, "bike_id": "a34a3c7e716fc29ee0c7d3318c57556d", "fusion_lon": 0.0}, {"rental_uris": {"ios": "https://dc.lft.to/lastmile_qr_scan", "android": "https://dc.lft.to/lastmile_qr_scan"}, "type": "electric_scooter", "name": "79c486a27fa94cf029f4e7260b98c1d1", "is_reserved": 0, "lon": -77.03281283333334, "is_disabled": 0, "fusion_lat": 0.0, "lat": 38.9041765, "bike_id": "79c486a27fa94cf029f4e7260b98c1d1", "fusion_lon": 0.0}, {"rental_uris": {"ios": "https://dc.lft.to/lastmile_qr_scan", "android": "https://dc.lft.to/lastmile_qr_scan"}, "type": "electric_scooter", "name": "8c973d35a31f1e1e3dcff74e210d3aaa", "is_reserved": 0, "lon": -77.04400783333334, "is_disabled": 0, "fusion_lat": 0.0, "lat": 38.929521333333334, "bike_id": "8c973d35a31f1e1e3dcff74e210d3aaa", "fusion_lon": 0.0}, {"rental_uris": {"ios": "https://dc.lft.to/lastmile_qr_scan", "android": "https://dc.lft.to/lastmile_qr_scan"}, "type": "electric_scooter", "name": "f47c7ad8bb6500e9d55d4afa74b01586", "is_reserved": 0, "lon": -77.007824, "is_disabled": 0, "fusion_lat": 0.0, "lat": 38.897284166666665, "bike_id": "f47c7ad8bb6500e9d55d4afa74b01586", "fusion_lon": 0.0}, {"rental_uris": {"ios": "https://dc.lft.to/lastmile_qr_scan", "android": "https://dc.lft.to/lastmile_qr_scan"}, "type": "electric_scooter", "name": "22aa5dcf6f57cf0aacaa0a66bc7c9378", "is_reserved": 0, "lon": -77.037777, "is_disabled": 0, "fusion_lat": 0.0, "lat": 38.93965333333333, "bike_id": "22aa5dcf6f57cf0aacaa0a66bc7c9378", "fusion_lon": 0.0}, {"rental_uris": {"ios": "https://dc.lft.to/lastmile_qr_scan", "android": "https://dc.lft.to/lastmile_qr_scan"}, "type": "electric_scooter", "name": "bf29f24112dc0029c4dd0b5f158268a0", "is_reserved": 0, "lon": -77.01917666666667, "is_disabled": 0, "fusion_lat": 0.0, "lat": 38.90234316666667, "bike_id": "bf29f24112dc0029c4dd0b5f158268a0", "fusion_lon": 0.0}, {"rental_uris": {"ios": "https://dc.lft.to/lastmile_qr_scan", "android": "https://dc.lft.to/lastmile_qr_scan"}, "type": "electric_scooter", "name": "5bb85bb9ea978b951e2f488a7dec1437", "is_reserved": 0, "lon": -77.041411, "is_disabled": 0, "fusion_lat": 0.0, "lat": 38.92289533333334, "bike_id": "5bb85bb9ea978b951e2f488a7dec1437", "fusion_lon": 0.0}, {"rental_uris": {"ios": "https://dc.lft.to/lastmile_qr_scan", "android": "https://dc.lft.to/lastmile_qr_scan"}, "type": "electric_scooter", "name": "135cf78e33d8dc18b74c7c85f9797757", "is_reserved": 0, "lon": -77.02709583333333, "is_disabled": 0, "fusion_lat": 0.0, "lat": 38.89729166666667, "bike_id": "135cf78e33d8dc18b74c7c85f9797757", "fusion_lon": 0.0}, {"rental_uris": {"ios": "https://dc.lft.to/lastmile_qr_scan", "android": "https://dc.lft.to/lastmile_qr_scan"}, "type": "electric_scooter", "name": "0342d133f94b1ac927216f0c17be051f", "is_reserved": 0, "lon": -77.0220775, "is_disabled": 0, "fusion_lat": 0.0, "lat": 38.88726116666667, "bike_id": "0342d133f94b1ac927216f0c17be051f", "fusion_lon": 0.0}, {"rental_uris": {"ios": "https://dc.lft.to/lastmile_qr_scan", "android": "https://dc.lft.to/lastmile_qr_scan"}, "type": "electric_scooter", "name": "dc76005b69b741e62c9f3ec0b6ad7b68", "is_reserved": 0, "lon": -77.00926533333333, "is_disabled": 0, "fusion_lat": 0.0, "lat": 38.89975916666667, "bike_id": "dc76005b69b741e62c9f3ec0b6ad7b68", "fusion_lon": 0.0}, {"rental_uris": {"ios": "https://dc.lft.to/lastmile_qr_scan", "android": "https://dc.lft.to/lastmile_qr_scan"}, "type": "electric_scooter", "name": "527f1f1e2173ec4c4ddaf939501770b6", "is_reserved": 0, "lon": -77.04696033333333, "is_disabled": 0, "fusion_lat": 0.0, "lat": 38.921658, "bike_id": "527f1f1e2173ec4c4ddaf939501770b6", "fusion_lon": 0.0}, {"rental_uris": {"ios": "https://dc.lft.to/lastmile_qr_scan", "android": "https://dc.lft.to/lastmile_qr_scan"}, "type": "electric_scooter", "name": "8e8bb6ee9c72f3b45c7b00e6c807cb1e", "is_reserved": 0, "lon": -77.03944083333333, "is_disabled": 0, "fusion_lat": 0.0, "lat": 38.898458, "bike_id": "8e8bb6ee9c72f3b45c7b00e6c807cb1e", "fusion_lon": 0.0}, {"rental_uris": {"ios": "https://dc.lft.to/lastmile_qr_scan", "android": "https://dc.lft.to/lastmile_qr_scan"}, "type": "electric_bike", "name": "16a84104ebe91c98306030180ae4a96e", "is_reserved": 0, "lon": -76.984643, "is_disabled": 0, "fusion_lat": 0.0, "lat": 38.90967033333333, "bike_id": "16a84104ebe91c98306030180ae4a96e", "fusion_lon": 0.0}, {"rental_uris": {"ios": "https://dc.lft.to/lastmile_qr_scan", "android": "https://dc.lft.to/lastmile_qr_scan"}, "type": "electric_scooter", "name": "b95d9dae1227a2675934a4d5b49a09d2", "is_reserved": 0, "lon": -77.02702466666666, "is_disabled": 0, "fusion_lat": 0.0, "lat": 38.902348333333336, "bike_id": "b95d9dae1227a2675934a4d5b49a09d2", "fusion_lon": 0.0}, {"rental_uris": {"ios": "https://dc.lft.to/lastmile_qr_scan", "android": "https://dc.lft.to/lastmile_qr_scan"}, "type": "electric_scooter", "name": "abbc7063259419b9e8d8d663a9f2efb5", "is_reserved": 0, "lon": -77.02518616666667, "is_disabled": 0, "fusion_lat": 0.0, "lat": 38.940047, "bike_id": "abbc7063259419b9e8d8d663a9f2efb5", "fusion_lon": 0.0}, {"rental_uris": {"ios": "https://dc.lft.to/lastmile_qr_scan", "android": "https://dc.lft.to/lastmile_qr_scan"}, "type": "electric_bike", "name": "0396b564f5abda03538d5435c9c3ab43", "is_reserved": 0, "lon": -76.95757216666667, "is_disabled": 0, "fusion_lat": 0.0, "lat": 38.88482883333333, "bike_id": "0396b564f5abda03538d5435c9c3ab43", "fusion_lon": 0.0}, {"rental_uris": {"ios": "https://dc.lft.to/lastmile_qr_scan", "android": "https://dc.lft.to/lastmile_qr_scan"}, "type": "electric_scooter", "name": "5abb9e414f7d91a0210f74e514bbdb9b", "is_reserved": 0, "lon": -77.00367533333333, "is_disabled": 0, "fusion_lat": 0.0, "lat": 38.89902766666667, "bike_id": "5abb9e414f7d91a0210f74e514bbdb9b", "fusion_lon": 0.0}, {"rental_uris": {"ios": "https://dc.lft.to/lastmile_qr_scan", "android": "https://dc.lft.to/lastmile_qr_scan"}, "type": "electric_scooter", "name": "08ffbbb3a94602e0173a198a7847d07c", "is_reserved": 0, "lon": -77.03130316666666, "is_disabled": 0, "fusion_lat": 0.0, "lat": 38.923648166666666, "bike_id": "08ffbbb3a94602e0173a198a7847d07c", "fusion_lon": 0.0}, {"rental_uris": {"ios": "https://dc.lft.to/lastmile_qr_scan", "android": "https://dc.lft.to/lastmile_qr_scan"}, "type": "electric_scooter", "name": "bc5c596fd013df6149c615617aa3a299", "is_reserved": 0, "lon": -77.04441366666667, "is_disabled": 0, "fusion_lat": 0.0, "lat": 38.90129116666667, "bike_id": "bc5c596fd013df6149c615617aa3a299", "fusion_lon": 0.0}, {"rental_uris": {"ios": "https://dc.lft.to/lastmile_qr_scan", "android": "https://dc.lft.to/lastmile_qr_scan"}, "type": "electric_scooter", "name": "699b17740b9352a272ddee552c3001f3", "is_reserved": 0, "lon": -77.051208, "is_disabled": 0, "fusion_lat": 0.0, "lat": 38.925270166666664, "bike_id": "699b17740b9352a272ddee552c3001f3", "fusion_lon": 0.0}, {"rental_uris": {"ios": "https://dc.lft.to/lastmile_qr_scan", "android": "https://dc.lft.to/lastmile_qr_scan"}, "type": "electric_scooter", "name": "d6dd49d300b7dd36fa52e97e45c0c15d", "is_reserved": 0, "lon": -77.04687233333334, "is_disabled": 0, "fusion_lat": 0.0, "lat": 38.89219416666667, "bike_id": "d6dd49d300b7dd36fa52e97e45c0c15d", "fusion_lon": 0.0}, {"rental_uris": {"ios": "https://dc.lft.to/lastmile_qr_scan", "android": "https://dc.lft.to/lastmile_qr_scan"}, "type": "electric_scooter", "name": "7e575cad6458e1d496f83d0d7e41d78c", "is_reserved": 0, "lon": -77.04671066666667, "is_disabled": 0, "fusion_lat": 0.0, "lat": 38.8928405, "bike_id": "7e575cad6458e1d496f83d0d7e41d78c", "fusion_lon": 0.0}, {"rental_uris": {"ios": "https://dc.lft.to/lastmile_qr_scan", "android": "https://dc.lft.to/lastmile_qr_scan"}, "type": "electric_scooter", "name": "85c2d995667155e1e079da8618fe3d7c", "is_reserved": 0, "lon": -77.0395795, "is_disabled": 0, "fusion_lat": 0.0, "lat": 38.89243866666666, "bike_id": "85c2d995667155e1e079da8618fe3d7c", "fusion_lon": 0.0}, {"rental_uris": {"ios": "https://dc.lft.to/lastmile_qr_scan", "android": "https://dc.lft.to/lastmile_qr_scan"}, "type": "electric_scooter", "name": "ea3815417ce15ed4a04dcf59769be67a", "is_reserved": 0, "lon": -77.00380716666666, "is_disabled": 0, "fusion_lat": 0.0, "lat": 38.94064916666667, "bike_id": "ea3815417ce15ed4a04dcf59769be67a", "fusion_lon": 0.0}, {"rental_uris": {"ios": "https://dc.lft.to/lastmile_qr_scan", "android": "https://dc.lft.to/lastmile_qr_scan"}, "type": "electric_scooter", "name": "0c93584c187dc39f8825a1a9493e419b", "is_reserved": 0, "lon": -77.03443566666667, "is_disabled": 0, "fusion_lat": 0.0, "lat": 38.9179365, "bike_id": "0c93584c187dc39f8825a1a9493e419b", "fusion_lon": 0.0}, {"rental_uris": {"ios": "https://dc.lft.to/lastmile_qr_scan", "android": "https://dc.lft.to/lastmile_qr_scan"}, "type": "electric_scooter", "name": "1e68959419c2ea7e51b39783eff99913", "is_reserved": 0, "lon": -77.02947633333333, "is_disabled": 0, "fusion_lat": 0.0, "lat": 38.9072285, "bike_id": "1e68959419c2ea7e51b39783eff99913", "fusion_lon": 0.0}, {"rental_uris": {"ios": "https://dc.lft.to/lastmile_qr_scan", "android": "https://dc.lft.to/lastmile_qr_scan"}, "type": "electric_scooter", "name": "a64cfb0e14e5ee2fff03a4dffae4de0d", "is_reserved": 0, "lon": -77.04671983333333, "is_disabled": 0, "fusion_lat": 0.0, "lat": 38.905473666666666, "bike_id": "a64cfb0e14e5ee2fff03a4dffae4de0d", "fusion_lon": 0.0}, {"rental_uris": {"ios": "https://dc.lft.to/lastmile_qr_scan", "android": "https://dc.lft.to/lastmile_qr_scan"}, "type": "electric_scooter", "name": "e3886f7825e859d984f90e5f8be807e4", "is_reserved": 0, "lon": -77.04470166666667, "is_disabled": 0, "fusion_lat": 0.0, "lat": 38.922869666666664, "bike_id": "e3886f7825e859d984f90e5f8be807e4", "fusion_lon": 0.0}, {"rental_uris": {"ios": "https://dc.lft.to/lastmile_qr_scan", "android": "https://dc.lft.to/lastmile_qr_scan"}, "type": "electric_scooter", "name": "cee1ae4b0d6d20cce9f2619267f3f6b0", "is_reserved": 0, "lon": -77.06601116666667, "is_disabled": 0, "fusion_lat": 0.0, "lat": 38.9110715, "bike_id": "cee1ae4b0d6d20cce9f2619267f3f6b0", "fusion_lon": 0.0}, {"rental_uris": {"ios": "https://dc.lft.to/lastmile_qr_scan", "android": "https://dc.lft.to/lastmile_qr_scan"}, "type": "electric_bike", "name": "ad7b2a1eb5105495e25f847ca4b3b7e0", "is_reserved": 0, "lon": -77.05516866666666, "is_disabled": 0, "fusion_lat": 0.0, "lat": 38.94407366666667, "bike_id": "ad7b2a1eb5105495e25f847ca4b3b7e0", "fusion_lon": 0.0}, {"rental_uris": {"ios": "https://dc.lft.to/lastmile_qr_scan", "android": "https://dc.lft.to/lastmile_qr_scan"}, "type": "electric_bike", "name": "d2b1d30cdcf74a11a7deede8a9a83b2b", "is_reserved": 0, "lon": -76.99919616666666, "is_disabled": 0, "fusion_lat": 0.0, "lat": 38.99466433333333, "bike_id": "d2b1d30cdcf74a11a7deede8a9a83b2b", "fusion_lon": 0.0}, {"rental_uris": {"ios": "https://dc.lft.to/lastmile_qr_scan", "android": "https://dc.lft.to/lastmile_qr_scan"}, "type": "electric_scooter", "name": "5f9ac54f4c2912f0f155c8fb2957a25b", "is_reserved": 0, "lon": -77.02781416666667, "is_disabled": 0, "fusion_lat": 0.0, "lat": 38.96241933333334, "bike_id": "5f9ac54f4c2912f0f155c8fb2957a25b", "fusion_lon": 0.0}, {"rental_uris": {"ios": "https://dc.lft.to/lastmile_qr_scan", "android": "https://dc.lft.to/lastmile_qr_scan"}, "type": "electric_scooter", "name": "f08832dee27ebcd406ac245d77a2e69d", "is_reserved": 0, "lon": -77.029766, "is_disabled": 0, "fusion_lat": 0.0, "lat": 38.90503116666667, "bike_id": "f08832dee27ebcd406ac245d77a2e69d", "fusion_lon": 0.0}, {"rental_uris": {"ios": "https://dc.lft.to/lastmile_qr_scan", "android": "https://dc.lft.to/lastmile_qr_scan"}, "type": "electric_scooter", "name": "e9cfd112362bac0f444fe80388d978e4", "is_reserved": 0, "lon": -77.042098, "is_disabled": 0, "fusion_lat": 0.0, "lat": 38.903703666666665, "bike_id": "e9cfd112362bac0f444fe80388d978e4", "fusion_lon": 0.0}, {"rental_uris": {"ios": "https://dc.lft.to/lastmile_qr_scan", "android": "https://dc.lft.to/lastmile_qr_scan"}, "type": "electric_scooter", "name": "9f9f83967518e7ddf1240c3585869bb6", "is_reserved": 0, "lon": -77.00984716666666, "is_disabled": 0, "fusion_lat": 0.0, "lat": 38.90559233333333, "bike_id": "9f9f83967518e7ddf1240c3585869bb6", "fusion_lon": 0.0}, {"rental_uris": {"ios": "https://dc.lft.to/lastmile_qr_scan", "android": "https://dc.lft.to/lastmile_qr_scan"}, "type": "electric_scooter", "name": "c240bc762152408a1a2adca51b262412", "is_reserved": 0, "lon": -77.00558366666667, "is_disabled": 0, "fusion_lat": 0.0, "lat": 38.874634666666665, "bike_id": "c240bc762152408a1a2adca51b262412", "fusion_lon": 0.0}, {"rental_uris": {"ios": "https://dc.lft.to/lastmile_qr_scan", "android": "https://dc.lft.to/lastmile_qr_scan"}, "type": "electric_scooter", "name": "a6425a22d9157082045ead1942481b48", "is_reserved": 0, "lon": -77.02475083333333, "is_disabled": 0, "fusion_lat": 0.0, "lat": 38.91815616666667, "bike_id": "a6425a22d9157082045ead1942481b48", "fusion_lon": 0.0}, {"rental_uris": {"ios": "https://dc.lft.to/lastmile_qr_scan", "android": "https://dc.lft.to/lastmile_qr_scan"}, "type": "electric_scooter", "name": "25d572a81fcd8f72b663d5ecac4aacda", "is_reserved": 0, "lon": -77.00888433333333, "is_disabled": 0, "fusion_lat": 0.0, "lat": 38.917114833333336, "bike_id": "25d572a81fcd8f72b663d5ecac4aacda", "fusion_lon": 0.0}, {"rental_uris": {"ios": "https://dc.lft.to/lastmile_qr_scan", "android": "https://dc.lft.to/lastmile_qr_scan"}, "type": "electric_scooter", "name": "5c967ca55335538e6df444a7199e8cb7", "is_reserved": 0, "lon": -77.03068233333333, "is_disabled": 0, "fusion_lat": 0.0, "lat": 38.93450816666667, "bike_id": "5c967ca55335538e6df444a7199e8cb7", "fusion_lon": 0.0}, {"rental_uris": {"ios": "https://dc.lft.to/lastmile_qr_scan", "android": "https://dc.lft.to/lastmile_qr_scan"}, "type": "electric_scooter", "name": "b87dd895e339a964726ef73522bdd6b2", "is_reserved": 0, "lon": -76.93695366666667, "is_disabled": 0, "fusion_lat": 0.0, "lat": 38.890213833333334, "bike_id": "b87dd895e339a964726ef73522bdd6b2", "fusion_lon": 0.0}, {"rental_uris": {"ios": "https://dc.lft.to/lastmile_qr_scan", "android": "https://dc.lft.to/lastmile_qr_scan"}, "type": "electric_scooter", "name": "9be3acfcaa8a8eb2951b587260c0caa9", "is_reserved": 0, "lon": -77.031969, "is_disabled": 0, "fusion_lat": 0.0, "lat": 38.9082845, "bike_id": "9be3acfcaa8a8eb2951b587260c0caa9", "fusion_lon": 0.0}, {"rental_uris": {"ios": "https://dc.lft.to/lastmile_qr_scan", "android": "https://dc.lft.to/lastmile_qr_scan"}, "type": "electric_scooter", "name": "61444950d1a70d84953bc762a76afb5a", "is_reserved": 0, "lon": -77.02229033333333, "is_disabled": 0, "fusion_lat": 0.0, "lat": 38.92084233333333, "bike_id": "61444950d1a70d84953bc762a76afb5a", "fusion_lon": 0.0}, {"rental_uris": {"ios": "https://dc.lft.to/lastmile_qr_scan", "android": "https://dc.lft.to/lastmile_qr_scan"}, "type": "electric_scooter", "name": "0be85561dac482da3deea608660ee150", "is_reserved": 0, "lon": -77.06416533333334, "is_disabled": 0, "fusion_lat": 0.0, "lat": 38.91399783333333, "bike_id": "0be85561dac482da3deea608660ee150", "fusion_lon": 0.0}, {"rental_uris": {"ios": "https://dc.lft.to/lastmile_qr_scan", "android": "https://dc.lft.to/lastmile_qr_scan"}, "type": "electric_scooter", "name": "87cf8de807fdbea80d32fc1f9ee5c178", "is_reserved": 0, "lon": -77.0206835, "is_disabled": 0, "fusion_lat": 0.0, "lat": 38.93110433333333, "bike_id": "87cf8de807fdbea80d32fc1f9ee5c178", "fusion_lon": 0.0}, {"rental_uris": {"ios": "https://dc.lft.to/lastmile_qr_scan", "android": "https://dc.lft.to/lastmile_qr_scan"}, "type": "electric_scooter", "name": "0c0a311b906a29b2eababb2dfaf32bea", "is_reserved": 0, "lon": -77.04367016666667, "is_disabled": 0, "fusion_lat": 0.0, "lat": 38.892178666666666, "bike_id": "0c0a311b906a29b2eababb2dfaf32bea", "fusion_lon": 0.0}, {"rental_uris": {"ios": "https://dc.lft.to/lastmile_qr_scan", "android": "https://dc.lft.to/lastmile_qr_scan"}, "type": "electric_scooter", "name": "78377d79920aeee20688fba1ad6f68f1", "is_reserved": 0, "lon": -77.03248166666667, "is_disabled": 0, "fusion_lat": 0.0, "lat": 38.93252416666667, "bike_id": "78377d79920aeee20688fba1ad6f68f1", "fusion_lon": 0.0}, {"rental_uris": {"ios": "https://dc.lft.to/lastmile_qr_scan", "android": "https://dc.lft.to/lastmile_qr_scan"}, "type": "electric_scooter", "name": "31ad0ce5529c48443b9ccdf902284d3f", "is_reserved": 0, "lon": -77.04549183333333, "is_disabled": 0, "fusion_lat": 0.0, "lat": 38.913173666666665, "bike_id": "31ad0ce5529c48443b9ccdf902284d3f", "fusion_lon": 0.0}, {"rental_uris": {"ios": "https://dc.lft.to/lastmile_qr_scan", "android": "https://dc.lft.to/lastmile_qr_scan"}, "type": "electric_scooter", "name": "5716fed1dc1761c8ffb1a61e085b6f19", "is_reserved": 0, "lon": -77.02503983333334, "is_disabled": 0, "fusion_lat": 0.0, "lat": 38.94210616666667, "bike_id": "5716fed1dc1761c8ffb1a61e085b6f19", "fusion_lon": 0.0}, {"rental_uris": {"ios": "https://dc.lft.to/lastmile_qr_scan", "android": "https://dc.lft.to/lastmile_qr_scan"}, "type": "electric_bike", "name": "9664a7a157e17e345220a5403d5563ee", "is_reserved": 0, "lon": -76.99993516666666, "is_disabled": 0, "fusion_lat": 0.0, "lat": 38.96401933333333, "bike_id": "9664a7a157e17e345220a5403d5563ee", "fusion_lon": 0.0}, {"rental_uris": {"ios": "https://dc.lft.to/lastmile_qr_scan", "android": "https://dc.lft.to/lastmile_qr_scan"}, "type": "electric_scooter", "name": "8d3fc09995a1bb709d40767b999bea80", "is_reserved": 0, "lon": -77.01201966666666, "is_disabled": 0, "fusion_lat": 0.0, "lat": 38.911070333333335, "bike_id": "8d3fc09995a1bb709d40767b999bea80", "fusion_lon": 0.0}, {"rental_uris": {"ios": "https://dc.lft.to/lastmile_qr_scan", "android": "https://dc.lft.to/lastmile_qr_scan"}, "type": "electric_scooter", "name": "f99af7b089aa65556278fac3b5def235", "is_reserved": 0, "lon": -77.03700533333334, "is_disabled": 0, "fusion_lat": 0.0, "lat": 38.927767833333334, "bike_id": "f99af7b089aa65556278fac3b5def235", "fusion_lon": 0.0}, {"rental_uris": {"ios": "https://dc.lft.to/lastmile_qr_scan", "android": "https://dc.lft.to/lastmile_qr_scan"}, "type": "electric_scooter", "name": "208181f64f9dac24b0a7b1537e91bf69", "is_reserved": 0, "lon": -77.00721566666667, "is_disabled": 0, "fusion_lat": 0.0, "lat": 38.91107783333333, "bike_id": "208181f64f9dac24b0a7b1537e91bf69", "fusion_lon": 0.0}, {"rental_uris": {"ios": "https://dc.lft.to/lastmile_qr_scan", "android": "https://dc.lft.to/lastmile_qr_scan"}, "type": "electric_scooter", "name": "2d04c4bb49c30ad10b18aaa36757bd9c", "is_reserved": 0, "lon": -77.02580633333334, "is_disabled": 0, "fusion_lat": 0.0, "lat": 38.9252725, "bike_id": "2d04c4bb49c30ad10b18aaa36757bd9c", "fusion_lon": 0.0}, {"rental_uris": {"ios": "https://dc.lft.to/lastmile_qr_scan", "android": "https://dc.lft.to/lastmile_qr_scan"}, "type": "electric_scooter", "name": "691f38ddd269221e153f732e96fbb42c", "is_reserved": 0, "lon": -77.038269, "is_disabled": 0, "fusion_lat": 0.0, "lat": 38.9125375, "bike_id": "691f38ddd269221e153f732e96fbb42c", "fusion_lon": 0.0}, {"rental_uris": {"ios": "https://dc.lft.to/lastmile_qr_scan", "android": "https://dc.lft.to/lastmile_qr_scan"}, "type": "electric_bike", "name": "5cdfd5a02b3247058e8a9955c8c2a872", "is_reserved": 0, "lon": -76.9777045, "is_disabled": 0, "fusion_lat": 0.0, "lat": 38.85719816666667, "bike_id": "5cdfd5a02b3247058e8a9955c8c2a872", "fusion_lon": 0.0}, {"rental_uris": {"ios": "https://dc.lft.to/lastmile_qr_scan", "android": "https://dc.lft.to/lastmile_qr_scan"}, "type": "electric_scooter", "name": "83885bcc9b1da48310c1e306d6cceca3", "is_reserved": 0, "lon": -77.04382516666666, "is_disabled": 0, "fusion_lat": 0.0, "lat": 38.92964583333333, "bike_id": "83885bcc9b1da48310c1e306d6cceca3", "fusion_lon": 0.0}, {"rental_uris": {"ios": "https://dc.lft.to/lastmile_qr_scan", "android": "https://dc.lft.to/lastmile_qr_scan"}, "type": "electric_scooter", "name": "5272d1d2869ad1493d875f7d77bdfc25", "is_reserved": 0, "lon": -77.053245, "is_disabled": 0, "fusion_lat": 0.0, "lat": 38.90641883333333, "bike_id": "5272d1d2869ad1493d875f7d77bdfc25", "fusion_lon": 0.0}, {"rental_uris": {"ios": "https://dc.lft.to/lastmile_qr_scan", "android": "https://dc.lft.to/lastmile_qr_scan"}, "type": "electric_scooter", "name": "cb74e839001ce3b48e109439aece21a9", "is_reserved": 0, "lon": -77.00596333333333, "is_disabled": 0, "fusion_lat": 0.0, "lat": 38.905499, "bike_id": "cb74e839001ce3b48e109439aece21a9", "fusion_lon": 0.0}, {"rental_uris": {"ios": "https://dc.lft.to/lastmile_qr_scan", "android": "https://dc.lft.to/lastmile_qr_scan"}, "type": "electric_scooter", "name": "a70a580422d6faab1c5e1094d37408f9", "is_reserved": 0, "lon": -77.05002883333333, "is_disabled": 0, "fusion_lat": 0.0, "lat": 38.900831833333335, "bike_id": "a70a580422d6faab1c5e1094d37408f9", "fusion_lon": 0.0}, {"rental_uris": {"ios": "https://dc.lft.to/lastmile_qr_scan", "android": "https://dc.lft.to/lastmile_qr_scan"}, "type": "electric_scooter", "name": "a1802d6fc54dc772bebf68088e301b8e", "is_reserved": 0, "lon": -77.0338675, "is_disabled": 0, "fusion_lat": 0.0, "lat": 38.90266183333333, "bike_id": "a1802d6fc54dc772bebf68088e301b8e", "fusion_lon": 0.0}, {"rental_uris": {"ios": "https://dc.lft.to/lastmile_qr_scan", "android": "https://dc.lft.to/lastmile_qr_scan"}, "type": "electric_scooter", "name": "a7e8195b67dec1869e6dffaaf5f1d890", "is_reserved": 0, "lon": -77.0296375, "is_disabled": 0, "fusion_lat": 0.0, "lat": 38.9053185, "bike_id": "a7e8195b67dec1869e6dffaaf5f1d890", "fusion_lon": 0.0}, {"rental_uris": {"ios": "https://dc.lft.to/lastmile_qr_scan", "android": "https://dc.lft.to/lastmile_qr_scan"}, "type": "electric_scooter", "name": "14bd16440e1c6b2c6bfb427a1478f188", "is_reserved": 0, "lon": -77.03884533333333, "is_disabled": 0, "fusion_lat": 0.0, "lat": 38.90348383333333, "bike_id": "14bd16440e1c6b2c6bfb427a1478f188", "fusion_lon": 0.0}, {"rental_uris": {"ios": "https://dc.lft.to/lastmile_qr_scan", "android": "https://dc.lft.to/lastmile_qr_scan"}, "type": "electric_scooter", "name": "4d526e8b2cb545418caa11394918f18b", "is_reserved": 0, "lon": -77.00917616666666, "is_disabled": 0, "fusion_lat": 0.0, "lat": 38.9233955, "bike_id": "4d526e8b2cb545418caa11394918f18b", "fusion_lon": 0.0}, {"rental_uris": {"ios": "https://dc.lft.to/lastmile_qr_scan", "android": "https://dc.lft.to/lastmile_qr_scan"}, "type": "electric_scooter", "name": "4928186bf752af11071e3f8844ee4236", "is_reserved": 0, "lon": -77.02882983333333, "is_disabled": 0, "fusion_lat": 0.0, "lat": 38.90440683333333, "bike_id": "4928186bf752af11071e3f8844ee4236", "fusion_lon": 0.0}, {"rental_uris": {"ios": "https://dc.lft.to/lastmile_qr_scan", "android": "https://dc.lft.to/lastmile_qr_scan"}, "type": "electric_scooter", "name": "25496f765a494ffbb7d1651d59aa2bda", "is_reserved": 0, "lon": -77.0231765, "is_disabled": 0, "fusion_lat": 0.0, "lat": 38.91767, "bike_id": "25496f765a494ffbb7d1651d59aa2bda", "fusion_lon": 0.0}, {"rental_uris": {"ios": "https://dc.lft.to/lastmile_qr_scan", "android": "https://dc.lft.to/lastmile_qr_scan"}, "type": "electric_scooter", "name": "429b51a88d6620d47a87ac75f195948e", "is_reserved": 0, "lon": -77.03665416666666, "is_disabled": 0, "fusion_lat": 0.0, "lat": 38.91723566666667, "bike_id": "429b51a88d6620d47a87ac75f195948e", "fusion_lon": 0.0}, {"rental_uris": {"ios": "https://dc.lft.to/lastmile_qr_scan", "android": "https://dc.lft.to/lastmile_qr_scan"}, "type": "electric_scooter", "name": "a7efa6c988e0722a03db7991afa0bffc", "is_reserved": 0, "lon": -77.02612616666667, "is_disabled": 0, "fusion_lat": 0.0, "lat": 38.951841, "bike_id": "a7efa6c988e0722a03db7991afa0bffc", "fusion_lon": 0.0}, {"rental_uris": {"ios": "https://dc.lft.to/lastmile_qr_scan", "android": "https://dc.lft.to/lastmile_qr_scan"}, "type": "electric_scooter", "name": "589e8ce9cdd385743df7d821e4fe9272", "is_reserved": 0, "lon": -77.02570033333333, "is_disabled": 0, "fusion_lat": 0.0, "lat": 38.88740966666667, "bike_id": "589e8ce9cdd385743df7d821e4fe9272", "fusion_lon": 0.0}, {"rental_uris": {"ios": "https://dc.lft.to/lastmile_qr_scan", "android": "https://dc.lft.to/lastmile_qr_scan"}, "type": "electric_scooter", "name": "914709e4c702fb40463a82cd85ec20aa", "is_reserved": 0, "lon": -77.02504183333333, "is_disabled": 0, "fusion_lat": 0.0, "lat": 38.942056666666666, "bike_id": "914709e4c702fb40463a82cd85ec20aa", "fusion_lon": 0.0}, {"rental_uris": {"ios": "https://dc.lft.to/lastmile_qr_scan", "android": "https://dc.lft.to/lastmile_qr_scan"}, "type": "electric_scooter", "name": "085b1cc43715f9621041f5e85c92e4d8", "is_reserved": 0, "lon": -76.9831725, "is_disabled": 0, "fusion_lat": 0.0, "lat": 38.92586283333333, "bike_id": "085b1cc43715f9621041f5e85c92e4d8", "fusion_lon": 0.0}, {"rental_uris": {"ios": "https://dc.lft.to/lastmile_qr_scan", "android": "https://dc.lft.to/lastmile_qr_scan"}, "type": "electric_bike", "name": "3a0a4fb5ffe3ecf046d3d54a6ae5353c", "is_reserved": 0, "lon": -77.0073125, "is_disabled": 0, "fusion_lat": 0.0, "lat": 38.83243566666667, "bike_id": "3a0a4fb5ffe3ecf046d3d54a6ae5353c", "fusion_lon": 0.0}, {"rental_uris": {"ios": "https://dc.lft.to/lastmile_qr_scan", "android": "https://dc.lft.to/lastmile_qr_scan"}, "type": "electric_scooter", "name": "8fcbefa81fdf266de2aaa0d5eb62e08c", "is_reserved": 0, "lon": -76.99834333333334, "is_disabled": 0, "fusion_lat": 0.0, "lat": 38.89190883333333, "bike_id": "8fcbefa81fdf266de2aaa0d5eb62e08c", "fusion_lon": 0.0}, {"rental_uris": {"ios": "https://dc.lft.to/lastmile_qr_scan", "android": "https://dc.lft.to/lastmile_qr_scan"}, "type": "electric_scooter", "name": "be5625c07e80c0cba4a64b5c342d73ed", "is_reserved": 0, "lon": -77.05624716666667, "is_disabled": 0, "fusion_lat": 0.0, "lat": 38.906873833333336, "bike_id": "be5625c07e80c0cba4a64b5c342d73ed", "fusion_lon": 0.0}, {"rental_uris": {"ios": "https://dc.lft.to/lastmile_qr_scan", "android": "https://dc.lft.to/lastmile_qr_scan"}, "type": "electric_scooter", "name": "7f9cef5f538c39949bfe87a08e10bea5", "is_reserved": 0, "lon": -77.03957366666667, "is_disabled": 0, "fusion_lat": 0.0, "lat": 38.892372, "bike_id": "7f9cef5f538c39949bfe87a08e10bea5", "fusion_lon": 0.0}, {"rental_uris": {"ios": "https://dc.lft.to/lastmile_qr_scan", "android": "https://dc.lft.to/lastmile_qr_scan"}, "type": "electric_scooter", "name": "c9b3db358b6b4fbe9ad8d11c6b7af9d7", "is_reserved": 0, "lon": -77.017541, "is_disabled": 0, "fusion_lat": 0.0, "lat": 38.90255416666667, "bike_id": "c9b3db358b6b4fbe9ad8d11c6b7af9d7", "fusion_lon": 0.0}, {"rental_uris": {"ios": "https://dc.lft.to/lastmile_qr_scan", "android": "https://dc.lft.to/lastmile_qr_scan"}, "type": "electric_bike", "name": "3350d80f7b68303fea383860733eabeb", "is_reserved": 0, "lon": -76.90734033333334, "is_disabled": 0, "fusion_lat": 0.0, "lat": 38.89614983333333, "bike_id": "3350d80f7b68303fea383860733eabeb", "fusion_lon": 0.0}, {"rental_uris": {"ios": "https://dc.lft.to/lastmile_qr_scan", "android": "https://dc.lft.to/lastmile_qr_scan"}, "type": "electric_scooter", "name": "454c5f596e9b95fac061f880b5bcd20a", "is_reserved": 0, "lon": -77.03991516666666, "is_disabled": 0, "fusion_lat": 0.0, "lat": 38.902919833333335, "bike_id": "454c5f596e9b95fac061f880b5bcd20a", "fusion_lon": 0.0}, {"rental_uris": {"ios": "https://dc.lft.to/lastmile_qr_scan", "android": "https://dc.lft.to/lastmile_qr_scan"}, "type": "electric_scooter", "name": "6efc0e1b24ae0ed7f072ca33869deefc", "is_reserved": 0, "lon": -76.9923165, "is_disabled": 0, "fusion_lat": 0.0, "lat": 38.887495333333334, "bike_id": "6efc0e1b24ae0ed7f072ca33869deefc", "fusion_lon": 0.0}, {"rental_uris": {"ios": "https://dc.lft.to/lastmile_qr_scan", "android": "https://dc.lft.to/lastmile_qr_scan"}, "type": "electric_scooter", "name": "2721d8c1f77471dbc6fe3185c84690cd", "is_reserved": 0, "lon": -77.0221235, "is_disabled": 0, "fusion_lat": 0.0, "lat": 38.910080666666666, "bike_id": "2721d8c1f77471dbc6fe3185c84690cd", "fusion_lon": 0.0}, {"rental_uris": {"ios": "https://dc.lft.to/lastmile_qr_scan", "android": "https://dc.lft.to/lastmile_qr_scan"}, "type": "electric_scooter", "name": "088db9d12e1deda2ae3210baa4f0a973", "is_reserved": 0, "lon": -77.0076875, "is_disabled": 0, "fusion_lat": 0.0, "lat": 38.907143833333336, "bike_id": "088db9d12e1deda2ae3210baa4f0a973", "fusion_lon": 0.0}, {"rental_uris": {"ios": "https://dc.lft.to/lastmile_qr_scan", "android": "https://dc.lft.to/lastmile_qr_scan"}, "type": "electric_scooter", "name": "3ee90715f8802d4a12c7d8765a39b364", "is_reserved": 0, "lon": -77.0335815, "is_disabled": 0, "fusion_lat": 0.0, "lat": 38.92881333333333, "bike_id": "3ee90715f8802d4a12c7d8765a39b364", "fusion_lon": 0.0}, {"rental_uris": {"ios": "https://dc.lft.to/lastmile_qr_scan", "android": "https://dc.lft.to/lastmile_qr_scan"}, "type": "electric_scooter", "name": "e73249d415f30ab7c54c704f9dec9924", "is_reserved": 0, "lon": -77.00831533333333, "is_disabled": 0, "fusion_lat": 0.0, "lat": 38.91365583333334, "bike_id": "e73249d415f30ab7c54c704f9dec9924", "fusion_lon": 0.0}, {"rental_uris": {"ios": "https://dc.lft.to/lastmile_qr_scan", "android": "https://dc.lft.to/lastmile_qr_scan"}, "type": "electric_scooter", "name": "1a8a6445c2dbe54f3d0a74fa2872c1c7", "is_reserved": 0, "lon": -77.02232333333333, "is_disabled": 0, "fusion_lat": 0.0, "lat": 38.89222266666667, "bike_id": "1a8a6445c2dbe54f3d0a74fa2872c1c7", "fusion_lon": 0.0}, {"rental_uris": {"ios": "https://dc.lft.to/lastmile_qr_scan", "android": "https://dc.lft.to/lastmile_qr_scan"}, "type": "electric_scooter", "name": "69b5cc38ae5f5364e1512ad3cbc341a7", "is_reserved": 0, "lon": -77.02479516666666, "is_disabled": 0, "fusion_lat": 0.0, "lat": 38.939511, "bike_id": "69b5cc38ae5f5364e1512ad3cbc341a7", "fusion_lon": 0.0}, {"rental_uris": {"ios": "https://dc.lft.to/lastmile_qr_scan", "android": "https://dc.lft.to/lastmile_qr_scan"}, "type": "electric_scooter", "name": "3e59e64255391ecdae7a75fe7af3b138", "is_reserved": 0, "lon": -77.03181333333333, "is_disabled": 0, "fusion_lat": 0.0, "lat": 38.88739433333333, "bike_id": "3e59e64255391ecdae7a75fe7af3b138", "fusion_lon": 0.0}, {"rental_uris": {"ios": "https://dc.lft.to/lastmile_qr_scan", "android": "https://dc.lft.to/lastmile_qr_scan"}, "type": "electric_scooter", "name": "b500976b513ea7d9d8ae20b57d060568", "is_reserved": 0, "lon": -77.046733, "is_disabled": 0, "fusion_lat": 0.0, "lat": 38.89619483333333, "bike_id": "b500976b513ea7d9d8ae20b57d060568", "fusion_lon": 0.0}, {"rental_uris": {"ios": "https://dc.lft.to/lastmile_qr_scan", "android": "https://dc.lft.to/lastmile_qr_scan"}, "type": "electric_scooter", "name": "4319338bc46e886d5323cdd9b541a52b", "is_reserved": 0, "lon": -77.0324865, "is_disabled": 0, "fusion_lat": 0.0, "lat": 38.917118333333335, "bike_id": "4319338bc46e886d5323cdd9b541a52b", "fusion_lon": 0.0}, {"rental_uris": {"ios": "https://dc.lft.to/lastmile_qr_scan", "android": "https://dc.lft.to/lastmile_qr_scan"}, "type": "electric_scooter", "name": "5c134a0847bbdb88e9ec5910982c678f", "is_reserved": 0, "lon": -77.0241685, "is_disabled": 0, "fusion_lat": 0.0, "lat": 38.929994666666666, "bike_id": "5c134a0847bbdb88e9ec5910982c678f", "fusion_lon": 0.0}, {"rental_uris": {"ios": "https://dc.lft.to/lastmile_qr_scan", "android": "https://dc.lft.to/lastmile_qr_scan"}, "type": "electric_bike", "name": "9aa334be04453cca31e6b745a7a5522f", "is_reserved": 0, "lon": -77.06948783333333, "is_disabled": 0, "fusion_lat": 0.0, "lat": 38.836256666666664, "bike_id": "9aa334be04453cca31e6b745a7a5522f", "fusion_lon": 0.0}, {"rental_uris": {"ios": "https://dc.lft.to/lastmile_qr_scan", "android": "https://dc.lft.to/lastmile_qr_scan"}, "type": "electric_scooter", "name": "9ad30c301dbea5672a4895dd8f201fb4", "is_reserved": 0, "lon": -77.006959, "is_disabled": 0, "fusion_lat": 0.0, "lat": 38.877295, "bike_id": "9ad30c301dbea5672a4895dd8f201fb4", "fusion_lon": 0.0}, {"rental_uris": {"ios": "https://dc.lft.to/lastmile_qr_scan", "android": "https://dc.lft.to/lastmile_qr_scan"}, "type": "electric_scooter", "name": "280d29c0b779d2ea5318f0fd60da0cd8", "is_reserved": 0, "lon": -77.04818133333333, "is_disabled": 0, "fusion_lat": 0.0, "lat": 38.914882, "bike_id": "280d29c0b779d2ea5318f0fd60da0cd8", "fusion_lon": 0.0}, {"rental_uris": {"ios": "https://dc.lft.to/lastmile_qr_scan", "android": "https://dc.lft.to/lastmile_qr_scan"}, "type": "electric_scooter", "name": "be0159fa44f6a3c24449d075c6b4bbba", "is_reserved": 0, "lon": -76.9918315, "is_disabled": 0, "fusion_lat": 0.0, "lat": 38.90500733333333, "bike_id": "be0159fa44f6a3c24449d075c6b4bbba", "fusion_lon": 0.0}, {"rental_uris": {"ios": "https://dc.lft.to/lastmile_qr_scan", "android": "https://dc.lft.to/lastmile_qr_scan"}, "type": "electric_bike", "name": "dbb30cb35a1e4500eddc108b50b09de1", "is_reserved": 0, "lon": -76.99354716666667, "is_disabled": 0, "fusion_lat": 0.0, "lat": 38.84502533333333, "bike_id": "dbb30cb35a1e4500eddc108b50b09de1", "fusion_lon": 0.0}, {"rental_uris": {"ios": "https://dc.lft.to/lastmile_qr_scan", "android": "https://dc.lft.to/lastmile_qr_scan"}, "type": "electric_scooter", "name": "879769dad75cbb4d1b78988417221b86", "is_reserved": 0, "lon": -77.0467175, "is_disabled": 0, "fusion_lat": 0.0, "lat": 38.905484333333334, "bike_id": "879769dad75cbb4d1b78988417221b86", "fusion_lon": 0.0}, {"rental_uris": {"ios": "https://dc.lft.to/lastmile_qr_scan", "android": "https://dc.lft.to/lastmile_qr_scan"}, "type": "electric_scooter", "name": "535d89fe3c060b9a193d1759fdc0e4a7", "is_reserved": 0, "lon": -76.9958935, "is_disabled": 0, "fusion_lat": 0.0, "lat": 38.9094065, "bike_id": "535d89fe3c060b9a193d1759fdc0e4a7", "fusion_lon": 0.0}, {"rental_uris": {"ios": "https://dc.lft.to/lastmile_qr_scan", "android": "https://dc.lft.to/lastmile_qr_scan"}, "type": "electric_scooter", "name": "5e5b1c4a3a21669cb28f3f41d64eee86", "is_reserved": 0, "lon": -76.97329766666667, "is_disabled": 0, "fusion_lat": 0.0, "lat": 38.9040785, "bike_id": "5e5b1c4a3a21669cb28f3f41d64eee86", "fusion_lon": 0.0}, {"rental_uris": {"ios": "https://dc.lft.to/lastmile_qr_scan", "android": "https://dc.lft.to/lastmile_qr_scan"}, "type": "electric_scooter", "name": "7c7081e03d69e0da3d206202ad36d281", "is_reserved": 0, "lon": -77.0396605, "is_disabled": 0, "fusion_lat": 0.0, "lat": 38.931496833333334, "bike_id": "7c7081e03d69e0da3d206202ad36d281", "fusion_lon": 0.0}, {"rental_uris": {"ios": "https://dc.lft.to/lastmile_qr_scan", "android": "https://dc.lft.to/lastmile_qr_scan"}, "type": "electric_scooter", "name": "744bf70638f4a611d1e8e9ec8d4e9173", "is_reserved": 0, "lon": -77.010783, "is_disabled": 0, "fusion_lat": 0.0, "lat": 38.911839666666665, "bike_id": "744bf70638f4a611d1e8e9ec8d4e9173", "fusion_lon": 0.0}, {"rental_uris": {"ios": "https://dc.lft.to/lastmile_qr_scan", "android": "https://dc.lft.to/lastmile_qr_scan"}, "type": "electric_scooter", "name": "d992016de7e003dec7a853e2c5fcd9af", "is_reserved": 0, "lon": -77.0455705, "is_disabled": 0, "fusion_lat": 0.0, "lat": 38.91829883333333, "bike_id": "d992016de7e003dec7a853e2c5fcd9af", "fusion_lon": 0.0}, {"rental_uris": {"ios": "https://dc.lft.to/lastmile_qr_scan", "android": "https://dc.lft.to/lastmile_qr_scan"}, "type": "electric_scooter", "name": "10189bfe18f0e034de72de91bc60b283", "is_reserved": 0, "lon": -77.04233533333333, "is_disabled": 0, "fusion_lat": 0.0, "lat": 38.90563566666667, "bike_id": "10189bfe18f0e034de72de91bc60b283", "fusion_lon": 0.0}, {"rental_uris": {"ios": "https://dc.lft.to/lastmile_qr_scan", "android": "https://dc.lft.to/lastmile_qr_scan"}, "type": "electric_scooter", "name": "7b4dab1f9e6d43fd40d6368ddb1679e4", "is_reserved": 0, "lon": -77.01040233333333, "is_disabled": 0, "fusion_lat": 0.0, "lat": 38.911102, "bike_id": "7b4dab1f9e6d43fd40d6368ddb1679e4", "fusion_lon": 0.0}, {"rental_uris": {"ios": "https://dc.lft.to/lastmile_qr_scan", "android": "https://dc.lft.to/lastmile_qr_scan"}, "type": "electric_scooter", "name": "71fb2778c552c66fe265fb67a4fddf11", "is_reserved": 0, "lon": -77.002014, "is_disabled": 0, "fusion_lat": 0.0, "lat": 38.892854, "bike_id": "71fb2778c552c66fe265fb67a4fddf11", "fusion_lon": 0.0}, {"rental_uris": {"ios": "https://dc.lft.to/lastmile_qr_scan", "android": "https://dc.lft.to/lastmile_qr_scan"}, "type": "electric_bike", "name": "baf915dc14f750b3463a4b8f4af7df63", "is_reserved": 0, "lon": -77.00763733333334, "is_disabled": 0, "fusion_lat": 0.0, "lat": 38.997779666666666, "bike_id": "baf915dc14f750b3463a4b8f4af7df63", "fusion_lon": 0.0}, {"rental_uris": {"ios": "https://dc.lft.to/lastmile_qr_scan", "android": "https://dc.lft.to/lastmile_qr_scan"}, "type": "electric_bike", "name": "164a216b5967228f51098ae5e413a477", "is_reserved": 0, "lon": -77.03286166666666, "is_disabled": 0, "fusion_lat": 0.0, "lat": 38.9356625, "bike_id": "164a216b5967228f51098ae5e413a477", "fusion_lon": 0.0}, {"rental_uris": {"ios": "https://dc.lft.to/lastmile_qr_scan", "android": "https://dc.lft.to/lastmile_qr_scan"}, "type": "electric_scooter", "name": "ab7b1e7fdaf4634d5e8e71fa551fe0fb", "is_reserved": 0, "lon": -76.93428933333334, "is_disabled": 0, "fusion_lat": 0.0, "lat": 38.899186, "bike_id": "ab7b1e7fdaf4634d5e8e71fa551fe0fb", "fusion_lon": 0.0}, {"rental_uris": {"ios": "https://dc.lft.to/lastmile_qr_scan", "android": "https://dc.lft.to/lastmile_qr_scan"}, "type": "electric_scooter", "name": "c0826bc696303b128d7ba1802512a2a7", "is_reserved": 0, "lon": -76.9949165, "is_disabled": 0, "fusion_lat": 0.0, "lat": 38.862149, "bike_id": "c0826bc696303b128d7ba1802512a2a7", "fusion_lon": 0.0}, {"rental_uris": {"ios": "https://dc.lft.to/lastmile_qr_scan", "android": "https://dc.lft.to/lastmile_qr_scan"}, "type": "electric_scooter", "name": "15aaf4a8593ff9e1e96d5974641952c1", "is_reserved": 0, "lon": -76.99562183333333, "is_disabled": 0, "fusion_lat": 0.0, "lat": 38.9201715, "bike_id": "15aaf4a8593ff9e1e96d5974641952c1", "fusion_lon": 0.0}, {"rental_uris": {"ios": "https://dc.lft.to/lastmile_qr_scan", "android": "https://dc.lft.to/lastmile_qr_scan"}, "type": "electric_scooter", "name": "0f294738498a429600b05ef255d4d7e1", "is_reserved": 0, "lon": -77.0289695, "is_disabled": 0, "fusion_lat": 0.0, "lat": 38.91677, "bike_id": "0f294738498a429600b05ef255d4d7e1", "fusion_lon": 0.0}, {"rental_uris": {"ios": "https://dc.lft.to/lastmile_qr_scan", "android": "https://dc.lft.to/lastmile_qr_scan"}, "type": "electric_scooter", "name": "df757bcb26877c7363998c481e090462", "is_reserved": 0, "lon": -77.01860433333333, "is_disabled": 0, "fusion_lat": 0.0, "lat": 38.894641, "bike_id": "df757bcb26877c7363998c481e090462", "fusion_lon": 0.0}, {"rental_uris": {"ios": "https://dc.lft.to/lastmile_qr_scan", "android": "https://dc.lft.to/lastmile_qr_scan"}, "type": "electric_scooter", "name": "b08449c229b1ecf46483f74a48769531", "is_reserved": 0, "lon": -76.9991, "is_disabled": 0, "fusion_lat": 0.0, "lat": 38.92458533333333, "bike_id": "b08449c229b1ecf46483f74a48769531", "fusion_lon": 0.0}, {"rental_uris": {"ios": "https://dc.lft.to/lastmile_qr_scan", "android": "https://dc.lft.to/lastmile_qr_scan"}, "type": "electric_scooter", "name": "e86916ba080d792836d064792caf9ee0", "is_reserved": 0, "lon": -77.04368133333334, "is_disabled": 0, "fusion_lat": 0.0, "lat": 38.89212116666667, "bike_id": "e86916ba080d792836d064792caf9ee0", "fusion_lon": 0.0}, {"rental_uris": {"ios": "https://dc.lft.to/lastmile_qr_scan", "android": "https://dc.lft.to/lastmile_qr_scan"}, "type": "electric_scooter", "name": "3e866f7628a4532c65d6c8f381c97375", "is_reserved": 0, "lon": -77.031859, "is_disabled": 0, "fusion_lat": 0.0, "lat": 38.913487333333336, "bike_id": "3e866f7628a4532c65d6c8f381c97375", "fusion_lon": 0.0}, {"rental_uris": {"ios": "https://dc.lft.to/lastmile_qr_scan", "android": "https://dc.lft.to/lastmile_qr_scan"}, "type": "electric_scooter", "name": "b6ad2b4a7e85aa81bd7723c97195053f", "is_reserved": 0, "lon": -77.02314016666666, "is_disabled": 0, "fusion_lat": 0.0, "lat": 38.91763866666667, "bike_id": "b6ad2b4a7e85aa81bd7723c97195053f", "fusion_lon": 0.0}, {"rental_uris": {"ios": "https://dc.lft.to/lastmile_qr_scan", "android": "https://dc.lft.to/lastmile_qr_scan"}, "type": "electric_scooter", "name": "bada3693fd513700f7266e7ee15c7b0f", "is_reserved": 0, "lon": -77.02961533333334, "is_disabled": 0, "fusion_lat": 0.0, "lat": 38.90736233333333, "bike_id": "bada3693fd513700f7266e7ee15c7b0f", "fusion_lon": 0.0}, {"rental_uris": {"ios": "https://dc.lft.to/lastmile_qr_scan", "android": "https://dc.lft.to/lastmile_qr_scan"}, "type": "electric_scooter", "name": "1aab4a1b53aa31f184d6f3fbc9289bb1", "is_reserved": 0, "lon": -77.043206, "is_disabled": 0, "fusion_lat": 0.0, "lat": 38.89723716666666, "bike_id": "1aab4a1b53aa31f184d6f3fbc9289bb1", "fusion_lon": 0.0}, {"rental_uris": {"ios": "https://dc.lft.to/lastmile_qr_scan", "android": "https://dc.lft.to/lastmile_qr_scan"}, "type": "electric_scooter", "name": "5ae42895a77b3c5e9fa36604cf1d9030", "is_reserved": 0, "lon": -77.03883233333333, "is_disabled": 0, "fusion_lat": 0.0, "lat": 38.916341, "bike_id": "5ae42895a77b3c5e9fa36604cf1d9030", "fusion_lon": 0.0}, {"rental_uris": {"ios": "https://dc.lft.to/lastmile_qr_scan", "android": "https://dc.lft.to/lastmile_qr_scan"}, "type": "electric_scooter", "name": "9b6f8cd11fcd698fab8d4f7008b8ced6", "is_reserved": 0, "lon": -77.00047266666667, "is_disabled": 0, "fusion_lat": 0.0, "lat": 38.918982, "bike_id": "9b6f8cd11fcd698fab8d4f7008b8ced6", "fusion_lon": 0.0}, {"rental_uris": {"ios": "https://dc.lft.to/lastmile_qr_scan", "android": "https://dc.lft.to/lastmile_qr_scan"}, "type": "electric_scooter", "name": "28b6803998533727db0328efee60dc9c", "is_reserved": 0, "lon": -76.9857745, "is_disabled": 0, "fusion_lat": 0.0, "lat": 38.854465, "bike_id": "28b6803998533727db0328efee60dc9c", "fusion_lon": 0.0}, {"rental_uris": {"ios": "https://dc.lft.to/lastmile_qr_scan", "android": "https://dc.lft.to/lastmile_qr_scan"}, "type": "electric_scooter", "name": "3ccc1d00387210f0f1269626a98ed708", "is_reserved": 0, "lon": -77.038325, "is_disabled": 0, "fusion_lat": 0.0, "lat": 38.91109933333333, "bike_id": "3ccc1d00387210f0f1269626a98ed708", "fusion_lon": 0.0}, {"rental_uris": {"ios": "https://dc.lft.to/lastmile_qr_scan", "android": "https://dc.lft.to/lastmile_qr_scan"}, "type": "electric_scooter", "name": "389aeb1b0876b6f64cdc6b3f3c8f512c", "is_reserved": 0, "lon": -77.02377683333333, "is_disabled": 0, "fusion_lat": 0.0, "lat": 38.917118, "bike_id": "389aeb1b0876b6f64cdc6b3f3c8f512c", "fusion_lon": 0.0}, {"rental_uris": {"ios": "https://dc.lft.to/lastmile_qr_scan", "android": "https://dc.lft.to/lastmile_qr_scan"}, "type": "electric_scooter", "name": "6d5793d60296bf032f1517c0626d7d48", "is_reserved": 0, "lon": -77.030749, "is_disabled": 0, "fusion_lat": 0.0, "lat": 38.9387355, "bike_id": "6d5793d60296bf032f1517c0626d7d48", "fusion_lon": 0.0}, {"rental_uris": {"ios": "https://dc.lft.to/lastmile_qr_scan", "android": "https://dc.lft.to/lastmile_qr_scan"}, "type": "electric_scooter", "name": "2c75cbbe3c7ff644f3d1a286e7f0b08a", "is_reserved": 0, "lon": -77.02231716666667, "is_disabled": 0, "fusion_lat": 0.0, "lat": 38.908538, "bike_id": "2c75cbbe3c7ff644f3d1a286e7f0b08a", "fusion_lon": 0.0}, {"rental_uris": {"ios": "https://dc.lft.to/lastmile_qr_scan", "android": "https://dc.lft.to/lastmile_qr_scan"}, "type": "electric_scooter", "name": "5b05f829eb88cbcc248f9de7b75c2062", "is_reserved": 0, "lon": -77.03675166666666, "is_disabled": 0, "fusion_lat": 0.0, "lat": 38.93919116666667, "bike_id": "5b05f829eb88cbcc248f9de7b75c2062", "fusion_lon": 0.0}, {"rental_uris": {"ios": "https://dc.lft.to/lastmile_qr_scan", "android": "https://dc.lft.to/lastmile_qr_scan"}, "type": "electric_scooter", "name": "c9cc92b2b8d033a43cacd02b2d2e4cd5", "is_reserved": 0, "lon": -77.02802116666666, "is_disabled": 0, "fusion_lat": 0.0, "lat": 38.9346365, "bike_id": "c9cc92b2b8d033a43cacd02b2d2e4cd5", "fusion_lon": 0.0}, {"rental_uris": {"ios": "https://dc.lft.to/lastmile_qr_scan", "android": "https://dc.lft.to/lastmile_qr_scan"}, "type": "electric_scooter", "name": "415f8f702ea05ad5f05ed75eb6acd869", "is_reserved": 0, "lon": -77.0431765, "is_disabled": 0, "fusion_lat": 0.0, "lat": 38.92209016666666, "bike_id": "415f8f702ea05ad5f05ed75eb6acd869", "fusion_lon": 0.0}, {"rental_uris": {"ios": "https://dc.lft.to/lastmile_qr_scan", "android": "https://dc.lft.to/lastmile_qr_scan"}, "type": "electric_scooter", "name": "f71f83aff48a56ee8a9509d31386b735", "is_reserved": 0, "lon": -77.03642633333334, "is_disabled": 0, "fusion_lat": 0.0, "lat": 38.928106166666666, "bike_id": "f71f83aff48a56ee8a9509d31386b735", "fusion_lon": 0.0}, {"rental_uris": {"ios": "https://dc.lft.to/lastmile_qr_scan", "android": "https://dc.lft.to/lastmile_qr_scan"}, "type": "electric_scooter", "name": "1931b15ee1ac043d95506d34bad90695", "is_reserved": 0, "lon": -77.0411895, "is_disabled": 0, "fusion_lat": 0.0, "lat": 38.930999, "bike_id": "1931b15ee1ac043d95506d34bad90695", "fusion_lon": 0.0}, {"rental_uris": {"ios": "https://dc.lft.to/lastmile_qr_scan", "android": "https://dc.lft.to/lastmile_qr_scan"}, "type": "electric_scooter", "name": "706f34210c1d06e70d73cc0f914af65d", "is_reserved": 0, "lon": -76.98085783333333, "is_disabled": 0, "fusion_lat": 0.0, "lat": 38.894381, "bike_id": "706f34210c1d06e70d73cc0f914af65d", "fusion_lon": 0.0}, {"rental_uris": {"ios": "https://dc.lft.to/lastmile_qr_scan", "android": "https://dc.lft.to/lastmile_qr_scan"}, "type": "electric_scooter", "name": "ae15996880ec20be451facd74e0c2947", "is_reserved": 0, "lon": -77.033559, "is_disabled": 0, "fusion_lat": 0.0, "lat": 38.899906333333334, "bike_id": "ae15996880ec20be451facd74e0c2947", "fusion_lon": 0.0}, {"rental_uris": {"ios": "https://dc.lft.to/lastmile_qr_scan", "android": "https://dc.lft.to/lastmile_qr_scan"}, "type": "electric_scooter", "name": "bad8bba30b9dfb9b749854bcb1802b15", "is_reserved": 0, "lon": -77.04552016666666, "is_disabled": 0, "fusion_lat": 0.0, "lat": 38.9338385, "bike_id": "bad8bba30b9dfb9b749854bcb1802b15", "fusion_lon": 0.0}, {"rental_uris": {"ios": "https://dc.lft.to/lastmile_qr_scan", "android": "https://dc.lft.to/lastmile_qr_scan"}, "type": "electric_scooter", "name": "c7ada4e685d0629f4380871534ccdaed", "is_reserved": 0, "lon": -77.019869, "is_disabled": 0, "fusion_lat": 0.0, "lat": 38.88720516666667, "bike_id": "c7ada4e685d0629f4380871534ccdaed", "fusion_lon": 0.0}, {"rental_uris": {"ios": "https://dc.lft.to/lastmile_qr_scan", "android": "https://dc.lft.to/lastmile_qr_scan"}, "type": "electric_scooter", "name": "cf9b35f5f496a0662916a1a1bafa86c0", "is_reserved": 0, "lon": -77.031919, "is_disabled": 0, "fusion_lat": 0.0, "lat": 38.920258, "bike_id": "cf9b35f5f496a0662916a1a1bafa86c0", "fusion_lon": 0.0}, {"rental_uris": {"ios": "https://dc.lft.to/lastmile_qr_scan", "android": "https://dc.lft.to/lastmile_qr_scan"}, "type": "electric_scooter", "name": "ed35132c2dbac48bb45e665e7fad9902", "is_reserved": 0, "lon": -77.03546983333334, "is_disabled": 0, "fusion_lat": 0.0, "lat": 38.9189565, "bike_id": "ed35132c2dbac48bb45e665e7fad9902", "fusion_lon": 0.0}, {"rental_uris": {"ios": "https://dc.lft.to/lastmile_qr_scan", "android": "https://dc.lft.to/lastmile_qr_scan"}, "type": "electric_scooter", "name": "a7005fe7e913a5f3f14a2e2bfb64e4e2", "is_reserved": 0, "lon": -77.0176835, "is_disabled": 0, "fusion_lat": 0.0, "lat": 38.887255, "bike_id": "a7005fe7e913a5f3f14a2e2bfb64e4e2", "fusion_lon": 0.0}, {"rental_uris": {"ios": "https://dc.lft.to/lastmile_qr_scan", "android": "https://dc.lft.to/lastmile_qr_scan"}, "type": "electric_scooter", "name": "fe32df5afa72fccf15d2b29fd246fd21", "is_reserved": 0, "lon": -77.03962433333334, "is_disabled": 0, "fusion_lat": 0.0, "lat": 38.8933415, "bike_id": "fe32df5afa72fccf15d2b29fd246fd21", "fusion_lon": 0.0}, {"rental_uris": {"ios": "https://dc.lft.to/lastmile_qr_scan", "android": "https://dc.lft.to/lastmile_qr_scan"}, "type": "electric_scooter", "name": "3caee200881b55f0cb088ef16cc6c9c2", "is_reserved": 0, "lon": -77.02817233333333, "is_disabled": 0, "fusion_lat": 0.0, "lat": 38.899804, "bike_id": "3caee200881b55f0cb088ef16cc6c9c2", "fusion_lon": 0.0}, {"rental_uris": {"ios": "https://dc.lft.to/lastmile_qr_scan", "android": "https://dc.lft.to/lastmile_qr_scan"}, "type": "electric_scooter", "name": "c73f3cda868e9d441e8ba276bc9ad28e", "is_reserved": 0, "lon": -77.0390295, "is_disabled": 0, "fusion_lat": 0.0, "lat": 38.91260416666667, "bike_id": "c73f3cda868e9d441e8ba276bc9ad28e", "fusion_lon": 0.0}, {"rental_uris": {"ios": "https://dc.lft.to/lastmile_qr_scan", "android": "https://dc.lft.to/lastmile_qr_scan"}, "type": "electric_scooter", "name": "9c5b4b878b3c28e625129e9f60ee49bb", "is_reserved": 0, "lon": -77.02692033333334, "is_disabled": 0, "fusion_lat": 0.0, "lat": 38.90454283333333, "bike_id": "9c5b4b878b3c28e625129e9f60ee49bb", "fusion_lon": 0.0}, {"rental_uris": {"ios": "https://dc.lft.to/lastmile_qr_scan", "android": "https://dc.lft.to/lastmile_qr_scan"}, "type": "electric_scooter", "name": "55d79785819b70557e151898b9900cda", "is_reserved": 0, "lon": -77.0448545, "is_disabled": 0, "fusion_lat": 0.0, "lat": 38.91441316666667, "bike_id": "55d79785819b70557e151898b9900cda", "fusion_lon": 0.0}, {"rental_uris": {"ios": "https://dc.lft.to/lastmile_qr_scan", "android": "https://dc.lft.to/lastmile_qr_scan"}, "type": "electric_scooter", "name": "d2775bab48b98da18901c64a74ddefa6", "is_reserved": 0, "lon": -77.00920266666667, "is_disabled": 0, "fusion_lat": 0.0, "lat": 38.89689716666667, "bike_id": "d2775bab48b98da18901c64a74ddefa6", "fusion_lon": 0.0}, {"rental_uris": {"ios": "https://dc.lft.to/lastmile_qr_scan", "android": "https://dc.lft.to/lastmile_qr_scan"}, "type": "electric_scooter", "name": "bbdea18c18867adbc01b15c1f357f90d", "is_reserved": 0, "lon": -77.03318033333333, "is_disabled": 0, "fusion_lat": 0.0, "lat": 38.918082166666665, "bike_id": "bbdea18c18867adbc01b15c1f357f90d", "fusion_lon": 0.0}, {"rental_uris": {"ios": "https://dc.lft.to/lastmile_qr_scan", "android": "https://dc.lft.to/lastmile_qr_scan"}, "type": "electric_scooter", "name": "1536aa492c054b368e416f683cbd5773", "is_reserved": 0, "lon": -77.025056, "is_disabled": 0, "fusion_lat": 0.0, "lat": 38.897359, "bike_id": "1536aa492c054b368e416f683cbd5773", "fusion_lon": 0.0}, {"rental_uris": {"ios": "https://dc.lft.to/lastmile_qr_scan", "android": "https://dc.lft.to/lastmile_qr_scan"}, "type": "electric_scooter", "name": "8eb8dbe5589fb6ab795829e8d80a5ff6", "is_reserved": 0, "lon": -77.025559, "is_disabled": 0, "fusion_lat": 0.0, "lat": 38.93092216666667, "bike_id": "8eb8dbe5589fb6ab795829e8d80a5ff6", "fusion_lon": 0.0}, {"rental_uris": {"ios": "https://dc.lft.to/lastmile_qr_scan", "android": "https://dc.lft.to/lastmile_qr_scan"}, "type": "electric_scooter", "name": "d4c016a095f782d8b1bdb5a3d4ed7399", "is_reserved": 0, "lon": -77.04756216666667, "is_disabled": 0, "fusion_lat": 0.0, "lat": 38.91866266666667, "bike_id": "d4c016a095f782d8b1bdb5a3d4ed7399", "fusion_lon": 0.0}, {"rental_uris": {"ios": "https://dc.lft.to/lastmile_qr_scan", "android": "https://dc.lft.to/lastmile_qr_scan"}, "type": "electric_scooter", "name": "839e7b0632d77ea3cc0b2497e041d858", "is_reserved": 0, "lon": -77.0393405, "is_disabled": 0, "fusion_lat": 0.0, "lat": 38.901542, "bike_id": "839e7b0632d77ea3cc0b2497e041d858", "fusion_lon": 0.0}, {"rental_uris": {"ios": "https://dc.lft.to/lastmile_qr_scan", "android": "https://dc.lft.to/lastmile_qr_scan"}, "type": "electric_scooter", "name": "3314d65fbfa21b80ea0349575a844bcd", "is_reserved": 0, "lon": -77.052821, "is_disabled": 0, "fusion_lat": 0.0, "lat": 38.925564333333334, "bike_id": "3314d65fbfa21b80ea0349575a844bcd", "fusion_lon": 0.0}, {"rental_uris": {"ios": "https://dc.lft.to/lastmile_qr_scan", "android": "https://dc.lft.to/lastmile_qr_scan"}, "type": "electric_scooter", "name": "b9f70fab47d5213a9ba5e8809c279f89", "is_reserved": 0, "lon": -77.04328933333333, "is_disabled": 0, "fusion_lat": 0.0, "lat": 38.92626166666667, "bike_id": "b9f70fab47d5213a9ba5e8809c279f89", "fusion_lon": 0.0}, {"rental_uris": {"ios": "https://dc.lft.to/lastmile_qr_scan", "android": "https://dc.lft.to/lastmile_qr_scan"}, "type": "electric_scooter", "name": "3c5768201b95c5e3276a5f36bd3edcf6", "is_reserved": 0, "lon": -77.032248, "is_disabled": 0, "fusion_lat": 0.0, "lat": 38.907049, "bike_id": "3c5768201b95c5e3276a5f36bd3edcf6", "fusion_lon": 0.0}, {"rental_uris": {"ios": "https://dc.lft.to/lastmile_qr_scan", "android": "https://dc.lft.to/lastmile_qr_scan"}, "type": "electric_scooter", "name": "c7e0894532c0b3af63543ef873143695", "is_reserved": 0, "lon": -77.043683, "is_disabled": 0, "fusion_lat": 0.0, "lat": 38.892207, "bike_id": "c7e0894532c0b3af63543ef873143695", "fusion_lon": 0.0}, {"rental_uris": {"ios": "https://dc.lft.to/lastmile_qr_scan", "android": "https://dc.lft.to/lastmile_qr_scan"}, "type": "electric_scooter", "name": "aa119e0636eedbfe14c6cfc941b300ae", "is_reserved": 0, "lon": -77.03936466666667, "is_disabled": 0, "fusion_lat": 0.0, "lat": 38.91413033333333, "bike_id": "aa119e0636eedbfe14c6cfc941b300ae", "fusion_lon": 0.0}, {"rental_uris": {"ios": "https://dc.lft.to/lastmile_qr_scan", "android": "https://dc.lft.to/lastmile_qr_scan"}, "type": "electric_scooter", "name": "08a9cdf9c9d8e974f42ad8bb0b99bd97", "is_reserved": 0, "lon": -77.02074416666666, "is_disabled": 0, "fusion_lat": 0.0, "lat": 38.9269695, "bike_id": "08a9cdf9c9d8e974f42ad8bb0b99bd97", "fusion_lon": 0.0}, {"rental_uris": {"ios": "https://dc.lft.to/lastmile_qr_scan", "android": "https://dc.lft.to/lastmile_qr_scan"}, "type": "electric_scooter", "name": "6141ad30d7a38994263ad8e8596b5c3d", "is_reserved": 0, "lon": -77.00866283333333, "is_disabled": 0, "fusion_lat": 0.0, "lat": 38.89747066666666, "bike_id": "6141ad30d7a38994263ad8e8596b5c3d", "fusion_lon": 0.0}, {"rental_uris": {"ios": "https://dc.lft.to/lastmile_qr_scan", "android": "https://dc.lft.to/lastmile_qr_scan"}, "type": "electric_scooter", "name": "09fa4742191ad30650f34609aa575bba", "is_reserved": 0, "lon": -77.0216945, "is_disabled": 0, "fusion_lat": 0.0, "lat": 38.8991235, "bike_id": "09fa4742191ad30650f34609aa575bba", "fusion_lon": 0.0}, {"rental_uris": {"ios": "https://dc.lft.to/lastmile_qr_scan", "android": "https://dc.lft.to/lastmile_qr_scan"}, "type": "electric_scooter", "name": "826dda81bf7bcfd3d58f2a0ec837e688", "is_reserved": 0, "lon": -77.04182666666667, "is_disabled": 0, "fusion_lat": 0.0, "lat": 38.9112095, "bike_id": "826dda81bf7bcfd3d58f2a0ec837e688", "fusion_lon": 0.0}, {"rental_uris": {"ios": "https://dc.lft.to/lastmile_qr_scan", "android": "https://dc.lft.to/lastmile_qr_scan"}, "type": "electric_scooter", "name": "f5b167aa374ed4bef2dc6052709cdec9", "is_reserved": 0, "lon": -76.98887716666667, "is_disabled": 0, "fusion_lat": 0.0, "lat": 38.899541666666664, "bike_id": "f5b167aa374ed4bef2dc6052709cdec9", "fusion_lon": 0.0}, {"rental_uris": {"ios": "https://dc.lft.to/lastmile_qr_scan", "android": "https://dc.lft.to/lastmile_qr_scan"}, "type": "electric_scooter", "name": "02149faadfc87eab23a4a55c558c9bbd", "is_reserved": 0, "lon": -77.015804, "is_disabled": 0, "fusion_lat": 0.0, "lat": 38.9168235, "bike_id": "02149faadfc87eab23a4a55c558c9bbd", "fusion_lon": 0.0}, {"rental_uris": {"ios": "https://dc.lft.to/lastmile_qr_scan", "android": "https://dc.lft.to/lastmile_qr_scan"}, "type": "electric_scooter", "name": "be8f8b1e5054210141f4a22d82d6b1f3", "is_reserved": 0, "lon": -76.99100783333333, "is_disabled": 0, "fusion_lat": 0.0, "lat": 38.857303333333334, "bike_id": "be8f8b1e5054210141f4a22d82d6b1f3", "fusion_lon": 0.0}, {"rental_uris": {"ios": "https://dc.lft.to/lastmile_qr_scan", "android": "https://dc.lft.to/lastmile_qr_scan"}, "type": "electric_scooter", "name": "1e228ef0e48ae1172369030c640818b8", "is_reserved": 0, "lon": -77.01429316666666, "is_disabled": 0, "fusion_lat": 0.0, "lat": 38.914592666666664, "bike_id": "1e228ef0e48ae1172369030c640818b8", "fusion_lon": 0.0}, {"rental_uris": {"ios": "https://dc.lft.to/lastmile_qr_scan", "android": "https://dc.lft.to/lastmile_qr_scan"}, "type": "electric_scooter", "name": "ce1f67826b23980e0b3d40137a8c4db5", "is_reserved": 0, "lon": -77.03387733333334, "is_disabled": 0, "fusion_lat": 0.0, "lat": 38.902645, "bike_id": "ce1f67826b23980e0b3d40137a8c4db5", "fusion_lon": 0.0}, {"rental_uris": {"ios": "https://dc.lft.to/lastmile_qr_scan", "android": "https://dc.lft.to/lastmile_qr_scan"}, "type": "electric_scooter", "name": "12689035bbbf58e331f844ca17354aa6", "is_reserved": 0, "lon": -77.03404533333334, "is_disabled": 0, "fusion_lat": 0.0, "lat": 38.93534983333333, "bike_id": "12689035bbbf58e331f844ca17354aa6", "fusion_lon": 0.0}, {"rental_uris": {"ios": "https://dc.lft.to/lastmile_qr_scan", "android": "https://dc.lft.to/lastmile_qr_scan"}, "type": "electric_scooter", "name": "049e37045af8c4fb50f0a6045dd6963c", "is_reserved": 0, "lon": -77.02363166666666, "is_disabled": 0, "fusion_lat": 0.0, "lat": 38.919621166666666, "bike_id": "049e37045af8c4fb50f0a6045dd6963c", "fusion_lon": 0.0}, {"rental_uris": {"ios": "https://dc.lft.to/lastmile_qr_scan", "android": "https://dc.lft.to/lastmile_qr_scan"}, "type": "electric_scooter", "name": "d9ea1b4c9e16f03228921ccc37a18f12", "is_reserved": 0, "lon": -77.07253283333333, "is_disabled": 0, "fusion_lat": 0.0, "lat": 38.9331805, "bike_id": "d9ea1b4c9e16f03228921ccc37a18f12", "fusion_lon": 0.0}, {"rental_uris": {"ios": "https://dc.lft.to/lastmile_qr_scan", "android": "https://dc.lft.to/lastmile_qr_scan"}, "type": "electric_scooter", "name": "c9ede6579c714c390a322281cd39ecab", "is_reserved": 0, "lon": -77.02552133333333, "is_disabled": 0, "fusion_lat": 0.0, "lat": 38.93101566666667, "bike_id": "c9ede6579c714c390a322281cd39ecab", "fusion_lon": 0.0}, {"rental_uris": {"ios": "https://dc.lft.to/lastmile_qr_scan", "android": "https://dc.lft.to/lastmile_qr_scan"}, "type": "electric_scooter", "name": "8621cd09ef5776bb75874af3b9ab8b0f", "is_reserved": 0, "lon": -77.03526583333333, "is_disabled": 0, "fusion_lat": 0.0, "lat": 38.936042, "bike_id": "8621cd09ef5776bb75874af3b9ab8b0f", "fusion_lon": 0.0}, {"rental_uris": {"ios": "https://dc.lft.to/lastmile_qr_scan", "android": "https://dc.lft.to/lastmile_qr_scan"}, "type": "electric_scooter", "name": "a85080c072e484e1b0af76eabaefc189", "is_reserved": 0, "lon": -76.99010183333333, "is_disabled": 0, "fusion_lat": 0.0, "lat": 38.89993583333333, "bike_id": "a85080c072e484e1b0af76eabaefc189", "fusion_lon": 0.0}, {"rental_uris": {"ios": "https://dc.lft.to/lastmile_qr_scan", "android": "https://dc.lft.to/lastmile_qr_scan"}, "type": "electric_scooter", "name": "184383463c42427c6dcaf068bf279a41", "is_reserved": 0, "lon": -76.97802766666666, "is_disabled": 0, "fusion_lat": 0.0, "lat": 38.90308266666667, "bike_id": "184383463c42427c6dcaf068bf279a41", "fusion_lon": 0.0}, {"rental_uris": {"ios": "https://dc.lft.to/lastmile_qr_scan", "android": "https://dc.lft.to/lastmile_qr_scan"}, "type": "electric_scooter", "name": "b2ba04a864dcb661e3774d202f26c962", "is_reserved": 0, "lon": -77.02223583333334, "is_disabled": 0, "fusion_lat": 0.0, "lat": 38.9208575, "bike_id": "b2ba04a864dcb661e3774d202f26c962", "fusion_lon": 0.0}, {"rental_uris": {"ios": "https://dc.lft.to/lastmile_qr_scan", "android": "https://dc.lft.to/lastmile_qr_scan"}, "type": "electric_scooter", "name": "3c82c1036ec6460655933742dd7b558f", "is_reserved": 0, "lon": -77.023033, "is_disabled": 0, "fusion_lat": 0.0, "lat": 38.91395133333333, "bike_id": "3c82c1036ec6460655933742dd7b558f", "fusion_lon": 0.0}, {"rental_uris": {"ios": "https://dc.lft.to/lastmile_qr_scan", "android": "https://dc.lft.to/lastmile_qr_scan"}, "type": "electric_scooter", "name": "369f5f04a653ec8f28927bee690b945a", "is_reserved": 0, "lon": -77.04501216666667, "is_disabled": 0, "fusion_lat": 0.0, "lat": 38.91930466666667, "bike_id": "369f5f04a653ec8f28927bee690b945a", "fusion_lon": 0.0}, {"rental_uris": {"ios": "https://dc.lft.to/lastmile_qr_scan", "android": "https://dc.lft.to/lastmile_qr_scan"}, "type": "electric_scooter", "name": "757b04e4d54f7ea1ac09d0b17f7d4a10", "is_reserved": 0, "lon": -77.04386683333334, "is_disabled": 0, "fusion_lat": 0.0, "lat": 38.9170595, "bike_id": "757b04e4d54f7ea1ac09d0b17f7d4a10", "fusion_lon": 0.0}, {"rental_uris": {"ios": "https://dc.lft.to/lastmile_qr_scan", "android": "https://dc.lft.to/lastmile_qr_scan"}, "type": "electric_scooter", "name": "ec7f6f529ceeb79832f469598d9c438a", "is_reserved": 0, "lon": -77.03866583333334, "is_disabled": 0, "fusion_lat": 0.0, "lat": 38.911078, "bike_id": "ec7f6f529ceeb79832f469598d9c438a", "fusion_lon": 0.0}, {"rental_uris": {"ios": "https://dc.lft.to/lastmile_qr_scan", "android": "https://dc.lft.to/lastmile_qr_scan"}, "type": "electric_scooter", "name": "230c1748596492ef241613a66643753d", "is_reserved": 0, "lon": -77.02786283333333, "is_disabled": 0, "fusion_lat": 0.0, "lat": 38.92767966666667, "bike_id": "230c1748596492ef241613a66643753d", "fusion_lon": 0.0}, {"rental_uris": {"ios": "https://dc.lft.to/lastmile_qr_scan", "android": "https://dc.lft.to/lastmile_qr_scan"}, "type": "electric_scooter", "name": "8195cf2e714d35fc765f2f244eb316b4", "is_reserved": 0, "lon": -77.03130716666666, "is_disabled": 0, "fusion_lat": 0.0, "lat": 38.917768, "bike_id": "8195cf2e714d35fc765f2f244eb316b4", "fusion_lon": 0.0}, {"rental_uris": {"ios": "https://dc.lft.to/lastmile_qr_scan", "android": "https://dc.lft.to/lastmile_qr_scan"}, "type": "electric_bike", "name": "340d9d750883b17fce1f06802d2d9c47", "is_reserved": 0, "lon": -76.95742233333333, "is_disabled": 0, "fusion_lat": 0.0, "lat": 38.888588, "bike_id": "340d9d750883b17fce1f06802d2d9c47", "fusion_lon": 0.0}, {"rental_uris": {"ios": "https://dc.lft.to/lastmile_qr_scan", "android": "https://dc.lft.to/lastmile_qr_scan"}, "type": "electric_scooter", "name": "668d9f9f7ce871286088b69318aa6a6b", "is_reserved": 0, "lon": -77.045532, "is_disabled": 0, "fusion_lat": 0.0, "lat": 38.909652333333334, "bike_id": "668d9f9f7ce871286088b69318aa6a6b", "fusion_lon": 0.0}, {"rental_uris": {"ios": "https://dc.lft.to/lastmile_qr_scan", "android": "https://dc.lft.to/lastmile_qr_scan"}, "type": "electric_scooter", "name": "a7ecc22a14421ee93282797bcb9cef3c", "is_reserved": 0, "lon": -77.03343033333333, "is_disabled": 0, "fusion_lat": 0.0, "lat": 38.897353333333335, "bike_id": "a7ecc22a14421ee93282797bcb9cef3c", "fusion_lon": 0.0}, {"rental_uris": {"ios": "https://dc.lft.to/lastmile_qr_scan", "android": "https://dc.lft.to/lastmile_qr_scan"}, "type": "electric_scooter", "name": "1fa4a0797a955f60bb80af8c1e749fd0", "is_reserved": 0, "lon": -77.03951966666666, "is_disabled": 0, "fusion_lat": 0.0, "lat": 38.892418666666664, "bike_id": "1fa4a0797a955f60bb80af8c1e749fd0", "fusion_lon": 0.0}, {"rental_uris": {"ios": "https://dc.lft.to/lastmile_qr_scan", "android": "https://dc.lft.to/lastmile_qr_scan"}, "type": "electric_scooter", "name": "3d795029503a6352d69042ca1f4204e9", "is_reserved": 0, "lon": -76.947185, "is_disabled": 0, "fusion_lat": 0.0, "lat": 38.89083483333334, "bike_id": "3d795029503a6352d69042ca1f4204e9", "fusion_lon": 0.0}, {"rental_uris": {"ios": "https://dc.lft.to/lastmile_qr_scan", "android": "https://dc.lft.to/lastmile_qr_scan"}, "type": "electric_scooter", "name": "7f3ef2fe5ea42b260f44d4ae047faeb8", "is_reserved": 0, "lon": -77.06780116666667, "is_disabled": 0, "fusion_lat": 0.0, "lat": 38.90878466666667, "bike_id": "7f3ef2fe5ea42b260f44d4ae047faeb8", "fusion_lon": 0.0}, {"rental_uris": {"ios": "https://dc.lft.to/lastmile_qr_scan", "android": "https://dc.lft.to/lastmile_qr_scan"}, "type": "electric_scooter", "name": "ae2922da92c9f1eb9dcd21c8128dcd24", "is_reserved": 0, "lon": -77.02982383333334, "is_disabled": 0, "fusion_lat": 0.0, "lat": 38.92366233333333, "bike_id": "ae2922da92c9f1eb9dcd21c8128dcd24", "fusion_lon": 0.0}, {"rental_uris": {"ios": "https://dc.lft.to/lastmile_qr_scan", "android": "https://dc.lft.to/lastmile_qr_scan"}, "type": "electric_scooter", "name": "df175d2f440424a5e231dd3e19339d8f", "is_reserved": 0, "lon": -77.037508, "is_disabled": 0, "fusion_lat": 0.0, "lat": 38.932029166666666, "bike_id": "df175d2f440424a5e231dd3e19339d8f", "fusion_lon": 0.0}, {"rental_uris": {"ios": "https://dc.lft.to/lastmile_qr_scan", "android": "https://dc.lft.to/lastmile_qr_scan"}, "type": "electric_scooter", "name": "38757498c53b65a0fc74b4f3e2260321", "is_reserved": 0, "lon": -77.04221683333333, "is_disabled": 0, "fusion_lat": 0.0, "lat": 38.9111615, "bike_id": "38757498c53b65a0fc74b4f3e2260321", "fusion_lon": 0.0}, {"rental_uris": {"ios": "https://dc.lft.to/lastmile_qr_scan", "android": "https://dc.lft.to/lastmile_qr_scan"}, "type": "electric_scooter", "name": "ca23fdbcd645948770ccb4dbe8ccf728", "is_reserved": 0, "lon": -77.02416183333334, "is_disabled": 0, "fusion_lat": 0.0, "lat": 38.90952133333333, "bike_id": "ca23fdbcd645948770ccb4dbe8ccf728", "fusion_lon": 0.0}, {"rental_uris": {"ios": "https://dc.lft.to/lastmile_qr_scan", "android": "https://dc.lft.to/lastmile_qr_scan"}, "type": "electric_bike", "name": "fe2d3f0e0d8a2c1a21f43a0d3e58f4d9", "is_reserved": 0, "lon": -77.06696383333333, "is_disabled": 0, "fusion_lat": 0.0, "lat": 38.83167266666667, "bike_id": "fe2d3f0e0d8a2c1a21f43a0d3e58f4d9", "fusion_lon": 0.0}, {"rental_uris": {"ios": "https://dc.lft.to/lastmile_qr_scan", "android": "https://dc.lft.to/lastmile_qr_scan"}, "type": "electric_scooter", "name": "7e9b3ac5f08cdd999701d1bae665b6ac", "is_reserved": 0, "lon": -76.970546, "is_disabled": 0, "fusion_lat": 0.0, "lat": 38.87326233333334, "bike_id": "7e9b3ac5f08cdd999701d1bae665b6ac", "fusion_lon": 0.0}, {"rental_uris": {"ios": "https://dc.lft.to/lastmile_qr_scan", "android": "https://dc.lft.to/lastmile_qr_scan"}, "type": "electric_scooter", "name": "1dc6a96ec7a15e87f6eb581bd9e4196f", "is_reserved": 0, "lon": -77.0289625, "is_disabled": 0, "fusion_lat": 0.0, "lat": 38.940433, "bike_id": "1dc6a96ec7a15e87f6eb581bd9e4196f", "fusion_lon": 0.0}, {"rental_uris": {"ios": "https://dc.lft.to/lastmile_qr_scan", "android": "https://dc.lft.to/lastmile_qr_scan"}, "type": "electric_scooter", "name": "d7bbed55d22a8f19a1096a2043212126", "is_reserved": 0, "lon": -76.98603616666666, "is_disabled": 0, "fusion_lat": 0.0, "lat": 38.878348833333334, "bike_id": "d7bbed55d22a8f19a1096a2043212126", "fusion_lon": 0.0}, {"rental_uris": {"ios": "https://dc.lft.to/lastmile_qr_scan", "android": "https://dc.lft.to/lastmile_qr_scan"}, "type": "electric_scooter", "name": "0e1b8ec70ec5f848724a5406b5c9a052", "is_reserved": 0, "lon": -77.01910016666666, "is_disabled": 0, "fusion_lat": 0.0, "lat": 38.897927833333334, "bike_id": "0e1b8ec70ec5f848724a5406b5c9a052", "fusion_lon": 0.0}, {"rental_uris": {"ios": "https://dc.lft.to/lastmile_qr_scan", "android": "https://dc.lft.to/lastmile_qr_scan"}, "type": "electric_scooter", "name": "422bf2ff93aeb9b0ac7ac6e7153240e2", "is_reserved": 0, "lon": -77.05209533333333, "is_disabled": 0, "fusion_lat": 0.0, "lat": 38.924413666666666, "bike_id": "422bf2ff93aeb9b0ac7ac6e7153240e2", "fusion_lon": 0.0}, {"rental_uris": {"ios": "https://dc.lft.to/lastmile_qr_scan", "android": "https://dc.lft.to/lastmile_qr_scan"}, "type": "electric_scooter", "name": "dd6e8c05cd0644d76e31817df394d30c", "is_reserved": 0, "lon": -77.00213266666667, "is_disabled": 0, "fusion_lat": 0.0, "lat": 38.900453, "bike_id": "dd6e8c05cd0644d76e31817df394d30c", "fusion_lon": 0.0}, {"rental_uris": {"ios": "https://dc.lft.to/lastmile_qr_scan", "android": "https://dc.lft.to/lastmile_qr_scan"}, "type": "electric_scooter", "name": "9883fe577869e1e73f83ea4c54a6139e", "is_reserved": 0, "lon": -77.0395625, "is_disabled": 0, "fusion_lat": 0.0, "lat": 38.89239283333333, "bike_id": "9883fe577869e1e73f83ea4c54a6139e", "fusion_lon": 0.0}, {"rental_uris": {"ios": "https://dc.lft.to/lastmile_qr_scan", "android": "https://dc.lft.to/lastmile_qr_scan"}, "type": "electric_scooter", "name": "01f40f6f51474a6c986859a3779005b3", "is_reserved": 0, "lon": -77.03028816666667, "is_disabled": 0, "fusion_lat": 0.0, "lat": 38.922403833333334, "bike_id": "01f40f6f51474a6c986859a3779005b3", "fusion_lon": 0.0}, {"rental_uris": {"ios": "https://dc.lft.to/lastmile_qr_scan", "android": "https://dc.lft.to/lastmile_qr_scan"}, "type": "electric_scooter", "name": "56d3430d73dcbbcc825f421b932d191f", "is_reserved": 0, "lon": -77.02620883333333, "is_disabled": 0, "fusion_lat": 0.0, "lat": 38.892180833333335, "bike_id": "56d3430d73dcbbcc825f421b932d191f", "fusion_lon": 0.0}, {"rental_uris": {"ios": "https://dc.lft.to/lastmile_qr_scan", "android": "https://dc.lft.to/lastmile_qr_scan"}, "type": "electric_scooter", "name": "619eb56a610cc3f7cb283622299cdcbd", "is_reserved": 0, "lon": -77.0232845, "is_disabled": 0, "fusion_lat": 0.0, "lat": 38.922960833333335, "bike_id": "619eb56a610cc3f7cb283622299cdcbd", "fusion_lon": 0.0}, {"rental_uris": {"ios": "https://dc.lft.to/lastmile_qr_scan", "android": "https://dc.lft.to/lastmile_qr_scan"}, "type": "electric_scooter", "name": "5be8dd68f721f797b82e6361f2f8c0ac", "is_reserved": 0, "lon": -77.0304885, "is_disabled": 0, "fusion_lat": 0.0, "lat": 38.884107166666666, "bike_id": "5be8dd68f721f797b82e6361f2f8c0ac", "fusion_lon": 0.0}, {"rental_uris": {"ios": "https://dc.lft.to/lastmile_qr_scan", "android": "https://dc.lft.to/lastmile_qr_scan"}, "type": "electric_scooter", "name": "63df58dda1889a7afb7fe8ac8c87f92d", "is_reserved": 0, "lon": -77.0421075, "is_disabled": 0, "fusion_lat": 0.0, "lat": 38.921296, "bike_id": "63df58dda1889a7afb7fe8ac8c87f92d", "fusion_lon": 0.0}, {"rental_uris": {"ios": "https://dc.lft.to/lastmile_qr_scan", "android": "https://dc.lft.to/lastmile_qr_scan"}, "type": "electric_scooter", "name": "d080f5086545d1eeffbd55b424de8a1b", "is_reserved": 0, "lon": -76.9825985, "is_disabled": 0, "fusion_lat": 0.0, "lat": 38.8663375, "bike_id": "d080f5086545d1eeffbd55b424de8a1b", "fusion_lon": 0.0}, {"rental_uris": {"ios": "https://dc.lft.to/lastmile_qr_scan", "android": "https://dc.lft.to/lastmile_qr_scan"}, "type": "electric_bike", "name": "f3e51413fb10f99e5f4a6d716bf0414c", "is_reserved": 0, "lon": -77.07954616666666, "is_disabled": 0, "fusion_lat": 0.0, "lat": 38.848979, "bike_id": "f3e51413fb10f99e5f4a6d716bf0414c", "fusion_lon": 0.0}, {"rental_uris": {"ios": "https://dc.lft.to/lastmile_qr_scan", "android": "https://dc.lft.to/lastmile_qr_scan"}, "type": "electric_scooter", "name": "13e93496cdfd2d90646894533b0484ef", "is_reserved": 0, "lon": -77.036602, "is_disabled": 0, "fusion_lat": 0.0, "lat": 38.922802, "bike_id": "13e93496cdfd2d90646894533b0484ef", "fusion_lon": 0.0}, {"rental_uris": {"ios": "https://dc.lft.to/lastmile_qr_scan", "android": "https://dc.lft.to/lastmile_qr_scan"}, "type": "electric_scooter", "name": "1ec75f157fbb8c4ebbc9bd558d2639f2", "is_reserved": 0, "lon": -77.02040133333334, "is_disabled": 0, "fusion_lat": 0.0, "lat": 38.922446, "bike_id": "1ec75f157fbb8c4ebbc9bd558d2639f2", "fusion_lon": 0.0}, {"rental_uris": {"ios": "https://dc.lft.to/lastmile_qr_scan", "android": "https://dc.lft.to/lastmile_qr_scan"}, "type": "electric_scooter", "name": "76112cd2fbc388bbfe7d725318782714", "is_reserved": 0, "lon": -77.0344125, "is_disabled": 0, "fusion_lat": 0.0, "lat": 38.909721833333336, "bike_id": "76112cd2fbc388bbfe7d725318782714", "fusion_lon": 0.0}, {"rental_uris": {"ios": "https://dc.lft.to/lastmile_qr_scan", "android": "https://dc.lft.to/lastmile_qr_scan"}, "type": "electric_scooter", "name": "2e0f384a1a4fec960e227c9c2e2323e6", "is_reserved": 0, "lon": -77.00099783333333, "is_disabled": 0, "fusion_lat": 0.0, "lat": 38.881228166666666, "bike_id": "2e0f384a1a4fec960e227c9c2e2323e6", "fusion_lon": 0.0}, {"rental_uris": {"ios": "https://dc.lft.to/lastmile_qr_scan", "android": "https://dc.lft.to/lastmile_qr_scan"}, "type": "electric_scooter", "name": "cf12952ac827be59e47a04f4351692e5", "is_reserved": 0, "lon": -77.0198065, "is_disabled": 0, "fusion_lat": 0.0, "lat": 38.899576333333336, "bike_id": "cf12952ac827be59e47a04f4351692e5", "fusion_lon": 0.0}, {"rental_uris": {"ios": "https://dc.lft.to/lastmile_qr_scan", "android": "https://dc.lft.to/lastmile_qr_scan"}, "type": "electric_bike", "name": "34719282ba5a2e13d0621de0b3147be6", "is_reserved": 0, "lon": -77.020105, "is_disabled": 0, "fusion_lat": 0.0, "lat": 38.9644245, "bike_id": "34719282ba5a2e13d0621de0b3147be6", "fusion_lon": 0.0}, {"rental_uris": {"ios": "https://dc.lft.to/lastmile_qr_scan", "android": "https://dc.lft.to/lastmile_qr_scan"}, "type": "electric_scooter", "name": "2830febd54b768814dd612d3843ed345", "is_reserved": 0, "lon": -77.018546, "is_disabled": 0, "fusion_lat": 0.0, "lat": 38.948850166666666, "bike_id": "2830febd54b768814dd612d3843ed345", "fusion_lon": 0.0}, {"rental_uris": {"ios": "https://dc.lft.to/lastmile_qr_scan", "android": "https://dc.lft.to/lastmile_qr_scan"}, "type": "electric_scooter", "name": "d6e99ab231034ed9f15e2151de3db13e", "is_reserved": 0, "lon": -77.02595366666667, "is_disabled": 0, "fusion_lat": 0.0, "lat": 38.91957083333333, "bike_id": "d6e99ab231034ed9f15e2151de3db13e", "fusion_lon": 0.0}, {"rental_uris": {"ios": "https://dc.lft.to/lastmile_qr_scan", "android": "https://dc.lft.to/lastmile_qr_scan"}, "type": "electric_scooter", "name": "6ba85e19b1b87ff12c9831ba88974ea6", "is_reserved": 0, "lon": -77.02717066666666, "is_disabled": 0, "fusion_lat": 0.0, "lat": 38.92403633333333, "bike_id": "6ba85e19b1b87ff12c9831ba88974ea6", "fusion_lon": 0.0}, {"rental_uris": {"ios": "https://dc.lft.to/lastmile_qr_scan", "android": "https://dc.lft.to/lastmile_qr_scan"}, "type": "electric_scooter", "name": "c816a302a8f27b0a60a3527f98d8c5aa", "is_reserved": 0, "lon": -77.04653116666667, "is_disabled": 0, "fusion_lat": 0.0, "lat": 38.91961416666667, "bike_id": "c816a302a8f27b0a60a3527f98d8c5aa", "fusion_lon": 0.0}, {"rental_uris": {"ios": "https://dc.lft.to/lastmile_qr_scan", "android": "https://dc.lft.to/lastmile_qr_scan"}, "type": "electric_scooter", "name": "322c3812fc00789442baf6eba269d392", "is_reserved": 0, "lon": -77.0192945, "is_disabled": 0, "fusion_lat": 0.0, "lat": 38.92877, "bike_id": "322c3812fc00789442baf6eba269d392", "fusion_lon": 0.0}, {"rental_uris": {"ios": "https://dc.lft.to/lastmile_qr_scan", "android": "https://dc.lft.to/lastmile_qr_scan"}, "type": "electric_scooter", "name": "ed92f56b782d65bf2f43cb95dc09d4da", "is_reserved": 0, "lon": -77.017688, "is_disabled": 0, "fusion_lat": 0.0, "lat": 38.92095, "bike_id": "ed92f56b782d65bf2f43cb95dc09d4da", "fusion_lon": 0.0}, {"rental_uris": {"ios": "https://dc.lft.to/lastmile_qr_scan", "android": "https://dc.lft.to/lastmile_qr_scan"}, "type": "electric_scooter", "name": "8056b2ba8bdda04b430425052d83f08d", "is_reserved": 0, "lon": -77.01222566666667, "is_disabled": 0, "fusion_lat": 0.0, "lat": 38.9203735, "bike_id": "8056b2ba8bdda04b430425052d83f08d", "fusion_lon": 0.0}, {"rental_uris": {"ios": "https://dc.lft.to/lastmile_qr_scan", "android": "https://dc.lft.to/lastmile_qr_scan"}, "type": "electric_scooter", "name": "e20beb6182399cc56371421b1e64f4e6", "is_reserved": 0, "lon": -77.00920666666667, "is_disabled": 0, "fusion_lat": 0.0, "lat": 38.8818375, "bike_id": "e20beb6182399cc56371421b1e64f4e6", "fusion_lon": 0.0}, {"rental_uris": {"ios": "https://dc.lft.to/lastmile_qr_scan", "android": "https://dc.lft.to/lastmile_qr_scan"}, "type": "electric_bike", "name": "a60b42c93c37e2ed4b24e421efc38205", "is_reserved": 0, "lon": -77.00384133333333, "is_disabled": 0, "fusion_lat": 0.0, "lat": 38.836104166666665, "bike_id": "a60b42c93c37e2ed4b24e421efc38205", "fusion_lon": 0.0}, {"rental_uris": {"ios": "https://dc.lft.to/lastmile_qr_scan", "android": "https://dc.lft.to/lastmile_qr_scan"}, "type": "electric_scooter", "name": "2d0605207cb5dacb5924bed438369acb", "is_reserved": 0, "lon": -77.032594, "is_disabled": 0, "fusion_lat": 0.0, "lat": 38.91986333333333, "bike_id": "2d0605207cb5dacb5924bed438369acb", "fusion_lon": 0.0}, {"rental_uris": {"ios": "https://dc.lft.to/lastmile_qr_scan", "android": "https://dc.lft.to/lastmile_qr_scan"}, "type": "electric_scooter", "name": "a845b6ce26972eb3c7822d5ffd538393", "is_reserved": 0, "lon": -77.02312116666667, "is_disabled": 0, "fusion_lat": 0.0, "lat": 38.917638833333335, "bike_id": "a845b6ce26972eb3c7822d5ffd538393", "fusion_lon": 0.0}, {"rental_uris": {"ios": "https://dc.lft.to/lastmile_qr_scan", "android": "https://dc.lft.to/lastmile_qr_scan"}, "type": "electric_scooter", "name": "53f7b78e91cd7d7a09acd8727475ba35", "is_reserved": 0, "lon": -77.03755133333334, "is_disabled": 0, "fusion_lat": 0.0, "lat": 38.92914283333333, "bike_id": "53f7b78e91cd7d7a09acd8727475ba35", "fusion_lon": 0.0}, {"rental_uris": {"ios": "https://dc.lft.to/lastmile_qr_scan", "android": "https://dc.lft.to/lastmile_qr_scan"}, "type": "electric_scooter", "name": "2a576e09e825598566ebe5e6e2748944", "is_reserved": 0, "lon": -77.07459966666667, "is_disabled": 0, "fusion_lat": 0.0, "lat": 38.920717333333336, "bike_id": "2a576e09e825598566ebe5e6e2748944", "fusion_lon": 0.0}, {"rental_uris": {"ios": "https://dc.lft.to/lastmile_qr_scan", "android": "https://dc.lft.to/lastmile_qr_scan"}, "type": "electric_scooter", "name": "3c2c78f54a91124214f7f44f7e8e8e8a", "is_reserved": 0, "lon": -77.00822033333333, "is_disabled": 0, "fusion_lat": 0.0, "lat": 38.8765585, "bike_id": "3c2c78f54a91124214f7f44f7e8e8e8a", "fusion_lon": 0.0}, {"rental_uris": {"ios": "https://dc.lft.to/lastmile_qr_scan", "android": "https://dc.lft.to/lastmile_qr_scan"}, "type": "electric_scooter", "name": "caafcf4b2d86d994ea973375d8c4f40d", "is_reserved": 0, "lon": -77.04802866666667, "is_disabled": 0, "fusion_lat": 0.0, "lat": 38.892246666666665, "bike_id": "caafcf4b2d86d994ea973375d8c4f40d", "fusion_lon": 0.0}, {"rental_uris": {"ios": "https://dc.lft.to/lastmile_qr_scan", "android": "https://dc.lft.to/lastmile_qr_scan"}, "type": "electric_scooter", "name": "54a5af11dbb145d6c24d6095e42c675c", "is_reserved": 0, "lon": -77.04412016666667, "is_disabled": 0, "fusion_lat": 0.0, "lat": 38.9259625, "bike_id": "54a5af11dbb145d6c24d6095e42c675c", "fusion_lon": 0.0}, {"rental_uris": {"ios": "https://dc.lft.to/lastmile_qr_scan", "android": "https://dc.lft.to/lastmile_qr_scan"}, "type": "electric_scooter", "name": "9f8d210a76788acf5211895cf8f60e4d", "is_reserved": 0, "lon": -77.02099783333334, "is_disabled": 0, "fusion_lat": 0.0, "lat": 38.931182166666666, "bike_id": "9f8d210a76788acf5211895cf8f60e4d", "fusion_lon": 0.0}, {"rental_uris": {"ios": "https://dc.lft.to/lastmile_qr_scan", "android": "https://dc.lft.to/lastmile_qr_scan"}, "type": "electric_scooter", "name": "5a14bdc547f3bf2e90b1c962672fb788", "is_reserved": 0, "lon": -77.02339066666667, "is_disabled": 0, "fusion_lat": 0.0, "lat": 38.927018333333336, "bike_id": "5a14bdc547f3bf2e90b1c962672fb788", "fusion_lon": 0.0}, {"rental_uris": {"ios": "https://dc.lft.to/lastmile_qr_scan", "android": "https://dc.lft.to/lastmile_qr_scan"}, "type": "electric_scooter", "name": "35813699ab43a526d2e283b852a9291a", "is_reserved": 0, "lon": -77.0349725, "is_disabled": 0, "fusion_lat": 0.0, "lat": 38.928590166666666, "bike_id": "35813699ab43a526d2e283b852a9291a", "fusion_lon": 0.0}, {"rental_uris": {"ios": "https://dc.lft.to/lastmile_qr_scan", "android": "https://dc.lft.to/lastmile_qr_scan"}, "type": "electric_scooter", "name": "41cde8f12efb39afa234538eb4eef08d", "is_reserved": 0, "lon": -77.0230375, "is_disabled": 0, "fusion_lat": 0.0, "lat": 38.910540833333336, "bike_id": "41cde8f12efb39afa234538eb4eef08d", "fusion_lon": 0.0}, {"rental_uris": {"ios": "https://dc.lft.to/lastmile_qr_scan", "android": "https://dc.lft.to/lastmile_qr_scan"}, "type": "electric_scooter", "name": "5cd90da519789f522e7c32676ec03f7b", "is_reserved": 0, "lon": -77.04483033333334, "is_disabled": 0, "fusion_lat": 0.0, "lat": 38.908026166666666, "bike_id": "5cd90da519789f522e7c32676ec03f7b", "fusion_lon": 0.0}, {"rental_uris": {"ios": "https://dc.lft.to/lastmile_qr_scan", "android": "https://dc.lft.to/lastmile_qr_scan"}, "type": "electric_scooter", "name": "c72482a30f147e0c35496cdcf23bb476", "is_reserved": 0, "lon": -77.039144, "is_disabled": 0, "fusion_lat": 0.0, "lat": 38.908154333333336, "bike_id": "c72482a30f147e0c35496cdcf23bb476", "fusion_lon": 0.0}, {"rental_uris": {"ios": "https://dc.lft.to/lastmile_qr_scan", "android": "https://dc.lft.to/lastmile_qr_scan"}, "type": "electric_scooter", "name": "684c3a1aa8bfe0787ce55a674f157b80", "is_reserved": 0, "lon": -77.02397733333333, "is_disabled": 0, "fusion_lat": 0.0, "lat": 38.91758516666667, "bike_id": "684c3a1aa8bfe0787ce55a674f157b80", "fusion_lon": 0.0}, {"rental_uris": {"ios": "https://dc.lft.to/lastmile_qr_scan", "android": "https://dc.lft.to/lastmile_qr_scan"}, "type": "electric_scooter", "name": "f0427c3db608756da737808ba9108c17", "is_reserved": 0, "lon": -76.9855235, "is_disabled": 0, "fusion_lat": 0.0, "lat": 38.88992916666667, "bike_id": "f0427c3db608756da737808ba9108c17", "fusion_lon": 0.0}, {"rental_uris": {"ios": "https://dc.lft.to/lastmile_qr_scan", "android": "https://dc.lft.to/lastmile_qr_scan"}, "type": "electric_scooter", "name": "77fb1aa8013aa0b6f9b80ac65ba98542", "is_reserved": 0, "lon": -76.9844865, "is_disabled": 0, "fusion_lat": 0.0, "lat": 38.914703333333335, "bike_id": "77fb1aa8013aa0b6f9b80ac65ba98542", "fusion_lon": 0.0}, {"rental_uris": {"ios": "https://dc.lft.to/lastmile_qr_scan", "android": "https://dc.lft.to/lastmile_qr_scan"}, "type": "electric_scooter", "name": "16c43a0bf61c8310e8e109dcb21cbf42", "is_reserved": 0, "lon": -77.00483566666666, "is_disabled": 0, "fusion_lat": 0.0, "lat": 38.90531033333333, "bike_id": "16c43a0bf61c8310e8e109dcb21cbf42", "fusion_lon": 0.0}, {"rental_uris": {"ios": "https://dc.lft.to/lastmile_qr_scan", "android": "https://dc.lft.to/lastmile_qr_scan"}, "type": "electric_scooter", "name": "7f361b401597c44ffae00dee553709ac", "is_reserved": 0, "lon": -77.05328983333334, "is_disabled": 0, "fusion_lat": 0.0, "lat": 38.907260666666666, "bike_id": "7f361b401597c44ffae00dee553709ac", "fusion_lon": 0.0}, {"rental_uris": {"ios": "https://dc.lft.to/lastmile_qr_scan", "android": "https://dc.lft.to/lastmile_qr_scan"}, "type": "electric_scooter", "name": "f3da0f9ee576f2acf99c2b2dcbcfaf0f", "is_reserved": 0, "lon": -77.04736516666667, "is_disabled": 0, "fusion_lat": 0.0, "lat": 38.912597, "bike_id": "f3da0f9ee576f2acf99c2b2dcbcfaf0f", "fusion_lon": 0.0}, {"rental_uris": {"ios": "https://dc.lft.to/lastmile_qr_scan", "android": "https://dc.lft.to/lastmile_qr_scan"}, "type": "electric_scooter", "name": "7b4a43366bcb6ae29aeaf5e06e294ea1", "is_reserved": 0, "lon": -77.0347105, "is_disabled": 0, "fusion_lat": 0.0, "lat": 38.93021016666667, "bike_id": "7b4a43366bcb6ae29aeaf5e06e294ea1", "fusion_lon": 0.0}, {"rental_uris": {"ios": "https://dc.lft.to/lastmile_qr_scan", "android": "https://dc.lft.to/lastmile_qr_scan"}, "type": "electric_scooter", "name": "d53627c6884db16f8e4ea4e328d42f31", "is_reserved": 0, "lon": -76.98599983333334, "is_disabled": 0, "fusion_lat": 0.0, "lat": 38.87834483333334, "bike_id": "d53627c6884db16f8e4ea4e328d42f31", "fusion_lon": 0.0}, {"rental_uris": {"ios": "https://dc.lft.to/lastmile_qr_scan", "android": "https://dc.lft.to/lastmile_qr_scan"}, "type": "electric_bike", "name": "379a9be5f564f2ac02d37733f8b052b5", "is_reserved": 0, "lon": -76.8896745, "is_disabled": 0, "fusion_lat": 0.0, "lat": 39.00780266666667, "bike_id": "379a9be5f564f2ac02d37733f8b052b5", "fusion_lon": 0.0}, {"rental_uris": {"ios": "https://dc.lft.to/lastmile_qr_scan", "android": "https://dc.lft.to/lastmile_qr_scan"}, "type": "electric_scooter", "name": "774891f12de02d30c19977b2d245d830", "is_reserved": 0, "lon": -77.03447116666666, "is_disabled": 0, "fusion_lat": 0.0, "lat": 38.907321833333334, "bike_id": "774891f12de02d30c19977b2d245d830", "fusion_lon": 0.0}, {"rental_uris": {"ios": "https://dc.lft.to/lastmile_qr_scan", "android": "https://dc.lft.to/lastmile_qr_scan"}, "type": "electric_scooter", "name": "9f62712c70e7fc808a4372f9f327f71d", "is_reserved": 0, "lon": -77.00874, "is_disabled": 0, "fusion_lat": 0.0, "lat": 38.912497333333334, "bike_id": "9f62712c70e7fc808a4372f9f327f71d", "fusion_lon": 0.0}, {"rental_uris": {"ios": "https://dc.lft.to/lastmile_qr_scan", "android": "https://dc.lft.to/lastmile_qr_scan"}, "type": "electric_scooter", "name": "a365b3174a77f20b83ea2b1e86c8d6f5", "is_reserved": 0, "lon": -77.02457, "is_disabled": 0, "fusion_lat": 0.0, "lat": 38.925054, "bike_id": "a365b3174a77f20b83ea2b1e86c8d6f5", "fusion_lon": 0.0}, {"rental_uris": {"ios": "https://dc.lft.to/lastmile_qr_scan", "android": "https://dc.lft.to/lastmile_qr_scan"}, "type": "electric_scooter", "name": "85466010af2fb50920e3f95afa014bfe", "is_reserved": 0, "lon": -77.0395585, "is_disabled": 0, "fusion_lat": 0.0, "lat": 38.8923935, "bike_id": "85466010af2fb50920e3f95afa014bfe", "fusion_lon": 0.0}, {"rental_uris": {"ios": "https://dc.lft.to/lastmile_qr_scan", "android": "https://dc.lft.to/lastmile_qr_scan"}, "type": "electric_scooter", "name": "ae9b1f8b33ee8ed44819152025883cf8", "is_reserved": 0, "lon": -77.02054316666667, "is_disabled": 0, "fusion_lat": 0.0, "lat": 38.922439833333335, "bike_id": "ae9b1f8b33ee8ed44819152025883cf8", "fusion_lon": 0.0}, {"rental_uris": {"ios": "https://dc.lft.to/lastmile_qr_scan", "android": "https://dc.lft.to/lastmile_qr_scan"}, "type": "electric_scooter", "name": "02d1687a1f6b1d10022cd89e2c48c749", "is_reserved": 0, "lon": -77.00936733333333, "is_disabled": 0, "fusion_lat": 0.0, "lat": 38.87671566666667, "bike_id": "02d1687a1f6b1d10022cd89e2c48c749", "fusion_lon": 0.0}, {"rental_uris": {"ios": "https://dc.lft.to/lastmile_qr_scan", "android": "https://dc.lft.to/lastmile_qr_scan"}, "type": "electric_scooter", "name": "8e04586b953ca08d3d15336bf756d68e", "is_reserved": 0, "lon": -76.99411683333334, "is_disabled": 0, "fusion_lat": 0.0, "lat": 38.87783233333333, "bike_id": "8e04586b953ca08d3d15336bf756d68e", "fusion_lon": 0.0}, {"rental_uris": {"ios": "https://dc.lft.to/lastmile_qr_scan", "android": "https://dc.lft.to/lastmile_qr_scan"}, "type": "electric_bike", "name": "3e9e4a8af986b824deb3e7d7214fa616", "is_reserved": 0, "lon": -76.98536016666667, "is_disabled": 0, "fusion_lat": 0.0, "lat": 38.883554333333336, "bike_id": "3e9e4a8af986b824deb3e7d7214fa616", "fusion_lon": 0.0}, {"rental_uris": {"ios": "https://dc.lft.to/lastmile_qr_scan", "android": "https://dc.lft.to/lastmile_qr_scan"}, "type": "electric_scooter", "name": "6ad989355c7193a110f65df494be2235", "is_reserved": 0, "lon": -77.03131366666666, "is_disabled": 0, "fusion_lat": 0.0, "lat": 38.91801233333333, "bike_id": "6ad989355c7193a110f65df494be2235", "fusion_lon": 0.0}, {"rental_uris": {"ios": "https://dc.lft.to/lastmile_qr_scan", "android": "https://dc.lft.to/lastmile_qr_scan"}, "type": "electric_scooter", "name": "f6f07b14e3fcd34c0fe0f16d633187dc", "is_reserved": 0, "lon": -76.98403533333334, "is_disabled": 0, "fusion_lat": 0.0, "lat": 38.925195333333335, "bike_id": "f6f07b14e3fcd34c0fe0f16d633187dc", "fusion_lon": 0.0}, {"rental_uris": {"ios": "https://dc.lft.to/lastmile_qr_scan", "android": "https://dc.lft.to/lastmile_qr_scan"}, "type": "electric_scooter", "name": "35d6b6217429a9ac48c226dc69cc7035", "is_reserved": 0, "lon": -77.019371, "is_disabled": 0, "fusion_lat": 0.0, "lat": 38.87659416666666, "bike_id": "35d6b6217429a9ac48c226dc69cc7035", "fusion_lon": 0.0}, {"rental_uris": {"ios": "https://dc.lft.to/lastmile_qr_scan", "android": "https://dc.lft.to/lastmile_qr_scan"}, "type": "electric_scooter", "name": "03d9808222bd1bf373dc7865955315b1", "is_reserved": 0, "lon": -77.034732, "is_disabled": 0, "fusion_lat": 0.0, "lat": 38.91701616666667, "bike_id": "03d9808222bd1bf373dc7865955315b1", "fusion_lon": 0.0}, {"rental_uris": {"ios": "https://dc.lft.to/lastmile_qr_scan", "android": "https://dc.lft.to/lastmile_qr_scan"}, "type": "electric_scooter", "name": "6013ba67b99bf8d0c3bd27a37a493c99", "is_reserved": 0, "lon": -77.04391183333334, "is_disabled": 0, "fusion_lat": 0.0, "lat": 38.916510333333335, "bike_id": "6013ba67b99bf8d0c3bd27a37a493c99", "fusion_lon": 0.0}, {"rental_uris": {"ios": "https://dc.lft.to/lastmile_qr_scan", "android": "https://dc.lft.to/lastmile_qr_scan"}, "type": "electric_scooter", "name": "33f912a05d553ce8fc0ed0165f1a064f", "is_reserved": 0, "lon": -77.0276145, "is_disabled": 0, "fusion_lat": 0.0, "lat": 38.923788333333334, "bike_id": "33f912a05d553ce8fc0ed0165f1a064f", "fusion_lon": 0.0}, {"rental_uris": {"ios": "https://dc.lft.to/lastmile_qr_scan", "android": "https://dc.lft.to/lastmile_qr_scan"}, "type": "electric_scooter", "name": "2617cf21970843e1c14fddaed9c2ae14", "is_reserved": 0, "lon": -77.01226516666667, "is_disabled": 0, "fusion_lat": 0.0, "lat": 38.9168475, "bike_id": "2617cf21970843e1c14fddaed9c2ae14", "fusion_lon": 0.0}, {"rental_uris": {"ios": "https://dc.lft.to/lastmile_qr_scan", "android": "https://dc.lft.to/lastmile_qr_scan"}, "type": "electric_scooter", "name": "8c79ee61617cc19dff0d0b958fe846c4", "is_reserved": 0, "lon": -76.97803616666667, "is_disabled": 0, "fusion_lat": 0.0, "lat": 38.90308516666666, "bike_id": "8c79ee61617cc19dff0d0b958fe846c4", "fusion_lon": 0.0}, {"rental_uris": {"ios": "https://dc.lft.to/lastmile_qr_scan", "android": "https://dc.lft.to/lastmile_qr_scan"}, "type": "electric_scooter", "name": "96dcf920f86c9a5f2660531a4cc1d743", "is_reserved": 0, "lon": -77.0332895, "is_disabled": 0, "fusion_lat": 0.0, "lat": 38.8964345, "bike_id": "96dcf920f86c9a5f2660531a4cc1d743", "fusion_lon": 0.0}, {"rental_uris": {"ios": "https://dc.lft.to/lastmile_qr_scan", "android": "https://dc.lft.to/lastmile_qr_scan"}, "type": "electric_scooter", "name": "6e7a930d37917981204bca530611340c", "is_reserved": 0, "lon": -77.029812, "is_disabled": 0, "fusion_lat": 0.0, "lat": 38.923663166666664, "bike_id": "6e7a930d37917981204bca530611340c", "fusion_lon": 0.0}, {"rental_uris": {"ios": "https://dc.lft.to/lastmile_qr_scan", "android": "https://dc.lft.to/lastmile_qr_scan"}, "type": "electric_scooter", "name": "0a875e9eedd4a8163ab9ca0bd520139f", "is_reserved": 0, "lon": -76.96982966666667, "is_disabled": 0, "fusion_lat": 0.0, "lat": 38.8739795, "bike_id": "0a875e9eedd4a8163ab9ca0bd520139f", "fusion_lon": 0.0}, {"rental_uris": {"ios": "https://dc.lft.to/lastmile_qr_scan", "android": "https://dc.lft.to/lastmile_qr_scan"}, "type": "electric_scooter", "name": "48e382cd17b1cce6ab5846d87740a7d3", "is_reserved": 0, "lon": -77.02230183333333, "is_disabled": 0, "fusion_lat": 0.0, "lat": 38.89218916666667, "bike_id": "48e382cd17b1cce6ab5846d87740a7d3", "fusion_lon": 0.0}, {"rental_uris": {"ios": "https://dc.lft.to/lastmile_qr_scan", "android": "https://dc.lft.to/lastmile_qr_scan"}, "type": "electric_scooter", "name": "2e9f34f5ab3ecbd0e58159d7f3739913", "is_reserved": 0, "lon": -76.9615815, "is_disabled": 0, "fusion_lat": 0.0, "lat": 38.883562166666664, "bike_id": "2e9f34f5ab3ecbd0e58159d7f3739913", "fusion_lon": 0.0}, {"rental_uris": {"ios": "https://dc.lft.to/lastmile_qr_scan", "android": "https://dc.lft.to/lastmile_qr_scan"}, "type": "electric_scooter", "name": "be09389743d09b142ac93c213f0e6ceb", "is_reserved": 0, "lon": -77.03632166666667, "is_disabled": 0, "fusion_lat": 0.0, "lat": 38.935018166666666, "bike_id": "be09389743d09b142ac93c213f0e6ceb", "fusion_lon": 0.0}, {"rental_uris": {"ios": "https://dc.lft.to/lastmile_qr_scan", "android": "https://dc.lft.to/lastmile_qr_scan"}, "type": "electric_scooter", "name": "f41f142f78c85b6044636c72b6c547eb", "is_reserved": 0, "lon": -77.02130233333334, "is_disabled": 0, "fusion_lat": 0.0, "lat": 38.9241765, "bike_id": "f41f142f78c85b6044636c72b6c547eb", "fusion_lon": 0.0}, {"rental_uris": {"ios": "https://dc.lft.to/lastmile_qr_scan", "android": "https://dc.lft.to/lastmile_qr_scan"}, "type": "electric_bike", "name": "e34cdaae6d3806397924fd0922ead8d0", "is_reserved": 0, "lon": -76.9582035, "is_disabled": 0, "fusion_lat": 0.0, "lat": 38.91994733333333, "bike_id": "e34cdaae6d3806397924fd0922ead8d0", "fusion_lon": 0.0}, {"rental_uris": {"ios": "https://dc.lft.to/lastmile_qr_scan", "android": "https://dc.lft.to/lastmile_qr_scan"},