{"data": {"bikes": [{"is_reserved": 0, "is_disabled": 0, "fusion_lat": 0.0, "name": "03c58c699b74dfac3f971128d70ac468", "lat": 38.88504266666666, "lon": -76.9960205, "bike_id": "03c58c699b74dfac3f971128d70ac468", "rental_uris": {"ios": "https://dc.lft.to/lastmile_qr_scan", "android": "https://dc.lft.to/lastmile_qr_scan"}, "type": "electric_scooter", "fusion_lon": 0.0}, {"is_reserved": 0, "is_disabled": 0, "fusion_lat": 0.0, "name": "89b0fdfb0189a94de5068082682c0fe0", "lat": 38.90494733333333, "lon": -77.04865016666666, "bike_id": "89b0fdfb0189a94de5068082682c0fe0", "rental_uris": {"ios": "https://dc.lft.to/lastmile_qr_scan", "android": "https://dc.lft.to/lastmile_qr_scan"}, "type": "electric_scooter", "fusion_lon": 0.0}, {"is_reserved": 0, "is_disabled": 0, "fusion_lat": 0.0, "name": "013f6e123e904ad61057efb7307b2ed8", "lat": 38.9360185, "lon": -77.055986, "bike_id": "013f6e123e904ad61057efb7307b2ed8", "rental_uris": {"ios": "https://dc.lft.to/lastmile_qr_scan", "android": "https://dc.lft.to/lastmile_qr_scan"}, "type": "electric_scooter", "fusion_lon": 0.0}, {"is_reserved": 0, "is_disabled": 0, "fusion_lat": 0.0, "name": "47ff20e94fdd71d61a766b343d27ab08", "lat": 38.903667, "lon": -77.060189, "bike_id": "47ff20e94fdd71d61a766b343d27ab08", "rental_uris": {"ios": "https://dc.lft.to/lastmile_qr_scan", "android": "https://dc.lft.to/lastmile_qr_scan"}, "type": "electric_scooter", "fusion_lon": 0.0}, {"is_reserved": 0, "is_disabled": 0, "fusion_lat": 0.0, "name": "13f2c6aee9cee7af12d38d742bbe0eef", "lat": 38.913509166666664, "lon": -77.04356533333333, "bike_id": "13f2c6aee9cee7af12d38d742bbe0eef", "rental_uris": {"ios": "https://dc.lft.to/lastmile_qr_scan", "android": "https://dc.lft.to/lastmile_qr_scan"}, "type": "electric_scooter", "fusion_lon": 0.0}, {"is_reserved": 0, "is_disabled": 0, "fusion_lat": 0.0, "name": "81e5fb29530e7085c1698fd36612bb4a", "lat": 38.924239, "lon": -77.02131533333333, "bike_id": "81e5fb29530e7085c1698fd36612bb4a", "rental_uris": {"ios": "https://dc.lft.to/lastmile_qr_scan", "android": "https://dc.lft.to/lastmile_qr_scan"}, "type": "electric_scooter", "fusion_lon": 0.0}, {"is_reserved": 0, "is_disabled": 0, "fusion_lat": 0.0, "name": "7f4e4f0499d3fd89df8c59b928713a7f", "lat": 38.876356, "lon": -77.0082205, "bike_id": "7f4e4f0499d3fd89df8c59b928713a7f", "rental_uris": {"ios": "https://dc.lft.to/lastmile_qr_scan", "android": "https://dc.lft.to/lastmile_qr_scan"}, "type": "electric_scooter", "fusion_lon": 0.0}, {"is_reserved": 0, "is_disabled": 0, "fusion_lat": 0.0, "name": "8a4dbda8f7f8fb6c3c47613fb9573586", "lat": 38.9212795, "lon": -77.044307, "bike_id": "8a4dbda8f7f8fb6c3c47613fb9573586", "rental_uris": {"ios": "https://dc.lft.to/lastmile_qr_scan", "android": "https://dc.lft.to/lastmile_qr_scan"}, "type": "electric_scooter", "fusion_lon": 0.0}, {"is_reserved": 0, "is_disabled": 0, "fusion_lat": 0.0, "name": "7776cf100ef3819771074494f87cea13", "lat": 38.903808, "lon": -76.937592, "bike_id": "7776cf100ef3819771074494f87cea13", "rental_uris": {"ios": "https://dc.lft.to/lastmile_qr_scan", "android": "https://dc.lft.to/lastmile_qr_scan"}, "type": "electric_bike", "fusion_lon": 0.0}, {"is_reserved": 0, "is_disabled": 0, "fusion_lat": 0.0, "name": "bfd277e4458a81724aee9874222f3532", "lat": 38.8387155, "lon": -76.99695866666667, "bike_id": "bfd277e4458a81724aee9874222f3532", "rental_uris": {"ios": "https://dc.lft.to/lastmile_qr_scan", "android": "https://dc.lft.to/lastmile_qr_scan"}, "type": "electric_bike", "fusion_lon": 0.0}, {"is_reserved": 0, "is_disabled": 0, "fusion_lat": 0.0, "name": "27dea26e04acb7760576016d56d2b0c0", "lat": 38.91805316666667, "lon": -77.02452333333333, "bike_id": "27dea26e04acb7760576016d56d2b0c0", "rental_uris": {"ios": "https://dc.lft.to/lastmile_qr_scan", "android": "https://dc.lft.to/lastmile_qr_scan"}, "type": "electric_scooter", "fusion_lon": 0.0}, {"is_reserved": 0, "is_disabled": 0, "fusion_lat": 0.0, "name": "06252887d73abf9fa7e60b0f76bbe4d8", "lat": 38.926731333333336, "lon": -77.0147285, "bike_id": "06252887d73abf9fa7e60b0f76bbe4d8", "rental_uris": {"ios": "https://dc.lft.to/lastmile_qr_scan", "android": "https://dc.lft.to/lastmile_qr_scan"}, "type": "electric_scooter", "fusion_lon": 0.0}, {"is_reserved": 0, "is_disabled": 0, "fusion_lat": 0.0, "name": "6f8eb4ed4142f62f7d6956e3f4ae7f2c", "lat": 38.908593333333336, "lon": -76.99799883333333, "bike_id": "6f8eb4ed4142f62f7d6956e3f4ae7f2c", "rental_uris": {"ios": "https://dc.lft.to/lastmile_qr_scan", "android": "https://dc.lft.to/lastmile_qr_scan"}, "type": "electric_scooter", "fusion_lon": 0.0}, {"is_reserved": 0, "is_disabled": 0, "fusion_lat": 0.0, "name": "879b5e15d14536c3c663d864fd009e09", "lat": 38.92251683333333, "lon": -77.03027916666667, "bike_id": "879b5e15d14536c3c663d864fd009e09", "rental_uris": {"ios": "https://dc.lft.to/lastmile_qr_scan", "android": "https://dc.lft.to/lastmile_qr_scan"}, "type": "electric_scooter", "fusion_lon": 0.0}, {"is_reserved": 0, "is_disabled": 0, "fusion_lat": 0.0, "name": "e0a972198e8b504052dc5b6607ba39ca", "lat": 38.9344495, "lon": -77.03295983333334, "bike_id": "e0a972198e8b504052dc5b6607ba39ca", "rental_uris": {"ios": "https://dc.lft.to/lastmile_qr_scan", "android": "https://dc.lft.to/lastmile_qr_scan"}, "type": "electric_scooter", "fusion_lon": 0.0}, {"is_reserved": 0, "is_disabled": 0, "fusion_lat": 0.0, "name": "f3bd43cda93df623cc7365a94e14a59d", "lat": 38.901029666666666, "lon": -77.044978, "bike_id": "f3bd43cda93df623cc7365a94e14a59d", "rental_uris": {"ios": "https://dc.lft.to/lastmile_qr_scan", "android": "https://dc.lft.to/lastmile_qr_scan"}, "type": "electric_scooter", "fusion_lon": 0.0}, {"is_reserved": 0, "is_disabled": 0, "fusion_lat": 0.0, "name": "75f197de41139835bc677f9c57732c27", "lat": 38.97599366666667, "lon": -77.0264455, "bike_id": "75f197de41139835bc677f9c57732c27", "rental_uris": {"ios": "https://dc.lft.to/lastmile_qr_scan", "android": "https://dc.lft.to/lastmile_qr_scan"}, "type": "electric_scooter", "fusion_lon": 0.0}, {"is_reserved": 0, "is_disabled": 0, "fusion_lat": 0.0, "name": "5254a2ccfb957c85760f73e3193c3034", "lat": 38.91578333333333, "lon": -77.02012133333334, "bike_id": "5254a2ccfb957c85760f73e3193c3034", "rental_uris": {"ios": "https://dc.lft.to/lastmile_qr_scan", "android": "https://dc.lft.to/lastmile_qr_scan"}, "type": "electric_scooter", "fusion_lon": 0.0}, {"is_reserved": 0, "is_disabled": 0, "fusion_lat": 0.0, "name": "01b256505a9d1ac048ca2638e45db3d8", "lat": 38.8997575, "lon": -77.02591233333334, "bike_id": "01b256505a9d1ac048ca2638e45db3d8", "rental_uris": {"ios": "https://dc.lft.to/lastmile_qr_scan", "android": "https://dc.lft.to/lastmile_qr_scan"}, "type": "electric_scooter", "fusion_lon": 0.0}, {"is_reserved": 0, "is_disabled": 0, "fusion_lat": 0.0, "name": "8c67d42ee7165799f0a8d2d672fbd747", "lat": 38.917039333333335, "lon": -77.0411155, "bike_id": "8c67d42ee7165799f0a8d2d672fbd747", "rental_uris": {"ios": "https://dc.lft.to/lastmile_qr_scan", "android": "https://dc.lft.to/lastmile_qr_scan"}, "type": "electric_scooter", "fusion_lon": 0.0}, {"is_reserved": 0, "is_disabled": 0, "fusion_lat": 0.0, "name": "a3383d3880c25db91c7c058cb385f34b", "lat": 38.921251833333336, "lon": -77.0121055, "bike_id": "a3383d3880c25db91c7c058cb385f34b", "rental_uris": {"ios": "https://dc.lft.to/lastmile_qr_scan", "android": "https://dc.lft.to/lastmile_qr_scan"}, "type": "electric_scooter", "fusion_lon": 0.0}, {"is_reserved": 0, "is_disabled": 0, "fusion_lat": 0.0, "name": "7bff5a9c729614a9e65079d27646c2f6", "lat": 38.896239, "lon": -76.99605133333333, "bike_id": "7bff5a9c729614a9e65079d27646c2f6", "rental_uris": {"ios": "https://dc.lft.to/lastmile_qr_scan", "android": "https://dc.lft.to/lastmile_qr_scan"}, "type": "electric_scooter", "fusion_lon": 0.0}, {"is_reserved": 0, "is_disabled": 0, "fusion_lat": 0.0, "name": "a07a72ff882659f837e1b965dfa87d3f", "lat": 38.908642666666665, "lon": -77.04865083333334, "bike_id": "a07a72ff882659f837e1b965dfa87d3f", "rental_uris": {"ios": "https://dc.lft.to/lastmile_qr_scan", "android": "https://dc.lft.to/lastmile_qr_scan"}, "type": "electric_scooter", "fusion_lon": 0.0}, {"is_reserved": 0, "is_disabled": 0, "fusion_lat": 0.0, "name": "92580edf0ca571ba51195103335e331c", "lat": 38.924801, "lon": -77.00891133333333, "bike_id": "92580edf0ca571ba51195103335e331c", "rental_uris": {"ios": "https://dc.lft.to/lastmile_qr_scan", "android": "https://dc.lft.to/lastmile_qr_scan"}, "type": "electric_scooter", "fusion_lon": 0.0}, {"is_reserved": 0, "is_disabled": 0, "fusion_lat": 0.0, "name": "98615ec3241e78b3fda2d4062459affd", "lat": 38.893153, "lon": -77.01533816666667, "bike_id": "98615ec3241e78b3fda2d4062459affd", "rental_uris": {"ios": "https://dc.lft.to/lastmile_qr_scan", "android": "https://dc.lft.to/lastmile_qr_scan"}, "type": "electric_scooter", "fusion_lon": 0.0}, {"is_reserved": 0, "is_disabled": 0, "fusion_lat": 0.0, "name": "791d75428a5174393e7b37565e0919ac", "lat": 38.90184383333333, "lon": -77.0483335, "bike_id": "791d75428a5174393e7b37565e0919ac", "rental_uris": {"ios": "https://dc.lft.to/lastmile_qr_scan", "android": "https://dc.lft.to/lastmile_qr_scan"}, "type": "electric_scooter", "fusion_lon": 0.0}, {"is_reserved": 0, "is_disabled": 0, "fusion_lat": 0.0, "name": "4d884a606195440a56efd60b95948d17", "lat": 38.939580666666664, "lon": -77.07245066666667, "bike_id": "4d884a606195440a56efd60b95948d17", "rental_uris": {"ios": "https://dc.lft.to/lastmile_qr_scan", "android": "https://dc.lft.to/lastmile_qr_scan"}, "type": "electric_scooter", "fusion_lon": 0.0}, {"is_reserved": 0, "is_disabled": 0, "fusion_lat": 0.0, "name": "4d728a9eb9d13395c7156ab601466be8", "lat": 38.887200666666665, "lon": -77.01380083333333, "bike_id": "4d728a9eb9d13395c7156ab601466be8", "rental_uris": {"ios": "https://dc.lft.to/lastmile_qr_scan", "android": "https://dc.lft.to/lastmile_qr_scan"}, "type": "electric_scooter", "fusion_lon": 0.0}, {"is_reserved": 0, "is_disabled": 0, "fusion_lat": 0.0, "name": "73d32b58e55ddaab16897ff48bcd3e57", "lat": 38.90381083333333, "lon": -77.03960983333333, "bike_id": "73d32b58e55ddaab16897ff48bcd3e57", "rental_uris": {"ios": "https://dc.lft.to/lastmile_qr_scan", "android": "https://dc.lft.to/lastmile_qr_scan"}, "type": "electric_scooter", "fusion_lon": 0.0}, {"is_reserved": 0, "is_disabled": 0, "fusion_lat": 0.0, "name": "d9ed70824607e9486462c0242c2ea38e", "lat": 38.92692683333333, "lon": -77.02284566666667, "bike_id": "d9ed70824607e9486462c0242c2ea38e", "rental_uris": {"ios": "https://dc.lft.to/lastmile_qr_scan", "android": "https://dc.lft.to/lastmile_qr_scan"}, "type": "electric_scooter", "fusion_lon": 0.0}, {"is_reserved": 0, "is_disabled": 0, "fusion_lat": 0.0, "name": "f3ec29ec23ca29c158f7d2f0a01009ec", "lat": 39.00651216666667, "lon": -76.90019633333333, "bike_id": "f3ec29ec23ca29c158f7d2f0a01009ec", "rental_uris": {"ios": "https://dc.lft.to/lastmile_qr_scan", "android": "https://dc.lft.to/lastmile_qr_scan"}, "type": "electric_bike", "fusion_lon": 0.0}, {"is_reserved": 0, "is_disabled": 0, "fusion_lat": 0.0, "name": "91208b11fc03f60d27fa062aab31741a", "lat": 38.92243783333333, "lon": -77.03667383333334, "bike_id": "91208b11fc03f60d27fa062aab31741a", "rental_uris": {"ios": "https://dc.lft.to/lastmile_qr_scan", "android": "https://dc.lft.to/lastmile_qr_scan"}, "type": "electric_scooter", "fusion_lon": 0.0}, {"is_reserved": 0, "is_disabled": 0, "fusion_lat": 0.0, "name": "89bbb374fa5fdcc06220744914db875a", "lat": 38.90371, "lon": -77.00020916666666, "bike_id": "89bbb374fa5fdcc06220744914db875a", "rental_uris": {"ios": "https://dc.lft.to/lastmile_qr_scan", "android": "https://dc.lft.to/lastmile_qr_scan"}, "type": "electric_scooter", "fusion_lon": 0.0}, {"is_reserved": 0, "is_disabled": 0, "fusion_lat": 0.0, "name": "4d791d5677191e7e9a768d3dbe325f1b", "lat": 38.904023, "lon": -77.004358, "bike_id": "4d791d5677191e7e9a768d3dbe325f1b", "rental_uris": {"ios": "https://dc.lft.to/lastmile_qr_scan", "android": "https://dc.lft.to/lastmile_qr_scan"}, "type": "electric_scooter", "fusion_lon": 0.0}, {"is_reserved": 0, "is_disabled": 0, "fusion_lat": 0.0, "name": "679d50dc362e63a6573660bf20a17de2", "lat": 38.880050833333335, "lon": -76.998398, "bike_id": "679d50dc362e63a6573660bf20a17de2", "rental_uris": {"ios": "https://dc.lft.to/lastmile_qr_scan", "android": "https://dc.lft.to/lastmile_qr_scan"}, "type": "electric_scooter", "fusion_lon": 0.0}, {"is_reserved": 0, "is_disabled": 0, "fusion_lat": 0.0, "name": "7e29d49c9c1fda02d95d82d5ea4ae7d9", "lat": 38.905218166666664, "lon": -77.01712566666667, "bike_id": "7e29d49c9c1fda02d95d82d5ea4ae7d9", "rental_uris": {"ios": "https://dc.lft.to/lastmile_qr_scan", "android": "https://dc.lft.to/lastmile_qr_scan"}, "type": "electric_scooter", "fusion_lon": 0.0}, {"is_reserved": 0, "is_disabled": 0, "fusion_lat": 0.0, "name": "dfeb01273590fe8655d8bc1f6d7f824a", "lat": 38.92075966666667, "lon": -77.0240185, "bike_id": "dfeb01273590fe8655d8bc1f6d7f824a", "rental_uris": {"ios": "https://dc.lft.to/lastmile_qr_scan", "android": "https://dc.lft.to/lastmile_qr_scan"}, "type": "electric_scooter", "fusion_lon": 0.0}, {"is_reserved": 0, "is_disabled": 0, "fusion_lat": 0.0, "name": "a1628b23cc75f9e39114f4c621773c30", "lat": 38.883069, "lon": -76.934782, "bike_id": "a1628b23cc75f9e39114f4c621773c30", "rental_uris": {"ios": "https://dc.lft.to/lastmile_qr_scan", "android": "https://dc.lft.to/lastmile_qr_scan"}, "type": "electric_scooter", "fusion_lon": 0.0}, {"is_reserved": 0, "is_disabled": 0, "fusion_lat": 0.0, "name": "4a10008db0b1c07f5af270cd7bd58120", "lat": 38.924304, "lon": -77.05222316666666, "bike_id": "4a10008db0b1c07f5af270cd7bd58120", "rental_uris": {"ios": "https://dc.lft.to/lastmile_qr_scan", "android": "https://dc.lft.to/lastmile_qr_scan"}, "type": "electric_scooter", "fusion_lon": 0.0}, {"is_reserved": 0, "is_disabled": 0, "fusion_lat": 0.0, "name": "a812f35cf006509880e542585be427fd", "lat": 38.876427166666666, "lon": -77.0038405, "bike_id": "a812f35cf006509880e542585be427fd", "rental_uris": {"ios": "https://dc.lft.to/lastmile_qr_scan", "android": "https://dc.lft.to/lastmile_qr_scan"}, "type": "electric_scooter", "fusion_lon": 0.0}, {"is_reserved": 0, "is_disabled": 0, "fusion_lat": 0.0, "name": "668de74b426dc2d68891c26455536ffa", "lat": 38.8524475, "lon": -77.11409533333334, "bike_id": "668de74b426dc2d68891c26455536ffa", "rental_uris": {"ios": "https://dc.lft.to/lastmile_qr_scan", "android": "https://dc.lft.to/lastmile_qr_scan"}, "type": "electric_bike", "fusion_lon": 0.0}, {"is_reserved": 0, "is_disabled": 0, "fusion_lat": 0.0, "name": "5e61c4d2c99b17fba7f1fcbe165c04e1", "lat": 38.93588416666667, "lon": -77.07351383333334, "bike_id": "5e61c4d2c99b17fba7f1fcbe165c04e1", "rental_uris": {"ios": "https://dc.lft.to/lastmile_qr_scan", "android": "https://dc.lft.to/lastmile_qr_scan"}, "type": "electric_scooter", "fusion_lon": 0.0}, {"is_reserved": 0, "is_disabled": 0, "fusion_lat": 0.0, "name": "6a0076369c5e299074e9724b1928c816", "lat": 38.908313, "lon": -76.93467466666667, "bike_id": "6a0076369c5e299074e9724b1928c816", "rental_uris": {"ios": "https://dc.lft.to/lastmile_qr_scan", "android": "https://dc.lft.to/lastmile_qr_scan"}, "type": "electric_scooter", "fusion_lon": 0.0}, {"is_reserved": 0, "is_disabled": 0, "fusion_lat": 0.0, "name": "7bbfb96c0dbb3520ff4fc43daa253815", "lat": 38.9032705, "lon": -77.03327883333333, "bike_id": "7bbfb96c0dbb3520ff4fc43daa253815", "rental_uris": {"ios": "https://dc.lft.to/lastmile_qr_scan", "android": "https://dc.lft.to/lastmile_qr_scan"}, "type": "electric_scooter", "fusion_lon": 0.0}, {"is_reserved": 0, "is_disabled": 0, "fusion_lat": 0.0, "name": "6986da9a05e5454441aeb7323d7c6a3e", "lat": 38.8871775, "lon": -76.99611483333334, "bike_id": "6986da9a05e5454441aeb7323d7c6a3e", "rental_uris": {"ios": "https://dc.lft.to/lastmile_qr_scan", "android": "https://dc.lft.to/lastmile_qr_scan"}, "type": "electric_scooter", "fusion_lon": 0.0}, {"is_reserved": 0, "is_disabled": 0, "fusion_lat": 0.0, "name": "77a5d6b09263f182ccb300d6a183241d", "lat": 38.926999, "lon": -77.02419383333333, "bike_id": "77a5d6b09263f182ccb300d6a183241d", "rental_uris": {"ios": "https://dc.lft.to/lastmile_qr_scan", "android": "https://dc.lft.to/lastmile_qr_scan"}, "type": "electric_scooter", "fusion_lon": 0.0}, {"is_reserved": 0, "is_disabled": 0, "fusion_lat": 0.0, "name": "2230f82ee95b1a92c6e774eb5f4d9773", "lat": 38.92414566666667, "lon": -77.02033766666666, "bike_id": "2230f82ee95b1a92c6e774eb5f4d9773", "rental_uris": {"ios": "https://dc.lft.to/lastmile_qr_scan", "android": "https://dc.lft.to/lastmile_qr_scan"}, "type": "electric_scooter", "fusion_lon": 0.0}, {"is_reserved": 0, "is_disabled": 0, "fusion_lat": 0.0, "name": "44e64b7bd3d34edb173456377bede802", "lat": 38.9241685, "lon": -77.02005583333333, "bike_id": "44e64b7bd3d34edb173456377bede802", "rental_uris": {"ios": "https://dc.lft.to/lastmile_qr_scan", "android": "https://dc.lft.to/lastmile_qr_scan"}, "type": "electric_scooter", "fusion_lon": 0.0}, {"is_reserved": 0, "is_disabled": 0, "fusion_lat": 0.0, "name": "589af6a857d437fe905b797d060908a9", "lat": 38.908667333333334, "lon": -77.00264483333333, "bike_id": "589af6a857d437fe905b797d060908a9", "rental_uris": {"ios": "https://dc.lft.to/lastmile_qr_scan", "android": "https://dc.lft.to/lastmile_qr_scan"}, "type": "electric_scooter", "fusion_lon": 0.0}, {"is_reserved": 0, "is_disabled": 0, "fusion_lat": 0.0, "name": "c439b7aefc1355a372a9fa623b01d591", "lat": 38.8930045, "lon": -77.01243666666667, "bike_id": "c439b7aefc1355a372a9fa623b01d591", "rental_uris": {"ios": "https://dc.lft.to/lastmile_qr_scan", "android": "https://dc.lft.to/lastmile_qr_scan"}, "type": "electric_scooter", "fusion_lon": 0.0}, {"is_reserved": 0, "is_disabled": 0, "fusion_lat": 0.0, "name": "1d70edfd5271ced1b39dacf2ed4e43ae", "lat": 38.913676333333335, "lon": -77.04477216666666, "bike_id": "1d70edfd5271ced1b39dacf2ed4e43ae", "rental_uris": {"ios": "https://dc.lft.to/lastmile_qr_scan", "android": "https://dc.lft.to/lastmile_qr_scan"}, "type": "electric_scooter", "fusion_lon": 0.0}, {"is_reserved": 0, "is_disabled": 0, "fusion_lat": 0.0, "name": "dfdafdf708fecde00623d7e9e2f9e814", "lat": 38.88711216666667, "lon": -76.98382583333333, "bike_id": "dfdafdf708fecde00623d7e9e2f9e814", "rental_uris": {"ios": "https://dc.lft.to/lastmile_qr_scan", "android": "https://dc.lft.to/lastmile_qr_scan"}, "type": "electric_scooter", "fusion_lon": 0.0}, {"is_reserved": 0, "is_disabled": 0, "fusion_lat": 0.0, "name": "96891f9cf445050c9ad6a764783d5e2a", "lat": 38.9247825, "lon": -77.02213566666667, "bike_id": "96891f9cf445050c9ad6a764783d5e2a", "rental_uris": {"ios": "https://dc.lft.to/lastmile_qr_scan", "android": "https://dc.lft.to/lastmile_qr_scan"}, "type": "electric_scooter", "fusion_lon": 0.0}, {"is_reserved": 0, "is_disabled": 0, "fusion_lat": 0.0, "name": "f8d97e4bb18593c22537f372fec61e64", "lat": 38.935715, "lon": -77.03259416666667, "bike_id": "f8d97e4bb18593c22537f372fec61e64", "rental_uris": {"ios": "https://dc.lft.to/lastmile_qr_scan", "android": "https://dc.lft.to/lastmile_qr_scan"}, "type": "electric_scooter", "fusion_lon": 0.0}, {"is_reserved": 0, "is_disabled": 0, "fusion_lat": 0.0, "name": "7fe68f195bf8c7dff8b614a362b480d3", "lat": 38.901143166666664, "lon": -77.04010833333334, "bike_id": "7fe68f195bf8c7dff8b614a362b480d3", "rental_uris": {"ios": "https://dc.lft.to/lastmile_qr_scan", "android": "https://dc.lft.to/lastmile_qr_scan"}, "type": "electric_scooter", "fusion_lon": 0.0}, {"is_reserved": 0, "is_disabled": 0, "fusion_lat": 0.0, "name": "bb52a23f45bc2149ac0557f56fbafe9c", "lat": 38.919824, "lon": -77.02166483333333, "bike_id": "bb52a23f45bc2149ac0557f56fbafe9c", "rental_uris": {"ios": "https://dc.lft.to/lastmile_qr_scan", "android": "https://dc.lft.to/lastmile_qr_scan"}, "type": "electric_scooter", "fusion_lon": 0.0}, {"is_reserved": 0, "is_disabled": 0, "fusion_lat": 0.0, "name": "6a92615517671e41a98e1f81c6201ceb", "lat": 38.918294833333334, "lon": -77.0271425, "bike_id": "6a92615517671e41a98e1f81c6201ceb", "rental_uris": {"ios": "https://dc.lft.to/lastmile_qr_scan", "android": "https://dc.lft.to/lastmile_qr_scan"}, "type": "electric_scooter", "fusion_lon": 0.0}, {"is_reserved": 0, "is_disabled": 0, "fusion_lat": 0.0, "name": "44f6bc50c9bc69c41243d2a479c6d101", "lat": 38.91697683333334, "lon": -77.031735, "bike_id": "44f6bc50c9bc69c41243d2a479c6d101", "rental_uris": {"ios": "https://dc.lft.to/lastmile_qr_scan", "android": "https://dc.lft.to/lastmile_qr_scan"}, "type": "electric_scooter", "fusion_lon": 0.0}, {"is_reserved": 0, "is_disabled": 0, "fusion_lat": 0.0, "name": "a7cc15594dc41a569687bc5331a155c3", "lat": 38.902601, "lon": -77.03224883333333, "bike_id": "a7cc15594dc41a569687bc5331a155c3", "rental_uris": {"ios": "https://dc.lft.to/lastmile_qr_scan", "android": "https://dc.lft.to/lastmile_qr_scan"}, "type": "electric_scooter", "fusion_lon": 0.0}, {"is_reserved": 0, "is_disabled": 0, "fusion_lat": 0.0, "name": "400796b3b5d4f6b6469c31100dbe8317", "lat": 38.899777, "lon": -77.04191516666667, "bike_id": "400796b3b5d4f6b6469c31100dbe8317", "rental_uris": {"ios": "https://dc.lft.to/lastmile_qr_scan", "android": "https://dc.lft.to/lastmile_qr_scan"}, "type": "electric_scooter", "fusion_lon": 0.0}, {"is_reserved": 0, "is_disabled": 0, "fusion_lat": 0.0, "name": "539e5eb39a72584a246bb36b5a95723e", "lat": 38.90359183333333, "lon": -77.02709583333333, "bike_id": "539e5eb39a72584a246bb36b5a95723e", "rental_uris": {"ios": "https://dc.lft.to/lastmile_qr_scan", "android": "https://dc.lft.to/lastmile_qr_scan"}, "type": "electric_scooter", "fusion_lon": 0.0}, {"is_reserved": 0, "is_disabled": 0, "fusion_lat": 0.0, "name": "316c7051819d0ae39d7afb897cf1a0f8", "lat": 38.920430333333336, "lon": -77.01678533333333, "bike_id": "316c7051819d0ae39d7afb897cf1a0f8", "rental_uris": {"ios": "https://dc.lft.to/lastmile_qr_scan", "android": "https://dc.lft.to/lastmile_qr_scan"}, "type": "electric_scooter", "fusion_lon": 0.0}, {"is_reserved": 0, "is_disabled": 0, "fusion_lat": 0.0, "name": "cffe2781b4e51895a4231cf9e3eaf182", "lat": 38.92286766666667, "lon": -76.9977505, "bike_id": "cffe2781b4e51895a4231cf9e3eaf182", "rental_uris": {"ios": "https://dc.lft.to/lastmile_qr_scan", "android": "https://dc.lft.to/lastmile_qr_scan"}, "type": "electric_bike", "fusion_lon": 0.0}, {"is_reserved": 0, "is_disabled": 0, "fusion_lat": 0.0, "name": "14f49da0b0d3610911cdb10a561aa5cb", "lat": 38.91838766666667, "lon": -77.04513116666666, "bike_id": "14f49da0b0d3610911cdb10a561aa5cb", "rental_uris": {"ios": "https://dc.lft.to/lastmile_qr_scan", "android": "https://dc.lft.to/lastmile_qr_scan"}, "type": "electric_scooter", "fusion_lon": 0.0}, {"is_reserved": 0, "is_disabled": 0, "fusion_lat": 0.0, "name": "9f65eda8680612244bc49dc5bfc17a56", "lat": 38.909758, "lon": -77.02458333333334, "bike_id": "9f65eda8680612244bc49dc5bfc17a56", "rental_uris": {"ios": "https://dc.lft.to/lastmile_qr_scan", "android": "https://dc.lft.to/lastmile_qr_scan"}, "type": "electric_scooter", "fusion_lon": 0.0}, {"is_reserved": 0, "is_disabled": 0, "fusion_lat": 0.0, "name": "6470a75e1a02d2891bc78f84704377d3", "lat": 38.90096166666667, "lon": -77.0232225, "bike_id": "6470a75e1a02d2891bc78f84704377d3", "rental_uris": {"ios": "https://dc.lft.to/lastmile_qr_scan", "android": "https://dc.lft.to/lastmile_qr_scan"}, "type": "electric_scooter", "fusion_lon": 0.0}, {"is_reserved": 0, "is_disabled": 0, "fusion_lat": 0.0, "name": "79147247601de469840dbf7854f41102", "lat": 38.895482, "lon": -76.983373, "bike_id": "79147247601de469840dbf7854f41102", "rental_uris": {"ios": "https://dc.lft.to/lastmile_qr_scan", "android": "https://dc.lft.to/lastmile_qr_scan"}, "type": "electric_scooter", "fusion_lon": 0.0}, {"is_reserved": 0, "is_disabled": 0, "fusion_lat": 0.0, "name": "a9e6bfd3ef0fa1d1bb19a80d395a413e", "lat": 38.91710033333333, "lon": -77.0386395, "bike_id": "a9e6bfd3ef0fa1d1bb19a80d395a413e", "rental_uris": {"ios": "https://dc.lft.to/lastmile_qr_scan", "android": "https://dc.lft.to/lastmile_qr_scan"}, "type": "electric_scooter", "fusion_lon": 0.0}, {"is_reserved": 0, "is_disabled": 0, "fusion_lat": 0.0, "name": "f0e03ccf2e4d91f121573968254d56b2", "lat": 38.911983166666666, "lon": -77.0418245, "bike_id": "f0e03ccf2e4d91f121573968254d56b2", "rental_uris": {"ios": "https://dc.lft.to/lastmile_qr_scan", "android": "https://dc.lft.to/lastmile_qr_scan"}, "type": "electric_scooter", "fusion_lon": 0.0}, {"is_reserved": 0, "is_disabled": 0, "fusion_lat": 0.0, "name": "597ff2ff1a903a666f6402a2cbceae28", "lat": 38.900151, "lon": -77.01185166666667, "bike_id": "597ff2ff1a903a666f6402a2cbceae28", "rental_uris": {"ios": "https://dc.lft.to/lastmile_qr_scan", "android": "https://dc.lft.to/lastmile_qr_scan"}, "type": "electric_scooter", "fusion_lon": 0.0}, {"is_reserved": 0, "is_disabled": 0, "fusion_lat": 0.0, "name": "ed145cd8536db8be472d621ea0bc4f2a", "lat": 38.92853516666667, "lon": -77.036149, "bike_id": "ed145cd8536db8be472d621ea0bc4f2a", "rental_uris": {"ios": "https://dc.lft.to/lastmile_qr_scan", "android": "https://dc.lft.to/lastmile_qr_scan"}, "type": "electric_scooter", "fusion_lon": 0.0}, {"is_reserved": 0, "is_disabled": 0, "fusion_lat": 0.0, "name": "da81e9672d7997bd4f5f8f9aeb90d1ac", "lat": 38.92052733333333, "lon": -77.02374716666667, "bike_id": "da81e9672d7997bd4f5f8f9aeb90d1ac", "rental_uris": {"ios": "https://dc.lft.to/lastmile_qr_scan", "android": "https://dc.lft.to/lastmile_qr_scan"}, "type": "electric_scooter", "fusion_lon": 0.0}, {"is_reserved": 0, "is_disabled": 0, "fusion_lat": 0.0, "name": "917c9b41d9c27d9d1972b943a76ae8d1", "lat": 38.92149533333333, "lon": -77.0435845, "bike_id": "917c9b41d9c27d9d1972b943a76ae8d1", "rental_uris": {"ios": "https://dc.lft.to/lastmile_qr_scan", "android": "https://dc.lft.to/lastmile_qr_scan"}, "type": "electric_scooter", "fusion_lon": 0.0}, {"is_reserved": 0, "is_disabled": 0, "fusion_lat": 0.0, "name": "4babae80dc8c33513cbef2fc78eb4202", "lat": 38.912696333333336, "lon": -77.02216133333333, "bike_id": "4babae80dc8c33513cbef2fc78eb4202", "rental_uris": {"ios": "https://dc.lft.to/lastmile_qr_scan", "android": "https://dc.lft.to/lastmile_qr_scan"}, "type": "electric_scooter", "fusion_lon": 0.0}, {"is_reserved": 0, "is_disabled": 0, "fusion_lat": 0.0, "name": "e8a55773120500bc99145facf9ac070a", "lat": 38.871819333333335, "lon": -77.0061805, "bike_id": "e8a55773120500bc99145facf9ac070a", "rental_uris": {"ios": "https://dc.lft.to/lastmile_qr_scan", "android": "https://dc.lft.to/lastmile_qr_scan"}, "type": "electric_bike", "fusion_lon": 0.0}, {"is_reserved": 0, "is_disabled": 0, "fusion_lat": 0.0, "name": "0c984080ab222f2e39176a957b27af80", "lat": 38.926693666666665, "lon": -77.0230735, "bike_id": "0c984080ab222f2e39176a957b27af80", "rental_uris": {"ios": "https://dc.lft.to/lastmile_qr_scan", "android": "https://dc.lft.to/lastmile_qr_scan"}, "type": "electric_scooter", "fusion_lon": 0.0}, {"is_reserved": 0, "is_disabled": 0, "fusion_lat": 0.0, "name": "3c523f03ff7f8991ac77214ad4c8b7ad", "lat": 38.9034725, "lon": -76.98615483333333, "bike_id": "3c523f03ff7f8991ac77214ad4c8b7ad", "rental_uris": {"ios": "https://dc.lft.to/lastmile_qr_scan", "android": "https://dc.lft.to/lastmile_qr_scan"}, "type": "electric_scooter", "fusion_lon": 0.0}, {"is_reserved": 0, "is_disabled": 0, "fusion_lat": 0.0, "name": "3fb7d37c0c9565c29e83d17ff82997ea", "lat": 38.926734, "lon": -77.01494966666667, "bike_id": "3fb7d37c0c9565c29e83d17ff82997ea", "rental_uris": {"ios": "https://dc.lft.to/lastmile_qr_scan", "android": "https://dc.lft.to/lastmile_qr_scan"}, "type": "electric_scooter", "fusion_lon": 0.0}, {"is_reserved": 0, "is_disabled": 0, "fusion_lat": 0.0, "name": "ebddc21e73de03e3251dc6f353878b43", "lat": 38.90788666666667, "lon": -77.07263383333333, "bike_id": "ebddc21e73de03e3251dc6f353878b43", "rental_uris": {"ios": "https://dc.lft.to/lastmile_qr_scan", "android": "https://dc.lft.to/lastmile_qr_scan"}, "type": "electric_scooter", "fusion_lon": 0.0}, {"is_reserved": 0, "is_disabled": 0, "fusion_lat": 0.0, "name": "74b956c97a0e756f12578ac29c8f523c", "lat": 38.933089, "lon": -77.0308695, "bike_id": "74b956c97a0e756f12578ac29c8f523c", "rental_uris": {"ios": "https://dc.lft.to/lastmile_qr_scan", "android": "https://dc.lft.to/lastmile_qr_scan"}, "type": "electric_scooter", "fusion_lon": 0.0}, {"is_reserved": 0, "is_disabled": 0, "fusion_lat": 0.0, "name": "97f1360b8201003f4dd61defed23a4b6", "lat": 38.923294, "lon": -77.04465616666667, "bike_id": "97f1360b8201003f4dd61defed23a4b6", "rental_uris": {"ios": "https://dc.lft.to/lastmile_qr_scan", "android": "https://dc.lft.to/lastmile_qr_scan"}, "type": "electric_scooter", "fusion_lon": 0.0}, {"is_reserved": 0, "is_disabled": 0, "fusion_lat": 0.0, "name": "620cffef01068f0e904d9b2799c2d725", "lat": 38.906908, "lon": -77.01020566666666, "bike_id": "620cffef01068f0e904d9b2799c2d725", "rental_uris": {"ios": "https://dc.lft.to/lastmile_qr_scan", "android": "https://dc.lft.to/lastmile_qr_scan"}, "type": "electric_scooter", "fusion_lon": 0.0}, {"is_reserved": 0, "is_disabled": 0, "fusion_lat": 0.0, "name": "a4ce8fbca9c32ea43ba6ecd9a5399a11", "lat": 38.887155, "lon": -76.9838105, "bike_id": "a4ce8fbca9c32ea43ba6ecd9a5399a11", "rental_uris": {"ios": "https://dc.lft.to/lastmile_qr_scan", "android": "https://dc.lft.to/lastmile_qr_scan"}, "type": "electric_scooter", "fusion_lon": 0.0}, {"is_reserved": 0, "is_disabled": 0, "fusion_lat": 0.0, "name": "3d181177a5a3794edb8f608608b2a941", "lat": 38.9202575, "lon": -77.040739, "bike_id": "3d181177a5a3794edb8f608608b2a941", "rental_uris": {"ios": "https://dc.lft.to/lastmile_qr_scan", "android": "https://dc.lft.to/lastmile_qr_scan"}, "type": "electric_scooter", "fusion_lon": 0.0}, {"is_reserved": 0, "is_disabled": 0, "fusion_lat": 0.0, "name": "752b57438af1066814fc71ea049c5e48", "lat": 38.915556, "lon": -77.03327333333333, "bike_id": "752b57438af1066814fc71ea049c5e48", "rental_uris": {"ios": "https://dc.lft.to/lastmile_qr_scan", "android": "https://dc.lft.to/lastmile_qr_scan"}, "type": "electric_scooter", "fusion_lon": 0.0}, {"is_reserved": 0, "is_disabled": 0, "fusion_lat": 0.0, "name": "0ed5090c0c77c175b957e01598ea5295", "lat": 38.896909, "lon": -77.03242466666667, "bike_id": "0ed5090c0c77c175b957e01598ea5295", "rental_uris": {"ios": "https://dc.lft.to/lastmile_qr_scan", "android": "https://dc.lft.to/lastmile_qr_scan"}, "type": "electric_scooter", "fusion_lon": 0.0}, {"is_reserved": 0, "is_disabled": 0, "fusion_lat": 0.0, "name": "03f674a6f0e7bdfe1c3f423a930dda50", "lat": 38.902464333333334, "lon": -77.04601566666666, "bike_id": "03f674a6f0e7bdfe1c3f423a930dda50", "rental_uris": {"ios": "https://dc.lft.to/lastmile_qr_scan", "android": "https://dc.lft.to/lastmile_qr_scan"}, "type": "electric_scooter", "fusion_lon": 0.0}, {"is_reserved": 0, "is_disabled": 0, "fusion_lat": 0.0, "name": "72cd203c3c927add9993b948338a2df4", "lat": 38.917117833333336, "lon": -77.0322165, "bike_id": "72cd203c3c927add9993b948338a2df4", "rental_uris": {"ios": "https://dc.lft.to/lastmile_qr_scan", "android": "https://dc.lft.to/lastmile_qr_scan"}, "type": "electric_scooter", "fusion_lon": 0.0}, {"is_reserved": 0, "is_disabled": 0, "fusion_lat": 0.0, "name": "c8cb0988ef77c2c13a94ab5de71bcb3e", "lat": 38.9744525, "lon": -77.09615716666667, "bike_id": "c8cb0988ef77c2c13a94ab5de71bcb3e", "rental_uris": {"ios": "https://dc.lft.to/lastmile_qr_scan", "android": "https://dc.lft.to/lastmile_qr_scan"}, "type": "electric_bike", "fusion_lon": 0.0}, {"is_reserved": 0, "is_disabled": 0, "fusion_lat": 0.0, "name": "49c62102dfb8cb6bff09ddf58d90b965", "lat": 38.909742666666666, "lon": -77.03213883333333, "bike_id": "49c62102dfb8cb6bff09ddf58d90b965", "rental_uris": {"ios": "https://dc.lft.to/lastmile_qr_scan", "android": "https://dc.lft.to/lastmile_qr_scan"}, "type": "electric_scooter", "fusion_lon": 0.0}, {"is_reserved": 0, "is_disabled": 0, "fusion_lat": 0.0, "name": "22b478a88466d0097a26e170ea8458d9", "lat": 38.9023115, "lon": -77.02353683333334, "bike_id": "22b478a88466d0097a26e170ea8458d9", "rental_uris": {"ios": "https://dc.lft.to/lastmile_qr_scan", "android": "https://dc.lft.to/lastmile_qr_scan"}, "type": "electric_scooter", "fusion_lon": 0.0}, {"is_reserved": 0, "is_disabled": 0, "fusion_lat": 0.0, "name": "aec443f16a7f9568baccee03970caee0", "lat": 38.900593666666666, "lon": -77.04336766666667, "bike_id": "aec443f16a7f9568baccee03970caee0", "rental_uris": {"ios": "https://dc.lft.to/lastmile_qr_scan", "android": "https://dc.lft.to/lastmile_qr_scan"}, "type": "electric_scooter", "fusion_lon": 0.0}, {"is_reserved": 0, "is_disabled": 0, "fusion_lat": 0.0, "name": "ce7e7e9fc8821a0e33e4eca0d152ea54", "lat": 38.85547433333333, "lon": -76.98654933333333, "bike_id": "ce7e7e9fc8821a0e33e4eca0d152ea54", "rental_uris": {"ios": "https://dc.lft.to/lastmile_qr_scan", "android": "https://dc.lft.to/lastmile_qr_scan"}, "type": "electric_scooter", "fusion_lon": 0.0}, {"is_reserved": 0, "is_disabled": 0, "fusion_lat": 0.0, "name": "c3d8f82d87b17e1ed95c99244ac1006f", "lat": 38.89858066666667, "lon": -77.02383166666667, "bike_id": "c3d8f82d87b17e1ed95c99244ac1006f", "rental_uris": {"ios": "https://dc.lft.to/lastmile_qr_scan", "android": "https://dc.lft.to/lastmile_qr_scan"}, "type": "electric_scooter", "fusion_lon": 0.0}, {"is_reserved": 0, "is_disabled": 0, "fusion_lat": 0.0, "name": "c6ee690e1efe663d0fd481cd121a0063", "lat": 38.924612833333335, "lon": -77.03961683333333, "bike_id": "c6ee690e1efe663d0fd481cd121a0063", "rental_uris": {"ios": "https://dc.lft.to/lastmile_qr_scan", "android": "https://dc.lft.to/lastmile_qr_scan"}, "type": "electric_scooter", "fusion_lon": 0.0}, {"is_reserved": 0, "is_disabled": 0, "fusion_lat": 0.0, "name": "986bf8136b7103b15fc624b8da5c89f3", "lat": 38.925467, "lon": -77.038608, "bike_id": "986bf8136b7103b15fc624b8da5c89f3", "rental_uris": {"ios": "https://dc.lft.to/lastmile_qr_scan", "android": "https://dc.lft.to/lastmile_qr_scan"}, "type": "electric_scooter", "fusion_lon": 0.0}, {"is_reserved": 0, "is_disabled": 0, "fusion_lat": 0.0, "name": "902e4dc42d29ce053e08afb879123fc6", "lat": 38.87733083333333, "lon": -77.010622, "bike_id": "902e4dc42d29ce053e08afb879123fc6", "rental_uris": {"ios": "https://dc.lft.to/lastmile_qr_scan", "android": "https://dc.lft.to/lastmile_qr_scan"}, "type": "electric_scooter", "fusion_lon": 0.0}, {"is_reserved": 0, "is_disabled": 0, "fusion_lat": 0.0, "name": "f8d45f57a5fa6b484811fb69e0e61006", "lat": 38.90015266666666, "lon": -76.9919455, "bike_id": "f8d45f57a5fa6b484811fb69e0e61006", "rental_uris": {"ios": "https://dc.lft.to/lastmile_qr_scan", "android": "https://dc.lft.to/lastmile_qr_scan"}, "type": "electric_scooter", "fusion_lon": 0.0}, {"is_reserved": 0, "is_disabled": 0, "fusion_lat": 0.0, "name": "157b0502683d707e46b644116569759b", "lat": 38.90179633333333, "lon": -76.9294925, "bike_id": "157b0502683d707e46b644116569759b", "rental_uris": {"ios": "https://dc.lft.to/lastmile_qr_scan", "android": "https://dc.lft.to/lastmile_qr_scan"}, "type": "electric_scooter", "fusion_lon": 0.0}, {"is_reserved": 0, "is_disabled": 0, "fusion_lat": 0.0, "name": "767412ff2cc142a0f0ece232887f8fb1", "lat": 38.903855166666666, "lon": -77.03815916666667, "bike_id": "767412ff2cc142a0f0ece232887f8fb1", "rental_uris": {"ios": "https://dc.lft.to/lastmile_qr_scan", "android": "https://dc.lft.to/lastmile_qr_scan"}, "type": "electric_scooter", "fusion_lon": 0.0}, {"is_reserved": 0, "is_disabled": 0, "fusion_lat": 0.0, "name": "9fefa2824ed31f26ff16c64797f49994", "lat": 38.873389333333336, "lon": -77.00063316666666, "bike_id": "9fefa2824ed31f26ff16c64797f49994", "rental_uris": {"ios": "https://dc.lft.to/lastmile_qr_scan", "android": "https://dc.lft.to/lastmile_qr_scan"}, "type": "electric_scooter", "fusion_lon": 0.0}, {"is_reserved": 0, "is_disabled": 0, "fusion_lat": 0.0, "name": "00176da41f2537994df1dac5882e3263", "lat": 38.9176255, "lon": -77.06913583333333, "bike_id": "00176da41f2537994df1dac5882e3263", "rental_uris": {"ios": "https://dc.lft.to/lastmile_qr_scan", "android": "https://dc.lft.to/lastmile_qr_scan"}, "type": "electric_scooter", "fusion_lon": 0.0}, {"is_reserved": 0, "is_disabled": 0, "fusion_lat": 0.0, "name": "6d031a3d2ea52b6dfa939641705b40bd", "lat": 38.88524366666667, "lon": -76.97709566666667, "bike_id": "6d031a3d2ea52b6dfa939641705b40bd", "rental_uris": {"ios": "https://dc.lft.to/lastmile_qr_scan", "android": "https://dc.lft.to/lastmile_qr_scan"}, "type": "electric_scooter", "fusion_lon": 0.0}, {"is_reserved": 0, "is_disabled": 0, "fusion_lat": 0.0, "name": "15dbda36c1dcefe61ed937a20ebb9b54", "lat": 38.891986333333335, "lon": -77.01552083333333, "bike_id": "15dbda36c1dcefe61ed937a20ebb9b54", "rental_uris": {"ios": "https://dc.lft.to/lastmile_qr_scan", "android": "https://dc.lft.to/lastmile_qr_scan"}, "type": "electric_scooter", "fusion_lon": 0.0}, {"is_reserved": 0, "is_disabled": 0, "fusion_lat": 0.0, "name": "0d426fb4cbfb3b1bef4ddf4dcd319a8a", "lat": 38.903476166666664, "lon": -76.98146783333334, "bike_id": "0d426fb4cbfb3b1bef4ddf4dcd319a8a", "rental_uris": {"ios": "https://dc.lft.to/lastmile_qr_scan", "android": "https://dc.lft.to/lastmile_qr_scan"}, "type": "electric_scooter", "fusion_lon": 0.0}, {"is_reserved": 0, "is_disabled": 0, "fusion_lat": 0.0, "name": "b693ceffc077a564f7f7f293c1512155", "lat": 38.918028666666665, "lon": -77.04443983333333, "bike_id": "b693ceffc077a564f7f7f293c1512155", "rental_uris": {"ios": "https://dc.lft.to/lastmile_qr_scan", "android": "https://dc.lft.to/lastmile_qr_scan"}, "type": "electric_scooter", "fusion_lon": 0.0}, {"is_reserved": 0, "is_disabled": 0, "fusion_lat": 0.0, "name": "5ee3bc68aa7ab8d5a9b804999ce8124c", "lat": 38.8951255, "lon": -76.94882483333333, "bike_id": "5ee3bc68aa7ab8d5a9b804999ce8124c", "rental_uris": {"ios": "https://dc.lft.to/lastmile_qr_scan", "android": "https://dc.lft.to/lastmile_qr_scan"}, "type": "electric_scooter", "fusion_lon": 0.0}, {"is_reserved": 0, "is_disabled": 0, "fusion_lat": 0.0, "name": "4bd35b9b09ae5a078d8ad90b98d79ddc", "lat": 38.87404, "lon": -76.99998916666667, "bike_id": "4bd35b9b09ae5a078d8ad90b98d79ddc", "rental_uris": {"ios": "https://dc.lft.to/lastmile_qr_scan", "android": "https://dc.lft.to/lastmile_qr_scan"}, "type": "electric_scooter", "fusion_lon": 0.0}, {"is_reserved": 0, "is_disabled": 0, "fusion_lat": 0.0, "name": "0177e712ee88d4c370fd73a1eb2ad0a8", "lat": 38.902569, "lon": -76.98001783333333, "bike_id": "0177e712ee88d4c370fd73a1eb2ad0a8", "rental_uris": {"ios": "https://dc.lft.to/lastmile_qr_scan", "android": "https://dc.lft.to/lastmile_qr_scan"}, "type": "electric_scooter", "fusion_lon": 0.0}, {"is_reserved": 0, "is_disabled": 0, "fusion_lat": 0.0, "name": "66ca0874625e54faf14f1e548bc71ac5", "lat": 38.94069183333333, "lon": -77.00391033333334, "bike_id": "66ca0874625e54faf14f1e548bc71ac5", "rental_uris": {"ios": "https://dc.lft.to/lastmile_qr_scan", "android": "https://dc.lft.to/lastmile_qr_scan"}, "type": "electric_scooter", "fusion_lon": 0.0}, {"is_reserved": 0, "is_disabled": 0, "fusion_lat": 0.0, "name": "5e48657a64f2815ddb268606c3a98bd9", "lat": 38.90771016666667, "lon": -77.02406516666667, "bike_id": "5e48657a64f2815ddb268606c3a98bd9", "rental_uris": {"ios": "https://dc.lft.to/lastmile_qr_scan", "android": "https://dc.lft.to/lastmile_qr_scan"}, "type": "electric_scooter", "fusion_lon": 0.0}, {"is_reserved": 0, "is_disabled": 0, "fusion_lat": 0.0, "name": "576a1e8d0f08f62d1b9008ebf9349a23", "lat": 38.90030816666667, "lon": -76.995969, "bike_id": "576a1e8d0f08f62d1b9008ebf9349a23", "rental_uris": {"ios": "https://dc.lft.to/lastmile_qr_scan", "android": "https://dc.lft.to/lastmile_qr_scan"}, "type": "electric_scooter", "fusion_lon": 0.0}, {"is_reserved": 0, "is_disabled": 0, "fusion_lat": 0.0, "name": "a2bbef425ab0a21d7537d404a709ecdf", "lat": 38.8789115, "lon": -76.96541983333333, "bike_id": "a2bbef425ab0a21d7537d404a709ecdf", "rental_uris": {"ios": "https://dc.lft.to/lastmile_qr_scan", "android": "https://dc.lft.to/lastmile_qr_scan"}, "type": "electric_scooter", "fusion_lon": 0.0}, {"is_reserved": 0, "is_disabled": 0, "fusion_lat": 0.0, "name": "5a383f122514df0069e164420a6f5466", "lat": 38.88005416666667, "lon": -76.99833783333334, "bike_id": "5a383f122514df0069e164420a6f5466", "rental_uris": {"ios": "https://dc.lft.to/lastmile_qr_scan", "android": "https://dc.lft.to/lastmile_qr_scan"}, "type": "electric_scooter", "fusion_lon": 0.0}, {"is_reserved": 0, "is_disabled": 0, "fusion_lat": 0.0, "name": "08275a991aea202e055797a5eeb4ac1d", "lat": 38.899382333333335, "lon": -76.9377395, "bike_id": "08275a991aea202e055797a5eeb4ac1d", "rental_uris": {"ios": "https://dc.lft.to/lastmile_qr_scan", "android": "https://dc.lft.to/lastmile_qr_scan"}, "type": "electric_scooter", "fusion_lon": 0.0}, {"is_reserved": 0, "is_disabled": 0, "fusion_lat": 0.0, "name": "34a5f73d5820298438232d4d413b4376", "lat": 38.94489933333333, "lon": -77.06406516666667, "bike_id": "34a5f73d5820298438232d4d413b4376", "rental_uris": {"ios": "https://dc.lft.to/lastmile_qr_scan", "android": "https://dc.lft.to/lastmile_qr_scan"}, "type": "electric_scooter", "fusion_lon": 0.0}, {"is_reserved": 0, "is_disabled": 0, "fusion_lat": 0.0, "name": "601c976549f5f5dd1697136cb5dca9d3", "lat": 39.034753333333335, "lon": -77.041063, "bike_id": "601c976549f5f5dd1697136cb5dca9d3", "rental_uris": {"ios": "https://dc.lft.to/lastmile_qr_scan", "android": "https://dc.lft.to/lastmile_qr_scan"}, "type": "electric_bike", "fusion_lon": 0.0}, {"is_reserved": 0, "is_disabled": 0, "fusion_lat": 0.0, "name": "ec90b4667b4f9bc994c4f8f847216bec", "lat": 38.92181266666667, "lon": -77.03841216666666, "bike_id": "ec90b4667b4f9bc994c4f8f847216bec", "rental_uris": {"ios": "https://dc.lft.to/lastmile_qr_scan", "android": "https://dc.lft.to/lastmile_qr_scan"}, "type": "electric_scooter", "fusion_lon": 0.0}, {"is_reserved": 0, "is_disabled": 0, "fusion_lat": 0.0, "name": "46100c1510091a96893339327a03da54", "lat": 38.91001383333333, "lon": -77.03848666666667, "bike_id": "46100c1510091a96893339327a03da54", "rental_uris": {"ios": "https://dc.lft.to/lastmile_qr_scan", "android": "https://dc.lft.to/lastmile_qr_scan"}, "type": "electric_scooter", "fusion_lon": 0.0}, {"is_reserved": 0, "is_disabled": 0, "fusion_lat": 0.0, "name": "8300da194b579d100c18be8972881da2", "lat": 38.928841, "lon": -77.01432583333333, "bike_id": "8300da194b579d100c18be8972881da2", "rental_uris": {"ios": "https://dc.lft.to/lastmile_qr_scan", "android": "https://dc.lft.to/lastmile_qr_scan"}, "type": "electric_scooter", "fusion_lon": 0.0}, {"is_reserved": 0, "is_disabled": 0, "fusion_lat": 0.0, "name": "b048c9c87b0c48012116d3a366ad367c", "lat": 38.87287283333333, "lon": -77.0098995, "bike_id": "b048c9c87b0c48012116d3a366ad367c", "rental_uris": {"ios": "https://dc.lft.to/lastmile_qr_scan", "android": "https://dc.lft.to/lastmile_qr_scan"}, "type": "electric_scooter", "fusion_lon": 0.0}, {"is_reserved": 0, "is_disabled": 0, "fusion_lat": 0.0, "name": "0545446bf26554578318f34935be56fe", "lat": 38.9300855, "lon": -77.02119783333333, "bike_id": "0545446bf26554578318f34935be56fe", "rental_uris": {"ios": "https://dc.lft.to/lastmile_qr_scan", "android": "https://dc.lft.to/lastmile_qr_scan"}, "type": "electric_scooter", "fusion_lon": 0.0}, {"is_reserved": 0, "is_disabled": 0, "fusion_lat": 0.0, "name": "032d428a8e0ac56f609577aaea7fcb70", "lat": 38.9018775, "lon": -76.9767195, "bike_id": "032d428a8e0ac56f609577aaea7fcb70", "rental_uris": {"ios": "https://dc.lft.to/lastmile_qr_scan", "android": "https://dc.lft.to/lastmile_qr_scan"}, "type": "electric_scooter", "fusion_lon": 0.0}, {"is_reserved": 0, "is_disabled": 0, "fusion_lat": 0.0, "name": "928122c20e5a36f83153f1a90695597e", "lat": 38.92755966666667, "lon": -77.021206, "bike_id": "928122c20e5a36f83153f1a90695597e", "rental_uris": {"ios": "https://dc.lft.to/lastmile_qr_scan", "android": "https://dc.lft.to/lastmile_qr_scan"}, "type": "electric_scooter", "fusion_lon": 0.0}, {"is_reserved": 0, "is_disabled": 0, "fusion_lat": 0.0, "name": "7e0fae87bbec7727860386735fc46a5f", "lat": 38.92071833333333, "lon": -77.0438105, "bike_id": "7e0fae87bbec7727860386735fc46a5f", "rental_uris": {"ios": "https://dc.lft.to/lastmile_qr_scan", "android": "https://dc.lft.to/lastmile_qr_scan"}, "type": "electric_scooter", "fusion_lon": 0.0}, {"is_reserved": 0, "is_disabled": 0, "fusion_lat": 0.0, "name": "37a82238f523f5861fa1ebddf22f8657", "lat": 38.899592, "lon": -76.98569116666667, "bike_id": "37a82238f523f5861fa1ebddf22f8657", "rental_uris": {"ios": "https://dc.lft.to/lastmile_qr_scan", "android": "https://dc.lft.to/lastmile_qr_scan"}, "type": "electric_scooter", "fusion_lon": 0.0}, {"is_reserved": 0, "is_disabled": 0, "fusion_lat": 0.0, "name": "dba47842a8345ae458fe833b92554b63", "lat": 38.90298883333333, "lon": -76.99839466666667, "bike_id": "dba47842a8345ae458fe833b92554b63", "rental_uris": {"ios": "https://dc.lft.to/lastmile_qr_scan", "android": "https://dc.lft.to/lastmile_qr_scan"}, "type": "electric_scooter", "fusion_lon": 0.0}, {"is_reserved": 0, "is_disabled": 0, "fusion_lat": 0.0, "name": "712fff7ad2e8081f491f109a9699a0b1", "lat": 38.93405, "lon": -77.02216033333333, "bike_id": "712fff7ad2e8081f491f109a9699a0b1", "rental_uris": {"ios": "https://dc.lft.to/lastmile_qr_scan", "android": "https://dc.lft.to/lastmile_qr_scan"}, "type": "electric_scooter", "fusion_lon": 0.0}, {"is_reserved": 0, "is_disabled": 0, "fusion_lat": 0.0, "name": "cd8b69d58cb1fb1422d92067d4e34c20", "lat": 38.8996985, "lon": -77.0452045, "bike_id": "cd8b69d58cb1fb1422d92067d4e34c20", "rental_uris": {"ios": "https://dc.lft.to/lastmile_qr_scan", "android": "https://dc.lft.to/lastmile_qr_scan"}, "type": "electric_scooter", "fusion_lon": 0.0}, {"is_reserved": 0, "is_disabled": 0, "fusion_lat": 0.0, "name": "5e4f20f6d5df684ae983909d7550954f", "lat": 38.8967265, "lon": -76.932136, "bike_id": "5e4f20f6d5df684ae983909d7550954f", "rental_uris": {"ios": "https://dc.lft.to/lastmile_qr_scan", "android": "https://dc.lft.to/lastmile_qr_scan"}, "type": "electric_scooter", "fusion_lon": 0.0}, {"is_reserved": 0, "is_disabled": 0, "fusion_lat": 0.0, "name": "97e3db8abeaf4449f9f88113a986aaad", "lat": 38.905774, "lon": -77.007916, "bike_id": "97e3db8abeaf4449f9f88113a986aaad", "rental_uris": {"ios": "https://dc.lft.to/lastmile_qr_scan", "android": "https://dc.lft.to/lastmile_qr_scan"}, "type": "electric_scooter", "fusion_lon": 0.0}, {"is_reserved": 0, "is_disabled": 0, "fusion_lat": 0.0, "name": "ce639e8672ae28fe60a0b4391e943a8d", "lat": 38.9550495, "lon": -77.07000866666667, "bike_id": "ce639e8672ae28fe60a0b4391e943a8d", "rental_uris": {"ios": "https://dc.lft.to/lastmile_qr_scan", "android": "https://dc.lft.to/lastmile_qr_scan"}, "type": "electric_scooter", "fusion_lon": 0.0}, {"is_reserved": 0, "is_disabled": 0, "fusion_lat": 0.0, "name": "03f6e6b09c4705aafda71fead5d2658a", "lat": 38.9195535, "lon": -77.041508, "bike_id": "03f6e6b09c4705aafda71fead5d2658a", "rental_uris": {"ios": "https://dc.lft.to/lastmile_qr_scan", "android": "https://dc.lft.to/lastmile_qr_scan"}, "type": "electric_scooter", "fusion_lon": 0.0}, {"is_reserved": 0, "is_disabled": 0, "fusion_lat": 0.0, "name": "c08d9cb4c08283f47797566fe4be632e", "lat": 38.911613, "lon": -77.044824, "bike_id": "c08d9cb4c08283f47797566fe4be632e", "rental_uris": {"ios": "https://dc.lft.to/lastmile_qr_scan", "android": "https://dc.lft.to/lastmile_qr_scan"}, "type": "electric_scooter", "fusion_lon": 0.0}, {"is_reserved": 0, "is_disabled": 0, "fusion_lat": 0.0, "name": "e51e32dcdbd90fc869d915b131162584", "lat": 38.91606783333334, "lon": -77.0121225, "bike_id": "e51e32dcdbd90fc869d915b131162584", "rental_uris": {"ios": "https://dc.lft.to/lastmile_qr_scan", "android": "https://dc.lft.to/lastmile_qr_scan"}, "type": "electric_scooter", "fusion_lon": 0.0}, {"is_reserved": 0, "is_disabled": 0, "fusion_lat": 0.0, "name": "a5309a1e29419091d4b9322ad943b621", "lat": 38.90716233333333, "lon": -77.04859666666667, "bike_id": "a5309a1e29419091d4b9322ad943b621", "rental_uris": {"ios": "https://dc.lft.to/lastmile_qr_scan", "android": "https://dc.lft.to/lastmile_qr_scan"}, "type": "electric_scooter", "fusion_lon": 0.0}, {"is_reserved": 0, "is_disabled": 0, "fusion_lat": 0.0, "name": "7bc53b80d96800a69b5a4212dbc96595", "lat": 38.90202516666667, "lon": -77.023167, "bike_id": "7bc53b80d96800a69b5a4212dbc96595", "rental_uris": {"ios": "https://dc.lft.to/lastmile_qr_scan", "android": "https://dc.lft.to/lastmile_qr_scan"}, "type": "electric_scooter", "fusion_lon": 0.0}, {"is_reserved": 0, "is_disabled": 0, "fusion_lat": 0.0, "name": "1b5a9f50e6c8467d58a171281403d2b2", "lat": 38.90863866666667, "lon": -77.040526, "bike_id": "1b5a9f50e6c8467d58a171281403d2b2", "rental_uris": {"ios": "https://dc.lft.to/lastmile_qr_scan", "android": "https://dc.lft.to/lastmile_qr_scan"}, "type": "electric_scooter", "fusion_lon": 0.0}, {"is_reserved": 0, "is_disabled": 0, "fusion_lat": 0.0, "name": "960b49c616187adfa0f1ab2906f0fc80", "lat": 38.86820766666666, "lon": -76.98031716666667, "bike_id": "960b49c616187adfa0f1ab2906f0fc80", "rental_uris": {"ios": "https://dc.lft.to/lastmile_qr_scan", "android": "https://dc.lft.to/lastmile_qr_scan"}, "type": "electric_bike", "fusion_lon": 0.0}, {"is_reserved": 0, "is_disabled": 0, "fusion_lat": 0.0, "name": "124ec9480fd0da17a15f53c4cf16a69f", "lat": 38.8867605, "lon": -77.12816383333333, "bike_id": "124ec9480fd0da17a15f53c4cf16a69f", "rental_uris": {"ios": "https://dc.lft.to/lastmile_qr_scan", "android": "https://dc.lft.to/lastmile_qr_scan"}, "type": "electric_bike", "fusion_lon": 0.0}, {"is_reserved": 0, "is_disabled": 0, "fusion_lat": 0.0, "name": "0dc83abe96cb8e7d2e8e5feab9c6342e", "lat": 38.9206315, "lon": -77.04194866666667, "bike_id": "0dc83abe96cb8e7d2e8e5feab9c6342e", "rental_uris": {"ios": "https://dc.lft.to/lastmile_qr_scan", "android": "https://dc.lft.to/lastmile_qr_scan"}, "type": "electric_scooter", "fusion_lon": 0.0}, {"is_reserved": 0, "is_disabled": 0, "fusion_lat": 0.0, "name": "0893fc3e270f094f8fc6b5e724e18a63", "lat": 38.923593833333335, "lon": -77.05228833333334, "bike_id": "0893fc3e270f094f8fc6b5e724e18a63", "rental_uris": {"ios": "https://dc.lft.to/lastmile_qr_scan", "android": "https://dc.lft.to/lastmile_qr_scan"}, "type": "electric_scooter", "fusion_lon": 0.0}, {"is_reserved": 0, "is_disabled": 0, "fusion_lat": 0.0, "name": "f4807e0def30005defd6bb2c8aba6c75", "lat": 38.897305, "lon": -77.0093045, "bike_id": "f4807e0def30005defd6bb2c8aba6c75", "rental_uris": {"ios": "https://dc.lft.to/lastmile_qr_scan", "android": "https://dc.lft.to/lastmile_qr_scan"}, "type": "electric_scooter", "fusion_lon": 0.0}, {"is_reserved": 0, "is_disabled": 0, "fusion_lat": 0.0, "name": "31c5333580d401fec682f7bb0baf7753", "lat": 38.903535833333336, "lon": -77.025967, "bike_id": "31c5333580d401fec682f7bb0baf7753", "rental_uris": {"ios": "https://dc.lft.to/lastmile_qr_scan", "android": "https://dc.lft.to/lastmile_qr_scan"}, "type": "electric_scooter", "fusion_lon": 0.0}, {"is_reserved": 0, "is_disabled": 0, "fusion_lat": 0.0, "name": "06d9ff6af5a4e77c6204f5f97d134e81", "lat": 38.8974655, "lon": -77.04432533333333, "bike_id": "06d9ff6af5a4e77c6204f5f97d134e81", "rental_uris": {"ios": "https://dc.lft.to/lastmile_qr_scan", "android": "https://dc.lft.to/lastmile_qr_scan"}, "type": "electric_scooter", "fusion_lon": 0.0}, {"is_reserved": 0, "is_disabled": 0, "fusion_lat": 0.0, "name": "4bc6746944c3682a14514033586c7cff", "lat": 38.830682333333336, "lon": -77.04081466666666, "bike_id": "4bc6746944c3682a14514033586c7cff", "rental_uris": {"ios": "https://dc.lft.to/lastmile_qr_scan", "android": "https://dc.lft.to/lastmile_qr_scan"}, "type": "electric_bike", "fusion_lon": 0.0}, {"is_reserved": 0, "is_disabled": 0, "fusion_lat": 0.0, "name": "5f0040cacacf92c75dca2728c23c7cf1", "lat": 38.90832116666667, "lon": -76.997041, "bike_id": "5f0040cacacf92c75dca2728c23c7cf1", "rental_uris": {"ios": "https://dc.lft.to/lastmile_qr_scan", "android": "https://dc.lft.to/lastmile_qr_scan"}, "type": "electric_scooter", "fusion_lon": 0.0}, {"is_reserved": 0, "is_disabled": 0, "fusion_lat": 0.0, "name": "5c35fc69289be3dba442ef32554e6b14", "lat": 38.9160465, "lon": -77.03199433333333, "bike_id": "5c35fc69289be3dba442ef32554e6b14", "rental_uris": {"ios": "https://dc.lft.to/lastmile_qr_scan", "android": "https://dc.lft.to/lastmile_qr_scan"}, "type": "electric_scooter", "fusion_lon": 0.0}, {"is_reserved": 0, "is_disabled": 0, "fusion_lat": 0.0, "name": "c60e4b9180d44a44d7f49dbb2b7fa845", "lat": 38.8827435, "lon": -77.00580566666666, "bike_id": "c60e4b9180d44a44d7f49dbb2b7fa845", "rental_uris": {"ios": "https://dc.lft.to/lastmile_qr_scan", "android": "https://dc.lft.to/lastmile_qr_scan"}, "type": "electric_scooter", "fusion_lon": 0.0}, {"is_reserved": 0, "is_disabled": 0, "fusion_lat": 0.0, "name": "7f601c55d1f91e0d51166271406da556", "lat": 38.91773883333333, "lon": -77.04040633333334, "bike_id": "7f601c55d1f91e0d51166271406da556", "rental_uris": {"ios": "https://dc.lft.to/lastmile_qr_scan", "android": "https://dc.lft.to/lastmile_qr_scan"}, "type": "electric_scooter", "fusion_lon": 0.0}, {"is_reserved": 0, "is_disabled": 0, "fusion_lat": 0.0, "name": "d3f781dd8961189f72349d1e3b2d7657", "lat": 38.91108916666666, "lon": -77.03265033333334, "bike_id": "d3f781dd8961189f72349d1e3b2d7657", "rental_uris": {"ios": "https://dc.lft.to/lastmile_qr_scan", "android": "https://dc.lft.to/lastmile_qr_scan"}, "type": "electric_scooter", "fusion_lon": 0.0}, {"is_reserved": 0, "is_disabled": 0, "fusion_lat": 0.0, "name": "19f4c76c0c878a1a44707958c60055a7", "lat": 38.89862933333333, "lon": -76.94639716666667, "bike_id": "19f4c76c0c878a1a44707958c60055a7", "rental_uris": {"ios": "https://dc.lft.to/lastmile_qr_scan", "android": "https://dc.lft.to/lastmile_qr_scan"}, "type": "electric_scooter", "fusion_lon": 0.0}, {"is_reserved": 0, "is_disabled": 0, "fusion_lat": 0.0, "name": "3a69f2daf965f2a767105377db71be35", "lat": 38.917079666666666, "lon": -77.027636, "bike_id": "3a69f2daf965f2a767105377db71be35", "rental_uris": {"ios": "https://dc.lft.to/lastmile_qr_scan", "android": "https://dc.lft.to/lastmile_qr_scan"}, "type": "electric_scooter", "fusion_lon": 0.0}, {"is_reserved": 0, "is_disabled": 0, "fusion_lat": 0.0, "name": "61a9cf54f051f235959e241733735faa", "lat": 38.870710333333335, "lon": -76.97941616666667, "bike_id": "61a9cf54f051f235959e241733735faa", "rental_uris": {"ios": "https://dc.lft.to/lastmile_qr_scan", "android": "https://dc.lft.to/lastmile_qr_scan"}, "type": "electric_scooter", "fusion_lon": 0.0}, {"is_reserved": 0, "is_disabled": 0, "fusion_lat": 0.0, "name": "5cde22bebc6933b46ee0e610c7ce4c04", "lat": 38.90576183333334, "lon": -77.06124116666666, "bike_id": "5cde22bebc6933b46ee0e610c7ce4c04", "rental_uris": {"ios": "https://dc.lft.to/lastmile_qr_scan", "android": "https://dc.lft.to/lastmile_qr_scan"}, "type": "electric_scooter", "fusion_lon": 0.0}, {"is_reserved": 0, "is_disabled": 0, "fusion_lat": 0.0, "name": "001d8826972316ff3d8c85115557edea", "lat": 39.00383733333334, "lon": -77.01288583333333, "bike_id": "001d8826972316ff3d8c85115557edea", "rental_uris": {"ios": "https://dc.lft.to/lastmile_qr_scan", "android": "https://dc.lft.to/lastmile_qr_scan"}, "type": "electric_bike", "fusion_lon": 0.0}, {"is_reserved": 0, "is_disabled": 0, "fusion_lat": 0.0, "name": "87086da9bf9c0e55787b7f4e896939a3", "lat": 38.9003025, "lon": -77.0335385, "bike_id": "87086da9bf9c0e55787b7f4e896939a3", "rental_uris": {"ios": "https://dc.lft.to/lastmile_qr_scan", "android": "https://dc.lft.to/lastmile_qr_scan"}, "type": "electric_scooter", "fusion_lon": 0.0}, {"is_reserved": 0, "is_disabled": 0, "fusion_lat": 0.0, "name": "61c702585d431aee021ecff0b341a62f", "lat": 38.92538866666666, "lon": -77.04261916666667, "bike_id": "61c702585d431aee021ecff0b341a62f", "rental_uris": {"ios": "https://dc.lft.to/lastmile_qr_scan", "android": "https://dc.lft.to/lastmile_qr_scan"}, "type": "electric_scooter", "fusion_lon": 0.0}, {"is_reserved": 0, "is_disabled": 0, "fusion_lat": 0.0, "name": "36643313e59b6e8d21198ccceadd1f40", "lat": 38.92233916666667, "lon": -77.04311366666667, "bike_id": "36643313e59b6e8d21198ccceadd1f40", "rental_uris": {"ios": "https://dc.lft.to/lastmile_qr_scan", "android": "https://dc.lft.to/lastmile_qr_scan"}, "type": "electric_scooter", "fusion_lon": 0.0}, {"is_reserved": 0, "is_disabled": 0, "fusion_lat": 0.0, "name": "1c4d41a5f2592f9811e47ff8d06392a5", "lat": 38.899081, "lon": -76.93386766666667, "bike_id": "1c4d41a5f2592f9811e47ff8d06392a5", "rental_uris": {"ios": "https://dc.lft.to/lastmile_qr_scan", "android": "https://dc.lft.to/lastmile_qr_scan"}, "type": "electric_scooter", "fusion_lon": 0.0}, {"is_reserved": 0, "is_disabled": 0, "fusion_lat": 0.0, "name": "6feb9784e588a8d98d5d935d9a32e144", "lat": 38.902717333333335, "lon": -77.02795533333334, "bike_id": "6feb9784e588a8d98d5d935d9a32e144", "rental_uris": {"ios": "https://dc.lft.to/lastmile_qr_scan", "android": "https://dc.lft.to/lastmile_qr_scan"}, "type": "electric_scooter", "fusion_lon": 0.0}, {"is_reserved": 0, "is_disabled": 0, "fusion_lat": 0.0, "name": "daf34fc0bea9e08fee013c875382af10", "lat": 38.924951166666666, "lon": -77.02535683333333, "bike_id": "daf34fc0bea9e08fee013c875382af10", "rental_uris": {"ios": "https://dc.lft.to/lastmile_qr_scan", "android": "https://dc.lft.to/lastmile_qr_scan"}, "type": "electric_bike", "fusion_lon": 0.0}, {"is_reserved": 0, "is_disabled": 0, "fusion_lat": 0.0, "name": "4afb5dc289ed92a7dc30d31e65b7f19e", "lat": 38.91328466666667, "lon": -77.01972033333334, "bike_id": "4afb5dc289ed92a7dc30d31e65b7f19e", "rental_uris": {"ios": "https://dc.lft.to/lastmile_qr_scan", "android": "https://dc.lft.to/lastmile_qr_scan"}, "type": "electric_scooter", "fusion_lon": 0.0}, {"is_reserved": 0, "is_disabled": 0, "fusion_lat": 0.0, "name": "68086c46e730d567fa4df3f5d3a194ef", "lat": 38.914206, "lon": -77.03175816666666, "bike_id": "68086c46e730d567fa4df3f5d3a194ef", "rental_uris": {"ios": "https://dc.lft.to/lastmile_qr_scan", "android": "https://dc.lft.to/lastmile_qr_scan"}, "type": "electric_scooter", "fusion_lon": 0.0}, {"is_reserved": 0, "is_disabled": 0, "fusion_lat": 0.0, "name": "cf07bd06c692bcb93300b2228263a676", "lat": 38.91249033333333, "lon": -77.04763433333333, "bike_id": "cf07bd06c692bcb93300b2228263a676", "rental_uris": {"ios": "https://dc.lft.to/lastmile_qr_scan", "android": "https://dc.lft.to/lastmile_qr_scan"}, "type": "electric_scooter", "fusion_lon": 0.0}, {"is_reserved": 0, "is_disabled": 0, "fusion_lat": 0.0, "name": "a874f1ea63ee5b84699ab5b15eec7a61", "lat": 38.913445333333335, "lon": -77.03171833333333, "bike_id": "a874f1ea63ee5b84699ab5b15eec7a61", "rental_uris": {"ios": "https://dc.lft.to/lastmile_qr_scan", "android": "https://dc.lft.to/lastmile_qr_scan"}, "type": "electric_scooter", "fusion_lon": 0.0}, {"is_reserved": 0, "is_disabled": 0, "fusion_lat": 0.0, "name": "006e38e4b9b762e69bc13fd0b3b5c271", "lat": 38.90897116666667, "lon": -77.045876, "bike_id": "006e38e4b9b762e69bc13fd0b3b5c271", "rental_uris": {"ios": "https://dc.lft.to/lastmile_qr_scan", "android": "https://dc.lft.to/lastmile_qr_scan"}, "type": "electric_scooter", "fusion_lon": 0.0}, {"is_reserved": 0, "is_disabled": 0, "fusion_lat": 0.0, "name": "269c9bdf8425f12fdc3ddec98f93852f", "lat": 38.829269, "lon": -77.0688275, "bike_id": "269c9bdf8425f12fdc3ddec98f93852f", "rental_uris": {"ios": "https://dc.lft.to/lastmile_qr_scan", "android": "https://dc.lft.to/lastmile_qr_scan"}, "type": "electric_bike", "fusion_lon": 0.0}, {"is_reserved": 0, "is_disabled": 0, "fusion_lat": 0.0, "name": "97a40ed931d3a6c1a9e981fc8fc45006", "lat": 38.90975866666667, "lon": -77.04838816666667, "bike_id": "97a40ed931d3a6c1a9e981fc8fc45006", "rental_uris": {"ios": "https://dc.lft.to/lastmile_qr_scan", "android": "https://dc.lft.to/lastmile_qr_scan"}, "type": "electric_scooter", "fusion_lon": 0.0}, {"is_reserved": 0, "is_disabled": 0, "fusion_lat": 0.0, "name": "b1d274aad093c4c41f49d0418f0e39ab", "lat": 38.924789833333335, "lon": -77.02234133333333, "bike_id": "b1d274aad093c4c41f49d0418f0e39ab", "rental_uris": {"ios": "https://dc.lft.to/lastmile_qr_scan", "android": "https://dc.lft.to/lastmile_qr_scan"}, "type": "electric_scooter", "fusion_lon": 0.0}, {"is_reserved": 0, "is_disabled": 0, "fusion_lat": 0.0, "name": "e53942d21aa460f0d590ff3828110a49", "lat": 38.93544033333333, "lon": -77.03484716666667, "bike_id": "e53942d21aa460f0d590ff3828110a49", "rental_uris": {"ios": "https://dc.lft.to/lastmile_qr_scan", "android": "https://dc.lft.to/lastmile_qr_scan"}, "type": "electric_scooter", "fusion_lon": 0.0}, {"is_reserved": 0, "is_disabled": 0, "fusion_lat": 0.0, "name": "aab13bac5154705dd1f90782d7be53a8", "lat": 38.9095855, "lon": -77.04945483333333, "bike_id": "aab13bac5154705dd1f90782d7be53a8", "rental_uris": {"ios": "https://dc.lft.to/lastmile_qr_scan", "android": "https://dc.lft.to/lastmile_qr_scan"}, "type": "electric_scooter", "fusion_lon": 0.0}, {"is_reserved": 0, "is_disabled": 0, "fusion_lat": 0.0, "name": "17627fc1bd9b2df86bc336e4dd049d42", "lat": 38.9241725, "lon": -77.02006566666667, "bike_id": "17627fc1bd9b2df86bc336e4dd049d42", "rental_uris": {"ios": "https://dc.lft.to/lastmile_qr_scan", "android": "https://dc.lft.to/lastmile_qr_scan"}, "type": "electric_scooter", "fusion_lon": 0.0}, {"is_reserved": 0, "is_disabled": 0, "fusion_lat": 0.0, "name": "4cb3a39ca872173f4eb20d8130c5d944", "lat": 38.91116566666667, "lon": -77.03367833333333, "bike_id": "4cb3a39ca872173f4eb20d8130c5d944", "rental_uris": {"ios": "https://dc.lft.to/lastmile_qr_scan", "android": "https://dc.lft.to/lastmile_qr_scan"}, "type": "electric_scooter", "fusion_lon": 0.0}, {"is_reserved": 0, "is_disabled": 0, "fusion_lat": 0.0, "name": "d408dcd69f19cc4a26bab08ad5b1d1fc", "lat": 38.90460916666667, "lon": -77.05337183333333, "bike_id": "d408dcd69f19cc4a26bab08ad5b1d1fc", "rental_uris": {"ios": "https://dc.lft.to/lastmile_qr_scan", "android": "https://dc.lft.to/lastmile_qr_scan"}, "type": "electric_scooter", "fusion_lon": 0.0}, {"is_reserved": 0, "is_disabled": 0, "fusion_lat": 0.0, "name": "34a7f4221b9a17d500bb84b5ccf85747", "lat": 38.957538666666665, "lon": -77.02210916666667, "bike_id": "34a7f4221b9a17d500bb84b5ccf85747", "rental_uris": {"ios": "https://dc.lft.to/lastmile_qr_scan", "android": "https://dc.lft.to/lastmile_qr_scan"}, "type": "electric_scooter", "fusion_lon": 0.0}, {"is_reserved": 0, "is_disabled": 0, "fusion_lat": 0.0, "name": "00d49bf97ef26cc15377c076d16d1da5", "lat": 38.901609666666666, "lon": -77.02236216666667, "bike_id": "00d49bf97ef26cc15377c076d16d1da5", "rental_uris": {"ios": "https://dc.lft.to/lastmile_qr_scan", "android": "https://dc.lft.to/lastmile_qr_scan"}, "type": "electric_scooter", "fusion_lon": 0.0}, {"is_reserved": 0, "is_disabled": 0, "fusion_lat": 0.0, "name": "a3dace1c888ddfca7da18b5fb45bf518", "lat": 38.896218833333336, "lon": -76.90747533333334, "bike_id": "a3dace1c888ddfca7da18b5fb45bf518", "rental_uris": {"ios": "https://dc.lft.to/lastmile_qr_scan", "android": "https://dc.lft.to/lastmile_qr_scan"}, "type": "electric_bike", "fusion_lon": 0.0}, {"is_reserved": 0, "is_disabled": 0, "fusion_lat": 0.0, "name": "62be09cde94dcc46e3953240f08cd11f", "lat": 38.901045, "lon": -77.022215, "bike_id": "62be09cde94dcc46e3953240f08cd11f", "rental_uris": {"ios": "https://dc.lft.to/lastmile_qr_scan", "android": "https://dc.lft.to/lastmile_qr_scan"}, "type": "electric_scooter", "fusion_lon": 0.0}, {"is_reserved": 0, "is_disabled": 0, "fusion_lat": 0.0, "name": "2ec619be2f4db706e53b2288ec858995", "lat": 38.918059, "lon": -77.03441683333334, "bike_id": "2ec619be2f4db706e53b2288ec858995", "rental_uris": {"ios": "https://dc.lft.to/lastmile_qr_scan", "android": "https://dc.lft.to/lastmile_qr_scan"}, "type": "electric_scooter", "fusion_lon": 0.0}, {"is_reserved": 0, "is_disabled": 0, "fusion_lat": 0.0, "name": "26b9a6f955d916ad6312f98cf012a713", "lat": 38.885178, "lon": -76.92443616666667, "bike_id": "26b9a6f955d916ad6312f98cf012a713", "rental_uris": {"ios": "https://dc.lft.to/lastmile_qr_scan", "android": "https://dc.lft.to/lastmile_qr_scan"}, "type": "electric_scooter", "fusion_lon": 0.0}, {"is_reserved": 0, "is_disabled": 0, "fusion_lat": 0.0, "name": "6b621ec7c4f293aa8b004236fec58f1f", "lat": 38.88528983333333, "lon": -76.98055483333333, "bike_id": "6b621ec7c4f293aa8b004236fec58f1f", "rental_uris": {"ios": "https://dc.lft.to/lastmile_qr_scan", "android": "https://dc.lft.to/lastmile_qr_scan"}, "type": "electric_scooter", "fusion_lon": 0.0}, {"is_reserved": 0, "is_disabled": 0, "fusion_lat": 0.0, "name": "9535721b4bac51ba329dae596c57cf1a", "lat": 38.90255366666667, "lon": -76.97703833333334, "bike_id": "9535721b4bac51ba329dae596c57cf1a", "rental_uris": {"ios": "https://dc.lft.to/lastmile_qr_scan", "android": "https://dc.lft.to/lastmile_qr_scan"}, "type": "electric_scooter", "fusion_lon": 0.0}, {"is_reserved": 0, "is_disabled": 0, "fusion_lat": 0.0, "name": "52a32403e8e56b097927c0ef5e14f0f1", "lat": 38.907538, "lon": -77.04550266666666, "bike_id": "52a32403e8e56b097927c0ef5e14f0f1", "rental_uris": {"ios": "https://dc.lft.to/lastmile_qr_scan", "android": "https://dc.lft.to/lastmile_qr_scan"}, "type": "electric_scooter", "fusion_lon": 0.0}, {"is_reserved": 0, "is_disabled": 0, "fusion_lat": 0.0, "name": "c840255ad497d6c3299f50d5cc74903b", "lat": 38.89367216666667, "lon": -76.98562733333333, "bike_id": "c840255ad497d6c3299f50d5cc74903b", "rental_uris": {"ios": "https://dc.lft.to/lastmile_qr_scan", "android": "https://dc.lft.to/lastmile_qr_scan"}, "type": "electric_scooter", "fusion_lon": 0.0}, {"is_reserved": 0, "is_disabled": 0, "fusion_lat": 0.0, "name": "1cfd8470c68bb33273dbb201cc7b69f1", "lat": 38.880292, "lon": -76.917224, "bike_id": "1cfd8470c68bb33273dbb201cc7b69f1", "rental_uris": {"ios": "https://dc.lft.to/lastmile_qr_scan", "android": "https://dc.lft.to/lastmile_qr_scan"}, "type": "electric_bike", "fusion_lon": 0.0}, {"is_reserved": 0, "is_disabled": 0, "fusion_lat": 0.0, "name": "f3121a96dcef92cb1d66ae938eb3c810", "lat": 38.97369316666666, "lon": -77.0185725, "bike_id": "f3121a96dcef92cb1d66ae938eb3c810", "rental_uris": {"ios": "https://dc.lft.to/lastmile_qr_scan", "android": "https://dc.lft.to/lastmile_qr_scan"}, "type": "electric_scooter", "fusion_lon": 0.0}, {"is_reserved": 0, "is_disabled": 0, "fusion_lat": 0.0, "name": "56e20950a12914470bfe2ad0b60a5e0e", "lat": 38.90144433333333, "lon": -77.0387985, "bike_id": "56e20950a12914470bfe2ad0b60a5e0e", "rental_uris": {"ios": "https://dc.lft.to/lastmile_qr_scan", "android": "https://dc.lft.to/lastmile_qr_scan"}, "type": "electric_scooter", "fusion_lon": 0.0}, {"is_reserved": 0, "is_disabled": 0, "fusion_lat": 0.0, "name": "fb0b76612602b9738bec1fb083d106b7", "lat": 38.92050716666667, "lon": -77.0418955, "bike_id": "fb0b76612602b9738bec1fb083d106b7", "rental_uris": {"ios": "https://dc.lft.to/lastmile_qr_scan", "android": "https://dc.lft.to/lastmile_qr_scan"}, "type": "electric_scooter", "fusion_lon": 0.0}, {"is_reserved": 0, "is_disabled": 0, "fusion_lat": 0.0, "name": "65d9283a74522adb8ceb3a145e1cee4e", "lat": 38.8816125, "lon": -77.027511, "bike_id": "65d9283a74522adb8ceb3a145e1cee4e", "rental_uris": {"ios": "https://dc.lft.to/lastmile_qr_scan", "android": "https://dc.lft.to/lastmile_qr_scan"}, "type": "electric_scooter", "fusion_lon": 0.0}, {"is_reserved": 0, "is_disabled": 0, "fusion_lat": 0.0, "name": "21504ba15e6fc925f58391cad251ed3c", "lat": 38.904883833333336, "lon": -76.94959733333333, "bike_id": "21504ba15e6fc925f58391cad251ed3c", "rental_uris": {"ios": "https://dc.lft.to/lastmile_qr_scan", "android": "https://dc.lft.to/lastmile_qr_scan"}, "type": "electric_scooter", "fusion_lon": 0.0}, {"is_reserved": 0, "is_disabled": 0, "fusion_lat": 0.0, "name": "1b92f214894e05263d35a1794ecf4ce3", "lat": 38.920454666666664, "lon": -77.02216433333334, "bike_id": "1b92f214894e05263d35a1794ecf4ce3", "rental_uris": {"ios": "https://dc.lft.to/lastmile_qr_scan", "android": "https://dc.lft.to/lastmile_qr_scan"}, "type": "electric_scooter", "fusion_lon": 0.0}, {"is_reserved": 0, "is_disabled": 0, "fusion_lat": 0.0, "name": "a051ba24d44981e92749229827997875", "lat": 38.911777, "lon": -77.0228925, "bike_id": "a051ba24d44981e92749229827997875", "rental_uris": {"ios": "https://dc.lft.to/lastmile_qr_scan", "android": "https://dc.lft.to/lastmile_qr_scan"}, "type": "electric_scooter", "fusion_lon": 0.0}, {"is_reserved": 0, "is_disabled": 0, "fusion_lat": 0.0, "name": "ef90a49620cc2de7c7fd0a2c952e585e", "lat": 38.9134515, "lon": -77.02582866666667, "bike_id": "ef90a49620cc2de7c7fd0a2c952e585e", "rental_uris": {"ios": "https://dc.lft.to/lastmile_qr_scan", "android": "https://dc.lft.to/lastmile_qr_scan"}, "type": "electric_scooter", "fusion_lon": 0.0}, {"is_reserved": 0, "is_disabled": 0, "fusion_lat": 0.0, "name": "d11df0b1f7efe8e6431851685d590d7a", "lat": 38.915553333333335, "lon": -77.03174716666666, "bike_id": "d11df0b1f7efe8e6431851685d590d7a", "rental_uris": {"ios": "https://dc.lft.to/lastmile_qr_scan", "android": "https://dc.lft.to/lastmile_qr_scan"}, "type": "electric_scooter", "fusion_lon": 0.0}, {"is_reserved": 0, "is_disabled": 0, "fusion_lat": 0.0, "name": "4b8b00e04471a76341d459ee2eba9374", "lat": 38.89490883333333, "lon": -77.01088, "bike_id": "4b8b00e04471a76341d459ee2eba9374", "rental_uris": {"ios": "https://dc.lft.to/lastmile_qr_scan", "android": "https://dc.lft.to/lastmile_qr_scan"}, "type": "electric_scooter", "fusion_lon": 0.0}, {"is_reserved": 0, "is_disabled": 0, "fusion_lat": 0.0, "name": "38479449455d529dd077c6f693070b2b", "lat": 38.924988, "lon": -77.043343, "bike_id": "38479449455d529dd077c6f693070b2b", "rental_uris": {"ios": "https://dc.lft.to/lastmile_qr_scan", "android": "https://dc.lft.to/lastmile_qr_scan"}, "type": "electric_scooter", "fusion_lon": 0.0}, {"is_reserved": 0, "is_disabled": 0, "fusion_lat": 0.0, "name": "af171b0333cffc9a9b3f2f62f9484f41", "lat": 38.998643333333334, "lon": -77.00391316666666, "bike_id": "af171b0333cffc9a9b3f2f62f9484f41", "rental_uris": {"ios": "https://dc.lft.to/lastmile_qr_scan", "android": "https://dc.lft.to/lastmile_qr_scan"}, "type": "electric_bike", "fusion_lon": 0.0}, {"is_reserved": 0, "is_disabled": 0, "fusion_lat": 0.0, "name": "9ed6d0ebec73b99ebbaebb6c39437b2e", "lat": 38.9095855, "lon": -77.01266983333333, "bike_id": "9ed6d0ebec73b99ebbaebb6c39437b2e", "rental_uris": {"ios": "https://dc.lft.to/lastmile_qr_scan", "android": "https://dc.lft.to/lastmile_qr_scan"}, "type": "electric_scooter", "fusion_lon": 0.0}, {"is_reserved": 0, "is_disabled": 0, "fusion_lat": 0.0, "name": "a66b65c411a592a9ada60edcc39af9e5", "lat": 38.892156, "lon": -77.02540933333333, "bike_id": "a66b65c411a592a9ada60edcc39af9e5", "rental_uris": {"ios": "https://dc.lft.to/lastmile_qr_scan", "android": "https://dc.lft.to/lastmile_qr_scan"}, "type": "electric_scooter", "fusion_lon": 0.0}, {"is_reserved": 0, "is_disabled": 0, "fusion_lat": 0.0, "name": "15955b8772fd45b3bd20addcef902d60", "lat": 38.931152166666664, "lon": -77.02798933333334, "bike_id": "15955b8772fd45b3bd20addcef902d60", "rental_uris": {"ios": "https://dc.lft.to/lastmile_qr_scan", "android": "https://dc.lft.to/lastmile_qr_scan"}, "type": "electric_scooter", "fusion_lon": 0.0}, {"is_reserved": 0, "is_disabled": 0, "fusion_lat": 0.0, "name": "19c8e98333000fe6853792eea43c5971", "lat": 38.896261333333335, "lon": -76.9985325, "bike_id": "19c8e98333000fe6853792eea43c5971", "rental_uris": {"ios": "https://dc.lft.to/lastmile_qr_scan", "android": "https://dc.lft.to/lastmile_qr_scan"}, "type": "electric_scooter", "fusion_lon": 0.0}, {"is_reserved": 0, "is_disabled": 0, "fusion_lat": 0.0, "name": "da2c2a6f22bee3768c023bca521e6fa4", "lat": 38.898377333333336, "lon": -77.0448065, "bike_id": "da2c2a6f22bee3768c023bca521e6fa4", "rental_uris": {"ios": "https://dc.lft.to/lastmile_qr_scan", "android": "https://dc.lft.to/lastmile_qr_scan"}, "type": "electric_scooter", "fusion_lon": 0.0}, {"is_reserved": 0, "is_disabled": 0, "fusion_lat": 0.0, "name": "06b366f212f36f2506ee3b49f08a30ed", "lat": 38.887124166666666, "lon": -76.9834415, "bike_id": "06b366f212f36f2506ee3b49f08a30ed", "rental_uris": {"ios": "https://dc.lft.to/lastmile_qr_scan", "android": "https://dc.lft.to/lastmile_qr_scan"}, "type": "electric_scooter", "fusion_lon": 0.0}, {"is_reserved": 0, "is_disabled": 0, "fusion_lat": 0.0, "name": "483aad2dfb4ae72f53197834697d0e7d", "lat": 38.92176716666667, "lon": -77.0266785, "bike_id": "483aad2dfb4ae72f53197834697d0e7d", "rental_uris": {"ios": "https://dc.lft.to/lastmile_qr_scan", "android": "https://dc.lft.to/lastmile_qr_scan"}, "type": "electric_scooter", "fusion_lon": 0.0}, {"is_reserved": 0, "is_disabled": 0, "fusion_lat": 0.0, "name": "1dd5a7dc77a3ad3ef7913a69b6bde90b", "lat": 38.907819833333335, "lon": -77.07261466666667, "bike_id": "1dd5a7dc77a3ad3ef7913a69b6bde90b", "rental_uris": {"ios": "https://dc.lft.to/lastmile_qr_scan", "android": "https://dc.lft.to/lastmile_qr_scan"}, "type": "electric_scooter", "fusion_lon": 0.0}, {"is_reserved": 0, "is_disabled": 0, "fusion_lat": 0.0, "name": "e31cfb66278491e815d716720c780ad9", "lat": 38.924234, "lon": -77.01953416666667, "bike_id": "e31cfb66278491e815d716720c780ad9", "rental_uris": {"ios": "https://dc.lft.to/lastmile_qr_scan", "android": "https://dc.lft.to/lastmile_qr_scan"}, "type": "electric_scooter", "fusion_lon": 0.0}, {"is_reserved": 0, "is_disabled": 0, "fusion_lat": 0.0, "name": "9706ef48d8abc5e0095874daaf677d2d", "lat": 38.9136735, "lon": -77.020585, "bike_id": "9706ef48d8abc5e0095874daaf677d2d", "rental_uris": {"ios": "https://dc.lft.to/lastmile_qr_scan", "android": "https://dc.lft.to/lastmile_qr_scan"}, "type": "electric_scooter", "fusion_lon": 0.0}, {"is_reserved": 0, "is_disabled": 0, "fusion_lat": 0.0, "name": "ce4fa8d009556692772c9a6c820218ad", "lat": 38.8925135, "lon": -77.04502033333333, "bike_id": "ce4fa8d009556692772c9a6c820218ad", "rental_uris": {"ios": "https://dc.lft.to/lastmile_qr_scan", "android": "https://dc.lft.to/lastmile_qr_scan"}, "type": "electric_scooter", "fusion_lon": 0.0}, {"is_reserved": 0, "is_disabled": 0, "fusion_lat": 0.0, "name": "bfc3cf639c60ab1da41ff7eed99286db", "lat": 38.91804666666667, "lon": -77.03865566666667, "bike_id": "bfc3cf639c60ab1da41ff7eed99286db", "rental_uris": {"ios": "https://dc.lft.to/lastmile_qr_scan", "android": "https://dc.lft.to/lastmile_qr_scan"}, "type": "electric_scooter", "fusion_lon": 0.0}, {"is_reserved": 0, "is_disabled": 0, "fusion_lat": 0.0, "name": "acb442f548721d9505f355f4b31aeb3a", "lat": 38.894151666666666, "lon": -77.01081683333334, "bike_id": "acb442f548721d9505f355f4b31aeb3a", "rental_uris": {"ios": "https://dc.lft.to/lastmile_qr_scan", "android": "https://dc.lft.to/lastmile_qr_scan"}, "type": "electric_scooter", "fusion_lon": 0.0}, {"is_reserved": 0, "is_disabled": 0, "fusion_lat": 0.0, "name": "a37eb217e5cabe5d3c5e16ffbc71ef67", "lat": 38.9174215, "lon": -77.02113716666666, "bike_id": "a37eb217e5cabe5d3c5e16ffbc71ef67", "rental_uris": {"ios": "https://dc.lft.to/lastmile_qr_scan", "android": "https://dc.lft.to/lastmile_qr_scan"}, "type": "electric_scooter", "fusion_lon": 0.0}, {"is_reserved": 0, "is_disabled": 0, "fusion_lat": 0.0, "name": "063af7eca2deb9b4864d89384a347224", "lat": 38.923412666666664, "lon": -77.021302, "bike_id": "063af7eca2deb9b4864d89384a347224", "rental_uris": {"ios": "https://dc.lft.to/lastmile_qr_scan", "android": "https://dc.lft.to/lastmile_qr_scan"}, "type": "electric_scooter", "fusion_lon": 0.0}, {"is_reserved": 0, "is_disabled": 0, "fusion_lat": 0.0, "name": "cde7fa10fca7153aa8b2f79f5bba76d6", "lat": 38.902489833333334, "lon": -77.00206033333333, "bike_id": "cde7fa10fca7153aa8b2f79f5bba76d6", "rental_uris": {"ios": "https://dc.lft.to/lastmile_qr_scan", "android": "https://dc.lft.to/lastmile_qr_scan"}, "type": "electric_scooter", "fusion_lon": 0.0}, {"is_reserved": 0, "is_disabled": 0, "fusion_lat": 0.0, "name": "20119f1c7667dd23cc330d27e086f255", "lat": 38.9178, "lon": -77.04747716666667, "bike_id": "20119f1c7667dd23cc330d27e086f255", "rental_uris": {"ios": "https://dc.lft.to/lastmile_qr_scan", "android": "https://dc.lft.to/lastmile_qr_scan"}, "type": "electric_scooter", "fusion_lon": 0.0}, {"is_reserved": 0, "is_disabled": 0, "fusion_lat": 0.0, "name": "364ad20b7fbee0d0b047e13b7a12de86", "lat": 38.876413, "lon": -77.00522466666666, "bike_id": "364ad20b7fbee0d0b047e13b7a12de86", "rental_uris": {"ios": "https://dc.lft.to/lastmile_qr_scan", "android": "https://dc.lft.to/lastmile_qr_scan"}, "type": "electric_scooter", "fusion_lon": 0.0}, {"is_reserved": 0, "is_disabled": 0, "fusion_lat": 0.0, "name": "2bb653de7779654c6424e708ec407e97", "lat": 38.89965683333333, "lon": -77.04830833333334, "bike_id": "2bb653de7779654c6424e708ec407e97", "rental_uris": {"ios": "https://dc.lft.to/lastmile_qr_scan", "android": "https://dc.lft.to/lastmile_qr_scan"}, "type": "electric_scooter", "fusion_lon": 0.0}, {"is_reserved": 0, "is_disabled": 0, "fusion_lat": 0.0, "name": "c94659362b0bc35aaeead98a76fd2664", "lat": 38.919450499999996, "lon": -77.08134983333333, "bike_id": "c94659362b0bc35aaeead98a76fd2664", "rental_uris": {"ios": "https://dc.lft.to/lastmile_qr_scan", "android": "https://dc.lft.to/lastmile_qr_scan"}, "type": "electric_scooter", "fusion_lon": 0.0}, {"is_reserved": 0, "is_disabled": 0, "fusion_lat": 0.0, "name": "87e53bc4e1ce378255534adaf3815993", "lat": 38.89326966666667, "lon": -77.01983933333334, "bike_id": "87e53bc4e1ce378255534adaf3815993", "rental_uris": {"ios": "https://dc.lft.to/lastmile_qr_scan", "android": "https://dc.lft.to/lastmile_qr_scan"}, "type": "electric_scooter", "fusion_lon": 0.0}, {"is_reserved": 0, "is_disabled": 0, "fusion_lat": 0.0, "name": "25fe8ba95a6e5154acf54137e9a88c36", "lat": 38.9224395, "lon": -77.0281705, "bike_id": "25fe8ba95a6e5154acf54137e9a88c36", "rental_uris": {"ios": "https://dc.lft.to/lastmile_qr_scan", "android": "https://dc.lft.to/lastmile_qr_scan"}, "type": "electric_scooter", "fusion_lon": 0.0}, {"is_reserved": 0, "is_disabled": 0, "fusion_lat": 0.0, "name": "7575bf8bb70dae22d438704b4e09899c", "lat": 38.899042666666666, "lon": -77.02171016666667, "bike_id": "7575bf8bb70dae22d438704b4e09899c", "rental_uris": {"ios": "https://dc.lft.to/lastmile_qr_scan", "android": "https://dc.lft.to/lastmile_qr_scan"}, "type": "electric_scooter", "fusion_lon": 0.0}, {"is_reserved": 0, "is_disabled": 0, "fusion_lat": 0.0, "name": "34e7581ead9be5ab63502414a6c7e967", "lat": 38.9075385, "lon": -76.99916633333333, "bike_id": "34e7581ead9be5ab63502414a6c7e967", "rental_uris": {"ios": "https://dc.lft.to/lastmile_qr_scan", "android": "https://dc.lft.to/lastmile_qr_scan"}, "type": "electric_scooter", "fusion_lon": 0.0}, {"is_reserved": 0, "is_disabled": 0, "fusion_lat": 0.0, "name": "521a5103bfb3b27b2f581a9c46b24dde", "lat": 38.90567216666667, "lon": -77.01861683333334, "bike_id": "521a5103bfb3b27b2f581a9c46b24dde", "rental_uris": {"ios": "https://dc.lft.to/lastmile_qr_scan", "android": "https://dc.lft.to/lastmile_qr_scan"}, "type": "electric_scooter", "fusion_lon": 0.0}, {"is_reserved": 0, "is_disabled": 0, "fusion_lat": 0.0, "name": "a44a813f59260c8cb3a1257d072b6686", "lat": 38.93529766666666, "lon": -77.05455533333334, "bike_id": "a44a813f59260c8cb3a1257d072b6686", "rental_uris": {"ios": "https://dc.lft.to/lastmile_qr_scan", "android": "https://dc.lft.to/lastmile_qr_scan"}, "type": "electric_scooter", "fusion_lon": 0.0}, {"is_reserved": 0, "is_disabled": 0, "fusion_lat": 0.0, "name": "31acf9e732ea90032194fc07b3eecb71", "lat": 38.898332833333335, "lon": -77.02701416666666, "bike_id": "31acf9e732ea90032194fc07b3eecb71", "rental_uris": {"ios": "https://dc.lft.to/lastmile_qr_scan", "android": "https://dc.lft.to/lastmile_qr_scan"}, "type": "electric_scooter", "fusion_lon": 0.0}, {"is_reserved": 0, "is_disabled": 0, "fusion_lat": 0.0, "name": "c34c4edfb6293c35bc8837d90d331575", "lat": 38.93198233333333, "lon": -77.02353466666666, "bike_id": "c34c4edfb6293c35bc8837d90d331575", "rental_uris": {"ios": "https://dc.lft.to/lastmile_qr_scan", "android": "https://dc.lft.to/lastmile_qr_scan"}, "type": "electric_scooter", "fusion_lon": 0.0}, {"is_reserved": 0, "is_disabled": 0, "fusion_lat": 0.0, "name": "43115dfa5513324e700d390698d5ac64", "lat": 38.898694, "lon": -77.04648833333333, "bike_id": "43115dfa5513324e700d390698d5ac64", "rental_uris": {"ios": "https://dc.lft.to/lastmile_qr_scan", "android": "https://dc.lft.to/lastmile_qr_scan"}, "type": "electric_scooter", "fusion_lon": 0.0}, {"is_reserved": 0, "is_disabled": 0, "fusion_lat": 0.0, "name": "4a2f6565db41a569c58131bfeb6156f7", "lat": 38.927953, "lon": -77.03152366666667, "bike_id": "4a2f6565db41a569c58131bfeb6156f7", "rental_uris": {"ios": "https://dc.lft.to/lastmile_qr_scan", "android": "https://dc.lft.to/lastmile_qr_scan"}, "type": "electric_scooter", "fusion_lon": 0.0}, {"is_reserved": 0, "is_disabled": 0, "fusion_lat": 0.0, "name": "2c1d84871c6d2bd9189dff5ff64057cb", "lat": 38.89657866666667, "lon": -77.03351083333334, "bike_id": "2c1d84871c6d2bd9189dff5ff64057cb", "rental_uris": {"ios": "https://dc.lft.to/lastmile_qr_scan", "android": "https://dc.lft.to/lastmile_qr_scan"}, "type": "electric_scooter", "fusion_lon": 0.0}, {"is_reserved": 0, "is_disabled": 0, "fusion_lat": 0.0, "name": "fef3fc47b0aaf6759bb40a1b9f571ae6", "lat": 38.8943085, "lon": -77.04470783333333, "bike_id": "fef3fc47b0aaf6759bb40a1b9f571ae6", "rental_uris": {"ios": "https://dc.lft.to/lastmile_qr_scan", "android": "https://dc.lft.to/lastmile_qr_scan"}, "type": "electric_scooter", "fusion_lon": 0.0}, {"is_reserved": 0, "is_disabled": 0, "fusion_lat": 0.0, "name": "d0687f9cb5a4bfef75d5825d72549faa", "lat": 38.88871783333333, "lon": -76.990331, "bike_id": "d0687f9cb5a4bfef75d5825d72549faa", "rental_uris": {"ios": "https://dc.lft.to/lastmile_qr_scan", "android": "https://dc.lft.to/lastmile_qr_scan"}, "type": "electric_scooter", "fusion_lon": 0.0}, {"is_reserved": 0, "is_disabled": 0, "fusion_lat": 0.0, "name": "7f1ea0aae39adbf1a1fedd56571e9fc8", "lat": 38.931944333333334, "lon": -77.01991233333334, "bike_id": "7f1ea0aae39adbf1a1fedd56571e9fc8", "rental_uris": {"ios": "https://dc.lft.to/lastmile_qr_scan", "android": "https://dc.lft.to/lastmile_qr_scan"}, "type": "electric_scooter", "fusion_lon": 0.0}, {"is_reserved": 0, "is_disabled": 0, "fusion_lat": 0.0, "name": "a44f1908c211779e7d5d95a07a77e5d3", "lat": 38.9235595, "lon": -76.971411, "bike_id": "a44f1908c211779e7d5d95a07a77e5d3", "rental_uris": {"ios": "https://dc.lft.to/lastmile_qr_scan", "android": "https://dc.lft.to/lastmile_qr_scan"}, "type": "electric_bike", "fusion_lon": 0.0}, {"is_reserved": 0, "is_disabled": 0, "fusion_lat": 0.0, "name": "baf19a951c807303bb0d0c91fde8f69d", "lat": 38.905351333333336, "lon": -77.058345, "bike_id": "baf19a951c807303bb0d0c91fde8f69d", "rental_uris": {"ios": "https://dc.lft.to/lastmile_qr_scan", "android": "https://dc.lft.to/lastmile_qr_scan"}, "type": "electric_scooter", "fusion_lon": 0.0}, {"is_reserved": 0, "is_disabled": 0, "fusion_lat": 0.0, "name": "aa3f15cf60a06886a92ae956b463e8c3", "lat": 38.88611383333333, "lon": -77.00332516666667, "bike_id": "aa3f15cf60a06886a92ae956b463e8c3", "rental_uris": {"ios": "https://dc.lft.to/lastmile_qr_scan", "android": "https://dc.lft.to/lastmile_qr_scan"}, "type": "electric_scooter", "fusion_lon": 0.0}, {"is_reserved": 0, "is_disabled": 0, "fusion_lat": 0.0, "name": "2fb011ccb31eaa8690f68e1f68cd333a", "lat": 38.8935115, "lon": -77.04194516666666, "bike_id": "2fb011ccb31eaa8690f68e1f68cd333a", "rental_uris": {"ios": "https://dc.lft.to/lastmile_qr_scan", "android": "https://dc.lft.to/lastmile_qr_scan"}, "type": "electric_scooter", "fusion_lon": 0.0}, {"is_reserved": 0, "is_disabled": 0, "fusion_lat": 0.0, "name": "4e66b3e4f0af972f36858a4fd2043394", "lat": 38.9064965, "lon": -77.02504116666667, "bike_id": "4e66b3e4f0af972f36858a4fd2043394", "rental_uris": {"ios": "https://dc.lft.to/lastmile_qr_scan", "android": "https://dc.lft.to/lastmile_qr_scan"}, "type": "electric_scooter", "fusion_lon": 0.0}, {"is_reserved": 0, "is_disabled": 0, "fusion_lat": 0.0, "name": "461ff4681e7e45e9d93849c7d4e2c449", "lat": 38.874713666666665, "lon": -77.00540533333333, "bike_id": "461ff4681e7e45e9d93849c7d4e2c449", "rental_uris": {"ios": "https://dc.lft.to/lastmile_qr_scan", "android": "https://dc.lft.to/lastmile_qr_scan"}, "type": "electric_scooter", "fusion_lon": 0.0}, {"is_reserved": 0, "is_disabled": 0, "fusion_lat": 0.0, "name": "e9246bce0c76bd798ccabc7aff5c5433", "lat": 38.90248366666667, "lon": -77.05175866666667, "bike_id": "e9246bce0c76bd798ccabc7aff5c5433", "rental_uris": {"ios": "https://dc.lft.to/lastmile_qr_scan", "android": "https://dc.lft.to/lastmile_qr_scan"}, "type": "electric_scooter", "fusion_lon": 0.0}, {"is_reserved": 0, "is_disabled": 0, "fusion_lat": 0.0, "name": "4a362bec7348409e2dd2e65339334e27", "lat": 38.90059466666666, "lon": -77.03504, "bike_id": "4a362bec7348409e2dd2e65339334e27", "rental_uris": {"ios": "https://dc.lft.to/lastmile_qr_scan", "android": "https://dc.lft.to/lastmile_qr_scan"}, "type": "electric_scooter", "fusion_lon": 0.0}, {"is_reserved": 0, "is_disabled": 0, "fusion_lat": 0.0, "name": "0669223741a1729aec80fb69cad66ba1", "lat": 38.9279725, "lon": -77.03627366666667, "bike_id": "0669223741a1729aec80fb69cad66ba1", "rental_uris": {"ios": "https://dc.lft.to/lastmile_qr_scan", "android": "https://dc.lft.to/lastmile_qr_scan"}, "type": "electric_scooter", "fusion_lon": 0.0}, {"is_reserved": 0, "is_disabled": 0, "fusion_lat": 0.0, "name": "e502c1e971eaa94b09274fbb57626f40", "lat": 38.8391635, "lon": -76.998366, "bike_id": "e502c1e971eaa94b09274fbb57626f40", "rental_uris": {"ios": "https://dc.lft.to/lastmile_qr_scan", "android": "https://dc.lft.to/lastmile_qr_scan"}, "type": "electric_bike", "fusion_lon": 0.0}, {"is_reserved": 0, "is_disabled": 0, "fusion_lat": 0.0, "name": "dc0f9ac277cd2356a6e14b4b82d30b7d", "lat": 38.93100316666667, "lon": -77.02380283333333, "bike_id": "dc0f9ac277cd2356a6e14b4b82d30b7d", "rental_uris": {"ios": "https://dc.lft.to/lastmile_qr_scan", "android": "https://dc.lft.to/lastmile_qr_scan"}, "type": "electric_scooter", "fusion_lon": 0.0}, {"is_reserved": 0, "is_disabled": 0, "fusion_lat": 0.0, "name": "f1744d91b0e4eda5c01162560d7f7500", "lat": 38.8816625, "lon": -77.027529, "bike_id": "f1744d91b0e4eda5c01162560d7f7500", "rental_uris": {"ios": "https://dc.lft.to/lastmile_qr_scan", "android": "https://dc.lft.to/lastmile_qr_scan"}, "type": "electric_scooter", "fusion_lon": 0.0}, {"is_reserved": 0, "is_disabled": 0, "fusion_lat": 0.0, "name": "125590d5307732c28d95254b97c7de44", "lat": 38.905395166666665, "lon": -77.05697766666667, "bike_id": "125590d5307732c28d95254b97c7de44", "rental_uris": {"ios": "https://dc.lft.to/lastmile_qr_scan", "android": "https://dc.lft.to/lastmile_qr_scan"}, "type": "electric_scooter", "fusion_lon": 0.0}, {"is_reserved": 0, "is_disabled": 0, "fusion_lat": 0.0, "name": "8d9abddf32dd3de5363aedc34b28540b", "lat": 38.94034, "lon": -77.08396416666666, "bike_id": "8d9abddf32dd3de5363aedc34b28540b", "rental_uris": {"ios": "https://dc.lft.to/lastmile_qr_scan", "android": "https://dc.lft.to/lastmile_qr_scan"}, "type": "electric_scooter", "fusion_lon": 0.0}, {"is_reserved": 0, "is_disabled": 0, "fusion_lat": 0.0, "name": "df972eb85c75aa41d500f7c6c1be124c", "lat": 38.87164466666667, "lon": -77.08816516666667, "bike_id": "df972eb85c75aa41d500f7c6c1be124c", "rental_uris": {"ios": "https://dc.lft.to/lastmile_qr_scan", "android": "https://dc.lft.to/lastmile_qr_scan"}, "type": "electric_bike", "fusion_lon": 0.0}, {"is_reserved": 0, "is_disabled": 0, "fusion_lat": 0.0, "name": "e7c4559a69b3bc5c31c8018fffecdf3d", "lat": 38.906741333333336, "lon": -77.02713483333333, "bike_id": "e7c4559a69b3bc5c31c8018fffecdf3d", "rental_uris": {"ios": "https://dc.lft.to/lastmile_qr_scan", "android": "https://dc.lft.to/lastmile_qr_scan"}, "type": "electric_scooter", "fusion_lon": 0.0}, {"is_reserved": 0, "is_disabled": 0, "fusion_lat": 0.0, "name": "bec0cb0ce34c2c938aafb183615a9dee", "lat": 38.903368666666665, "lon": -77.02596033333333, "bike_id": "bec0cb0ce34c2c938aafb183615a9dee", "rental_uris": {"ios": "https://dc.lft.to/lastmile_qr_scan", "android": "https://dc.lft.to/lastmile_qr_scan"}, "type": "electric_scooter", "fusion_lon": 0.0}, {"is_reserved": 0, "is_disabled": 0, "fusion_lat": 0.0, "name": "b1ba968b71eb4d7fcadf05d213968f85", "lat": 38.925988333333336, "lon": -77.02500666666667, "bike_id": "b1ba968b71eb4d7fcadf05d213968f85", "rental_uris": {"ios": "https://dc.lft.to/lastmile_qr_scan", "android": "https://dc.lft.to/lastmile_qr_scan"}, "type": "electric_scooter", "fusion_lon": 0.0}, {"is_reserved": 0, "is_disabled": 0, "fusion_lat": 0.0, "name": "e6c36739176cd5cb8f38ffc09b2cdcc2", "lat": 38.91127983333333, "lon": -77.02190966666667, "bike_id": "e6c36739176cd5cb8f38ffc09b2cdcc2", "rental_uris": {"ios": "https://dc.lft.to/lastmile_qr_scan", "android": "https://dc.lft.to/lastmile_qr_scan"}, "type": "electric_scooter", "fusion_lon": 0.0}, {"is_reserved": 0, "is_disabled": 0, "fusion_lat": 0.0, "name": "2e0f5f86f92fecff5c0992196df21942", "lat": 38.846259, "lon": -76.97837766666666, "bike_id": "2e0f5f86f92fecff5c0992196df21942", "rental_uris": {"ios": "https://dc.lft.to/lastmile_qr_scan", "android": "https://dc.lft.to/lastmile_qr_scan"}, "type": "electric_bike", "fusion_lon": 0.0}, {"is_reserved": 0, "is_disabled": 0, "fusion_lat": 0.0, "name": "320b5b540015a5a32c9569ded3ab2fe6", "lat": 38.9081815, "lon": -77.0842765, "bike_id": "320b5b540015a5a32c9569ded3ab2fe6", "rental_uris": {"ios": "https://dc.lft.to/lastmile_qr_scan", "android": "https://dc.lft.to/lastmile_qr_scan"}, "type": "electric_scooter", "fusion_lon": 0.0}, {"is_reserved": 0, "is_disabled": 0, "fusion_lat": 0.0, "name": "a3f986e6f9dd9c69457f20594781a62e", "lat": 38.9248345, "lon": -77.02221733333333, "bike_id": "a3f986e6f9dd9c69457f20594781a62e", "rental_uris": {"ios": "https://dc.lft.to/lastmile_qr_scan", "android": "https://dc.lft.to/lastmile_qr_scan"}, "type": "electric_scooter", "fusion_lon": 0.0}, {"is_reserved": 0, "is_disabled": 0, "fusion_lat": 0.0, "name": "fcc6c092c618a85acf4e12edcc142432", "lat": 38.920583666666666, "lon": -77.02307716666667, "bike_id": "fcc6c092c618a85acf4e12edcc142432", "rental_uris": {"ios": "https://dc.lft.to/lastmile_qr_scan", "android": "https://dc.lft.to/lastmile_qr_scan"}, "type": "electric_scooter", "fusion_lon": 0.0}, {"is_reserved": 0, "is_disabled": 0, "fusion_lat": 0.0, "name": "f728c90795f1e186421f8c372994cdcd", "lat": 38.904001, "lon": -77.024811, "bike_id": "f728c90795f1e186421f8c372994cdcd", "rental_uris": {"ios": "https://dc.lft.to/lastmile_qr_scan", "android": "https://dc.lft.to/lastmile_qr_scan"}, "type": "electric_scooter", "fusion_lon": 0.0}, {"is_reserved": 0, "is_disabled": 0, "fusion_lat": 0.0, "name": "33d535dd8542db8ab5b842da7e52121e", "lat": 38.9047475, "lon": -77.04350633333334, "bike_id": "33d535dd8542db8ab5b842da7e52121e", "rental_uris": {"ios": "https://dc.lft.to/lastmile_qr_scan", "android": "https://dc.lft.to/lastmile_qr_scan"}, "type": "electric_scooter", "fusion_lon": 0.0}, {"is_reserved": 0, "is_disabled": 0, "fusion_lat": 0.0, "name": "ddb418e160f7f96a3fcfbbb8d0c4f1b8", "lat": 38.915663333333335, "lon": -77.0326095, "bike_id": "ddb418e160f7f96a3fcfbbb8d0c4f1b8", "rental_uris": {"ios": "https://dc.lft.to/lastmile_qr_scan", "android": "https://dc.lft.to/lastmile_qr_scan"}, "type": "electric_scooter", "fusion_lon": 0.0}, {"is_reserved": 0, "is_disabled": 0, "fusion_lat": 0.0, "name": "53cf92a44fa5adac155b187d43b06e2d", "lat": 38.8857955, "lon": -77.01211933333333, "bike_id": "53cf92a44fa5adac155b187d43b06e2d", "rental_uris": {"ios": "https://dc.lft.to/lastmile_qr_scan", "android": "https://dc.lft.to/lastmile_qr_scan"}, "type": "electric_scooter", "fusion_lon": 0.0}, {"is_reserved": 0, "is_disabled": 0, "fusion_lat": 0.0, "name": "7e1829974818ab3d05aa99bbd3b7d1f7", "lat": 38.88708333333334, "lon": -76.983471, "bike_id": "7e1829974818ab3d05aa99bbd3b7d1f7", "rental_uris": {"ios": "https://dc.lft.to/lastmile_qr_scan", "android": "https://dc.lft.to/lastmile_qr_scan"}, "type": "electric_scooter", "fusion_lon": 0.0}, {"is_reserved": 0, "is_disabled": 0, "fusion_lat": 0.0, "name": "07da8717e485837d430b8143dba6973b", "lat": 38.915897666666666, "lon": -76.983834, "bike_id": "07da8717e485837d430b8143dba6973b", "rental_uris": {"ios": "https://dc.lft.to/lastmile_qr_scan", "android": "https://dc.lft.to/lastmile_qr_scan"}, "type": "electric_scooter", "fusion_lon": 0.0}, {"is_reserved": 0, "is_disabled": 0, "fusion_lat": 0.0, "name": "c2017aab4e0991f8def8cb46919fb69f", "lat": 38.8996745, "lon": -77.01606233333334, "bike_id": "c2017aab4e0991f8def8cb46919fb69f", "rental_uris": {"ios": "https://dc.lft.to/lastmile_qr_scan", "android": "https://dc.lft.to/lastmile_qr_scan"}, "type": "electric_scooter", "fusion_lon": 0.0}, {"is_reserved": 0, "is_disabled": 0, "fusion_lat": 0.0, "name": "da94eb04e91f28f98e850ecee53502a3", "lat": 38.902697833333335, "lon": -77.039676, "bike_id": "da94eb04e91f28f98e850ecee53502a3", "rental_uris": {"ios": "https://dc.lft.to/lastmile_qr_scan", "android": "https://dc.lft.to/lastmile_qr_scan"}, "type": "electric_scooter", "fusion_lon": 0.0}, {"is_reserved": 0, "is_disabled": 0, "fusion_lat": 0.0, "name": "c268b98f2fcc7bf2c0c88add827f56dc", "lat": 38.90053416666667, "lon": -76.99332766666667, "bike_id": "c268b98f2fcc7bf2c0c88add827f56dc", "rental_uris": {"ios": "https://dc.lft.to/lastmile_qr_scan", "android": "https://dc.lft.to/lastmile_qr_scan"}, "type": "electric_scooter", "fusion_lon": 0.0}, {"is_reserved": 0, "is_disabled": 0, "fusion_lat": 0.0, "name": "ddbd2d5c72d2f5d9b18d8898ab2a68b9", "lat": 38.8775235, "lon": -77.019864, "bike_id": "ddbd2d5c72d2f5d9b18d8898ab2a68b9", "rental_uris": {"ios": "https://dc.lft.to/lastmile_qr_scan", "android": "https://dc.lft.to/lastmile_qr_scan"}, "type": "electric_scooter", "fusion_lon": 0.0}, {"is_reserved": 0, "is_disabled": 0, "fusion_lat": 0.0, "name": "9bd26b6ae656b2241f14a8e0f99d11fc", "lat": 38.89393466666667, "lon": -77.054748, "bike_id": "9bd26b6ae656b2241f14a8e0f99d11fc", "rental_uris": {"ios": "https://dc.lft.to/lastmile_qr_scan", "android": "https://dc.lft.to/lastmile_qr_scan"}, "type": "electric_scooter", "fusion_lon": 0.0}, {"is_reserved": 0, "is_disabled": 0, "fusion_lat": 0.0, "name": "857af2e4c9dba35831aff0a792eb694a", "lat": 38.900454333333336, "lon": -76.98848766666667, "bike_id": "857af2e4c9dba35831aff0a792eb694a", "rental_uris": {"ios": "https://dc.lft.to/lastmile_qr_scan", "android": "https://dc.lft.to/lastmile_qr_scan"}, "type": "electric_scooter", "fusion_lon": 0.0}, {"is_reserved": 0, "is_disabled": 0, "fusion_lat": 0.0, "name": "8bc58bdf6e8e7b7b09a6a34b80f91dde", "lat": 38.9026725, "lon": -77.03149483333333, "bike_id": "8bc58bdf6e8e7b7b09a6a34b80f91dde", "rental_uris": {"ios": "https://dc.lft.to/lastmile_qr_scan", "android": "https://dc.lft.to/lastmile_qr_scan"}, "type": "electric_scooter", "fusion_lon": 0.0}, {"is_reserved": 0, "is_disabled": 0, "fusion_lat": 0.0, "name": "01c12199d15eb526d3cdae31cfec2eec", "lat": 38.9067875, "lon": -77.024082, "bike_id": "01c12199d15eb526d3cdae31cfec2eec", "rental_uris": {"ios": "https://dc.lft.to/lastmile_qr_scan", "android": "https://dc.lft.to/lastmile_qr_scan"}, "type": "electric_scooter", "fusion_lon": 0.0}, {"is_reserved": 0, "is_disabled": 0, "fusion_lat": 0.0, "name": "9680ddab5c606f3c2251baa1cbd55997", "lat": 38.956453333333336, "lon": -77.02820516666667, "bike_id": "9680ddab5c606f3c2251baa1cbd55997", "rental_uris": {"ios": "https://dc.lft.to/lastmile_qr_scan", "android": "https://dc.lft.to/lastmile_qr_scan"}, "type": "electric_scooter", "fusion_lon": 0.0}, {"is_reserved": 0, "is_disabled": 0, "fusion_lat": 0.0, "name": "4bd9cf68100345792359952aeae7f8ab", "lat": 38.88598316666667, "lon": -76.92509383333334, "bike_id": "4bd9cf68100345792359952aeae7f8ab", "rental_uris": {"ios": "https://dc.lft.to/lastmile_qr_scan", "android": "https://dc.lft.to/lastmile_qr_scan"}, "type": "electric_scooter", "fusion_lon": 0.0}, {"is_reserved": 0, "is_disabled": 0, "fusion_lat": 0.0, "name": "3ab587739568ed92cf73dab9ae8a1903", "lat": 38.89886666666666, "lon": -77.0331665, "bike_id": "3ab587739568ed92cf73dab9ae8a1903", "rental_uris": {"ios": "https://dc.lft.to/lastmile_qr_scan", "android": "https://dc.lft.to/lastmile_qr_scan"}, "type": "electric_scooter", "fusion_lon": 0.0}, {"is_reserved": 0, "is_disabled": 0, "fusion_lat": 0.0, "name": "07dca17b076b7badf18aeba962cedcd4", "lat": 38.9165375, "lon": -77.03216266666666, "bike_id": "07dca17b076b7badf18aeba962cedcd4", "rental_uris": {"ios": "https://dc.lft.to/lastmile_qr_scan", "android": "https://dc.lft.to/lastmile_qr_scan"}, "type": "electric_scooter", "fusion_lon": 0.0}, {"is_reserved": 0, "is_disabled": 0, "fusion_lat": 0.0, "name": "81a400e6e297b981d365ffe66c5acab1", "lat": 38.915586, "lon": -77.0317465, "bike_id": "81a400e6e297b981d365ffe66c5acab1", "rental_uris": {"ios": "https://dc.lft.to/lastmile_qr_scan", "android": "https://dc.lft.to/lastmile_qr_scan"}, "type": "electric_scooter", "fusion_lon": 0.0}, {"is_reserved": 0, "is_disabled": 0, "fusion_lat": 0.0, "name": "88ed6efc7a385ba5cd84fa0dd7b52ee8", "lat": 38.90486933333333, "lon": -77.03558383333333, "bike_id": "88ed6efc7a385ba5cd84fa0dd7b52ee8", "rental_uris": {"ios": "https://dc.lft.to/lastmile_qr_scan", "android": "https://dc.lft.to/lastmile_qr_scan"}, "type": "electric_scooter", "fusion_lon": 0.0}, {"is_reserved": 0, "is_disabled": 0, "fusion_lat": 0.0, "name": "47ada5be3dee724716b39505d6f46290", "lat": 38.92064083333333, "lon": -77.0171895, "bike_id": "47ada5be3dee724716b39505d6f46290", "rental_uris": {"ios": "https://dc.lft.to/lastmile_qr_scan", "android": "https://dc.lft.to/lastmile_qr_scan"}, "type": "electric_scooter", "fusion_lon": 0.0}, {"is_reserved": 0, "is_disabled": 0, "fusion_lat": 0.0, "name": "c64662c7218bc6e022a1f413306f4698", "lat": 38.908323833333334, "lon": -77.03204766666667, "bike_id": "c64662c7218bc6e022a1f413306f4698", "rental_uris": {"ios": "https://dc.lft.to/lastmile_qr_scan", "android": "https://dc.lft.to/lastmile_qr_scan"}, "type": "electric_scooter", "fusion_lon": 0.0}, {"is_reserved": 0, "is_disabled": 0, "fusion_lat": 0.0, "name": "7f3cb66eb604913ea706a53aff51aab9", "lat": 38.90258683333333, "lon": -77.03201116666666, "bike_id": "7f3cb66eb604913ea706a53aff51aab9", "rental_uris": {"ios": "https://dc.lft.to/lastmile_qr_scan", "android": "https://dc.lft.to/lastmile_qr_scan"}, "type": "electric_scooter", "fusion_lon": 0.0}, {"is_reserved": 0, "is_disabled": 0, "fusion_lat": 0.0, "name": "ac7e4ad6d86c6008ee678062e38ab820", "lat": 38.91830083333333, "lon": -77.0270975, "bike_id": "ac7e4ad6d86c6008ee678062e38ab820", "rental_uris": {"ios": "https://dc.lft.to/lastmile_qr_scan", "android": "https://dc.lft.to/lastmile_qr_scan"}, "type": "electric_scooter", "fusion_lon": 0.0}, {"is_reserved": 0, "is_disabled": 0, "fusion_lat": 0.0, "name": "d2db9599849ab2329cb9350391fba06e", "lat": 38.90562083333333, "lon": -77.005651, "bike_id": "d2db9599849ab2329cb9350391fba06e", "rental_uris": {"ios": "https://dc.lft.to/lastmile_qr_scan", "android": "https://dc.lft.to/lastmile_qr_scan"}, "type": "electric_scooter", "fusion_lon": 0.0}, {"is_reserved": 0, "is_disabled": 0, "fusion_lat": 0.0, "name": "12e98e5f01ec4bff45f4327ef56694f2", "lat": 38.87733933333333, "lon": -77.1185095, "bike_id": "12e98e5f01ec4bff45f4327ef56694f2", "rental_uris": {"ios": "https://dc.lft.to/lastmile_qr_scan", "android": "https://dc.lft.to/lastmile_qr_scan"}, "type": "electric_bike", "fusion_lon": 0.0}, {"is_reserved": 0, "is_disabled": 0, "fusion_lat": 0.0, "name": "191565e5985deb09d9de1cdaed7d3230", "lat": 38.901216166666664, "lon": -77.04111066666667, "bike_id": "191565e5985deb09d9de1cdaed7d3230", "rental_uris": {"ios": "https://dc.lft.to/lastmile_qr_scan", "android": "https://dc.lft.to/lastmile_qr_scan"}, "type": "electric_scooter", "fusion_lon": 0.0},