{"data": {"bikes": [{"rental_uris": {"ios": "https://dc.lft.to/lastmile_qr_scan", "android": "https://dc.lft.to/lastmile_qr_scan"}, "fusion_lat": 0.0, "name": "8e89df96f59f56899053249cdca03687", "bike_id": "8e89df96f59f56899053249cdca03687", "is_disabled": 0, "type": "electric_bike", "lat": 39.05498516666667, "lon": -77.04650283333334, "is_reserved": 0, "fusion_lon": 0.0}, {"rental_uris": {"ios": "https://dc.lft.to/lastmile_qr_scan", "android": "https://dc.lft.to/lastmile_qr_scan"}, "fusion_lat": 0.0, "name": "0eb60be3a2b3e319496f511c12e5d64a", "bike_id": "0eb60be3a2b3e319496f511c12e5d64a", "is_disabled": 0, "type": "electric_scooter", "lat": 38.906857, "lon": -77.03135566666667, "is_reserved": 0, "fusion_lon": 0.0}, {"rental_uris": {"ios": "https://dc.lft.to/lastmile_qr_scan", "android": "https://dc.lft.to/lastmile_qr_scan"}, "fusion_lat": 0.0, "name": "93d14204b8ce7f681985d211663af614", "bike_id": "93d14204b8ce7f681985d211663af614", "is_disabled": 0, "type": "electric_scooter", "lat": 38.899167166666665, "lon": -77.04106616666667, "is_reserved": 0, "fusion_lon": 0.0}, {"rental_uris": {"ios": "https://dc.lft.to/lastmile_qr_scan", "android": "https://dc.lft.to/lastmile_qr_scan"}, "fusion_lat": 0.0, "name": "591bfaa55a650a39f5d25e203e433360", "bike_id": "591bfaa55a650a39f5d25e203e433360", "is_disabled": 0, "type": "electric_scooter", "lat": 38.907741, "lon": -77.02400566666667, "is_reserved": 0, "fusion_lon": 0.0}, {"rental_uris": {"ios": "https://dc.lft.to/lastmile_qr_scan", "android": "https://dc.lft.to/lastmile_qr_scan"}, "fusion_lat": 0.0, "name": "93b874277a63b655ec0b531d50db25cc", "bike_id": "93b874277a63b655ec0b531d50db25cc", "is_disabled": 0, "type": "electric_scooter", "lat": 38.948532, "lon": -77.01939633333333, "is_reserved": 0, "fusion_lon": 0.0}, {"rental_uris": {"ios": "https://dc.lft.to/lastmile_qr_scan", "android": "https://dc.lft.to/lastmile_qr_scan"}, "fusion_lat": 0.0, "name": "db6e33d774c6bc36463cfd105ce159ee", "bike_id": "db6e33d774c6bc36463cfd105ce159ee", "is_disabled": 0, "type": "electric_bike", "lat": 38.95897316666667, "lon": -77.05874333333334, "is_reserved": 0, "fusion_lon": 0.0}, {"rental_uris": {"ios": "https://dc.lft.to/lastmile_qr_scan", "android": "https://dc.lft.to/lastmile_qr_scan"}, "fusion_lat": 0.0, "name": "603990621fe5563c515e75352a6967a8", "bike_id": "603990621fe5563c515e75352a6967a8", "is_disabled": 0, "type": "electric_scooter", "lat": 38.926068, "lon": -77.02153883333334, "is_reserved": 0, "fusion_lon": 0.0}, {"rental_uris": {"ios": "https://dc.lft.to/lastmile_qr_scan", "android": "https://dc.lft.to/lastmile_qr_scan"}, "fusion_lat": 0.0, "name": "69008e3e52645344d572a73d26e25f89", "bike_id": "69008e3e52645344d572a73d26e25f89", "is_disabled": 0, "type": "electric_bike", "lat": 38.9943455, "lon": -77.0314795, "is_reserved": 0, "fusion_lon": 0.0}, {"rental_uris": {"ios": "https://dc.lft.to/lastmile_qr_scan", "android": "https://dc.lft.to/lastmile_qr_scan"}, "fusion_lat": 0.0, "name": "fdcd0c8424891cbd086ec1b49bf5157c", "bike_id": "fdcd0c8424891cbd086ec1b49bf5157c", "is_disabled": 0, "type": "electric_scooter", "lat": 38.89888066666666, "lon": -77.03957416666667, "is_reserved": 0, "fusion_lon": 0.0}, {"rental_uris": {"ios": "https://dc.lft.to/lastmile_qr_scan", "android": "https://dc.lft.to/lastmile_qr_scan"}, "fusion_lat": 0.0, "name": "2dfee978b4250893fb2fb6248ba68091", "bike_id": "2dfee978b4250893fb2fb6248ba68091", "is_disabled": 0, "type": "electric_bike", "lat": 38.88405483333333, "lon": -76.96059566666666, "is_reserved": 0, "fusion_lon": 0.0}, {"rental_uris": {"ios": "https://dc.lft.to/lastmile_qr_scan", "android": "https://dc.lft.to/lastmile_qr_scan"}, "fusion_lat": 0.0, "name": "7c4e8d4e591f8cf89f64a1836f171424", "bike_id": "7c4e8d4e591f8cf89f64a1836f171424", "is_disabled": 0, "type": "electric_scooter", "lat": 38.92496533333333, "lon": -77.02159416666667, "is_reserved": 0, "fusion_lon": 0.0}, {"rental_uris": {"ios": "https://dc.lft.to/lastmile_qr_scan", "android": "https://dc.lft.to/lastmile_qr_scan"}, "fusion_lat": 0.0, "name": "94dc023171801c208f0ec0301a05a17f", "bike_id": "94dc023171801c208f0ec0301a05a17f", "is_disabled": 0, "type": "electric_scooter", "lat": 38.948217, "lon": -77.02618033333333, "is_reserved": 0, "fusion_lon": 0.0}, {"rental_uris": {"ios": "https://dc.lft.to/lastmile_qr_scan", "android": "https://dc.lft.to/lastmile_qr_scan"}, "fusion_lat": 0.0, "name": "da452b2df914d6c04d3833376362fd86", "bike_id": "da452b2df914d6c04d3833376362fd86", "is_disabled": 0, "type": "electric_bike", "lat": 38.9301255, "lon": -77.21648666666667, "is_reserved": 0, "fusion_lon": 0.0}, {"rental_uris": {"ios": "https://dc.lft.to/lastmile_qr_scan", "android": "https://dc.lft.to/lastmile_qr_scan"}, "fusion_lat": 0.0, "name": "ce9879e3c3c148b63880a184153d039b", "bike_id": "ce9879e3c3c148b63880a184153d039b", "is_disabled": 0, "type": "electric_scooter", "lat": 38.903277333333335, "lon": -77.0366285, "is_reserved": 0, "fusion_lon": 0.0}, {"rental_uris": {"ios": "https://dc.lft.to/lastmile_qr_scan", "android": "https://dc.lft.to/lastmile_qr_scan"}, "fusion_lat": 0.0, "name": "388a70e930774099e315bb9a5e50da05", "bike_id": "388a70e930774099e315bb9a5e50da05", "is_disabled": 0, "type": "electric_bike", "lat": 38.91962766666666, "lon": -76.97264733333333, "is_reserved": 0, "fusion_lon": 0.0}, {"rental_uris": {"ios": "https://dc.lft.to/lastmile_qr_scan", "android": "https://dc.lft.to/lastmile_qr_scan"}, "fusion_lat": 0.0, "name": "27bc5aef071abe2d13106c0cb9e8e03c", "bike_id": "27bc5aef071abe2d13106c0cb9e8e03c", "is_disabled": 0, "type": "electric_scooter", "lat": 38.94454266666666, "lon": -77.063503, "is_reserved": 0, "fusion_lon": 0.0}, {"rental_uris": {"ios": "https://dc.lft.to/lastmile_qr_scan", "android": "https://dc.lft.to/lastmile_qr_scan"}, "fusion_lat": 0.0, "name": "d83d582291818cf6f05b54e466ba4e47", "bike_id": "d83d582291818cf6f05b54e466ba4e47", "is_disabled": 0, "type": "electric_scooter", "lat": 38.930169166666666, "lon": -77.04444366666667, "is_reserved": 0, "fusion_lon": 0.0}, {"rental_uris": {"ios": "https://dc.lft.to/lastmile_qr_scan", "android": "https://dc.lft.to/lastmile_qr_scan"}, "fusion_lat": 0.0, "name": "b8bb9e343df40975b5fa63f98b65132d", "bike_id": "b8bb9e343df40975b5fa63f98b65132d", "is_disabled": 0, "type": "electric_scooter", "lat": 38.895169833333334, "lon": -76.97731266666666, "is_reserved": 0, "fusion_lon": 0.0}, {"rental_uris": {"ios": "https://dc.lft.to/lastmile_qr_scan", "android": "https://dc.lft.to/lastmile_qr_scan"}, "fusion_lat": 0.0, "name": "6af0b777eb99ef65bbcc6898c385ed44", "bike_id": "6af0b777eb99ef65bbcc6898c385ed44", "is_disabled": 0, "type": "electric_scooter", "lat": 38.864992666666666, "lon": -76.989865, "is_reserved": 0, "fusion_lon": 0.0}, {"rental_uris": {"ios": "https://dc.lft.to/lastmile_qr_scan", "android": "https://dc.lft.to/lastmile_qr_scan"}, "fusion_lat": 0.0, "name": "30f0feeb1edf4bb24df3ed1b751a9a3f", "bike_id": "30f0feeb1edf4bb24df3ed1b751a9a3f", "is_disabled": 0, "type": "electric_scooter", "lat": 38.892230166666664, "lon": -77.03161083333333, "is_reserved": 0, "fusion_lon": 0.0}, {"rental_uris": {"ios": "https://dc.lft.to/lastmile_qr_scan", "android": "https://dc.lft.to/lastmile_qr_scan"}, "fusion_lat": 0.0, "name": "8941b70057c31e8a2eb7b7c1378d3057", "bike_id": "8941b70057c31e8a2eb7b7c1378d3057", "is_disabled": 0, "type": "electric_scooter", "lat": 38.954272333333336, "lon": -77.02765016666666, "is_reserved": 0, "fusion_lon": 0.0}, {"rental_uris": {"ios": "https://dc.lft.to/lastmile_qr_scan", "android": "https://dc.lft.to/lastmile_qr_scan"}, "fusion_lat": 0.0, "name": "4faab591b9ea373daecc8792481c3c77", "bike_id": "4faab591b9ea373daecc8792481c3c77", "is_disabled": 0, "type": "electric_scooter", "lat": 38.89982533333333, "lon": -76.93992183333333, "is_reserved": 0, "fusion_lon": 0.0}, {"rental_uris": {"ios": "https://dc.lft.to/lastmile_qr_scan", "android": "https://dc.lft.to/lastmile_qr_scan"}, "fusion_lat": 0.0, "name": "b1d3795537dc95d24c2ca9f9a22ffb35", "bike_id": "b1d3795537dc95d24c2ca9f9a22ffb35", "is_disabled": 0, "type": "electric_scooter", "lat": 38.910406, "lon": -77.042833, "is_reserved": 0, "fusion_lon": 0.0}, {"rental_uris": {"ios": "https://dc.lft.to/lastmile_qr_scan", "android": "https://dc.lft.to/lastmile_qr_scan"}, "fusion_lat": 0.0, "name": "9355e3e1e910b5628ad5a335cd2fc011", "bike_id": "9355e3e1e910b5628ad5a335cd2fc011", "is_disabled": 0, "type": "electric_scooter", "lat": 38.892241166666665, "lon": -77.03163733333334, "is_reserved": 0, "fusion_lon": 0.0}, {"rental_uris": {"ios": "https://dc.lft.to/lastmile_qr_scan", "android": "https://dc.lft.to/lastmile_qr_scan"}, "fusion_lat": 0.0, "name": "03d1a701fe05bf1d862bfd47e4791155", "bike_id": "03d1a701fe05bf1d862bfd47e4791155", "is_disabled": 0, "type": "electric_scooter", "lat": 38.9048535, "lon": -77.00777416666666, "is_reserved": 0, "fusion_lon": 0.0}, {"rental_uris": {"ios": "https://dc.lft.to/lastmile_qr_scan", "android": "https://dc.lft.to/lastmile_qr_scan"}, "fusion_lat": 0.0, "name": "a98ce9bf48a569e7178fba9c7ff88921", "bike_id": "a98ce9bf48a569e7178fba9c7ff88921", "is_disabled": 0, "type": "electric_bike", "lat": 38.9587905, "lon": -76.92483766666666, "is_reserved": 0, "fusion_lon": 0.0}, {"rental_uris": {"ios": "https://dc.lft.to/lastmile_qr_scan", "android": "https://dc.lft.to/lastmile_qr_scan"}, "fusion_lat": 0.0, "name": "622b073073127a25e727f793486e7cca", "bike_id": "622b073073127a25e727f793486e7cca", "is_disabled": 0, "type": "electric_scooter", "lat": 38.917827, "lon": -77.04340516666667, "is_reserved": 0, "fusion_lon": 0.0}, {"rental_uris": {"ios": "https://dc.lft.to/lastmile_qr_scan", "android": "https://dc.lft.to/lastmile_qr_scan"}, "fusion_lat": 0.0, "name": "9d0a9343e9bad1e3d6deab31055e3082", "bike_id": "9d0a9343e9bad1e3d6deab31055e3082", "is_disabled": 0, "type": "electric_scooter", "lat": 38.925341333333336, "lon": -77.02627366666667, "is_reserved": 0, "fusion_lon": 0.0}, {"rental_uris": {"ios": "https://dc.lft.to/lastmile_qr_scan", "android": "https://dc.lft.to/lastmile_qr_scan"}, "fusion_lat": 0.0, "name": "e0dd6368ef387e929c4c631e6fbc4b59", "bike_id": "e0dd6368ef387e929c4c631e6fbc4b59", "is_disabled": 0, "type": "electric_scooter", "lat": 38.915037833333336, "lon": -76.98365833333334, "is_reserved": 0, "fusion_lon": 0.0}, {"rental_uris": {"ios": "https://dc.lft.to/lastmile_qr_scan", "android": "https://dc.lft.to/lastmile_qr_scan"}, "fusion_lat": 0.0, "name": "86e76ab09cc1582cc3689840981684cf", "bike_id": "86e76ab09cc1582cc3689840981684cf", "is_disabled": 0, "type": "electric_scooter", "lat": 38.8762925, "lon": -76.96529983333333, "is_reserved": 0, "fusion_lon": 0.0}, {"rental_uris": {"ios": "https://dc.lft.to/lastmile_qr_scan", "android": "https://dc.lft.to/lastmile_qr_scan"}, "fusion_lat": 0.0, "name": "e2a1c20f503c1888d45f6a1d2929cbcf", "bike_id": "e2a1c20f503c1888d45f6a1d2929cbcf", "is_disabled": 0, "type": "electric_scooter", "lat": 38.89882883333333, "lon": -77.0396645, "is_reserved": 0, "fusion_lon": 0.0}, {"rental_uris": {"ios": "https://dc.lft.to/lastmile_qr_scan", "android": "https://dc.lft.to/lastmile_qr_scan"}, "fusion_lat": 0.0, "name": "a15e4aa3e2cddee8381aabac0debe64f", "bike_id": "a15e4aa3e2cddee8381aabac0debe64f", "is_disabled": 0, "type": "electric_scooter", "lat": 38.90421416666667, "lon": -77.02199916666666, "is_reserved": 0, "fusion_lon": 0.0}, {"rental_uris": {"ios": "https://dc.lft.to/lastmile_qr_scan", "android": "https://dc.lft.to/lastmile_qr_scan"}, "fusion_lat": 0.0, "name": "b0a199723afc436b694c7123d1612bac", "bike_id": "b0a199723afc436b694c7123d1612bac", "is_disabled": 0, "type": "electric_scooter", "lat": 38.883629, "lon": -76.94154183333333, "is_reserved": 0, "fusion_lon": 0.0}, {"rental_uris": {"ios": "https://dc.lft.to/lastmile_qr_scan", "android": "https://dc.lft.to/lastmile_qr_scan"}, "fusion_lat": 0.0, "name": "0f17821237a78336127fbe3741c6df37", "bike_id": "0f17821237a78336127fbe3741c6df37", "is_disabled": 0, "type": "electric_scooter", "lat": 38.91341766666667, "lon": -77.00920116666667, "is_reserved": 0, "fusion_lon": 0.0}, {"rental_uris": {"ios": "https://dc.lft.to/lastmile_qr_scan", "android": "https://dc.lft.to/lastmile_qr_scan"}, "fusion_lat": 0.0, "name": "9281e3afcfbae807389a5ac72eecde94", "bike_id": "9281e3afcfbae807389a5ac72eecde94", "is_disabled": 0, "type": "electric_scooter", "lat": 38.936079, "lon": -77.0585675, "is_reserved": 0, "fusion_lon": 0.0}, {"rental_uris": {"ios": "https://dc.lft.to/lastmile_qr_scan", "android": "https://dc.lft.to/lastmile_qr_scan"}, "fusion_lat": 0.0, "name": "771f4b8a3b92533b67d5071c94e73dfe", "bike_id": "771f4b8a3b92533b67d5071c94e73dfe", "is_disabled": 0, "type": "electric_scooter", "lat": 38.89219933333333, "lon": -77.02221583333333, "is_reserved": 0, "fusion_lon": 0.0}, {"rental_uris": {"ios": "https://dc.lft.to/lastmile_qr_scan", "android": "https://dc.lft.to/lastmile_qr_scan"}, "fusion_lat": 0.0, "name": "23fdcce5dc0808305aa54f4a7da7f90f", "bike_id": "23fdcce5dc0808305aa54f4a7da7f90f", "is_disabled": 0, "type": "electric_scooter", "lat": 38.898233833333336, "lon": -77.04354116666667, "is_reserved": 0, "fusion_lon": 0.0}, {"rental_uris": {"ios": "https://dc.lft.to/lastmile_qr_scan", "android": "https://dc.lft.to/lastmile_qr_scan"}, "fusion_lat": 0.0, "name": "ab0b5036abdaa0aea507c03bbb41d3c6", "bike_id": "ab0b5036abdaa0aea507c03bbb41d3c6", "is_disabled": 0, "type": "electric_scooter", "lat": 38.919795, "lon": -76.973431, "is_reserved": 0, "fusion_lon": 0.0}, {"rental_uris": {"ios": "https://dc.lft.to/lastmile_qr_scan", "android": "https://dc.lft.to/lastmile_qr_scan"}, "fusion_lat": 0.0, "name": "a3579346b86e636636d70183863439cd", "bike_id": "a3579346b86e636636d70183863439cd", "is_disabled": 0, "type": "electric_scooter", "lat": 38.926541666666665, "lon": -77.03672066666667, "is_reserved": 0, "fusion_lon": 0.0}, {"rental_uris": {"ios": "https://dc.lft.to/lastmile_qr_scan", "android": "https://dc.lft.to/lastmile_qr_scan"}, "fusion_lat": 0.0, "name": "76b27e0abf58349b3c6ba3e93cf1f582", "bike_id": "76b27e0abf58349b3c6ba3e93cf1f582", "is_disabled": 0, "type": "electric_scooter", "lat": 38.9013575, "lon": -77.03088633333333, "is_reserved": 0, "fusion_lon": 0.0}, {"rental_uris": {"ios": "https://dc.lft.to/lastmile_qr_scan", "android": "https://dc.lft.to/lastmile_qr_scan"}, "fusion_lat": 0.0, "name": "a6c825c3c55821d25df39a049b3aa9a9", "bike_id": "a6c825c3c55821d25df39a049b3aa9a9", "is_disabled": 0, "type": "electric_scooter", "lat": 38.905728333333336, "lon": -77.03434133333333, "is_reserved": 0, "fusion_lon": 0.0}, {"rental_uris": {"ios": "https://dc.lft.to/lastmile_qr_scan", "android": "https://dc.lft.to/lastmile_qr_scan"}, "fusion_lat": 0.0, "name": "9be7af3f80016ac7762d9e3dfea93c0a", "bike_id": "9be7af3f80016ac7762d9e3dfea93c0a", "is_disabled": 0, "type": "electric_scooter", "lat": 38.949592, "lon": -77.0272125, "is_reserved": 0, "fusion_lon": 0.0}, {"rental_uris": {"ios": "https://dc.lft.to/lastmile_qr_scan", "android": "https://dc.lft.to/lastmile_qr_scan"}, "fusion_lat": 0.0, "name": "5aaab1513fd02e3ea43750c0ad236431", "bike_id": "5aaab1513fd02e3ea43750c0ad236431", "is_disabled": 0, "type": "electric_scooter", "lat": 38.91756483333333, "lon": -77.030754, "is_reserved": 0, "fusion_lon": 0.0}, {"rental_uris": {"ios": "https://dc.lft.to/lastmile_qr_scan", "android": "https://dc.lft.to/lastmile_qr_scan"}, "fusion_lat": 0.0, "name": "c4e9f70b41a129c8b1983ae162b664b0", "bike_id": "c4e9f70b41a129c8b1983ae162b664b0", "is_disabled": 0, "type": "electric_scooter", "lat": 38.93138366666667, "lon": -77.02604833333334, "is_reserved": 0, "fusion_lon": 0.0}, {"rental_uris": {"ios": "https://dc.lft.to/lastmile_qr_scan", "android": "https://dc.lft.to/lastmile_qr_scan"}, "fusion_lat": 0.0, "name": "25f70d0e1fe39f1f68ba7f4b66a8e4df", "bike_id": "25f70d0e1fe39f1f68ba7f4b66a8e4df", "is_disabled": 0, "type": "electric_scooter", "lat": 38.90265933333333, "lon": -77.04604, "is_reserved": 0, "fusion_lon": 0.0}, {"rental_uris": {"ios": "https://dc.lft.to/lastmile_qr_scan", "android": "https://dc.lft.to/lastmile_qr_scan"}, "fusion_lat": 0.0, "name": "eea4f10ab6ab28598f9e2362a2f3e883", "bike_id": "eea4f10ab6ab28598f9e2362a2f3e883", "is_disabled": 0, "type": "electric_scooter", "lat": 38.92678733333333, "lon": -77.03034483333333, "is_reserved": 0, "fusion_lon": 0.0}, {"rental_uris": {"ios": "https://dc.lft.to/lastmile_qr_scan", "android": "https://dc.lft.to/lastmile_qr_scan"}, "fusion_lat": 0.0, "name": "f46210acfb16da878191cdff3d6e7cad", "bike_id": "f46210acfb16da878191cdff3d6e7cad", "is_disabled": 0, "type": "electric_scooter", "lat": 38.84292883333333, "lon": -76.99948583333334, "is_reserved": 0, "fusion_lon": 0.0}, {"rental_uris": {"ios": "https://dc.lft.to/lastmile_qr_scan", "android": "https://dc.lft.to/lastmile_qr_scan"}, "fusion_lat": 0.0, "name": "e3726f859a298c683db001997622a67f", "bike_id": "e3726f859a298c683db001997622a67f", "is_disabled": 0, "type": "electric_scooter", "lat": 38.89500366666667, "lon": -76.9487585, "is_reserved": 0, "fusion_lon": 0.0}, {"rental_uris": {"ios": "https://dc.lft.to/lastmile_qr_scan", "android": "https://dc.lft.to/lastmile_qr_scan"}, "fusion_lat": 0.0, "name": "c59d4ba5c1a1714e528de1fb7df70f47", "bike_id": "c59d4ba5c1a1714e528de1fb7df70f47", "is_disabled": 0, "type": "electric_bike", "lat": 38.9012505, "lon": -77.03693883333334, "is_reserved": 0, "fusion_lon": 0.0}, {"rental_uris": {"ios": "https://dc.lft.to/lastmile_qr_scan", "android": "https://dc.lft.to/lastmile_qr_scan"}, "fusion_lat": 0.0, "name": "116edf176c68cc1bad1ebcdd0fdd7ea1", "bike_id": "116edf176c68cc1bad1ebcdd0fdd7ea1", "is_disabled": 0, "type": "electric_scooter", "lat": 38.91424933333333, "lon": -77.0321115, "is_reserved": 0, "fusion_lon": 0.0}, {"rental_uris": {"ios": "https://dc.lft.to/lastmile_qr_scan", "android": "https://dc.lft.to/lastmile_qr_scan"}, "fusion_lat": 0.0, "name": "d99f0150b27e7a9d45119c21b489fdb4", "bike_id": "d99f0150b27e7a9d45119c21b489fdb4", "is_disabled": 0, "type": "electric_scooter", "lat": 38.9069755, "lon": -76.98728183333333, "is_reserved": 0, "fusion_lon": 0.0}, {"rental_uris": {"ios": "https://dc.lft.to/lastmile_qr_scan", "android": "https://dc.lft.to/lastmile_qr_scan"}, "fusion_lat": 0.0, "name": "e6cb9e99e6757df2571d781a09e5a3de", "bike_id": "e6cb9e99e6757df2571d781a09e5a3de", "is_disabled": 0, "type": "electric_scooter", "lat": 38.86658033333333, "lon": -76.9888475, "is_reserved": 0, "fusion_lon": 0.0}, {"rental_uris": {"ios": "https://dc.lft.to/lastmile_qr_scan", "android": "https://dc.lft.to/lastmile_qr_scan"}, "fusion_lat": 0.0, "name": "50c7219865366ea231011e3706c52ce4", "bike_id": "50c7219865366ea231011e3706c52ce4", "is_disabled": 0, "type": "electric_scooter", "lat": 38.900876833333335, "lon": -77.049104, "is_reserved": 0, "fusion_lon": 0.0}, {"rental_uris": {"ios": "https://dc.lft.to/lastmile_qr_scan", "android": "https://dc.lft.to/lastmile_qr_scan"}, "fusion_lat": 0.0, "name": "a1cb69da4ed92b2983f1b9fea63d1f10", "bike_id": "a1cb69da4ed92b2983f1b9fea63d1f10", "is_disabled": 0, "type": "electric_scooter", "lat": 38.903637, "lon": -77.034119, "is_reserved": 0, "fusion_lon": 0.0}, {"rental_uris": {"ios": "https://dc.lft.to/lastmile_qr_scan", "android": "https://dc.lft.to/lastmile_qr_scan"}, "fusion_lat": 0.0, "name": "0191bf1210eb11982af748ab5e9e0c60", "bike_id": "0191bf1210eb11982af748ab5e9e0c60", "is_disabled": 0, "type": "electric_scooter", "lat": 38.898892000000004, "lon": -76.99903783333333, "is_reserved": 0, "fusion_lon": 0.0}, {"rental_uris": {"ios": "https://dc.lft.to/lastmile_qr_scan", "android": "https://dc.lft.to/lastmile_qr_scan"}, "fusion_lat": 0.0, "name": "989d1d48e400252ff3337d273102ca6d", "bike_id": "989d1d48e400252ff3337d273102ca6d", "is_disabled": 0, "type": "electric_bike", "lat": 38.800679333333335, "lon": -77.07118866666667, "is_reserved": 0, "fusion_lon": 0.0}, {"rental_uris": {"ios": "https://dc.lft.to/lastmile_qr_scan", "android": "https://dc.lft.to/lastmile_qr_scan"}, "fusion_lat": 0.0, "name": "481a46c2090d3b239d587d2b06e9502e", "bike_id": "481a46c2090d3b239d587d2b06e9502e", "is_disabled": 0, "type": "electric_bike", "lat": 38.95789666666667, "lon": -77.02751066666667, "is_reserved": 0, "fusion_lon": 0.0}, {"rental_uris": {"ios": "https://dc.lft.to/lastmile_qr_scan", "android": "https://dc.lft.to/lastmile_qr_scan"}, "fusion_lat": 0.0, "name": "3f729d3ebab2562a742e7a1b566d0879", "bike_id": "3f729d3ebab2562a742e7a1b566d0879", "is_disabled": 0, "type": "electric_scooter", "lat": 38.90001616666667, "lon": -76.996203, "is_reserved": 0, "fusion_lon": 0.0}, {"rental_uris": {"ios": "https://dc.lft.to/lastmile_qr_scan", "android": "https://dc.lft.to/lastmile_qr_scan"}, "fusion_lat": 0.0, "name": "ed92bad537ae28e9643f856d10297ac9", "bike_id": "ed92bad537ae28e9643f856d10297ac9", "is_disabled": 0, "type": "electric_scooter", "lat": 38.91858383333334, "lon": -77.032064, "is_reserved": 0, "fusion_lon": 0.0}, {"rental_uris": {"ios": "https://dc.lft.to/lastmile_qr_scan", "android": "https://dc.lft.to/lastmile_qr_scan"}, "fusion_lat": 0.0, "name": "47fb5f5ae7227da73943aa082f80e12a", "bike_id": "47fb5f5ae7227da73943aa082f80e12a", "is_disabled": 0, "type": "electric_scooter", "lat": 38.9204815, "lon": -77.03471766666667, "is_reserved": 0, "fusion_lon": 0.0}, {"rental_uris": {"ios": "https://dc.lft.to/lastmile_qr_scan", "android": "https://dc.lft.to/lastmile_qr_scan"}, "fusion_lat": 0.0, "name": "3170c1db6f016276f945e18438778025", "bike_id": "3170c1db6f016276f945e18438778025", "is_disabled": 0, "type": "electric_scooter", "lat": 38.89498716666667, "lon": -76.9487635, "is_reserved": 0, "fusion_lon": 0.0}, {"rental_uris": {"ios": "https://dc.lft.to/lastmile_qr_scan", "android": "https://dc.lft.to/lastmile_qr_scan"}, "fusion_lat": 0.0, "name": "9dda5fd7ea7263822874cb3f5193ef26", "bike_id": "9dda5fd7ea7263822874cb3f5193ef26", "is_disabled": 0, "type": "electric_bike", "lat": 38.83864483333333, "lon": -76.9969345, "is_reserved": 0, "fusion_lon": 0.0}, {"rental_uris": {"ios": "https://dc.lft.to/lastmile_qr_scan", "android": "https://dc.lft.to/lastmile_qr_scan"}, "fusion_lat": 0.0, "name": "11fae66d8e61aaa9912a085cee406f31", "bike_id": "11fae66d8e61aaa9912a085cee406f31", "is_disabled": 0, "type": "electric_scooter", "lat": 38.934557166666664, "lon": -77.07283333333334, "is_reserved": 0, "fusion_lon": 0.0}, {"rental_uris": {"ios": "https://dc.lft.to/lastmile_qr_scan", "android": "https://dc.lft.to/lastmile_qr_scan"}, "fusion_lat": 0.0, "name": "5b58d3952b9ec48ce205dfe20fe57657", "bike_id": "5b58d3952b9ec48ce205dfe20fe57657", "is_disabled": 0, "type": "electric_scooter", "lat": 38.856770166666664, "lon": -76.98167366666667, "is_reserved": 0, "fusion_lon": 0.0}, {"rental_uris": {"ios": "https://dc.lft.to/lastmile_qr_scan", "android": "https://dc.lft.to/lastmile_qr_scan"}, "fusion_lat": 0.0, "name": "98982beb711d4fc915df4d40d6762ea4", "bike_id": "98982beb711d4fc915df4d40d6762ea4", "is_disabled": 0, "type": "electric_scooter", "lat": 38.929382833333335, "lon": -77.0375675, "is_reserved": 0, "fusion_lon": 0.0}, {"rental_uris": {"ios": "https://dc.lft.to/lastmile_qr_scan", "android": "https://dc.lft.to/lastmile_qr_scan"}, "fusion_lat": 0.0, "name": "3d733cb6deb0dc576aa3d42cece348d6", "bike_id": "3d733cb6deb0dc576aa3d42cece348d6", "is_disabled": 0, "type": "electric_scooter", "lat": 38.892220333333334, "lon": -77.02225316666667, "is_reserved": 0, "fusion_lon": 0.0}, {"rental_uris": {"ios": "https://dc.lft.to/lastmile_qr_scan", "android": "https://dc.lft.to/lastmile_qr_scan"}, "fusion_lat": 0.0, "name": "a7d26c0c56d5838a9803cdb246e46f5e", "bike_id": "a7d26c0c56d5838a9803cdb246e46f5e", "is_disabled": 0, "type": "electric_scooter", "lat": 38.920429666666664, "lon": -77.0420355, "is_reserved": 0, "fusion_lon": 0.0}, {"rental_uris": {"ios": "https://dc.lft.to/lastmile_qr_scan", "android": "https://dc.lft.to/lastmile_qr_scan"}, "fusion_lat": 0.0, "name": "cfbba806f2e0c6a1b182c942ac698e1d", "bike_id": "cfbba806f2e0c6a1b182c942ac698e1d", "is_disabled": 0, "type": "electric_scooter", "lat": 38.918186, "lon": -77.02708333333334, "is_reserved": 0, "fusion_lon": 0.0}, {"rental_uris": {"ios": "https://dc.lft.to/lastmile_qr_scan", "android": "https://dc.lft.to/lastmile_qr_scan"}, "fusion_lat": 0.0, "name": "58cfc27652433fb3ea8a3acb298b4618", "bike_id": "58cfc27652433fb3ea8a3acb298b4618", "is_disabled": 0, "type": "electric_scooter", "lat": 38.915691833333334, "lon": -77.011954, "is_reserved": 0, "fusion_lon": 0.0}, {"rental_uris": {"ios": "https://dc.lft.to/lastmile_qr_scan", "android": "https://dc.lft.to/lastmile_qr_scan"}, "fusion_lat": 0.0, "name": "9169e93e8627b465c4d305cab19b8001", "bike_id": "9169e93e8627b465c4d305cab19b8001", "is_disabled": 0, "type": "electric_scooter", "lat": 38.90684816666667, "lon": -77.02718883333333, "is_reserved": 0, "fusion_lon": 0.0}, {"rental_uris": {"ios": "https://dc.lft.to/lastmile_qr_scan", "android": "https://dc.lft.to/lastmile_qr_scan"}, "fusion_lat": 0.0, "name": "677e8b84c3b8d1aef7a161aa52c275e6", "bike_id": "677e8b84c3b8d1aef7a161aa52c275e6", "is_disabled": 0, "type": "electric_scooter", "lat": 38.91746883333333, "lon": -77.024048, "is_reserved": 0, "fusion_lon": 0.0}, {"rental_uris": {"ios": "https://dc.lft.to/lastmile_qr_scan", "android": "https://dc.lft.to/lastmile_qr_scan"}, "fusion_lat": 0.0, "name": "7e730658642561122a4da969010bf3bc", "bike_id": "7e730658642561122a4da969010bf3bc", "is_disabled": 0, "type": "electric_scooter", "lat": 38.9014495, "lon": -77.04302883333334, "is_reserved": 0, "fusion_lon": 0.0}, {"rental_uris": {"ios": "https://dc.lft.to/lastmile_qr_scan", "android": "https://dc.lft.to/lastmile_qr_scan"}, "fusion_lat": 0.0, "name": "567b281e46279e52c2fb9c92e90a5fcb", "bike_id": "567b281e46279e52c2fb9c92e90a5fcb", "is_disabled": 0, "type": "electric_scooter", "lat": 38.919933666666665, "lon": -77.03290833333334, "is_reserved": 0, "fusion_lon": 0.0}, {"rental_uris": {"ios": "https://dc.lft.to/lastmile_qr_scan", "android": "https://dc.lft.to/lastmile_qr_scan"}, "fusion_lat": 0.0, "name": "3564ddb261da1a5efcd7a821c5fb77ee", "bike_id": "3564ddb261da1a5efcd7a821c5fb77ee", "is_disabled": 0, "type": "electric_scooter", "lat": 38.9213755, "lon": -77.00844533333333, "is_reserved": 0, "fusion_lon": 0.0}, {"rental_uris": {"ios": "https://dc.lft.to/lastmile_qr_scan", "android": "https://dc.lft.to/lastmile_qr_scan"}, "fusion_lat": 0.0, "name": "1e01dea80bead1d933c4ef4429f958a3", "bike_id": "1e01dea80bead1d933c4ef4429f958a3", "is_disabled": 0, "type": "electric_scooter", "lat": 38.89627616666667, "lon": -77.050228, "is_reserved": 0, "fusion_lon": 0.0}, {"rental_uris": {"ios": "https://dc.lft.to/lastmile_qr_scan", "android": "https://dc.lft.to/lastmile_qr_scan"}, "fusion_lat": 0.0, "name": "124702013a2ece33a62407186a8ca5a2", "bike_id": "124702013a2ece33a62407186a8ca5a2", "is_disabled": 0, "type": "electric_scooter", "lat": 38.921343, "lon": -77.01911983333333, "is_reserved": 0, "fusion_lon": 0.0}, {"rental_uris": {"ios": "https://dc.lft.to/lastmile_qr_scan", "android": "https://dc.lft.to/lastmile_qr_scan"}, "fusion_lat": 0.0, "name": "a96f663efe6558912cf6a4ceaf3de197", "bike_id": "a96f663efe6558912cf6a4ceaf3de197", "is_disabled": 0, "type": "electric_scooter", "lat": 38.90969033333333, "lon": -77.03211566666667, "is_reserved": 0, "fusion_lon": 0.0}, {"rental_uris": {"ios": "https://dc.lft.to/lastmile_qr_scan", "android": "https://dc.lft.to/lastmile_qr_scan"}, "fusion_lat": 0.0, "name": "28381c0333b5d5bcd7aa0bfa523baef0", "bike_id": "28381c0333b5d5bcd7aa0bfa523baef0", "is_disabled": 0, "type": "electric_scooter", "lat": 38.90108216666667, "lon": -77.026423, "is_reserved": 0, "fusion_lon": 0.0}, {"rental_uris": {"ios": "https://dc.lft.to/lastmile_qr_scan", "android": "https://dc.lft.to/lastmile_qr_scan"}, "fusion_lat": 0.0, "name": "0afae12edd4c1cff4a8eaa24540b60e5", "bike_id": "0afae12edd4c1cff4a8eaa24540b60e5", "is_disabled": 0, "type": "electric_scooter", "lat": 38.91807883333333, "lon": -77.03134216666666, "is_reserved": 0, "fusion_lon": 0.0}, {"rental_uris": {"ios": "https://dc.lft.to/lastmile_qr_scan", "android": "https://dc.lft.to/lastmile_qr_scan"}, "fusion_lat": 0.0, "name": "9fbe485786df26c49647ab8421eb6c60", "bike_id": "9fbe485786df26c49647ab8421eb6c60", "is_disabled": 0, "type": "electric_scooter", "lat": 38.909487666666664, "lon": -77.0592955, "is_reserved": 0, "fusion_lon": 0.0}, {"rental_uris": {"ios": "https://dc.lft.to/lastmile_qr_scan", "android": "https://dc.lft.to/lastmile_qr_scan"}, "fusion_lat": 0.0, "name": "f59d008802f4df3600d53dc8c0fdbb07", "bike_id": "f59d008802f4df3600d53dc8c0fdbb07", "is_disabled": 0, "type": "electric_scooter", "lat": 38.93201583333333, "lon": -77.03858666666666, "is_reserved": 0, "fusion_lon": 0.0}, {"rental_uris": {"ios": "https://dc.lft.to/lastmile_qr_scan", "android": "https://dc.lft.to/lastmile_qr_scan"}, "fusion_lat": 0.0, "name": "3e9e185234e85a5a9bcf36dfbb996395", "bike_id": "3e9e185234e85a5a9bcf36dfbb996395", "is_disabled": 0, "type": "electric_bike", "lat": 38.999983666666665, "lon": -76.9249845, "is_reserved": 0, "fusion_lon": 0.0}, {"rental_uris": {"ios": "https://dc.lft.to/lastmile_qr_scan", "android": "https://dc.lft.to/lastmile_qr_scan"}, "fusion_lat": 0.0, "name": "c7ddf395cea0912aa4bff03217790e0b", "bike_id": "c7ddf395cea0912aa4bff03217790e0b", "is_disabled": 0, "type": "electric_bike", "lat": 38.848062166666665, "lon": -77.07514083333334, "is_reserved": 0, "fusion_lon": 0.0}, {"rental_uris": {"ios": "https://dc.lft.to/lastmile_qr_scan", "android": "https://dc.lft.to/lastmile_qr_scan"}, "fusion_lat": 0.0, "name": "235d0bdef87c21f3b4ab55fe36616432", "bike_id": "235d0bdef87c21f3b4ab55fe36616432", "is_disabled": 0, "type": "electric_scooter", "lat": 38.92055216666667, "lon": -77.041876, "is_reserved": 0, "fusion_lon": 0.0}, {"rental_uris": {"ios": "https://dc.lft.to/lastmile_qr_scan", "android": "https://dc.lft.to/lastmile_qr_scan"}, "fusion_lat": 0.0, "name": "ba6771e7649d42ac8a42e400abaf705c", "bike_id": "ba6771e7649d42ac8a42e400abaf705c", "is_disabled": 0, "type": "electric_scooter", "lat": 38.887192166666665, "lon": -77.01779366666666, "is_reserved": 0, "fusion_lon": 0.0}, {"rental_uris": {"ios": "https://dc.lft.to/lastmile_qr_scan", "android": "https://dc.lft.to/lastmile_qr_scan"}, "fusion_lat": 0.0, "name": "c81b86d51da91d41cb3f340236cb5e31", "bike_id": "c81b86d51da91d41cb3f340236cb5e31", "is_disabled": 0, "type": "electric_scooter", "lat": 38.92456466666667, "lon": -77.03386816666666, "is_reserved": 0, "fusion_lon": 0.0}, {"rental_uris": {"ios": "https://dc.lft.to/lastmile_qr_scan", "android": "https://dc.lft.to/lastmile_qr_scan"}, "fusion_lat": 0.0, "name": "78576d000460127ba0bf665663f0c8d3", "bike_id": "78576d000460127ba0bf665663f0c8d3", "is_disabled": 0, "type": "electric_scooter", "lat": 38.90852616666667, "lon": -76.998012, "is_reserved": 0, "fusion_lon": 0.0}, {"rental_uris": {"ios": "https://dc.lft.to/lastmile_qr_scan", "android": "https://dc.lft.to/lastmile_qr_scan"}, "fusion_lat": 0.0, "name": "ece26a302036a93bd140e9dc3f50c690", "bike_id": "ece26a302036a93bd140e9dc3f50c690", "is_disabled": 0, "type": "electric_bike", "lat": 38.813323833333335, "lon": -77.05088933333333, "is_reserved": 0, "fusion_lon": 0.0}, {"rental_uris": {"ios": "https://dc.lft.to/lastmile_qr_scan", "android": "https://dc.lft.to/lastmile_qr_scan"}, "fusion_lat": 0.0, "name": "fc552c7cf44222ca87c53cdca75a1257", "bike_id": "fc552c7cf44222ca87c53cdca75a1257", "is_disabled": 0, "type": "electric_scooter", "lat": 38.918179, "lon": -77.03212, "is_reserved": 0, "fusion_lon": 0.0}, {"rental_uris": {"ios": "https://dc.lft.to/lastmile_qr_scan", "android": "https://dc.lft.to/lastmile_qr_scan"}, "fusion_lat": 0.0, "name": "9c4605c395ac3391916d3a75341aa929", "bike_id": "9c4605c395ac3391916d3a75341aa929", "is_disabled": 0, "type": "electric_scooter", "lat": 38.89030983333333, "lon": -76.95129116666666, "is_reserved": 0, "fusion_lon": 0.0}, {"rental_uris": {"ios": "https://dc.lft.to/lastmile_qr_scan", "android": "https://dc.lft.to/lastmile_qr_scan"}, "fusion_lat": 0.0, "name": "78763063d5f9a18277362a069d4ef61d", "bike_id": "78763063d5f9a18277362a069d4ef61d", "is_disabled": 0, "type": "electric_scooter", "lat": 38.915944333333336, "lon": -77.02968283333334, "is_reserved": 0, "fusion_lon": 0.0}, {"rental_uris": {"ios": "https://dc.lft.to/lastmile_qr_scan", "android": "https://dc.lft.to/lastmile_qr_scan"}, "fusion_lat": 0.0, "name": "ce73ba08ed266380d7f0284c3ad9e1fe", "bike_id": "ce73ba08ed266380d7f0284c3ad9e1fe", "is_disabled": 0, "type": "electric_scooter", "lat": 38.90606983333333, "lon": -77.00606, "is_reserved": 0, "fusion_lon": 0.0}, {"rental_uris": {"ios": "https://dc.lft.to/lastmile_qr_scan", "android": "https://dc.lft.to/lastmile_qr_scan"}, "fusion_lat": 0.0, "name": "57be53c40dc9dc5781c294a26c32b2be", "bike_id": "57be53c40dc9dc5781c294a26c32b2be", "is_disabled": 0, "type": "electric_scooter", "lat": 38.91783483333333, "lon": -77.03643616666666, "is_reserved": 0, "fusion_lon": 0.0}, {"rental_uris": {"ios": "https://dc.lft.to/lastmile_qr_scan", "android": "https://dc.lft.to/lastmile_qr_scan"}, "fusion_lat": 0.0, "name": "7e11e4197f8734f5fb18afa2f4d96728", "bike_id": "7e11e4197f8734f5fb18afa2f4d96728", "is_disabled": 0, "type": "electric_scooter", "lat": 38.9025715, "lon": -77.034806, "is_reserved": 0, "fusion_lon": 0.0}, {"rental_uris": {"ios": "https://dc.lft.to/lastmile_qr_scan", "android": "https://dc.lft.to/lastmile_qr_scan"}, "fusion_lat": 0.0, "name": "dc58d01a6cdf4f8c0db7470a4ac97654", "bike_id": "dc58d01a6cdf4f8c0db7470a4ac97654", "is_disabled": 0, "type": "electric_scooter", "lat": 38.903676, "lon": -77.04519, "is_reserved": 0, "fusion_lon": 0.0}, {"rental_uris": {"ios": "https://dc.lft.to/lastmile_qr_scan", "android": "https://dc.lft.to/lastmile_qr_scan"}, "fusion_lat": 0.0, "name": "f85f3420b86a80fbf865dad5334dd4e6", "bike_id": "f85f3420b86a80fbf865dad5334dd4e6", "is_disabled": 0, "type": "electric_scooter", "lat": 38.921047333333334, "lon": -77.0438505, "is_reserved": 0, "fusion_lon": 0.0}, {"rental_uris": {"ios": "https://dc.lft.to/lastmile_qr_scan", "android": "https://dc.lft.to/lastmile_qr_scan"}, "fusion_lat": 0.0, "name": "20d8944547f4ca6c495c5866ecfde724", "bike_id": "20d8944547f4ca6c495c5866ecfde724", "is_disabled": 0, "type": "electric_scooter", "lat": 38.88738133333333, "lon": -77.01537916666666, "is_reserved": 0, "fusion_lon": 0.0}, {"rental_uris": {"ios": "https://dc.lft.to/lastmile_qr_scan", "android": "https://dc.lft.to/lastmile_qr_scan"}, "fusion_lat": 0.0, "name": "db6ec00116c77a498972cffe7fd44c6d", "bike_id": "db6ec00116c77a498972cffe7fd44c6d", "is_disabled": 0, "type": "electric_scooter", "lat": 38.897915166666664, "lon": -77.0316915, "is_reserved": 0, "fusion_lon": 0.0}, {"rental_uris": {"ios": "https://dc.lft.to/lastmile_qr_scan", "android": "https://dc.lft.to/lastmile_qr_scan"}, "fusion_lat": 0.0, "name": "9f8f820dfcfc40808d171d536cd86cea", "bike_id": "9f8f820dfcfc40808d171d536cd86cea", "is_disabled": 0, "type": "electric_scooter", "lat": 38.901434, "lon": -77.0434605, "is_reserved": 0, "fusion_lon": 0.0}, {"rental_uris": {"ios": "https://dc.lft.to/lastmile_qr_scan", "android": "https://dc.lft.to/lastmile_qr_scan"}, "fusion_lat": 0.0, "name": "35d0bd1206816b40e6527a6d9dc0aa17", "bike_id": "35d0bd1206816b40e6527a6d9dc0aa17", "is_disabled": 0, "type": "electric_scooter", "lat": 38.884118666666666, "lon": -77.015346, "is_reserved": 0, "fusion_lon": 0.0}, {"rental_uris": {"ios": "https://dc.lft.to/lastmile_qr_scan", "android": "https://dc.lft.to/lastmile_qr_scan"}, "fusion_lat": 0.0, "name": "178d4f2e0d8f857dcb16da8fb082fcdb", "bike_id": "178d4f2e0d8f857dcb16da8fb082fcdb", "is_disabled": 0, "type": "electric_scooter", "lat": 38.901544, "lon": -77.04347616666666, "is_reserved": 0, "fusion_lon": 0.0}, {"rental_uris": {"ios": "https://dc.lft.to/lastmile_qr_scan", "android": "https://dc.lft.to/lastmile_qr_scan"}, "fusion_lat": 0.0, "name": "fa7f39fbc3976de7f5107e0196fab182", "bike_id": "fa7f39fbc3976de7f5107e0196fab182", "is_disabled": 0, "type": "electric_bike", "lat": 38.869968, "lon": -77.065696, "is_reserved": 0, "fusion_lon": 0.0}, {"rental_uris": {"ios": "https://dc.lft.to/lastmile_qr_scan", "android": "https://dc.lft.to/lastmile_qr_scan"}, "fusion_lat": 0.0, "name": "d14831f5ddb9497237a182bc6c08d72c", "bike_id": "d14831f5ddb9497237a182bc6c08d72c", "is_disabled": 0, "type": "electric_scooter", "lat": 38.92590916666666, "lon": -77.03986183333333, "is_reserved": 0, "fusion_lon": 0.0}, {"rental_uris": {"ios": "https://dc.lft.to/lastmile_qr_scan", "android": "https://dc.lft.to/lastmile_qr_scan"}, "fusion_lat": 0.0, "name": "0f8b2013c755313f3a22a50516eaf880", "bike_id": "0f8b2013c755313f3a22a50516eaf880", "is_disabled": 0, "type": "electric_scooter", "lat": 38.88744283333333, "lon": -77.00339783333334, "is_reserved": 0, "fusion_lon": 0.0}, {"rental_uris": {"ios": "https://dc.lft.to/lastmile_qr_scan", "android": "https://dc.lft.to/lastmile_qr_scan"}, "fusion_lat": 0.0, "name": "57b74d12056d0f31320b02f38c5d6e5c", "bike_id": "57b74d12056d0f31320b02f38c5d6e5c", "is_disabled": 0, "type": "electric_scooter", "lat": 38.951855333333334, "lon": -77.02720983333333, "is_reserved": 0, "fusion_lon": 0.0}, {"rental_uris": {"ios": "https://dc.lft.to/lastmile_qr_scan", "android": "https://dc.lft.to/lastmile_qr_scan"}, "fusion_lat": 0.0, "name": "8929f9581e4e798b33bac246c4cc5a3d", "bike_id": "8929f9581e4e798b33bac246c4cc5a3d", "is_disabled": 0, "type": "electric_scooter", "lat": 38.911077166666665, "lon": -77.0317165, "is_reserved": 0, "fusion_lon": 0.0}, {"rental_uris": {"ios": "https://dc.lft.to/lastmile_qr_scan", "android": "https://dc.lft.to/lastmile_qr_scan"}, "fusion_lat": 0.0, "name": "f4b7eba5f23a032eb641b6f3999cfc0d", "bike_id": "f4b7eba5f23a032eb641b6f3999cfc0d", "is_disabled": 0, "type": "electric_scooter", "lat": 38.918122333333336, "lon": -77.0417585, "is_reserved": 0, "fusion_lon": 0.0}, {"rental_uris": {"ios": "https://dc.lft.to/lastmile_qr_scan", "android": "https://dc.lft.to/lastmile_qr_scan"}, "fusion_lat": 0.0, "name": "7b38f976039355fb201697f496dab3de", "bike_id": "7b38f976039355fb201697f496dab3de", "is_disabled": 0, "type": "electric_scooter", "lat": 38.89896866666667, "lon": -77.04032366666667, "is_reserved": 0, "fusion_lon": 0.0}, {"rental_uris": {"ios": "https://dc.lft.to/lastmile_qr_scan", "android": "https://dc.lft.to/lastmile_qr_scan"}, "fusion_lat": 0.0, "name": "d88e1e06be40f748367a5cc4a704bf90", "bike_id": "d88e1e06be40f748367a5cc4a704bf90", "is_disabled": 0, "type": "electric_scooter", "lat": 38.9156585, "lon": -77.02276983333333, "is_reserved": 0, "fusion_lon": 0.0}, {"rental_uris": {"ios": "https://dc.lft.to/lastmile_qr_scan", "android": "https://dc.lft.to/lastmile_qr_scan"}, "fusion_lat": 0.0, "name": "4aeca3443758c1d2993a972b7358eecc", "bike_id": "4aeca3443758c1d2993a972b7358eecc", "is_disabled": 0, "type": "electric_scooter", "lat": 38.903811833333336, "lon": -77.03218316666667, "is_reserved": 0, "fusion_lon": 0.0}, {"rental_uris": {"ios": "https://dc.lft.to/lastmile_qr_scan", "android": "https://dc.lft.to/lastmile_qr_scan"}, "fusion_lat": 0.0, "name": "c7fe4b3752136c54fa707cd0bfa88d0f", "bike_id": "c7fe4b3752136c54fa707cd0bfa88d0f", "is_disabled": 0, "type": "electric_scooter", "lat": 38.902870666666665, "lon": -77.036748, "is_reserved": 0, "fusion_lon": 0.0}, {"rental_uris": {"ios": "https://dc.lft.to/lastmile_qr_scan", "android": "https://dc.lft.to/lastmile_qr_scan"}, "fusion_lat": 0.0, "name": "15c28c87f6e432579bbf562f8b767e30", "bike_id": "15c28c87f6e432579bbf562f8b767e30", "is_disabled": 0, "type": "electric_scooter", "lat": 38.90669333333334, "lon": -77.02716516666666, "is_reserved": 0, "fusion_lon": 0.0}, {"rental_uris": {"ios": "https://dc.lft.to/lastmile_qr_scan", "android": "https://dc.lft.to/lastmile_qr_scan"}, "fusion_lat": 0.0, "name": "88538ed61049d8889311aaa71b794c9d", "bike_id": "88538ed61049d8889311aaa71b794c9d", "is_disabled": 0, "type": "electric_scooter", "lat": 38.91725, "lon": -77.036601, "is_reserved": 0, "fusion_lon": 0.0}, {"rental_uris": {"ios": "https://dc.lft.to/lastmile_qr_scan", "android": "https://dc.lft.to/lastmile_qr_scan"}, "fusion_lat": 0.0, "name": "61a9af67e7b6d0bb6783b44fedaf61d4", "bike_id": "61a9af67e7b6d0bb6783b44fedaf61d4", "is_disabled": 0, "type": "electric_scooter", "lat": 38.924942333333334, "lon": -77.07325466666667, "is_reserved": 0, "fusion_lon": 0.0}, {"rental_uris": {"ios": "https://dc.lft.to/lastmile_qr_scan", "android": "https://dc.lft.to/lastmile_qr_scan"}, "fusion_lat": 0.0, "name": "ccedb3bfa944bd7081ed6d1b914cd457", "bike_id": "ccedb3bfa944bd7081ed6d1b914cd457", "is_disabled": 0, "type": "electric_scooter", "lat": 38.91327733333333, "lon": -77.031844, "is_reserved": 0, "fusion_lon": 0.0}, {"rental_uris": {"ios": "https://dc.lft.to/lastmile_qr_scan", "android": "https://dc.lft.to/lastmile_qr_scan"}, "fusion_lat": 0.0, "name": "20f500f4fbd80939896edf7b7722dd45", "bike_id": "20f500f4fbd80939896edf7b7722dd45", "is_disabled": 0, "type": "electric_scooter", "lat": 38.94103583333333, "lon": -77.02104583333333, "is_reserved": 0, "fusion_lon": 0.0}, {"rental_uris": {"ios": "https://dc.lft.to/lastmile_qr_scan", "android": "https://dc.lft.to/lastmile_qr_scan"}, "fusion_lat": 0.0, "name": "3476d8acefaafffac7fbfe7f5f6f3127", "bike_id": "3476d8acefaafffac7fbfe7f5f6f3127", "is_disabled": 0, "type": "electric_bike", "lat": 38.949053, "lon": -76.97239666666667, "is_reserved": 0, "fusion_lon": 0.0}, {"rental_uris": {"ios": "https://dc.lft.to/lastmile_qr_scan", "android": "https://dc.lft.to/lastmile_qr_scan"}, "fusion_lat": 0.0, "name": "f741ff624b857f632c3ee97266f1109a", "bike_id": "f741ff624b857f632c3ee97266f1109a", "is_disabled": 0, "type": "electric_scooter", "lat": 38.91333633333333, "lon": -77.03201416666667, "is_reserved": 0, "fusion_lon": 0.0}, {"rental_uris": {"ios": "https://dc.lft.to/lastmile_qr_scan", "android": "https://dc.lft.to/lastmile_qr_scan"}, "fusion_lat": 0.0, "name": "2b1cda4d64a5eb86b23e3f97a646189d", "bike_id": "2b1cda4d64a5eb86b23e3f97a646189d", "is_disabled": 0, "type": "electric_scooter", "lat": 38.93196666666667, "lon": -77.02834016666667, "is_reserved": 0, "fusion_lon": 0.0}, {"rental_uris": {"ios": "https://dc.lft.to/lastmile_qr_scan", "android": "https://dc.lft.to/lastmile_qr_scan"}, "fusion_lat": 0.0, "name": "1af4dc554f03e4183ab41c9239c559d0", "bike_id": "1af4dc554f03e4183ab41c9239c559d0", "is_disabled": 0, "type": "electric_scooter", "lat": 38.883329833333335, "lon": -77.00934783333334, "is_reserved": 0, "fusion_lon": 0.0}, {"rental_uris": {"ios": "https://dc.lft.to/lastmile_qr_scan", "android": "https://dc.lft.to/lastmile_qr_scan"}, "fusion_lat": 0.0, "name": "59bd1b93153b727740fb9bbe018355d1", "bike_id": "59bd1b93153b727740fb9bbe018355d1", "is_disabled": 0, "type": "electric_scooter", "lat": 38.91792433333333, "lon": -77.03192633333333, "is_reserved": 0, "fusion_lon": 0.0}, {"rental_uris": {"ios": "https://dc.lft.to/lastmile_qr_scan", "android": "https://dc.lft.to/lastmile_qr_scan"}, "fusion_lat": 0.0, "name": "90822b73c494c2cac47fe572ac2aa0cf", "bike_id": "90822b73c494c2cac47fe572ac2aa0cf", "is_disabled": 0, "type": "electric_scooter", "lat": 38.89910883333334, "lon": -77.03293633333334, "is_reserved": 0, "fusion_lon": 0.0}, {"rental_uris": {"ios": "https://dc.lft.to/lastmile_qr_scan", "android": "https://dc.lft.to/lastmile_qr_scan"}, "fusion_lat": 0.0, "name": "b76e4d6d1ab0f6cab0fd06d12402bf69", "bike_id": "b76e4d6d1ab0f6cab0fd06d12402bf69", "is_disabled": 0, "type": "electric_scooter", "lat": 38.92926383333333, "lon": -77.03476933333333, "is_reserved": 0, "fusion_lon": 0.0}, {"rental_uris": {"ios": "https://dc.lft.to/lastmile_qr_scan", "android": "https://dc.lft.to/lastmile_qr_scan"}, "fusion_lat": 0.0, "name": "55d300357c93f5f5e5449fdac5453bf6", "bike_id": "55d300357c93f5f5e5449fdac5453bf6", "is_disabled": 0, "type": "electric_scooter", "lat": 38.90686566666667, "lon": -77.0269425, "is_reserved": 0, "fusion_lon": 0.0}, {"rental_uris": {"ios": "https://dc.lft.to/lastmile_qr_scan", "android": "https://dc.lft.to/lastmile_qr_scan"}, "fusion_lat": 0.0, "name": "7af48e91a50c7c8a0fdb3adb297560d6", "bike_id": "7af48e91a50c7c8a0fdb3adb297560d6", "is_disabled": 0, "type": "electric_scooter", "lat": 38.891027333333334, "lon": -77.00045166666666, "is_reserved": 0, "fusion_lon": 0.0}, {"rental_uris": {"ios": "https://dc.lft.to/lastmile_qr_scan", "android": "https://dc.lft.to/lastmile_qr_scan"}, "fusion_lat": 0.0, "name": "f1d43962b40db498ae25eabf167cc3ec", "bike_id": "f1d43962b40db498ae25eabf167cc3ec", "is_disabled": 0, "type": "electric_bike", "lat": 38.79326566666667, "lon": -77.0401815, "is_reserved": 0, "fusion_lon": 0.0}, {"rental_uris": {"ios": "https://dc.lft.to/lastmile_qr_scan", "android": "https://dc.lft.to/lastmile_qr_scan"}, "fusion_lat": 0.0, "name": "e12b70e6c603e715da14ad09e621b864", "bike_id": "e12b70e6c603e715da14ad09e621b864", "is_disabled": 0, "type": "electric_scooter", "lat": 38.89223666666667, "lon": -77.02628133333333, "is_reserved": 0, "fusion_lon": 0.0}, {"rental_uris": {"ios": "https://dc.lft.to/lastmile_qr_scan", "android": "https://dc.lft.to/lastmile_qr_scan"}, "fusion_lat": 0.0, "name": "584eb6e5d90ea505068a6355157c5e8e", "bike_id": "584eb6e5d90ea505068a6355157c5e8e", "is_disabled": 0, "type": "electric_scooter", "lat": 38.91428666666667, "lon": -77.03180283333333, "is_reserved": 0, "fusion_lon": 0.0}, {"rental_uris": {"ios": "https://dc.lft.to/lastmile_qr_scan", "android": "https://dc.lft.to/lastmile_qr_scan"}, "fusion_lat": 0.0, "name": "4677bdac627c77efc2e3c2d5402b175a", "bike_id": "4677bdac627c77efc2e3c2d5402b175a", "is_disabled": 0, "type": "electric_bike", "lat": 38.8737315, "lon": -77.11804316666667, "is_reserved": 0, "fusion_lon": 0.0}, {"rental_uris": {"ios": "https://dc.lft.to/lastmile_qr_scan", "android": "https://dc.lft.to/lastmile_qr_scan"}, "fusion_lat": 0.0, "name": "feb57013524501b8b53572524bb27ddc", "bike_id": "feb57013524501b8b53572524bb27ddc", "is_disabled": 0, "type": "electric_scooter", "lat": 38.92202733333333, "lon": -77.04020266666667, "is_reserved": 0, "fusion_lon": 0.0}, {"rental_uris": {"ios": "https://dc.lft.to/lastmile_qr_scan", "android": "https://dc.lft.to/lastmile_qr_scan"}, "fusion_lat": 0.0, "name": "36fa7cf51d321194884f3dc40ca2429c", "bike_id": "36fa7cf51d321194884f3dc40ca2429c", "is_disabled": 0, "type": "electric_scooter", "lat": 38.90963633333333, "lon": -77.04486166666666, "is_reserved": 0, "fusion_lon": 0.0}, {"rental_uris": {"ios": "https://dc.lft.to/lastmile_qr_scan", "android": "https://dc.lft.to/lastmile_qr_scan"}, "fusion_lat": 0.0, "name": "6d9c4c58d2094bd6177ce21b810672c6", "bike_id": "6d9c4c58d2094bd6177ce21b810672c6", "is_disabled": 0, "type": "electric_scooter", "lat": 38.917235833333336, "lon": -77.03663066666667, "is_reserved": 0, "fusion_lon": 0.0}, {"rental_uris": {"ios": "https://dc.lft.to/lastmile_qr_scan", "android": "https://dc.lft.to/lastmile_qr_scan"}, "fusion_lat": 0.0, "name": "4d7b47f24e2fb55c7aaf85a15b289dd4", "bike_id": "4d7b47f24e2fb55c7aaf85a15b289dd4", "is_disabled": 0, "type": "electric_scooter", "lat": 38.93245916666667, "lon": -77.03855916666667, "is_reserved": 0, "fusion_lon": 0.0}, {"rental_uris": {"ios": "https://dc.lft.to/lastmile_qr_scan", "android": "https://dc.lft.to/lastmile_qr_scan"}, "fusion_lat": 0.0, "name": "907bc740b7ca387f9f1f454e4b5b3b19", "bike_id": "907bc740b7ca387f9f1f454e4b5b3b19", "is_disabled": 0, "type": "electric_scooter", "lat": 38.8814045, "lon": -77.013006, "is_reserved": 0, "fusion_lon": 0.0}, {"rental_uris": {"ios": "https://dc.lft.to/lastmile_qr_scan", "android": "https://dc.lft.to/lastmile_qr_scan"}, "fusion_lat": 0.0, "name": "499734a47f970e962380fcbb70adcd95", "bike_id": "499734a47f970e962380fcbb70adcd95", "is_disabled": 0, "type": "electric_scooter", "lat": 38.917696, "lon": -77.02336533333333, "is_reserved": 0, "fusion_lon": 0.0}, {"rental_uris": {"ios": "https://dc.lft.to/lastmile_qr_scan", "android": "https://dc.lft.to/lastmile_qr_scan"}, "fusion_lat": 0.0, "name": "1818fcdbc97ff44a11ce90210e80a791", "bike_id": "1818fcdbc97ff44a11ce90210e80a791", "is_disabled": 0, "type": "electric_scooter", "lat": 38.91554683333333, "lon": -77.03863666666666, "is_reserved": 0, "fusion_lon": 0.0}, {"rental_uris": {"ios": "https://dc.lft.to/lastmile_qr_scan", "android": "https://dc.lft.to/lastmile_qr_scan"}, "fusion_lat": 0.0, "name": "66e2e5fd2477bc1d3742fbfcfacd9a81", "bike_id": "66e2e5fd2477bc1d3742fbfcfacd9a81", "is_disabled": 0, "type": "electric_scooter", "lat": 38.89222016666667, "lon": -77.04365433333334, "is_reserved": 0, "fusion_lon": 0.0}, {"rental_uris": {"ios": "https://dc.lft.to/lastmile_qr_scan", "android": "https://dc.lft.to/lastmile_qr_scan"}, "fusion_lat": 0.0, "name": "ab5c396f03cd315df4e43bf45066a064", "bike_id": "ab5c396f03cd315df4e43bf45066a064", "is_disabled": 0, "type": "electric_scooter", "lat": 38.899284, "lon": -77.03279116666667, "is_reserved": 0, "fusion_lon": 0.0}, {"rental_uris": {"ios": "https://dc.lft.to/lastmile_qr_scan", "android": "https://dc.lft.to/lastmile_qr_scan"}, "fusion_lat": 0.0, "name": "a0a70fbdb8e4576ee810925f95b7e690", "bike_id": "a0a70fbdb8e4576ee810925f95b7e690", "is_disabled": 0, "type": "electric_scooter", "lat": 38.90007833333333, "lon": -77.03240766666667, "is_reserved": 0, "fusion_lon": 0.0}, {"rental_uris": {"ios": "https://dc.lft.to/lastmile_qr_scan", "android": "https://dc.lft.to/lastmile_qr_scan"}, "fusion_lat": 0.0, "name": "f5af3dcbbe86303244746bf7e99acab0", "bike_id": "f5af3dcbbe86303244746bf7e99acab0", "is_disabled": 0, "type": "electric_scooter", "lat": 38.898439333333336, "lon": -76.94631783333334, "is_reserved": 0, "fusion_lon": 0.0}, {"rental_uris": {"ios": "https://dc.lft.to/lastmile_qr_scan", "android": "https://dc.lft.to/lastmile_qr_scan"}, "fusion_lat": 0.0, "name": "d21ee5749c03ccc57752c42a0ac913a9", "bike_id": "d21ee5749c03ccc57752c42a0ac913a9", "is_disabled": 0, "type": "electric_scooter", "lat": 38.916908166666666, "lon": -77.02691616666667, "is_reserved": 0, "fusion_lon": 0.0}, {"rental_uris": {"ios": "https://dc.lft.to/lastmile_qr_scan", "android": "https://dc.lft.to/lastmile_qr_scan"}, "fusion_lat": 0.0, "name": "82129c89654c6859398f49a991305197", "bike_id": "82129c89654c6859398f49a991305197", "is_disabled": 0, "type": "electric_scooter", "lat": 38.91922816666667, "lon": -77.03176216666667, "is_reserved": 0, "fusion_lon": 0.0}, {"rental_uris": {"ios": "https://dc.lft.to/lastmile_qr_scan", "android": "https://dc.lft.to/lastmile_qr_scan"}, "fusion_lat": 0.0, "name": "dcf084968d31211863dd07191e4c47ab", "bike_id": "dcf084968d31211863dd07191e4c47ab", "is_disabled": 0, "type": "electric_bike", "lat": 38.89353083333334, "lon": -77.187411, "is_reserved": 0, "fusion_lon": 0.0}, {"rental_uris": {"ios": "https://dc.lft.to/lastmile_qr_scan", "android": "https://dc.lft.to/lastmile_qr_scan"}, "fusion_lat": 0.0, "name": "47e9457feb72438af1d6a34d0f1ec4eb", "bike_id": "47e9457feb72438af1d6a34d0f1ec4eb", "is_disabled": 0, "type": "electric_scooter", "lat": 38.9153665, "lon": -77.04469916666666, "is_reserved": 0, "fusion_lon": 0.0}, {"rental_uris": {"ios": "https://dc.lft.to/lastmile_qr_scan", "android": "https://dc.lft.to/lastmile_qr_scan"}, "fusion_lat": 0.0, "name": "71568c26f25e70a96c83775710786006", "bike_id": "71568c26f25e70a96c83775710786006", "is_disabled": 0, "type": "electric_bike", "lat": 38.91277866666667, "lon": -77.07826566666667, "is_reserved": 0, "fusion_lon": 0.0}, {"rental_uris": {"ios": "https://dc.lft.to/lastmile_qr_scan", "android": "https://dc.lft.to/lastmile_qr_scan"}, "fusion_lat": 0.0, "name": "2f3f0964df5a24ec4c834c4b248d114c", "bike_id": "2f3f0964df5a24ec4c834c4b248d114c", "is_disabled": 0, "type": "electric_scooter", "lat": 38.91815883333334, "lon": -77.02711933333333, "is_reserved": 0, "fusion_lon": 0.0}, {"rental_uris": {"ios": "https://dc.lft.to/lastmile_qr_scan", "android": "https://dc.lft.to/lastmile_qr_scan"}, "fusion_lat": 0.0, "name": "e059db037c05af545a1887c4fd6a1e98", "bike_id": "e059db037c05af545a1887c4fd6a1e98", "is_disabled": 0, "type": "electric_bike", "lat": 39.01572183333333, "lon": -77.04416016666667, "is_reserved": 0, "fusion_lon": 0.0}, {"rental_uris": {"ios": "https://dc.lft.to/lastmile_qr_scan", "android": "https://dc.lft.to/lastmile_qr_scan"}, "fusion_lat": 0.0, "name": "6f8d98193c8c9b3a68934a8af952a499", "bike_id": "6f8d98193c8c9b3a68934a8af952a499", "is_disabled": 0, "type": "electric_scooter", "lat": 38.907820666666666, "lon": -77.04240216666666, "is_reserved": 0, "fusion_lon": 0.0}, {"rental_uris": {"ios": "https://dc.lft.to/lastmile_qr_scan", "android": "https://dc.lft.to/lastmile_qr_scan"}, "fusion_lat": 0.0, "name": "662494f0b89fbf00ca3f2d21ee2d4a86", "bike_id": "662494f0b89fbf00ca3f2d21ee2d4a86", "is_disabled": 0, "type": "electric_scooter", "lat": 38.916365666666664, "lon": -77.03164966666667, "is_reserved": 0, "fusion_lon": 0.0}, {"rental_uris": {"ios": "https://dc.lft.to/lastmile_qr_scan", "android": "https://dc.lft.to/lastmile_qr_scan"}, "fusion_lat": 0.0, "name": "3fd2d7380727a3b6dcb796e4e609a725", "bike_id": "3fd2d7380727a3b6dcb796e4e609a725", "is_disabled": 0, "type": "electric_scooter", "lat": 38.909851833333335, "lon": -77.03272966666667, "is_reserved": 0, "fusion_lon": 0.0}, {"rental_uris": {"ios": "https://dc.lft.to/lastmile_qr_scan", "android": "https://dc.lft.to/lastmile_qr_scan"}, "fusion_lat": 0.0, "name": "738e3b3a339baa461dd98b6847ffac97", "bike_id": "738e3b3a339baa461dd98b6847ffac97", "is_disabled": 0, "type": "electric_scooter", "lat": 38.88432233333333, "lon": -77.03046416666666, "is_reserved": 0, "fusion_lon": 0.0}, {"rental_uris": {"ios": "https://dc.lft.to/lastmile_qr_scan", "android": "https://dc.lft.to/lastmile_qr_scan"}, "fusion_lat": 0.0, "name": "6b54c72753ab6f045eaa217bcc57dbed", "bike_id": "6b54c72753ab6f045eaa217bcc57dbed", "is_disabled": 0, "type": "electric_scooter", "lat": 38.918179, "lon": -77.02721983333333, "is_reserved": 0, "fusion_lon": 0.0}, {"rental_uris": {"ios": "https://dc.lft.to/lastmile_qr_scan", "android": "https://dc.lft.to/lastmile_qr_scan"}, "fusion_lat": 0.0, "name": "575a9b9516fcb22ef2050006b11fee8a", "bike_id": "575a9b9516fcb22ef2050006b11fee8a", "is_disabled": 0, "type": "electric_scooter", "lat": 38.916776666666664, "lon": -77.02981283333334, "is_reserved": 0, "fusion_lon": 0.0}, {"rental_uris": {"ios": "https://dc.lft.to/lastmile_qr_scan", "android": "https://dc.lft.to/lastmile_qr_scan"}, "fusion_lat": 0.0, "name": "76924140681253917e78582d5b1ef259", "bike_id": "76924140681253917e78582d5b1ef259", "is_disabled": 0, "type": "electric_scooter", "lat": 38.92066166666667, "lon": -76.99534416666667, "is_reserved": 0, "fusion_lon": 0.0}, {"rental_uris": {"ios": "https://dc.lft.to/lastmile_qr_scan", "android": "https://dc.lft.to/lastmile_qr_scan"}, "fusion_lat": 0.0, "name": "96234846dfb0537bb3ebd63f8c926090", "bike_id": "96234846dfb0537bb3ebd63f8c926090", "is_disabled": 0, "type": "electric_scooter", "lat": 38.9174665, "lon": -77.0240465, "is_reserved": 0, "fusion_lon": 0.0}, {"rental_uris": {"ios": "https://dc.lft.to/lastmile_qr_scan", "android": "https://dc.lft.to/lastmile_qr_scan"}, "fusion_lat": 0.0, "name": "9d96d99ac00042272a112841abf4b407", "bike_id": "9d96d99ac00042272a112841abf4b407", "is_disabled": 0, "type": "electric_scooter", "lat": 38.877962333333336, "lon": -77.00122866666666, "is_reserved": 0, "fusion_lon": 0.0}, {"rental_uris": {"ios": "https://dc.lft.to/lastmile_qr_scan", "android": "https://dc.lft.to/lastmile_qr_scan"}, "fusion_lat": 0.0, "name": "b933b0623c06da654aadbdebbdf14532", "bike_id": "b933b0623c06da654aadbdebbdf14532", "is_disabled": 0, "type": "electric_scooter", "lat": 38.89399683333333, "lon": -77.0500035, "is_reserved": 0, "fusion_lon": 0.0}, {"rental_uris": {"ios": "https://dc.lft.to/lastmile_qr_scan", "android": "https://dc.lft.to/lastmile_qr_scan"}, "fusion_lat": 0.0, "name": "11e0b3eba1a5ee1dd19b6a4ee36ab126", "bike_id": "11e0b3eba1a5ee1dd19b6a4ee36ab126", "is_disabled": 0, "type": "electric_scooter", "lat": 38.90358283333333, "lon": -77.0468445, "is_reserved": 0, "fusion_lon": 0.0}, {"rental_uris": {"ios": "https://dc.lft.to/lastmile_qr_scan", "android": "https://dc.lft.to/lastmile_qr_scan"}, "fusion_lat": 0.0, "name": "b83fc5654d1f6d7cc452454a3a00aa6e", "bike_id": "b83fc5654d1f6d7cc452454a3a00aa6e", "is_disabled": 0, "type": "electric_scooter", "lat": 38.9214835, "lon": -77.073002, "is_reserved": 0, "fusion_lon": 0.0}, {"rental_uris": {"ios": "https://dc.lft.to/lastmile_qr_scan", "android": "https://dc.lft.to/lastmile_qr_scan"}, "fusion_lat": 0.0, "name": "9ee22f249e6e2795b8b5bdc51d937d32", "bike_id": "9ee22f249e6e2795b8b5bdc51d937d32", "is_disabled": 0, "type": "electric_scooter", "lat": 38.9040965, "lon": -76.97328833333333, "is_reserved": 0, "fusion_lon": 0.0}, {"rental_uris": {"ios": "https://dc.lft.to/lastmile_qr_scan", "android": "https://dc.lft.to/lastmile_qr_scan"}, "fusion_lat": 0.0, "name": "e850fb4c63ef44260d451b42a9b8d20f", "bike_id": "e850fb4c63ef44260d451b42a9b8d20f", "is_disabled": 0, "type": "electric_scooter", "lat": 38.92481033333333, "lon": -77.03558883333334, "is_reserved": 0, "fusion_lon": 0.0}, {"rental_uris": {"ios": "https://dc.lft.to/lastmile_qr_scan", "android": "https://dc.lft.to/lastmile_qr_scan"}, "fusion_lat": 0.0, "name": "8d87e47f784243e832982bf9e864bad2", "bike_id": "8d87e47f784243e832982bf9e864bad2", "is_disabled": 0, "type": "electric_scooter", "lat": 38.8758185, "lon": -77.02080633333334, "is_reserved": 0, "fusion_lon": 0.0}, {"rental_uris": {"ios": "https://dc.lft.to/lastmile_qr_scan", "android": "https://dc.lft.to/lastmile_qr_scan"}, "fusion_lat": 0.0, "name": "89bf39c71b2a75eff9442df8971b53bd", "bike_id": "89bf39c71b2a75eff9442df8971b53bd", "is_disabled": 0, "type": "electric_bike", "lat": 39.03047933333333, "lon": -77.0948385, "is_reserved": 0, "fusion_lon": 0.0}, {"rental_uris": {"ios": "https://dc.lft.to/lastmile_qr_scan", "android": "https://dc.lft.to/lastmile_qr_scan"}, "fusion_lat": 0.0, "name": "1f878a249d5043d178383b3f70924628", "bike_id": "1f878a249d5043d178383b3f70924628", "is_disabled": 0, "type": "electric_scooter", "lat": 38.9134455, "lon": -77.04883916666667, "is_reserved": 0, "fusion_lon": 0.0}, {"rental_uris": {"ios": "https://dc.lft.to/lastmile_qr_scan", "android": "https://dc.lft.to/lastmile_qr_scan"}, "fusion_lat": 0.0, "name": "0ab85654a7ce554bc8ce62c4ac9be952", "bike_id": "0ab85654a7ce554bc8ce62c4ac9be952", "is_disabled": 0, "type": "electric_scooter", "lat": 38.90578033333333, "lon": -77.00064883333333, "is_reserved": 0, "fusion_lon": 0.0}, {"rental_uris": {"ios": "https://dc.lft.to/lastmile_qr_scan", "android": "https://dc.lft.to/lastmile_qr_scan"}, "fusion_lat": 0.0, "name": "74877c843e7d05b8258214eb5b930b6f", "bike_id": "74877c843e7d05b8258214eb5b930b6f", "is_disabled": 0, "type": "electric_bike", "lat": 38.8824735, "lon": -76.96261333333334, "is_reserved": 0, "fusion_lon": 0.0}, {"rental_uris": {"ios": "https://dc.lft.to/lastmile_qr_scan", "android": "https://dc.lft.to/lastmile_qr_scan"}, "fusion_lat": 0.0, "name": "ded84d3c67679e566387ab38275e50c6", "bike_id": "ded84d3c67679e566387ab38275e50c6", "is_disabled": 0, "type": "electric_bike", "lat": 38.954794666666665, "lon": -76.99015616666667, "is_reserved": 0, "fusion_lon": 0.0}, {"rental_uris": {"ios": "https://dc.lft.to/lastmile_qr_scan", "android": "https://dc.lft.to/lastmile_qr_scan"}, "fusion_lat": 0.0, "name": "6fbd02d17e09e9cbcc9a0b26771d2446", "bike_id": "6fbd02d17e09e9cbcc9a0b26771d2446", "is_disabled": 0, "type": "electric_scooter", "lat": 38.86752883333333, "lon": -77.03854983333333, "is_reserved": 0, "fusion_lon": 0.0}, {"rental_uris": {"ios": "https://dc.lft.to/lastmile_qr_scan", "android": "https://dc.lft.to/lastmile_qr_scan"}, "fusion_lat": 0.0, "name": "99a4becd4f33e2aac5945beb724610a5", "bike_id": "99a4becd4f33e2aac5945beb724610a5", "is_disabled": 0, "type": "electric_scooter", "lat": 38.907261166666665, "lon": -77.034292, "is_reserved": 0, "fusion_lon": 0.0}, {"rental_uris": {"ios": "https://dc.lft.to/lastmile_qr_scan", "android": "https://dc.lft.to/lastmile_qr_scan"}, "fusion_lat": 0.0, "name": "5b0f2cc92fe1ef811bb4331d657f2436", "bike_id": "5b0f2cc92fe1ef811bb4331d657f2436", "is_disabled": 0, "type": "electric_scooter", "lat": 38.907249666666665, "lon": -77.07446333333333, "is_reserved": 0, "fusion_lon": 0.0}, {"rental_uris": {"ios": "https://dc.lft.to/lastmile_qr_scan", "android": "https://dc.lft.to/lastmile_qr_scan"}, "fusion_lat": 0.0, "name": "52f29553059e53d69dbc25487b922c0f", "bike_id": "52f29553059e53d69dbc25487b922c0f", "is_disabled": 0, "type": "electric_scooter", "lat": 38.91714366666667, "lon": -77.03198416666666, "is_reserved": 0, "fusion_lon": 0.0}, {"rental_uris": {"ios": "https://dc.lft.to/lastmile_qr_scan", "android": "https://dc.lft.to/lastmile_qr_scan"}, "fusion_lat": 0.0, "name": "daebd6db7c01bb42af61d1eed41c682b", "bike_id": "daebd6db7c01bb42af61d1eed41c682b", "is_disabled": 0, "type": "electric_bike", "lat": 38.945151833333334, "lon": -77.00672683333333, "is_reserved": 0, "fusion_lon": 0.0}, {"rental_uris": {"ios": "https://dc.lft.to/lastmile_qr_scan", "android": "https://dc.lft.to/lastmile_qr_scan"}, "fusion_lat": 0.0, "name": "90c0f39f9c6089cf5669a70c61daee0a", "bike_id": "90c0f39f9c6089cf5669a70c61daee0a", "is_disabled": 0, "type": "electric_scooter", "lat": 38.916015333333334, "lon": -77.031841, "is_reserved": 0, "fusion_lon": 0.0}, {"rental_uris": {"ios": "https://dc.lft.to/lastmile_qr_scan", "android": "https://dc.lft.to/lastmile_qr_scan"}, "fusion_lat": 0.0, "name": "7720ea0629c3f86837f90b34d6a3068a", "bike_id": "7720ea0629c3f86837f90b34d6a3068a", "is_disabled": 0, "type": "electric_scooter", "lat": 38.902175166666666, "lon": -77.0088455, "is_reserved": 0, "fusion_lon": 0.0}, {"rental_uris": {"ios": "https://dc.lft.to/lastmile_qr_scan", "android": "https://dc.lft.to/lastmile_qr_scan"}, "fusion_lat": 0.0, "name": "fc277c9862d1d5632d4e7fab5e033ce6", "bike_id": "fc277c9862d1d5632d4e7fab5e033ce6", "is_disabled": 0, "type": "electric_scooter", "lat": 38.871815833333336, "lon": -77.00609466666667, "is_reserved": 0, "fusion_lon": 0.0}, {"rental_uris": {"ios": "https://dc.lft.to/lastmile_qr_scan", "android": "https://dc.lft.to/lastmile_qr_scan"}, "fusion_lat": 0.0, "name": "6d72e3ab6c2f1c2f29bcf856d0262b1f", "bike_id": "6d72e3ab6c2f1c2f29bcf856d0262b1f", "is_disabled": 0, "type": "electric_scooter", "lat": 38.907447166666664, "lon": -76.98341433333333, "is_reserved": 0, "fusion_lon": 0.0}, {"rental_uris": {"ios": "https://dc.lft.to/lastmile_qr_scan", "android": "https://dc.lft.to/lastmile_qr_scan"}, "fusion_lat": 0.0, "name": "3aafc26eefc8fb9bb7fec2aab37b82df", "bike_id": "3aafc26eefc8fb9bb7fec2aab37b82df", "is_disabled": 0, "type": "electric_scooter", "lat": 38.910732333333335, "lon": -77.04387416666667, "is_reserved": 0, "fusion_lon": 0.0}, {"rental_uris": {"ios": "https://dc.lft.to/lastmile_qr_scan", "android": "https://dc.lft.to/lastmile_qr_scan"}, "fusion_lat": 0.0, "name": "30a0c22ab3a7cdfb346921694c31929b", "bike_id": "30a0c22ab3a7cdfb346921694c31929b", "is_disabled": 0, "type": "electric_scooter", "lat": 38.903759, "lon": -77.03204983333333, "is_reserved": 0, "fusion_lon": 0.0}, {"rental_uris": {"ios": "https://dc.lft.to/lastmile_qr_scan", "android": "https://dc.lft.to/lastmile_qr_scan"}, "fusion_lat": 0.0, "name": "c4828559af1bb1133db88c213c805324", "bike_id": "c4828559af1bb1133db88c213c805324", "is_disabled": 0, "type": "electric_bike", "lat": 38.89412183333334, "lon": -76.94790083333334, "is_reserved": 0, "fusion_lon": 0.0}, {"rental_uris": {"ios": "https://dc.lft.to/lastmile_qr_scan", "android": "https://dc.lft.to/lastmile_qr_scan"}, "fusion_lat": 0.0, "name": "2a2351ad032277f182e6b8181fd655ee", "bike_id": "2a2351ad032277f182e6b8181fd655ee", "is_disabled": 0, "type": "electric_bike", "lat": 38.8706945, "lon": -76.97837933333334, "is_reserved": 0, "fusion_lon": 0.0}, {"rental_uris": {"ios": "https://dc.lft.to/lastmile_qr_scan", "android": "https://dc.lft.to/lastmile_qr_scan"}, "fusion_lat": 0.0, "name": "d2cd11129be5efeb45cd8e5c4f84414b", "bike_id": "d2cd11129be5efeb45cd8e5c4f84414b", "is_disabled": 0, "type": "electric_scooter", "lat": 38.88487833333333, "lon": -77.007072, "is_reserved": 0, "fusion_lon": 0.0}, {"rental_uris": {"ios": "https://dc.lft.to/lastmile_qr_scan", "android": "https://dc.lft.to/lastmile_qr_scan"}, "fusion_lat": 0.0, "name": "99b98076d665ed03e85c6af6ba28d1e3", "bike_id": "99b98076d665ed03e85c6af6ba28d1e3", "is_disabled": 0, "type": "electric_scooter", "lat": 38.90476066666667, "lon": -77.04888, "is_reserved": 0, "fusion_lon": 0.0}, {"rental_uris": {"ios": "https://dc.lft.to/lastmile_qr_scan", "android": "https://dc.lft.to/lastmile_qr_scan"}, "fusion_lat": 0.0, "name": "703afebad81379f73ff75cb58272855f", "bike_id": "703afebad81379f73ff75cb58272855f", "is_disabled": 0, "type": "electric_scooter", "lat": 38.90457833333333, "lon": -77.0346745, "is_reserved": 0, "fusion_lon": 0.0}, {"rental_uris": {"ios": "https://dc.lft.to/lastmile_qr_scan", "android": "https://dc.lft.to/lastmile_qr_scan"}, "fusion_lat": 0.0, "name": "830c31841a0fb08a1c994f700bdc15e7", "bike_id": "830c31841a0fb08a1c994f700bdc15e7", "is_disabled": 0, "type": "electric_scooter", "lat": 38.941849, "lon": -77.02491016666667, "is_reserved": 0, "fusion_lon": 0.0}, {"rental_uris": {"ios": "https://dc.lft.to/lastmile_qr_scan", "android": "https://dc.lft.to/lastmile_qr_scan"}, "fusion_lat": 0.0, "name": "934009ba67ac382cd2edb179ccf1a9dd", "bike_id": "934009ba67ac382cd2edb179ccf1a9dd", "is_disabled": 0, "type": "electric_scooter", "lat": 38.930203666666664, "lon": -77.082808, "is_reserved": 0, "fusion_lon": 0.0}, {"rental_uris": {"ios": "https://dc.lft.to/lastmile_qr_scan", "android": "https://dc.lft.to/lastmile_qr_scan"}, "fusion_lat": 0.0, "name": "6da5aa2c903bfbb51642e3c80fa6cf13", "bike_id": "6da5aa2c903bfbb51642e3c80fa6cf13", "is_disabled": 0, "type": "electric_scooter", "lat": 38.90241616666667, "lon": -77.02699216666667, "is_reserved": 0, "fusion_lon": 0.0}, {"rental_uris": {"ios": "https://dc.lft.to/lastmile_qr_scan", "android": "https://dc.lft.to/lastmile_qr_scan"}, "fusion_lat": 0.0, "name": "4dfd1f0b809826c883745856da58ab29", "bike_id": "4dfd1f0b809826c883745856da58ab29", "is_disabled": 0, "type": "electric_scooter", "lat": 38.91417216666667, "lon": -77.03996116666667, "is_reserved": 0, "fusion_lon": 0.0}, {"rental_uris": {"ios": "https://dc.lft.to/lastmile_qr_scan", "android": "https://dc.lft.to/lastmile_qr_scan"}, "fusion_lat": 0.0, "name": "c32f3ffabf45728bfaf550272410ddba", "bike_id": "c32f3ffabf45728bfaf550272410ddba", "is_disabled": 0, "type": "electric_scooter", "lat": 38.915619666666665, "lon": -77.03149066666667, "is_reserved": 0, "fusion_lon": 0.0}, {"rental_uris": {"ios": "https://dc.lft.to/lastmile_qr_scan", "android": "https://dc.lft.to/lastmile_qr_scan"}, "fusion_lat": 0.0, "name": "0cb02205c9d3dfe87d5a7cfccdc14bb1", "bike_id": "0cb02205c9d3dfe87d5a7cfccdc14bb1", "is_disabled": 0, "type": "electric_scooter", "lat": 38.90277116666667, "lon": -77.0385955, "is_reserved": 0, "fusion_lon": 0.0}, {"rental_uris": {"ios": "https://dc.lft.to/lastmile_qr_scan", "android": "https://dc.lft.to/lastmile_qr_scan"}, "fusion_lat": 0.0, "name": "5a5c91c9e1909a6b74463919018deb49", "bike_id": "5a5c91c9e1909a6b74463919018deb49", "is_disabled": 0, "type": "electric_scooter", "lat": 38.91910133333333, "lon": -77.0239435, "is_reserved": 0, "fusion_lon": 0.0}, {"rental_uris": {"ios": "https://dc.lft.to/lastmile_qr_scan", "android": "https://dc.lft.to/lastmile_qr_scan"}, "fusion_lat": 0.0, "name": "30e7fadc828dee79b963a838947235ca", "bike_id": "30e7fadc828dee79b963a838947235ca", "is_disabled": 0, "type": "electric_scooter", "lat": 38.930703666666666, "lon": -77.02158666666666, "is_reserved": 0, "fusion_lon": 0.0}, {"rental_uris": {"ios": "https://dc.lft.to/lastmile_qr_scan", "android": "https://dc.lft.to/lastmile_qr_scan"}, "fusion_lat": 0.0, "name": "142756dcea0e3d08262e4fe28571dc2c", "bike_id": "142756dcea0e3d08262e4fe28571dc2c", "is_disabled": 0, "type": "electric_scooter", "lat": 38.939454833333336, "lon": -77.07518466666667, "is_reserved": 0, "fusion_lon": 0.0}, {"rental_uris": {"ios": "https://dc.lft.to/lastmile_qr_scan", "android": "https://dc.lft.to/lastmile_qr_scan"}, "fusion_lat": 0.0, "name": "539fca3ecbefeaa28621315cf8fb2b5d", "bike_id": "539fca3ecbefeaa28621315cf8fb2b5d", "is_disabled": 0, "type": "electric_bike", "lat": 38.8846425, "lon": -76.99566883333334, "is_reserved": 0, "fusion_lon": 0.0}, {"rental_uris": {"ios": "https://dc.lft.to/lastmile_qr_scan", "android": "https://dc.lft.to/lastmile_qr_scan"}, "fusion_lat": 0.0, "name": "d21b2c26cef04003d2421fc3ad99904d", "bike_id": "d21b2c26cef04003d2421fc3ad99904d", "is_disabled": 0, "type": "electric_scooter", "lat": 38.895504333333335, "lon": -77.00912516666666, "is_reserved": 0, "fusion_lon": 0.0}, {"rental_uris": {"ios": "https://dc.lft.to/lastmile_qr_scan", "android": "https://dc.lft.to/lastmile_qr_scan"}, "fusion_lat": 0.0, "name": "fe03a0af43b910742373478c6028c957", "bike_id": "fe03a0af43b910742373478c6028c957", "is_disabled": 0, "type": "electric_scooter", "lat": 38.91596583333333, "lon": -77.02971633333334, "is_reserved": 0, "fusion_lon": 0.0}, {"rental_uris": {"ios": "https://dc.lft.to/lastmile_qr_scan", "android": "https://dc.lft.to/lastmile_qr_scan"}, "fusion_lat": 0.0, "name": "4795ebd762f647542ada544a86a39024", "bike_id": "4795ebd762f647542ada544a86a39024", "is_disabled": 0, "type": "electric_scooter", "lat": 38.956557833333335, "lon": -77.03288183333333, "is_reserved": 0, "fusion_lon": 0.0}, {"rental_uris": {"ios": "https://dc.lft.to/lastmile_qr_scan", "android": "https://dc.lft.to/lastmile_qr_scan"}, "fusion_lat": 0.0, "name": "be2117d6ebf13a6698bc2f9130e491a3", "bike_id": "be2117d6ebf13a6698bc2f9130e491a3", "is_disabled": 0, "type": "electric_scooter", "lat": 38.9191995, "lon": -77.07060533333333, "is_reserved": 0, "fusion_lon": 0.0}, {"rental_uris": {"ios": "https://dc.lft.to/lastmile_qr_scan", "android": "https://dc.lft.to/lastmile_qr_scan"}, "fusion_lat": 0.0, "name": "d5f0915dda32ef4aaf4ccfce5a117a52", "bike_id": "d5f0915dda32ef4aaf4ccfce5a117a52", "is_disabled": 0, "type": "electric_scooter", "lat": 38.931624666666664, "lon": -77.0564425, "is_reserved": 0, "fusion_lon": 0.0}, {"rental_uris": {"ios": "https://dc.lft.to/lastmile_qr_scan", "android": "https://dc.lft.to/lastmile_qr_scan"}, "fusion_lat": 0.0, "name": "2ca7608a348d715efac7aeccef42ba9a", "bike_id": "2ca7608a348d715efac7aeccef42ba9a", "is_disabled": 0, "type": "electric_scooter", "lat": 38.91268916666667, "lon": -77.04467616666666, "is_reserved": 0, "fusion_lon": 0.0}, {"rental_uris": {"ios": "https://dc.lft.to/lastmile_qr_scan", "android": "https://dc.lft.to/lastmile_qr_scan"}, "fusion_lat": 0.0, "name": "fcfae656e914850e628842940fad77fb", "bike_id": "fcfae656e914850e628842940fad77fb", "is_disabled": 0, "type": "electric_scooter", "lat": 38.914280833333336, "lon": -77.0449535, "is_reserved": 0, "fusion_lon": 0.0}, {"rental_uris": {"ios": "https://dc.lft.to/lastmile_qr_scan", "android": "https://dc.lft.to/lastmile_qr_scan"}, "fusion_lat": 0.0, "name": "c0563c09be7f6e55afdf7108de4e3b32", "bike_id": "c0563c09be7f6e55afdf7108de4e3b32", "is_disabled": 0, "type": "electric_bike", "lat": 38.85790316666667, "lon": -77.09959, "is_reserved": 0, "fusion_lon": 0.0}, {"rental_uris": {"ios": "https://dc.lft.to/lastmile_qr_scan", "android": "https://dc.lft.to/lastmile_qr_scan"}, "fusion_lat": 0.0, "name": "8210d2a0baa299098c36acb97a2f9a4e", "bike_id": "8210d2a0baa299098c36acb97a2f9a4e", "is_disabled": 0, "type": "electric_scooter", "lat": 38.922588, "lon": -77.03467783333333, "is_reserved": 0, "fusion_lon": 0.0}, {"rental_uris": {"ios": "https://dc.lft.to/lastmile_qr_scan", "android": "https://dc.lft.to/lastmile_qr_scan"}, "fusion_lat": 0.0, "name": "5c84e4754a3d4d68e73b095301a911da", "bike_id": "5c84e4754a3d4d68e73b095301a911da", "is_disabled": 0, "type": "electric_scooter", "lat": 38.9171085, "lon": -77.03672433333334, "is_reserved": 0, "fusion_lon": 0.0}, {"rental_uris": {"ios": "https://dc.lft.to/lastmile_qr_scan", "android": "https://dc.lft.to/lastmile_qr_scan"}, "fusion_lat": 0.0, "name": "247a0f129e75e4c951c277f511ad005a", "bike_id": "247a0f129e75e4c951c277f511ad005a", "is_disabled": 0, "type": "electric_scooter", "lat": 38.91393983333333, "lon": -77.0456985, "is_reserved": 0, "fusion_lon": 0.0}, {"rental_uris": {"ios": "https://dc.lft.to/lastmile_qr_scan", "android": "https://dc.lft.to/lastmile_qr_scan"}, "fusion_lat": 0.0, "name": "856d389e2fd14270f80d7907ca94a8f1", "bike_id": "856d389e2fd14270f80d7907ca94a8f1", "is_disabled": 0, "type": "electric_scooter", "lat": 38.90995983333333, "lon": -77.04011266666667, "is_reserved": 0, "fusion_lon": 0.0}, {"rental_uris": {"ios": "https://dc.lft.to/lastmile_qr_scan", "android": "https://dc.lft.to/lastmile_qr_scan"}, "fusion_lat": 0.0, "name": "ca50344c31aefee7efd2e15fa5c495af", "bike_id": "ca50344c31aefee7efd2e15fa5c495af", "is_disabled": 0, "type": "electric_bike", "lat": 38.86595583333333, "lon": -76.93226266666667, "is_reserved": 0, "fusion_lon": 0.0}, {"rental_uris": {"ios": "https://dc.lft.to/lastmile_qr_scan", "android": "https://dc.lft.to/lastmile_qr_scan"}, "fusion_lat": 0.0, "name": "2dd087ac44ea621914c457be0c54ea0f", "bike_id": "2dd087ac44ea621914c457be0c54ea0f", "is_disabled": 0, "type": "electric_scooter", "lat": 38.924522, "lon": -77.04020733333333, "is_reserved": 0, "fusion_lon": 0.0}, {"rental_uris": {"ios": "https://dc.lft.to/lastmile_qr_scan", "android": "https://dc.lft.to/lastmile_qr_scan"}, "fusion_lat": 0.0, "name": "1b3b20ec25ffa29e6dace138db18edfe", "bike_id": "1b3b20ec25ffa29e6dace138db18edfe", "is_disabled": 0, "type": "electric_scooter", "lat": 38.918103, "lon": -77.0417495, "is_reserved": 0, "fusion_lon": 0.0}, {"rental_uris": {"ios": "https://dc.lft.to/lastmile_qr_scan", "android": "https://dc.lft.to/lastmile_qr_scan"}, "fusion_lat": 0.0, "name": "8a23508eb5e6b850334fc637e697b460", "bike_id": "8a23508eb5e6b850334fc637e697b460", "is_disabled": 0, "type": "electric_bike", "lat": 38.953597333333335, "lon": -76.980918, "is_reserved": 0, "fusion_lon": 0.0}, {"rental_uris": {"ios": "https://dc.lft.to/lastmile_qr_scan", "android": "https://dc.lft.to/lastmile_qr_scan"}, "fusion_lat": 0.0, "name": "d548718b121e49ae6817cbc942a362d9", "bike_id": "d548718b121e49ae6817cbc942a362d9", "is_disabled": 0, "type": "electric_scooter", "lat": 38.902546666666666, "lon": -77.02738866666667, "is_reserved": 0, "fusion_lon": 0.0}, {"rental_uris": {"ios": "https://dc.lft.to/lastmile_qr_scan", "android": "https://dc.lft.to/lastmile_qr_scan"}, "fusion_lat": 0.0, "name": "f8c704660fc074b193df87ed4de8c864", "bike_id": "f8c704660fc074b193df87ed4de8c864", "is_disabled": 0, "type": "electric_scooter", "lat": 38.933382333333334, "lon": -77.04381983333333, "is_reserved": 0, "fusion_lon": 0.0}, {"rental_uris": {"ios": "https://dc.lft.to/lastmile_qr_scan", "android": "https://dc.lft.to/lastmile_qr_scan"}, "fusion_lat": 0.0, "name": "0d73e7d01e993fd03c06af8d9de4d0fc", "bike_id": "0d73e7d01e993fd03c06af8d9de4d0fc", "is_disabled": 0, "type": "electric_scooter", "lat": 38.915733, "lon": -77.011982, "is_reserved": 0, "fusion_lon": 0.0}, {"rental_uris": {"ios": "https://dc.lft.to/lastmile_qr_scan", "android": "https://dc.lft.to/lastmile_qr_scan"}, "fusion_lat": 0.0, "name": "2d0342c58314c782978edb922a5e8dab", "bike_id": "2d0342c58314c782978edb922a5e8dab", "is_disabled": 0, "type": "electric_scooter", "lat": 38.909805166666665, "lon": -77.031835, "is_reserved": 0, "fusion_lon": 0.0}, {"rental_uris": {"ios": "https://dc.lft.to/lastmile_qr_scan", "android": "https://dc.lft.to/lastmile_qr_scan"}, "fusion_lat": 0.0, "name": "29e116dc450f24281b44041b8c023641", "bike_id": "29e116dc450f24281b44041b8c023641", "is_disabled": 0, "type": "electric_bike", "lat": 38.80665166666667, "lon": -77.06064, "is_reserved": 0, "fusion_lon": 0.0}, {"rental_uris": {"ios": "https://dc.lft.to/lastmile_qr_scan", "android": "https://dc.lft.to/lastmile_qr_scan"}, "fusion_lat": 0.0, "name": "5f938814bbef6ce5a750d74dd33a2371", "bike_id": "5f938814bbef6ce5a750d74dd33a2371", "is_disabled": 0, "type": "electric_scooter", "lat": 38.88739966666667, "lon": -77.01466683333334, "is_reserved": 0, "fusion_lon": 0.0}, {"rental_uris": {"ios": "https://dc.lft.to/lastmile_qr_scan", "android": "https://dc.lft.to/lastmile_qr_scan"}, "fusion_lat": 0.0, "name": "8bca56fbab39276b7c975a31d1326a4f", "bike_id": "8bca56fbab39276b7c975a31d1326a4f", "is_disabled": 0, "type": "electric_bike", "lat": 38.852200833333335, "lon": -77.12962883333333, "is_reserved": 0, "fusion_lon": 0.0}, {"rental_uris": {"ios": "https://dc.lft.to/lastmile_qr_scan", "android": "https://dc.lft.to/lastmile_qr_scan"}, "fusion_lat": 0.0, "name": "cf7fef963d7acd6afb0aadf9c2786327", "bike_id": "cf7fef963d7acd6afb0aadf9c2786327", "is_disabled": 0, "type": "electric_scooter", "lat": 38.86522316666667, "lon": -76.99028333333334, "is_reserved": 0, "fusion_lon": 0.0}, {"rental_uris": {"ios": "https://dc.lft.to/lastmile_qr_scan", "android": "https://dc.lft.to/lastmile_qr_scan"}, "fusion_lat": 0.0, "name": "3e22f20aa5ee9effe1aabc6ac72cd3c4", "bike_id": "3e22f20aa5ee9effe1aabc6ac72cd3c4", "is_disabled": 0, "type": "electric_scooter", "lat": 38.892224666666664, "lon": -77.02619833333334, "is_reserved": 0, "fusion_lon": 0.0}, {"rental_uris": {"ios": "https://dc.lft.to/lastmile_qr_scan", "android": "https://dc.lft.to/lastmile_qr_scan"}, "fusion_lat": 0.0, "name": "5931a6efc4be6571d832cb172fa87a9d", "bike_id": "5931a6efc4be6571d832cb172fa87a9d", "is_disabled": 0, "type": "electric_bike", "lat": 38.89817, "lon": -76.99068533333333, "is_reserved": 0, "fusion_lon": 0.0}, {"rental_uris": {"ios": "https://dc.lft.to/lastmile_qr_scan", "android": "https://dc.lft.to/lastmile_qr_scan"}, "fusion_lat": 0.0, "name": "0367ff5ea2c4289b1c4304d155d7b88b", "bike_id": "0367ff5ea2c4289b1c4304d155d7b88b", "is_disabled": 0, "type": "electric_scooter", "lat": 38.876349, "lon": -77.01479316666666, "is_reserved": 0, "fusion_lon": 0.0}, {"rental_uris": {"ios": "https://dc.lft.to/lastmile_qr_scan", "android": "https://dc.lft.to/lastmile_qr_scan"}, "fusion_lat": 0.0, "name": "4f79bcac6d65bfcb9829927fe2d2064b", "bike_id": "4f79bcac6d65bfcb9829927fe2d2064b", "is_disabled": 0, "type": "electric_scooter", "lat": 38.91175466666667, "lon": -77.031858, "is_reserved": 0, "fusion_lon": 0.0}, {"rental_uris": {"ios": "https://dc.lft.to/lastmile_qr_scan", "android": "https://dc.lft.to/lastmile_qr_scan"}, "fusion_lat": 0.0, "name": "72c2619a78ff0f1c5d7f9a4dab180145", "bike_id": "72c2619a78ff0f1c5d7f9a4dab180145", "is_disabled": 0, "type": "electric_scooter", "lat": 38.9267945, "lon": -77.01554883333333, "is_reserved": 0, "fusion_lon": 0.0}, {"rental_uris": {"ios": "https://dc.lft.to/lastmile_qr_scan", "android": "https://dc.lft.to/lastmile_qr_scan"}, "fusion_lat": 0.0, "name": "f84d0a7322dd8b1db66a13d3638ded72", "bike_id": "f84d0a7322dd8b1db66a13d3638ded72", "is_disabled": 0, "type": "electric_scooter", "lat": 38.911171333333336, "lon": -77.04477616666667, "is_reserved": 0, "fusion_lon": 0.0}, {"rental_uris": {"ios": "https://dc.lft.to/lastmile_qr_scan", "android": "https://dc.lft.to/lastmile_qr_scan"}, "fusion_lat": 0.0, "name": "b5d1b33c2da4241682aa412616029a29", "bike_id": "b5d1b33c2da4241682aa412616029a29", "is_disabled": 0, "type": "electric_bike", "lat": 38.873757, "lon": -77.11799516666666, "is_reserved": 0, "fusion_lon": 0.0}, {"rental_uris": {"ios": "https://dc.lft.to/lastmile_qr_scan", "android": "https://dc.lft.to/lastmile_qr_scan"}, "fusion_lat": 0.0, "name": "b2cc5f9ce3b01806d1f5b9a59aaa1566", "bike_id": "b2cc5f9ce3b01806d1f5b9a59aaa1566", "is_disabled": 0, "type": "electric_scooter", "lat": 38.8901795, "lon": -76.93736083333333, "is_reserved": 0, "fusion_lon": 0.0}, {"rental_uris": {"ios": "https://dc.lft.to/lastmile_qr_scan", "android": "https://dc.lft.to/lastmile_qr_scan"}, "fusion_lat": 0.0, "name": "4341a75e1f4eae02552648472bc21d43", "bike_id": "4341a75e1f4eae02552648472bc21d43", "is_disabled": 0, "type": "electric_scooter", "lat": 38.87625466666667, "lon": -76.965264, "is_reserved": 0, "fusion_lon": 0.0}, {"rental_uris": {"ios": "https://dc.lft.to/lastmile_qr_scan", "android": "https://dc.lft.to/lastmile_qr_scan"}, "fusion_lat": 0.0, "name": "504b3179557ef42813cb2767ac143ebe", "bike_id": "504b3179557ef42813cb2767ac143ebe", "is_disabled": 0, "type": "electric_bike", "lat": 38.96931683333333, "lon": -77.02620883333333, "is_reserved": 0, "fusion_lon": 0.0}, {"rental_uris": {"ios": "https://dc.lft.to/lastmile_qr_scan", "android": "https://dc.lft.to/lastmile_qr_scan"}, "fusion_lat": 0.0, "name": "e8e06e0a3563bd98d5d37ea312dc4e88", "bike_id": "e8e06e0a3563bd98d5d37ea312dc4e88", "is_disabled": 0, "type": "electric_scooter", "lat": 38.9069825, "lon": -77.05025533333334, "is_reserved": 0, "fusion_lon": 0.0}, {"rental_uris": {"ios": "https://dc.lft.to/lastmile_qr_scan", "android": "https://dc.lft.to/lastmile_qr_scan"}, "fusion_lat": 0.0, "name": "805a4c761e253e4b6592a3b352ec30c9", "bike_id": "805a4c761e253e4b6592a3b352ec30c9", "is_disabled": 0, "type": "electric_scooter", "lat": 38.916968833333335, "lon": -77.03525666666667, "is_reserved": 0, "fusion_lon": 0.0}, {"rental_uris": {"ios": "https://dc.lft.to/lastmile_qr_scan", "android": "https://dc.lft.to/lastmile_qr_scan"}, "fusion_lat": 0.0, "name": "d0e1163a20fc5234e0fa93d0733f7fa3", "bike_id": "d0e1163a20fc5234e0fa93d0733f7fa3", "is_disabled": 0, "type": "electric_scooter", "lat": 38.9065765, "lon": -77.03898316666667, "is_reserved": 0, "fusion_lon": 0.0}, {"rental_uris": {"ios": "https://dc.lft.to/lastmile_qr_scan", "android": "https://dc.lft.to/lastmile_qr_scan"}, "fusion_lat": 0.0, "name": "38c21d4505e5a35970987bb9326a08bc", "bike_id": "38c21d4505e5a35970987bb9326a08bc", "is_disabled": 0, "type": "electric_scooter", "lat": 38.876308, "lon": -76.96517716666666, "is_reserved": 0, "fusion_lon": 0.0}, {"rental_uris": {"ios": "https://dc.lft.to/lastmile_qr_scan", "android": "https://dc.lft.to/lastmile_qr_scan"}, "fusion_lat": 0.0, "name": "4abcdea2d2a01046c74159dcac6097e3", "bike_id": "4abcdea2d2a01046c74159dcac6097e3", "is_disabled": 0, "type": "electric_scooter", "lat": 38.90324616666667, "lon": -77.03453483333334, "is_reserved": 0, "fusion_lon": 0.0}, {"rental_uris": {"ios": "https://dc.lft.to/lastmile_qr_scan", "android": "https://dc.lft.to/lastmile_qr_scan"}, "fusion_lat": 0.0, "name": "78f234503b5f6097de5c608cefdd2877", "bike_id": "78f234503b5f6097de5c608cefdd2877", "is_disabled": 0, "type": "electric_scooter", "lat": 38.918675, "lon": -77.046026, "is_reserved": 0, "fusion_lon": 0.0}, {"rental_uris": {"ios": "https://dc.lft.to/lastmile_qr_scan", "android": "https://dc.lft.to/lastmile_qr_scan"}, "fusion_lat": 0.0, "name": "400eabf408cb87c0b680698ea51a36fe", "bike_id": "400eabf408cb87c0b680698ea51a36fe", "is_disabled": 0, "type": "electric_scooter", "lat": 38.91919016666667, "lon": -77.03173866666667, "is_reserved": 0, "fusion_lon": 0.0}, {"rental_uris": {"ios": "https://dc.lft.to/lastmile_qr_scan", "android": "https://dc.lft.to/lastmile_qr_scan"}, "fusion_lat": 0.0, "name": "ea6617baa57ab55de76a2af162d690c7", "bike_id": "ea6617baa57ab55de76a2af162d690c7", "is_disabled": 0, "type": "electric_scooter", "lat": 38.88429133333333, "lon": -76.95754216666667, "is_reserved": 0, "fusion_lon": 0.0}, {"rental_uris": {"ios": "https://dc.lft.to/lastmile_qr_scan", "android": "https://dc.lft.to/lastmile_qr_scan"}, "fusion_lat": 0.0, "name": "e374022d058dab7c843a75b32ed38ca6", "bike_id": "e374022d058dab7c843a75b32ed38ca6", "is_disabled": 0, "type": "electric_scooter", "lat": 38.90528716666667, "lon": -77.059353, "is_reserved": 0, "fusion_lon": 0.0}, {"rental_uris": {"ios": "https://dc.lft.to/lastmile_qr_scan", "android": "https://dc.lft.to/lastmile_qr_scan"}, "fusion_lat": 0.0, "name": "8558f2260508fc2c366b630c8ffdc4bd", "bike_id": "8558f2260508fc2c366b630c8ffdc4bd", "is_disabled": 0, "type": "electric_scooter", "lat": 38.91988883333333, "lon": -77.03262883333333, "is_reserved": 0, "fusion_lon": 0.0}, {"rental_uris": {"ios": "https://dc.lft.to/lastmile_qr_scan", "android": "https://dc.lft.to/lastmile_qr_scan"}, "fusion_lat": 0.0, "name": "fe28a0b7433e7e6313b77c75cde2822d", "bike_id": "fe28a0b7433e7e6313b77c75cde2822d", "is_disabled": 0, "type": "electric_scooter", "lat": 38.9046355, "lon": -77.04488933333333, "is_reserved": 0, "fusion_lon": 0.0}, {"rental_uris": {"ios": "https://dc.lft.to/lastmile_qr_scan", "android": "https://dc.lft.to/lastmile_qr_scan"}, "fusion_lat": 0.0, "name": "a1744de5209e0d78f21396d9008c6b02", "bike_id": "a1744de5209e0d78f21396d9008c6b02", "is_disabled": 0, "type": "electric_scooter", "lat": 38.8930205, "lon": -77.021803, "is_reserved": 0, "fusion_lon": 0.0}, {"rental_uris": {"ios": "https://dc.lft.to/lastmile_qr_scan", "android": "https://dc.lft.to/lastmile_qr_scan"}, "fusion_lat": 0.0, "name": "cbe018dccec85eed183285e35a304b05", "bike_id": "cbe018dccec85eed183285e35a304b05", "is_disabled": 0, "type": "electric_scooter", "lat": 38.90079983333333, "lon": -77.04909866666667, "is_reserved": 0, "fusion_lon": 0.0}, {"rental_uris": {"ios": "https://dc.lft.to/lastmile_qr_scan", "android": "https://dc.lft.to/lastmile_qr_scan"}, "fusion_lat": 0.0, "name": "2135bc3173ba899d9764eb434d5a185c", "bike_id": "2135bc3173ba899d9764eb434d5a185c", "is_disabled": 0, "type": "electric_scooter", "lat": 38.924821, "lon": -77.02719316666666, "is_reserved": 0, "fusion_lon": 0.0}, {"rental_uris": {"ios": "https://dc.lft.to/lastmile_qr_scan", "android": "https://dc.lft.to/lastmile_qr_scan"}, "fusion_lat": 0.0, "name": "a1cebc69494b2b6907216ebba5577851", "bike_id": "a1cebc69494b2b6907216ebba5577851", "is_disabled": 0, "type": "electric_scooter", "lat": 38.898426, "lon": -76.94637783333333, "is_reserved": 0, "fusion_lon": 0.0}, {"rental_uris": {"ios": "https://dc.lft.to/lastmile_qr_scan", "android": "https://dc.lft.to/lastmile_qr_scan"}, "fusion_lat": 0.0, "name": "82fab3d2ce74fb1d9354e724b4ffc3f8", "bike_id": "82fab3d2ce74fb1d9354e724b4ffc3f8", "is_disabled": 0, "type": "electric_scooter", "lat": 38.924643, "lon": -77.05235983333333, "is_reserved": 0, "fusion_lon": 0.0}, {"rental_uris": {"ios": "https://dc.lft.to/lastmile_qr_scan", "android": "https://dc.lft.to/lastmile_qr_scan"}, "fusion_lat": 0.0, "name": "009dfbe11576c7f9123fabcfb004ff86", "bike_id": "009dfbe11576c7f9123fabcfb004ff86", "is_disabled": 0, "type": "electric_scooter", "lat": 38.9046085, "lon": -77.02690583333333, "is_reserved": 0, "fusion_lon": 0.0}, {"rental_uris": {"ios": "https://dc.lft.to/lastmile_qr_scan", "android": "https://dc.lft.to/lastmile_qr_scan"}, "fusion_lat": 0.0, "name": "402a13fbaf959556e901dfe0c7e63e1b", "bike_id": "402a13fbaf959556e901dfe0c7e63e1b", "is_disabled": 0, "type": "electric_scooter", "lat": 38.907778666666665, "lon": -76.98007066666666, "is_reserved": 0, "fusion_lon": 0.0}, {"rental_uris": {"ios": "https://dc.lft.to/lastmile_qr_scan", "android": "https://dc.lft.to/lastmile_qr_scan"}, "fusion_lat": 0.0, "name": "396e6e60f22395205431a7677de1cbd7", "bike_id": "396e6e60f22395205431a7677de1cbd7", "is_disabled": 0, "type": "electric_scooter", "lat": 38.862446166666665, "lon": -76.994953, "is_reserved": 0, "fusion_lon": 0.0}, {"rental_uris": {"ios": "https://dc.lft.to/lastmile_qr_scan", "android": "https://dc.lft.to/lastmile_qr_scan"}, "fusion_lat": 0.0, "name": "024549ff6142a6e5f51363d492735b99", "bike_id": "024549ff6142a6e5f51363d492735b99", "is_disabled": 0, "type": "electric_scooter", "lat": 38.90014566666667, "lon": -77.04308266666666, "is_reserved": 0, "fusion_lon": 0.0}, {"rental_uris": {"ios": "https://dc.lft.to/lastmile_qr_scan", "android": "https://dc.lft.to/lastmile_qr_scan"}, "fusion_lat": 0.0, "name": "ed7c47520b334df8d6021fd56f5cab90", "bike_id": "ed7c47520b334df8d6021fd56f5cab90", "is_disabled": 0, "type": "electric_scooter", "lat": 38.892247166666664, "lon": -77.04328316666667, "is_reserved": 0, "fusion_lon": 0.0}, {"rental_uris": {"ios": "https://dc.lft.to/lastmile_qr_scan", "android": "https://dc.lft.to/lastmile_qr_scan"}, "fusion_lat": 0.0, "name": "6f3041ed2e29af01d321ee7998c7b669", "bike_id": "6f3041ed2e29af01d321ee7998c7b669", "is_disabled": 0, "type": "electric_scooter", "lat": 38.8922625, "lon": -77.03981366666666, "is_reserved": 0, "fusion_lon": 0.0}, {"rental_uris": {"ios": "https://dc.lft.to/lastmile_qr_scan", "android": "https://dc.lft.to/lastmile_qr_scan"}, "fusion_lat": 0.0, "name": "caa95d9799c38ff04f956fdaaa6bf26e", "bike_id": "caa95d9799c38ff04f956fdaaa6bf26e", "is_disabled": 0, "type": "electric_scooter", "lat": 38.90149316666667, "lon": -77.003494, "is_reserved": 0, "fusion_lon": 0.0}, {"rental_uris": {"ios": "https://dc.lft.to/lastmile_qr_scan", "android": "https://dc.lft.to/lastmile_qr_scan"}, "fusion_lat": 0.0, "name": "946c68844259fce047e466e7f68b1fe1", "bike_id": "946c68844259fce047e466e7f68b1fe1", "is_disabled": 0, "type": "electric_scooter", "lat": 38.90980016666666, "lon": -77.03226716666667, "is_reserved": 0, "fusion_lon": 0.0}, {"rental_uris": {"ios": "https://dc.lft.to/lastmile_qr_scan", "android": "https://dc.lft.to/lastmile_qr_scan"}, "fusion_lat": 0.0, "name": "6feef890f76194d893302497a806fbf6", "bike_id": "6feef890f76194d893302497a806fbf6", "is_disabled": 0, "type": "electric_scooter", "lat": 38.89226516666667, "lon": -77.0432585, "is_reserved": 0, "fusion_lon": 0.0}, {"rental_uris": {"ios": "https://dc.lft.to/lastmile_qr_scan", "android": "https://dc.lft.to/lastmile_qr_scan"}, "fusion_lat": 0.0, "name": "050871409ecf2540d4b110bac7ef12c9", "bike_id": "050871409ecf2540d4b110bac7ef12c9", "is_disabled": 0, "type": "electric_bike", "lat": 38.9178995, "lon": -76.971879, "is_reserved": 0, "fusion_lon": 0.0}, {"rental_uris": {"ios": "https://dc.lft.to/lastmile_qr_scan", "android": "https://dc.lft.to/lastmile_qr_scan"}, "fusion_lat": 0.0, "name": "ac87c51f5b0ddd3bf430a6f91f47b7ac", "bike_id": "ac87c51f5b0ddd3bf430a6f91f47b7ac", "is_disabled": 0, "type": "electric_scooter", "lat": 38.9096735, "lon": -77.0337885, "is_reserved": 0, "fusion_lon": 0.0}, {"rental_uris": {"ios": "https://dc.lft.to/lastmile_qr_scan", "android": "https://dc.lft.to/lastmile_qr_scan"}, "fusion_lat": 0.0, "name": "43e20f43af2a25aa9cf2020c4e75420e", "bike_id": "43e20f43af2a25aa9cf2020c4e75420e", "is_disabled": 0, "type": "electric_scooter", "lat": 38.910025, "lon": -77.04008633333333, "is_reserved": 0, "fusion_lon": 0.0}, {"rental_uris": {"ios": "https://dc.lft.to/lastmile_qr_scan", "android": "https://dc.lft.to/lastmile_qr_scan"}, "fusion_lat": 0.0, "name": "36df8d2d2bd31fbe81b93e7ef19e0dc5", "bike_id": "36df8d2d2bd31fbe81b93e7ef19e0dc5", "is_disabled": 0, "type": "electric_scooter", "lat": 38.90561966666667, "lon": -77.0397465, "is_reserved": 0, "fusion_lon": 0.0}, {"rental_uris": {"ios": "https://dc.lft.to/lastmile_qr_scan", "android": "https://dc.lft.to/lastmile_qr_scan"}, "fusion_lat": 0.0, "name": "bd974580d982c355f1988da93bba1733", "bike_id": "bd974580d982c355f1988da93bba1733", "is_disabled": 0, "type": "electric_bike", "lat": 38.917904, "lon": -76.97178783333334, "is_reserved": 0, "fusion_lon": 0.0}, {"rental_uris": {"ios": "https://dc.lft.to/lastmile_qr_scan", "android": "https://dc.lft.to/lastmile_qr_scan"}, "fusion_lat": 0.0, "name": "6db6969371c1ed8e44d9c3b74b384bb9", "bike_id": "6db6969371c1ed8e44d9c3b74b384bb9", "is_disabled": 0, "type": "electric_scooter", "lat": 38.86540883333333, "lon": -76.9870415, "is_reserved": 0, "fusion_lon": 0.0}, {"rental_uris": {"ios": "https://dc.lft.to/lastmile_qr_scan", "android": "https://dc.lft.to/lastmile_qr_scan"}, "fusion_lat": 0.0, "name": "419c0d612c10d4a377307554876b12ce", "bike_id": "419c0d612c10d4a377307554876b12ce", "is_disabled": 0, "type": "electric_scooter", "lat": 38.905225, "lon": -77.05018383333334, "is_reserved": 0, "fusion_lon": 0.0}, {"rental_uris": {"ios": "https://dc.lft.to/lastmile_qr_scan", "android": "https://dc.lft.to/lastmile_qr_scan"}, "fusion_lat": 0.0, "name": "0f473d80130c7abe74664d83e3add0aa", "bike_id": "0f473d80130c7abe74664d83e3add0aa", "is_disabled": 0, "type": "electric_scooter", "lat": 38.923859, "lon": -77.0267995, "is_reserved": 0, "fusion_lon": 0.0}, {"rental_uris": {"ios": "https://dc.lft.to/lastmile_qr_scan", "android": "https://dc.lft.to/lastmile_qr_scan"}, "fusion_lat": 0.0, "name": "9bf1f55d85e53fd6f925b447cfcbd847", "bike_id": "9bf1f55d85e53fd6f925b447cfcbd847", "is_disabled": 0, "type": "electric_scooter", "lat": 38.917072166666664, "lon": -77.03471383333333, "is_reserved": 0, "fusion_lon": 0.0}, {"rental_uris": {"ios": "https://dc.lft.to/lastmile_qr_scan", "android": "https://dc.lft.to/lastmile_qr_scan"}, "fusion_lat": 0.0, "name": "f6af48d78e4a9a22a892abf1b6ba2215", "bike_id": "f6af48d78e4a9a22a892abf1b6ba2215", "is_disabled": 0, "type": "electric_bike", "lat": 38.86169183333333, "lon": -77.1314755, "is_reserved": 0, "fusion_lon": 0.0}, {"rental_uris": {"ios": "https://dc.lft.to/lastmile_qr_scan", "android": "https://dc.lft.to/lastmile_qr_scan"}, "fusion_lat": 0.0, "name": "b1bd29e524890ee612624cd5df4080d9", "bike_id": "b1bd29e524890ee612624cd5df4080d9", "is_disabled": 0, "type": "electric_scooter", "lat": 38.88529, "lon": -77.011339, "is_reserved": 0, "fusion_lon": 0.0}, {"rental_uris": {"ios": "https://dc.lft.to/lastmile_qr_scan", "android": "https://dc.lft.to/lastmile_qr_scan"}, "fusion_lat": 0.0, "name": "aa501b5a4a77f511937275300090b03d", "bike_id": "aa501b5a4a77f511937275300090b03d", "is_disabled": 0, "type": "electric_scooter", "lat": 38.941863833333336, "lon": -77.024909, "is_reserved": 0, "fusion_lon": 0.0}, {"rental_uris": {"ios": "https://dc.lft.to/lastmile_qr_scan", "android": "https://dc.lft.to/lastmile_qr_scan"}, "fusion_lat": 0.0, "name": "8a3962aa927fd579071bcfa9a48daffe", "bike_id": "8a3962aa927fd579071bcfa9a48daffe", "is_disabled": 0, "type": "electric_scooter", "lat": 38.91619266666667, "lon": -77.041574, "is_reserved": 0, "fusion_lon": 0.0}, {"rental_uris": {"ios": "https://dc.lft.to/lastmile_qr_scan", "android": "https://dc.lft.to/lastmile_qr_scan"}, "fusion_lat": 0.0, "name": "b49db43d2ec034ecce6225b2a5d0a67c", "bike_id": "b49db43d2ec034ecce6225b2a5d0a67c", "is_disabled": 0, "type": "electric_scooter", "lat": 38.93663, "lon": -77.05497733333333, "is_reserved": 0, "fusion_lon": 0.0}, {"rental_uris": {"ios": "https://dc.lft.to/lastmile_qr_scan", "android": "https://dc.lft.to/lastmile_qr_scan"}, "fusion_lat": 0.0, "name": "6b231543471667c296143a96c3653c05", "bike_id": "6b231543471667c296143a96c3653c05", "is_disabled": 0, "type": "electric_scooter", "lat": 38.880126, "lon": -77.0248075, "is_reserved": 0, "fusion_lon": 0.0}, {"rental_uris": {"ios": "https://dc.lft.to/lastmile_qr_scan", "android": "https://dc.lft.to/lastmile_qr_scan"}, "fusion_lat": 0.0, "name": "ff6b2badd656f18eefe45c190590a6c3", "bike_id": "ff6b2badd656f18eefe45c190590a6c3", "is_disabled": 0, "type": "electric_bike", "lat": 38.90999883333333, "lon": -77.06683166666667, "is_reserved": 0, "fusion_lon": 0.0}, {"rental_uris": {"ios": "https://dc.lft.to/lastmile_qr_scan", "android": "https://dc.lft.to/lastmile_qr_scan"}, "fusion_lat": 0.0, "name": "5982dc1c177c343a3bee5b47f412732a", "bike_id": "5982dc1c177c343a3bee5b47f412732a", "is_disabled": 0, "type": "electric_scooter", "lat": 38.901433, "lon": -77.04493783333334, "is_reserved": 0, "fusion_lon": 0.0}, {"rental_uris": {"ios": "https://dc.lft.to/lastmile_qr_scan", "android": "https://dc.lft.to/lastmile_qr_scan"}, "fusion_lat": 0.0, "name": "8eab789fb1203ae2a409ee87de1b6570", "bike_id": "8eab789fb1203ae2a409ee87de1b6570", "is_disabled": 0, "type": "electric_scooter", "lat": 38.91739, "lon": -77.02119366666666, "is_reserved": 0, "fusion_lon": 0.0}, {"rental_uris": {"ios": "https://dc.lft.to/lastmile_qr_scan", "android": "https://dc.lft.to/lastmile_qr_scan"}, "fusion_lat": 0.0, "name": "a793fa438967b8bfbaa3eb48c2f64a1b", "bike_id": "a793fa438967b8bfbaa3eb48c2f64a1b", "is_disabled": 0, "type": "electric_scooter", "lat": 38.891973166666666, "lon": -77.0241405, "is_reserved": 0, "fusion_lon": 0.0}, {"rental_uris": {"ios": "https://dc.lft.to/lastmile_qr_scan", "android": "https://dc.lft.to/lastmile_qr_scan"}, "fusion_lat": 0.0, "name": "d55059d59a9e5208e55d0e36dc9d7943", "bike_id": "d55059d59a9e5208e55d0e36dc9d7943", "is_disabled": 0, "type": "electric_scooter", "lat": 38.89478116666667, "lon": -77.03109983333333, "is_reserved": 0, "fusion_lon": 0.0}, {"rental_uris": {"ios": "https://dc.lft.to/lastmile_qr_scan", "android": "https://dc.lft.to/lastmile_qr_scan"}, "fusion_lat": 0.0, "name": "c97e55d03322c68eb1bdda35e3ec08ec", "bike_id": "c97e55d03322c68eb1bdda35e3ec08ec", "is_disabled": 0, "type": "electric_bike", "lat": 38.8625345, "lon": -77.08843666666667, "is_reserved": 0, "fusion_lon": 0.0}, {"rental_uris": {"ios": "https://dc.lft.to/lastmile_qr_scan", "android": "https://dc.lft.to/lastmile_qr_scan"}, "fusion_lat": 0.0, "name": "b62f3456777a742aea60ad79aecb3848", "bike_id": "b62f3456777a742aea60ad79aecb3848", "is_disabled": 0, "type": "electric_scooter", "lat": 38.885277, "lon": -77.01134233333333, "is_reserved": 0, "fusion_lon": 0.0}, {"rental_uris": {"ios": "https://dc.lft.to/lastmile_qr_scan", "android": "https://dc.lft.to/lastmile_qr_scan"}, "fusion_lat": 0.0, "name": "17b31b6b2bdf91130e4c986f16fdf9f3", "bike_id": "17b31b6b2bdf91130e4c986f16fdf9f3", "is_disabled": 0, "type": "electric_bike", "lat": 38.9560035, "lon": -77.010053, "is_reserved": 0, "fusion_lon": 0.0}, {"rental_uris": {"ios": "https://dc.lft.to/lastmile_qr_scan", "android": "https://dc.lft.to/lastmile_qr_scan"}, "fusion_lat": 0.0, "name": "13623f4c8ca0b2ade0c8a6f0cbac07a9", "bike_id": "13623f4c8ca0b2ade0c8a6f0cbac07a9", "is_disabled": 0, "type": "electric_scooter", "lat": 38.902593333333336, "lon": -76.97708116666666, "is_reserved": 0, "fusion_lon": 0.0}, {"rental_uris": {"ios": "https://dc.lft.to/lastmile_qr_scan", "android": "https://dc.lft.to/lastmile_qr_scan"}, "fusion_lat": 0.0, "name": "29fa31cee2b0cc32ab1b93b553db9904", "bike_id": "29fa31cee2b0cc32ab1b93b553db9904", "is_disabled": 0, "type": "electric_scooter", "lat": 38.919553, "lon": -76.98078616666666, "is_reserved": 0, "fusion_lon": 0.0}, {"rental_uris": {"ios": "https://dc.lft.to/lastmile_qr_scan", "android": "https://dc.lft.to/lastmile_qr_scan"}, "fusion_lat": 0.0, "name": "e7587f41e1aea9473205508eed26f8d9", "bike_id": "e7587f41e1aea9473205508eed26f8d9", "is_disabled": 0, "type": "electric_scooter", "lat": 38.930836666666664, "lon": -77.03418816666667, "is_reserved": 0, "fusion_lon": 0.0}, {"rental_uris": {"ios": "https://dc.lft.to/lastmile_qr_scan", "android": "https://dc.lft.to/lastmile_qr_scan"}, "fusion_lat": 0.0, "name": "1801bbd3d559c9012ff8775719f4c297", "bike_id": "1801bbd3d559c9012ff8775719f4c297", "is_disabled": 0, "type": "electric_scooter", "lat": 38.90253033333333, "lon": -77.03880133333334, "is_reserved": 0, "fusion_lon": 0.0}, {"rental_uris": {"ios": "https://dc.lft.to/lastmile_qr_scan", "android": "https://dc.lft.to/lastmile_qr_scan"}, "fusion_lat": 0.0, "name": "11fb50c8c4807f2e38068195051ccb3f", "bike_id": "11fb50c8c4807f2e38068195051ccb3f", "is_disabled": 0, "type": "electric_scooter", "lat": 38.95967666666667, "lon": -77.00857533333334, "is_reserved": 0, "fusion_lon": 0.0}, {"rental_uris": {"ios": "https://dc.lft.to/lastmile_qr_scan", "android": "https://dc.lft.to/lastmile_qr_scan"}, "fusion_lat": 0.0, "name": "5a5e2c63b779683c1accf9ce3f998b8c", "bike_id": "5a5e2c63b779683c1accf9ce3f998b8c", "is_disabled": 0, "type": "electric_scooter", "lat": 38.923243166666666, "lon": -77.03681583333334, "is_reserved": 0, "fusion_lon": 0.0}, {"rental_uris": {"ios": "https://dc.lft.to/lastmile_qr_scan", "android": "https://dc.lft.to/lastmile_qr_scan"}, "fusion_lat": 0.0, "name": "d433372cee114d845d057923b85795b6", "bike_id": "d433372cee114d845d057923b85795b6", "is_disabled": 0, "type": "electric_bike", "lat": 38.8720885, "lon": -77.01177883333334, "is_reserved": 0, "fusion_lon": 0.0}, {"rental_uris": {"ios": "https://dc.lft.to/lastmile_qr_scan", "android": "https://dc.lft.to/lastmile_qr_scan"},