{"data": {"bikes": [{"rental_uris": {"android": "https://dc.lft.to/lastmile_qr_scan", "ios": "https://dc.lft.to/lastmile_qr_scan"}, "fusion_lat": 0.0, "is_reserved": 0, "lat": 38.949772333333335, "name": "2fa7449fe94d8beba2e90cba6e2fc64e", "bike_id": "2fa7449fe94d8beba2e90cba6e2fc64e", "is_disabled": 0, "fusion_lon": 0.0, "type": "electric_bike", "lon": -77.066387}, {"rental_uris": {"android": "https://dc.lft.to/lastmile_qr_scan", "ios": "https://dc.lft.to/lastmile_qr_scan"}, "fusion_lat": 0.0, "is_reserved": 0, "lat": 38.89875516666667, "name": "03dd578539dc217ac0f56f10b03d5a46", "bike_id": "03dd578539dc217ac0f56f10b03d5a46", "is_disabled": 0, "fusion_lon": 0.0, "type": "electric_scooter", "lon": -77.04565783333334}, {"rental_uris": {"android": "https://dc.lft.to/lastmile_qr_scan", "ios": "https://dc.lft.to/lastmile_qr_scan"}, "fusion_lat": 0.0, "is_reserved": 0, "lat": 38.938525166666665, "name": "bc2e846cc659735a2fb72003543fe3f3", "bike_id": "bc2e846cc659735a2fb72003543fe3f3", "is_disabled": 0, "fusion_lon": 0.0, "type": "electric_scooter", "lon": -77.0247865}, {"rental_uris": {"android": "https://dc.lft.to/lastmile_qr_scan", "ios": "https://dc.lft.to/lastmile_qr_scan"}, "fusion_lat": 0.0, "is_reserved": 0, "lat": 38.885285333333336, "name": "e1b98b61de44bc5b6ebe86fff6a8fee7", "bike_id": "e1b98b61de44bc5b6ebe86fff6a8fee7", "is_disabled": 0, "fusion_lon": 0.0, "type": "electric_scooter", "lon": -76.980576}, {"rental_uris": {"android": "https://dc.lft.to/lastmile_qr_scan", "ios": "https://dc.lft.to/lastmile_qr_scan"}, "fusion_lat": 0.0, "is_reserved": 0, "lat": 38.86374083333333, "name": "66e1a075b6ed0581de7a85d4e4599145", "bike_id": "66e1a075b6ed0581de7a85d4e4599145", "is_disabled": 0, "fusion_lon": 0.0, "type": "electric_scooter", "lon": -76.99062066666667}, {"rental_uris": {"android": "https://dc.lft.to/lastmile_qr_scan", "ios": "https://dc.lft.to/lastmile_qr_scan"}, "fusion_lat": 0.0, "is_reserved": 0, "lat": 38.87661516666667, "name": "b44ced2e85e388a56023e2c8f375d2a7", "bike_id": "b44ced2e85e388a56023e2c8f375d2a7", "is_disabled": 0, "fusion_lon": 0.0, "type": "electric_scooter", "lon": -77.0026055}, {"rental_uris": {"android": "https://dc.lft.to/lastmile_qr_scan", "ios": "https://dc.lft.to/lastmile_qr_scan"}, "fusion_lat": 0.0, "is_reserved": 0, "lat": 38.9021385, "name": "bd3445c76265846f4ad19ce47fc1b2be", "bike_id": "bd3445c76265846f4ad19ce47fc1b2be", "is_disabled": 0, "fusion_lon": 0.0, "type": "electric_scooter", "lon": -77.02091066666667}, {"rental_uris": {"android": "https://dc.lft.to/lastmile_qr_scan", "ios": "https://dc.lft.to/lastmile_qr_scan"}, "fusion_lat": 0.0, "is_reserved": 0, "lat": 38.91964933333333, "name": "6e49a183899f3385fe9989dc45b73efd", "bike_id": "6e49a183899f3385fe9989dc45b73efd", "is_disabled": 0, "fusion_lon": 0.0, "type": "electric_scooter", "lon": -77.04358033333334}, {"rental_uris": {"android": "https://dc.lft.to/lastmile_qr_scan", "ios": "https://dc.lft.to/lastmile_qr_scan"}, "fusion_lat": 0.0, "is_reserved": 0, "lat": 38.92480666666667, "name": "f9efb4a4cbf94ae81ee1698735213b1b", "bike_id": "f9efb4a4cbf94ae81ee1698735213b1b", "is_disabled": 0, "fusion_lon": 0.0, "type": "electric_scooter", "lon": -77.0350125}, {"rental_uris": {"android": "https://dc.lft.to/lastmile_qr_scan", "ios": "https://dc.lft.to/lastmile_qr_scan"}, "fusion_lat": 0.0, "is_reserved": 0, "lat": 38.916605833333335, "name": "e8be4820882cadef20d9f4af0cc0918f", "bike_id": "e8be4820882cadef20d9f4af0cc0918f", "is_disabled": 0, "fusion_lon": 0.0, "type": "electric_scooter", "lon": -77.02467666666666}, {"rental_uris": {"android": "https://dc.lft.to/lastmile_qr_scan", "ios": "https://dc.lft.to/lastmile_qr_scan"}, "fusion_lat": 0.0, "is_reserved": 0, "lat": 38.86720116666667, "name": "5275cdaca1d6ace15e58b9b8b96c89d5", "bike_id": "5275cdaca1d6ace15e58b9b8b96c89d5", "is_disabled": 0, "fusion_lon": 0.0, "type": "electric_scooter", "lon": -76.9807445}, {"rental_uris": {"android": "https://dc.lft.to/lastmile_qr_scan", "ios": "https://dc.lft.to/lastmile_qr_scan"}, "fusion_lat": 0.0, "is_reserved": 0, "lat": 38.927594666666664, "name": "38f2d37a052c68fdbb0e9ab5f0223707", "bike_id": "38f2d37a052c68fdbb0e9ab5f0223707", "is_disabled": 0, "fusion_lon": 0.0, "type": "electric_scooter", "lon": -77.0527535}, {"rental_uris": {"android": "https://dc.lft.to/lastmile_qr_scan", "ios": "https://dc.lft.to/lastmile_qr_scan"}, "fusion_lat": 0.0, "is_reserved": 0, "lat": 38.875620166666664, "name": "9bf702635eb4601e59e0b495c1207afe", "bike_id": "9bf702635eb4601e59e0b495c1207afe", "is_disabled": 0, "fusion_lon": 0.0, "type": "electric_scooter", "lon": -77.00603516666666}, {"rental_uris": {"android": "https://dc.lft.to/lastmile_qr_scan", "ios": "https://dc.lft.to/lastmile_qr_scan"}, "fusion_lat": 0.0, "is_reserved": 0, "lat": 38.902356, "name": "4d96b79ea0c83ec5543333edae0c3fbb", "bike_id": "4d96b79ea0c83ec5543333edae0c3fbb", "is_disabled": 0, "fusion_lon": 0.0, "type": "electric_scooter", "lon": -77.0512325}, {"rental_uris": {"android": "https://dc.lft.to/lastmile_qr_scan", "ios": "https://dc.lft.to/lastmile_qr_scan"}, "fusion_lat": 0.0, "is_reserved": 0, "lat": 38.912311333333335, "name": "942b0f5edb3a13ddb169d3a6ba9ac75c", "bike_id": "942b0f5edb3a13ddb169d3a6ba9ac75c", "is_disabled": 0, "fusion_lon": 0.0, "type": "electric_scooter", "lon": -77.06920983333333}, {"rental_uris": {"android": "https://dc.lft.to/lastmile_qr_scan", "ios": "https://dc.lft.to/lastmile_qr_scan"}, "fusion_lat": 0.0, "is_reserved": 0, "lat": 38.91719483333333, "name": "d2b1786611bc4ed9330ea4dae9059c41", "bike_id": "d2b1786611bc4ed9330ea4dae9059c41", "is_disabled": 0, "fusion_lon": 0.0, "type": "electric_scooter", "lon": -77.04155416666667}, {"rental_uris": {"android": "https://dc.lft.to/lastmile_qr_scan", "ios": "https://dc.lft.to/lastmile_qr_scan"}, "fusion_lat": 0.0, "is_reserved": 0, "lat": 38.910438666666664, "name": "64203d5b7168dccd31e5339e6eadbe3b", "bike_id": "64203d5b7168dccd31e5339e6eadbe3b", "is_disabled": 0, "fusion_lon": 0.0, "type": "electric_scooter", "lon": -77.04100216666667}, {"rental_uris": {"android": "https://dc.lft.to/lastmile_qr_scan", "ios": "https://dc.lft.to/lastmile_qr_scan"}, "fusion_lat": 0.0, "is_reserved": 0, "lat": 38.89230833333333, "name": "76d622da7b980ac72ec3b289e4fbd45a", "bike_id": "76d622da7b980ac72ec3b289e4fbd45a", "is_disabled": 0, "fusion_lon": 0.0, "type": "electric_scooter", "lon": -77.0500305}, {"rental_uris": {"android": "https://dc.lft.to/lastmile_qr_scan", "ios": "https://dc.lft.to/lastmile_qr_scan"}, "fusion_lat": 0.0, "is_reserved": 0, "lat": 38.916920166666664, "name": "c2eed6c1d082add10e2ec8f793d4df7f", "bike_id": "c2eed6c1d082add10e2ec8f793d4df7f", "is_disabled": 0, "fusion_lon": 0.0, "type": "electric_scooter", "lon": -77.02988433333333}, {"rental_uris": {"android": "https://dc.lft.to/lastmile_qr_scan", "ios": "https://dc.lft.to/lastmile_qr_scan"}, "fusion_lat": 0.0, "is_reserved": 0, "lat": 38.915385, "name": "ea84293e61416e5653a3dd23ab4eca73", "bike_id": "ea84293e61416e5653a3dd23ab4eca73", "is_disabled": 0, "fusion_lon": 0.0, "type": "electric_scooter", "lon": -77.04444233333334}, {"rental_uris": {"android": "https://dc.lft.to/lastmile_qr_scan", "ios": "https://dc.lft.to/lastmile_qr_scan"}, "fusion_lat": 0.0, "is_reserved": 0, "lat": 38.955738, "name": "bbf9dcc8df877516767cd6638ec63989", "bike_id": "bbf9dcc8df877516767cd6638ec63989", "is_disabled": 0, "fusion_lon": 0.0, "type": "electric_scooter", "lon": -77.07012883333333}, {"rental_uris": {"android": "https://dc.lft.to/lastmile_qr_scan", "ios": "https://dc.lft.to/lastmile_qr_scan"}, "fusion_lat": 0.0, "is_reserved": 0, "lat": 38.90986433333333, "name": "65a021e0a6a86ed19cf822610db3e913", "bike_id": "65a021e0a6a86ed19cf822610db3e913", "is_disabled": 0, "fusion_lon": 0.0, "type": "electric_scooter", "lon": -77.02396966666667}, {"rental_uris": {"android": "https://dc.lft.to/lastmile_qr_scan", "ios": "https://dc.lft.to/lastmile_qr_scan"}, "fusion_lat": 0.0, "is_reserved": 0, "lat": 38.912688833333334, "name": "c0b167bd20d6d46eb2d26a1c8bb224d2", "bike_id": "c0b167bd20d6d46eb2d26a1c8bb224d2", "is_disabled": 0, "fusion_lon": 0.0, "type": "electric_scooter", "lon": -77.022137}, {"rental_uris": {"android": "https://dc.lft.to/lastmile_qr_scan", "ios": "https://dc.lft.to/lastmile_qr_scan"}, "fusion_lat": 0.0, "is_reserved": 0, "lat": 38.903898166666664, "name": "787326ecc90c8d200b2a62d11378c165", "bike_id": "787326ecc90c8d200b2a62d11378c165", "is_disabled": 0, "fusion_lon": 0.0, "type": "electric_scooter", "lon": -77.03679566666666}, {"rental_uris": {"android": "https://dc.lft.to/lastmile_qr_scan", "ios": "https://dc.lft.to/lastmile_qr_scan"}, "fusion_lat": 0.0, "is_reserved": 0, "lat": 38.92792133333333, "name": "5dc05105c718c3648cafe29d017201e8", "bike_id": "5dc05105c718c3648cafe29d017201e8", "is_disabled": 0, "fusion_lon": 0.0, "type": "electric_scooter", "lon": -77.05333516666667}, {"rental_uris": {"android": "https://dc.lft.to/lastmile_qr_scan", "ios": "https://dc.lft.to/lastmile_qr_scan"}, "fusion_lat": 0.0, "is_reserved": 0, "lat": 38.904568166666664, "name": "a859468725772bfed6a4281a4565d7ac", "bike_id": "a859468725772bfed6a4281a4565d7ac", "is_disabled": 0, "fusion_lon": 0.0, "type": "electric_scooter", "lon": -77.04806366666666}, {"rental_uris": {"android": "https://dc.lft.to/lastmile_qr_scan", "ios": "https://dc.lft.to/lastmile_qr_scan"}, "fusion_lat": 0.0, "is_reserved": 0, "lat": 38.8868595, "name": "668baf3c814cf8050c4ed9d377212a27", "bike_id": "668baf3c814cf8050c4ed9d377212a27", "is_disabled": 0, "fusion_lon": 0.0, "type": "electric_scooter", "lon": -76.976341}, {"rental_uris": {"android": "https://dc.lft.to/lastmile_qr_scan", "ios": "https://dc.lft.to/lastmile_qr_scan"}, "fusion_lat": 0.0, "is_reserved": 0, "lat": 38.912729166666665, "name": "caa9ffd9decc24f801b118993cce21dc", "bike_id": "caa9ffd9decc24f801b118993cce21dc", "is_disabled": 0, "fusion_lon": 0.0, "type": "electric_scooter", "lon": -77.04506216666667}, {"rental_uris": {"android": "https://dc.lft.to/lastmile_qr_scan", "ios": "https://dc.lft.to/lastmile_qr_scan"}, "fusion_lat": 0.0, "is_reserved": 0, "lat": 38.931930333333334, "name": "ac2f5d5477f6f25c12d9a5d0e1856045", "bike_id": "ac2f5d5477f6f25c12d9a5d0e1856045", "is_disabled": 0, "fusion_lon": 0.0, "type": "electric_scooter", "lon": -77.02020283333333}, {"rental_uris": {"android": "https://dc.lft.to/lastmile_qr_scan", "ios": "https://dc.lft.to/lastmile_qr_scan"}, "fusion_lat": 0.0, "is_reserved": 0, "lat": 38.908576, "name": "8e77691f93a066bcc800f76a76c513f5", "bike_id": "8e77691f93a066bcc800f76a76c513f5", "is_disabled": 0, "fusion_lon": 0.0, "type": "electric_scooter", "lon": -76.99112883333333}, {"rental_uris": {"android": "https://dc.lft.to/lastmile_qr_scan", "ios": "https://dc.lft.to/lastmile_qr_scan"}, "fusion_lat": 0.0, "is_reserved": 0, "lat": 38.952122, "name": "871193e5e6166f6296568c4bc14e09e5", "bike_id": "871193e5e6166f6296568c4bc14e09e5", "is_disabled": 0, "fusion_lon": 0.0, "type": "electric_bike", "lon": -77.0174995}, {"rental_uris": {"android": "https://dc.lft.to/lastmile_qr_scan", "ios": "https://dc.lft.to/lastmile_qr_scan"}, "fusion_lat": 0.0, "is_reserved": 0, "lat": 38.89521116666667, "name": "5fe91f628ddb2a2edb443980dbd29de3", "bike_id": "5fe91f628ddb2a2edb443980dbd29de3", "is_disabled": 0, "fusion_lon": 0.0, "type": "electric_scooter", "lon": -76.99215616666666}, {"rental_uris": {"android": "https://dc.lft.to/lastmile_qr_scan", "ios": "https://dc.lft.to/lastmile_qr_scan"}, "fusion_lat": 0.0, "is_reserved": 0, "lat": 38.85708, "name": "a0966985da7c8bc9583d2a83ba11f646", "bike_id": "a0966985da7c8bc9583d2a83ba11f646", "is_disabled": 0, "fusion_lon": 0.0, "type": "electric_scooter", "lon": -76.982133}, {"rental_uris": {"android": "https://dc.lft.to/lastmile_qr_scan", "ios": "https://dc.lft.to/lastmile_qr_scan"}, "fusion_lat": 0.0, "is_reserved": 0, "lat": 38.91498833333333, "name": "51ee4463a862c7c4546ac563aca0e83d", "bike_id": "51ee4463a862c7c4546ac563aca0e83d", "is_disabled": 0, "fusion_lon": 0.0, "type": "electric_scooter", "lon": -77.03209466666667}, {"rental_uris": {"android": "https://dc.lft.to/lastmile_qr_scan", "ios": "https://dc.lft.to/lastmile_qr_scan"}, "fusion_lat": 0.0, "is_reserved": 0, "lat": 38.92295633333333, "name": "17fa505e5305d671c30b7fd00abcfd49", "bike_id": "17fa505e5305d671c30b7fd00abcfd49", "is_disabled": 0, "fusion_lon": 0.0, "type": "electric_scooter", "lon": -77.04146966666667}, {"rental_uris": {"android": "https://dc.lft.to/lastmile_qr_scan", "ios": "https://dc.lft.to/lastmile_qr_scan"}, "fusion_lat": 0.0, "is_reserved": 0, "lat": 38.941954333333335, "name": "c9c574097e0dcde28d65cfbbbc8d1d76", "bike_id": "c9c574097e0dcde28d65cfbbbc8d1d76", "is_disabled": 0, "fusion_lon": 0.0, "type": "electric_scooter", "lon": -77.02479233333334}, {"rental_uris": {"android": "https://dc.lft.to/lastmile_qr_scan", "ios": "https://dc.lft.to/lastmile_qr_scan"}, "fusion_lat": 0.0, "is_reserved": 0, "lat": 38.912160166666666, "name": "00bf4cc3bed3a60a4a01ba1d782b0da7", "bike_id": "00bf4cc3bed3a60a4a01ba1d782b0da7", "is_disabled": 0, "fusion_lon": 0.0, "type": "electric_scooter", "lon": -77.03198933333333}, {"rental_uris": {"android": "https://dc.lft.to/lastmile_qr_scan", "ios": "https://dc.lft.to/lastmile_qr_scan"}, "fusion_lat": 0.0, "is_reserved": 0, "lat": 38.9149175, "name": "5623e29884496a7fce78fb46e33dcb8c", "bike_id": "5623e29884496a7fce78fb46e33dcb8c", "is_disabled": 0, "fusion_lon": 0.0, "type": "electric_scooter", "lon": -77.02278416666667}, {"rental_uris": {"android": "https://dc.lft.to/lastmile_qr_scan", "ios": "https://dc.lft.to/lastmile_qr_scan"}, "fusion_lat": 0.0, "is_reserved": 0, "lat": 38.880766333333334, "name": "6e2886c6f1231bbc7f725af083153308", "bike_id": "6e2886c6f1231bbc7f725af083153308", "is_disabled": 0, "fusion_lon": 0.0, "type": "electric_scooter", "lon": -76.991657}, {"rental_uris": {"android": "https://dc.lft.to/lastmile_qr_scan", "ios": "https://dc.lft.to/lastmile_qr_scan"}, "fusion_lat": 0.0, "is_reserved": 0, "lat": 38.94152916666667, "name": "d8a839a2e1476e3013d53caddb290072", "bike_id": "d8a839a2e1476e3013d53caddb290072", "is_disabled": 0, "fusion_lon": 0.0, "type": "electric_scooter", "lon": -77.03282083333333}, {"rental_uris": {"android": "https://dc.lft.to/lastmile_qr_scan", "ios": "https://dc.lft.to/lastmile_qr_scan"}, "fusion_lat": 0.0, "is_reserved": 0, "lat": 38.93531183333333, "name": "c5e98d351f5fe5f670fdbf6c92048ec2", "bike_id": "c5e98d351f5fe5f670fdbf6c92048ec2", "is_disabled": 0, "fusion_lon": 0.0, "type": "electric_scooter", "lon": -77.02353283333333}, {"rental_uris": {"android": "https://dc.lft.to/lastmile_qr_scan", "ios": "https://dc.lft.to/lastmile_qr_scan"}, "fusion_lat": 0.0, "is_reserved": 0, "lat": 38.927255333333335, "name": "58b037bd10e5a281b8cb198b2e11891f", "bike_id": "58b037bd10e5a281b8cb198b2e11891f", "is_disabled": 0, "fusion_lon": 0.0, "type": "electric_scooter", "lon": -77.02279866666667}, {"rental_uris": {"android": "https://dc.lft.to/lastmile_qr_scan", "ios": "https://dc.lft.to/lastmile_qr_scan"}, "fusion_lat": 0.0, "is_reserved": 0, "lat": 38.86245516666666, "name": "842dda88f21c4b9fcc53663326caeb4f", "bike_id": "842dda88f21c4b9fcc53663326caeb4f", "is_disabled": 0, "fusion_lon": 0.0, "type": "electric_scooter", "lon": -76.9950385}, {"rental_uris": {"android": "https://dc.lft.to/lastmile_qr_scan", "ios": "https://dc.lft.to/lastmile_qr_scan"}, "fusion_lat": 0.0, "is_reserved": 0, "lat": 38.898442833333334, "name": "f2f7a1842dcd21716f5bc7dcf95f546f", "bike_id": "f2f7a1842dcd21716f5bc7dcf95f546f", "is_disabled": 0, "fusion_lon": 0.0, "type": "electric_scooter", "lon": -77.02824066666666}, {"rental_uris": {"android": "https://dc.lft.to/lastmile_qr_scan", "ios": "https://dc.lft.to/lastmile_qr_scan"}, "fusion_lat": 0.0, "is_reserved": 0, "lat": 38.91661766666667, "name": "3fe1034e9f197657bce8ad3dd97fbd27", "bike_id": "3fe1034e9f197657bce8ad3dd97fbd27", "is_disabled": 0, "fusion_lon": 0.0, "type": "electric_scooter", "lon": -77.02391666666666}, {"rental_uris": {"android": "https://dc.lft.to/lastmile_qr_scan", "ios": "https://dc.lft.to/lastmile_qr_scan"}, "fusion_lat": 0.0, "is_reserved": 0, "lat": 38.8756125, "name": "b139514f388ed92058b73cbc4b071493", "bike_id": "b139514f388ed92058b73cbc4b071493", "is_disabled": 0, "fusion_lon": 0.0, "type": "electric_scooter", "lon": -77.0059275}, {"rental_uris": {"android": "https://dc.lft.to/lastmile_qr_scan", "ios": "https://dc.lft.to/lastmile_qr_scan"}, "fusion_lat": 0.0, "is_reserved": 0, "lat": 38.919987, "name": "c88a8fa4a48c66e14dd181d4fa36b65c", "bike_id": "c88a8fa4a48c66e14dd181d4fa36b65c", "is_disabled": 0, "fusion_lon": 0.0, "type": "electric_scooter", "lon": -77.032211}, {"rental_uris": {"android": "https://dc.lft.to/lastmile_qr_scan", "ios": "https://dc.lft.to/lastmile_qr_scan"}, "fusion_lat": 0.0, "is_reserved": 0, "lat": 38.91298883333333, "name": "8c1bac0eb329b7710f007a4078b36708", "bike_id": "8c1bac0eb329b7710f007a4078b36708", "is_disabled": 0, "fusion_lon": 0.0, "type": "electric_scooter", "lon": -76.985476}, {"rental_uris": {"android": "https://dc.lft.to/lastmile_qr_scan", "ios": "https://dc.lft.to/lastmile_qr_scan"}, "fusion_lat": 0.0, "is_reserved": 0, "lat": 38.924702, "name": "bd65dbb00f8db3e4fb44d0c0352d1cc5", "bike_id": "bd65dbb00f8db3e4fb44d0c0352d1cc5", "is_disabled": 0, "fusion_lon": 0.0, "type": "electric_scooter", "lon": -77.02216316666667}, {"rental_uris": {"android": "https://dc.lft.to/lastmile_qr_scan", "ios": "https://dc.lft.to/lastmile_qr_scan"}, "fusion_lat": 0.0, "is_reserved": 0, "lat": 38.95215016666667, "name": "57626d66f5648df2e25b6603ef524af0", "bike_id": "57626d66f5648df2e25b6603ef524af0", "is_disabled": 0, "fusion_lon": 0.0, "type": "electric_scooter", "lon": -77.069674}, {"rental_uris": {"android": "https://dc.lft.to/lastmile_qr_scan", "ios": "https://dc.lft.to/lastmile_qr_scan"}, "fusion_lat": 0.0, "is_reserved": 0, "lat": 38.89605266666667, "name": "d32d96e0a79c6c488b60bf545604bf75", "bike_id": "d32d96e0a79c6c488b60bf545604bf75", "is_disabled": 0, "fusion_lon": 0.0, "type": "electric_scooter", "lon": -77.0220865}, {"rental_uris": {"android": "https://dc.lft.to/lastmile_qr_scan", "ios": "https://dc.lft.to/lastmile_qr_scan"}, "fusion_lat": 0.0, "is_reserved": 0, "lat": 38.87180016666667, "name": "d8c46cc78a8343f4111bb02e03b704d3", "bike_id": "d8c46cc78a8343f4111bb02e03b704d3", "is_disabled": 0, "fusion_lon": 0.0, "type": "electric_scooter", "lon": -77.006123}, {"rental_uris": {"android": "https://dc.lft.to/lastmile_qr_scan", "ios": "https://dc.lft.to/lastmile_qr_scan"}, "fusion_lat": 0.0, "is_reserved": 0, "lat": 38.878485166666664, "name": "a25eba5b608827ec47d6a2ff6594fc76", "bike_id": "a25eba5b608827ec47d6a2ff6594fc76", "is_disabled": 0, "fusion_lon": 0.0, "type": "electric_scooter", "lon": -77.02228283333334}, {"rental_uris": {"android": "https://dc.lft.to/lastmile_qr_scan", "ios": "https://dc.lft.to/lastmile_qr_scan"}, "fusion_lat": 0.0, "is_reserved": 0, "lat": 38.89365266666667, "name": "9e0bdeed3465c10fe697db62a02d0fe1", "bike_id": "9e0bdeed3465c10fe697db62a02d0fe1", "is_disabled": 0, "fusion_lon": 0.0, "type": "electric_scooter", "lon": -77.00334966666667}, {"rental_uris": {"android": "https://dc.lft.to/lastmile_qr_scan", "ios": "https://dc.lft.to/lastmile_qr_scan"}, "fusion_lat": 0.0, "is_reserved": 0, "lat": 38.907776, "name": "a6cc9fd3aaf6fa5d88d061b69d976cfc", "bike_id": "a6cc9fd3aaf6fa5d88d061b69d976cfc", "is_disabled": 0, "fusion_lon": 0.0, "type": "electric_scooter", "lon": -77.03761466666667}, {"rental_uris": {"android": "https://dc.lft.to/lastmile_qr_scan", "ios": "https://dc.lft.to/lastmile_qr_scan"}, "fusion_lat": 0.0, "is_reserved": 0, "lat": 38.89820683333333, "name": "763c99d6d7d73e7a00e7d35caf061472", "bike_id": "763c99d6d7d73e7a00e7d35caf061472", "is_disabled": 0, "fusion_lon": 0.0, "type": "electric_scooter", "lon": -76.93008383333333}, {"rental_uris": {"android": "https://dc.lft.to/lastmile_qr_scan", "ios": "https://dc.lft.to/lastmile_qr_scan"}, "fusion_lat": 0.0, "is_reserved": 0, "lat": 38.915274833333335, "name": "9f18728e17c566907312760f458af86c", "bike_id": "9f18728e17c566907312760f458af86c", "is_disabled": 0, "fusion_lon": 0.0, "type": "electric_scooter", "lon": -77.03187516666667}, {"rental_uris": {"android": "https://dc.lft.to/lastmile_qr_scan", "ios": "https://dc.lft.to/lastmile_qr_scan"}, "fusion_lat": 0.0, "is_reserved": 0, "lat": 38.907204166666666, "name": "9a653c4751f04e119bcbfa558a594691", "bike_id": "9a653c4751f04e119bcbfa558a594691", "is_disabled": 0, "fusion_lon": 0.0, "type": "electric_scooter", "lon": -77.02799366666666}, {"rental_uris": {"android": "https://dc.lft.to/lastmile_qr_scan", "ios": "https://dc.lft.to/lastmile_qr_scan"}, "fusion_lat": 0.0, "is_reserved": 0, "lat": 38.93553216666667, "name": "54ab8312ac6b48def5f040bd1278b936", "bike_id": "54ab8312ac6b48def5f040bd1278b936", "is_disabled": 0, "fusion_lon": 0.0, "type": "electric_scooter", "lon": -77.0746985}, {"rental_uris": {"android": "https://dc.lft.to/lastmile_qr_scan", "ios": "https://dc.lft.to/lastmile_qr_scan"}, "fusion_lat": 0.0, "is_reserved": 0, "lat": 38.924687, "name": "1a4cd0baa4ef88d69cafafd48a44bfaa", "bike_id": "1a4cd0baa4ef88d69cafafd48a44bfaa", "is_disabled": 0, "fusion_lon": 0.0, "type": "electric_scooter", "lon": -77.022189}, {"rental_uris": {"android": "https://dc.lft.to/lastmile_qr_scan", "ios": "https://dc.lft.to/lastmile_qr_scan"}, "fusion_lat": 0.0, "is_reserved": 0, "lat": 38.8933245, "name": "7ded5678cfcb4f88128ef3966a6f3026", "bike_id": "7ded5678cfcb4f88128ef3966a6f3026", "is_disabled": 0, "fusion_lon": 0.0, "type": "electric_scooter", "lon": -77.04867}, {"rental_uris": {"android": "https://dc.lft.to/lastmile_qr_scan", "ios": "https://dc.lft.to/lastmile_qr_scan"}, "fusion_lat": 0.0, "is_reserved": 0, "lat": 38.8971365, "name": "b7ebf94bc2172155ae716877784997c6", "bike_id": "b7ebf94bc2172155ae716877784997c6", "is_disabled": 0, "fusion_lon": 0.0, "type": "electric_scooter", "lon": -77.025971}, {"rental_uris": {"android": "https://dc.lft.to/lastmile_qr_scan", "ios": "https://dc.lft.to/lastmile_qr_scan"}, "fusion_lat": 0.0, "is_reserved": 0, "lat": 38.881981333333336, "name": "3fbdeaec5a1fb89fa3c878db89241313", "bike_id": "3fbdeaec5a1fb89fa3c878db89241313", "is_disabled": 0, "fusion_lon": 0.0, "type": "electric_scooter", "lon": -76.989185}, {"rental_uris": {"android": "https://dc.lft.to/lastmile_qr_scan", "ios": "https://dc.lft.to/lastmile_qr_scan"}, "fusion_lat": 0.0, "is_reserved": 0, "lat": 38.89973783333333, "name": "0e35e3c8a177e4a13a8c8e494e318634", "bike_id": "0e35e3c8a177e4a13a8c8e494e318634", "is_disabled": 0, "fusion_lon": 0.0, "type": "electric_scooter", "lon": -77.02599333333333}, {"rental_uris": {"android": "https://dc.lft.to/lastmile_qr_scan", "ios": "https://dc.lft.to/lastmile_qr_scan"}, "fusion_lat": 0.0, "is_reserved": 0, "lat": 38.835878666666666, "name": "b1d7c6f9b5de82e5998cfade0854703e", "bike_id": "b1d7c6f9b5de82e5998cfade0854703e", "is_disabled": 0, "fusion_lon": 0.0, "type": "electric_bike", "lon": -76.9902465}, {"rental_uris": {"android": "https://dc.lft.to/lastmile_qr_scan", "ios": "https://dc.lft.to/lastmile_qr_scan"}, "fusion_lat": 0.0, "is_reserved": 0, "lat": 38.923679666666665, "name": "e5fac9ac08ee884f40ff7db5c0683a30", "bike_id": "e5fac9ac08ee884f40ff7db5c0683a30", "is_disabled": 0, "fusion_lon": 0.0, "type": "electric_scooter", "lon": -77.05028783333333}, {"rental_uris": {"android": "https://dc.lft.to/lastmile_qr_scan", "ios": "https://dc.lft.to/lastmile_qr_scan"}, "fusion_lat": 0.0, "is_reserved": 0, "lat": 38.895316666666666, "name": "7a478d4e24da7d92217e6c9fcca4e158", "bike_id": "7a478d4e24da7d92217e6c9fcca4e158", "is_disabled": 0, "fusion_lon": 0.0, "type": "electric_scooter", "lon": -76.948894}, {"rental_uris": {"android": "https://dc.lft.to/lastmile_qr_scan", "ios": "https://dc.lft.to/lastmile_qr_scan"}, "fusion_lat": 0.0, "is_reserved": 0, "lat": 38.92230133333333, "name": "f546d2ce14423f607c1d11e0ca33c149", "bike_id": "f546d2ce14423f607c1d11e0ca33c149", "is_disabled": 0, "fusion_lon": 0.0, "type": "electric_scooter", "lon": -76.97533566666667}, {"rental_uris": {"android": "https://dc.lft.to/lastmile_qr_scan", "ios": "https://dc.lft.to/lastmile_qr_scan"}, "fusion_lat": 0.0, "is_reserved": 0, "lat": 38.879618666666666, "name": "8daa3c24df692dc247399ceffa957017", "bike_id": "8daa3c24df692dc247399ceffa957017", "is_disabled": 0, "fusion_lon": 0.0, "type": "electric_scooter", "lon": -77.00068483333334}, {"rental_uris": {"android": "https://dc.lft.to/lastmile_qr_scan", "ios": "https://dc.lft.to/lastmile_qr_scan"}, "fusion_lat": 0.0, "is_reserved": 0, "lat": 38.964642166666664, "name": "45da6d2e0d08fa833b3db097c08c7ba5", "bike_id": "45da6d2e0d08fa833b3db097c08c7ba5", "is_disabled": 0, "fusion_lon": 0.0, "type": "electric_bike", "lon": -77.10657083333334}, {"rental_uris": {"android": "https://dc.lft.to/lastmile_qr_scan", "ios": "https://dc.lft.to/lastmile_qr_scan"}, "fusion_lat": 0.0, "is_reserved": 0, "lat": 38.901801666666664, "name": "6dae8c9a1bcd22a14f6636c56f00ae28", "bike_id": "6dae8c9a1bcd22a14f6636c56f00ae28", "is_disabled": 0, "fusion_lon": 0.0, "type": "electric_scooter", "lon": -76.98839566666666}, {"rental_uris": {"android": "https://dc.lft.to/lastmile_qr_scan", "ios": "https://dc.lft.to/lastmile_qr_scan"}, "fusion_lat": 0.0, "is_reserved": 0, "lat": 38.907301833333335, "name": "6c38a34e22ef2aee80183b76ebedfade", "bike_id": "6c38a34e22ef2aee80183b76ebedfade", "is_disabled": 0, "fusion_lon": 0.0, "type": "electric_scooter", "lon": -77.03218766666667}, {"rental_uris": {"android": "https://dc.lft.to/lastmile_qr_scan", "ios": "https://dc.lft.to/lastmile_qr_scan"}, "fusion_lat": 0.0, "is_reserved": 0, "lat": 38.890837833333336, "name": "1d8344014887092a3d211ca19712e1da", "bike_id": "1d8344014887092a3d211ca19712e1da", "is_disabled": 0, "fusion_lon": 0.0, "type": "electric_scooter", "lon": -76.91926366666667}, {"rental_uris": {"android": "https://dc.lft.to/lastmile_qr_scan", "ios": "https://dc.lft.to/lastmile_qr_scan"}, "fusion_lat": 0.0, "is_reserved": 0, "lat": 38.9066625, "name": "daddf54f65b2b966818bc44e879d657c", "bike_id": "daddf54f65b2b966818bc44e879d657c", "is_disabled": 0, "fusion_lon": 0.0, "type": "electric_scooter", "lon": -77.05013616666666}, {"rental_uris": {"android": "https://dc.lft.to/lastmile_qr_scan", "ios": "https://dc.lft.to/lastmile_qr_scan"}, "fusion_lat": 0.0, "is_reserved": 0, "lat": 38.90180066666667, "name": "c56f767950fe768687618308b561d57d", "bike_id": "c56f767950fe768687618308b561d57d", "is_disabled": 0, "fusion_lon": 0.0, "type": "electric_scooter", "lon": -77.024857}, {"rental_uris": {"android": "https://dc.lft.to/lastmile_qr_scan", "ios": "https://dc.lft.to/lastmile_qr_scan"}, "fusion_lat": 0.0, "is_reserved": 0, "lat": 38.923362166666664, "name": "6a48408430c7b0ddbe3f142755317689", "bike_id": "6a48408430c7b0ddbe3f142755317689", "is_disabled": 0, "fusion_lon": 0.0, "type": "electric_scooter", "lon": -77.01902466666667}, {"rental_uris": {"android": "https://dc.lft.to/lastmile_qr_scan", "ios": "https://dc.lft.to/lastmile_qr_scan"}, "fusion_lat": 0.0, "is_reserved": 0, "lat": 38.93134166666667, "name": "fff7b563c543a2774cd06ce75a3cc3be", "bike_id": "fff7b563c543a2774cd06ce75a3cc3be", "is_disabled": 0, "fusion_lon": 0.0, "type": "electric_scooter", "lon": -77.0234685}, {"rental_uris": {"android": "https://dc.lft.to/lastmile_qr_scan", "ios": "https://dc.lft.to/lastmile_qr_scan"}, "fusion_lat": 0.0, "is_reserved": 0, "lat": 38.90143883333333, "name": "86c8f8961600acd47db0e0e074aae680", "bike_id": "86c8f8961600acd47db0e0e074aae680", "is_disabled": 0, "fusion_lon": 0.0, "type": "electric_scooter", "lon": -77.04383683333333}, {"rental_uris": {"android": "https://dc.lft.to/lastmile_qr_scan", "ios": "https://dc.lft.to/lastmile_qr_scan"}, "fusion_lat": 0.0, "is_reserved": 0, "lat": 38.9993525, "name": "329e8c35f090b6057092076af249f77f", "bike_id": "329e8c35f090b6057092076af249f77f", "is_disabled": 0, "fusion_lon": 0.0, "type": "electric_bike", "lon": -77.050363}, {"rental_uris": {"android": "https://dc.lft.to/lastmile_qr_scan", "ios": "https://dc.lft.to/lastmile_qr_scan"}, "fusion_lat": 0.0, "is_reserved": 0, "lat": 38.893556333333336, "name": "95fe91a36be54bc1204917356fbe3c0f", "bike_id": "95fe91a36be54bc1204917356fbe3c0f", "is_disabled": 0, "fusion_lon": 0.0, "type": "electric_scooter", "lon": -77.00332533333334}, {"rental_uris": {"android": "https://dc.lft.to/lastmile_qr_scan", "ios": "https://dc.lft.to/lastmile_qr_scan"}, "fusion_lat": 0.0, "is_reserved": 0, "lat": 38.92378716666666, "name": "c1683258e9aad184e5a818d7532c1238", "bike_id": "c1683258e9aad184e5a818d7532c1238", "is_disabled": 0, "fusion_lon": 0.0, "type": "electric_scooter", "lon": -77.05179366666667}, {"rental_uris": {"android": "https://dc.lft.to/lastmile_qr_scan", "ios": "https://dc.lft.to/lastmile_qr_scan"}, "fusion_lat": 0.0, "is_reserved": 0, "lat": 38.910374, "name": "ef6e56303ae4c86bafce0a8297b4caa1", "bike_id": "ef6e56303ae4c86bafce0a8297b4caa1", "is_disabled": 0, "fusion_lon": 0.0, "type": "electric_scooter", "lon": -77.03802583333334}, {"rental_uris": {"android": "https://dc.lft.to/lastmile_qr_scan", "ios": "https://dc.lft.to/lastmile_qr_scan"}, "fusion_lat": 0.0, "is_reserved": 0, "lat": 38.928231833333335, "name": "c29e902ba80013ea6cf13fbe566263ec", "bike_id": "c29e902ba80013ea6cf13fbe566263ec", "is_disabled": 0, "fusion_lon": 0.0, "type": "electric_scooter", "lon": -77.01392016666667}, {"rental_uris": {"android": "https://dc.lft.to/lastmile_qr_scan", "ios": "https://dc.lft.to/lastmile_qr_scan"}, "fusion_lat": 0.0, "is_reserved": 0, "lat": 38.93299566666666, "name": "0953501f726c1be647a7ef12a961a883", "bike_id": "0953501f726c1be647a7ef12a961a883", "is_disabled": 0, "fusion_lon": 0.0, "type": "electric_scooter", "lon": -77.02468983333333}, {"rental_uris": {"android": "https://dc.lft.to/lastmile_qr_scan", "ios": "https://dc.lft.to/lastmile_qr_scan"}, "fusion_lat": 0.0, "is_reserved": 0, "lat": 38.892694166666665, "name": "89ab14f0334b69086063e858678f217a", "bike_id": "89ab14f0334b69086063e858678f217a", "is_disabled": 0, "fusion_lon": 0.0, "type": "electric_scooter", "lon": -77.03349633333333}, {"rental_uris": {"android": "https://dc.lft.to/lastmile_qr_scan", "ios": "https://dc.lft.to/lastmile_qr_scan"}, "fusion_lat": 0.0, "is_reserved": 0, "lat": 38.89655366666667, "name": "acbd2b60e93055acdfe422de3045dff0", "bike_id": "acbd2b60e93055acdfe422de3045dff0", "is_disabled": 0, "fusion_lon": 0.0, "type": "electric_scooter", "lon": -77.0270595}, {"rental_uris": {"android": "https://dc.lft.to/lastmile_qr_scan", "ios": "https://dc.lft.to/lastmile_qr_scan"}, "fusion_lat": 0.0, "is_reserved": 0, "lat": 38.9355425, "name": "44148a2b4e204290b5a53f503fb1e840", "bike_id": "44148a2b4e204290b5a53f503fb1e840", "is_disabled": 0, "fusion_lon": 0.0, "type": "electric_scooter", "lon": -77.0348465}, {"rental_uris": {"android": "https://dc.lft.to/lastmile_qr_scan", "ios": "https://dc.lft.to/lastmile_qr_scan"}, "fusion_lat": 0.0, "is_reserved": 0, "lat": 38.916696, "name": "f866a19d5603bf37f1171e4757388dc0", "bike_id": "f866a19d5603bf37f1171e4757388dc0", "is_disabled": 0, "fusion_lon": 0.0, "type": "electric_scooter", "lon": -77.04608716666667}, {"rental_uris": {"android": "https://dc.lft.to/lastmile_qr_scan", "ios": "https://dc.lft.to/lastmile_qr_scan"}, "fusion_lat": 0.0, "is_reserved": 0, "lat": 38.89689933333333, "name": "ee0ed278e32263772ad6c1d1aab8e6c0", "bike_id": "ee0ed278e32263772ad6c1d1aab8e6c0", "is_disabled": 0, "fusion_lon": 0.0, "type": "electric_scooter", "lon": -77.03352916666667}, {"rental_uris": {"android": "https://dc.lft.to/lastmile_qr_scan", "ios": "https://dc.lft.to/lastmile_qr_scan"}, "fusion_lat": 0.0, "is_reserved": 0, "lat": 39.07469433333333, "name": "0607ead602db498c2f5a60226ed334c5", "bike_id": "0607ead602db498c2f5a60226ed334c5", "is_disabled": 0, "fusion_lon": 0.0, "type": "electric_bike", "lon": -77.115108}, {"rental_uris": {"android": "https://dc.lft.to/lastmile_qr_scan", "ios": "https://dc.lft.to/lastmile_qr_scan"}, "fusion_lat": 0.0, "is_reserved": 0, "lat": 38.90669283333333, "name": "6b2029da25ce1bcb4e7c4ce2e29c2c58", "bike_id": "6b2029da25ce1bcb4e7c4ce2e29c2c58", "is_disabled": 0, "fusion_lon": 0.0, "type": "electric_scooter", "lon": -77.02809933333333}, {"rental_uris": {"android": "https://dc.lft.to/lastmile_qr_scan", "ios": "https://dc.lft.to/lastmile_qr_scan"}, "fusion_lat": 0.0, "is_reserved": 0, "lat": 38.915520666666666, "name": "eb1822cb8040fdf1d7b6157c4ff8c61a", "bike_id": "eb1822cb8040fdf1d7b6157c4ff8c61a", "is_disabled": 0, "fusion_lon": 0.0, "type": "electric_scooter", "lon": -77.01414816666667}, {"rental_uris": {"android": "https://dc.lft.to/lastmile_qr_scan", "ios": "https://dc.lft.to/lastmile_qr_scan"}, "fusion_lat": 0.0, "is_reserved": 0, "lat": 38.943297, "name": "dc56e7eaab41b17e163b735899017f5d", "bike_id": "dc56e7eaab41b17e163b735899017f5d", "is_disabled": 0, "fusion_lon": 0.0, "type": "electric_scooter", "lon": -77.0149305}, {"rental_uris": {"android": "https://dc.lft.to/lastmile_qr_scan", "ios": "https://dc.lft.to/lastmile_qr_scan"}, "fusion_lat": 0.0, "is_reserved": 0, "lat": 38.96398466666667, "name": "a9e835c5a6f2f7ec6b4dfb1c44edcee5", "bike_id": "a9e835c5a6f2f7ec6b4dfb1c44edcee5", "is_disabled": 0, "fusion_lon": 0.0, "type": "electric_scooter", "lon": -77.02773266666667}, {"rental_uris": {"android": "https://dc.lft.to/lastmile_qr_scan", "ios": "https://dc.lft.to/lastmile_qr_scan"}, "fusion_lat": 0.0, "is_reserved": 0, "lat": 38.936978333333336, "name": "19dfd45537b50f1fcc3a5923403abda4", "bike_id": "19dfd45537b50f1fcc3a5923403abda4", "is_disabled": 0, "fusion_lon": 0.0, "type": "electric_scooter", "lon": -77.06020366666667}, {"rental_uris": {"android": "https://dc.lft.to/lastmile_qr_scan", "ios": "https://dc.lft.to/lastmile_qr_scan"}, "fusion_lat": 0.0, "is_reserved": 0, "lat": 38.91881716666666, "name": "235200089b87a30d9d514a2f17eb2ed7", "bike_id": "235200089b87a30d9d514a2f17eb2ed7", "is_disabled": 0, "fusion_lon": 0.0, "type": "electric_scooter", "lon": -77.02186383333333}, {"rental_uris": {"android": "https://dc.lft.to/lastmile_qr_scan", "ios": "https://dc.lft.to/lastmile_qr_scan"}, "fusion_lat": 0.0, "is_reserved": 0, "lat": 38.91696366666667, "name": "0ad051eba91c9efb08c7b28c4930bdde", "bike_id": "0ad051eba91c9efb08c7b28c4930bdde", "is_disabled": 0, "fusion_lon": 0.0, "type": "electric_scooter", "lon": -77.05295566666666}, {"rental_uris": {"android": "https://dc.lft.to/lastmile_qr_scan", "ios": "https://dc.lft.to/lastmile_qr_scan"}, "fusion_lat": 0.0, "is_reserved": 0, "lat": 38.899032, "name": "ce3644b124f88730ffede0025992adb3", "bike_id": "ce3644b124f88730ffede0025992adb3", "is_disabled": 0, "fusion_lon": 0.0, "type": "electric_scooter", "lon": -76.98824566666667}, {"rental_uris": {"android": "https://dc.lft.to/lastmile_qr_scan", "ios": "https://dc.lft.to/lastmile_qr_scan"}, "fusion_lat": 0.0, "is_reserved": 0, "lat": 38.82849916666667, "name": "76ff96f09c8101bb8a58b74c4dc91c4e", "bike_id": "76ff96f09c8101bb8a58b74c4dc91c4e", "is_disabled": 0, "fusion_lon": 0.0, "type": "electric_bike", "lon": -77.05903683333334}, {"rental_uris": {"android": "https://dc.lft.to/lastmile_qr_scan", "ios": "https://dc.lft.to/lastmile_qr_scan"}, "fusion_lat": 0.0, "is_reserved": 0, "lat": 38.905738, "name": "46f4adefa586e051a7460341c5eb8e18", "bike_id": "46f4adefa586e051a7460341c5eb8e18", "is_disabled": 0, "fusion_lon": 0.0, "type": "electric_scooter", "lon": -77.00569633333333}, {"rental_uris": {"android": "https://dc.lft.to/lastmile_qr_scan", "ios": "https://dc.lft.to/lastmile_qr_scan"}, "fusion_lat": 0.0, "is_reserved": 0, "lat": 38.8718175, "name": "9295a83eb076dca20a3ab0c77667a336", "bike_id": "9295a83eb076dca20a3ab0c77667a336", "is_disabled": 0, "fusion_lon": 0.0, "type": "electric_scooter", "lon": -77.00613733333333}, {"rental_uris": {"android": "https://dc.lft.to/lastmile_qr_scan", "ios": "https://dc.lft.to/lastmile_qr_scan"}, "fusion_lat": 0.0, "is_reserved": 0, "lat": 38.92784433333333, "name": "0da015defa3b57a2e672a21901d311da", "bike_id": "0da015defa3b57a2e672a21901d311da", "is_disabled": 0, "fusion_lon": 0.0, "type": "electric_scooter", "lon": -77.03084666666666}, {"rental_uris": {"android": "https://dc.lft.to/lastmile_qr_scan", "ios": "https://dc.lft.to/lastmile_qr_scan"}, "fusion_lat": 0.0, "is_reserved": 0, "lat": 38.872887666666664, "name": "7ad02c919dc121d770324189cf07f318", "bike_id": "7ad02c919dc121d770324189cf07f318", "is_disabled": 0, "fusion_lon": 0.0, "type": "electric_scooter", "lon": -77.00984466666667}, {"rental_uris": {"android": "https://dc.lft.to/lastmile_qr_scan", "ios": "https://dc.lft.to/lastmile_qr_scan"}, "fusion_lat": 0.0, "is_reserved": 0, "lat": 38.9181625, "name": "f0e646d2bce038bf437dada8dc4d09f2", "bike_id": "f0e646d2bce038bf437dada8dc4d09f2", "is_disabled": 0, "fusion_lon": 0.0, "type": "electric_scooter", "lon": -77.02478066666667}, {"rental_uris": {"android": "https://dc.lft.to/lastmile_qr_scan", "ios": "https://dc.lft.to/lastmile_qr_scan"}, "fusion_lat": 0.0, "is_reserved": 0, "lat": 38.91802716666667, "name": "626314125c90c36eae52896377f0eab9", "bike_id": "626314125c90c36eae52896377f0eab9", "is_disabled": 0, "fusion_lon": 0.0, "type": "electric_scooter", "lon": -77.00927033333333}, {"rental_uris": {"android": "https://dc.lft.to/lastmile_qr_scan", "ios": "https://dc.lft.to/lastmile_qr_scan"}, "fusion_lat": 0.0, "is_reserved": 0, "lat": 38.898536666666665, "name": "6b28cb379ca70aaf301d2d68eba5895e", "bike_id": "6b28cb379ca70aaf301d2d68eba5895e", "is_disabled": 0, "fusion_lon": 0.0, "type": "electric_scooter", "lon": -77.02714816666666}, {"rental_uris": {"android": "https://dc.lft.to/lastmile_qr_scan", "ios": "https://dc.lft.to/lastmile_qr_scan"}, "fusion_lat": 0.0, "is_reserved": 0, "lat": 38.924340666666666, "name": "985b8a0e3675d562bbdf2d8cb5e58043", "bike_id": "985b8a0e3675d562bbdf2d8cb5e58043", "is_disabled": 0, "fusion_lon": 0.0, "type": "electric_scooter", "lon": -77.03622366666667}, {"rental_uris": {"android": "https://dc.lft.to/lastmile_qr_scan", "ios": "https://dc.lft.to/lastmile_qr_scan"}, "fusion_lat": 0.0, "is_reserved": 0, "lat": 38.955411, "name": "1ba40a8abf0f9bb44e558313ee3ae601", "bike_id": "1ba40a8abf0f9bb44e558313ee3ae601", "is_disabled": 0, "fusion_lon": 0.0, "type": "electric_scooter", "lon": -76.99572133333334}, {"rental_uris": {"android": "https://dc.lft.to/lastmile_qr_scan", "ios": "https://dc.lft.to/lastmile_qr_scan"}, "fusion_lat": 0.0, "is_reserved": 0, "lat": 38.9057465, "name": "1d902c3ef810fdf40b4a6b1e10bea8a6", "bike_id": "1d902c3ef810fdf40b4a6b1e10bea8a6", "is_disabled": 0, "fusion_lon": 0.0, "type": "electric_scooter", "lon": -77.0221615}, {"rental_uris": {"android": "https://dc.lft.to/lastmile_qr_scan", "ios": "https://dc.lft.to/lastmile_qr_scan"}, "fusion_lat": 0.0, "is_reserved": 0, "lat": 38.90041166666666, "name": "8e154fc3ae076f85456da6c993f7d442", "bike_id": "8e154fc3ae076f85456da6c993f7d442", "is_disabled": 0, "fusion_lon": 0.0, "type": "electric_scooter", "lon": -77.00207783333333}, {"rental_uris": {"android": "https://dc.lft.to/lastmile_qr_scan", "ios": "https://dc.lft.to/lastmile_qr_scan"}, "fusion_lat": 0.0, "is_reserved": 0, "lat": 38.91265716666667, "name": "fde1d02995639f6cf663f6564f4c3503", "bike_id": "fde1d02995639f6cf663f6564f4c3503", "is_disabled": 0, "fusion_lon": 0.0, "type": "electric_scooter", "lon": -77.02215933333333}, {"rental_uris": {"android": "https://dc.lft.to/lastmile_qr_scan", "ios": "https://dc.lft.to/lastmile_qr_scan"}, "fusion_lat": 0.0, "is_reserved": 0, "lat": 38.8953275, "name": "2f4e5657ed073ef74484ed58798c1a83", "bike_id": "2f4e5657ed073ef74484ed58798c1a83", "is_disabled": 0, "fusion_lon": 0.0, "type": "electric_scooter", "lon": -77.0336265}, {"rental_uris": {"android": "https://dc.lft.to/lastmile_qr_scan", "ios": "https://dc.lft.to/lastmile_qr_scan"}, "fusion_lat": 0.0, "is_reserved": 0, "lat": 38.85720166666667, "name": "32307d34b6c174bb47c38dacc8396dbf", "bike_id": "32307d34b6c174bb47c38dacc8396dbf", "is_disabled": 0, "fusion_lon": 0.0, "type": "electric_scooter", "lon": -76.9718285}, {"rental_uris": {"android": "https://dc.lft.to/lastmile_qr_scan", "ios": "https://dc.lft.to/lastmile_qr_scan"}, "fusion_lat": 0.0, "is_reserved": 0, "lat": 38.92345483333333, "name": "861c593263a29eebec1f1ccd01ba9f62", "bike_id": "861c593263a29eebec1f1ccd01ba9f62", "is_disabled": 0, "fusion_lon": 0.0, "type": "electric_scooter", "lon": -77.050943}, {"rental_uris": {"android": "https://dc.lft.to/lastmile_qr_scan", "ios": "https://dc.lft.to/lastmile_qr_scan"}, "fusion_lat": 0.0, "is_reserved": 0, "lat": 38.90159633333333, "name": "70bd6c84c2bff29b7fd0ad44729e5616", "bike_id": "70bd6c84c2bff29b7fd0ad44729e5616", "is_disabled": 0, "fusion_lon": 0.0, "type": "electric_scooter", "lon": -77.04876833333333}, {"rental_uris": {"android": "https://dc.lft.to/lastmile_qr_scan", "ios": "https://dc.lft.to/lastmile_qr_scan"}, "fusion_lat": 0.0, "is_reserved": 0, "lat": 38.891011166666665, "name": "881b7a21b360d06e7524b0ff1c14a3c0", "bike_id": "881b7a21b360d06e7524b0ff1c14a3c0", "is_disabled": 0, "fusion_lon": 0.0, "type": "electric_scooter", "lon": -77.00209566666666}, {"rental_uris": {"android": "https://dc.lft.to/lastmile_qr_scan", "ios": "https://dc.lft.to/lastmile_qr_scan"}, "fusion_lat": 0.0, "is_reserved": 0, "lat": 38.902712666666666, "name": "3e53287b789deb6143e4a3a4fbfa0a35", "bike_id": "3e53287b789deb6143e4a3a4fbfa0a35", "is_disabled": 0, "fusion_lon": 0.0, "type": "electric_scooter", "lon": -77.03973533333334}, {"rental_uris": {"android": "https://dc.lft.to/lastmile_qr_scan", "ios": "https://dc.lft.to/lastmile_qr_scan"}, "fusion_lat": 0.0, "is_reserved": 0, "lat": 38.914942, "name": "932a34412d93ea8f823138c6570ae8cd", "bike_id": "932a34412d93ea8f823138c6570ae8cd", "is_disabled": 0, "fusion_lon": 0.0, "type": "electric_scooter", "lon": -77.018581}, {"rental_uris": {"android": "https://dc.lft.to/lastmile_qr_scan", "ios": "https://dc.lft.to/lastmile_qr_scan"}, "fusion_lat": 0.0, "is_reserved": 0, "lat": 38.92949933333333, "name": "12958c20ad4c37440342c57e1ebb2247", "bike_id": "12958c20ad4c37440342c57e1ebb2247", "is_disabled": 0, "fusion_lon": 0.0, "type": "electric_scooter", "lon": -77.0040905}, {"rental_uris": {"android": "https://dc.lft.to/lastmile_qr_scan", "ios": "https://dc.lft.to/lastmile_qr_scan"}, "fusion_lat": 0.0, "is_reserved": 0, "lat": 38.918181, "name": "ec4c6595fc4b8429a247c605629a9e4b", "bike_id": "ec4c6595fc4b8429a247c605629a9e4b", "is_disabled": 0, "fusion_lon": 0.0, "type": "electric_scooter", "lon": -77.03025333333333}, {"rental_uris": {"android": "https://dc.lft.to/lastmile_qr_scan", "ios": "https://dc.lft.to/lastmile_qr_scan"}, "fusion_lat": 0.0, "is_reserved": 0, "lat": 38.900642500000004, "name": "4c9f7cbe40c2f907af2d475537f164fa", "bike_id": "4c9f7cbe40c2f907af2d475537f164fa", "is_disabled": 0, "fusion_lon": 0.0, "type": "electric_scooter", "lon": -76.9274485}, {"rental_uris": {"android": "https://dc.lft.to/lastmile_qr_scan", "ios": "https://dc.lft.to/lastmile_qr_scan"}, "fusion_lat": 0.0, "is_reserved": 0, "lat": 38.887231166666666, "name": "3371be2e08b8316999392dfdf6134fa0", "bike_id": "3371be2e08b8316999392dfdf6134fa0", "is_disabled": 0, "fusion_lon": 0.0, "type": "electric_scooter", "lon": -76.983604}, {"rental_uris": {"android": "https://dc.lft.to/lastmile_qr_scan", "ios": "https://dc.lft.to/lastmile_qr_scan"}, "fusion_lat": 0.0, "is_reserved": 0, "lat": 38.92211316666667, "name": "365c6bf927ac21fef2a4da1c9e20141f", "bike_id": "365c6bf927ac21fef2a4da1c9e20141f", "is_disabled": 0, "fusion_lon": 0.0, "type": "electric_scooter", "lon": -77.02660766666666}, {"rental_uris": {"android": "https://dc.lft.to/lastmile_qr_scan", "ios": "https://dc.lft.to/lastmile_qr_scan"}, "fusion_lat": 0.0, "is_reserved": 0, "lat": 38.91547516666667, "name": "0fd4ad23d9305e528b236433e4a8e756", "bike_id": "0fd4ad23d9305e528b236433e4a8e756", "is_disabled": 0, "fusion_lon": 0.0, "type": "electric_scooter", "lon": -77.02206316666667}, {"rental_uris": {"android": "https://dc.lft.to/lastmile_qr_scan", "ios": "https://dc.lft.to/lastmile_qr_scan"}, "fusion_lat": 0.0, "is_reserved": 0, "lat": 38.9242915, "name": "4687f64eebd62fa71ebc937e776a8148", "bike_id": "4687f64eebd62fa71ebc937e776a8148", "is_disabled": 0, "fusion_lon": 0.0, "type": "electric_scooter", "lon": -77.0424985}, {"rental_uris": {"android": "https://dc.lft.to/lastmile_qr_scan", "ios": "https://dc.lft.to/lastmile_qr_scan"}, "fusion_lat": 0.0, "is_reserved": 0, "lat": 38.8922145, "name": "631fae3f88417c6ea400118766da254c", "bike_id": "631fae3f88417c6ea400118766da254c", "is_disabled": 0, "fusion_lon": 0.0, "type": "electric_scooter", "lon": -77.02230683333333}, {"rental_uris": {"android": "https://dc.lft.to/lastmile_qr_scan", "ios": "https://dc.lft.to/lastmile_qr_scan"}, "fusion_lat": 0.0, "is_reserved": 0, "lat": 38.90970033333333, "name": "d36309869756b7bd3da574abf8834544", "bike_id": "d36309869756b7bd3da574abf8834544", "is_disabled": 0, "fusion_lon": 0.0, "type": "electric_scooter", "lon": -77.02584166666666}, {"rental_uris": {"android": "https://dc.lft.to/lastmile_qr_scan", "ios": "https://dc.lft.to/lastmile_qr_scan"}, "fusion_lat": 0.0, "is_reserved": 0, "lat": 38.92283716666667, "name": "2119a6425f572d543959b19f62a1d00e", "bike_id": "2119a6425f572d543959b19f62a1d00e", "is_disabled": 0, "fusion_lon": 0.0, "type": "electric_scooter", "lon": -77.03660183333334}, {"rental_uris": {"android": "https://dc.lft.to/lastmile_qr_scan", "ios": "https://dc.lft.to/lastmile_qr_scan"}, "fusion_lat": 0.0, "is_reserved": 0, "lat": 38.8849415, "name": "942485abcfa6072da2d94659e1cb13c2", "bike_id": "942485abcfa6072da2d94659e1cb13c2", "is_disabled": 0, "fusion_lon": 0.0, "type": "electric_scooter", "lon": -77.01586983333333}, {"rental_uris": {"android": "https://dc.lft.to/lastmile_qr_scan", "ios": "https://dc.lft.to/lastmile_qr_scan"}, "fusion_lat": 0.0, "is_reserved": 0, "lat": 38.89470466666667, "name": "f2ecc52dc711b90a613db6bd07d55232", "bike_id": "f2ecc52dc711b90a613db6bd07d55232", "is_disabled": 0, "fusion_lon": 0.0, "type": "electric_scooter", "lon": -76.997108}, {"rental_uris": {"android": "https://dc.lft.to/lastmile_qr_scan", "ios": "https://dc.lft.to/lastmile_qr_scan"}, "fusion_lat": 0.0, "is_reserved": 0, "lat": 38.930695166666666, "name": "9495221fee81489992296ee7913596c8", "bike_id": "9495221fee81489992296ee7913596c8", "is_disabled": 0, "fusion_lon": 0.0, "type": "electric_bike", "lon": -77.02183333333333}, {"rental_uris": {"android": "https://dc.lft.to/lastmile_qr_scan", "ios": "https://dc.lft.to/lastmile_qr_scan"}, "fusion_lat": 0.0, "is_reserved": 0, "lat": 38.86618633333333, "name": "f295aee57f20a240b6d4992e5eb88b29", "bike_id": "f295aee57f20a240b6d4992e5eb88b29", "is_disabled": 0, "fusion_lon": 0.0, "type": "electric_bike", "lon": -76.94570316666666}, {"rental_uris": {"android": "https://dc.lft.to/lastmile_qr_scan", "ios": "https://dc.lft.to/lastmile_qr_scan"}, "fusion_lat": 0.0, "is_reserved": 0, "lat": 38.901788, "name": "489470141e55e4cee4e2adde90dc2662", "bike_id": "489470141e55e4cee4e2adde90dc2662", "is_disabled": 0, "fusion_lon": 0.0, "type": "electric_scooter", "lon": -77.0248755}, {"rental_uris": {"android": "https://dc.lft.to/lastmile_qr_scan", "ios": "https://dc.lft.to/lastmile_qr_scan"}, "fusion_lat": 0.0, "is_reserved": 0, "lat": 38.930714, "name": "eaabccf14bc835852b9da7aa3d415c4f", "bike_id": "eaabccf14bc835852b9da7aa3d415c4f", "is_disabled": 0, "fusion_lon": 0.0, "type": "electric_scooter", "lon": -77.03733}, {"rental_uris": {"android": "https://dc.lft.to/lastmile_qr_scan", "ios": "https://dc.lft.to/lastmile_qr_scan"}, "fusion_lat": 0.0, "is_reserved": 0, "lat": 38.91695833333333, "name": "6a115b61abf57f54316f7036e38fbc2e", "bike_id": "6a115b61abf57f54316f7036e38fbc2e", "is_disabled": 0, "fusion_lon": 0.0, "type": "electric_scooter", "lon": -77.02284616666667}, {"rental_uris": {"android": "https://dc.lft.to/lastmile_qr_scan", "ios": "https://dc.lft.to/lastmile_qr_scan"}, "fusion_lat": 0.0, "is_reserved": 0, "lat": 38.959108666666665, "name": "811aa5ee36787ae7e4742cb794f13849", "bike_id": "811aa5ee36787ae7e4742cb794f13849", "is_disabled": 0, "fusion_lon": 0.0, "type": "electric_scooter", "lon": -77.0001455}, {"rental_uris": {"android": "https://dc.lft.to/lastmile_qr_scan", "ios": "https://dc.lft.to/lastmile_qr_scan"}, "fusion_lat": 0.0, "is_reserved": 0, "lat": 38.88992366666667, "name": "d6a5d81893bb29bca30eb58e6ffa3d27", "bike_id": "d6a5d81893bb29bca30eb58e6ffa3d27", "is_disabled": 0, "fusion_lon": 0.0, "type": "electric_scooter", "lon": -76.99247583333333}, {"rental_uris": {"android": "https://dc.lft.to/lastmile_qr_scan", "ios": "https://dc.lft.to/lastmile_qr_scan"}, "fusion_lat": 0.0, "is_reserved": 0, "lat": 38.92284316666667, "name": "24260541f33b23e2910d271f009794e1", "bike_id": "24260541f33b23e2910d271f009794e1", "is_disabled": 0, "fusion_lon": 0.0, "type": "electric_scooter", "lon": -77.03659}, {"rental_uris": {"android": "https://dc.lft.to/lastmile_qr_scan", "ios": "https://dc.lft.to/lastmile_qr_scan"}, "fusion_lat": 0.0, "is_reserved": 0, "lat": 38.918156833333335, "name": "c4cb847f93c5bd7966b267b7a7104fa2", "bike_id": "c4cb847f93c5bd7966b267b7a7104fa2", "is_disabled": 0, "fusion_lon": 0.0, "type": "electric_scooter", "lon": -77.02477733333333}, {"rental_uris": {"android": "https://dc.lft.to/lastmile_qr_scan", "ios": "https://dc.lft.to/lastmile_qr_scan"}, "fusion_lat": 0.0, "is_reserved": 0, "lat": 38.904938333333334, "name": "6c277bd6ef46246ea2fb4e83e5251d7e", "bike_id": "6c277bd6ef46246ea2fb4e83e5251d7e", "is_disabled": 0, "fusion_lon": 0.0, "type": "electric_scooter", "lon": -76.977418}, {"rental_uris": {"android": "https://dc.lft.to/lastmile_qr_scan", "ios": "https://dc.lft.to/lastmile_qr_scan"}, "fusion_lat": 0.0, "is_reserved": 0, "lat": 38.9426385, "name": "d00ed1aa73b998459d0599981b0833ce", "bike_id": "d00ed1aa73b998459d0599981b0833ce", "is_disabled": 0, "fusion_lon": 0.0, "type": "electric_bike", "lon": -76.99074416666667}, {"rental_uris": {"android": "https://dc.lft.to/lastmile_qr_scan", "ios": "https://dc.lft.to/lastmile_qr_scan"}, "fusion_lat": 0.0, "is_reserved": 0, "lat": 38.87999666666666, "name": "280cbac27f3d9f74b8941fec0da5a160", "bike_id": "280cbac27f3d9f74b8941fec0da5a160", "is_disabled": 0, "fusion_lon": 0.0, "type": "electric_scooter", "lon": -76.98400983333333}, {"rental_uris": {"android": "https://dc.lft.to/lastmile_qr_scan", "ios": "https://dc.lft.to/lastmile_qr_scan"}, "fusion_lat": 0.0, "is_reserved": 0, "lat": 38.922628333333336, "name": "ab7e3016923e174ff5e23ebb859be2f1", "bike_id": "ab7e3016923e174ff5e23ebb859be2f1", "is_disabled": 0, "fusion_lon": 0.0, "type": "electric_scooter", "lon": -77.03685883333333}, {"rental_uris": {"android": "https://dc.lft.to/lastmile_qr_scan", "ios": "https://dc.lft.to/lastmile_qr_scan"}, "fusion_lat": 0.0, "is_reserved": 0, "lat": 38.80863433333333, "name": "b182881380f5be5ec294345a749e0391", "bike_id": "b182881380f5be5ec294345a749e0391", "is_disabled": 0, "fusion_lon": 0.0, "type": "electric_bike", "lon": -77.112545}, {"rental_uris": {"android": "https://dc.lft.to/lastmile_qr_scan", "ios": "https://dc.lft.to/lastmile_qr_scan"}, "fusion_lat": 0.0, "is_reserved": 0, "lat": 38.8716655, "name": "f65c270b8b2f74d25637ca3bb91880c8", "bike_id": "f65c270b8b2f74d25637ca3bb91880c8", "is_disabled": 0, "fusion_lon": 0.0, "type": "electric_scooter", "lon": -77.01326566666667}, {"rental_uris": {"android": "https://dc.lft.to/lastmile_qr_scan", "ios": "https://dc.lft.to/lastmile_qr_scan"}, "fusion_lat": 0.0, "is_reserved": 0, "lat": 38.92799266666667, "name": "2efa1172ccfa2cf5883f2292b5260cba", "bike_id": "2efa1172ccfa2cf5883f2292b5260cba", "is_disabled": 0, "fusion_lon": 0.0, "type": "electric_scooter", "lon": -77.02599733333334}, {"rental_uris": {"android": "https://dc.lft.to/lastmile_qr_scan", "ios": "https://dc.lft.to/lastmile_qr_scan"}, "fusion_lat": 0.0, "is_reserved": 0, "lat": 38.92367616666667, "name": "c1ac64c5fee8bf9de07b4af583cfa330", "bike_id": "c1ac64c5fee8bf9de07b4af583cfa330", "is_disabled": 0, "fusion_lon": 0.0, "type": "electric_scooter", "lon": -77.01912483333334}, {"rental_uris": {"android": "https://dc.lft.to/lastmile_qr_scan", "ios": "https://dc.lft.to/lastmile_qr_scan"}, "fusion_lat": 0.0, "is_reserved": 0, "lat": 38.936114, "name": "230fa8485193ba32e0a02ef384cb02b1", "bike_id": "230fa8485193ba32e0a02ef384cb02b1", "is_disabled": 0, "fusion_lon": 0.0, "type": "electric_scooter", "lon": -77.0587015}, {"rental_uris": {"android": "https://dc.lft.to/lastmile_qr_scan", "ios": "https://dc.lft.to/lastmile_qr_scan"}, "fusion_lat": 0.0, "is_reserved": 0, "lat": 38.892209333333334, "name": "50c371bc790ce57b9c586f37f4e59edb", "bike_id": "50c371bc790ce57b9c586f37f4e59edb", "is_disabled": 0, "fusion_lon": 0.0, "type": "electric_scooter", "lon": -77.03978966666666}, {"rental_uris": {"android": "https://dc.lft.to/lastmile_qr_scan", "ios": "https://dc.lft.to/lastmile_qr_scan"}, "fusion_lat": 0.0, "is_reserved": 0, "lat": 38.941676, "name": "fd22a93715ebb2704b14442338c80342", "bike_id": "fd22a93715ebb2704b14442338c80342", "is_disabled": 0, "fusion_lon": 0.0, "type": "electric_scooter", "lon": -77.02559933333333}, {"rental_uris": {"android": "https://dc.lft.to/lastmile_qr_scan", "ios": "https://dc.lft.to/lastmile_qr_scan"}, "fusion_lat": 0.0, "is_reserved": 0, "lat": 38.892046666666666, "name": "366ba58dc3ce7ac747912d4f1a6aea5a", "bike_id": "366ba58dc3ce7ac747912d4f1a6aea5a", "is_disabled": 0, "fusion_lon": 0.0, "type": "electric_scooter", "lon": -76.929249}, {"rental_uris": {"android": "https://dc.lft.to/lastmile_qr_scan", "ios": "https://dc.lft.to/lastmile_qr_scan"}, "fusion_lat": 0.0, "is_reserved": 0, "lat": 38.92013333333333, "name": "63e62cca52ffb380a014cd7d725feadc", "bike_id": "63e62cca52ffb380a014cd7d725feadc", "is_disabled": 0, "fusion_lon": 0.0, "type": "electric_scooter", "lon": -77.0315695}, {"rental_uris": {"android": "https://dc.lft.to/lastmile_qr_scan", "ios": "https://dc.lft.to/lastmile_qr_scan"}, "fusion_lat": 0.0, "is_reserved": 0, "lat": 38.90139333333333, "name": "065a39765fd063894d56a85b1f500d3d", "bike_id": "065a39765fd063894d56a85b1f500d3d", "is_disabled": 0, "fusion_lon": 0.0, "type": "electric_scooter", "lon": -77.00072583333333}, {"rental_uris": {"android": "https://dc.lft.to/lastmile_qr_scan", "ios": "https://dc.lft.to/lastmile_qr_scan"}, "fusion_lat": 0.0, "is_reserved": 0, "lat": 38.9575215, "name": "b0d2f3ed5cf23728f122ba0c5380187e", "bike_id": "b0d2f3ed5cf23728f122ba0c5380187e", "is_disabled": 0, "fusion_lon": 0.0, "type": "electric_bike", "lon": -76.96755633333333}, {"rental_uris": {"android": "https://dc.lft.to/lastmile_qr_scan", "ios": "https://dc.lft.to/lastmile_qr_scan"}, "fusion_lat": 0.0, "is_reserved": 0, "lat": 38.9320555, "name": "ab33ab445ece280393a32374fc924e06", "bike_id": "ab33ab445ece280393a32374fc924e06", "is_disabled": 0, "fusion_lon": 0.0, "type": "electric_scooter", "lon": -77.02394833333334}, {"rental_uris": {"android": "https://dc.lft.to/lastmile_qr_scan", "ios": "https://dc.lft.to/lastmile_qr_scan"}, "fusion_lat": 0.0, "is_reserved": 0, "lat": 38.91574, "name": "645a302a918df8fe7aed702b66b6261d", "bike_id": "645a302a918df8fe7aed702b66b6261d", "is_disabled": 0, "fusion_lon": 0.0, "type": "electric_scooter", "lon": -77.047017}, {"rental_uris": {"android": "https://dc.lft.to/lastmile_qr_scan", "ios": "https://dc.lft.to/lastmile_qr_scan"}, "fusion_lat": 0.0, "is_reserved": 0, "lat": 38.87265383333333, "name": "c24f4c19ed50f3638854b206e934a8bb", "bike_id": "c24f4c19ed50f3638854b206e934a8bb", "is_disabled": 0, "fusion_lon": 0.0, "type": "electric_scooter", "lon": -77.017086}, {"rental_uris": {"android": "https://dc.lft.to/lastmile_qr_scan", "ios": "https://dc.lft.to/lastmile_qr_scan"}, "fusion_lat": 0.0, "is_reserved": 0, "lat": 38.917102666666665, "name": "25700247b56725d7404bed4f4b7ab36c", "bike_id": "25700247b56725d7404bed4f4b7ab36c", "is_disabled": 0, "fusion_lon": 0.0, "type": "electric_scooter", "lon": -77.0229185}, {"rental_uris": {"android": "https://dc.lft.to/lastmile_qr_scan", "ios": "https://dc.lft.to/lastmile_qr_scan"}, "fusion_lat": 0.0, "is_reserved": 0, "lat": 38.9376895, "name": "2a8a62adaa8c77d23c0289b32cf40f8c", "bike_id": "2a8a62adaa8c77d23c0289b32cf40f8c", "is_disabled": 0, "fusion_lon": 0.0, "type": "electric_bike", "lon": -77.019116}, {"rental_uris": {"android": "https://dc.lft.to/lastmile_qr_scan", "ios": "https://dc.lft.to/lastmile_qr_scan"}, "fusion_lat": 0.0, "is_reserved": 0, "lat": 38.923918666666665, "name": "2fa2d898d86970cf68c811f39d1a13d0", "bike_id": "2fa2d898d86970cf68c811f39d1a13d0", "is_disabled": 0, "fusion_lon": 0.0, "type": "electric_scooter", "lon": -77.0340775}, {"rental_uris": {"android": "https://dc.lft.to/lastmile_qr_scan", "ios": "https://dc.lft.to/lastmile_qr_scan"}, "fusion_lat": 0.0, "is_reserved": 0, "lat": 38.87297566666667, "name": "2635b0dce047861b5468eb51d88b5d87", "bike_id": "2635b0dce047861b5468eb51d88b5d87", "is_disabled": 0, "fusion_lon": 0.0, "type": "electric_scooter", "lon": -77.01559816666666}, {"rental_uris": {"android": "https://dc.lft.to/lastmile_qr_scan", "ios": "https://dc.lft.to/lastmile_qr_scan"}, "fusion_lat": 0.0, "is_reserved": 0, "lat": 38.88271116666667, "name": "29ab46ec245a1943306e17bba360f91e", "bike_id": "29ab46ec245a1943306e17bba360f91e", "is_disabled": 0, "fusion_lon": 0.0, "type": "electric_bike", "lon": -77.1117095}, {"rental_uris": {"android": "https://dc.lft.to/lastmile_qr_scan", "ios": "https://dc.lft.to/lastmile_qr_scan"}, "fusion_lat": 0.0, "is_reserved": 0, "lat": 38.934583333333336, "name": "b6806981a27ef84c5fbe05ff0470e14a", "bike_id": "b6806981a27ef84c5fbe05ff0470e14a", "is_disabled": 0, "fusion_lon": 0.0, "type": "electric_scooter", "lon": -77.07238516666666}, {"rental_uris": {"android": "https://dc.lft.to/lastmile_qr_scan", "ios": "https://dc.lft.to/lastmile_qr_scan"}, "fusion_lat": 0.0, "is_reserved": 0, "lat": 38.924183166666666, "name": "a0f084b283fd4575f023b40680d0f862", "bike_id": "a0f084b283fd4575f023b40680d0f862", "is_disabled": 0, "fusion_lon": 0.0, "type": "electric_scooter", "lon": -77.01950866666667}, {"rental_uris": {"android": "https://dc.lft.to/lastmile_qr_scan", "ios": "https://dc.lft.to/lastmile_qr_scan"}, "fusion_lat": 0.0, "is_reserved": 0, "lat": 38.9059835, "name": "27957029ab86e2733c43f41008fe46a7", "bike_id": "27957029ab86e2733c43f41008fe46a7", "is_disabled": 0, "fusion_lon": 0.0, "type": "electric_scooter", "lon": -77.01619}, {"rental_uris": {"android": "https://dc.lft.to/lastmile_qr_scan", "ios": "https://dc.lft.to/lastmile_qr_scan"}, "fusion_lat": 0.0, "is_reserved": 0, "lat": 38.926872, "name": "75d71230d0d210607a5929ff84683fcc", "bike_id": "75d71230d0d210607a5929ff84683fcc", "is_disabled": 0, "fusion_lon": 0.0, "type": "electric_scooter", "lon": -77.02964633333333}, {"rental_uris": {"android": "https://dc.lft.to/lastmile_qr_scan", "ios": "https://dc.lft.to/lastmile_qr_scan"}, "fusion_lat": 0.0, "is_reserved": 0, "lat": 38.90710883333333, "name": "023e29b7f1b25c47411ee04382f58621", "bike_id": "023e29b7f1b25c47411ee04382f58621", "is_disabled": 0, "fusion_lon": 0.0, "type": "electric_scooter", "lon": -77.02967916666667}, {"rental_uris": {"android": "https://dc.lft.to/lastmile_qr_scan", "ios": "https://dc.lft.to/lastmile_qr_scan"}, "fusion_lat": 0.0, "is_reserved": 0, "lat": 38.897276166666664, "name": "99caf7e62a08251f5f1b50bfc8596683", "bike_id": "99caf7e62a08251f5f1b50bfc8596683", "is_disabled": 0, "fusion_lon": 0.0, "type": "electric_scooter", "lon": -77.055256}, {"rental_uris": {"android": "https://dc.lft.to/lastmile_qr_scan", "ios": "https://dc.lft.to/lastmile_qr_scan"}, "fusion_lat": 0.0, "is_reserved": 0, "lat": 38.92067683333333, "name": "9eb1a815d936ca8861861d48c1e4483e", "bike_id": "9eb1a815d936ca8861861d48c1e4483e", "is_disabled": 0, "fusion_lon": 0.0, "type": "electric_scooter", "lon": -77.03461483333334}, {"rental_uris": {"android": "https://dc.lft.to/lastmile_qr_scan", "ios": "https://dc.lft.to/lastmile_qr_scan"}, "fusion_lat": 0.0, "is_reserved": 0, "lat": 38.88792733333333, "name": "cccb393e1b65e041bcf70ee21d5da54d", "bike_id": "cccb393e1b65e041bcf70ee21d5da54d", "is_disabled": 0, "fusion_lon": 0.0, "type": "electric_scooter", "lon": -76.977126}, {"rental_uris": {"android": "https://dc.lft.to/lastmile_qr_scan", "ios": "https://dc.lft.to/lastmile_qr_scan"}, "fusion_lat": 0.0, "is_reserved": 0, "lat": 38.9047325, "name": "665ef61ed524b572e61b258a5c4e4ed4", "bike_id": "665ef61ed524b572e61b258a5c4e4ed4", "is_disabled": 0, "fusion_lon": 0.0, "type": "electric_scooter", "lon": -77.04176383333333}, {"rental_uris": {"android": "https://dc.lft.to/lastmile_qr_scan", "ios": "https://dc.lft.to/lastmile_qr_scan"}, "fusion_lat": 0.0, "is_reserved": 0, "lat": 38.906265166666664, "name": "a7453ff2a14d3f09ef04ea8a5e34e194", "bike_id": "a7453ff2a14d3f09ef04ea8a5e34e194", "is_disabled": 0, "fusion_lon": 0.0, "type": "electric_scooter", "lon": -77.05027983333333}, {"rental_uris": {"android": "https://dc.lft.to/lastmile_qr_scan", "ios": "https://dc.lft.to/lastmile_qr_scan"}, "fusion_lat": 0.0, "is_reserved": 0, "lat": 38.93277366666667, "name": "1dfbc97f2b17cf73d8756a40953cce9c", "bike_id": "1dfbc97f2b17cf73d8756a40953cce9c", "is_disabled": 0, "fusion_lon": 0.0, "type": "electric_scooter", "lon": -77.02834583333333}, {"rental_uris": {"android": "https://dc.lft.to/lastmile_qr_scan", "ios": "https://dc.lft.to/lastmile_qr_scan"}, "fusion_lat": 0.0, "is_reserved": 0, "lat": 38.84806666666667, "name": "36e23dcd613bb83d2a0f0374af5cc6fd", "bike_id": "36e23dcd613bb83d2a0f0374af5cc6fd", "is_disabled": 0, "fusion_lon": 0.0, "type": "electric_bike", "lon": -76.9523385}, {"rental_uris": {"android": "https://dc.lft.to/lastmile_qr_scan", "ios": "https://dc.lft.to/lastmile_qr_scan"}, "fusion_lat": 0.0, "is_reserved": 0, "lat": 38.889895833333334, "name": "019bdd707b82ea328c49b0d26a95ff23", "bike_id": "019bdd707b82ea328c49b0d26a95ff23", "is_disabled": 0, "fusion_lon": 0.0, "type": "electric_scooter", "lon": -77.00337733333333}, {"rental_uris": {"android": "https://dc.lft.to/lastmile_qr_scan", "ios": "https://dc.lft.to/lastmile_qr_scan"}, "fusion_lat": 0.0, "is_reserved": 0, "lat": 38.917062, "name": "912afaf9300b2418f67505a202ff837a", "bike_id": "912afaf9300b2418f67505a202ff837a", "is_disabled": 0, "fusion_lon": 0.0, "type": "electric_scooter", "lon": -77.03500233333334}, {"rental_uris": {"android": "https://dc.lft.to/lastmile_qr_scan", "ios": "https://dc.lft.to/lastmile_qr_scan"}, "fusion_lat": 0.0, "is_reserved": 0, "lat": 38.92399866666667, "name": "02526b3d0da8f9a2937c5058f555e604", "bike_id": "02526b3d0da8f9a2937c5058f555e604", "is_disabled": 0, "fusion_lon": 0.0, "type": "electric_scooter", "lon": -77.02698916666667}, {"rental_uris": {"android": "https://dc.lft.to/lastmile_qr_scan", "ios": "https://dc.lft.to/lastmile_qr_scan"}, "fusion_lat": 0.0, "is_reserved": 0, "lat": 38.87478633333333, "name": "eb6372d0f267d05e6239c4b56b13cf18", "bike_id": "eb6372d0f267d05e6239c4b56b13cf18", "is_disabled": 0, "fusion_lon": 0.0, "type": "electric_bike", "lon": -76.96531866666666}, {"rental_uris": {"android": "https://dc.lft.to/lastmile_qr_scan", "ios": "https://dc.lft.to/lastmile_qr_scan"}, "fusion_lat": 0.0, "is_reserved": 0, "lat": 38.89979483333333, "name": "e14a7038ff5f6a8fd58b248f46e66fd0", "bike_id": "e14a7038ff5f6a8fd58b248f46e66fd0", "is_disabled": 0, "fusion_lon": 0.0, "type": "electric_scooter", "lon": -77.01635}, {"rental_uris": {"android": "https://dc.lft.to/lastmile_qr_scan", "ios": "https://dc.lft.to/lastmile_qr_scan"}, "fusion_lat": 0.0, "is_reserved": 0, "lat": 38.939694833333334, "name": "895dbc20cf94ca81348f0d2c831ee4a1", "bike_id": "895dbc20cf94ca81348f0d2c831ee4a1", "is_disabled": 0, "fusion_lon": 0.0, "type": "electric_scooter", "lon": -77.03283666666667}, {"rental_uris": {"android": "https://dc.lft.to/lastmile_qr_scan", "ios": "https://dc.lft.to/lastmile_qr_scan"}, "fusion_lat": 0.0, "is_reserved": 0, "lat": 38.923615, "name": "b81cad550d5979eb4a07942248dea6d8", "bike_id": "b81cad550d5979eb4a07942248dea6d8", "is_disabled": 0, "fusion_lon": 0.0, "type": "electric_scooter", "lon": -77.03374333333333}, {"rental_uris": {"android": "https://dc.lft.to/lastmile_qr_scan", "ios": "https://dc.lft.to/lastmile_qr_scan"}, "fusion_lat": 0.0, "is_reserved": 0, "lat": 38.93098166666667, "name": "14f7c980d771764c70aa8ac81ad34961", "bike_id": "14f7c980d771764c70aa8ac81ad34961", "is_disabled": 0, "fusion_lon": 0.0, "type": "electric_scooter", "lon": -77.037441}, {"rental_uris": {"android": "https://dc.lft.to/lastmile_qr_scan", "ios": "https://dc.lft.to/lastmile_qr_scan"}, "fusion_lat": 0.0, "is_reserved": 0, "lat": 38.871449166666665, "name": "f1252f3f1ef18ced7e57efe7c240bdd8", "bike_id": "f1252f3f1ef18ced7e57efe7c240bdd8", "is_disabled": 0, "fusion_lon": 0.0, "type": "electric_scooter", "lon": -76.9746725}, {"rental_uris": {"android": "https://dc.lft.to/lastmile_qr_scan", "ios": "https://dc.lft.to/lastmile_qr_scan"}, "fusion_lat": 0.0, "is_reserved": 0, "lat": 38.926815500000004, "name": "6ca2fad71e31850aacbb25de013cfe50", "bike_id": "6ca2fad71e31850aacbb25de013cfe50", "is_disabled": 0, "fusion_lon": 0.0, "type": "electric_scooter", "lon": -77.0323685}, {"rental_uris": {"android": "https://dc.lft.to/lastmile_qr_scan", "ios": "https://dc.lft.to/lastmile_qr_scan"}, "fusion_lat": 0.0, "is_reserved": 0, "lat": 38.8799395, "name": "60f2f453a072151f5006a60f5e115f3f", "bike_id": "60f2f453a072151f5006a60f5e115f3f", "is_disabled": 0, "fusion_lon": 0.0, "type": "electric_scooter", "lon": -77.037407}, {"rental_uris": {"android": "https://dc.lft.to/lastmile_qr_scan", "ios": "https://dc.lft.to/lastmile_qr_scan"}, "fusion_lat": 0.0, "is_reserved": 0, "lat": 38.936028666666665, "name": "2c62ca21686a7e8a43f99a325757f84b", "bike_id": "2c62ca21686a7e8a43f99a325757f84b", "is_disabled": 0, "fusion_lon": 0.0, "type": "electric_scooter", "lon": -77.05869516666667}, {"rental_uris": {"android": "https://dc.lft.to/lastmile_qr_scan", "ios": "https://dc.lft.to/lastmile_qr_scan"}, "fusion_lat": 0.0, "is_reserved": 0, "lat": 38.918864666666664, "name": "8be1cf2c43cabbc3a03075dadce93c4f", "bike_id": "8be1cf2c43cabbc3a03075dadce93c4f", "is_disabled": 0, "fusion_lon": 0.0, "type": "electric_scooter", "lon": -77.02716283333334}, {"rental_uris": {"android": "https://dc.lft.to/lastmile_qr_scan", "ios": "https://dc.lft.to/lastmile_qr_scan"}, "fusion_lat": 0.0, "is_reserved": 0, "lat": 38.905738166666666, "name": "80c35f506b89df41dc98be75c1af8351", "bike_id": "80c35f506b89df41dc98be75c1af8351", "is_disabled": 0, "fusion_lon": 0.0, "type": "electric_scooter", "lon": -77.03570033333334}, {"rental_uris": {"android": "https://dc.lft.to/lastmile_qr_scan", "ios": "https://dc.lft.to/lastmile_qr_scan"}, "fusion_lat": 0.0, "is_reserved": 0, "lat": 38.88687683333333, "name": "7b125fd18fd34f05c685576816af5ff7", "bike_id": "7b125fd18fd34f05c685576816af5ff7", "is_disabled": 0, "fusion_lon": 0.0, "type": "electric_scooter", "lon": -77.0138085}, {"rental_uris": {"android": "https://dc.lft.to/lastmile_qr_scan", "ios": "https://dc.lft.to/lastmile_qr_scan"}, "fusion_lat": 0.0, "is_reserved": 0, "lat": 38.92612733333333, "name": "71b6d56c14b479d97f3a179a480b9e9a", "bike_id": "71b6d56c14b479d97f3a179a480b9e9a", "is_disabled": 0, "fusion_lon": 0.0, "type": "electric_scooter", "lon": -77.02165633333334}, {"rental_uris": {"android": "https://dc.lft.to/lastmile_qr_scan", "ios": "https://dc.lft.to/lastmile_qr_scan"}, "fusion_lat": 0.0, "is_reserved": 0, "lat": 38.9154685, "name": "e5a52d5bd08a7322c1ac044dede472cf", "bike_id": "e5a52d5bd08a7322c1ac044dede472cf", "is_disabled": 0, "fusion_lon": 0.0, "type": "electric_scooter", "lon": -77.02817566666667}, {"rental_uris": {"android": "https://dc.lft.to/lastmile_qr_scan", "ios": "https://dc.lft.to/lastmile_qr_scan"}, "fusion_lat": 0.0, "is_reserved": 0, "lat": 38.909603, "name": "260dd678dd75695445217d0bf4e9ee32", "bike_id": "260dd678dd75695445217d0bf4e9ee32", "is_disabled": 0, "fusion_lon": 0.0, "type": "electric_scooter", "lon": -77.02283233333333}, {"rental_uris": {"android": "https://dc.lft.to/lastmile_qr_scan", "ios": "https://dc.lft.to/lastmile_qr_scan"}, "fusion_lat": 0.0, "is_reserved": 0, "lat": 38.9272395, "name": "e63643791784b96033bb5aa636a6d0c6", "bike_id": "e63643791784b96033bb5aa636a6d0c6", "is_disabled": 0, "fusion_lon": 0.0, "type": "electric_scooter", "lon": -77.02967883333334}, {"rental_uris": {"android": "https://dc.lft.to/lastmile_qr_scan", "ios": "https://dc.lft.to/lastmile_qr_scan"}, "fusion_lat": 0.0, "is_reserved": 0, "lat": 38.90168083333333, "name": "85bc185f24504c5c2f11888bda1947e4", "bike_id": "85bc185f24504c5c2f11888bda1947e4", "is_disabled": 0, "fusion_lon": 0.0, "type": "electric_scooter", "lon": -76.93024516666667}, {"rental_uris": {"android": "https://dc.lft.to/lastmile_qr_scan", "ios": "https://dc.lft.to/lastmile_qr_scan"}, "fusion_lat": 0.0, "is_reserved": 0, "lat": 38.8980035, "name": "b7a8a6395395550cbe6ef4eb4ec154c2", "bike_id": "b7a8a6395395550cbe6ef4eb4ec154c2", "is_disabled": 0, "fusion_lon": 0.0, "type": "electric_scooter", "lon": -77.01218283333333}, {"rental_uris": {"android": "https://dc.lft.to/lastmile_qr_scan", "ios": "https://dc.lft.to/lastmile_qr_scan"}, "fusion_lat": 0.0, "is_reserved": 0, "lat": 38.807306, "name": "50b5bbc61a945580aa10a635bf4c9001", "bike_id": "50b5bbc61a945580aa10a635bf4c9001", "is_disabled": 0, "fusion_lon": 0.0, "type": "electric_bike", "lon": -76.992556}, {"rental_uris": {"android": "https://dc.lft.to/lastmile_qr_scan", "ios": "https://dc.lft.to/lastmile_qr_scan"}, "fusion_lat": 0.0, "is_reserved": 0, "lat": 38.91711016666667, "name": "58f6d1fe5f5f1871be594a30f6839538", "bike_id": "58f6d1fe5f5f1871be594a30f6839538", "is_disabled": 0, "fusion_lon": 0.0, "type": "electric_scooter", "lon": -77.03347666666667}, {"rental_uris": {"android": "https://dc.lft.to/lastmile_qr_scan", "ios": "https://dc.lft.to/lastmile_qr_scan"}, "fusion_lat": 0.0, "is_reserved": 0, "lat": 38.9233055, "name": "e8bf0e9a344524727906e64978761ea5", "bike_id": "e8bf0e9a344524727906e64978761ea5", "is_disabled": 0, "fusion_lon": 0.0, "type": "electric_scooter", "lon": -77.00891733333333}, {"rental_uris": {"android": "https://dc.lft.to/lastmile_qr_scan", "ios": "https://dc.lft.to/lastmile_qr_scan"}, "fusion_lat": 0.0, "is_reserved": 0, "lat": 38.859546, "name": "5ffab4dd916d35e741fc4f151511bc13", "bike_id": "5ffab4dd916d35e741fc4f151511bc13", "is_disabled": 0, "fusion_lon": 0.0, "type": "electric_scooter", "lon": -76.99149383333334}, {"rental_uris": {"android": "https://dc.lft.to/lastmile_qr_scan", "ios": "https://dc.lft.to/lastmile_qr_scan"}, "fusion_lat": 0.0, "is_reserved": 0, "lat": 38.87656366666667, "name": "c253e44b7386b01a0eb4dcc44ed9a4db", "bike_id": "c253e44b7386b01a0eb4dcc44ed9a4db", "is_disabled": 0, "fusion_lon": 0.0, "type": "electric_scooter", "lon": -77.00414216666667}, {"rental_uris": {"android": "https://dc.lft.to/lastmile_qr_scan", "ios": "https://dc.lft.to/lastmile_qr_scan"}, "fusion_lat": 0.0, "is_reserved": 0, "lat": 38.90062316666667, "name": "8e940675187148581d0cd54e6b6aa637", "bike_id": "8e940675187148581d0cd54e6b6aa637", "is_disabled": 0, "fusion_lon": 0.0, "type": "electric_scooter", "lon": -77.0270795}, {"rental_uris": {"android": "https://dc.lft.to/lastmile_qr_scan", "ios": "https://dc.lft.to/lastmile_qr_scan"}, "fusion_lat": 0.0, "is_reserved": 0, "lat": 38.941304833333334, "name": "b49a2b40c7fe2cc1971bd2bae98c9751", "bike_id": "b49a2b40c7fe2cc1971bd2bae98c9751", "is_disabled": 0, "fusion_lon": 0.0, "type": "electric_scooter", "lon": -77.06174066666667}, {"rental_uris": {"android": "https://dc.lft.to/lastmile_qr_scan", "ios": "https://dc.lft.to/lastmile_qr_scan"}, "fusion_lat": 0.0, "is_reserved": 0, "lat": 38.917841833333334, "name": "b7c520b76927f166b8eddf438b43735a", "bike_id": "b7c520b76927f166b8eddf438b43735a", "is_disabled": 0, "fusion_lon": 0.0, "type": "electric_scooter", "lon": -77.03444316666666}, {"rental_uris": {"android": "https://dc.lft.to/lastmile_qr_scan", "ios": "https://dc.lft.to/lastmile_qr_scan"}, "fusion_lat": 0.0, "is_reserved": 0, "lat": 38.92451, "name": "116e2eea783934c1afc4f417e6b84bcc", "bike_id": "116e2eea783934c1afc4f417e6b84bcc", "is_disabled": 0, "fusion_lon": 0.0, "type": "electric_scooter", "lon": -77.04114433333334}, {"rental_uris": {"android": "https://dc.lft.to/lastmile_qr_scan", "ios": "https://dc.lft.to/lastmile_qr_scan"}, "fusion_lat": 0.0, "is_reserved": 0, "lat": 38.9349645, "name": "dbd80ebe7a03b2d3e0d1097d063c89a4", "bike_id": "dbd80ebe7a03b2d3e0d1097d063c89a4", "is_disabled": 0, "fusion_lon": 0.0, "type": "electric_scooter", "lon": -77.027267}, {"rental_uris": {"android": "https://dc.lft.to/lastmile_qr_scan", "ios": "https://dc.lft.to/lastmile_qr_scan"}, "fusion_lat": 0.0, "is_reserved": 0, "lat": 38.919709, "name": "adbcf959324f899e71a0a654fb5b8d24", "bike_id": "adbcf959324f899e71a0a654fb5b8d24", "is_disabled": 0, "fusion_lon": 0.0, "type": "electric_scooter", "lon": -77.0412735}, {"rental_uris": {"android": "https://dc.lft.to/lastmile_qr_scan", "ios": "https://dc.lft.to/lastmile_qr_scan"}, "fusion_lat": 0.0, "is_reserved": 0, "lat": 38.92181866666667, "name": "bf787dd77bab614b6dccad83f6cb7a18", "bike_id": "bf787dd77bab614b6dccad83f6cb7a18", "is_disabled": 0, "fusion_lon": 0.0, "type": "electric_scooter", "lon": -76.998394}, {"rental_uris": {"android": "https://dc.lft.to/lastmile_qr_scan", "ios": "https://dc.lft.to/lastmile_qr_scan"}, "fusion_lat": 0.0, "is_reserved": 0, "lat": 38.885206833333335, "name": "bd6858760f52adca6eb6168fa0b1f29b", "bike_id": "bd6858760f52adca6eb6168fa0b1f29b", "is_disabled": 0, "fusion_lon": 0.0, "type": "electric_scooter", "lon": -76.97711333333334}, {"rental_uris": {"android": "https://dc.lft.to/lastmile_qr_scan", "ios": "https://dc.lft.to/lastmile_qr_scan"}, "fusion_lat": 0.0, "is_reserved": 0, "lat": 38.960332, "name": "53411c7a2e0012c7e4f4d912b887d9b4", "bike_id": "53411c7a2e0012c7e4f4d912b887d9b4", "is_disabled": 0, "fusion_lon": 0.0, "type": "electric_scooter", "lon": -77.02429083333334}, {"rental_uris": {"android": "https://dc.lft.to/lastmile_qr_scan", "ios": "https://dc.lft.to/lastmile_qr_scan"}, "fusion_lat": 0.0, "is_reserved": 0, "lat": 38.915686, "name": "75140e9ccd33da4266ce36234088e685", "bike_id": "75140e9ccd33da4266ce36234088e685", "is_disabled": 0, "fusion_lon": 0.0, "type": "electric_scooter", "lon": -77.047163}, {"rental_uris": {"android": "https://dc.lft.to/lastmile_qr_scan", "ios": "https://dc.lft.to/lastmile_qr_scan"}, "fusion_lat": 0.0, "is_reserved": 0, "lat": 38.89965183333333, "name": "52d8e3c2868c8af8e77928492ea8fc8c", "bike_id": "52d8e3c2868c8af8e77928492ea8fc8c", "is_disabled": 0, "fusion_lon": 0.0, "type": "electric_bike", "lon": -76.9804145}, {"rental_uris": {"android": "https://dc.lft.to/lastmile_qr_scan", "ios": "https://dc.lft.to/lastmile_qr_scan"}, "fusion_lat": 0.0, "is_reserved": 0, "lat": 38.899969, "name": "e03d639a68bafe0b5b48b68500675c2e", "bike_id": "e03d639a68bafe0b5b48b68500675c2e", "is_disabled": 0, "fusion_lon": 0.0, "type": "electric_scooter", "lon": -77.0006905}, {"rental_uris": {"android": "https://dc.lft.to/lastmile_qr_scan", "ios": "https://dc.lft.to/lastmile_qr_scan"}, "fusion_lat": 0.0, "is_reserved": 0, "lat": 38.915796, "name": "bdc791a3293c8748a9b138eb1f4093e9", "bike_id": "bdc791a3293c8748a9b138eb1f4093e9", "is_disabled": 0, "fusion_lon": 0.0, "type": "electric_scooter", "lon": -77.0123495}, {"rental_uris": {"android": "https://dc.lft.to/lastmile_qr_scan", "ios": "https://dc.lft.to/lastmile_qr_scan"}, "fusion_lat": 0.0, "is_reserved": 0, "lat": 38.90785316666667, "name": "64ef071b56ce97ee2a5d7954948fe029", "bike_id": "64ef071b56ce97ee2a5d7954948fe029", "is_disabled": 0, "fusion_lon": 0.0, "type": "electric_scooter", "lon": -77.03058916666667}, {"rental_uris": {"android": "https://dc.lft.to/lastmile_qr_scan", "ios": "https://dc.lft.to/lastmile_qr_scan"}, "fusion_lat": 0.0, "is_reserved": 0, "lat": 38.908336, "name": "8f0774da81f46256e833512bd1b4f9b0", "bike_id": "8f0774da81f46256e833512bd1b4f9b0", "is_disabled": 0, "fusion_lon": 0.0, "type": "electric_scooter", "lon": -76.99686816666667}, {"rental_uris": {"android": "https://dc.lft.to/lastmile_qr_scan", "ios": "https://dc.lft.to/lastmile_qr_scan"}, "fusion_lat": 0.0, "is_reserved": 0, "lat": 38.911721666666665, "name": "686f003d7595edfd10c6d255d1c383da", "bike_id": "686f003d7595edfd10c6d255d1c383da", "is_disabled": 0, "fusion_lon": 0.0, "type": "electric_scooter", "lon": -77.00438133333333}, {"rental_uris": {"android": "https://dc.lft.to/lastmile_qr_scan", "ios": "https://dc.lft.to/lastmile_qr_scan"}, "fusion_lat": 0.0, "is_reserved": 0, "lat": 38.896176833333335, "name": "150804f54013209d167dbd42c5e25176", "bike_id": "150804f54013209d167dbd42c5e25176", "is_disabled": 0, "fusion_lon": 0.0, "type": "electric_scooter", "lon": -76.97686066666667}, {"rental_uris": {"android": "https://dc.lft.to/lastmile_qr_scan", "ios": "https://dc.lft.to/lastmile_qr_scan"}, "fusion_lat": 0.0, "is_reserved": 0, "lat": 38.9024695, "name": "ac9bb820fb2be317cb0766df85439d36", "bike_id": "ac9bb820fb2be317cb0766df85439d36", "is_disabled": 0, "fusion_lon": 0.0, "type": "electric_scooter", "lon": -77.00187216666667}, {"rental_uris": {"android": "https://dc.lft.to/lastmile_qr_scan", "ios": "https://dc.lft.to/lastmile_qr_scan"}, "fusion_lat": 0.0, "is_reserved": 0, "lat": 38.90901683333333, "name": "9dc1746eaa3e93e38e38cfefbd6b4f8b", "bike_id": "9dc1746eaa3e93e38e38cfefbd6b4f8b", "is_disabled": 0, "fusion_lon": 0.0, "type": "electric_scooter", "lon": -76.99114083333333}, {"rental_uris": {"android": "https://dc.lft.to/lastmile_qr_scan", "ios": "https://dc.lft.to/lastmile_qr_scan"}, "fusion_lat": 0.0, "is_reserved": 0, "lat": 38.884043166666665, "name": "ceaf290952770df07ee51d5681443f3d", "bike_id": "ceaf290952770df07ee51d5681443f3d", "is_disabled": 0, "fusion_lon": 0.0, "type": "electric_scooter", "lon": -76.93042966666667}, {"rental_uris": {"android": "https://dc.lft.to/lastmile_qr_scan", "ios": "https://dc.lft.to/lastmile_qr_scan"}, "fusion_lat": 0.0, "is_reserved": 0, "lat": 38.917003666666666, "name": "22b7fe96152955ae8fd5ed902b1efb66", "bike_id": "22b7fe96152955ae8fd5ed902b1efb66", "is_disabled": 0, "fusion_lon": 0.0, "type": "electric_scooter", "lon": -77.02306833333333}, {"rental_uris": {"android": "https://dc.lft.to/lastmile_qr_scan", "ios": "https://dc.lft.to/lastmile_qr_scan"}, "fusion_lat": 0.0, "is_reserved": 0, "lat": 38.926102, "name": "48e8d7b8f93541910cad79e27b069016", "bike_id": "48e8d7b8f93541910cad79e27b069016", "is_disabled": 0, "fusion_lon": 0.0, "type": "electric_scooter", "lon": -77.021628}, {"rental_uris": {"android": "https://dc.lft.to/lastmile_qr_scan", "ios": "https://dc.lft.to/lastmile_qr_scan"}, "fusion_lat": 0.0, "is_reserved": 0, "lat": 38.900134, "name": "b475941565e1d7f38768ec55b33e1486", "bike_id": "b475941565e1d7f38768ec55b33e1486", "is_disabled": 0, "fusion_lon": 0.0, "type": "electric_scooter", "lon": -76.93026066666667}, {"rental_uris": {"android": "https://dc.lft.to/lastmile_qr_scan", "ios": "https://dc.lft.to/lastmile_qr_scan"}, "fusion_lat": 0.0, "is_reserved": 0, "lat": 38.92601916666667, "name": "8c27f77ef602a9311147e04417bc56c3", "bike_id": "8c27f77ef602a9311147e04417bc56c3", "is_disabled": 0, "fusion_lon": 0.0, "type": "electric_scooter", "lon": -77.02157383333333}, {"rental_uris": {"android": "https://dc.lft.to/lastmile_qr_scan", "ios": "https://dc.lft.to/lastmile_qr_scan"}, "fusion_lat": 0.0, "is_reserved": 0, "lat": 38.879168166666666, "name": "e870f0f0f03ccbb7b0b2a40316681174", "bike_id": "e870f0f0f03ccbb7b0b2a40316681174", "is_disabled": 0, "fusion_lon": 0.0, "type": "electric_scooter", "lon": -77.02159983333334}, {"rental_uris": {"android": "https://dc.lft.to/lastmile_qr_scan", "ios": "https://dc.lft.to/lastmile_qr_scan"}, "fusion_lat": 0.0, "is_reserved": 0, "lat": 38.91543, "name": "0279793fc7dd8744ac9fba64b86ba8c7", "bike_id": "0279793fc7dd8744ac9fba64b86ba8c7", "is_disabled": 0, "fusion_lon": 0.0, "type": "electric_scooter", "lon": -77.02204416666666}, {"rental_uris": {"android": "https://dc.lft.to/lastmile_qr_scan", "ios": "https://dc.lft.to/lastmile_qr_scan"}, "fusion_lat": 0.0, "is_reserved": 0, "lat": 38.9165055, "name": "df52baa1d4b071422b912598f5de3098", "bike_id": "df52baa1d4b071422b912598f5de3098", "is_disabled": 0, "fusion_lon": 0.0, "type": "electric_scooter", "lon": -77.01033}, {"rental_uris": {"android": "https://dc.lft.to/lastmile_qr_scan", "ios": "https://dc.lft.to/lastmile_qr_scan"}, "fusion_lat": 0.0, "is_reserved": 0, "lat": 38.905754, "name": "5a679da24597a32238004e7f7a1d5995", "bike_id": "5a679da24597a32238004e7f7a1d5995", "is_disabled": 0, "fusion_lon": 0.0, "type": "electric_scooter", "lon": -77.00563683333333}, {"rental_uris": {"android": "https://dc.lft.to/lastmile_qr_scan", "ios": "https://dc.lft.to/lastmile_qr_scan"}, "fusion_lat": 0.0, "is_reserved": 0, "lat": 38.900631833333335, "name": "26cd0d68bcca48263e870db0de05990a", "bike_id": "26cd0d68bcca48263e870db0de05990a", "is_disabled": 0, "fusion_lon": 0.0, "type": "electric_scooter", "lon": -77.021812}, {"rental_uris": {"android": "https://dc.lft.to/lastmile_qr_scan", "ios": "https://dc.lft.to/lastmile_qr_scan"}, "fusion_lat": 0.0, "is_reserved": 0, "lat": 38.89298766666667, "name": "ba6fcbe61c4a9a17df54b302d2388ef4", "bike_id": "ba6fcbe61c4a9a17df54b302d2388ef4", "is_disabled": 0, "fusion_lon": 0.0, "type": "electric_scooter", "lon": -76.92993133333333}, {"rental_uris": {"android": "https://dc.lft.to/lastmile_qr_scan", "ios": "https://dc.lft.to/lastmile_qr_scan"}, "fusion_lat": 0.0, "is_reserved": 0, "lat": 38.9576085, "name": "8ec469223a0a42e0c8f5ff5f16b8e819", "bike_id": "8ec469223a0a42e0c8f5ff5f16b8e819", "is_disabled": 0, "fusion_lon": 0.0, "type": "electric_scooter", "lon": -77.0149495}, {"rental_uris": {"android": "https://dc.lft.to/lastmile_qr_scan", "ios": "https://dc.lft.to/lastmile_qr_scan"}, "fusion_lat": 0.0, "is_reserved": 0, "lat": 38.89223283333333, "name": "07c910aa69a083d921c9851018c8e28a", "bike_id": "07c910aa69a083d921c9851018c8e28a", "is_disabled": 0, "fusion_lon": 0.0, "type": "electric_scooter", "lon": -77.03986233333333}, {"rental_uris": {"android": "https://dc.lft.to/lastmile_qr_scan", "ios": "https://dc.lft.to/lastmile_qr_scan"}, "fusion_lat": 0.0, "is_reserved": 0, "lat": 38.90586533333333, "name": "035216b60731ba11878a9569666cc6f7", "bike_id": "035216b60731ba11878a9569666cc6f7", "is_disabled": 0, "fusion_lon": 0.0, "type": "electric_scooter", "lon": -76.9841425}, {"rental_uris": {"android": "https://dc.lft.to/lastmile_qr_scan", "ios": "https://dc.lft.to/lastmile_qr_scan"}, "fusion_lat": 0.0, "is_reserved": 0, "lat": 38.927620166666664, "name": "1eb619366fd226f1a351036f508578e6", "bike_id": "1eb619366fd226f1a351036f508578e6", "is_disabled": 0, "fusion_lon": 0.0, "type": "electric_scooter", "lon": -77.0688645}, {"rental_uris": {"android": "https://dc.lft.to/lastmile_qr_scan", "ios": "https://dc.lft.to/lastmile_qr_scan"}, "fusion_lat": 0.0, "is_reserved": 0, "lat": 38.92478883333333, "name": "e2b9286ec115f8c08ed6a9c2878eb5cc", "bike_id": "e2b9286ec115f8c08ed6a9c2878eb5cc", "is_disabled": 0, "fusion_lon": 0.0, "type": "electric_scooter", "lon": -77.030519}, {"rental_uris": {"android": "https://dc.lft.to/lastmile_qr_scan", "ios": "https://dc.lft.to/lastmile_qr_scan"}, "fusion_lat": 0.0, "is_reserved": 0, "lat": 38.893890999999996, "name": "385b37dc2db16f6b2db5ada1ded36fbf", "bike_id": "385b37dc2db16f6b2db5ada1ded36fbf", "is_disabled": 0, "fusion_lon": 0.0, "type": "electric_bike", "lon": -76.86846133333333}, {"rental_uris": {"android": "https://dc.lft.to/lastmile_qr_scan", "ios": "https://dc.lft.to/lastmile_qr_scan"}, "fusion_lat": 0.0, "is_reserved": 0, "lat": 38.93174916666667, "name": "165edb59a0112cbb273483fdd0f2abca", "bike_id": "165edb59a0112cbb273483fdd0f2abca", "is_disabled": 0, "fusion_lon": 0.0, "type": "electric_bike", "lon": -77.02028733333333}, {"rental_uris": {"android": "https://dc.lft.to/lastmile_qr_scan", "ios": "https://dc.lft.to/lastmile_qr_scan"}, "fusion_lat": 0.0, "is_reserved": 0, "lat": 38.923652833333335, "name": "8c7c1dee630844407cd7d5be7300f9a2", "bike_id": "8c7c1dee630844407cd7d5be7300f9a2", "is_disabled": 0, "fusion_lon": 0.0, "type": "electric_scooter", "lon": -77.01915233333334}, {"rental_uris": {"android": "https://dc.lft.to/lastmile_qr_scan", "ios": "https://dc.lft.to/lastmile_qr_scan"}, "fusion_lat": 0.0, "is_reserved": 0, "lat": 38.90523116666667, "name": "ea5d1748fb92aa5cbc71b23447c4ca01", "bike_id": "ea5d1748fb92aa5cbc71b23447c4ca01", "is_disabled": 0, "fusion_lon": 0.0, "type": "electric_scooter", "lon": -76.98405533333333}, {"rental_uris": {"android": "https://dc.lft.to/lastmile_qr_scan", "ios": "https://dc.lft.to/lastmile_qr_scan"}, "fusion_lat": 0.0, "is_reserved": 0, "lat": 38.915662166666664, "name": "8039e8fcb807d33a3fe8924e7c4c340f", "bike_id": "8039e8fcb807d33a3fe8924e7c4c340f", "is_disabled": 0, "fusion_lon": 0.0, "type": "electric_scooter", "lon": -77.03131466666666}, {"rental_uris": {"android": "https://dc.lft.to/lastmile_qr_scan", "ios": "https://dc.lft.to/lastmile_qr_scan"}, "fusion_lat": 0.0, "is_reserved": 0, "lat": 38.933513833333336, "name": "2400edd03a71688c745c24db475eae9e", "bike_id": "2400edd03a71688c745c24db475eae9e", "is_disabled": 0, "fusion_lon": 0.0, "type": "electric_scooter", "lon": -77.041251}, {"rental_uris": {"android": "https://dc.lft.to/lastmile_qr_scan", "ios": "https://dc.lft.to/lastmile_qr_scan"}, "fusion_lat": 0.0, "is_reserved": 0, "lat": 38.89976733333334, "name": "ed1e057762003fe27080204eed273111", "bike_id": "ed1e057762003fe27080204eed273111", "is_disabled": 0, "fusion_lon": 0.0, "type": "electric_scooter", "lon": -77.01630016666667}, {"rental_uris": {"android": "https://dc.lft.to/lastmile_qr_scan", "ios": "https://dc.lft.to/lastmile_qr_scan"}, "fusion_lat": 0.0, "is_reserved": 0, "lat": 38.914161, "name": "0157b45561f1044b1c53288c119c9a38", "bike_id": "0157b45561f1044b1c53288c119c9a38", "is_disabled": 0, "fusion_lon": 0.0, "type": "electric_scooter", "lon": -77.00183666666666}, {"rental_uris": {"android": "https://dc.lft.to/lastmile_qr_scan", "ios": "https://dc.lft.to/lastmile_qr_scan"}, "fusion_lat": 0.0, "is_reserved": 0, "lat": 38.903475666666665, "name": "6911ebb85318c06186c6734551d0bb79", "bike_id": "6911ebb85318c06186c6734551d0bb79", "is_disabled": 0, "fusion_lon": 0.0, "type": "electric_scooter", "lon": -77.02608283333333}, {"rental_uris": {"android": "https://dc.lft.to/lastmile_qr_scan", "ios": "https://dc.lft.to/lastmile_qr_scan"}, "fusion_lat": 0.0, "is_reserved": 0, "lat": 38.902415833333336, "name": "0d24585c04b2a06d727a8eb386e37902", "bike_id": "0d24585c04b2a06d727a8eb386e37902", "is_disabled": 0, "fusion_lon": 0.0, "type": "electric_scooter", "lon": -77.0455205}, {"rental_uris": {"android": "https://dc.lft.to/lastmile_qr_scan", "ios": "https://dc.lft.to/lastmile_qr_scan"}, "fusion_lat": 0.0, "is_reserved": 0, "lat": 38.914173, "name": "1a6fb7dd36fcb944a3c1c6cce6848ae7", "bike_id": "1a6fb7dd36fcb944a3c1c6cce6848ae7", "is_disabled": 0, "fusion_lon": 0.0, "type": "electric_scooter", "lon": -77.0190645}, {"rental_uris": {"android": "https://dc.lft.to/lastmile_qr_scan", "ios": "https://dc.lft.to/lastmile_qr_scan"}, "fusion_lat": 0.0, "is_reserved": 0, "lat": 38.90565683333333, "name": "b2debe97aa30211c903fc7a446491142", "bike_id": "b2debe97aa30211c903fc7a446491142", "is_disabled": 0, "fusion_lon": 0.0, "type": "electric_scooter", "lon": -76.98207666666667}, {"rental_uris": {"android": "https://dc.lft.to/lastmile_qr_scan", "ios": "https://dc.lft.to/lastmile_qr_scan"}, "fusion_lat": 0.0, "is_reserved": 0, "lat": 38.903735833333336, "name": "d4a814e5d90c9f04382a5ea1b356f570", "bike_id": "d4a814e5d90c9f04382a5ea1b356f570", "is_disabled": 0, "fusion_lon": 0.0, "type": "electric_scooter", "lon": -77.01647683333333}, {"rental_uris": {"android": "https://dc.lft.to/lastmile_qr_scan", "ios": "https://dc.lft.to/lastmile_qr_scan"}, "fusion_lat": 0.0, "is_reserved": 0, "lat": 38.91502, "name": "cce27d2921fa974297ef60f8ba435101", "bike_id": "cce27d2921fa974297ef60f8ba435101", "is_disabled": 0, "fusion_lon": 0.0, "type": "electric_scooter", "lon": -77.04492666666667}, {"rental_uris": {"android": "https://dc.lft.to/lastmile_qr_scan", "ios": "https://dc.lft.to/lastmile_qr_scan"}, "fusion_lat": 0.0, "is_reserved": 0, "lat": 38.90754233333333, "name": "f2e00407bf7a33bc2078b1d1f14900b9", "bike_id": "f2e00407bf7a33bc2078b1d1f14900b9", "is_disabled": 0, "fusion_lon": 0.0, "type": "electric_scooter", "lon": -77.0025825}, {"rental_uris": {"android": "https://dc.lft.to/lastmile_qr_scan", "ios": "https://dc.lft.to/lastmile_qr_scan"}, "fusion_lat": 0.0, "is_reserved": 0, "lat": 38.91883216666667, "name": "96ea344478585f4c8c8a7a0efc19519e", "bike_id": "96ea344478585f4c8c8a7a0efc19519e", "is_disabled": 0, "fusion_lon": 0.0, "type": "electric_scooter", "lon": -77.041758}, {"rental_uris": {"android": "https://dc.lft.to/lastmile_qr_scan", "ios": "https://dc.lft.to/lastmile_qr_scan"}, "fusion_lat": 0.0, "is_reserved": 0, "lat": 38.8870575, "name": "4beaceb939dbc4a0a1338f34e9be841e", "bike_id": "4beaceb939dbc4a0a1338f34e9be841e", "is_disabled": 0, "fusion_lon": 0.0, "type": "electric_scooter", "lon": -77.0136715}, {"rental_uris": {"android": "https://dc.lft.to/lastmile_qr_scan", "ios": "https://dc.lft.to/lastmile_qr_scan"}, "fusion_lat": 0.0, "is_reserved": 0, "lat": 38.929737, "name": "0fa02dd9bb5d716279d80dff59819c90", "bike_id": "0fa02dd9bb5d716279d80dff59819c90", "is_disabled": 0, "fusion_lon": 0.0, "type": "electric_scooter", "lon": -77.031858}, {"rental_uris": {"android": "https://dc.lft.to/lastmile_qr_scan", "ios": "https://dc.lft.to/lastmile_qr_scan"}, "fusion_lat": 0.0, "is_reserved": 0, "lat": 38.83157416666667, "name": "3d128b8c1efb86f2f94733a7d6708ebe", "bike_id": "3d128b8c1efb86f2f94733a7d6708ebe", "is_disabled": 0, "fusion_lon": 0.0, "type": "electric_bike", "lon": -76.99541516666666}, {"rental_uris": {"android": "https://dc.lft.to/lastmile_qr_scan", "ios": "https://dc.lft.to/lastmile_qr_scan"}, "fusion_lat": 0.0, "is_reserved": 0, "lat": 38.9339505, "name": "afe0ecebfaca84ddaefb505dcafc5de4", "bike_id": "afe0ecebfaca84ddaefb505dcafc5de4", "is_disabled": 0, "fusion_lon": 0.0, "type": "electric_scooter", "lon": -77.02226233333333}, {"rental_uris": {"android": "https://dc.lft.to/lastmile_qr_scan", "ios": "https://dc.lft.to/lastmile_qr_scan"}, "fusion_lat": 0.0, "is_reserved": 0, "lat": 38.881245, "name": "e86cf06cca02b354646f642d39ec9e07", "bike_id": "e86cf06cca02b354646f642d39ec9e07", "is_disabled": 0, "fusion_lon": 0.0, "type": "electric_scooter", "lon": -77.01694883333333}, {"rental_uris": {"android": "https://dc.lft.to/lastmile_qr_scan", "ios": "https://dc.lft.to/lastmile_qr_scan"}, "fusion_lat": 0.0, "is_reserved": 0, "lat": 38.8923145, "name": "28e2f8c03e9b3093804538bfb6059c2f", "bike_id": "28e2f8c03e9b3093804538bfb6059c2f", "is_disabled": 0, "fusion_lon": 0.0, "type": "electric_scooter", "lon": -77.03381583333334}, {"rental_uris": {"android": "https://dc.lft.to/lastmile_qr_scan", "ios": "https://dc.lft.to/lastmile_qr_scan"}, "fusion_lat": 0.0, "is_reserved": 0, "lat": 38.918485, "name": "cd4bbfb8824cbd35c943b5e87ad08356", "bike_id": "cd4bbfb8824cbd35c943b5e87ad08356", "is_disabled": 0, "fusion_lon": 0.0, "type": "electric_scooter", "lon": -76.9654445}, {"rental_uris": {"android": "https://dc.lft.to/lastmile_qr_scan", "ios": "https://dc.lft.to/lastmile_qr_scan"}, "fusion_lat": 0.0, "is_reserved": 0, "lat": 38.941923833333334, "name": "4c04f854176be76900c37896cadf2929", "bike_id": "4c04f854176be76900c37896cadf2929", "is_disabled": 0, "fusion_lon": 0.0, "type": "electric_scooter", "lon": -77.02481566666667}, {"rental_uris": {"android": "https://dc.lft.to/lastmile_qr_scan", "ios": "https://dc.lft.to/lastmile_qr_scan"}, "fusion_lat": 0.0, "is_reserved": 0, "lat": 38.91570733333333, "name": "a82314a6183788fc514f00f1af38c2ab", "bike_id": "a82314a6183788fc514f00f1af38c2ab", "is_disabled": 0, "fusion_lon": 0.0, "type": "electric_scooter", "lon": -77.0229395}, {"rental_uris": {"android": "https://dc.lft.to/lastmile_qr_scan", "ios": "https://dc.lft.to/lastmile_qr_scan"}, "fusion_lat": 0.0, "is_reserved": 0, "lat": 38.94372283333333, "name": "ed2382e1814af53c12ad597fdbffcc0d", "bike_id": "ed2382e1814af53c12ad597fdbffcc0d", "is_disabled": 0, "fusion_lon": 0.0, "type": "electric_scooter", "lon": -77.06111283333334}, {"rental_uris": {"android": "https://dc.lft.to/lastmile_qr_scan", "ios": "https://dc.lft.to/lastmile_qr_scan"}, "fusion_lat": 0.0, "is_reserved": 0, "lat": 38.9261475, "name": "99600bae36dd34a9ecf280f2ae4379b5", "bike_id": "99600bae36dd34a9ecf280f2ae4379b5", "is_disabled": 0, "fusion_lon": 0.0, "type": "electric_scooter", "lon": -77.0216065}, {"rental_uris": {"android": "https://dc.lft.to/lastmile_qr_scan", "ios": "https://dc.lft.to/lastmile_qr_scan"}, "fusion_lat": 0.0, "is_reserved": 0, "lat": 38.93120066666667, "name": "c327077b712417d8e3a63d0a807b479a", "bike_id": "c327077b712417d8e3a63d0a807b479a", "is_disabled": 0, "fusion_lon": 0.0, "type": "electric_scooter", "lon": -77.03024216666667}, {"rental_uris": {"android": "https://dc.lft.to/lastmile_qr_scan", "ios": "https://dc.lft.to/lastmile_qr_scan"}, "fusion_lat": 0.0, "is_reserved": 0, "lat": 38.88244916666667, "name": "f4964d33b8baf29af25519256397a748", "bike_id": "f4964d33b8baf29af25519256397a748", "is_disabled": 0, "fusion_lon": 0.0, "type": "electric_bike", "lon": -76.96260316666667}, {"rental_uris": {"android": "https://dc.lft.to/lastmile_qr_scan", "ios": "https://dc.lft.to/lastmile_qr_scan"}, "fusion_lat": 0.0, "is_reserved": 0, "lat": 38.96648833333333, "name": "e90b17a766daf5f408fe6fa85a528eb6", "bike_id": "e90b17a766daf5f408fe6fa85a528eb6", "is_disabled": 0, "fusion_lon": 0.0, "type": "electric_scooter", "lon": -77.008926}, {"rental_uris": {"android": "https://dc.lft.to/lastmile_qr_scan", "ios": "https://dc.lft.to/lastmile_qr_scan"}, "fusion_lat": 0.0, "is_reserved": 0, "lat": 38.905465166666666, "name": "90fd97a301ca109e4a91a99234c54804", "bike_id": "90fd97a301ca109e4a91a99234c54804", "is_disabled": 0, "fusion_lon": 0.0, "type": "electric_scooter", "lon": -77.00696916666666}, {"rental_uris": {"android": "https://dc.lft.to/lastmile_qr_scan", "ios": "https://dc.lft.to/lastmile_qr_scan"}, "fusion_lat": 0.0, "is_reserved": 0, "lat": 38.91766116666667, "name": "cb9cbbac018ad121a55a971d40e53670", "bike_id": "cb9cbbac018ad121a55a971d40e53670", "is_disabled": 0, "fusion_lon": 0.0, "type": "electric_scooter", "lon": -77.02315933333334}, {"rental_uris": {"android": "https://dc.lft.to/lastmile_qr_scan", "ios": "https://dc.lft.to/lastmile_qr_scan"}, "fusion_lat": 0.0, "is_reserved": 0, "lat": 38.918625666666664, "name": "c19295471a59bf69b14f86f51ba3e64c", "bike_id": "c19295471a59bf69b14f86f51ba3e64c", "is_disabled": 0, "fusion_lon": 0.0, "type": "electric_scooter", "lon": -77.01353666666667}, {"rental_uris": {"android": "https://dc.lft.to/lastmile_qr_scan", "ios": "https://dc.lft.to/lastmile_qr_scan"}, "fusion_lat": 0.0, "is_reserved": 0, "lat": 38.899089833333335, "name": "d44dca5642d4d2b7d74ab9cf7d386e41", "bike_id": "d44dca5642d4d2b7d74ab9cf7d386e41", "is_disabled": 0, "fusion_lon": 0.0, "type": "electric_scooter", "lon": -76.98576583333333}, {"rental_uris": {"android": "https://dc.lft.to/lastmile_qr_scan", "ios": "https://dc.lft.to/lastmile_qr_scan"}, "fusion_lat": 0.0, "is_reserved": 0, "lat": 38.9252005, "name": "affedc132bd161e4af169152e8f91bff", "bike_id": "affedc132bd161e4af169152e8f91bff", "is_disabled": 0, "fusion_lon": 0.0, "type": "electric_scooter", "lon": -77.02973083333333}, {"rental_uris": {"android": "https://dc.lft.to/lastmile_qr_scan", "ios": "https://dc.lft.to/lastmile_qr_scan"}, "fusion_lat": 0.0, "is_reserved": 0, "lat": 38.924179333333335, "name": "62d8227ff0eb05d7decd835a9f8f3e7e", "bike_id": "62d8227ff0eb05d7decd835a9f8f3e7e", "is_disabled": 0, "fusion_lon": 0.0, "type": "electric_scooter", "lon": -77.01951116666666}, {"rental_uris": {"android": "https://dc.lft.to/lastmile_qr_scan", "ios": "https://dc.lft.to/lastmile_qr_scan"}, "fusion_lat": 0.0, "is_reserved": 0, "lat": 38.936141166666665, "name": "e7d524ce13956af638ec51c795ef2913", "bike_id": "e7d524ce13956af638ec51c795ef2913", "is_disabled": 0, "fusion_lon": 0.0, "type": "electric_scooter", "lon": -77.03213166666667}, {"rental_uris": {"android": "https://dc.lft.to/lastmile_qr_scan", "ios": "https://dc.lft.to/lastmile_qr_scan"}, "fusion_lat": 0.0, "is_reserved": 0, "lat": 38.916015, "name": "76949c86c05c2e1c818463b39564e3a2", "bike_id": "76949c86c05c2e1c818463b39564e3a2", "is_disabled": 0, "fusion_lon": 0.0, "type": "electric_scooter", "lon": -77.02578966666667}, {"rental_uris": {"android": "https://dc.lft.to/lastmile_qr_scan", "ios": "https://dc.lft.to/lastmile_qr_scan"}, "fusion_lat": 0.0, "is_reserved": 0, "lat": 38.89223883333333, "name": "cdc940acb09e816a78337191b158e936", "bike_id": "cdc940acb09e816a78337191b158e936", "is_disabled": 0, "fusion_lon": 0.0, "type": "electric_scooter", "lon": -77.03995533333334}, {"rental_uris": {"android": "https://dc.lft.to/lastmile_qr_scan", "ios": "https://dc.lft.to/lastmile_qr_scan"}, "fusion_lat": 0.0, "is_reserved": 0, "lat": 38.85222066666667, "name": "bcae966348d1982f892df18b9fa637d0", "bike_id": "bcae966348d1982f892df18b9fa637d0", "is_disabled": 0, "fusion_lon": 0.0, "type": "electric_scooter", "lon": -76.99426566666666}, {"rental_uris": {"android": "https://dc.lft.to/lastmile_qr_scan", "ios": "https://dc.lft.to/lastmile_qr_scan"}, "fusion_lat": 0.0, "is_reserved": 0, "lat": 38.919285333333335, "name": "d4ce86c6d816c4233f59a4db30ec855d", "bike_id": "d4ce86c6d816c4233f59a4db30ec855d", "is_disabled": 0, "fusion_lon": 0.0, "type": "electric_scooter", "lon": -77.0492035}, {"rental_uris": {"android": "https://dc.lft.to/lastmile_qr_scan", "ios": "https://dc.lft.to/lastmile_qr_scan"}, "fusion_lat": 0.0, "is_reserved": 0, "lat": 38.9238605, "name": "58e684220795e01be04ba9e60c4c4898", "bike_id": "58e684220795e01be04ba9e60c4c4898", "is_disabled": 0, "fusion_lon": 0.0, "type": "electric_scooter", "lon": -77.026863}, {"rental_uris": {"android": "https://dc.lft.to/lastmile_qr_scan", "ios": "https://dc.lft.to/lastmile_qr_scan"}, "fusion_lat": 0.0, "is_reserved": 0, "lat": 38.906921, "name": "3485fa7d4d519df1c620eee1b40b2fa9", "bike_id": "3485fa7d4d519df1c620eee1b40b2fa9", "is_disabled": 0, "fusion_lon": 0.0, "type": "electric_scooter", "lon": -77.0270095}, {"rental_uris": {"android": "https://dc.lft.to/lastmile_qr_scan", "ios": "https://dc.lft.to/lastmile_qr_scan"}, "fusion_lat": 0.0, "is_reserved": 0, "lat": 38.919302333333334, "name": "7561086c2f81b7c9520b5fe1c81db4ca", "bike_id": "7561086c2f81b7c9520b5fe1c81db4ca", "is_disabled": 0, "fusion_lon": 0.0, "type": "electric_scooter", "lon": -77.042129}, {"rental_uris": {"android": "https://dc.lft.to/lastmile_qr_scan", "ios": "https://dc.lft.to/lastmile_qr_scan"}, "fusion_lat": 0.0, "is_reserved": 0, "lat": 38.92166133333333, "name": "865b527b84cfc025839227eac9d4705c", "bike_id": "865b527b84cfc025839227eac9d4705c", "is_disabled": 0, "fusion_lon": 0.0, "type": "electric_scooter", "lon": -77.033879}, {"rental_uris": {"android": "https://dc.lft.to/lastmile_qr_scan", "ios": "https://dc.lft.to/lastmile_qr_scan"}, "fusion_lat": 0.0, "is_reserved": 0, "lat": 38.89772633333333, "name": "14d37599d25c5548949b17a0dee9a174", "bike_id": "14d37599d25c5548949b17a0dee9a174", "is_disabled": 0, "fusion_lon": 0.0, "type": "electric_scooter", "lon": -77.04788983333333}, {"rental_uris": {"android": "https://dc.lft.to/lastmile_qr_scan", "ios": "https://dc.lft.to/lastmile_qr_scan"}, "fusion_lat": 0.0, "is_reserved": 0, "lat": 38.92912483333333, "name": "679428e7dd1715790e445ccd1600075d", "bike_id": "679428e7dd1715790e445ccd1600075d", "is_disabled": 0, "fusion_lon": 0.0, "type": "electric_scooter", "lon": -76.9981415}, {"rental_uris": {"android": "https://dc.lft.to/lastmile_qr_scan", "ios": "https://dc.lft.to/lastmile_qr_scan"},