{"data": {"bikes": [{"lat": 38.892244833333336, "is_disabled": 0, "type": "electric_scooter", "lon": -77.033367, "bike_id": "d75707e7b0b35a799bec99dae71404c8", "fusion_lat": 0.0, "name": "d75707e7b0b35a799bec99dae71404c8", "is_reserved": 0, "rental_uris": {"android": "https://dc.lft.to/lastmile_qr_scan", "ios": "https://dc.lft.to/lastmile_qr_scan"}, "fusion_lon": 0.0}, {"lat": 38.92104166666667, "is_disabled": 0, "type": "electric_scooter", "lon": -77.04184566666666, "bike_id": "2e5b43ffdd1ab67c7ca78894c619418c", "fusion_lat": 0.0, "name": "2e5b43ffdd1ab67c7ca78894c619418c", "is_reserved": 0, "rental_uris": {"android": "https://dc.lft.to/lastmile_qr_scan", "ios": "https://dc.lft.to/lastmile_qr_scan"}, "fusion_lon": 0.0}, {"lat": 38.943065833333335, "is_disabled": 0, "type": "electric_scooter", "lon": -77.0613255, "bike_id": "b9be7eb1c4167bfedb6ed30b9731e002", "fusion_lat": 0.0, "name": "b9be7eb1c4167bfedb6ed30b9731e002", "is_reserved": 0, "rental_uris": {"android": "https://dc.lft.to/lastmile_qr_scan", "ios": "https://dc.lft.to/lastmile_qr_scan"}, "fusion_lon": 0.0}, {"lat": 38.917042, "is_disabled": 0, "type": "electric_scooter", "lon": -77.0393035, "bike_id": "d23ddd13044cc297ba923dc0666f1b84", "fusion_lat": 0.0, "name": "d23ddd13044cc297ba923dc0666f1b84", "is_reserved": 0, "rental_uris": {"android": "https://dc.lft.to/lastmile_qr_scan", "ios": "https://dc.lft.to/lastmile_qr_scan"}, "fusion_lon": 0.0}, {"lat": 38.92255766666667, "is_disabled": 0, "type": "electric_scooter", "lon": -77.0193615, "bike_id": "d9cc549ddabe732a6d0a4438dba3671f", "fusion_lat": 0.0, "name": "d9cc549ddabe732a6d0a4438dba3671f", "is_reserved": 0, "rental_uris": {"android": "https://dc.lft.to/lastmile_qr_scan", "ios": "https://dc.lft.to/lastmile_qr_scan"}, "fusion_lon": 0.0}, {"lat": 38.98226866666667, "is_disabled": 0, "type": "electric_scooter", "lon": -77.02645, "bike_id": "ec4fc288e45ba6abd6b6e53a1a9b4124", "fusion_lat": 0.0, "name": "ec4fc288e45ba6abd6b6e53a1a9b4124", "is_reserved": 0, "rental_uris": {"android": "https://dc.lft.to/lastmile_qr_scan", "ios": "https://dc.lft.to/lastmile_qr_scan"}, "fusion_lon": 0.0}, {"lat": 38.90971416666667, "is_disabled": 0, "type": "electric_scooter", "lon": -77.03190533333333, "bike_id": "6f3a54fafb6bc1a0665cfe38909e469e", "fusion_lat": 0.0, "name": "6f3a54fafb6bc1a0665cfe38909e469e", "is_reserved": 0, "rental_uris": {"android": "https://dc.lft.to/lastmile_qr_scan", "ios": "https://dc.lft.to/lastmile_qr_scan"}, "fusion_lon": 0.0}, {"lat": 38.92478466666667, "is_disabled": 0, "type": "electric_scooter", "lon": -77.03484816666666, "bike_id": "49ce35241dc0e89e1aacff5372d0f0a9", "fusion_lat": 0.0, "name": "49ce35241dc0e89e1aacff5372d0f0a9", "is_reserved": 0, "rental_uris": {"android": "https://dc.lft.to/lastmile_qr_scan", "ios": "https://dc.lft.to/lastmile_qr_scan"}, "fusion_lon": 0.0}, {"lat": 38.914819666666666, "is_disabled": 0, "type": "electric_scooter", "lon": -77.02191833333333, "bike_id": "f92f7197884cac64d0e8ce671403a4f9", "fusion_lat": 0.0, "name": "f92f7197884cac64d0e8ce671403a4f9", "is_reserved": 0, "rental_uris": {"android": "https://dc.lft.to/lastmile_qr_scan", "ios": "https://dc.lft.to/lastmile_qr_scan"}, "fusion_lon": 0.0}, {"lat": 38.90489133333333, "is_disabled": 0, "type": "electric_scooter", "lon": -76.97326666666666, "bike_id": "9881f9b70f6af91192e9b76d6098d250", "fusion_lat": 0.0, "name": "9881f9b70f6af91192e9b76d6098d250", "is_reserved": 0, "rental_uris": {"android": "https://dc.lft.to/lastmile_qr_scan", "ios": "https://dc.lft.to/lastmile_qr_scan"}, "fusion_lon": 0.0}, {"lat": 38.90283383333333, "is_disabled": 0, "type": "electric_scooter", "lon": -77.03649283333333, "bike_id": "4ea8949284f20dbfd0ec9803338536e3", "fusion_lat": 0.0, "name": "4ea8949284f20dbfd0ec9803338536e3", "is_reserved": 0, "rental_uris": {"android": "https://dc.lft.to/lastmile_qr_scan", "ios": "https://dc.lft.to/lastmile_qr_scan"}, "fusion_lon": 0.0}, {"lat": 38.886254666666666, "is_disabled": 0, "type": "electric_scooter", "lon": -76.9551815, "bike_id": "38188660e095e6262cc1f54f217aabd5", "fusion_lat": 0.0, "name": "38188660e095e6262cc1f54f217aabd5", "is_reserved": 0, "rental_uris": {"android": "https://dc.lft.to/lastmile_qr_scan", "ios": "https://dc.lft.to/lastmile_qr_scan"}, "fusion_lon": 0.0}, {"lat": 38.89485716666667, "is_disabled": 0, "type": "electric_scooter", "lon": -77.0022385, "bike_id": "820c03d0b8fd1cd976f4b3c60152226b", "fusion_lat": 0.0, "name": "820c03d0b8fd1cd976f4b3c60152226b", "is_reserved": 0, "rental_uris": {"android": "https://dc.lft.to/lastmile_qr_scan", "ios": "https://dc.lft.to/lastmile_qr_scan"}, "fusion_lon": 0.0}, {"lat": 38.917320333333336, "is_disabled": 0, "type": "electric_scooter", "lon": -77.03640916666667, "bike_id": "f4abc6c676757ba44de2bded6ea9a1ce", "fusion_lat": 0.0, "name": "f4abc6c676757ba44de2bded6ea9a1ce", "is_reserved": 0, "rental_uris": {"android": "https://dc.lft.to/lastmile_qr_scan", "ios": "https://dc.lft.to/lastmile_qr_scan"}, "fusion_lon": 0.0}, {"lat": 38.92169366666667, "is_disabled": 0, "type": "electric_scooter", "lon": -77.04023533333333, "bike_id": "6eeefe05ef6ffc7d199c56b75c9ba77d", "fusion_lat": 0.0, "name": "6eeefe05ef6ffc7d199c56b75c9ba77d", "is_reserved": 0, "rental_uris": {"android": "https://dc.lft.to/lastmile_qr_scan", "ios": "https://dc.lft.to/lastmile_qr_scan"}, "fusion_lon": 0.0}, {"lat": 38.9267645, "is_disabled": 0, "type": "electric_scooter", "lon": -77.01509783333333, "bike_id": "4a87dfded0b1ce6c462617416b4ee77f", "fusion_lat": 0.0, "name": "4a87dfded0b1ce6c462617416b4ee77f", "is_reserved": 0, "rental_uris": {"android": "https://dc.lft.to/lastmile_qr_scan", "ios": "https://dc.lft.to/lastmile_qr_scan"}, "fusion_lon": 0.0}, {"lat": 38.911932666666665, "is_disabled": 0, "type": "electric_scooter", "lon": -77.03424066666666, "bike_id": "ece3edd13e7dd42b8b305672f79da232", "fusion_lat": 0.0, "name": "ece3edd13e7dd42b8b305672f79da232", "is_reserved": 0, "rental_uris": {"android": "https://dc.lft.to/lastmile_qr_scan", "ios": "https://dc.lft.to/lastmile_qr_scan"}, "fusion_lon": 0.0}, {"lat": 38.916904333333335, "is_disabled": 0, "type": "electric_scooter", "lon": -77.02762066666666, "bike_id": "8af6e9f09769a6a7a70cf6f2c811d5e8", "fusion_lat": 0.0, "name": "8af6e9f09769a6a7a70cf6f2c811d5e8", "is_reserved": 0, "rental_uris": {"android": "https://dc.lft.to/lastmile_qr_scan", "ios": "https://dc.lft.to/lastmile_qr_scan"}, "fusion_lon": 0.0}, {"lat": 38.89249133333333, "is_disabled": 0, "type": "electric_scooter", "lon": -77.03956233333334, "bike_id": "4bee8090baef0a7966a3ff71106a18b0", "fusion_lat": 0.0, "name": "4bee8090baef0a7966a3ff71106a18b0", "is_reserved": 0, "rental_uris": {"android": "https://dc.lft.to/lastmile_qr_scan", "ios": "https://dc.lft.to/lastmile_qr_scan"}, "fusion_lon": 0.0}, {"lat": 38.9228715, "is_disabled": 0, "type": "electric_scooter", "lon": -77.02961866666666, "bike_id": "25009fbad26ec8a6381d35d700a7a918", "fusion_lat": 0.0, "name": "25009fbad26ec8a6381d35d700a7a918", "is_reserved": 0, "rental_uris": {"android": "https://dc.lft.to/lastmile_qr_scan", "ios": "https://dc.lft.to/lastmile_qr_scan"}, "fusion_lon": 0.0}, {"lat": 38.95489516666667, "is_disabled": 0, "type": "electric_scooter", "lon": -77.06555933333334, "bike_id": "10bf966e6650444aec4bb383164890e5", "fusion_lat": 0.0, "name": "10bf966e6650444aec4bb383164890e5", "is_reserved": 0, "rental_uris": {"android": "https://dc.lft.to/lastmile_qr_scan", "ios": "https://dc.lft.to/lastmile_qr_scan"}, "fusion_lon": 0.0}, {"lat": 38.900848333333336, "is_disabled": 0, "type": "electric_scooter", "lon": -77.0502545, "bike_id": "8af89f98b9a11c2517bf9ececca01a21", "fusion_lat": 0.0, "name": "8af89f98b9a11c2517bf9ececca01a21", "is_reserved": 0, "rental_uris": {"android": "https://dc.lft.to/lastmile_qr_scan", "ios": "https://dc.lft.to/lastmile_qr_scan"}, "fusion_lon": 0.0}, {"lat": 38.93670566666667, "is_disabled": 0, "type": "electric_scooter", "lon": -77.02462833333334, "bike_id": "14beff6b147b6e49413814fdf6d43314", "fusion_lat": 0.0, "name": "14beff6b147b6e49413814fdf6d43314", "is_reserved": 0, "rental_uris": {"android": "https://dc.lft.to/lastmile_qr_scan", "ios": "https://dc.lft.to/lastmile_qr_scan"}, "fusion_lon": 0.0}, {"lat": 38.9185965, "is_disabled": 0, "type": "electric_scooter", "lon": -77.03169233333334, "bike_id": "6cac060f2f9e724733ad1a44193b1d78", "fusion_lat": 0.0, "name": "6cac060f2f9e724733ad1a44193b1d78", "is_reserved": 0, "rental_uris": {"android": "https://dc.lft.to/lastmile_qr_scan", "ios": "https://dc.lft.to/lastmile_qr_scan"}, "fusion_lon": 0.0}, {"lat": 38.907826166666666, "is_disabled": 0, "type": "electric_scooter", "lon": -77.04481, "bike_id": "3e1c3c0e292e67d6605fb64cf84137f8", "fusion_lat": 0.0, "name": "3e1c3c0e292e67d6605fb64cf84137f8", "is_reserved": 0, "rental_uris": {"android": "https://dc.lft.to/lastmile_qr_scan", "ios": "https://dc.lft.to/lastmile_qr_scan"}, "fusion_lon": 0.0}, {"lat": 38.93536533333334, "is_disabled": 0, "type": "electric_scooter", "lon": -77.032548, "bike_id": "224291e75e8e564d5059b40e7a6208c5", "fusion_lat": 0.0, "name": "224291e75e8e564d5059b40e7a6208c5", "is_reserved": 0, "rental_uris": {"android": "https://dc.lft.to/lastmile_qr_scan", "ios": "https://dc.lft.to/lastmile_qr_scan"}, "fusion_lon": 0.0}, {"lat": 38.89221116666667, "is_disabled": 0, "type": "electric_scooter", "lon": -77.02317583333334, "bike_id": "8dab1e45112228be790d11d233ab42dd", "fusion_lat": 0.0, "name": "8dab1e45112228be790d11d233ab42dd", "is_reserved": 0, "rental_uris": {"android": "https://dc.lft.to/lastmile_qr_scan", "ios": "https://dc.lft.to/lastmile_qr_scan"}, "fusion_lon": 0.0}, {"lat": 38.9309065, "is_disabled": 0, "type": "electric_scooter", "lon": -77.03752366666667, "bike_id": "c32089006a94dcab40acd2d6afa3571e", "fusion_lat": 0.0, "name": "c32089006a94dcab40acd2d6afa3571e", "is_reserved": 0, "rental_uris": {"android": "https://dc.lft.to/lastmile_qr_scan", "ios": "https://dc.lft.to/lastmile_qr_scan"}, "fusion_lon": 0.0}, {"lat": 38.90853033333333, "is_disabled": 0, "type": "electric_scooter", "lon": -77.04350783333334, "bike_id": "953aea467e9278c14115f45ccda6029d", "fusion_lat": 0.0, "name": "953aea467e9278c14115f45ccda6029d", "is_reserved": 0, "rental_uris": {"android": "https://dc.lft.to/lastmile_qr_scan", "ios": "https://dc.lft.to/lastmile_qr_scan"}, "fusion_lon": 0.0}, {"lat": 38.917172, "is_disabled": 0, "type": "electric_scooter", "lon": -77.0383715, "bike_id": "6477365feb7bb428ce6c309abfe323a6", "fusion_lat": 0.0, "name": "6477365feb7bb428ce6c309abfe323a6", "is_reserved": 0, "rental_uris": {"android": "https://dc.lft.to/lastmile_qr_scan", "ios": "https://dc.lft.to/lastmile_qr_scan"}, "fusion_lon": 0.0}, {"lat": 38.9274135, "is_disabled": 0, "type": "electric_scooter", "lon": -77.03405416666666, "bike_id": "61d62b7a434bdd1020294ceb04875b58", "fusion_lat": 0.0, "name": "61d62b7a434bdd1020294ceb04875b58", "is_reserved": 0, "rental_uris": {"android": "https://dc.lft.to/lastmile_qr_scan", "ios": "https://dc.lft.to/lastmile_qr_scan"}, "fusion_lon": 0.0}, {"lat": 38.9169, "is_disabled": 0, "type": "electric_scooter", "lon": -77.04190166666666, "bike_id": "2a989975cba322a06a7334f5c1e639d7", "fusion_lat": 0.0, "name": "2a989975cba322a06a7334f5c1e639d7", "is_reserved": 0, "rental_uris": {"android": "https://dc.lft.to/lastmile_qr_scan", "ios": "https://dc.lft.to/lastmile_qr_scan"}, "fusion_lon": 0.0}, {"lat": 38.9098195, "is_disabled": 0, "type": "electric_scooter", "lon": -77.03871116666667, "bike_id": "0eea6d641d7353265803fd99e0dd50f2", "fusion_lat": 0.0, "name": "0eea6d641d7353265803fd99e0dd50f2", "is_reserved": 0, "rental_uris": {"android": "https://dc.lft.to/lastmile_qr_scan", "ios": "https://dc.lft.to/lastmile_qr_scan"}, "fusion_lon": 0.0}, {"lat": 38.9081325, "is_disabled": 0, "type": "electric_scooter", "lon": -77.0433445, "bike_id": "61ab2381d8694bc4a1e0dd96869b4acd", "fusion_lat": 0.0, "name": "61ab2381d8694bc4a1e0dd96869b4acd", "is_reserved": 0, "rental_uris": {"android": "https://dc.lft.to/lastmile_qr_scan", "ios": "https://dc.lft.to/lastmile_qr_scan"}, "fusion_lon": 0.0}, {"lat": 38.909595833333334, "is_disabled": 0, "type": "electric_scooter", "lon": -77.02282933333333, "bike_id": "ccc8bf19de52bbaf0bf656487cb787e1", "fusion_lat": 0.0, "name": "ccc8bf19de52bbaf0bf656487cb787e1", "is_reserved": 0, "rental_uris": {"android": "https://dc.lft.to/lastmile_qr_scan", "ios": "https://dc.lft.to/lastmile_qr_scan"}, "fusion_lon": 0.0}, {"lat": 38.8958415, "is_disabled": 0, "type": "electric_bike", "lon": -77.1270195, "bike_id": "d0f8acd21bea12bb97fb8f58089aee48", "fusion_lat": 0.0, "name": "d0f8acd21bea12bb97fb8f58089aee48", "is_reserved": 0, "rental_uris": {"android": "https://dc.lft.to/lastmile_qr_scan", "ios": "https://dc.lft.to/lastmile_qr_scan"}, "fusion_lon": 0.0}, {"lat": 38.865225833333334, "is_disabled": 0, "type": "electric_scooter", "lon": -76.990291, "bike_id": "5235ddd9f0472911e4af3d70f3ad71f1", "fusion_lat": 0.0, "name": "5235ddd9f0472911e4af3d70f3ad71f1", "is_reserved": 0, "rental_uris": {"android": "https://dc.lft.to/lastmile_qr_scan", "ios": "https://dc.lft.to/lastmile_qr_scan"}, "fusion_lon": 0.0}, {"lat": 38.933566, "is_disabled": 0, "type": "electric_bike", "lon": -77.09962133333333, "bike_id": "b3b108d7240ce32388d9e8bb02e9a320", "fusion_lat": 0.0, "name": "b3b108d7240ce32388d9e8bb02e9a320", "is_reserved": 0, "rental_uris": {"android": "https://dc.lft.to/lastmile_qr_scan", "ios": "https://dc.lft.to/lastmile_qr_scan"}, "fusion_lon": 0.0}, {"lat": 38.92115033333333, "is_disabled": 0, "type": "electric_scooter", "lon": -77.03653333333334, "bike_id": "366946f7359c0d1179738d18ee20b12e", "fusion_lat": 0.0, "name": "366946f7359c0d1179738d18ee20b12e", "is_reserved": 0, "rental_uris": {"android": "https://dc.lft.to/lastmile_qr_scan", "ios": "https://dc.lft.to/lastmile_qr_scan"}, "fusion_lon": 0.0}, {"lat": 38.901535, "is_disabled": 0, "type": "electric_scooter", "lon": -77.03953966666667, "bike_id": "6eca8dd1d2750c96adf66a39affc6041", "fusion_lat": 0.0, "name": "6eca8dd1d2750c96adf66a39affc6041", "is_reserved": 0, "rental_uris": {"android": "https://dc.lft.to/lastmile_qr_scan", "ios": "https://dc.lft.to/lastmile_qr_scan"}, "fusion_lon": 0.0}, {"lat": 38.92862616666667, "is_disabled": 0, "type": "electric_scooter", "lon": -77.03322566666667, "bike_id": "5fe192dcd449813c177d501651f8d276", "fusion_lat": 0.0, "name": "5fe192dcd449813c177d501651f8d276", "is_reserved": 0, "rental_uris": {"android": "https://dc.lft.to/lastmile_qr_scan", "ios": "https://dc.lft.to/lastmile_qr_scan"}, "fusion_lon": 0.0}, {"lat": 38.9027705, "is_disabled": 0, "type": "electric_scooter", "lon": -77.03633316666667, "bike_id": "7e5965650f21d833c7379397e895296f", "fusion_lat": 0.0, "name": "7e5965650f21d833c7379397e895296f", "is_reserved": 0, "rental_uris": {"android": "https://dc.lft.to/lastmile_qr_scan", "ios": "https://dc.lft.to/lastmile_qr_scan"}, "fusion_lon": 0.0}, {"lat": 38.9142545, "is_disabled": 0, "type": "electric_scooter", "lon": -77.03184166666666, "bike_id": "94c97e6ca90e25e341796fee59b25cb4", "fusion_lat": 0.0, "name": "94c97e6ca90e25e341796fee59b25cb4", "is_reserved": 0, "rental_uris": {"android": "https://dc.lft.to/lastmile_qr_scan", "ios": "https://dc.lft.to/lastmile_qr_scan"}, "fusion_lon": 0.0}, {"lat": 38.92327133333333, "is_disabled": 0, "type": "electric_scooter", "lon": -77.0354525, "bike_id": "649608225720d85c0d592546fc4583b5", "fusion_lat": 0.0, "name": "649608225720d85c0d592546fc4583b5", "is_reserved": 0, "rental_uris": {"android": "https://dc.lft.to/lastmile_qr_scan", "ios": "https://dc.lft.to/lastmile_qr_scan"}, "fusion_lon": 0.0}, {"lat": 38.93892366666667, "is_disabled": 0, "type": "electric_bike", "lon": -76.99500516666667, "bike_id": "ac3121fdad3478b63ab035a1ccc1b0dd", "fusion_lat": 0.0, "name": "ac3121fdad3478b63ab035a1ccc1b0dd", "is_reserved": 0, "rental_uris": {"android": "https://dc.lft.to/lastmile_qr_scan", "ios": "https://dc.lft.to/lastmile_qr_scan"}, "fusion_lon": 0.0}, {"lat": 38.90612466666666, "is_disabled": 0, "type": "electric_scooter", "lon": -77.0188225, "bike_id": "46c89b4d1c68c1044a72da0346721776", "fusion_lat": 0.0, "name": "46c89b4d1c68c1044a72da0346721776", "is_reserved": 0, "rental_uris": {"android": "https://dc.lft.to/lastmile_qr_scan", "ios": "https://dc.lft.to/lastmile_qr_scan"}, "fusion_lon": 0.0}, {"lat": 38.91918833333333, "is_disabled": 0, "type": "electric_scooter", "lon": -77.0240645, "bike_id": "b92237f302c37839f56d270a0a0cb663", "fusion_lat": 0.0, "name": "b92237f302c37839f56d270a0a0cb663", "is_reserved": 0, "rental_uris": {"android": "https://dc.lft.to/lastmile_qr_scan", "ios": "https://dc.lft.to/lastmile_qr_scan"}, "fusion_lon": 0.0}, {"lat": 38.859081, "is_disabled": 0, "type": "electric_scooter", "lon": -76.991484, "bike_id": "9df3b1a978a3844621dbe94836947463", "fusion_lat": 0.0, "name": "9df3b1a978a3844621dbe94836947463", "is_reserved": 0, "rental_uris": {"android": "https://dc.lft.to/lastmile_qr_scan", "ios": "https://dc.lft.to/lastmile_qr_scan"}, "fusion_lon": 0.0}, {"lat": 38.91551483333333, "is_disabled": 0, "type": "electric_scooter", "lon": -77.05323283333334, "bike_id": "486027bf4f108849225e6bd78e424dae", "fusion_lat": 0.0, "name": "486027bf4f108849225e6bd78e424dae", "is_reserved": 0, "rental_uris": {"android": "https://dc.lft.to/lastmile_qr_scan", "ios": "https://dc.lft.to/lastmile_qr_scan"}, "fusion_lon": 0.0}, {"lat": 38.900335, "is_disabled": 0, "type": "electric_scooter", "lon": -77.00225016666667, "bike_id": "a806c0a0d55d1c6482efd251f124dce2", "fusion_lat": 0.0, "name": "a806c0a0d55d1c6482efd251f124dce2", "is_reserved": 0, "rental_uris": {"android": "https://dc.lft.to/lastmile_qr_scan", "ios": "https://dc.lft.to/lastmile_qr_scan"}, "fusion_lon": 0.0}, {"lat": 38.866486333333334, "is_disabled": 0, "type": "electric_scooter", "lon": -76.98885333333334, "bike_id": "5cbe759cec02162cb932e81fb068a27d", "fusion_lat": 0.0, "name": "5cbe759cec02162cb932e81fb068a27d", "is_reserved": 0, "rental_uris": {"android": "https://dc.lft.to/lastmile_qr_scan", "ios": "https://dc.lft.to/lastmile_qr_scan"}, "fusion_lon": 0.0}, {"lat": 38.90859533333333, "is_disabled": 0, "type": "electric_scooter", "lon": -76.99166966666667, "bike_id": "21d44f5ae65d748ee798ce95126fed05", "fusion_lat": 0.0, "name": "21d44f5ae65d748ee798ce95126fed05", "is_reserved": 0, "rental_uris": {"android": "https://dc.lft.to/lastmile_qr_scan", "ios": "https://dc.lft.to/lastmile_qr_scan"}, "fusion_lon": 0.0}, {"lat": 38.95278416666667, "is_disabled": 0, "type": "electric_scooter", "lon": -77.06881016666667, "bike_id": "55e9fd3312ef6b6ceba9fd09b33e42a1", "fusion_lat": 0.0, "name": "55e9fd3312ef6b6ceba9fd09b33e42a1", "is_reserved": 0, "rental_uris": {"android": "https://dc.lft.to/lastmile_qr_scan", "ios": "https://dc.lft.to/lastmile_qr_scan"}, "fusion_lon": 0.0}, {"lat": 38.89621233333333, "is_disabled": 0, "type": "electric_scooter", "lon": -77.044889, "bike_id": "1ca3205c5320ca4805149cad89fcfd10", "fusion_lat": 0.0, "name": "1ca3205c5320ca4805149cad89fcfd10", "is_reserved": 0, "rental_uris": {"android": "https://dc.lft.to/lastmile_qr_scan", "ios": "https://dc.lft.to/lastmile_qr_scan"}, "fusion_lon": 0.0}, {"lat": 38.90043133333333, "is_disabled": 0, "type": "electric_scooter", "lon": -76.99378683333333, "bike_id": "ce9102abe9a3bc4a1bf8f7de3fa39ee3", "fusion_lat": 0.0, "name": "ce9102abe9a3bc4a1bf8f7de3fa39ee3", "is_reserved": 0, "rental_uris": {"android": "https://dc.lft.to/lastmile_qr_scan", "ios": "https://dc.lft.to/lastmile_qr_scan"}, "fusion_lon": 0.0}, {"lat": 38.89904133333334, "is_disabled": 0, "type": "electric_scooter", "lon": -76.933664, "bike_id": "7bc3b41b30cde02111e723a3d8255e13", "fusion_lat": 0.0, "name": "7bc3b41b30cde02111e723a3d8255e13", "is_reserved": 0, "rental_uris": {"android": "https://dc.lft.to/lastmile_qr_scan", "ios": "https://dc.lft.to/lastmile_qr_scan"}, "fusion_lon": 0.0}, {"lat": 38.905755166666665, "is_disabled": 0, "type": "electric_scooter", "lon": -77.03411916666667, "bike_id": "45c27d9127ffb123406a386610816954", "fusion_lat": 0.0, "name": "45c27d9127ffb123406a386610816954", "is_reserved": 0, "rental_uris": {"android": "https://dc.lft.to/lastmile_qr_scan", "ios": "https://dc.lft.to/lastmile_qr_scan"}, "fusion_lon": 0.0}, {"lat": 38.91731766666667, "is_disabled": 0, "type": "electric_scooter", "lon": -77.03645516666667, "bike_id": "7a267e5fa3432f3cebfb7ac70649e259", "fusion_lat": 0.0, "name": "7a267e5fa3432f3cebfb7ac70649e259", "is_reserved": 0, "rental_uris": {"android": "https://dc.lft.to/lastmile_qr_scan", "ios": "https://dc.lft.to/lastmile_qr_scan"}, "fusion_lon": 0.0}, {"lat": 39.051983, "is_disabled": 0, "type": "electric_bike", "lon": -77.10913916666667, "bike_id": "6f9c1a86442a6fb80b5533af9bc82d8a", "fusion_lat": 0.0, "name": "6f9c1a86442a6fb80b5533af9bc82d8a", "is_reserved": 0, "rental_uris": {"android": "https://dc.lft.to/lastmile_qr_scan", "ios": "https://dc.lft.to/lastmile_qr_scan"}, "fusion_lon": 0.0}, {"lat": 38.863632833333334, "is_disabled": 0, "type": "electric_scooter", "lon": -76.99030216666667, "bike_id": "5d92235cf736ab24184b27cea82bbb1c", "fusion_lat": 0.0, "name": "5d92235cf736ab24184b27cea82bbb1c", "is_reserved": 0, "rental_uris": {"android": "https://dc.lft.to/lastmile_qr_scan", "ios": "https://dc.lft.to/lastmile_qr_scan"}, "fusion_lon": 0.0}, {"lat": 38.91311616666667, "is_disabled": 0, "type": "electric_scooter", "lon": -77.04166066666667, "bike_id": "4b4b3a1a84fbeaf2189b082e70cbfdfe", "fusion_lat": 0.0, "name": "4b4b3a1a84fbeaf2189b082e70cbfdfe", "is_reserved": 0, "rental_uris": {"android": "https://dc.lft.to/lastmile_qr_scan", "ios": "https://dc.lft.to/lastmile_qr_scan"}, "fusion_lon": 0.0}, {"lat": 38.904997, "is_disabled": 0, "type": "electric_scooter", "lon": -77.06272316666667, "bike_id": "c51cc0c5a76637f9c775eac0ef07d31b", "fusion_lat": 0.0, "name": "c51cc0c5a76637f9c775eac0ef07d31b", "is_reserved": 0, "rental_uris": {"android": "https://dc.lft.to/lastmile_qr_scan", "ios": "https://dc.lft.to/lastmile_qr_scan"}, "fusion_lon": 0.0}, {"lat": 38.92745566666667, "is_disabled": 0, "type": "electric_scooter", "lon": -76.9972185, "bike_id": "5f88884b6ed1040e0febdd11fe54bbf7", "fusion_lat": 0.0, "name": "5f88884b6ed1040e0febdd11fe54bbf7", "is_reserved": 0, "rental_uris": {"android": "https://dc.lft.to/lastmile_qr_scan", "ios": "https://dc.lft.to/lastmile_qr_scan"}, "fusion_lon": 0.0}, {"lat": 38.9436025, "is_disabled": 0, "type": "electric_bike", "lon": -76.967779, "bike_id": "c8372ec3f74ecbc09db767e9eb7ff992", "fusion_lat": 0.0, "name": "c8372ec3f74ecbc09db767e9eb7ff992", "is_reserved": 0, "rental_uris": {"android": "https://dc.lft.to/lastmile_qr_scan", "ios": "https://dc.lft.to/lastmile_qr_scan"}, "fusion_lon": 0.0}, {"lat": 38.9096965, "is_disabled": 0, "type": "electric_scooter", "lon": -77.03943933333333, "bike_id": "b3a2a09241cef74c29ecf36f8ed7655b", "fusion_lat": 0.0, "name": "b3a2a09241cef74c29ecf36f8ed7655b", "is_reserved": 0, "rental_uris": {"android": "https://dc.lft.to/lastmile_qr_scan", "ios": "https://dc.lft.to/lastmile_qr_scan"}, "fusion_lon": 0.0}, {"lat": 38.90363583333333, "is_disabled": 0, "type": "electric_scooter", "lon": -77.029126, "bike_id": "c3b43521b7989ce7d132a1a987427b3d", "fusion_lat": 0.0, "name": "c3b43521b7989ce7d132a1a987427b3d", "is_reserved": 0, "rental_uris": {"android": "https://dc.lft.to/lastmile_qr_scan", "ios": "https://dc.lft.to/lastmile_qr_scan"}, "fusion_lon": 0.0}, {"lat": 38.875712166666666, "is_disabled": 0, "type": "electric_scooter", "lon": -77.0208435, "bike_id": "4af0ff8d98ce46a5762cad05a490410c", "fusion_lat": 0.0, "name": "4af0ff8d98ce46a5762cad05a490410c", "is_reserved": 0, "rental_uris": {"android": "https://dc.lft.to/lastmile_qr_scan", "ios": "https://dc.lft.to/lastmile_qr_scan"}, "fusion_lon": 0.0}, {"lat": 38.91924183333333, "is_disabled": 0, "type": "electric_scooter", "lon": -77.031907, "bike_id": "88a77d06216a3c43fefadce5c6011b0c", "fusion_lat": 0.0, "name": "88a77d06216a3c43fefadce5c6011b0c", "is_reserved": 0, "rental_uris": {"android": "https://dc.lft.to/lastmile_qr_scan", "ios": "https://dc.lft.to/lastmile_qr_scan"}, "fusion_lon": 0.0}, {"lat": 38.908439666666666, "is_disabled": 0, "type": "electric_scooter", "lon": -76.99950933333334, "bike_id": "76c0b868a959da957c35113b812c6ee0", "fusion_lat": 0.0, "name": "76c0b868a959da957c35113b812c6ee0", "is_reserved": 0, "rental_uris": {"android": "https://dc.lft.to/lastmile_qr_scan", "ios": "https://dc.lft.to/lastmile_qr_scan"}, "fusion_lon": 0.0}, {"lat": 38.904063, "is_disabled": 0, "type": "electric_scooter", "lon": -77.04059366666667, "bike_id": "2e130d028438adcfa9b38938ba0be2a2", "fusion_lat": 0.0, "name": "2e130d028438adcfa9b38938ba0be2a2", "is_reserved": 0, "rental_uris": {"android": "https://dc.lft.to/lastmile_qr_scan", "ios": "https://dc.lft.to/lastmile_qr_scan"}, "fusion_lon": 0.0}, {"lat": 38.885133333333336, "is_disabled": 0, "type": "electric_scooter", "lon": -77.00679133333334, "bike_id": "d8052d0f835ecb134787127d10be85ae", "fusion_lat": 0.0, "name": "d8052d0f835ecb134787127d10be85ae", "is_reserved": 0, "rental_uris": {"android": "https://dc.lft.to/lastmile_qr_scan", "ios": "https://dc.lft.to/lastmile_qr_scan"}, "fusion_lon": 0.0}, {"lat": 38.9133425, "is_disabled": 0, "type": "electric_scooter", "lon": -77.04882383333333, "bike_id": "49ae7e4e46372c486e58de0b57c9f37d", "fusion_lat": 0.0, "name": "49ae7e4e46372c486e58de0b57c9f37d", "is_reserved": 0, "rental_uris": {"android": "https://dc.lft.to/lastmile_qr_scan", "ios": "https://dc.lft.to/lastmile_qr_scan"}, "fusion_lon": 0.0}, {"lat": 39.03047633333333, "is_disabled": 0, "type": "electric_bike", "lon": -77.09478066666667, "bike_id": "770caa7628c177d4c9688485c8e1fabf", "fusion_lat": 0.0, "name": "770caa7628c177d4c9688485c8e1fabf", "is_reserved": 0, "rental_uris": {"android": "https://dc.lft.to/lastmile_qr_scan", "ios": "https://dc.lft.to/lastmile_qr_scan"}, "fusion_lon": 0.0}, {"lat": 38.90784716666667, "is_disabled": 0, "type": "electric_scooter", "lon": -77.03819, "bike_id": "0ce2656134c9c2ec51e5e04e66de3cc3", "fusion_lat": 0.0, "name": "0ce2656134c9c2ec51e5e04e66de3cc3", "is_reserved": 0, "rental_uris": {"android": "https://dc.lft.to/lastmile_qr_scan", "ios": "https://dc.lft.to/lastmile_qr_scan"}, "fusion_lon": 0.0}, {"lat": 38.91744933333333, "is_disabled": 0, "type": "electric_scooter", "lon": -77.02282566666666, "bike_id": "4bcc81803b81e82173ae8ce4af5918a7", "fusion_lat": 0.0, "name": "4bcc81803b81e82173ae8ce4af5918a7", "is_reserved": 0, "rental_uris": {"android": "https://dc.lft.to/lastmile_qr_scan", "ios": "https://dc.lft.to/lastmile_qr_scan"}, "fusion_lon": 0.0}, {"lat": 38.901347666666666, "is_disabled": 0, "type": "electric_scooter", "lon": -77.0417215, "bike_id": "48a2a5244cfad3e56b4e81936062ae8e", "fusion_lat": 0.0, "name": "48a2a5244cfad3e56b4e81936062ae8e", "is_reserved": 0, "rental_uris": {"android": "https://dc.lft.to/lastmile_qr_scan", "ios": "https://dc.lft.to/lastmile_qr_scan"}, "fusion_lon": 0.0}, {"lat": 38.85923416666667, "is_disabled": 0, "type": "electric_scooter", "lon": -76.98977366666666, "bike_id": "05c5e97d1f51087a65dd7faa3344fdf3", "fusion_lat": 0.0, "name": "05c5e97d1f51087a65dd7faa3344fdf3", "is_reserved": 0, "rental_uris": {"android": "https://dc.lft.to/lastmile_qr_scan", "ios": "https://dc.lft.to/lastmile_qr_scan"}, "fusion_lon": 0.0}, {"lat": 38.897563166666664, "is_disabled": 0, "type": "electric_scooter", "lon": -77.02696966666667, "bike_id": "5a83a4cc6ce87d0bed7564c13b34c068", "fusion_lat": 0.0, "name": "5a83a4cc6ce87d0bed7564c13b34c068", "is_reserved": 0, "rental_uris": {"android": "https://dc.lft.to/lastmile_qr_scan", "ios": "https://dc.lft.to/lastmile_qr_scan"}, "fusion_lon": 0.0}, {"lat": 38.920537333333336, "is_disabled": 0, "type": "electric_scooter", "lon": -77.03160883333334, "bike_id": "984027aa741db0bc5df26532ea5b3d82", "fusion_lat": 0.0, "name": "984027aa741db0bc5df26532ea5b3d82", "is_reserved": 0, "rental_uris": {"android": "https://dc.lft.to/lastmile_qr_scan", "ios": "https://dc.lft.to/lastmile_qr_scan"}, "fusion_lon": 0.0}, {"lat": 38.930653, "is_disabled": 0, "type": "electric_scooter", "lon": -77.04026683333333, "bike_id": "9c519b721e6ae5184a596c870114ab86", "fusion_lat": 0.0, "name": "9c519b721e6ae5184a596c870114ab86", "is_reserved": 0, "rental_uris": {"android": "https://dc.lft.to/lastmile_qr_scan", "ios": "https://dc.lft.to/lastmile_qr_scan"}, "fusion_lon": 0.0}, {"lat": 38.927792333333336, "is_disabled": 0, "type": "electric_scooter", "lon": -77.02789283333334, "bike_id": "86be200234c3869f7f73c4a5ff571ec1", "fusion_lat": 0.0, "name": "86be200234c3869f7f73c4a5ff571ec1", "is_reserved": 0, "rental_uris": {"android": "https://dc.lft.to/lastmile_qr_scan", "ios": "https://dc.lft.to/lastmile_qr_scan"}, "fusion_lon": 0.0}, {"lat": 38.88489766666667, "is_disabled": 0, "type": "electric_scooter", "lon": -77.00707716666666, "bike_id": "c32a14861883b313a34891003876defc", "fusion_lat": 0.0, "name": "c32a14861883b313a34891003876defc", "is_reserved": 0, "rental_uris": {"android": "https://dc.lft.to/lastmile_qr_scan", "ios": "https://dc.lft.to/lastmile_qr_scan"}, "fusion_lon": 0.0}, {"lat": 38.90540283333333, "is_disabled": 0, "type": "electric_scooter", "lon": -77.04177583333333, "bike_id": "ad6cb116ee8bd1941bbbf6c5ac623abf", "fusion_lat": 0.0, "name": "ad6cb116ee8bd1941bbbf6c5ac623abf", "is_reserved": 0, "rental_uris": {"android": "https://dc.lft.to/lastmile_qr_scan", "ios": "https://dc.lft.to/lastmile_qr_scan"}, "fusion_lon": 0.0}, {"lat": 38.9053985, "is_disabled": 0, "type": "electric_scooter", "lon": -77.041827, "bike_id": "87dc4ebdd6e840818edc81c14537d56f", "fusion_lat": 0.0, "name": "87dc4ebdd6e840818edc81c14537d56f", "is_reserved": 0, "rental_uris": {"android": "https://dc.lft.to/lastmile_qr_scan", "ios": "https://dc.lft.to/lastmile_qr_scan"}, "fusion_lon": 0.0}, {"lat": 38.9118705, "is_disabled": 0, "type": "electric_scooter", "lon": -77.00467016666667, "bike_id": "70ba17d014ddd1963b89c56f8f78bf10", "fusion_lat": 0.0, "name": "70ba17d014ddd1963b89c56f8f78bf10", "is_reserved": 0, "rental_uris": {"android": "https://dc.lft.to/lastmile_qr_scan", "ios": "https://dc.lft.to/lastmile_qr_scan"}, "fusion_lon": 0.0}, {"lat": 38.905266833333336, "is_disabled": 0, "type": "electric_scooter", "lon": -77.02972383333334, "bike_id": "03430e369865c03b38bb3c815e972414", "fusion_lat": 0.0, "name": "03430e369865c03b38bb3c815e972414", "is_reserved": 0, "rental_uris": {"android": "https://dc.lft.to/lastmile_qr_scan", "ios": "https://dc.lft.to/lastmile_qr_scan"}, "fusion_lon": 0.0}, {"lat": 38.892182166666665, "is_disabled": 0, "type": "electric_scooter", "lon": -77.02776516666667, "bike_id": "f2ab1ead9e327a007c3d4b9e031f3633", "fusion_lat": 0.0, "name": "f2ab1ead9e327a007c3d4b9e031f3633", "is_reserved": 0, "rental_uris": {"android": "https://dc.lft.to/lastmile_qr_scan", "ios": "https://dc.lft.to/lastmile_qr_scan"}, "fusion_lon": 0.0}, {"lat": 38.9156005, "is_disabled": 0, "type": "electric_scooter", "lon": -77.03857883333333, "bike_id": "49c276471986d397a0126945082e2e2f", "fusion_lat": 0.0, "name": "49c276471986d397a0126945082e2e2f", "is_reserved": 0, "rental_uris": {"android": "https://dc.lft.to/lastmile_qr_scan", "ios": "https://dc.lft.to/lastmile_qr_scan"}, "fusion_lon": 0.0}, {"lat": 38.87574566666667, "is_disabled": 0, "type": "electric_bike", "lon": -77.10565916666667, "bike_id": "744e835675b65964a3f8196ae8fb0279", "fusion_lat": 0.0, "name": "744e835675b65964a3f8196ae8fb0279", "is_reserved": 0, "rental_uris": {"android": "https://dc.lft.to/lastmile_qr_scan", "ios": "https://dc.lft.to/lastmile_qr_scan"}, "fusion_lon": 0.0}, {"lat": 38.92613133333333, "is_disabled": 0, "type": "electric_scooter", "lon": -76.9960455, "bike_id": "7eafee3252f6fc6c113cba540ccb15f4", "fusion_lat": 0.0, "name": "7eafee3252f6fc6c113cba540ccb15f4", "is_reserved": 0, "rental_uris": {"android": "https://dc.lft.to/lastmile_qr_scan", "ios": "https://dc.lft.to/lastmile_qr_scan"}, "fusion_lon": 0.0}, {"lat": 38.890003166666666, "is_disabled": 0, "type": "electric_scooter", "lon": -76.95412616666667, "bike_id": "cbaaa9839daa50ef584f795c5f69458e", "fusion_lat": 0.0, "name": "cbaaa9839daa50ef584f795c5f69458e", "is_reserved": 0, "rental_uris": {"android": "https://dc.lft.to/lastmile_qr_scan", "ios": "https://dc.lft.to/lastmile_qr_scan"}, "fusion_lon": 0.0}, {"lat": 38.912654, "is_disabled": 0, "type": "electric_scooter", "lon": -77.02248416666667, "bike_id": "16ebe0ce1bcaf068dc7b759cd7ac81fb", "fusion_lat": 0.0, "name": "16ebe0ce1bcaf068dc7b759cd7ac81fb", "is_reserved": 0, "rental_uris": {"android": "https://dc.lft.to/lastmile_qr_scan", "ios": "https://dc.lft.to/lastmile_qr_scan"}, "fusion_lon": 0.0}, {"lat": 38.842753333333334, "is_disabled": 0, "type": "electric_bike", "lon": -76.98841233333333, "bike_id": "e40c3591e2bfea7a8d9048390cbedb96", "fusion_lat": 0.0, "name": "e40c3591e2bfea7a8d9048390cbedb96", "is_reserved": 0, "rental_uris": {"android": "https://dc.lft.to/lastmile_qr_scan", "ios": "https://dc.lft.to/lastmile_qr_scan"}, "fusion_lon": 0.0}, {"lat": 38.94926933333333, "is_disabled": 0, "type": "electric_scooter", "lon": -77.0193255, "bike_id": "caebe07691a8a865398e60297da6521a", "fusion_lat": 0.0, "name": "caebe07691a8a865398e60297da6521a", "is_reserved": 0, "rental_uris": {"android": "https://dc.lft.to/lastmile_qr_scan", "ios": "https://dc.lft.to/lastmile_qr_scan"}, "fusion_lon": 0.0}, {"lat": 38.8952635, "is_disabled": 0, "type": "electric_scooter", "lon": -77.00204933333333, "bike_id": "3dee1477ae186e829211cd0ba7e1df7a", "fusion_lat": 0.0, "name": "3dee1477ae186e829211cd0ba7e1df7a", "is_reserved": 0, "rental_uris": {"android": "https://dc.lft.to/lastmile_qr_scan", "ios": "https://dc.lft.to/lastmile_qr_scan"}, "fusion_lon": 0.0}, {"lat": 38.9136225, "is_disabled": 0, "type": "electric_scooter", "lon": -77.03959116666667, "bike_id": "fcf400373afc963b5b8ccdb05a8df98c", "fusion_lat": 0.0, "name": "fcf400373afc963b5b8ccdb05a8df98c", "is_reserved": 0, "rental_uris": {"android": "https://dc.lft.to/lastmile_qr_scan", "ios": "https://dc.lft.to/lastmile_qr_scan"}, "fusion_lon": 0.0}, {"lat": 38.866261333333334, "is_disabled": 0, "type": "electric_scooter", "lon": -76.987004, "bike_id": "a2c0547dbe88ae246bf568d469183e3a", "fusion_lat": 0.0, "name": "a2c0547dbe88ae246bf568d469183e3a", "is_reserved": 0, "rental_uris": {"android": "https://dc.lft.to/lastmile_qr_scan", "ios": "https://dc.lft.to/lastmile_qr_scan"}, "fusion_lon": 0.0}, {"lat": 38.90527016666667, "is_disabled": 0, "type": "electric_scooter", "lon": -77.04348216666666, "bike_id": "9393fe7eb41dd494ca2b50c70cbba6dd", "fusion_lat": 0.0, "name": "9393fe7eb41dd494ca2b50c70cbba6dd", "is_reserved": 0, "rental_uris": {"android": "https://dc.lft.to/lastmile_qr_scan", "ios": "https://dc.lft.to/lastmile_qr_scan"}, "fusion_lon": 0.0}, {"lat": 38.8278695, "is_disabled": 0, "type": "electric_bike", "lon": -77.00917816666667, "bike_id": "9ff2654e559be95753509b3c283c3ed7", "fusion_lat": 0.0, "name": "9ff2654e559be95753509b3c283c3ed7", "is_reserved": 0, "rental_uris": {"android": "https://dc.lft.to/lastmile_qr_scan", "ios": "https://dc.lft.to/lastmile_qr_scan"}, "fusion_lon": 0.0}, {"lat": 38.90574483333333, "is_disabled": 0, "type": "electric_scooter", "lon": -77.043523, "bike_id": "7f9873565c6dc523a60f7c6fbf070c21", "fusion_lat": 0.0, "name": "7f9873565c6dc523a60f7c6fbf070c21", "is_reserved": 0, "rental_uris": {"android": "https://dc.lft.to/lastmile_qr_scan", "ios": "https://dc.lft.to/lastmile_qr_scan"}, "fusion_lon": 0.0}, {"lat": 38.8442475, "is_disabled": 0, "type": "electric_scooter", "lon": -76.99777516666667, "bike_id": "16068d998d627ba06e285c54ec2894df", "fusion_lat": 0.0, "name": "16068d998d627ba06e285c54ec2894df", "is_reserved": 0, "rental_uris": {"android": "https://dc.lft.to/lastmile_qr_scan", "ios": "https://dc.lft.to/lastmile_qr_scan"}, "fusion_lon": 0.0}, {"lat": 38.91473383333334, "is_disabled": 0, "type": "electric_scooter", "lon": -77.00345933333334, "bike_id": "310e2b9216391b628b96ee59e37e3a78", "fusion_lat": 0.0, "name": "310e2b9216391b628b96ee59e37e3a78", "is_reserved": 0, "rental_uris": {"android": "https://dc.lft.to/lastmile_qr_scan", "ios": "https://dc.lft.to/lastmile_qr_scan"}, "fusion_lon": 0.0}, {"lat": 38.9077295, "is_disabled": 0, "type": "electric_scooter", "lon": -77.03857, "bike_id": "0589d186ed0a1ac9833c89549727f030", "fusion_lat": 0.0, "name": "0589d186ed0a1ac9833c89549727f030", "is_reserved": 0, "rental_uris": {"android": "https://dc.lft.to/lastmile_qr_scan", "ios": "https://dc.lft.to/lastmile_qr_scan"}, "fusion_lon": 0.0}, {"lat": 38.907777, "is_disabled": 0, "type": "electric_scooter", "lon": -77.03857316666667, "bike_id": "0645db8456cb2e5d0c8830cf0b3b6d90", "fusion_lat": 0.0, "name": "0645db8456cb2e5d0c8830cf0b3b6d90", "is_reserved": 0, "rental_uris": {"android": "https://dc.lft.to/lastmile_qr_scan", "ios": "https://dc.lft.to/lastmile_qr_scan"}, "fusion_lon": 0.0}, {"lat": 38.986474, "is_disabled": 0, "type": "electric_bike", "lon": -77.05636483333333, "bike_id": "6fe1ec159c2fdfa0f918d675fe72418e", "fusion_lat": 0.0, "name": "6fe1ec159c2fdfa0f918d675fe72418e", "is_reserved": 0, "rental_uris": {"android": "https://dc.lft.to/lastmile_qr_scan", "ios": "https://dc.lft.to/lastmile_qr_scan"}, "fusion_lon": 0.0}, {"lat": 38.9248215, "is_disabled": 0, "type": "electric_scooter", "lon": -77.02837083333333, "bike_id": "26ea47d8a2a90eeed3a701da51864404", "fusion_lat": 0.0, "name": "26ea47d8a2a90eeed3a701da51864404", "is_reserved": 0, "rental_uris": {"android": "https://dc.lft.to/lastmile_qr_scan", "ios": "https://dc.lft.to/lastmile_qr_scan"}, "fusion_lon": 0.0}, {"lat": 38.91912516666667, "is_disabled": 0, "type": "electric_scooter", "lon": -77.03394383333334, "bike_id": "575baabb3a3b3cd2de9b4fbab900dc23", "fusion_lat": 0.0, "name": "575baabb3a3b3cd2de9b4fbab900dc23", "is_reserved": 0, "rental_uris": {"android": "https://dc.lft.to/lastmile_qr_scan", "ios": "https://dc.lft.to/lastmile_qr_scan"}, "fusion_lon": 0.0}, {"lat": 38.921884166666665, "is_disabled": 0, "type": "electric_scooter", "lon": -77.0397315, "bike_id": "0a6741f05d41b779df659aa931e74d7f", "fusion_lat": 0.0, "name": "0a6741f05d41b779df659aa931e74d7f", "is_reserved": 0, "rental_uris": {"android": "https://dc.lft.to/lastmile_qr_scan", "ios": "https://dc.lft.to/lastmile_qr_scan"}, "fusion_lon": 0.0}, {"lat": 38.913622, "is_disabled": 0, "type": "electric_scooter", "lon": -77.04581866666666, "bike_id": "765f44713df3e6c1d79197557021eb8b", "fusion_lat": 0.0, "name": "765f44713df3e6c1d79197557021eb8b", "is_reserved": 0, "rental_uris": {"android": "https://dc.lft.to/lastmile_qr_scan", "ios": "https://dc.lft.to/lastmile_qr_scan"}, "fusion_lon": 0.0}, {"lat": 38.91112366666667, "is_disabled": 0, "type": "electric_scooter", "lon": -77.03719633333333, "bike_id": "d0ff8e3f540d0f58fc11ea98c16625ce", "fusion_lat": 0.0, "name": "d0ff8e3f540d0f58fc11ea98c16625ce", "is_reserved": 0, "rental_uris": {"android": "https://dc.lft.to/lastmile_qr_scan", "ios": "https://dc.lft.to/lastmile_qr_scan"}, "fusion_lon": 0.0}, {"lat": 38.8921615, "is_disabled": 0, "type": "electric_scooter", "lon": -77.03214366666667, "bike_id": "1f6aa4dccf7748203a8b6577a73a74d3", "fusion_lat": 0.0, "name": "1f6aa4dccf7748203a8b6577a73a74d3", "is_reserved": 0, "rental_uris": {"android": "https://dc.lft.to/lastmile_qr_scan", "ios": "https://dc.lft.to/lastmile_qr_scan"}, "fusion_lon": 0.0}, {"lat": 38.906272, "is_disabled": 0, "type": "electric_scooter", "lon": -77.031512, "bike_id": "042cd8d5ccba161e52456a91f81d4acc", "fusion_lat": 0.0, "name": "042cd8d5ccba161e52456a91f81d4acc", "is_reserved": 0, "rental_uris": {"android": "https://dc.lft.to/lastmile_qr_scan", "ios": "https://dc.lft.to/lastmile_qr_scan"}, "fusion_lon": 0.0}, {"lat": 38.916570666666665, "is_disabled": 0, "type": "electric_scooter", "lon": -77.02230533333334, "bike_id": "84015b4fef2ae05d5743f15bc0bd399f", "fusion_lat": 0.0, "name": "84015b4fef2ae05d5743f15bc0bd399f", "is_reserved": 0, "rental_uris": {"android": "https://dc.lft.to/lastmile_qr_scan", "ios": "https://dc.lft.to/lastmile_qr_scan"}, "fusion_lon": 0.0}, {"lat": 38.9999305, "is_disabled": 0, "type": "electric_bike", "lon": -76.92496883333334, "bike_id": "851803250de15109772312e776b3826f", "fusion_lat": 0.0, "name": "851803250de15109772312e776b3826f", "is_reserved": 0, "rental_uris": {"android": "https://dc.lft.to/lastmile_qr_scan", "ios": "https://dc.lft.to/lastmile_qr_scan"}, "fusion_lon": 0.0}, {"lat": 38.91817316666667, "is_disabled": 0, "type": "electric_scooter", "lon": -77.04179416666666, "bike_id": "4a217f2a8066adb36bc946570745f83c", "fusion_lat": 0.0, "name": "4a217f2a8066adb36bc946570745f83c", "is_reserved": 0, "rental_uris": {"android": "https://dc.lft.to/lastmile_qr_scan", "ios": "https://dc.lft.to/lastmile_qr_scan"}, "fusion_lon": 0.0}, {"lat": 38.9521935, "is_disabled": 0, "type": "electric_scooter", "lon": -77.08603333333333, "bike_id": "a3c1368aefea2f5817bfda84b3d0b627", "fusion_lat": 0.0, "name": "a3c1368aefea2f5817bfda84b3d0b627", "is_reserved": 0, "rental_uris": {"android": "https://dc.lft.to/lastmile_qr_scan", "ios": "https://dc.lft.to/lastmile_qr_scan"}, "fusion_lon": 0.0}, {"lat": 38.92138833333333, "is_disabled": 0, "type": "electric_scooter", "lon": -77.04483383333333, "bike_id": "5ea3ae39a8cf94a67a5744a54edac17b", "fusion_lat": 0.0, "name": "5ea3ae39a8cf94a67a5744a54edac17b", "is_reserved": 0, "rental_uris": {"android": "https://dc.lft.to/lastmile_qr_scan", "ios": "https://dc.lft.to/lastmile_qr_scan"}, "fusion_lon": 0.0}, {"lat": 38.89085816666667, "is_disabled": 0, "type": "electric_scooter", "lon": -76.95262416666667, "bike_id": "7aba9861d1ac6b7e6221250e67624234", "fusion_lat": 0.0, "name": "7aba9861d1ac6b7e6221250e67624234", "is_reserved": 0, "rental_uris": {"android": "https://dc.lft.to/lastmile_qr_scan", "ios": "https://dc.lft.to/lastmile_qr_scan"}, "fusion_lon": 0.0}, {"lat": 38.93860466666667, "is_disabled": 0, "type": "electric_scooter", "lon": -77.02734433333333, "bike_id": "4c91232ceda235777d488de3f2f7c369", "fusion_lat": 0.0, "name": "4c91232ceda235777d488de3f2f7c369", "is_reserved": 0, "rental_uris": {"android": "https://dc.lft.to/lastmile_qr_scan", "ios": "https://dc.lft.to/lastmile_qr_scan"}, "fusion_lon": 0.0}, {"lat": 38.906217833333336, "is_disabled": 0, "type": "electric_scooter", "lon": -77.02183116666667, "bike_id": "34ea92a8ac11999423affb25f3c939f3", "fusion_lat": 0.0, "name": "34ea92a8ac11999423affb25f3c939f3", "is_reserved": 0, "rental_uris": {"android": "https://dc.lft.to/lastmile_qr_scan", "ios": "https://dc.lft.to/lastmile_qr_scan"}, "fusion_lon": 0.0}, {"lat": 38.8874185, "is_disabled": 0, "type": "electric_scooter", "lon": -77.022076, "bike_id": "33fb2d7804326097f7da2781f06bb5ed", "fusion_lat": 0.0, "name": "33fb2d7804326097f7da2781f06bb5ed", "is_reserved": 0, "rental_uris": {"android": "https://dc.lft.to/lastmile_qr_scan", "ios": "https://dc.lft.to/lastmile_qr_scan"}, "fusion_lon": 0.0}, {"lat": 38.95410366666667, "is_disabled": 0, "type": "electric_bike", "lon": -76.98052966666667, "bike_id": "eab5bfe5005783300b3f6418d2654fc5", "fusion_lat": 0.0, "name": "eab5bfe5005783300b3f6418d2654fc5", "is_reserved": 0, "rental_uris": {"android": "https://dc.lft.to/lastmile_qr_scan", "ios": "https://dc.lft.to/lastmile_qr_scan"}, "fusion_lon": 0.0}, {"lat": 38.91560666666667, "is_disabled": 0, "type": "electric_scooter", "lon": -77.0200665, "bike_id": "9da3a5e1815dd032e757cfcaab0d8010", "fusion_lat": 0.0, "name": "9da3a5e1815dd032e757cfcaab0d8010", "is_reserved": 0, "rental_uris": {"android": "https://dc.lft.to/lastmile_qr_scan", "ios": "https://dc.lft.to/lastmile_qr_scan"}, "fusion_lon": 0.0}, {"lat": 38.876309, "is_disabled": 0, "type": "electric_scooter", "lon": -76.9652425, "bike_id": "3ed133a1f93e9931d0d283a037b281f0", "fusion_lat": 0.0, "name": "3ed133a1f93e9931d0d283a037b281f0", "is_reserved": 0, "rental_uris": {"android": "https://dc.lft.to/lastmile_qr_scan", "ios": "https://dc.lft.to/lastmile_qr_scan"}, "fusion_lon": 0.0}, {"lat": 38.90095766666666, "is_disabled": 0, "type": "electric_scooter", "lon": -77.00067133333333, "bike_id": "ae22e7376bfb3c4c8eb56d5d913ea71a", "fusion_lat": 0.0, "name": "ae22e7376bfb3c4c8eb56d5d913ea71a", "is_reserved": 0, "rental_uris": {"android": "https://dc.lft.to/lastmile_qr_scan", "ios": "https://dc.lft.to/lastmile_qr_scan"}, "fusion_lon": 0.0}, {"lat": 38.90492833333333, "is_disabled": 0, "type": "electric_scooter", "lon": -77.029659, "bike_id": "955bb7f734ce675fe5f96a02c348cabb", "fusion_lat": 0.0, "name": "955bb7f734ce675fe5f96a02c348cabb", "is_reserved": 0, "rental_uris": {"android": "https://dc.lft.to/lastmile_qr_scan", "ios": "https://dc.lft.to/lastmile_qr_scan"}, "fusion_lon": 0.0}, {"lat": 38.87341416666667, "is_disabled": 0, "type": "electric_scooter", "lon": -76.99167633333333, "bike_id": "317fe7f97e806f82169dff763b9ea69c", "fusion_lat": 0.0, "name": "317fe7f97e806f82169dff763b9ea69c", "is_reserved": 0, "rental_uris": {"android": "https://dc.lft.to/lastmile_qr_scan", "ios": "https://dc.lft.to/lastmile_qr_scan"}, "fusion_lon": 0.0}, {"lat": 38.91913866666667, "is_disabled": 0, "type": "electric_scooter", "lon": -77.02591833333334, "bike_id": "4808bbeaafecbcef1430faad5653e9a4", "fusion_lat": 0.0, "name": "4808bbeaafecbcef1430faad5653e9a4", "is_reserved": 0, "rental_uris": {"android": "https://dc.lft.to/lastmile_qr_scan", "ios": "https://dc.lft.to/lastmile_qr_scan"}, "fusion_lon": 0.0}, {"lat": 38.928630166666665, "is_disabled": 0, "type": "electric_scooter", "lon": -77.01413483333333, "bike_id": "b020a2d4ce35d2fc7ae759e61d332073", "fusion_lat": 0.0, "name": "b020a2d4ce35d2fc7ae759e61d332073", "is_reserved": 0, "rental_uris": {"android": "https://dc.lft.to/lastmile_qr_scan", "ios": "https://dc.lft.to/lastmile_qr_scan"}, "fusion_lon": 0.0}, {"lat": 38.8022825, "is_disabled": 0, "type": "electric_bike", "lon": -77.07914266666667, "bike_id": "bf6f163830b376e36ff2d5432a14ba69", "fusion_lat": 0.0, "name": "bf6f163830b376e36ff2d5432a14ba69", "is_reserved": 0, "rental_uris": {"android": "https://dc.lft.to/lastmile_qr_scan", "ios": "https://dc.lft.to/lastmile_qr_scan"}, "fusion_lon": 0.0}, {"lat": 38.904786666666666, "is_disabled": 0, "type": "electric_scooter", "lon": -77.03910183333333, "bike_id": "c432fbbd3ac6f6aa366fc73d952e4c7e", "fusion_lat": 0.0, "name": "c432fbbd3ac6f6aa366fc73d952e4c7e", "is_reserved": 0, "rental_uris": {"android": "https://dc.lft.to/lastmile_qr_scan", "ios": "https://dc.lft.to/lastmile_qr_scan"}, "fusion_lon": 0.0}, {"lat": 38.941453833333334, "is_disabled": 0, "type": "electric_bike", "lon": -77.03280883333333, "bike_id": "ad2ac916d0c7fb8bda2614d9f404159e", "fusion_lat": 0.0, "name": "ad2ac916d0c7fb8bda2614d9f404159e", "is_reserved": 0, "rental_uris": {"android": "https://dc.lft.to/lastmile_qr_scan", "ios": "https://dc.lft.to/lastmile_qr_scan"}, "fusion_lon": 0.0}, {"lat": 38.863596666666666, "is_disabled": 0, "type": "electric_scooter", "lon": -76.99032533333333, "bike_id": "21f83305d4b88db9b54721c7e08d0fb6", "fusion_lat": 0.0, "name": "21f83305d4b88db9b54721c7e08d0fb6", "is_reserved": 0, "rental_uris": {"android": "https://dc.lft.to/lastmile_qr_scan", "ios": "https://dc.lft.to/lastmile_qr_scan"}, "fusion_lon": 0.0}, {"lat": 38.9030095, "is_disabled": 0, "type": "electric_scooter", "lon": -77.009006, "bike_id": "a7b9782f9b7706cfa529589634ca1401", "fusion_lat": 0.0, "name": "a7b9782f9b7706cfa529589634ca1401", "is_reserved": 0, "rental_uris": {"android": "https://dc.lft.to/lastmile_qr_scan", "ios": "https://dc.lft.to/lastmile_qr_scan"}, "fusion_lon": 0.0}, {"lat": 38.9223405, "is_disabled": 0, "type": "electric_scooter", "lon": -77.04352483333334, "bike_id": "15a10da57530a1e494be4335079fd29d", "fusion_lat": 0.0, "name": "15a10da57530a1e494be4335079fd29d", "is_reserved": 0, "rental_uris": {"android": "https://dc.lft.to/lastmile_qr_scan", "ios": "https://dc.lft.to/lastmile_qr_scan"}, "fusion_lon": 0.0}, {"lat": 38.88484666666667, "is_disabled": 0, "type": "electric_scooter", "lon": -77.03474083333333, "bike_id": "d2fbbc6ce8c264910b28d7897613b8d8", "fusion_lat": 0.0, "name": "d2fbbc6ce8c264910b28d7897613b8d8", "is_reserved": 0, "rental_uris": {"android": "https://dc.lft.to/lastmile_qr_scan", "ios": "https://dc.lft.to/lastmile_qr_scan"}, "fusion_lon": 0.0}, {"lat": 38.92715316666666, "is_disabled": 0, "type": "electric_scooter", "lon": -77.02302316666666, "bike_id": "d78fe49515f60a6cf6dc516111f82c9a", "fusion_lat": 0.0, "name": "d78fe49515f60a6cf6dc516111f82c9a", "is_reserved": 0, "rental_uris": {"android": "https://dc.lft.to/lastmile_qr_scan", "ios": "https://dc.lft.to/lastmile_qr_scan"}, "fusion_lon": 0.0}, {"lat": 38.953985333333335, "is_disabled": 0, "type": "electric_bike", "lon": -76.97869366666667, "bike_id": "4602cae892585a1498ef6c6552bda535", "fusion_lat": 0.0, "name": "4602cae892585a1498ef6c6552bda535", "is_reserved": 0, "rental_uris": {"android": "https://dc.lft.to/lastmile_qr_scan", "ios": "https://dc.lft.to/lastmile_qr_scan"}, "fusion_lon": 0.0}, {"lat": 38.919353, "is_disabled": 0, "type": "electric_scooter", "lon": -77.02605866666667, "bike_id": "8ec4247a7f33b3e69197a662c87a2c01", "fusion_lat": 0.0, "name": "8ec4247a7f33b3e69197a662c87a2c01", "is_reserved": 0, "rental_uris": {"android": "https://dc.lft.to/lastmile_qr_scan", "ios": "https://dc.lft.to/lastmile_qr_scan"}, "fusion_lon": 0.0}, {"lat": 38.87149133333333, "is_disabled": 0, "type": "electric_scooter", "lon": -77.01189633333334, "bike_id": "27fd5a36c2d07ebb2ef6844d208e22d8", "fusion_lat": 0.0, "name": "27fd5a36c2d07ebb2ef6844d208e22d8", "is_reserved": 0, "rental_uris": {"android": "https://dc.lft.to/lastmile_qr_scan", "ios": "https://dc.lft.to/lastmile_qr_scan"}, "fusion_lon": 0.0}, {"lat": 38.9193235, "is_disabled": 0, "type": "electric_scooter", "lon": -76.97018083333333, "bike_id": "e1e6c52b181beb4304b48e84562e5dce", "fusion_lat": 0.0, "name": "e1e6c52b181beb4304b48e84562e5dce", "is_reserved": 0, "rental_uris": {"android": "https://dc.lft.to/lastmile_qr_scan", "ios": "https://dc.lft.to/lastmile_qr_scan"}, "fusion_lon": 0.0}, {"lat": 38.925247166666665, "is_disabled": 0, "type": "electric_scooter", "lon": -77.044286, "bike_id": "129029df86875c1a2ee40d751496773d", "fusion_lat": 0.0, "name": "129029df86875c1a2ee40d751496773d", "is_reserved": 0, "rental_uris": {"android": "https://dc.lft.to/lastmile_qr_scan", "ios": "https://dc.lft.to/lastmile_qr_scan"}, "fusion_lon": 0.0}, {"lat": 38.900804, "is_disabled": 0, "type": "electric_scooter", "lon": -77.01819166666667, "bike_id": "ce1ebd84995105b5911e56261bd83e78", "fusion_lat": 0.0, "name": "ce1ebd84995105b5911e56261bd83e78", "is_reserved": 0, "rental_uris": {"android": "https://dc.lft.to/lastmile_qr_scan", "ios": "https://dc.lft.to/lastmile_qr_scan"}, "fusion_lon": 0.0}, {"lat": 38.90035433333333, "is_disabled": 0, "type": "electric_scooter", "lon": -76.993791, "bike_id": "239e7da8d3a2078a58856519cb5a5c11", "fusion_lat": 0.0, "name": "239e7da8d3a2078a58856519cb5a5c11", "is_reserved": 0, "rental_uris": {"android": "https://dc.lft.to/lastmile_qr_scan", "ios": "https://dc.lft.to/lastmile_qr_scan"}, "fusion_lon": 0.0}, {"lat": 38.90899183333333, "is_disabled": 0, "type": "electric_scooter", "lon": -77.03145416666666, "bike_id": "0225527badf7a51b2c76c62cd2a51f2c", "fusion_lat": 0.0, "name": "0225527badf7a51b2c76c62cd2a51f2c", "is_reserved": 0, "rental_uris": {"android": "https://dc.lft.to/lastmile_qr_scan", "ios": "https://dc.lft.to/lastmile_qr_scan"}, "fusion_lon": 0.0}, {"lat": 38.92243, "is_disabled": 0, "type": "electric_scooter", "lon": -77.042707, "bike_id": "d5acfb927cd0d26ca19ac505c87cee27", "fusion_lat": 0.0, "name": "d5acfb927cd0d26ca19ac505c87cee27", "is_reserved": 0, "rental_uris": {"android": "https://dc.lft.to/lastmile_qr_scan", "ios": "https://dc.lft.to/lastmile_qr_scan"}, "fusion_lon": 0.0}, {"lat": 38.91487683333333, "is_disabled": 0, "type": "electric_scooter", "lon": -77.032612, "bike_id": "76fceeeea8b4a1f04019f0ef8fd25b32", "fusion_lat": 0.0, "name": "76fceeeea8b4a1f04019f0ef8fd25b32", "is_reserved": 0, "rental_uris": {"android": "https://dc.lft.to/lastmile_qr_scan", "ios": "https://dc.lft.to/lastmile_qr_scan"}, "fusion_lon": 0.0}, {"lat": 38.91791083333333, "is_disabled": 0, "type": "electric_scooter", "lon": -77.040426, "bike_id": "ee2fb5910300300886ec20579e21327a", "fusion_lat": 0.0, "name": "ee2fb5910300300886ec20579e21327a", "is_reserved": 0, "rental_uris": {"android": "https://dc.lft.to/lastmile_qr_scan", "ios": "https://dc.lft.to/lastmile_qr_scan"}, "fusion_lon": 0.0}, {"lat": 38.9112285, "is_disabled": 0, "type": "electric_scooter", "lon": -77.038365, "bike_id": "02a9c0aa7740f3bd58cc0f1a090c030e", "fusion_lat": 0.0, "name": "02a9c0aa7740f3bd58cc0f1a090c030e", "is_reserved": 0, "rental_uris": {"android": "https://dc.lft.to/lastmile_qr_scan", "ios": "https://dc.lft.to/lastmile_qr_scan"}, "fusion_lon": 0.0}, {"lat": 38.91639166666667, "is_disabled": 0, "type": "electric_scooter", "lon": -77.04786483333334, "bike_id": "d96c820701424d37d3a5fe042a39af40", "fusion_lat": 0.0, "name": "d96c820701424d37d3a5fe042a39af40", "is_reserved": 0, "rental_uris": {"android": "https://dc.lft.to/lastmile_qr_scan", "ios": "https://dc.lft.to/lastmile_qr_scan"}, "fusion_lon": 0.0}, {"lat": 38.936397666666664, "is_disabled": 0, "type": "electric_scooter", "lon": -77.02490316666666, "bike_id": "7454a9f70c85777b4932932527d7ccab", "fusion_lat": 0.0, "name": "7454a9f70c85777b4932932527d7ccab", "is_reserved": 0, "rental_uris": {"android": "https://dc.lft.to/lastmile_qr_scan", "ios": "https://dc.lft.to/lastmile_qr_scan"}, "fusion_lon": 0.0}, {"lat": 38.930876, "is_disabled": 0, "type": "electric_scooter", "lon": -77.03743, "bike_id": "967643cb7ea738d855318c6e4eb4acdb", "fusion_lat": 0.0, "name": "967643cb7ea738d855318c6e4eb4acdb", "is_reserved": 0, "rental_uris": {"android": "https://dc.lft.to/lastmile_qr_scan", "ios": "https://dc.lft.to/lastmile_qr_scan"}, "fusion_lon": 0.0}, {"lat": 38.8935155, "is_disabled": 0, "type": "electric_scooter", "lon": -77.04139233333333, "bike_id": "bf34fc2602491b4807d3b5fbe9d79d04", "fusion_lat": 0.0, "name": "bf34fc2602491b4807d3b5fbe9d79d04", "is_reserved": 0, "rental_uris": {"android": "https://dc.lft.to/lastmile_qr_scan", "ios": "https://dc.lft.to/lastmile_qr_scan"}, "fusion_lon": 0.0}, {"lat": 38.90728283333333, "is_disabled": 0, "type": "electric_scooter", "lon": -77.04760266666666, "bike_id": "f9938fdac0991c3d9f62729465fe8f04", "fusion_lat": 0.0, "name": "f9938fdac0991c3d9f62729465fe8f04", "is_reserved": 0, "rental_uris": {"android": "https://dc.lft.to/lastmile_qr_scan", "ios": "https://dc.lft.to/lastmile_qr_scan"}, "fusion_lon": 0.0}, {"lat": 38.85791833333333, "is_disabled": 0, "type": "electric_bike", "lon": -77.09960616666666, "bike_id": "faca2fa92950dbccc73ef1e8e156d702", "fusion_lat": 0.0, "name": "faca2fa92950dbccc73ef1e8e156d702", "is_reserved": 0, "rental_uris": {"android": "https://dc.lft.to/lastmile_qr_scan", "ios": "https://dc.lft.to/lastmile_qr_scan"}, "fusion_lon": 0.0}, {"lat": 38.930764333333336, "is_disabled": 0, "type": "electric_scooter", "lon": -77.07764433333334, "bike_id": "4a126636d720fc1b71db23493ab5fa2e", "fusion_lat": 0.0, "name": "4a126636d720fc1b71db23493ab5fa2e", "is_reserved": 0, "rental_uris": {"android": "https://dc.lft.to/lastmile_qr_scan", "ios": "https://dc.lft.to/lastmile_qr_scan"}, "fusion_lon": 0.0}, {"lat": 38.9017685, "is_disabled": 0, "type": "electric_scooter", "lon": -76.98078483333333, "bike_id": "79be9b84d8e4d28fa005161601671ef0", "fusion_lat": 0.0, "name": "79be9b84d8e4d28fa005161601671ef0", "is_reserved": 0, "rental_uris": {"android": "https://dc.lft.to/lastmile_qr_scan", "ios": "https://dc.lft.to/lastmile_qr_scan"}, "fusion_lon": 0.0}, {"lat": 38.91738, "is_disabled": 0, "type": "electric_scooter", "lon": -77.032035, "bike_id": "24f37a39da277eff3d3355e25d506fb2", "fusion_lat": 0.0, "name": "24f37a39da277eff3d3355e25d506fb2", "is_reserved": 0, "rental_uris": {"android": "https://dc.lft.to/lastmile_qr_scan", "ios": "https://dc.lft.to/lastmile_qr_scan"}, "fusion_lon": 0.0}, {"lat": 38.90370733333334, "is_disabled": 0, "type": "electric_bike", "lon": -77.016376, "bike_id": "5a7c161b2d22d574d61efe306050cd06", "fusion_lat": 0.0, "name": "5a7c161b2d22d574d61efe306050cd06", "is_reserved": 0, "rental_uris": {"android": "https://dc.lft.to/lastmile_qr_scan", "ios": "https://dc.lft.to/lastmile_qr_scan"}, "fusion_lon": 0.0}, {"lat": 38.93142433333333, "is_disabled": 0, "type": "electric_scooter", "lon": -77.021383, "bike_id": "11df02dbf2f7ac15562f90139cbf0254", "fusion_lat": 0.0, "name": "11df02dbf2f7ac15562f90139cbf0254", "is_reserved": 0, "rental_uris": {"android": "https://dc.lft.to/lastmile_qr_scan", "ios": "https://dc.lft.to/lastmile_qr_scan"}, "fusion_lon": 0.0}, {"lat": 38.94522833333333, "is_disabled": 0, "type": "electric_scooter", "lon": -76.97944233333334, "bike_id": "8f7e08c787a078823df4cd028195e82e", "fusion_lat": 0.0, "name": "8f7e08c787a078823df4cd028195e82e", "is_reserved": 0, "rental_uris": {"android": "https://dc.lft.to/lastmile_qr_scan", "ios": "https://dc.lft.to/lastmile_qr_scan"}, "fusion_lon": 0.0}, {"lat": 38.90560266666667, "is_disabled": 0, "type": "electric_scooter", "lon": -77.01309833333333, "bike_id": "9441fc5514e5dbe9e61daf9febb4a650", "fusion_lat": 0.0, "name": "9441fc5514e5dbe9e61daf9febb4a650", "is_reserved": 0, "rental_uris": {"android": "https://dc.lft.to/lastmile_qr_scan", "ios": "https://dc.lft.to/lastmile_qr_scan"}, "fusion_lon": 0.0}, {"lat": 38.9080065, "is_disabled": 0, "type": "electric_scooter", "lon": -77.04354083333334, "bike_id": "1d558f477a4aa82b90d4fe3cfada599e", "fusion_lat": 0.0, "name": "1d558f477a4aa82b90d4fe3cfada599e", "is_reserved": 0, "rental_uris": {"android": "https://dc.lft.to/lastmile_qr_scan", "ios": "https://dc.lft.to/lastmile_qr_scan"}, "fusion_lon": 0.0}, {"lat": 38.8848115, "is_disabled": 0, "type": "electric_scooter", "lon": -76.94529583333333, "bike_id": "8da8640d674e84a734e696d84bc69795", "fusion_lat": 0.0, "name": "8da8640d674e84a734e696d84bc69795", "is_reserved": 0, "rental_uris": {"android": "https://dc.lft.to/lastmile_qr_scan", "ios": "https://dc.lft.to/lastmile_qr_scan"}, "fusion_lon": 0.0}, {"lat": 38.9055375, "is_disabled": 0, "type": "electric_scooter", "lon": -77.0269165, "bike_id": "d7f74be6082423de80e33fea08d039ee", "fusion_lat": 0.0, "name": "d7f74be6082423de80e33fea08d039ee", "is_reserved": 0, "rental_uris": {"android": "https://dc.lft.to/lastmile_qr_scan", "ios": "https://dc.lft.to/lastmile_qr_scan"}, "fusion_lon": 0.0}, {"lat": 38.91727216666666, "is_disabled": 0, "type": "electric_scooter", "lon": -77.0318005, "bike_id": "6325ec4a6e7662007de5e4f76c5da822", "fusion_lat": 0.0, "name": "6325ec4a6e7662007de5e4f76c5da822", "is_reserved": 0, "rental_uris": {"android": "https://dc.lft.to/lastmile_qr_scan", "ios": "https://dc.lft.to/lastmile_qr_scan"}, "fusion_lon": 0.0}, {"lat": 38.922201666666666, "is_disabled": 0, "type": "electric_scooter", "lon": -77.03755866666667, "bike_id": "816f18d000c16087b56eed37f08d47af", "fusion_lat": 0.0, "name": "816f18d000c16087b56eed37f08d47af", "is_reserved": 0, "rental_uris": {"android": "https://dc.lft.to/lastmile_qr_scan", "ios": "https://dc.lft.to/lastmile_qr_scan"}, "fusion_lon": 0.0}, {"lat": 38.850281333333335, "is_disabled": 0, "type": "electric_bike", "lon": -77.09803883333333, "bike_id": "30df9e3dbaa878f3f536275ac9cad676", "fusion_lat": 0.0, "name": "30df9e3dbaa878f3f536275ac9cad676", "is_reserved": 0, "rental_uris": {"android": "https://dc.lft.to/lastmile_qr_scan", "ios": "https://dc.lft.to/lastmile_qr_scan"}, "fusion_lon": 0.0}, {"lat": 38.90281983333333, "is_disabled": 0, "type": "electric_scooter", "lon": -77.05261483333334, "bike_id": "f51d07df0305e7200a0ee3dba5b0cef6", "fusion_lat": 0.0, "name": "f51d07df0305e7200a0ee3dba5b0cef6", "is_reserved": 0, "rental_uris": {"android": "https://dc.lft.to/lastmile_qr_scan", "ios": "https://dc.lft.to/lastmile_qr_scan"}, "fusion_lon": 0.0}, {"lat": 38.9171585, "is_disabled": 0, "type": "electric_scooter", "lon": -77.03976933333334, "bike_id": "06ffc10fa98f43b8d87a36537344f745", "fusion_lat": 0.0, "name": "06ffc10fa98f43b8d87a36537344f745", "is_reserved": 0, "rental_uris": {"android": "https://dc.lft.to/lastmile_qr_scan", "ios": "https://dc.lft.to/lastmile_qr_scan"}, "fusion_lon": 0.0}, {"lat": 38.93533083333333, "is_disabled": 0, "type": "electric_scooter", "lon": -77.03406866666667, "bike_id": "ee74f91b9bf78e80f8b0aa1195ebb0f9", "fusion_lat": 0.0, "name": "ee74f91b9bf78e80f8b0aa1195ebb0f9", "is_reserved": 0, "rental_uris": {"android": "https://dc.lft.to/lastmile_qr_scan", "ios": "https://dc.lft.to/lastmile_qr_scan"}, "fusion_lon": 0.0}, {"lat": 38.8768015, "is_disabled": 0, "type": "electric_scooter", "lon": -77.01790066666666, "bike_id": "42006e75575e869047826a000dfab429", "fusion_lat": 0.0, "name": "42006e75575e869047826a000dfab429", "is_reserved": 0, "rental_uris": {"android": "https://dc.lft.to/lastmile_qr_scan", "ios": "https://dc.lft.to/lastmile_qr_scan"}, "fusion_lon": 0.0}, {"lat": 38.91467133333333, "is_disabled": 0, "type": "electric_scooter", "lon": -77.03200966666667, "bike_id": "0b4d58cb8c37c76b3ec10e9c68bbe68f", "fusion_lat": 0.0, "name": "0b4d58cb8c37c76b3ec10e9c68bbe68f", "is_reserved": 0, "rental_uris": {"android": "https://dc.lft.to/lastmile_qr_scan", "ios": "https://dc.lft.to/lastmile_qr_scan"}, "fusion_lon": 0.0}, {"lat": 38.93877966666667, "is_disabled": 0, "type": "electric_scooter", "lon": -77.032681, "bike_id": "40dd5a6237835ec33e2fc9937d0ab244", "fusion_lat": 0.0, "name": "40dd5a6237835ec33e2fc9937d0ab244", "is_reserved": 0, "rental_uris": {"android": "https://dc.lft.to/lastmile_qr_scan", "ios": "https://dc.lft.to/lastmile_qr_scan"}, "fusion_lon": 0.0}, {"lat": 38.895388833333335, "is_disabled": 0, "type": "electric_scooter", "lon": -76.93371516666667, "bike_id": "413d9fc00c89a0d9415b09bd821148bf", "fusion_lat": 0.0, "name": "413d9fc00c89a0d9415b09bd821148bf", "is_reserved": 0, "rental_uris": {"android": "https://dc.lft.to/lastmile_qr_scan", "ios": "https://dc.lft.to/lastmile_qr_scan"}, "fusion_lon": 0.0}, {"lat": 38.926621, "is_disabled": 0, "type": "electric_scooter", "lon": -77.0559745, "bike_id": "b692a490edf8906fa3fd89b082ddfa6c", "fusion_lat": 0.0, "name": "b692a490edf8906fa3fd89b082ddfa6c", "is_reserved": 0, "rental_uris": {"android": "https://dc.lft.to/lastmile_qr_scan", "ios": "https://dc.lft.to/lastmile_qr_scan"}, "fusion_lon": 0.0}, {"lat": 38.9155275, "is_disabled": 0, "type": "electric_scooter", "lon": -77.03495416666667, "bike_id": "40aa705f609afd22427315f1ba14654e", "fusion_lat": 0.0, "name": "40aa705f609afd22427315f1ba14654e", "is_reserved": 0, "rental_uris": {"android": "https://dc.lft.to/lastmile_qr_scan", "ios": "https://dc.lft.to/lastmile_qr_scan"}, "fusion_lon": 0.0}, {"lat": 38.917115, "is_disabled": 0, "type": "electric_scooter", "lon": -77.04687683333333, "bike_id": "6f67c5092af0a592f1b27e0ada2d7b43", "fusion_lat": 0.0, "name": "6f67c5092af0a592f1b27e0ada2d7b43", "is_reserved": 0, "rental_uris": {"android": "https://dc.lft.to/lastmile_qr_scan", "ios": "https://dc.lft.to/lastmile_qr_scan"}, "fusion_lon": 0.0}, {"lat": 38.91821066666667, "is_disabled": 0, "type": "electric_scooter", "lon": -77.0418275, "bike_id": "f350727d91f48224ed8aa6b715b4f2eb", "fusion_lat": 0.0, "name": "f350727d91f48224ed8aa6b715b4f2eb", "is_reserved": 0, "rental_uris": {"android": "https://dc.lft.to/lastmile_qr_scan", "ios": "https://dc.lft.to/lastmile_qr_scan"}, "fusion_lon": 0.0}, {"lat": 38.92323316666667, "is_disabled": 0, "type": "electric_scooter", "lon": -77.02970383333333, "bike_id": "337ad8f13ea3c09f9fa497ece69b80b0", "fusion_lat": 0.0, "name": "337ad8f13ea3c09f9fa497ece69b80b0", "is_reserved": 0, "rental_uris": {"android": "https://dc.lft.to/lastmile_qr_scan", "ios": "https://dc.lft.to/lastmile_qr_scan"}, "fusion_lon": 0.0}, {"lat": 38.9027455, "is_disabled": 0, "type": "electric_scooter", "lon": -77.0437205, "bike_id": "5f35154bd615a2f616976d04b56338e0", "fusion_lat": 0.0, "name": "5f35154bd615a2f616976d04b56338e0", "is_reserved": 0, "rental_uris": {"android": "https://dc.lft.to/lastmile_qr_scan", "ios": "https://dc.lft.to/lastmile_qr_scan"}, "fusion_lon": 0.0}, {"lat": 38.92597516666667, "is_disabled": 0, "type": "electric_bike", "lon": -77.02434666666667, "bike_id": "b0a4eda13d344dde9a9ffdef70b219c9", "fusion_lat": 0.0, "name": "b0a4eda13d344dde9a9ffdef70b219c9", "is_reserved": 0, "rental_uris": {"android": "https://dc.lft.to/lastmile_qr_scan", "ios": "https://dc.lft.to/lastmile_qr_scan"}, "fusion_lon": 0.0}, {"lat": 38.9499295, "is_disabled": 0, "type": "electric_scooter", "lon": -77.0671935, "bike_id": "9da8ff4dca35704b54fc1262bb932570", "fusion_lat": 0.0, "name": "9da8ff4dca35704b54fc1262bb932570", "is_reserved": 0, "rental_uris": {"android": "https://dc.lft.to/lastmile_qr_scan", "ios": "https://dc.lft.to/lastmile_qr_scan"}, "fusion_lon": 0.0}, {"lat": 38.921122, "is_disabled": 0, "type": "electric_scooter", "lon": -77.031653, "bike_id": "091068402015040eba093a13b14feb6d", "fusion_lat": 0.0, "name": "091068402015040eba093a13b14feb6d", "is_reserved": 0, "rental_uris": {"android": "https://dc.lft.to/lastmile_qr_scan", "ios": "https://dc.lft.to/lastmile_qr_scan"}, "fusion_lon": 0.0}, {"lat": 38.9319635, "is_disabled": 0, "type": "electric_scooter", "lon": -77.02358483333333, "bike_id": "5659fa796357db5300897f6744338b4d", "fusion_lat": 0.0, "name": "5659fa796357db5300897f6744338b4d", "is_reserved": 0, "rental_uris": {"android": "https://dc.lft.to/lastmile_qr_scan", "ios": "https://dc.lft.to/lastmile_qr_scan"}, "fusion_lon": 0.0}, {"lat": 38.8741125, "is_disabled": 0, "type": "electric_bike", "lon": -76.96572383333333, "bike_id": "fc8f9c4f638197355f77df1efafd9497", "fusion_lat": 0.0, "name": "fc8f9c4f638197355f77df1efafd9497", "is_reserved": 0, "rental_uris": {"android": "https://dc.lft.to/lastmile_qr_scan", "ios": "https://dc.lft.to/lastmile_qr_scan"}, "fusion_lon": 0.0}, {"lat": 38.8669775, "is_disabled": 0, "type": "electric_scooter", "lon": -76.98712183333333, "bike_id": "83c01458ed8a23f99af3698d7da1df33", "fusion_lat": 0.0, "name": "83c01458ed8a23f99af3698d7da1df33", "is_reserved": 0, "rental_uris": {"android": "https://dc.lft.to/lastmile_qr_scan", "ios": "https://dc.lft.to/lastmile_qr_scan"}, "fusion_lon": 0.0}, {"lat": 38.95635166666667, "is_disabled": 0, "type": "electric_bike", "lon": -77.01957583333333, "bike_id": "cb387a4b4ec35e6aff2c94dbe13845ca", "fusion_lat": 0.0, "name": "cb387a4b4ec35e6aff2c94dbe13845ca", "is_reserved": 0, "rental_uris": {"android": "https://dc.lft.to/lastmile_qr_scan", "ios": "https://dc.lft.to/lastmile_qr_scan"}, "fusion_lon": 0.0}, {"lat": 38.90558716666666, "is_disabled": 0, "type": "electric_scooter", "lon": -77.01678683333333, "bike_id": "5af4134f098877d81067e636162d0dbb", "fusion_lat": 0.0, "name": "5af4134f098877d81067e636162d0dbb", "is_reserved": 0, "rental_uris": {"android": "https://dc.lft.to/lastmile_qr_scan", "ios": "https://dc.lft.to/lastmile_qr_scan"}, "fusion_lon": 0.0}, {"lat": 38.90286233333333, "is_disabled": 0, "type": "electric_scooter", "lon": -77.05814366666667, "bike_id": "eb2fbe73391f684fcd4180945d783efd", "fusion_lat": 0.0, "name": "eb2fbe73391f684fcd4180945d783efd", "is_reserved": 0, "rental_uris": {"android": "https://dc.lft.to/lastmile_qr_scan", "ios": "https://dc.lft.to/lastmile_qr_scan"}, "fusion_lon": 0.0}, {"lat": 38.930897, "is_disabled": 0, "type": "electric_scooter", "lon": -77.07746283333333, "bike_id": "acf04815290be2a6e585fb3ee94a77bb", "fusion_lat": 0.0, "name": "acf04815290be2a6e585fb3ee94a77bb", "is_reserved": 0, "rental_uris": {"android": "https://dc.lft.to/lastmile_qr_scan", "ios": "https://dc.lft.to/lastmile_qr_scan"}, "fusion_lon": 0.0}, {"lat": 38.909434166666664, "is_disabled": 0, "type": "electric_scooter", "lon": -76.98959483333333, "bike_id": "5da702eff43876dedfb20f5892e5272b", "fusion_lat": 0.0, "name": "5da702eff43876dedfb20f5892e5272b", "is_reserved": 0, "rental_uris": {"android": "https://dc.lft.to/lastmile_qr_scan", "ios": "https://dc.lft.to/lastmile_qr_scan"}, "fusion_lon": 0.0}, {"lat": 38.900704833333336, "is_disabled": 0, "type": "electric_scooter", "lon": -77.05024383333334, "bike_id": "624a9499ffda697b7f81adc41048ed3d", "fusion_lat": 0.0, "name": "624a9499ffda697b7f81adc41048ed3d", "is_reserved": 0, "rental_uris": {"android": "https://dc.lft.to/lastmile_qr_scan", "ios": "https://dc.lft.to/lastmile_qr_scan"}, "fusion_lon": 0.0}, {"lat": 38.9035195, "is_disabled": 0, "type": "electric_scooter", "lon": -77.01100716666667, "bike_id": "61e7195d1b0fa16e5e13857c733456ab", "fusion_lat": 0.0, "name": "61e7195d1b0fa16e5e13857c733456ab", "is_reserved": 0, "rental_uris": {"android": "https://dc.lft.to/lastmile_qr_scan", "ios": "https://dc.lft.to/lastmile_qr_scan"}, "fusion_lon": 0.0}, {"lat": 38.8403175, "is_disabled": 0, "type": "electric_bike", "lon": -76.9757975, "bike_id": "f326e7f2185a65ba774edf2ea8545589", "fusion_lat": 0.0, "name": "f326e7f2185a65ba774edf2ea8545589", "is_reserved": 0, "rental_uris": {"android": "https://dc.lft.to/lastmile_qr_scan", "ios": "https://dc.lft.to/lastmile_qr_scan"}, "fusion_lon": 0.0}, {"lat": 38.9007365, "is_disabled": 0, "type": "electric_scooter", "lon": -77.0271805, "bike_id": "e161624a4de741e0d9eca24901ea1b8c", "fusion_lat": 0.0, "name": "e161624a4de741e0d9eca24901ea1b8c", "is_reserved": 0, "rental_uris": {"android": "https://dc.lft.to/lastmile_qr_scan", "ios": "https://dc.lft.to/lastmile_qr_scan"}, "fusion_lon": 0.0}, {"lat": 38.8874175, "is_disabled": 0, "type": "electric_scooter", "lon": -76.98357833333333, "bike_id": "9f12379e518ba9c0d18754ba20ec0705", "fusion_lat": 0.0, "name": "9f12379e518ba9c0d18754ba20ec0705", "is_reserved": 0, "rental_uris": {"android": "https://dc.lft.to/lastmile_qr_scan", "ios": "https://dc.lft.to/lastmile_qr_scan"}, "fusion_lon": 0.0}, {"lat": 38.917949666666665, "is_disabled": 0, "type": "electric_scooter", "lon": -77.03449833333333, "bike_id": "de4c96e8e9c56492a6a49db0fdb35256", "fusion_lat": 0.0, "name": "de4c96e8e9c56492a6a49db0fdb35256", "is_reserved": 0, "rental_uris": {"android": "https://dc.lft.to/lastmile_qr_scan", "ios": "https://dc.lft.to/lastmile_qr_scan"}, "fusion_lon": 0.0}, {"lat": 38.9519005, "is_disabled": 0, "type": "electric_bike", "lon": -77.02392166666667, "bike_id": "1c6dbe392fa5a3ec3bbb869af1770aa9", "fusion_lat": 0.0, "name": "1c6dbe392fa5a3ec3bbb869af1770aa9", "is_reserved": 0, "rental_uris": {"android": "https://dc.lft.to/lastmile_qr_scan", "ios": "https://dc.lft.to/lastmile_qr_scan"}, "fusion_lon": 0.0}, {"lat": 38.904057333333334, "is_disabled": 0, "type": "electric_scooter", "lon": -77.04488116666667, "bike_id": "4d9ace0efa06ff401af72f56a5b0aa4a", "fusion_lat": 0.0, "name": "4d9ace0efa06ff401af72f56a5b0aa4a", "is_reserved": 0, "rental_uris": {"android": "https://dc.lft.to/lastmile_qr_scan", "ios": "https://dc.lft.to/lastmile_qr_scan"}, "fusion_lon": 0.0}, {"lat": 38.9398335, "is_disabled": 0, "type": "electric_scooter", "lon": -77.02629616666667, "bike_id": "41ab9ce4d268d769fbbf91e70d7dc91c", "fusion_lat": 0.0, "name": "41ab9ce4d268d769fbbf91e70d7dc91c", "is_reserved": 0, "rental_uris": {"android": "https://dc.lft.to/lastmile_qr_scan", "ios": "https://dc.lft.to/lastmile_qr_scan"}, "fusion_lon": 0.0}, {"lat": 38.9163165, "is_disabled": 0, "type": "electric_scooter", "lon": -77.0230895, "bike_id": "b8363b39da6d5171d9a71cbac869ef07", "fusion_lat": 0.0, "name": "b8363b39da6d5171d9a71cbac869ef07", "is_reserved": 0, "rental_uris": {"android": "https://dc.lft.to/lastmile_qr_scan", "ios": "https://dc.lft.to/lastmile_qr_scan"}, "fusion_lon": 0.0}, {"lat": 38.908057666666664, "is_disabled": 0, "type": "electric_scooter", "lon": -77.03443583333333, "bike_id": "11e76f665a1002e576ace616f12c6f6c", "fusion_lat": 0.0, "name": "11e76f665a1002e576ace616f12c6f6c", "is_reserved": 0, "rental_uris": {"android": "https://dc.lft.to/lastmile_qr_scan", "ios": "https://dc.lft.to/lastmile_qr_scan"}, "fusion_lon": 0.0}, {"lat": 38.911935166666666, "is_disabled": 0, "type": "electric_scooter", "lon": -77.0363485, "bike_id": "d762be84bac404be3d525bbb65b8a984", "fusion_lat": 0.0, "name": "d762be84bac404be3d525bbb65b8a984", "is_reserved": 0, "rental_uris": {"android": "https://dc.lft.to/lastmile_qr_scan", "ios": "https://dc.lft.to/lastmile_qr_scan"}, "fusion_lon": 0.0}, {"lat": 38.9167475, "is_disabled": 0, "type": "electric_scooter", "lon": -77.0297425, "bike_id": "95a47fe73aab2caaac5b2464f75e14a6", "fusion_lat": 0.0, "name": "95a47fe73aab2caaac5b2464f75e14a6", "is_reserved": 0, "rental_uris": {"android": "https://dc.lft.to/lastmile_qr_scan", "ios": "https://dc.lft.to/lastmile_qr_scan"}, "fusion_lon": 0.0}, {"lat": 38.923701333333334, "is_disabled": 0, "type": "electric_scooter", "lon": -77.02535016666667, "bike_id": "87e4053890c1e927ac5f09254f16cf78", "fusion_lat": 0.0, "name": "87e4053890c1e927ac5f09254f16cf78", "is_reserved": 0, "rental_uris": {"android": "https://dc.lft.to/lastmile_qr_scan", "ios": "https://dc.lft.to/lastmile_qr_scan"}, "fusion_lon": 0.0}, {"lat": 38.89882333333333, "is_disabled": 0, "type": "electric_scooter", "lon": -77.0723405, "bike_id": "77fc717fa7582a3b647188530822d4d4", "fusion_lat": 0.0, "name": "77fc717fa7582a3b647188530822d4d4", "is_reserved": 0, "rental_uris": {"android": "https://dc.lft.to/lastmile_qr_scan", "ios": "https://dc.lft.to/lastmile_qr_scan"}, "fusion_lon": 0.0}, {"lat": 38.844384166666664, "is_disabled": 0, "type": "electric_bike", "lon": -77.06839016666666, "bike_id": "d2cab839ca0c6744baf212c02f212190", "fusion_lat": 0.0, "name": "d2cab839ca0c6744baf212c02f212190", "is_reserved": 0, "rental_uris": {"android": "https://dc.lft.to/lastmile_qr_scan", "ios": "https://dc.lft.to/lastmile_qr_scan"}, "fusion_lon": 0.0}, {"lat": 38.9186865, "is_disabled": 0, "type": "electric_scooter", "lon": -77.036711, "bike_id": "60854350c2b8e04fd6798235c1c65c49", "fusion_lat": 0.0, "name": "60854350c2b8e04fd6798235c1c65c49", "is_reserved": 0, "rental_uris": {"android": "https://dc.lft.to/lastmile_qr_scan", "ios": "https://dc.lft.to/lastmile_qr_scan"}, "fusion_lon": 0.0}, {"lat": 38.923022333333336, "is_disabled": 0, "type": "electric_scooter", "lon": -77.0233235, "bike_id": "a07105a78d4a3d0c572382adbf9f822c", "fusion_lat": 0.0, "name": "a07105a78d4a3d0c572382adbf9f822c", "is_reserved": 0, "rental_uris": {"android": "https://dc.lft.to/lastmile_qr_scan", "ios": "https://dc.lft.to/lastmile_qr_scan"}, "fusion_lon": 0.0}, {"lat": 38.932930166666665, "is_disabled": 0, "type": "electric_scooter", "lon": -77.02192916666667, "bike_id": "ce28e75417e017e98aa4d2e618564552", "fusion_lat": 0.0, "name": "ce28e75417e017e98aa4d2e618564552", "is_reserved": 0, "rental_uris": {"android": "https://dc.lft.to/lastmile_qr_scan", "ios": "https://dc.lft.to/lastmile_qr_scan"}, "fusion_lon": 0.0}, {"lat": 38.920478, "is_disabled": 0, "type": "electric_scooter", "lon": -77.02427816666666, "bike_id": "e06f90cf428b3d82d0eae31c6da651bb", "fusion_lat": 0.0, "name": "e06f90cf428b3d82d0eae31c6da651bb", "is_reserved": 0, "rental_uris": {"android": "https://dc.lft.to/lastmile_qr_scan", "ios": "https://dc.lft.to/lastmile_qr_scan"}, "fusion_lon": 0.0}, {"lat": 38.91418133333333, "is_disabled": 0, "type": "electric_scooter", "lon": -77.02200766666667, "bike_id": "d356aec1eca1c513d53caa6e47d8c045", "fusion_lat": 0.0, "name": "d356aec1eca1c513d53caa6e47d8c045", "is_reserved": 0, "rental_uris": {"android": "https://dc.lft.to/lastmile_qr_scan", "ios": "https://dc.lft.to/lastmile_qr_scan"}, "fusion_lon": 0.0}, {"lat": 38.90737383333333, "is_disabled": 0, "type": "electric_scooter", "lon": -77.02712083333333, "bike_id": "0f9752cc08663c7dac36c66dbb687795", "fusion_lat": 0.0, "name": "0f9752cc08663c7dac36c66dbb687795", "is_reserved": 0, "rental_uris": {"android": "https://dc.lft.to/lastmile_qr_scan", "ios": "https://dc.lft.to/lastmile_qr_scan"}, "fusion_lon": 0.0}, {"lat": 38.903689, "is_disabled": 0, "type": "electric_scooter", "lon": -77.04005416666666, "bike_id": "b69912821189d614f1dca915b89ba8cf", "fusion_lat": 0.0, "name": "b69912821189d614f1dca915b89ba8cf", "is_reserved": 0, "rental_uris": {"android": "https://dc.lft.to/lastmile_qr_scan", "ios": "https://dc.lft.to/lastmile_qr_scan"}, "fusion_lon": 0.0}, {"lat": 38.9156305, "is_disabled": 0, "type": "electric_scooter", "lon": -77.02977916666667, "bike_id": "5358b494fc68909970f629c392f965bf", "fusion_lat": 0.0, "name": "5358b494fc68909970f629c392f965bf", "is_reserved": 0, "rental_uris": {"android": "https://dc.lft.to/lastmile_qr_scan", "ios": "https://dc.lft.to/lastmile_qr_scan"}, "fusion_lon": 0.0}, {"lat": 38.91818716666667, "is_disabled": 0, "type": "electric_scooter", "lon": -77.03917216666666, "bike_id": "83c4cb711059508b8305e53005c6eefe", "fusion_lat": 0.0, "name": "83c4cb711059508b8305e53005c6eefe", "is_reserved": 0, "rental_uris": {"android": "https://dc.lft.to/lastmile_qr_scan", "ios": "https://dc.lft.to/lastmile_qr_scan"}, "fusion_lon": 0.0}, {"lat": 38.908114, "is_disabled": 0, "type": "electric_scooter", "lon": -77.04352916666667, "bike_id": "33b155811c1984648cd8fd9eb2f019df", "fusion_lat": 0.0, "name": "33b155811c1984648cd8fd9eb2f019df", "is_reserved": 0, "rental_uris": {"android": "https://dc.lft.to/lastmile_qr_scan", "ios": "https://dc.lft.to/lastmile_qr_scan"}, "fusion_lon": 0.0}, {"lat": 38.9126845, "is_disabled": 0, "type": "electric_bike", "lon": -77.0225505, "bike_id": "8ff5bafa41db5367dbf8ba1c810f9d22", "fusion_lat": 0.0, "name": "8ff5bafa41db5367dbf8ba1c810f9d22", "is_reserved": 0, "rental_uris": {"android": "https://dc.lft.to/lastmile_qr_scan", "ios": "https://dc.lft.to/lastmile_qr_scan"}, "fusion_lon": 0.0}, {"lat": 38.9073445, "is_disabled": 0, "type": "electric_scooter", "lon": -77.02801816666667, "bike_id": "e68709bd472a73bb3fac83a041f77daa", "fusion_lat": 0.0, "name": "e68709bd472a73bb3fac83a041f77daa", "is_reserved": 0, "rental_uris": {"android": "https://dc.lft.to/lastmile_qr_scan", "ios": "https://dc.lft.to/lastmile_qr_scan"}, "fusion_lon": 0.0}, {"lat": 38.905731333333335, "is_disabled": 0, "type": "electric_scooter", "lon": -77.021768, "bike_id": "dd01137007d3d79a0f5851f926c7b4dd", "fusion_lat": 0.0, "name": "dd01137007d3d79a0f5851f926c7b4dd", "is_reserved": 0, "rental_uris": {"android": "https://dc.lft.to/lastmile_qr_scan", "ios": "https://dc.lft.to/lastmile_qr_scan"}, "fusion_lon": 0.0}, {"lat": 38.996357833333334, "is_disabled": 0, "type": "electric_bike", "lon": -77.02974366666666, "bike_id": "49657e65ca7252e93d00663272e0ece7", "fusion_lat": 0.0, "name": "49657e65ca7252e93d00663272e0ece7", "is_reserved": 0, "rental_uris": {"android": "https://dc.lft.to/lastmile_qr_scan", "ios": "https://dc.lft.to/lastmile_qr_scan"}, "fusion_lon": 0.0}, {"lat": 38.91733466666667, "is_disabled": 0, "type": "electric_scooter", "lon": -77.03659366666666, "bike_id": "67c7068aec1951d121da3ff6951ee84c", "fusion_lat": 0.0, "name": "67c7068aec1951d121da3ff6951ee84c", "is_reserved": 0, "rental_uris": {"android": "https://dc.lft.to/lastmile_qr_scan", "ios": "https://dc.lft.to/lastmile_qr_scan"}, "fusion_lon": 0.0}, {"lat": 38.9126465, "is_disabled": 0, "type": "electric_scooter", "lon": -77.02246283333334, "bike_id": "8155f42ec01ece3bcd43bea64b056237", "fusion_lat": 0.0, "name": "8155f42ec01ece3bcd43bea64b056237", "is_reserved": 0, "rental_uris": {"android": "https://dc.lft.to/lastmile_qr_scan", "ios": "https://dc.lft.to/lastmile_qr_scan"}, "fusion_lon": 0.0}, {"lat": 38.9086435, "is_disabled": 0, "type": "electric_bike", "lon": -76.94009716666666, "bike_id": "765dd9bfa357863274c236b0816cccd3", "fusion_lat": 0.0, "name": "765dd9bfa357863274c236b0816cccd3", "is_reserved": 0, "rental_uris": {"android": "https://dc.lft.to/lastmile_qr_scan", "ios": "https://dc.lft.to/lastmile_qr_scan"}, "fusion_lon": 0.0}, {"lat": 38.86705116666667, "is_disabled": 0, "type": "electric_scooter", "lon": -76.98727383333333, "bike_id": "d04309bc058afce161df62586583b6c0", "fusion_lat": 0.0, "name": "d04309bc058afce161df62586583b6c0", "is_reserved": 0, "rental_uris": {"android": "https://dc.lft.to/lastmile_qr_scan", "ios": "https://dc.lft.to/lastmile_qr_scan"}, "fusion_lon": 0.0}, {"lat": 38.905865666666664, "is_disabled": 0, "type": "electric_scooter", "lon": -76.98621166666666, "bike_id": "5ff7b35f59a900c7ec7355ddfd72b763", "fusion_lat": 0.0, "name": "5ff7b35f59a900c7ec7355ddfd72b763", "is_reserved": 0, "rental_uris": {"android": "https://dc.lft.to/lastmile_qr_scan", "ios": "https://dc.lft.to/lastmile_qr_scan"}, "fusion_lon": 0.0}, {"lat": 38.90716466666667, "is_disabled": 0, "type": "electric_scooter", "lon": -77.04823366666666, "bike_id": "f2b34417e0f4ea8a3eed85430cb7155a", "fusion_lat": 0.0, "name": "f2b34417e0f4ea8a3eed85430cb7155a", "is_reserved": 0, "rental_uris": {"android": "https://dc.lft.to/lastmile_qr_scan", "ios": "https://dc.lft.to/lastmile_qr_scan"}, "fusion_lon": 0.0}, {"lat": 38.907170666666666, "is_disabled": 0, "type": "electric_scooter", "lon": -77.03216083333334, "bike_id": "85d7e1ac9cff18e5e32ba16861965b3c", "fusion_lat": 0.0, "name": "85d7e1ac9cff18e5e32ba16861965b3c", "is_reserved": 0, "rental_uris": {"android": "https://dc.lft.to/lastmile_qr_scan", "ios": "https://dc.lft.to/lastmile_qr_scan"}, "fusion_lon": 0.0}, {"lat": 38.845076666666664, "is_disabled": 0, "type": "electric_bike", "lon": -76.99354166666667, "bike_id": "4ffbb5b49955f55ff280a9cd1ec20d37", "fusion_lat": 0.0, "name": "4ffbb5b49955f55ff280a9cd1ec20d37", "is_reserved": 0, "rental_uris": {"android": "https://dc.lft.to/lastmile_qr_scan", "ios": "https://dc.lft.to/lastmile_qr_scan"}, "fusion_lon": 0.0}, {"lat": 38.907728666666664, "is_disabled": 0, "type": "electric_scooter", "lon": -77.03853183333334, "bike_id": "1be89a8ba9178a6429235ab67c5b54df", "fusion_lat": 0.0, "name": "1be89a8ba9178a6429235ab67c5b54df", "is_reserved": 0, "rental_uris": {"android": "https://dc.lft.to/lastmile_qr_scan", "ios": "https://dc.lft.to/lastmile_qr_scan"}, "fusion_lon": 0.0}, {"lat": 38.90672033333333, "is_disabled": 0, "type": "electric_scooter", "lon": -77.03654266666666, "bike_id": "4e6c531180fccd6ecede88fd3e0dfcf5", "fusion_lat": 0.0, "name": "4e6c531180fccd6ecede88fd3e0dfcf5", "is_reserved": 0, "rental_uris": {"android": "https://dc.lft.to/lastmile_qr_scan", "ios": "https://dc.lft.to/lastmile_qr_scan"}, "fusion_lon": 0.0}, {"lat": 38.89654816666667, "is_disabled": 0, "type": "electric_scooter", "lon": -77.005209, "bike_id": "d1f28a37d9688b64a0e257e4facdac14", "fusion_lat": 0.0, "name": "d1f28a37d9688b64a0e257e4facdac14", "is_reserved": 0, "rental_uris": {"android": "https://dc.lft.to/lastmile_qr_scan", "ios": "https://dc.lft.to/lastmile_qr_scan"}, "fusion_lon": 0.0}, {"lat": 38.92285733333333, "is_disabled": 0, "type": "electric_scooter", "lon": -77.0365715, "bike_id": "c83924dc7a04ba146f936c1b3b578c34", "fusion_lat": 0.0, "name": "c83924dc7a04ba146f936c1b3b578c34", "is_reserved": 0, "rental_uris": {"android": "https://dc.lft.to/lastmile_qr_scan", "ios": "https://dc.lft.to/lastmile_qr_scan"}, "fusion_lon": 0.0}, {"lat": 38.909993166666666, "is_disabled": 0, "type": "electric_scooter", "lon": -77.04005383333333, "bike_id": "2d92f0f810479ecffa14caf470860699", "fusion_lat": 0.0, "name": "2d92f0f810479ecffa14caf470860699", "is_reserved": 0, "rental_uris": {"android": "https://dc.lft.to/lastmile_qr_scan", "ios": "https://dc.lft.to/lastmile_qr_scan"}, "fusion_lon": 0.0}, {"lat": 38.8924785, "is_disabled": 0, "type": "electric_scooter", "lon": -77.039559, "bike_id": "65c051ba49ed24e4b305434c4efe6163", "fusion_lat": 0.0, "name": "65c051ba49ed24e4b305434c4efe6163", "is_reserved": 0, "rental_uris": {"android": "https://dc.lft.to/lastmile_qr_scan", "ios": "https://dc.lft.to/lastmile_qr_scan"}, "fusion_lon": 0.0}, {"lat": 38.91419716666667, "is_disabled": 0, "type": "electric_scooter", "lon": -77.03182683333333, "bike_id": "8cd5a021f51345de39b1ef076dae9fa9", "fusion_lat": 0.0, "name": "8cd5a021f51345de39b1ef076dae9fa9", "is_reserved": 0, "rental_uris": {"android": "https://dc.lft.to/lastmile_qr_scan", "ios": "https://dc.lft.to/lastmile_qr_scan"}, "fusion_lon": 0.0}, {"lat": 38.95059666666667, "is_disabled": 0, "type": "electric_bike", "lon": -77.00725783333333, "bike_id": "9cdae42f43725c7b9ee981eaf767c1cd", "fusion_lat": 0.0, "name": "9cdae42f43725c7b9ee981eaf767c1cd", "is_reserved": 0, "rental_uris": {"android": "https://dc.lft.to/lastmile_qr_scan", "ios": "https://dc.lft.to/lastmile_qr_scan"}, "fusion_lon": 0.0}, {"lat": 38.90284666666667, "is_disabled": 0, "type": "electric_scooter", "lon": -77.063521, "bike_id": "11fbdfa27764670ecc6955db4c663b09", "fusion_lat": 0.0, "name": "11fbdfa27764670ecc6955db4c663b09", "is_reserved": 0, "rental_uris": {"android": "https://dc.lft.to/lastmile_qr_scan", "ios": "https://dc.lft.to/lastmile_qr_scan"}, "fusion_lon": 0.0}, {"lat": 38.916515, "is_disabled": 0, "type": "electric_scooter", "lon": -77.02278866666667, "bike_id": "dfc23c87ef4935c067fab2151e2ccc8f", "fusion_lat": 0.0, "name": "dfc23c87ef4935c067fab2151e2ccc8f", "is_reserved": 0, "rental_uris": {"android": "https://dc.lft.to/lastmile_qr_scan", "ios": "https://dc.lft.to/lastmile_qr_scan"}, "fusion_lon": 0.0}, {"lat": 38.933513833333336, "is_disabled": 0, "type": "electric_scooter", "lon": -77.073518, "bike_id": "fc60a9309de3624abbacb35a44efaafc", "fusion_lat": 0.0, "name": "fc60a9309de3624abbacb35a44efaafc", "is_reserved": 0, "rental_uris": {"android": "https://dc.lft.to/lastmile_qr_scan", "ios": "https://dc.lft.to/lastmile_qr_scan"}, "fusion_lon": 0.0}, {"lat": 38.958853, "is_disabled": 0, "type": "electric_bike", "lon": -76.92489516666667, "bike_id": "b118310c868d6d0809f78685516a2815", "fusion_lat": 0.0, "name": "b118310c868d6d0809f78685516a2815", "is_reserved": 0, "rental_uris": {"android": "https://dc.lft.to/lastmile_qr_scan", "ios": "https://dc.lft.to/lastmile_qr_scan"}, "fusion_lon": 0.0}, {"lat": 38.853073333333334, "is_disabled": 0, "type": "electric_bike", "lon": -77.131236, "bike_id": "9762f759dd210ff99397dd93042ae63a", "fusion_lat": 0.0, "name": "9762f759dd210ff99397dd93042ae63a", "is_reserved": 0, "rental_uris": {"android": "https://dc.lft.to/lastmile_qr_scan", "ios": "https://dc.lft.to/lastmile_qr_scan"}, "fusion_lon": 0.0}, {"lat": 38.94077266666667, "is_disabled": 0, "type": "electric_scooter", "lon": -77.02389883333333, "bike_id": "b16a6d8a392fdd6e65a5c573efa44c73", "fusion_lat": 0.0, "name": "b16a6d8a392fdd6e65a5c573efa44c73", "is_reserved": 0, "rental_uris": {"android": "https://dc.lft.to/lastmile_qr_scan", "ios": "https://dc.lft.to/lastmile_qr_scan"}, "fusion_lon": 0.0}, {"lat": 38.9310635, "is_disabled": 0, "type": "electric_scooter", "lon": -77.033951, "bike_id": "9c91c67d7e67bd1bb908eb8a6071c58e", "fusion_lat": 0.0, "name": "9c91c67d7e67bd1bb908eb8a6071c58e", "is_reserved": 0, "rental_uris": {"android": "https://dc.lft.to/lastmile_qr_scan", "ios": "https://dc.lft.to/lastmile_qr_scan"}, "fusion_lon": 0.0}, {"lat": 38.93008783333333, "is_disabled": 0, "type": "electric_scooter", "lon": -77.02081233333334, "bike_id": "cb310c665ca7bb8c418f7ed2a9a871b4", "fusion_lat": 0.0, "name": "cb310c665ca7bb8c418f7ed2a9a871b4", "is_reserved": 0, "rental_uris": {"android": "https://dc.lft.to/lastmile_qr_scan", "ios": "https://dc.lft.to/lastmile_qr_scan"}, "fusion_lon": 0.0}, {"lat": 38.917225, "is_disabled": 0, "type": "electric_scooter", "lon": -77.03558633333333, "bike_id": "6ffbcab7c6bb850e8cf0b517f231bd5f", "fusion_lat": 0.0, "name": "6ffbcab7c6bb850e8cf0b517f231bd5f", "is_reserved": 0, "rental_uris": {"android": "https://dc.lft.to/lastmile_qr_scan", "ios": "https://dc.lft.to/lastmile_qr_scan"}, "fusion_lon": 0.0}, {"lat": 38.9118425, "is_disabled": 0, "type": "electric_scooter", "lon": -77.0432675, "bike_id": "4f6afe063ea2f0234cec476b7b670bce", "fusion_lat": 0.0, "name": "4f6afe063ea2f0234cec476b7b670bce", "is_reserved": 0, "rental_uris": {"android": "https://dc.lft.to/lastmile_qr_scan", "ios": "https://dc.lft.to/lastmile_qr_scan"}, "fusion_lon": 0.0}, {"lat": 38.92070616666667, "is_disabled": 0, "type": "electric_scooter", "lon": -77.01420183333333, "bike_id": "185ffda734b7af966cc10603d6bb00de", "fusion_lat": 0.0, "name": "185ffda734b7af966cc10603d6bb00de", "is_reserved": 0, "rental_uris": {"android": "https://dc.lft.to/lastmile_qr_scan", "ios": "https://dc.lft.to/lastmile_qr_scan"}, "fusion_lon": 0.0}, {"lat": 38.92116566666667, "is_disabled": 0, "type": "electric_bike", "lon": -76.98578883333333, "bike_id": "e2cdf3b210f8afcc4151e84b416a42f7", "fusion_lat": 0.0, "name": "e2cdf3b210f8afcc4151e84b416a42f7", "is_reserved": 0, "rental_uris": {"android": "https://dc.lft.to/lastmile_qr_scan", "ios": "https://dc.lft.to/lastmile_qr_scan"}, "fusion_lon": 0.0}, {"lat": 38.909592, "is_disabled": 0, "type": "electric_scooter", "lon": -77.03421433333334, "bike_id": "b241471741817a0a4f3cf580a37ab39f", "fusion_lat": 0.0, "name": "b241471741817a0a4f3cf580a37ab39f", "is_reserved": 0, "rental_uris": {"android": "https://dc.lft.to/lastmile_qr_scan", "ios": "https://dc.lft.to/lastmile_qr_scan"}, "fusion_lon": 0.0}, {"lat": 38.91734116666667, "is_disabled": 0, "type": "electric_scooter", "lon": -77.03660283333333, "bike_id": "f8015ed51e36c5e83b3b1fc539c1ea27", "fusion_lat": 0.0, "name": "f8015ed51e36c5e83b3b1fc539c1ea27", "is_reserved": 0, "rental_uris": {"android": "https://dc.lft.to/lastmile_qr_scan", "ios": "https://dc.lft.to/lastmile_qr_scan"}, "fusion_lon": 0.0}, {"lat": 38.936902333333336, "is_disabled": 0, "type": "electric_bike", "lon": -77.05647366666666, "bike_id": "bf20f5d6d0b0811d9e0b3ef4d2a45d10", "fusion_lat": 0.0, "name": "bf20f5d6d0b0811d9e0b3ef4d2a45d10", "is_reserved": 0, "rental_uris": {"android": "https://dc.lft.to/lastmile_qr_scan", "ios": "https://dc.lft.to/lastmile_qr_scan"}, "fusion_lon": 0.0}, {"lat": 38.9056715, "is_disabled": 0, "type": "electric_scooter", "lon": -77.021938, "bike_id": "8c8375312824a4f886b4e091c19066c2", "fusion_lat": 0.0, "name": "8c8375312824a4f886b4e091c19066c2", "is_reserved": 0, "rental_uris": {"android": "https://dc.lft.to/lastmile_qr_scan", "ios": "https://dc.lft.to/lastmile_qr_scan"}, "fusion_lon": 0.0}, {"lat": 38.83725733333333, "is_disabled": 0, "type": "electric_bike", "lon": -76.99763733333333, "bike_id": "3b8a91a21be6f8b15312057a2bfab24f", "fusion_lat": 0.0, "name": "3b8a91a21be6f8b15312057a2bfab24f", "is_reserved": 0, "rental_uris": {"android": "https://dc.lft.to/lastmile_qr_scan", "ios": "https://dc.lft.to/lastmile_qr_scan"}, "fusion_lon": 0.0}, {"lat": 38.85676816666667, "is_disabled": 0, "type": "electric_scooter", "lon": -76.98174966666667, "bike_id": "5f5c65558c14486a8fedb5f68b372294", "fusion_lat": 0.0, "name": "5f5c65558c14486a8fedb5f68b372294", "is_reserved": 0, "rental_uris": {"android": "https://dc.lft.to/lastmile_qr_scan", "ios": "https://dc.lft.to/lastmile_qr_scan"}, "fusion_lon": 0.0}, {"lat": 38.9165825, "is_disabled": 0, "type": "electric_scooter", "lon": -77.04713966666667, "bike_id": "f0791ce81f3e8c2307c26c1197dbe4ce", "fusion_lat": 0.0, "name": "f0791ce81f3e8c2307c26c1197dbe4ce", "is_reserved": 0, "rental_uris": {"android": "https://dc.lft.to/lastmile_qr_scan", "ios": "https://dc.lft.to/lastmile_qr_scan"}, "fusion_lon": 0.0}, {"lat": 38.89547983333333, "is_disabled": 0, "type": "electric_scooter", "lon": -77.00436366666666, "bike_id": "dcafeb5458111d0d1991e96c36241fed", "fusion_lat": 0.0, "name": "dcafeb5458111d0d1991e96c36241fed", "is_reserved": 0, "rental_uris": {"android": "https://dc.lft.to/lastmile_qr_scan", "ios": "https://dc.lft.to/lastmile_qr_scan"}, "fusion_lon": 0.0}, {"lat": 38.93530833333333, "is_disabled": 0, "type": "electric_scooter", "lon": -77.0234245, "bike_id": "47225408015e853520a8ef5f1dd6a711", "fusion_lat": 0.0, "name": "47225408015e853520a8ef5f1dd6a711", "is_reserved": 0, "rental_uris": {"android": "https://dc.lft.to/lastmile_qr_scan", "ios": "https://dc.lft.to/lastmile_qr_scan"}, "fusion_lon": 0.0}, {"lat": 38.86506383333333, "is_disabled": 0, "type": "electric_scooter", "lon": -76.9900765, "bike_id": "6d52f54e0af2ce886ce220a21e38956b", "fusion_lat": 0.0, "name": "6d52f54e0af2ce886ce220a21e38956b", "is_reserved": 0, "rental_uris": {"android": "https://dc.lft.to/lastmile_qr_scan", "ios": "https://dc.lft.to/lastmile_qr_scan"}, "fusion_lon": 0.0}, {"lat": 38.902665166666665, "is_disabled": 0, "type": "electric_scooter", "lon": -77.00352166666667, "bike_id": "27b49238f65fd066cbe71139132be5f4", "fusion_lat": 0.0, "name": "27b49238f65fd066cbe71139132be5f4", "is_reserved": 0, "rental_uris": {"android": "https://dc.lft.to/lastmile_qr_scan", "ios": "https://dc.lft.to/lastmile_qr_scan"}, "fusion_lon": 0.0}, {"lat": 38.92929383333333, "is_disabled": 0, "type": "electric_scooter", "lon": -77.0376895, "bike_id": "13e98a2885f9a6502e933eaa7b489888", "fusion_lat": 0.0, "name": "13e98a2885f9a6502e933eaa7b489888", "is_reserved": 0, "rental_uris": {"android": "https://dc.lft.to/lastmile_qr_scan", "ios": "https://dc.lft.to/lastmile_qr_scan"}, "fusion_lon": 0.0}, {"lat": 38.842715166666665, "is_disabled": 0, "type": "electric_bike", "lon": -76.98842516666667, "bike_id": "2b6ff67cbff66846a173f08fbf6baa9c", "fusion_lat": 0.0, "name": "2b6ff67cbff66846a173f08fbf6baa9c", "is_reserved": 0, "rental_uris": {"android": "https://dc.lft.to/lastmile_qr_scan", "ios": "https://dc.lft.to/lastmile_qr_scan"}, "fusion_lon": 0.0}, {"lat": 38.899698666666666, "is_disabled": 0, "type": "electric_scooter", "lon": -77.02071666666667, "bike_id": "2189579fb0748308ff3108508b0a7f11", "fusion_lat": 0.0, "name": "2189579fb0748308ff3108508b0a7f11", "is_reserved": 0, "rental_uris": {"android": "https://dc.lft.to/lastmile_qr_scan", "ios": "https://dc.lft.to/lastmile_qr_scan"}, "fusion_lon": 0.0}, {"lat": 38.9176875, "is_disabled": 0, "type": "electric_scooter", "lon": -77.01881016666667, "bike_id": "e761a0dd7df24b1095a4af71b8496c25", "fusion_lat": 0.0, "name": "e761a0dd7df24b1095a4af71b8496c25", "is_reserved": 0, "rental_uris": {"android": "https://dc.lft.to/lastmile_qr_scan", "ios": "https://dc.lft.to/lastmile_qr_scan"}, "fusion_lon": 0.0}, {"lat": 38.91099466666667, "is_disabled": 0, "type": "electric_scooter", "lon": -77.042025, "bike_id": "da11a4153af395a907680f41af86e823", "fusion_lat": 0.0, "name": "da11a4153af395a907680f41af86e823", "is_reserved": 0, "rental_uris": {"android": "https://dc.lft.to/lastmile_qr_scan", "ios": "https://dc.lft.to/lastmile_qr_scan"}, "fusion_lon": 0.0}, {"lat": 38.93643683333333, "is_disabled": 0, "type": "electric_scooter", "lon": -77.02044766666667, "bike_id": "2292ecf5de466cb55e9dfcf8b542a237", "fusion_lat": 0.0, "name": "2292ecf5de466cb55e9dfcf8b542a237", "is_reserved": 0, "rental_uris": {"android": "https://dc.lft.to/lastmile_qr_scan", "ios": "https://dc.lft.to/lastmile_qr_scan"}, "fusion_lon": 0.0}, {"lat": 38.91815283333333, "is_disabled": 0, "type": "electric_scooter", "lon": -77.04163666666666, "bike_id": "5961e2dbdee552ac8f0d3637030d84b2", "fusion_lat": 0.0, "name": "5961e2dbdee552ac8f0d3637030d84b2", "is_reserved": 0, "rental_uris": {"android": "https://dc.lft.to/lastmile_qr_scan", "ios": "https://dc.lft.to/lastmile_qr_scan"}, "fusion_lon": 0.0}, {"lat": 38.9609545, "is_disabled": 0, "type": "electric_scooter", "lon": -77.0828265, "bike_id": "8d804be89049001ad8b7187c717e4e6b", "fusion_lat": 0.0, "name": "8d804be89049001ad8b7187c717e4e6b", "is_reserved": 0, "rental_uris": {"android": "https://dc.lft.to/lastmile_qr_scan", "ios": "https://dc.lft.to/lastmile_qr_scan"}, "fusion_lon": 0.0}, {"lat": 38.9221605, "is_disabled": 0, "type": "electric_scooter", "lon": -77.03289883333333, "bike_id": "8b5fc41d0105c6e50c96a752aa825650", "fusion_lat": 0.0, "name": "8b5fc41d0105c6e50c96a752aa825650", "is_reserved": 0, "rental_uris": {"android": "https://dc.lft.to/lastmile_qr_scan", "ios": "https://dc.lft.to/lastmile_qr_scan"}, "fusion_lon": 0.0}, {"lat": 38.915272, "is_disabled": 0, "type": "electric_scooter", "lon": -77.032068, "bike_id": "39e152c05120cdfe4d6ab6074a7e25ad", "fusion_lat": 0.0, "name": "39e152c05120cdfe4d6ab6074a7e25ad", "is_reserved": 0, "rental_uris": {"android": "https://dc.lft.to/lastmile_qr_scan", "ios": "https://dc.lft.to/lastmile_qr_scan"}, "fusion_lon": 0.0}, {"lat": 38.904883166666664, "is_disabled": 0, "type": "electric_scooter", "lon": -77.0297445, "bike_id": "a98e93b795d28634595dff6d99dd1924", "fusion_lat": 0.0, "name": "a98e93b795d28634595dff6d99dd1924", "is_reserved": 0, "rental_uris": {"android": "https://dc.lft.to/lastmile_qr_scan", "ios": "https://dc.lft.to/lastmile_qr_scan"}, "fusion_lon": 0.0}, {"lat": 38.90218566666667, "is_disabled": 0, "type": "electric_scooter", "lon": -77.04869116666667, "bike_id": "f1f53359aef9775cc81ea7ba253c88ab", "fusion_lat": 0.0, "name": "f1f53359aef9775cc81ea7ba253c88ab", "is_reserved": 0, "rental_uris": {"android": "https://dc.lft.to/lastmile_qr_scan", "ios": "https://dc.lft.to/lastmile_qr_scan"}, "fusion_lon": 0.0}, {"lat": 38.90142083333333, "is_disabled": 0, "type": "electric_scooter", "lon": -77.00073916666666, "bike_id": "315efa41a0403c31c3909a3ed25c4c16", "fusion_lat": 0.0, "name": "315efa41a0403c31c3909a3ed25c4c16", "is_reserved": 0, "rental_uris": {"android": "https://dc.lft.to/lastmile_qr_scan", "ios": "https://dc.lft.to/lastmile_qr_scan"}, "fusion_lon": 0.0}, {"lat": 38.921069, "is_disabled": 0, "type": "electric_bike", "lon": -77.03926016666666, "bike_id": "8d7aa01740971a6eba2a646f89c8218c", "fusion_lat": 0.0, "name": "8d7aa01740971a6eba2a646f89c8218c", "is_reserved": 0, "rental_uris": {"android": "https://dc.lft.to/lastmile_qr_scan", "ios": "https://dc.lft.to/lastmile_qr_scan"}, "fusion_lon": 0.0}, {"lat": 38.9339975, "is_disabled": 0, "type": "electric_scooter", "lon": -77.0412735, "bike_id": "1e88ddcd75bb3dde599755ee58b92edb", "fusion_lat": 0.0, "name": "1e88ddcd75bb3dde599755ee58b92edb", "is_reserved": 0, "rental_uris": {"android": "https://dc.lft.to/lastmile_qr_scan", "ios": "https://dc.lft.to/lastmile_qr_scan"}, "fusion_lon": 0.0}, {"lat": 38.936011, "is_disabled": 0, "type": "electric_scooter", "lon": -77.036566, "bike_id": "96825ef74b4ea0b4944d646bfb875262", "fusion_lat": 0.0, "name": "96825ef74b4ea0b4944d646bfb875262", "is_reserved": 0, "rental_uris": {"android": "https://dc.lft.to/lastmile_qr_scan", "ios": "https://dc.lft.to/lastmile_qr_scan"}, "fusion_lon": 0.0}, {"lat": 38.899699, "is_disabled": 0, "type": "electric_scooter", "lon": -77.05177616666667, "bike_id": "82421e57c77ff2aece07a7c5ae02d812", "fusion_lat": 0.0, "name": "82421e57c77ff2aece07a7c5ae02d812", "is_reserved": 0, "rental_uris": {"android": "https://dc.lft.to/lastmile_qr_scan", "ios": "https://dc.lft.to/lastmile_qr_scan"}, "fusion_lon": 0.0}, {"lat": 39.004711, "is_disabled": 0, "type": "electric_bike", "lon": -76.9012965, "bike_id": "ae8e64b51de4afa659d6a04cca21a011", "fusion_lat": 0.0, "name": "ae8e64b51de4afa659d6a04cca21a011", "is_reserved": 0, "rental_uris": {"android": "https://dc.lft.to/lastmile_qr_scan", "ios": "https://dc.lft.to/lastmile_qr_scan"}, "fusion_lon": 0.0}, {"lat": 38.90086866666667, "is_disabled": 0, "type": "electric_scooter", "lon": -77.002106, "bike_id": "1bc95e43b9715f3c5347706400c52d0f", "fusion_lat": 0.0, "name": "1bc95e43b9715f3c5347706400c52d0f", "is_reserved": 0, "rental_uris": {"android": "https://dc.lft.to/lastmile_qr_scan", "ios": "https://dc.lft.to/lastmile_qr_scan"}, "fusion_lon": 0.0}, {"lat": 38.828701833333334, "is_disabled": 0, "type": "electric_bike", "lon": -77.11227466666666, "bike_id": "8ad64c5e15387f767c1fff302f74dc3c", "fusion_lat": 0.0, "name": "8ad64c5e15387f767c1fff302f74dc3c", "is_reserved": 0, "rental_uris": {"android": "https://dc.lft.to/lastmile_qr_scan", "ios": "https://dc.lft.to/lastmile_qr_scan"}, "fusion_lon": 0.0}, {"lat": 38.932794, "is_disabled": 0, "type": "electric_scooter", "lon": -77.032711, "bike_id": "445797cf5b7106bd37e9a40ced4c47c9", "fusion_lat": 0.0, "name": "445797cf5b7106bd37e9a40ced4c47c9", "is_reserved": 0, "rental_uris": {"android": "https://dc.lft.to/lastmile_qr_scan", "ios": "https://dc.lft.to/lastmile_qr_scan"}, "fusion_lon": 0.0},