{"data": {"bikes": [{"fusion_lat": 0.0, "name": "f9bea224cea626e094316974207d0ce5", "is_disabled": 0, "rental_uris": {"android": "https://dc.lft.to/lastmile_qr_scan", "ios": "https://dc.lft.to/lastmile_qr_scan"}, "fusion_lon": 0.0, "lat": 38.92405466666666, "bike_id": "f9bea224cea626e094316974207d0ce5", "type": "electric_scooter", "is_reserved": 0, "lon": -77.02541683333334}, {"fusion_lat": 0.0, "name": "51db7c4f43fbccad67014d4d6933aa7c", "is_disabled": 0, "rental_uris": {"android": "https://dc.lft.to/lastmile_qr_scan", "ios": "https://dc.lft.to/lastmile_qr_scan"}, "fusion_lon": 0.0, "lat": 38.911034666666666, "bike_id": "51db7c4f43fbccad67014d4d6933aa7c", "type": "electric_scooter", "is_reserved": 0, "lon": -77.021565}, {"fusion_lat": 0.0, "name": "db326f001fe3810212a63107a77c0d6e", "is_disabled": 0, "rental_uris": {"android": "https://dc.lft.to/lastmile_qr_scan", "ios": "https://dc.lft.to/lastmile_qr_scan"}, "fusion_lon": 0.0, "lat": 38.905569666666665, "bike_id": "db326f001fe3810212a63107a77c0d6e", "type": "electric_scooter", "is_reserved": 0, "lon": -77.020951}, {"fusion_lat": 0.0, "name": "89ca080e6f6d0d8c67d3f81e12be6083", "is_disabled": 0, "rental_uris": {"android": "https://dc.lft.to/lastmile_qr_scan", "ios": "https://dc.lft.to/lastmile_qr_scan"}, "fusion_lon": 0.0, "lat": 38.90692583333333, "bike_id": "89ca080e6f6d0d8c67d3f81e12be6083", "type": "electric_scooter", "is_reserved": 0, "lon": -76.9519455}, {"fusion_lat": 0.0, "name": "2d77219e563ed47ba7b98a5abab3c55f", "is_disabled": 0, "rental_uris": {"android": "https://dc.lft.to/lastmile_qr_scan", "ios": "https://dc.lft.to/lastmile_qr_scan"}, "fusion_lon": 0.0, "lat": 38.91652666666667, "bike_id": "2d77219e563ed47ba7b98a5abab3c55f", "type": "electric_scooter", "is_reserved": 0, "lon": -77.03851366666666}, {"fusion_lat": 0.0, "name": "66c92a2cb5d7374b8f608300c132af92", "is_disabled": 0, "rental_uris": {"android": "https://dc.lft.to/lastmile_qr_scan", "ios": "https://dc.lft.to/lastmile_qr_scan"}, "fusion_lon": 0.0, "lat": 38.881320833333334, "bike_id": "66c92a2cb5d7374b8f608300c132af92", "type": "electric_bike", "is_reserved": 0, "lon": -76.98125833333333}, {"fusion_lat": 0.0, "name": "057ab0075e413b37ff4a0a5abaffa6aa", "is_disabled": 0, "rental_uris": {"android": "https://dc.lft.to/lastmile_qr_scan", "ios": "https://dc.lft.to/lastmile_qr_scan"}, "fusion_lon": 0.0, "lat": 38.902531333333336, "bike_id": "057ab0075e413b37ff4a0a5abaffa6aa", "type": "electric_scooter", "is_reserved": 0, "lon": -77.045993}, {"fusion_lat": 0.0, "name": "620e9cb3e8cac4bc2164f0dc410c8fa7", "is_disabled": 0, "rental_uris": {"android": "https://dc.lft.to/lastmile_qr_scan", "ios": "https://dc.lft.to/lastmile_qr_scan"}, "fusion_lon": 0.0, "lat": 38.8362795, "bike_id": "620e9cb3e8cac4bc2164f0dc410c8fa7", "type": "electric_bike", "is_reserved": 0, "lon": -77.06950783333333}, {"fusion_lat": 0.0, "name": "6e46ab5d78259c76982d071d0d5ea631", "is_disabled": 0, "rental_uris": {"android": "https://dc.lft.to/lastmile_qr_scan", "ios": "https://dc.lft.to/lastmile_qr_scan"}, "fusion_lon": 0.0, "lat": 38.906741833333335, "bike_id": "6e46ab5d78259c76982d071d0d5ea631", "type": "electric_scooter", "is_reserved": 0, "lon": -77.00954183333333}, {"fusion_lat": 0.0, "name": "06a3b26b11b5edd770de4132058321ca", "is_disabled": 0, "rental_uris": {"android": "https://dc.lft.to/lastmile_qr_scan", "ios": "https://dc.lft.to/lastmile_qr_scan"}, "fusion_lon": 0.0, "lat": 38.9108845, "bike_id": "06a3b26b11b5edd770de4132058321ca", "type": "electric_scooter", "is_reserved": 0, "lon": -77.04484616666667}, {"fusion_lat": 0.0, "name": "90bcd76de8368fe9f84df5f008926ce6", "is_disabled": 0, "rental_uris": {"android": "https://dc.lft.to/lastmile_qr_scan", "ios": "https://dc.lft.to/lastmile_qr_scan"}, "fusion_lon": 0.0, "lat": 38.934855166666665, "bike_id": "90bcd76de8368fe9f84df5f008926ce6", "type": "electric_scooter", "is_reserved": 0, "lon": -77.07275933333334}, {"fusion_lat": 0.0, "name": "f911888d9029fb39e2985bea43d9dd52", "is_disabled": 0, "rental_uris": {"android": "https://dc.lft.to/lastmile_qr_scan", "ios": "https://dc.lft.to/lastmile_qr_scan"}, "fusion_lon": 0.0, "lat": 38.941965333333336, "bike_id": "f911888d9029fb39e2985bea43d9dd52", "type": "electric_scooter", "is_reserved": 0, "lon": -77.02536033333334}, {"fusion_lat": 0.0, "name": "5f4058d5f192aa791d410becfe1996ce", "is_disabled": 0, "rental_uris": {"android": "https://dc.lft.to/lastmile_qr_scan", "ios": "https://dc.lft.to/lastmile_qr_scan"}, "fusion_lon": 0.0, "lat": 38.9097425, "bike_id": "5f4058d5f192aa791d410becfe1996ce", "type": "electric_scooter", "is_reserved": 0, "lon": -77.0345255}, {"fusion_lat": 0.0, "name": "3e989a9d4da90990a4a0a0e9b77242b7", "is_disabled": 0, "rental_uris": {"android": "https://dc.lft.to/lastmile_qr_scan", "ios": "https://dc.lft.to/lastmile_qr_scan"}, "fusion_lon": 0.0, "lat": 38.92682083333333, "bike_id": "3e989a9d4da90990a4a0a0e9b77242b7", "type": "electric_scooter", "is_reserved": 0, "lon": -77.0314495}, {"fusion_lat": 0.0, "name": "3651ebb1b6e16ca216771025ff607ac6", "is_disabled": 0, "rental_uris": {"android": "https://dc.lft.to/lastmile_qr_scan", "ios": "https://dc.lft.to/lastmile_qr_scan"}, "fusion_lon": 0.0, "lat": 38.90137433333334, "bike_id": "3651ebb1b6e16ca216771025ff607ac6", "type": "electric_scooter", "is_reserved": 0, "lon": -76.99119183333333}, {"fusion_lat": 0.0, "name": "c421aff75b536e5a8ac4d2125616d4e9", "is_disabled": 0, "rental_uris": {"android": "https://dc.lft.to/lastmile_qr_scan", "ios": "https://dc.lft.to/lastmile_qr_scan"}, "fusion_lon": 0.0, "lat": 38.91979233333333, "bike_id": "c421aff75b536e5a8ac4d2125616d4e9", "type": "electric_scooter", "is_reserved": 0, "lon": -77.0408805}, {"fusion_lat": 0.0, "name": "284694064391ac002f640aba0a37b7e3", "is_disabled": 0, "rental_uris": {"android": "https://dc.lft.to/lastmile_qr_scan", "ios": "https://dc.lft.to/lastmile_qr_scan"}, "fusion_lon": 0.0, "lat": 38.878148, "bike_id": "284694064391ac002f640aba0a37b7e3", "type": "electric_scooter", "is_reserved": 0, "lon": -77.01531166666666}, {"fusion_lat": 0.0, "name": "006c5ddb93eaf29bdaf03c6cdca485ce", "is_disabled": 0, "rental_uris": {"android": "https://dc.lft.to/lastmile_qr_scan", "ios": "https://dc.lft.to/lastmile_qr_scan"}, "fusion_lon": 0.0, "lat": 38.9155055, "bike_id": "006c5ddb93eaf29bdaf03c6cdca485ce", "type": "electric_scooter", "is_reserved": 0, "lon": -77.01184433333333}, {"fusion_lat": 0.0, "name": "faacf490849c37da45dde09ffc1ea4bf", "is_disabled": 0, "rental_uris": {"android": "https://dc.lft.to/lastmile_qr_scan", "ios": "https://dc.lft.to/lastmile_qr_scan"}, "fusion_lon": 0.0, "lat": 38.88649683333333, "bike_id": "faacf490849c37da45dde09ffc1ea4bf", "type": "electric_scooter", "is_reserved": 0, "lon": -77.00199466666666}, {"fusion_lat": 0.0, "name": "de4e6f7ed172336aa2c40e8d5ecba698", "is_disabled": 0, "rental_uris": {"android": "https://dc.lft.to/lastmile_qr_scan", "ios": "https://dc.lft.to/lastmile_qr_scan"}, "fusion_lon": 0.0, "lat": 38.873916333333334, "bike_id": "de4e6f7ed172336aa2c40e8d5ecba698", "type": "electric_scooter", "is_reserved": 0, "lon": -77.000565}, {"fusion_lat": 0.0, "name": "57cdd23c44780bc31fe421501e6e48be", "is_disabled": 0, "rental_uris": {"android": "https://dc.lft.to/lastmile_qr_scan", "ios": "https://dc.lft.to/lastmile_qr_scan"}, "fusion_lon": 0.0, "lat": 38.94497066666667, "bike_id": "57cdd23c44780bc31fe421501e6e48be", "type": "electric_bike", "is_reserved": 0, "lon": -77.03582766666666}, {"fusion_lat": 0.0, "name": "181bd50208cecb33e8c01dc65c34f1c6", "is_disabled": 0, "rental_uris": {"android": "https://dc.lft.to/lastmile_qr_scan", "ios": "https://dc.lft.to/lastmile_qr_scan"}, "fusion_lon": 0.0, "lat": 38.913442833333335, "bike_id": "181bd50208cecb33e8c01dc65c34f1c6", "type": "electric_bike", "is_reserved": 0, "lon": -76.98899416666667}, {"fusion_lat": 0.0, "name": "c13255a5dae449a297e02f1fef53315e", "is_disabled": 0, "rental_uris": {"android": "https://dc.lft.to/lastmile_qr_scan", "ios": "https://dc.lft.to/lastmile_qr_scan"}, "fusion_lon": 0.0, "lat": 38.892185166666664, "bike_id": "c13255a5dae449a297e02f1fef53315e", "type": "electric_scooter", "is_reserved": 0, "lon": -77.02219416666667}, {"fusion_lat": 0.0, "name": "62405f80f29eec6ec4be7f465055cad2", "is_disabled": 0, "rental_uris": {"android": "https://dc.lft.to/lastmile_qr_scan", "ios": "https://dc.lft.to/lastmile_qr_scan"}, "fusion_lon": 0.0, "lat": 38.907401, "bike_id": "62405f80f29eec6ec4be7f465055cad2", "type": "electric_scooter", "is_reserved": 0, "lon": -77.0433975}, {"fusion_lat": 0.0, "name": "ea0fab80ee122615c657a11ef403a424", "is_disabled": 0, "rental_uris": {"android": "https://dc.lft.to/lastmile_qr_scan", "ios": "https://dc.lft.to/lastmile_qr_scan"}, "fusion_lon": 0.0, "lat": 38.9005105, "bike_id": "ea0fab80ee122615c657a11ef403a424", "type": "electric_scooter", "is_reserved": 0, "lon": -77.04182333333334}, {"fusion_lat": 0.0, "name": "16c5e3544ef94966c2c64d23f61bf79f", "is_disabled": 0, "rental_uris": {"android": "https://dc.lft.to/lastmile_qr_scan", "ios": "https://dc.lft.to/lastmile_qr_scan"}, "fusion_lon": 0.0, "lat": 38.907274666666666, "bike_id": "16c5e3544ef94966c2c64d23f61bf79f", "type": "electric_scooter", "is_reserved": 0, "lon": -77.04337616666666}, {"fusion_lat": 0.0, "name": "9bea23da003a2e7e063ead954db19d94", "is_disabled": 0, "rental_uris": {"android": "https://dc.lft.to/lastmile_qr_scan", "ios": "https://dc.lft.to/lastmile_qr_scan"}, "fusion_lon": 0.0, "lat": 38.8965845, "bike_id": "9bea23da003a2e7e063ead954db19d94", "type": "electric_scooter", "is_reserved": 0, "lon": -77.02253016666667}, {"fusion_lat": 0.0, "name": "730cdea9663ecb1f54e305aa11e202d6", "is_disabled": 0, "rental_uris": {"android": "https://dc.lft.to/lastmile_qr_scan", "ios": "https://dc.lft.to/lastmile_qr_scan"}, "fusion_lon": 0.0, "lat": 38.918405, "bike_id": "730cdea9663ecb1f54e305aa11e202d6", "type": "electric_scooter", "is_reserved": 0, "lon": -77.0228955}, {"fusion_lat": 0.0, "name": "28a9942add61bfafb19e70afd70e2329", "is_disabled": 0, "rental_uris": {"android": "https://dc.lft.to/lastmile_qr_scan", "ios": "https://dc.lft.to/lastmile_qr_scan"}, "fusion_lon": 0.0, "lat": 38.935022000000004, "bike_id": "28a9942add61bfafb19e70afd70e2329", "type": "electric_scooter", "is_reserved": 0, "lon": -77.03638583333333}, {"fusion_lat": 0.0, "name": "3ad5bb32c6ca49462b5bb3d23980f97c", "is_disabled": 0, "rental_uris": {"android": "https://dc.lft.to/lastmile_qr_scan", "ios": "https://dc.lft.to/lastmile_qr_scan"}, "fusion_lon": 0.0, "lat": 38.92400116666666, "bike_id": "3ad5bb32c6ca49462b5bb3d23980f97c", "type": "electric_scooter", "is_reserved": 0, "lon": -77.02056283333333}, {"fusion_lat": 0.0, "name": "24e36407d9913e37c4ebc22cbfdb6a0f", "is_disabled": 0, "rental_uris": {"android": "https://dc.lft.to/lastmile_qr_scan", "ios": "https://dc.lft.to/lastmile_qr_scan"}, "fusion_lon": 0.0, "lat": 38.90714166666667, "bike_id": "24e36407d9913e37c4ebc22cbfdb6a0f", "type": "electric_scooter", "is_reserved": 0, "lon": -77.07607333333333}, {"fusion_lat": 0.0, "name": "1974e25e790fd09082015f9b1008dd4b", "is_disabled": 0, "rental_uris": {"android": "https://dc.lft.to/lastmile_qr_scan", "ios": "https://dc.lft.to/lastmile_qr_scan"}, "fusion_lon": 0.0, "lat": 38.919971333333336, "bike_id": "1974e25e790fd09082015f9b1008dd4b", "type": "electric_scooter", "is_reserved": 0, "lon": -77.02357416666666}, {"fusion_lat": 0.0, "name": "7c4b711afc93d06a2dfd62c21867d1a7", "is_disabled": 0, "rental_uris": {"android": "https://dc.lft.to/lastmile_qr_scan", "ios": "https://dc.lft.to/lastmile_qr_scan"}, "fusion_lon": 0.0, "lat": 38.89900933333333, "bike_id": "7c4b711afc93d06a2dfd62c21867d1a7", "type": "electric_scooter", "is_reserved": 0, "lon": -76.9336405}, {"fusion_lat": 0.0, "name": "4c88421d506659ca8318a70262739afe", "is_disabled": 0, "rental_uris": {"android": "https://dc.lft.to/lastmile_qr_scan", "ios": "https://dc.lft.to/lastmile_qr_scan"}, "fusion_lon": 0.0, "lat": 38.93859916666667, "bike_id": "4c88421d506659ca8318a70262739afe", "type": "electric_scooter", "is_reserved": 0, "lon": -77.03438866666667}, {"fusion_lat": 0.0, "name": "5c014bc3ba85dfa339408fe1f36e9e26", "is_disabled": 0, "rental_uris": {"android": "https://dc.lft.to/lastmile_qr_scan", "ios": "https://dc.lft.to/lastmile_qr_scan"}, "fusion_lon": 0.0, "lat": 38.905396333333336, "bike_id": "5c014bc3ba85dfa339408fe1f36e9e26", "type": "electric_scooter", "is_reserved": 0, "lon": -77.04650233333334}, {"fusion_lat": 0.0, "name": "946df6d17130162e8caa801aa1bae938", "is_disabled": 0, "rental_uris": {"android": "https://dc.lft.to/lastmile_qr_scan", "ios": "https://dc.lft.to/lastmile_qr_scan"}, "fusion_lon": 0.0, "lat": 38.924813666666665, "bike_id": "946df6d17130162e8caa801aa1bae938", "type": "electric_scooter", "is_reserved": 0, "lon": -77.05203033333333}, {"fusion_lat": 0.0, "name": "ed694787e41c1cd3b6a639ce6943bb32", "is_disabled": 0, "rental_uris": {"android": "https://dc.lft.to/lastmile_qr_scan", "ios": "https://dc.lft.to/lastmile_qr_scan"}, "fusion_lon": 0.0, "lat": 38.934152833333336, "bike_id": "ed694787e41c1cd3b6a639ce6943bb32", "type": "electric_scooter", "is_reserved": 0, "lon": -77.041575}, {"fusion_lat": 0.0, "name": "0eb031e00db2b52cc3147dc2bb6bc679", "is_disabled": 0, "rental_uris": {"android": "https://dc.lft.to/lastmile_qr_scan", "ios": "https://dc.lft.to/lastmile_qr_scan"}, "fusion_lon": 0.0, "lat": 38.89734116666666, "bike_id": "0eb031e00db2b52cc3147dc2bb6bc679", "type": "electric_scooter", "is_reserved": 0, "lon": -77.02729066666667}, {"fusion_lat": 0.0, "name": "829f3011fda7114a7b6d6f669b5dc501", "is_disabled": 0, "rental_uris": {"android": "https://dc.lft.to/lastmile_qr_scan", "ios": "https://dc.lft.to/lastmile_qr_scan"}, "fusion_lon": 0.0, "lat": 38.920195, "bike_id": "829f3011fda7114a7b6d6f669b5dc501", "type": "electric_scooter", "is_reserved": 0, "lon": -77.03123183333334}, {"fusion_lat": 0.0, "name": "2b4f274b9e4527f108d54a30e9ed12f2", "is_disabled": 0, "rental_uris": {"android": "https://dc.lft.to/lastmile_qr_scan", "ios": "https://dc.lft.to/lastmile_qr_scan"}, "fusion_lon": 0.0, "lat": 38.9141195, "bike_id": "2b4f274b9e4527f108d54a30e9ed12f2", "type": "electric_scooter", "is_reserved": 0, "lon": -77.039363}, {"fusion_lat": 0.0, "name": "145af943de9d5849d097376296811504", "is_disabled": 0, "rental_uris": {"android": "https://dc.lft.to/lastmile_qr_scan", "ios": "https://dc.lft.to/lastmile_qr_scan"}, "fusion_lon": 0.0, "lat": 38.9099245, "bike_id": "145af943de9d5849d097376296811504", "type": "electric_scooter", "is_reserved": 0, "lon": -77.04673066666666}, {"fusion_lat": 0.0, "name": "f90392499f00dccd5dccf49537bbebbb", "is_disabled": 0, "rental_uris": {"android": "https://dc.lft.to/lastmile_qr_scan", "ios": "https://dc.lft.to/lastmile_qr_scan"}, "fusion_lon": 0.0, "lat": 38.9184475, "bike_id": "f90392499f00dccd5dccf49537bbebbb", "type": "electric_scooter", "is_reserved": 0, "lon": -77.02463616666667}, {"fusion_lat": 0.0, "name": "490be3c95ea16369b0f02909fd695577", "is_disabled": 0, "rental_uris": {"android": "https://dc.lft.to/lastmile_qr_scan", "ios": "https://dc.lft.to/lastmile_qr_scan"}, "fusion_lon": 0.0, "lat": 38.9248115, "bike_id": "490be3c95ea16369b0f02909fd695577", "type": "electric_scooter", "is_reserved": 0, "lon": -77.05215033333333}, {"fusion_lat": 0.0, "name": "12e0d9870094a3b5bf5c381ba9d98a0a", "is_disabled": 0, "rental_uris": {"android": "https://dc.lft.to/lastmile_qr_scan", "ios": "https://dc.lft.to/lastmile_qr_scan"}, "fusion_lon": 0.0, "lat": 38.8783305, "bike_id": "12e0d9870094a3b5bf5c381ba9d98a0a", "type": "electric_scooter", "is_reserved": 0, "lon": -76.96323166666667}, {"fusion_lat": 0.0, "name": "07d6921b49eca0759e0435e560503ecc", "is_disabled": 0, "rental_uris": {"android": "https://dc.lft.to/lastmile_qr_scan", "ios": "https://dc.lft.to/lastmile_qr_scan"}, "fusion_lon": 0.0, "lat": 38.80492783333333, "bike_id": "07d6921b49eca0759e0435e560503ecc", "type": "electric_bike", "is_reserved": 0, "lon": -77.10161216666667}, {"fusion_lat": 0.0, "name": "9d4122c1152487c0371e7d534904c94f", "is_disabled": 0, "rental_uris": {"android": "https://dc.lft.to/lastmile_qr_scan", "ios": "https://dc.lft.to/lastmile_qr_scan"}, "fusion_lon": 0.0, "lat": 38.91559916666667, "bike_id": "9d4122c1152487c0371e7d534904c94f", "type": "electric_scooter", "is_reserved": 0, "lon": -77.02232133333334}, {"fusion_lat": 0.0, "name": "1a937b196211484ab2208d7d4de846c4", "is_disabled": 0, "rental_uris": {"android": "https://dc.lft.to/lastmile_qr_scan", "ios": "https://dc.lft.to/lastmile_qr_scan"}, "fusion_lon": 0.0, "lat": 38.921059, "bike_id": "1a937b196211484ab2208d7d4de846c4", "type": "electric_scooter", "is_reserved": 0, "lon": -77.046921}, {"fusion_lat": 0.0, "name": "b76cebc72188d3697cd629b96b74d518", "is_disabled": 0, "rental_uris": {"android": "https://dc.lft.to/lastmile_qr_scan", "ios": "https://dc.lft.to/lastmile_qr_scan"}, "fusion_lon": 0.0, "lat": 38.92060016666667, "bike_id": "b76cebc72188d3697cd629b96b74d518", "type": "electric_scooter", "is_reserved": 0, "lon": -77.03391783333333}, {"fusion_lat": 0.0, "name": "602294ff39de5ae462dff66d79b5c7ff", "is_disabled": 0, "rental_uris": {"android": "https://dc.lft.to/lastmile_qr_scan", "ios": "https://dc.lft.to/lastmile_qr_scan"}, "fusion_lon": 0.0, "lat": 38.912529166666666, "bike_id": "602294ff39de5ae462dff66d79b5c7ff", "type": "electric_scooter", "is_reserved": 0, "lon": -77.0102855}, {"fusion_lat": 0.0, "name": "3d98f776454e6030ee6bf1bb6fd947c4", "is_disabled": 0, "rental_uris": {"android": "https://dc.lft.to/lastmile_qr_scan", "ios": "https://dc.lft.to/lastmile_qr_scan"}, "fusion_lon": 0.0, "lat": 38.956339166666666, "bike_id": "3d98f776454e6030ee6bf1bb6fd947c4", "type": "electric_scooter", "is_reserved": 0, "lon": -77.02424666666667}, {"fusion_lat": 0.0, "name": "52259ef6431fdcbfae2be96451423613", "is_disabled": 0, "rental_uris": {"android": "https://dc.lft.to/lastmile_qr_scan", "ios": "https://dc.lft.to/lastmile_qr_scan"}, "fusion_lon": 0.0, "lat": 38.89581783333333, "bike_id": "52259ef6431fdcbfae2be96451423613", "type": "electric_scooter", "is_reserved": 0, "lon": -77.0218935}, {"fusion_lat": 0.0, "name": "7ec9242689f31a2d45aa265686e53caa", "is_disabled": 0, "rental_uris": {"android": "https://dc.lft.to/lastmile_qr_scan", "ios": "https://dc.lft.to/lastmile_qr_scan"}, "fusion_lon": 0.0, "lat": 38.934745, "bike_id": "7ec9242689f31a2d45aa265686e53caa", "type": "electric_scooter", "is_reserved": 0, "lon": -77.08662183333334}, {"fusion_lat": 0.0, "name": "8623398faa7a8f87e036e40f2f56e532", "is_disabled": 0, "rental_uris": {"android": "https://dc.lft.to/lastmile_qr_scan", "ios": "https://dc.lft.to/lastmile_qr_scan"}, "fusion_lon": 0.0, "lat": 38.8737645, "bike_id": "8623398faa7a8f87e036e40f2f56e532", "type": "electric_scooter", "is_reserved": 0, "lon": -77.00042583333334}, {"fusion_lat": 0.0, "name": "b795df54811032d657d6d462e2396305", "is_disabled": 0, "rental_uris": {"android": "https://dc.lft.to/lastmile_qr_scan", "ios": "https://dc.lft.to/lastmile_qr_scan"}, "fusion_lon": 0.0, "lat": 38.90332133333333, "bike_id": "b795df54811032d657d6d462e2396305", "type": "electric_scooter", "is_reserved": 0, "lon": -77.0449005}, {"fusion_lat": 0.0, "name": "22b4f8c72cb6b45ee08e08eb6b85658a", "is_disabled": 0, "rental_uris": {"android": "https://dc.lft.to/lastmile_qr_scan", "ios": "https://dc.lft.to/lastmile_qr_scan"}, "fusion_lon": 0.0, "lat": 38.9126185, "bike_id": "22b4f8c72cb6b45ee08e08eb6b85658a", "type": "electric_scooter", "is_reserved": 0, "lon": -77.03632083333333}, {"fusion_lat": 0.0, "name": "ca3e0fe5d2b4fad889d6ee3074bbd715", "is_disabled": 0, "rental_uris": {"android": "https://dc.lft.to/lastmile_qr_scan", "ios": "https://dc.lft.to/lastmile_qr_scan"}, "fusion_lon": 0.0, "lat": 38.91779016666667, "bike_id": "ca3e0fe5d2b4fad889d6ee3074bbd715", "type": "electric_scooter", "is_reserved": 0, "lon": -77.03581433333333}, {"fusion_lat": 0.0, "name": "434f8c40cdd03e2eb426378931992f3a", "is_disabled": 0, "rental_uris": {"android": "https://dc.lft.to/lastmile_qr_scan", "ios": "https://dc.lft.to/lastmile_qr_scan"}, "fusion_lon": 0.0, "lat": 38.90710983333334, "bike_id": "434f8c40cdd03e2eb426378931992f3a", "type": "electric_scooter", "is_reserved": 0, "lon": -77.0416735}, {"fusion_lat": 0.0, "name": "ffa0aaa340bc152c1d0c4ace1a9d5e9d", "is_disabled": 0, "rental_uris": {"android": "https://dc.lft.to/lastmile_qr_scan", "ios": "https://dc.lft.to/lastmile_qr_scan"}, "fusion_lon": 0.0, "lat": 38.9249025, "bike_id": "ffa0aaa340bc152c1d0c4ace1a9d5e9d", "type": "electric_scooter", "is_reserved": 0, "lon": -76.9854205}, {"fusion_lat": 0.0, "name": "ba6d18b2669506cd26194c35e4f094bc", "is_disabled": 0, "rental_uris": {"android": "https://dc.lft.to/lastmile_qr_scan", "ios": "https://dc.lft.to/lastmile_qr_scan"}, "fusion_lon": 0.0, "lat": 38.930884666666664, "bike_id": "ba6d18b2669506cd26194c35e4f094bc", "type": "electric_scooter", "is_reserved": 0, "lon": -77.034411}, {"fusion_lat": 0.0, "name": "9df2e84097a1dd68a84d7e16e6ffcdea", "is_disabled": 0, "rental_uris": {"android": "https://dc.lft.to/lastmile_qr_scan", "ios": "https://dc.lft.to/lastmile_qr_scan"}, "fusion_lon": 0.0, "lat": 38.9321495, "bike_id": "9df2e84097a1dd68a84d7e16e6ffcdea", "type": "electric_scooter", "is_reserved": 0, "lon": -77.044148}, {"fusion_lat": 0.0, "name": "ed80cbebb81fddaa0338019d096ab3e8", "is_disabled": 0, "rental_uris": {"android": "https://dc.lft.to/lastmile_qr_scan", "ios": "https://dc.lft.to/lastmile_qr_scan"}, "fusion_lon": 0.0, "lat": 38.90977816666667, "bike_id": "ed80cbebb81fddaa0338019d096ab3e8", "type": "electric_scooter", "is_reserved": 0, "lon": -77.03430933333334}, {"fusion_lat": 0.0, "name": "7a28f16e6d786ff3b7509829fea7c94a", "is_disabled": 0, "rental_uris": {"android": "https://dc.lft.to/lastmile_qr_scan", "ios": "https://dc.lft.to/lastmile_qr_scan"}, "fusion_lon": 0.0, "lat": 38.8357975, "bike_id": "7a28f16e6d786ff3b7509829fea7c94a", "type": "electric_bike", "is_reserved": 0, "lon": -76.99008833333333}, {"fusion_lat": 0.0, "name": "9bc9126b24a2c71e0e454d1ce9bb837c", "is_disabled": 0, "rental_uris": {"android": "https://dc.lft.to/lastmile_qr_scan", "ios": "https://dc.lft.to/lastmile_qr_scan"}, "fusion_lon": 0.0, "lat": 38.900268833333335, "bike_id": "9bc9126b24a2c71e0e454d1ce9bb837c", "type": "electric_scooter", "is_reserved": 0, "lon": -77.01179816666667}, {"fusion_lat": 0.0, "name": "8008acde18c03929b8eabbbe053bd843", "is_disabled": 0, "rental_uris": {"android": "https://dc.lft.to/lastmile_qr_scan", "ios": "https://dc.lft.to/lastmile_qr_scan"}, "fusion_lon": 0.0, "lat": 38.90763833333333, "bike_id": "8008acde18c03929b8eabbbe053bd843", "type": "electric_scooter", "is_reserved": 0, "lon": -77.03852866666666}, {"fusion_lat": 0.0, "name": "b69a9b3d617700aa24edb9eff3af1e1d", "is_disabled": 0, "rental_uris": {"android": "https://dc.lft.to/lastmile_qr_scan", "ios": "https://dc.lft.to/lastmile_qr_scan"}, "fusion_lon": 0.0, "lat": 39.00480233333333, "bike_id": "b69a9b3d617700aa24edb9eff3af1e1d", "type": "electric_bike", "is_reserved": 0, "lon": -77.0218665}, {"fusion_lat": 0.0, "name": "d86049ca0d8c924ef5b18a6359ccb44f", "is_disabled": 0, "rental_uris": {"android": "https://dc.lft.to/lastmile_qr_scan", "ios": "https://dc.lft.to/lastmile_qr_scan"}, "fusion_lon": 0.0, "lat": 38.847573, "bike_id": "d86049ca0d8c924ef5b18a6359ccb44f", "type": "electric_bike", "is_reserved": 0, "lon": -76.96735183333334}, {"fusion_lat": 0.0, "name": "5439358c3a16c87bc25c786272267bb6", "is_disabled": 0, "rental_uris": {"android": "https://dc.lft.to/lastmile_qr_scan", "ios": "https://dc.lft.to/lastmile_qr_scan"}, "fusion_lon": 0.0, "lat": 38.89843483333333, "bike_id": "5439358c3a16c87bc25c786272267bb6", "type": "electric_scooter", "is_reserved": 0, "lon": -76.98164516666667}, {"fusion_lat": 0.0, "name": "42fd366bf2b922d7f2b388c7f4147fce", "is_disabled": 0, "rental_uris": {"android": "https://dc.lft.to/lastmile_qr_scan", "ios": "https://dc.lft.to/lastmile_qr_scan"}, "fusion_lon": 0.0, "lat": 38.96125283333333, "bike_id": "42fd366bf2b922d7f2b388c7f4147fce", "type": "electric_bike", "is_reserved": 0, "lon": -77.03274333333333}, {"fusion_lat": 0.0, "name": "dbdf10f543bd115ea8913f2179c333ad", "is_disabled": 0, "rental_uris": {"android": "https://dc.lft.to/lastmile_qr_scan", "ios": "https://dc.lft.to/lastmile_qr_scan"}, "fusion_lon": 0.0, "lat": 38.87989816666666, "bike_id": "dbdf10f543bd115ea8913f2179c333ad", "type": "electric_bike", "is_reserved": 0, "lon": -76.984216}, {"fusion_lat": 0.0, "name": "5d5070255040c5e6ec7bdb887bc8abde", "is_disabled": 0, "rental_uris": {"android": "https://dc.lft.to/lastmile_qr_scan", "ios": "https://dc.lft.to/lastmile_qr_scan"}, "fusion_lon": 0.0, "lat": 38.91417783333333, "bike_id": "5d5070255040c5e6ec7bdb887bc8abde", "type": "electric_scooter", "is_reserved": 0, "lon": -77.02815833333334}, {"fusion_lat": 0.0, "name": "b189564b3582ad339d01383aebf7c449", "is_disabled": 0, "rental_uris": {"android": "https://dc.lft.to/lastmile_qr_scan", "ios": "https://dc.lft.to/lastmile_qr_scan"}, "fusion_lon": 0.0, "lat": 38.922245833333335, "bike_id": "b189564b3582ad339d01383aebf7c449", "type": "electric_scooter", "is_reserved": 0, "lon": -77.04255866666666}, {"fusion_lat": 0.0, "name": "fdb945d985779cdc52d6ae7f9e37f801", "is_disabled": 0, "rental_uris": {"android": "https://dc.lft.to/lastmile_qr_scan", "ios": "https://dc.lft.to/lastmile_qr_scan"}, "fusion_lon": 0.0, "lat": 38.923080166666665, "bike_id": "fdb945d985779cdc52d6ae7f9e37f801", "type": "electric_scooter", "is_reserved": 0, "lon": -77.04128683333333}, {"fusion_lat": 0.0, "name": "0836d544c495e848059754f67cdada1e", "is_disabled": 0, "rental_uris": {"android": "https://dc.lft.to/lastmile_qr_scan", "ios": "https://dc.lft.to/lastmile_qr_scan"}, "fusion_lon": 0.0, "lat": 38.927372166666665, "bike_id": "0836d544c495e848059754f67cdada1e", "type": "electric_bike", "is_reserved": 0, "lon": -76.9936385}, {"fusion_lat": 0.0, "name": "bd6ae083f04567a4330026aa6d7ca35e", "is_disabled": 0, "rental_uris": {"android": "https://dc.lft.to/lastmile_qr_scan", "ios": "https://dc.lft.to/lastmile_qr_scan"}, "fusion_lon": 0.0, "lat": 38.92928883333333, "bike_id": "bd6ae083f04567a4330026aa6d7ca35e", "type": "electric_scooter", "is_reserved": 0, "lon": -77.03270416666666}, {"fusion_lat": 0.0, "name": "8065e1fad23a943998a4c57237ff4a80", "is_disabled": 0, "rental_uris": {"android": "https://dc.lft.to/lastmile_qr_scan", "ios": "https://dc.lft.to/lastmile_qr_scan"}, "fusion_lon": 0.0, "lat": 38.917100833333336, "bike_id": "8065e1fad23a943998a4c57237ff4a80", "type": "electric_scooter", "is_reserved": 0, "lon": -77.03875633333334}, {"fusion_lat": 0.0, "name": "f6d6892ef94d5119ee6d026c8219893c", "is_disabled": 0, "rental_uris": {"android": "https://dc.lft.to/lastmile_qr_scan", "ios": "https://dc.lft.to/lastmile_qr_scan"}, "fusion_lon": 0.0, "lat": 38.917037, "bike_id": "f6d6892ef94d5119ee6d026c8219893c", "type": "electric_scooter", "is_reserved": 0, "lon": -77.02422983333334}, {"fusion_lat": 0.0, "name": "97b4c39a9614355a037d7c1a1eecd0b8", "is_disabled": 0, "rental_uris": {"android": "https://dc.lft.to/lastmile_qr_scan", "ios": "https://dc.lft.to/lastmile_qr_scan"}, "fusion_lon": 0.0, "lat": 38.9084715, "bike_id": "97b4c39a9614355a037d7c1a1eecd0b8", "type": "electric_scooter", "is_reserved": 0, "lon": -76.99764016666667}, {"fusion_lat": 0.0, "name": "a253b3359201b20cbb453027e540d1d8", "is_disabled": 0, "rental_uris": {"android": "https://dc.lft.to/lastmile_qr_scan", "ios": "https://dc.lft.to/lastmile_qr_scan"}, "fusion_lon": 0.0, "lat": 38.909774166666665, "bike_id": "a253b3359201b20cbb453027e540d1d8", "type": "electric_scooter", "is_reserved": 0, "lon": -77.03208166666667}, {"fusion_lat": 0.0, "name": "6913a0ec0bb5ccb65501a886b5713b2b", "is_disabled": 0, "rental_uris": {"android": "https://dc.lft.to/lastmile_qr_scan", "ios": "https://dc.lft.to/lastmile_qr_scan"}, "fusion_lon": 0.0, "lat": 38.92809716666667, "bike_id": "6913a0ec0bb5ccb65501a886b5713b2b", "type": "electric_scooter", "is_reserved": 0, "lon": -77.04361816666666}, {"fusion_lat": 0.0, "name": "8f68082bb0ecf372eacb70eb929cc324", "is_disabled": 0, "rental_uris": {"android": "https://dc.lft.to/lastmile_qr_scan", "ios": "https://dc.lft.to/lastmile_qr_scan"}, "fusion_lon": 0.0, "lat": 38.901483, "bike_id": "8f68082bb0ecf372eacb70eb929cc324", "type": "electric_scooter", "is_reserved": 0, "lon": -76.93067616666667}, {"fusion_lat": 0.0, "name": "43b61ef792c1921e57a2384724e77fd8", "is_disabled": 0, "rental_uris": {"android": "https://dc.lft.to/lastmile_qr_scan", "ios": "https://dc.lft.to/lastmile_qr_scan"}, "fusion_lon": 0.0, "lat": 38.909471, "bike_id": "43b61ef792c1921e57a2384724e77fd8", "type": "electric_scooter", "is_reserved": 0, "lon": -77.03445}, {"fusion_lat": 0.0, "name": "9e3b7faa7b76cd9b00e3bd23a07cc22f", "is_disabled": 0, "rental_uris": {"android": "https://dc.lft.to/lastmile_qr_scan", "ios": "https://dc.lft.to/lastmile_qr_scan"}, "fusion_lon": 0.0, "lat": 38.93274916666667, "bike_id": "9e3b7faa7b76cd9b00e3bd23a07cc22f", "type": "electric_scooter", "is_reserved": 0, "lon": -77.03638533333333}, {"fusion_lat": 0.0, "name": "2d7465c7f2a67854c6a2d8eb2a44a866", "is_disabled": 0, "rental_uris": {"android": "https://dc.lft.to/lastmile_qr_scan", "ios": "https://dc.lft.to/lastmile_qr_scan"}, "fusion_lon": 0.0, "lat": 38.9698695, "bike_id": "2d7465c7f2a67854c6a2d8eb2a44a866", "type": "electric_scooter", "is_reserved": 0, "lon": -77.01159983333334}, {"fusion_lat": 0.0, "name": "87d4abbfd86fa69ff1ac689ae1689af6", "is_disabled": 0, "rental_uris": {"android": "https://dc.lft.to/lastmile_qr_scan", "ios": "https://dc.lft.to/lastmile_qr_scan"}, "fusion_lon": 0.0, "lat": 38.907211833333335, "bike_id": "87d4abbfd86fa69ff1ac689ae1689af6", "type": "electric_scooter", "is_reserved": 0, "lon": -77.02496883333333}, {"fusion_lat": 0.0, "name": "62d2e806dfac6ef875fb2f7820dd8a8f", "is_disabled": 0, "rental_uris": {"android": "https://dc.lft.to/lastmile_qr_scan", "ios": "https://dc.lft.to/lastmile_qr_scan"}, "fusion_lon": 0.0, "lat": 38.874559166666664, "bike_id": "62d2e806dfac6ef875fb2f7820dd8a8f", "type": "electric_scooter", "is_reserved": 0, "lon": -77.01872066666667}, {"fusion_lat": 0.0, "name": "29e009d805f057beae97c2b12ccc2e77", "is_disabled": 0, "rental_uris": {"android": "https://dc.lft.to/lastmile_qr_scan", "ios": "https://dc.lft.to/lastmile_qr_scan"}, "fusion_lon": 0.0, "lat": 38.9334155, "bike_id": "29e009d805f057beae97c2b12ccc2e77", "type": "electric_scooter", "is_reserved": 0, "lon": -77.061938}, {"fusion_lat": 0.0, "name": "0e96b8d85b4372584de55c726882070c", "is_disabled": 0, "rental_uris": {"android": "https://dc.lft.to/lastmile_qr_scan", "ios": "https://dc.lft.to/lastmile_qr_scan"}, "fusion_lon": 0.0, "lat": 38.892208, "bike_id": "0e96b8d85b4372584de55c726882070c", "type": "electric_scooter", "is_reserved": 0, "lon": -77.04119333333334}, {"fusion_lat": 0.0, "name": "1c20cc90f259faa20e4d2c6563c33521", "is_disabled": 0, "rental_uris": {"android": "https://dc.lft.to/lastmile_qr_scan", "ios": "https://dc.lft.to/lastmile_qr_scan"}, "fusion_lon": 0.0, "lat": 38.902612833333336, "bike_id": "1c20cc90f259faa20e4d2c6563c33521", "type": "electric_scooter", "is_reserved": 0, "lon": -76.99610616666666}, {"fusion_lat": 0.0, "name": "dd13f6618288f75f0624373fed05d347", "is_disabled": 0, "rental_uris": {"android": "https://dc.lft.to/lastmile_qr_scan", "ios": "https://dc.lft.to/lastmile_qr_scan"}, "fusion_lon": 0.0, "lat": 38.88382516666667, "bike_id": "dd13f6618288f75f0624373fed05d347", "type": "electric_scooter", "is_reserved": 0, "lon": -77.02505616666667}, {"fusion_lat": 0.0, "name": "d53ad7757e549733e5c096f9a9e41e9a", "is_disabled": 0, "rental_uris": {"android": "https://dc.lft.to/lastmile_qr_scan", "ios": "https://dc.lft.to/lastmile_qr_scan"}, "fusion_lon": 0.0, "lat": 38.940866, "bike_id": "d53ad7757e549733e5c096f9a9e41e9a", "type": "electric_scooter", "is_reserved": 0, "lon": -77.02318983333333}, {"fusion_lat": 0.0, "name": "b3bcfc9e664a5db1d869b62f4bbc72cf", "is_disabled": 0, "rental_uris": {"android": "https://dc.lft.to/lastmile_qr_scan", "ios": "https://dc.lft.to/lastmile_qr_scan"}, "fusion_lon": 0.0, "lat": 38.895722166666665, "bike_id": "b3bcfc9e664a5db1d869b62f4bbc72cf", "type": "electric_scooter", "is_reserved": 0, "lon": -77.0219455}, {"fusion_lat": 0.0, "name": "d12e30630a68cd1723c1b40842ab2281", "is_disabled": 0, "rental_uris": {"android": "https://dc.lft.to/lastmile_qr_scan", "ios": "https://dc.lft.to/lastmile_qr_scan"}, "fusion_lon": 0.0, "lat": 38.90058283333333, "bike_id": "d12e30630a68cd1723c1b40842ab2281", "type": "electric_scooter", "is_reserved": 0, "lon": -77.02188083333333}, {"fusion_lat": 0.0, "name": "781795669971aa49d916557e3b351b26", "is_disabled": 0, "rental_uris": {"android": "https://dc.lft.to/lastmile_qr_scan", "ios": "https://dc.lft.to/lastmile_qr_scan"}, "fusion_lon": 0.0, "lat": 38.918918833333336, "bike_id": "781795669971aa49d916557e3b351b26", "type": "electric_scooter", "is_reserved": 0, "lon": -77.03188433333334}, {"fusion_lat": 0.0, "name": "179fe20a33338b9e2cc952f2a5280bf2", "is_disabled": 0, "rental_uris": {"android": "https://dc.lft.to/lastmile_qr_scan", "ios": "https://dc.lft.to/lastmile_qr_scan"}, "fusion_lon": 0.0, "lat": 38.90609333333333, "bike_id": "179fe20a33338b9e2cc952f2a5280bf2", "type": "electric_scooter", "is_reserved": 0, "lon": -77.05012983333333}, {"fusion_lat": 0.0, "name": "5249d5ec05511fdbdb942cf7b4ce1d7c", "is_disabled": 0, "rental_uris": {"android": "https://dc.lft.to/lastmile_qr_scan", "ios": "https://dc.lft.to/lastmile_qr_scan"}, "fusion_lon": 0.0, "lat": 38.8802145, "bike_id": "5249d5ec05511fdbdb942cf7b4ce1d7c", "type": "electric_bike", "is_reserved": 0, "lon": -77.0099905}, {"fusion_lat": 0.0, "name": "cdb901340642c761b5c364e2fdff6cab", "is_disabled": 0, "rental_uris": {"android": "https://dc.lft.to/lastmile_qr_scan", "ios": "https://dc.lft.to/lastmile_qr_scan"}, "fusion_lon": 0.0, "lat": 38.923126333333336, "bike_id": "cdb901340642c761b5c364e2fdff6cab", "type": "electric_scooter", "is_reserved": 0, "lon": -77.04622066666667}, {"fusion_lat": 0.0, "name": "423b6c4bbd67a0a23e6fe12745fd03f4", "is_disabled": 0, "rental_uris": {"android": "https://dc.lft.to/lastmile_qr_scan", "ios": "https://dc.lft.to/lastmile_qr_scan"}, "fusion_lon": 0.0, "lat": 38.914154, "bike_id": "423b6c4bbd67a0a23e6fe12745fd03f4", "type": "electric_scooter", "is_reserved": 0, "lon": -77.03935516666667}, {"fusion_lat": 0.0, "name": "e22bbc5b2f0a4f5ff2b8df79239e7cd1", "is_disabled": 0, "rental_uris": {"android": "https://dc.lft.to/lastmile_qr_scan", "ios": "https://dc.lft.to/lastmile_qr_scan"}, "fusion_lon": 0.0, "lat": 38.9197305, "bike_id": "e22bbc5b2f0a4f5ff2b8df79239e7cd1", "type": "electric_scooter", "is_reserved": 0, "lon": -77.04153116666667}, {"fusion_lat": 0.0, "name": "cdda9ad08f3602506ef7980c7f248656", "is_disabled": 0, "rental_uris": {"android": "https://dc.lft.to/lastmile_qr_scan", "ios": "https://dc.lft.to/lastmile_qr_scan"}, "fusion_lon": 0.0, "lat": 38.877484333333335, "bike_id": "cdda9ad08f3602506ef7980c7f248656", "type": "electric_scooter", "is_reserved": 0, "lon": -77.00352933333333}, {"fusion_lat": 0.0, "name": "3ef7577064d28644468f8d77783910cc", "is_disabled": 0, "rental_uris": {"android": "https://dc.lft.to/lastmile_qr_scan", "ios": "https://dc.lft.to/lastmile_qr_scan"}, "fusion_lon": 0.0, "lat": 38.897345666666666, "bike_id": "3ef7577064d28644468f8d77783910cc", "type": "electric_scooter", "is_reserved": 0, "lon": -76.94724566666666}, {"fusion_lat": 0.0, "name": "68d372a699e6619ad5743f6bcbbae25b", "is_disabled": 0, "rental_uris": {"android": "https://dc.lft.to/lastmile_qr_scan", "ios": "https://dc.lft.to/lastmile_qr_scan"}, "fusion_lon": 0.0, "lat": 38.87965616666666, "bike_id": "68d372a699e6619ad5743f6bcbbae25b", "type": "electric_bike", "is_reserved": 0, "lon": -76.916155}, {"fusion_lat": 0.0, "name": "2dfb0c54202080c5a5db607dc95afdbb", "is_disabled": 0, "rental_uris": {"android": "https://dc.lft.to/lastmile_qr_scan", "ios": "https://dc.lft.to/lastmile_qr_scan"}, "fusion_lon": 0.0, "lat": 38.91708033333333, "bike_id": "2dfb0c54202080c5a5db607dc95afdbb", "type": "electric_scooter", "is_reserved": 0, "lon": -76.97662366666667}, {"fusion_lat": 0.0, "name": "c16132ad3b456f500df1256f781b71ae", "is_disabled": 0, "rental_uris": {"android": "https://dc.lft.to/lastmile_qr_scan", "ios": "https://dc.lft.to/lastmile_qr_scan"}, "fusion_lon": 0.0, "lat": 38.9309305, "bike_id": "c16132ad3b456f500df1256f781b71ae", "type": "electric_scooter", "is_reserved": 0, "lon": -77.031173}, {"fusion_lat": 0.0, "name": "2aa6472b040f9db48e43e98b1fea33d3", "is_disabled": 0, "rental_uris": {"android": "https://dc.lft.to/lastmile_qr_scan", "ios": "https://dc.lft.to/lastmile_qr_scan"}, "fusion_lon": 0.0, "lat": 38.91560066666667, "bike_id": "2aa6472b040f9db48e43e98b1fea33d3", "type": "electric_scooter", "is_reserved": 0, "lon": -77.03141583333333}, {"fusion_lat": 0.0, "name": "c3c0bcd71bc455412ed512819071020a", "is_disabled": 0, "rental_uris": {"android": "https://dc.lft.to/lastmile_qr_scan", "ios": "https://dc.lft.to/lastmile_qr_scan"}, "fusion_lon": 0.0, "lat": 38.916824166666665, "bike_id": "c3c0bcd71bc455412ed512819071020a", "type": "electric_scooter", "is_reserved": 0, "lon": -77.0298225}, {"fusion_lat": 0.0, "name": "c29776a85c2a4301433fb9266b60397f", "is_disabled": 0, "rental_uris": {"android": "https://dc.lft.to/lastmile_qr_scan", "ios": "https://dc.lft.to/lastmile_qr_scan"}, "fusion_lon": 0.0, "lat": 38.90567183333334, "bike_id": "c29776a85c2a4301433fb9266b60397f", "type": "electric_scooter", "is_reserved": 0, "lon": -77.02984566666667}, {"fusion_lat": 0.0, "name": "7364106abded9adb1fd1fac533ce8dfd", "is_disabled": 0, "rental_uris": {"android": "https://dc.lft.to/lastmile_qr_scan", "ios": "https://dc.lft.to/lastmile_qr_scan"}, "fusion_lon": 0.0, "lat": 38.94080433333333, "bike_id": "7364106abded9adb1fd1fac533ce8dfd", "type": "electric_scooter", "is_reserved": 0, "lon": -77.02992633333334}, {"fusion_lat": 0.0, "name": "fe91b64c8b439e70cb9b384d72e25430", "is_disabled": 0, "rental_uris": {"android": "https://dc.lft.to/lastmile_qr_scan", "ios": "https://dc.lft.to/lastmile_qr_scan"}, "fusion_lon": 0.0, "lat": 38.9008305, "bike_id": "fe91b64c8b439e70cb9b384d72e25430", "type": "electric_scooter", "is_reserved": 0, "lon": -76.98329666666666}, {"fusion_lat": 0.0, "name": "18ded493d28f0977ba009b621e28af34", "is_disabled": 0, "rental_uris": {"android": "https://dc.lft.to/lastmile_qr_scan", "ios": "https://dc.lft.to/lastmile_qr_scan"}, "fusion_lon": 0.0, "lat": 38.911098, "bike_id": "18ded493d28f0977ba009b621e28af34", "type": "electric_scooter", "is_reserved": 0, "lon": -77.00999716666666}, {"fusion_lat": 0.0, "name": "be1a51d4c9ca831b9999eb08ea9dcfd2", "is_disabled": 0, "rental_uris": {"android": "https://dc.lft.to/lastmile_qr_scan", "ios": "https://dc.lft.to/lastmile_qr_scan"}, "fusion_lon": 0.0, "lat": 38.8960515, "bike_id": "be1a51d4c9ca831b9999eb08ea9dcfd2", "type": "electric_scooter", "is_reserved": 0, "lon": -76.98112266666666}, {"fusion_lat": 0.0, "name": "5d40d4aa8f319c5a3a191809fef32268", "is_disabled": 0, "rental_uris": {"android": "https://dc.lft.to/lastmile_qr_scan", "ios": "https://dc.lft.to/lastmile_qr_scan"}, "fusion_lon": 0.0, "lat": 38.94193966666667, "bike_id": "5d40d4aa8f319c5a3a191809fef32268", "type": "electric_scooter", "is_reserved": 0, "lon": -77.02533383333333}, {"fusion_lat": 0.0, "name": "b883128fd6486a1e717ec09093a217e0", "is_disabled": 0, "rental_uris": {"android": "https://dc.lft.to/lastmile_qr_scan", "ios": "https://dc.lft.to/lastmile_qr_scan"}, "fusion_lon": 0.0, "lat": 38.89218283333334, "bike_id": "b883128fd6486a1e717ec09093a217e0", "type": "electric_scooter", "is_reserved": 0, "lon": -77.02369816666666}, {"fusion_lat": 0.0, "name": "c6d4c2af16dcc887f96f822b9daa5f21", "is_disabled": 0, "rental_uris": {"android": "https://dc.lft.to/lastmile_qr_scan", "ios": "https://dc.lft.to/lastmile_qr_scan"}, "fusion_lon": 0.0, "lat": 38.899689, "bike_id": "c6d4c2af16dcc887f96f822b9daa5f21", "type": "electric_scooter", "is_reserved": 0, "lon": -77.05266933333333}, {"fusion_lat": 0.0, "name": "42a8b42f0c4a29456db043b1506fbc28", "is_disabled": 0, "rental_uris": {"android": "https://dc.lft.to/lastmile_qr_scan", "ios": "https://dc.lft.to/lastmile_qr_scan"}, "fusion_lon": 0.0, "lat": 38.92493, "bike_id": "42a8b42f0c4a29456db043b1506fbc28", "type": "electric_scooter", "is_reserved": 0, "lon": -77.052301}, {"fusion_lat": 0.0, "name": "00ff0d1eff7a61294f69a1f44a65e5cd", "is_disabled": 0, "rental_uris": {"android": "https://dc.lft.to/lastmile_qr_scan", "ios": "https://dc.lft.to/lastmile_qr_scan"}, "fusion_lon": 0.0, "lat": 38.908104, "bike_id": "00ff0d1eff7a61294f69a1f44a65e5cd", "type": "electric_scooter", "is_reserved": 0, "lon": -77.03467116666667}, {"fusion_lat": 0.0, "name": "44021e492d7a0f5d5c9756bb72bed3da", "is_disabled": 0, "rental_uris": {"android": "https://dc.lft.to/lastmile_qr_scan", "ios": "https://dc.lft.to/lastmile_qr_scan"}, "fusion_lon": 0.0, "lat": 38.8901385, "bike_id": "44021e492d7a0f5d5c9756bb72bed3da", "type": "electric_scooter", "is_reserved": 0, "lon": -76.93735466666666}, {"fusion_lat": 0.0, "name": "4f3a456edd53a29e91ee57a653e31965", "is_disabled": 0, "rental_uris": {"android": "https://dc.lft.to/lastmile_qr_scan", "ios": "https://dc.lft.to/lastmile_qr_scan"}, "fusion_lon": 0.0, "lat": 38.901885666666665, "bike_id": "4f3a456edd53a29e91ee57a653e31965", "type": "electric_scooter", "is_reserved": 0, "lon": -77.05050716666666}, {"fusion_lat": 0.0, "name": "495dcee89741462bac39307d7dea1173", "is_disabled": 0, "rental_uris": {"android": "https://dc.lft.to/lastmile_qr_scan", "ios": "https://dc.lft.to/lastmile_qr_scan"}, "fusion_lon": 0.0, "lat": 38.9432425, "bike_id": "495dcee89741462bac39307d7dea1173", "type": "electric_scooter", "is_reserved": 0, "lon": -77.01550166666667}, {"fusion_lat": 0.0, "name": "00fd6f8e7bb2e046e4da0c998e0b6db8", "is_disabled": 0, "rental_uris": {"android": "https://dc.lft.to/lastmile_qr_scan", "ios": "https://dc.lft.to/lastmile_qr_scan"}, "fusion_lon": 0.0, "lat": 38.894736, "bike_id": "00fd6f8e7bb2e046e4da0c998e0b6db8", "type": "electric_scooter", "is_reserved": 0, "lon": -77.02172516666667}, {"fusion_lat": 0.0, "name": "0e310d3664bc899228262df4187d750d", "is_disabled": 0, "rental_uris": {"android": "https://dc.lft.to/lastmile_qr_scan", "ios": "https://dc.lft.to/lastmile_qr_scan"}, "fusion_lon": 0.0, "lat": 38.9192455, "bike_id": "0e310d3664bc899228262df4187d750d", "type": "electric_scooter", "is_reserved": 0, "lon": -77.03182866666667}, {"fusion_lat": 0.0, "name": "06eb793b382e4dca7c2ffaffa4639bc5", "is_disabled": 0, "rental_uris": {"android": "https://dc.lft.to/lastmile_qr_scan", "ios": "https://dc.lft.to/lastmile_qr_scan"}, "fusion_lon": 0.0, "lat": 38.9318295, "bike_id": "06eb793b382e4dca7c2ffaffa4639bc5", "type": "electric_scooter", "is_reserved": 0, "lon": -77.0196245}, {"fusion_lat": 0.0, "name": "19c42ff396e064f5509d4f8b946327a2", "is_disabled": 0, "rental_uris": {"android": "https://dc.lft.to/lastmile_qr_scan", "ios": "https://dc.lft.to/lastmile_qr_scan"}, "fusion_lon": 0.0, "lat": 38.87939766666667, "bike_id": "19c42ff396e064f5509d4f8b946327a2", "type": "electric_scooter", "is_reserved": 0, "lon": -77.00418933333333}, {"fusion_lat": 0.0, "name": "b6047d49b8aea2557342df9e3aded201", "is_disabled": 0, "rental_uris": {"android": "https://dc.lft.to/lastmile_qr_scan", "ios": "https://dc.lft.to/lastmile_qr_scan"}, "fusion_lon": 0.0, "lat": 38.89920133333333, "bike_id": "b6047d49b8aea2557342df9e3aded201", "type": "electric_scooter", "is_reserved": 0, "lon": -77.0036045}, {"fusion_lat": 0.0, "name": "231d2ee56d644dce666569e2fee01beb", "is_disabled": 0, "rental_uris": {"android": "https://dc.lft.to/lastmile_qr_scan", "ios": "https://dc.lft.to/lastmile_qr_scan"}, "fusion_lon": 0.0, "lat": 38.913801666666664, "bike_id": "231d2ee56d644dce666569e2fee01beb", "type": "electric_scooter", "is_reserved": 0, "lon": -77.01800866666666}, {"fusion_lat": 0.0, "name": "362d9916bc200a2336bd2f480f38159c", "is_disabled": 0, "rental_uris": {"android": "https://dc.lft.to/lastmile_qr_scan", "ios": "https://dc.lft.to/lastmile_qr_scan"}, "fusion_lon": 0.0, "lat": 38.92125933333333, "bike_id": "362d9916bc200a2336bd2f480f38159c", "type": "electric_scooter", "is_reserved": 0, "lon": -77.04384433333334}, {"fusion_lat": 0.0, "name": "caa5c256fe46f115435a746abbc091e2", "is_disabled": 0, "rental_uris": {"android": "https://dc.lft.to/lastmile_qr_scan", "ios": "https://dc.lft.to/lastmile_qr_scan"}, "fusion_lon": 0.0, "lat": 38.926778666666664, "bike_id": "caa5c256fe46f115435a746abbc091e2", "type": "electric_scooter", "is_reserved": 0, "lon": -77.030959}, {"fusion_lat": 0.0, "name": "c6ec8c39ff210ba053dc5b9ba87d9ee0", "is_disabled": 0, "rental_uris": {"android": "https://dc.lft.to/lastmile_qr_scan", "ios": "https://dc.lft.to/lastmile_qr_scan"}, "fusion_lon": 0.0, "lat": 38.930696166666664, "bike_id": "c6ec8c39ff210ba053dc5b9ba87d9ee0", "type": "electric_scooter", "is_reserved": 0, "lon": -77.0227805}, {"fusion_lat": 0.0, "name": "f2caa6a350f338093ce4f4adb281a9b1", "is_disabled": 0, "rental_uris": {"android": "https://dc.lft.to/lastmile_qr_scan", "ios": "https://dc.lft.to/lastmile_qr_scan"}, "fusion_lon": 0.0, "lat": 38.95247033333333, "bike_id": "f2caa6a350f338093ce4f4adb281a9b1", "type": "electric_scooter", "is_reserved": 0, "lon": -77.02381433333333}, {"fusion_lat": 0.0, "name": "a08c260f1e413713d02302731bd277e0", "is_disabled": 0, "rental_uris": {"android": "https://dc.lft.to/lastmile_qr_scan", "ios": "https://dc.lft.to/lastmile_qr_scan"}, "fusion_lon": 0.0, "lat": 38.916744666666666, "bike_id": "a08c260f1e413713d02302731bd277e0", "type": "electric_scooter", "is_reserved": 0, "lon": -77.02614883333334}, {"fusion_lat": 0.0, "name": "9d280f328305875efc2773d270900b79", "is_disabled": 0, "rental_uris": {"android": "https://dc.lft.to/lastmile_qr_scan", "ios": "https://dc.lft.to/lastmile_qr_scan"}, "fusion_lon": 0.0, "lat": 38.8971795, "bike_id": "9d280f328305875efc2773d270900b79", "type": "electric_scooter", "is_reserved": 0, "lon": -77.00798733333333}, {"fusion_lat": 0.0, "name": "35bb2eaebf371869df695fb7986daf00", "is_disabled": 0, "rental_uris": {"android": "https://dc.lft.to/lastmile_qr_scan", "ios": "https://dc.lft.to/lastmile_qr_scan"}, "fusion_lon": 0.0, "lat": 38.92975233333333, "bike_id": "35bb2eaebf371869df695fb7986daf00", "type": "electric_scooter", "is_reserved": 0, "lon": -77.04186416666667}, {"fusion_lat": 0.0, "name": "41a17ef7fd47cc19b6326bb0ddae24f3", "is_disabled": 0, "rental_uris": {"android": "https://dc.lft.to/lastmile_qr_scan", "ios": "https://dc.lft.to/lastmile_qr_scan"}, "fusion_lon": 0.0, "lat": 38.890154833333334, "bike_id": "41a17ef7fd47cc19b6326bb0ddae24f3", "type": "electric_scooter", "is_reserved": 0, "lon": -76.9373655}, {"fusion_lat": 0.0, "name": "bb56c077756cdef4704b1843bfcf8595", "is_disabled": 0, "rental_uris": {"android": "https://dc.lft.to/lastmile_qr_scan", "ios": "https://dc.lft.to/lastmile_qr_scan"}, "fusion_lon": 0.0, "lat": 38.921663, "bike_id": "bb56c077756cdef4704b1843bfcf8595", "type": "electric_scooter", "is_reserved": 0, "lon": -77.0424445}, {"fusion_lat": 0.0, "name": "7f49c50afad07cb9694939517682cfd5", "is_disabled": 0, "rental_uris": {"android": "https://dc.lft.to/lastmile_qr_scan", "ios": "https://dc.lft.to/lastmile_qr_scan"}, "fusion_lon": 0.0, "lat": 38.9165075, "bike_id": "7f49c50afad07cb9694939517682cfd5", "type": "electric_scooter", "is_reserved": 0, "lon": -77.00955766666667}, {"fusion_lat": 0.0, "name": "a83b251995f3e9a224c29b61bcd4d6be", "is_disabled": 0, "rental_uris": {"android": "https://dc.lft.to/lastmile_qr_scan", "ios": "https://dc.lft.to/lastmile_qr_scan"}, "fusion_lon": 0.0, "lat": 38.903903666666665, "bike_id": "a83b251995f3e9a224c29b61bcd4d6be", "type": "electric_scooter", "is_reserved": 0, "lon": -77.01763033333333}, {"fusion_lat": 0.0, "name": "150e372e1e4aef2b0ca32942e7395a02", "is_disabled": 0, "rental_uris": {"android": "https://dc.lft.to/lastmile_qr_scan", "ios": "https://dc.lft.to/lastmile_qr_scan"}, "fusion_lon": 0.0, "lat": 38.901182166666665, "bike_id": "150e372e1e4aef2b0ca32942e7395a02", "type": "electric_scooter", "is_reserved": 0, "lon": -77.02309183333334}, {"fusion_lat": 0.0, "name": "4cbab6e32939c3ec0257d621c69b4ac0", "is_disabled": 0, "rental_uris": {"android": "https://dc.lft.to/lastmile_qr_scan", "ios": "https://dc.lft.to/lastmile_qr_scan"}, "fusion_lon": 0.0, "lat": 38.9050115, "bike_id": "4cbab6e32939c3ec0257d621c69b4ac0", "type": "electric_scooter", "is_reserved": 0, "lon": -77.0268395}, {"fusion_lat": 0.0, "name": "91e85565c385d498821b87df741ad7d8", "is_disabled": 0, "rental_uris": {"android": "https://dc.lft.to/lastmile_qr_scan", "ios": "https://dc.lft.to/lastmile_qr_scan"}, "fusion_lon": 0.0, "lat": 38.929600666666666, "bike_id": "91e85565c385d498821b87df741ad7d8", "type": "electric_scooter", "is_reserved": 0, "lon": -77.03100116666667}, {"fusion_lat": 0.0, "name": "33c9fe7dcf8e8cacf6e7f52025ca040f", "is_disabled": 0, "rental_uris": {"android": "https://dc.lft.to/lastmile_qr_scan", "ios": "https://dc.lft.to/lastmile_qr_scan"}, "fusion_lon": 0.0, "lat": 38.912539833333334, "bike_id": "33c9fe7dcf8e8cacf6e7f52025ca040f", "type": "electric_scooter", "is_reserved": 0, "lon": -77.036356}, {"fusion_lat": 0.0, "name": "573b88a5cbfbf97a47832263ae16e985", "is_disabled": 0, "rental_uris": {"android": "https://dc.lft.to/lastmile_qr_scan", "ios": "https://dc.lft.to/lastmile_qr_scan"}, "fusion_lon": 0.0, "lat": 38.88767033333333, "bike_id": "573b88a5cbfbf97a47832263ae16e985", "type": "electric_scooter", "is_reserved": 0, "lon": -77.028629}, {"fusion_lat": 0.0, "name": "4b0a9a800c70b037af87471a787c5845", "is_disabled": 0, "rental_uris": {"android": "https://dc.lft.to/lastmile_qr_scan", "ios": "https://dc.lft.to/lastmile_qr_scan"}, "fusion_lon": 0.0, "lat": 38.91540716666667, "bike_id": "4b0a9a800c70b037af87471a787c5845", "type": "electric_scooter", "is_reserved": 0, "lon": -77.046221}, {"fusion_lat": 0.0, "name": "a9738e59ab171600a7367939c77f823b", "is_disabled": 0, "rental_uris": {"android": "https://dc.lft.to/lastmile_qr_scan", "ios": "https://dc.lft.to/lastmile_qr_scan"}, "fusion_lon": 0.0, "lat": 38.90171766666667, "bike_id": "a9738e59ab171600a7367939c77f823b", "type": "electric_scooter", "is_reserved": 0, "lon": -77.02487783333333}, {"fusion_lat": 0.0, "name": "617a1a7d3574c8fc58bcb7035f81f1d3", "is_disabled": 0, "rental_uris": {"android": "https://dc.lft.to/lastmile_qr_scan", "ios": "https://dc.lft.to/lastmile_qr_scan"}, "fusion_lon": 0.0, "lat": 38.916792666666666, "bike_id": "617a1a7d3574c8fc58bcb7035f81f1d3", "type": "electric_scooter", "is_reserved": 0, "lon": -77.03687366666666}, {"fusion_lat": 0.0, "name": "a6438220703dfc21614f3e16a028397e", "is_disabled": 0, "rental_uris": {"android": "https://dc.lft.to/lastmile_qr_scan", "ios": "https://dc.lft.to/lastmile_qr_scan"}, "fusion_lon": 0.0, "lat": 38.914074, "bike_id": "a6438220703dfc21614f3e16a028397e", "type": "electric_scooter", "is_reserved": 0, "lon": -77.04249183333333}, {"fusion_lat": 0.0, "name": "f899f1a92ca8c04a188c0423ee6df7a9", "is_disabled": 0, "rental_uris": {"android": "https://dc.lft.to/lastmile_qr_scan", "ios": "https://dc.lft.to/lastmile_qr_scan"}, "fusion_lon": 0.0, "lat": 38.90538216666667, "bike_id": "f899f1a92ca8c04a188c0423ee6df7a9", "type": "electric_scooter", "is_reserved": 0, "lon": -76.98191833333334}, {"fusion_lat": 0.0, "name": "0c3f6f01ec70f0da4b1dd455c3a12367", "is_disabled": 0, "rental_uris": {"android": "https://dc.lft.to/lastmile_qr_scan", "ios": "https://dc.lft.to/lastmile_qr_scan"}, "fusion_lon": 0.0, "lat": 38.8873235, "bike_id": "0c3f6f01ec70f0da4b1dd455c3a12367", "type": "electric_scooter", "is_reserved": 0, "lon": -77.0151455}, {"fusion_lat": 0.0, "name": "e6adaa583017f1be07032b06d277d7bf", "is_disabled": 0, "rental_uris": {"android": "https://dc.lft.to/lastmile_qr_scan", "ios": "https://dc.lft.to/lastmile_qr_scan"}, "fusion_lon": 0.0, "lat": 38.86512916666667, "bike_id": "e6adaa583017f1be07032b06d277d7bf", "type": "electric_bike", "is_reserved": 0, "lon": -77.12937666666667}, {"fusion_lat": 0.0, "name": "91505228bf0877cc57c67059c281d35b", "is_disabled": 0, "rental_uris": {"android": "https://dc.lft.to/lastmile_qr_scan", "ios": "https://dc.lft.to/lastmile_qr_scan"}, "fusion_lon": 0.0, "lat": 38.898438, "bike_id": "91505228bf0877cc57c67059c281d35b", "type": "electric_scooter", "is_reserved": 0, "lon": -77.02477783333333}, {"fusion_lat": 0.0, "name": "edf9d67b2a2081098378ce10fdff2c77", "is_disabled": 0, "rental_uris": {"android": "https://dc.lft.to/lastmile_qr_scan", "ios": "https://dc.lft.to/lastmile_qr_scan"}, "fusion_lon": 0.0, "lat": 38.924598833333334, "bike_id": "edf9d67b2a2081098378ce10fdff2c77", "type": "electric_scooter", "is_reserved": 0, "lon": -77.05237683333333}, {"fusion_lat": 0.0, "name": "a71231c23d67e467ceff55d15b0dd117", "is_disabled": 0, "rental_uris": {"android": "https://dc.lft.to/lastmile_qr_scan", "ios": "https://dc.lft.to/lastmile_qr_scan"}, "fusion_lon": 0.0, "lat": 38.92325833333334, "bike_id": "a71231c23d67e467ceff55d15b0dd117", "type": "electric_scooter", "is_reserved": 0, "lon": -77.05679133333334}, {"fusion_lat": 0.0, "name": "128175a3d4b1212bb179fd6da6919991", "is_disabled": 0, "rental_uris": {"android": "https://dc.lft.to/lastmile_qr_scan", "ios": "https://dc.lft.to/lastmile_qr_scan"}, "fusion_lon": 0.0, "lat": 38.90658216666667, "bike_id": "128175a3d4b1212bb179fd6da6919991", "type": "electric_scooter", "is_reserved": 0, "lon": -76.99972266666667}, {"fusion_lat": 0.0, "name": "3571363e566cc3be674a9b1b31f5d05a", "is_disabled": 0, "rental_uris": {"android": "https://dc.lft.to/lastmile_qr_scan", "ios": "https://dc.lft.to/lastmile_qr_scan"}, "fusion_lon": 0.0, "lat": 38.909504166666665, "bike_id": "3571363e566cc3be674a9b1b31f5d05a", "type": "electric_scooter", "is_reserved": 0, "lon": -76.987668}, {"fusion_lat": 0.0, "name": "72524f41c7324da51ff3440c21bd6f66", "is_disabled": 0, "rental_uris": {"android": "https://dc.lft.to/lastmile_qr_scan", "ios": "https://dc.lft.to/lastmile_qr_scan"}, "fusion_lon": 0.0, "lat": 38.90024983333333, "bike_id": "72524f41c7324da51ff3440c21bd6f66", "type": "electric_scooter", "is_reserved": 0, "lon": -76.97401266666667}, {"fusion_lat": 0.0, "name": "f4fa8b23b7dda582c2d3aff4664b4e34", "is_disabled": 0, "rental_uris": {"android": "https://dc.lft.to/lastmile_qr_scan", "ios": "https://dc.lft.to/lastmile_qr_scan"}, "fusion_lon": 0.0, "lat": 38.915321166666665, "bike_id": "f4fa8b23b7dda582c2d3aff4664b4e34", "type": "electric_scooter", "is_reserved": 0, "lon": -77.01221}, {"fusion_lat": 0.0, "name": "5fe2e4d242ab63308c85a16ffb3ee97b", "is_disabled": 0, "rental_uris": {"android": "https://dc.lft.to/lastmile_qr_scan", "ios": "https://dc.lft.to/lastmile_qr_scan"}, "fusion_lon": 0.0, "lat": 38.916676833333334, "bike_id": "5fe2e4d242ab63308c85a16ffb3ee97b", "type": "electric_scooter", "is_reserved": 0, "lon": -77.02301333333334}, {"fusion_lat": 0.0, "name": "59f50422602c416fd24ce14203adfbd7", "is_disabled": 0, "rental_uris": {"android": "https://dc.lft.to/lastmile_qr_scan", "ios": "https://dc.lft.to/lastmile_qr_scan"}, "fusion_lon": 0.0, "lat": 38.922287, "bike_id": "59f50422602c416fd24ce14203adfbd7", "type": "electric_bike", "is_reserved": 0, "lon": -77.023409}, {"fusion_lat": 0.0, "name": "8f46110afa7b00d4d4276cb18582278b", "is_disabled": 0, "rental_uris": {"android": "https://dc.lft.to/lastmile_qr_scan", "ios": "https://dc.lft.to/lastmile_qr_scan"}, "fusion_lon": 0.0, "lat": 38.91988933333333, "bike_id": "8f46110afa7b00d4d4276cb18582278b", "type": "electric_scooter", "is_reserved": 0, "lon": -77.02382933333334}, {"fusion_lat": 0.0, "name": "7cc2b1884589ca608397163102e58a4e", "is_disabled": 0, "rental_uris": {"android": "https://dc.lft.to/lastmile_qr_scan", "ios": "https://dc.lft.to/lastmile_qr_scan"}, "fusion_lon": 0.0, "lat": 39.03602033333333, "bike_id": "7cc2b1884589ca608397163102e58a4e", "type": "electric_bike", "is_reserved": 0, "lon": -77.05549566666667}, {"fusion_lat": 0.0, "name": "fc6381be9571f723e3db2fb7bf64bdff", "is_disabled": 0, "rental_uris": {"android": "https://dc.lft.to/lastmile_qr_scan", "ios": "https://dc.lft.to/lastmile_qr_scan"}, "fusion_lon": 0.0, "lat": 38.91700783333334, "bike_id": "fc6381be9571f723e3db2fb7bf64bdff", "type": "electric_scooter", "is_reserved": 0, "lon": -77.02411833333333}, {"fusion_lat": 0.0, "name": "9f094c7025a4fcd8e571b43b31195387", "is_disabled": 0, "rental_uris": {"android": "https://dc.lft.to/lastmile_qr_scan", "ios": "https://dc.lft.to/lastmile_qr_scan"}, "fusion_lon": 0.0, "lat": 38.91640016666667, "bike_id": "9f094c7025a4fcd8e571b43b31195387", "type": "electric_scooter", "is_reserved": 0, "lon": -77.050583}, {"fusion_lat": 0.0, "name": "5178e96afab95069f84127557a53af01", "is_disabled": 0, "rental_uris": {"android": "https://dc.lft.to/lastmile_qr_scan", "ios": "https://dc.lft.to/lastmile_qr_scan"}, "fusion_lon": 0.0, "lat": 38.906871333333335, "bike_id": "5178e96afab95069f84127557a53af01", "type": "electric_scooter", "is_reserved": 0, "lon": -77.0377905}, {"fusion_lat": 0.0, "name": "31910951f93b39c868e94ac36510e523", "is_disabled": 0, "rental_uris": {"android": "https://dc.lft.to/lastmile_qr_scan", "ios": "https://dc.lft.to/lastmile_qr_scan"}, "fusion_lon": 0.0, "lat": 38.907647833333336, "bike_id": "31910951f93b39c868e94ac36510e523", "type": "electric_scooter", "is_reserved": 0, "lon": -77.03588516666667}, {"fusion_lat": 0.0, "name": "eac0b4c492c505126b3cf508c277541e", "is_disabled": 0, "rental_uris": {"android": "https://dc.lft.to/lastmile_qr_scan", "ios": "https://dc.lft.to/lastmile_qr_scan"}, "fusion_lon": 0.0, "lat": 38.90507016666667, "bike_id": "eac0b4c492c505126b3cf508c277541e", "type": "electric_scooter", "is_reserved": 0, "lon": -77.06011683333334}, {"fusion_lat": 0.0, "name": "e5f88a35c41ec850a308d9d1867bdf12", "is_disabled": 0, "rental_uris": {"android": "https://dc.lft.to/lastmile_qr_scan", "ios": "https://dc.lft.to/lastmile_qr_scan"}, "fusion_lon": 0.0, "lat": 38.9156, "bike_id": "e5f88a35c41ec850a308d9d1867bdf12", "type": "electric_scooter", "is_reserved": 0, "lon": -77.03139333333333}, {"fusion_lat": 0.0, "name": "3589a0da6c8ea34c1a6ddd7b655a0624", "is_disabled": 0, "rental_uris": {"android": "https://dc.lft.to/lastmile_qr_scan", "ios": "https://dc.lft.to/lastmile_qr_scan"}, "fusion_lon": 0.0, "lat": 38.9111925, "bike_id": "3589a0da6c8ea34c1a6ddd7b655a0624", "type": "electric_scooter", "is_reserved": 0, "lon": -77.0325275}, {"fusion_lat": 0.0, "name": "b360346b7301d55ecce6491067c10801", "is_disabled": 0, "rental_uris": {"android": "https://dc.lft.to/lastmile_qr_scan", "ios": "https://dc.lft.to/lastmile_qr_scan"}, "fusion_lon": 0.0, "lat": 38.88623533333333, "bike_id": "b360346b7301d55ecce6491067c10801", "type": "electric_scooter", "is_reserved": 0, "lon": -77.02831433333333}, {"fusion_lat": 0.0, "name": "ce13f286d879f7f9a352f718335be259", "is_disabled": 0, "rental_uris": {"android": "https://dc.lft.to/lastmile_qr_scan", "ios": "https://dc.lft.to/lastmile_qr_scan"}, "fusion_lon": 0.0, "lat": 38.892195666666666, "bike_id": "ce13f286d879f7f9a352f718335be259", "type": "electric_scooter", "is_reserved": 0, "lon": -77.04325283333333}, {"fusion_lat": 0.0, "name": "1b38d27c1ac51e13442d9aac69781b61", "is_disabled": 0, "rental_uris": {"android": "https://dc.lft.to/lastmile_qr_scan", "ios": "https://dc.lft.to/lastmile_qr_scan"}, "fusion_lon": 0.0, "lat": 38.923464333333335, "bike_id": "1b38d27c1ac51e13442d9aac69781b61", "type": "electric_scooter", "is_reserved": 0, "lon": -77.03908833333334}, {"fusion_lat": 0.0, "name": "1a8c5214251d3e946fddc9d0b1767be7", "is_disabled": 0, "rental_uris": {"android": "https://dc.lft.to/lastmile_qr_scan", "ios": "https://dc.lft.to/lastmile_qr_scan"}, "fusion_lon": 0.0, "lat": 38.90473766666667, "bike_id": "1a8c5214251d3e946fddc9d0b1767be7", "type": "electric_scooter", "is_reserved": 0, "lon": -76.95201333333333}, {"fusion_lat": 0.0, "name": "df051dac2ac71b0a18496cfabce9bf12", "is_disabled": 0, "rental_uris": {"android": "https://dc.lft.to/lastmile_qr_scan", "ios": "https://dc.lft.to/lastmile_qr_scan"}, "fusion_lon": 0.0, "lat": 38.91703, "bike_id": "df051dac2ac71b0a18496cfabce9bf12", "type": "electric_scooter", "is_reserved": 0, "lon": -77.041495}, {"fusion_lat": 0.0, "name": "6dcb466916414d0c0c083b81c9615265", "is_disabled": 0, "rental_uris": {"android": "https://dc.lft.to/lastmile_qr_scan", "ios": "https://dc.lft.to/lastmile_qr_scan"}, "fusion_lon": 0.0, "lat": 38.9026635, "bike_id": "6dcb466916414d0c0c083b81c9615265", "type": "electric_scooter", "is_reserved": 0, "lon": -77.0363085}, {"fusion_lat": 0.0, "name": "3f857767e2418e2d1da9ecd58745ae9a", "is_disabled": 0, "rental_uris": {"android": "https://dc.lft.to/lastmile_qr_scan", "ios": "https://dc.lft.to/lastmile_qr_scan"}, "fusion_lon": 0.0, "lat": 38.922086166666666, "bike_id": "3f857767e2418e2d1da9ecd58745ae9a", "type": "electric_bike", "is_reserved": 0, "lon": -77.081908}, {"fusion_lat": 0.0, "name": "ed6d9f99372d85b0f5f0186d767d081a", "is_disabled": 0, "rental_uris": {"android": "https://dc.lft.to/lastmile_qr_scan", "ios": "https://dc.lft.to/lastmile_qr_scan"}, "fusion_lon": 0.0, "lat": 38.9427075, "bike_id": "ed6d9f99372d85b0f5f0186d767d081a", "type": "electric_scooter", "is_reserved": 0, "lon": -77.0326215}, {"fusion_lat": 0.0, "name": "5cf046bf9d395913bc0c6c954b02763a", "is_disabled": 0, "rental_uris": {"android": "https://dc.lft.to/lastmile_qr_scan", "ios": "https://dc.lft.to/lastmile_qr_scan"}, "fusion_lon": 0.0, "lat": 38.934844166666664, "bike_id": "5cf046bf9d395913bc0c6c954b02763a", "type": "electric_scooter", "is_reserved": 0, "lon": -77.07266333333334}, {"fusion_lat": 0.0, "name": "18b6d652b416aca05acadc5f314f7b89", "is_disabled": 0, "rental_uris": {"android": "https://dc.lft.to/lastmile_qr_scan", "ios": "https://dc.lft.to/lastmile_qr_scan"}, "fusion_lon": 0.0, "lat": 38.905850666666666, "bike_id": "18b6d652b416aca05acadc5f314f7b89", "type": "electric_scooter", "is_reserved": 0, "lon": -77.01614116666667}, {"fusion_lat": 0.0, "name": "1811888891458025b21a39bbe1901ba0", "is_disabled": 0, "rental_uris": {"android": "https://dc.lft.to/lastmile_qr_scan", "ios": "https://dc.lft.to/lastmile_qr_scan"}, "fusion_lon": 0.0, "lat": 38.92552766666667, "bike_id": "1811888891458025b21a39bbe1901ba0", "type": "electric_scooter", "is_reserved": 0, "lon": -77.035463}, {"fusion_lat": 0.0, "name": "6e595c3982946c626f4a69d70396e27a", "is_disabled": 0, "rental_uris": {"android": "https://dc.lft.to/lastmile_qr_scan", "ios": "https://dc.lft.to/lastmile_qr_scan"}, "fusion_lon": 0.0, "lat": 38.90459966666667, "bike_id": "6e595c3982946c626f4a69d70396e27a", "type": "electric_bike", "is_reserved": 0, "lon": -77.0033465}, {"fusion_lat": 0.0, "name": "4f76d866d390207eb06f63eb6e8cb972", "is_disabled": 0, "rental_uris": {"android": "https://dc.lft.to/lastmile_qr_scan", "ios": "https://dc.lft.to/lastmile_qr_scan"}, "fusion_lon": 0.0, "lat": 38.92493616666667, "bike_id": "4f76d866d390207eb06f63eb6e8cb972", "type": "electric_scooter", "is_reserved": 0, "lon": -77.05229433333334}, {"fusion_lat": 0.0, "name": "a97b68e5fea357fec52037864a2e9ad0", "is_disabled": 0, "rental_uris": {"android": "https://dc.lft.to/lastmile_qr_scan", "ios": "https://dc.lft.to/lastmile_qr_scan"}, "fusion_lon": 0.0, "lat": 38.955113, "bike_id": "a97b68e5fea357fec52037864a2e9ad0", "type": "electric_scooter", "is_reserved": 0, "lon": -77.028461}, {"fusion_lat": 0.0, "name": "a5ae22ee72f477db0c7e864535d9a18c", "is_disabled": 0, "rental_uris": {"android": "https://dc.lft.to/lastmile_qr_scan", "ios": "https://dc.lft.to/lastmile_qr_scan"}, "fusion_lon": 0.0, "lat": 38.884274166666664, "bike_id": "a5ae22ee72f477db0c7e864535d9a18c", "type": "electric_scooter", "is_reserved": 0, "lon": -76.99611083333333}, {"fusion_lat": 0.0, "name": "45584342f94185e3721489487ae07256", "is_disabled": 0, "rental_uris": {"android": "https://dc.lft.to/lastmile_qr_scan", "ios": "https://dc.lft.to/lastmile_qr_scan"}, "fusion_lon": 0.0, "lat": 38.890158666666665, "bike_id": "45584342f94185e3721489487ae07256", "type": "electric_scooter", "is_reserved": 0, "lon": -76.9374065}, {"fusion_lat": 0.0, "name": "df664d2ef2aa19e2ff1769ecdd6fcfa1", "is_disabled": 0, "rental_uris": {"android": "https://dc.lft.to/lastmile_qr_scan", "ios": "https://dc.lft.to/lastmile_qr_scan"}, "fusion_lon": 0.0, "lat": 38.928351, "bike_id": "df664d2ef2aa19e2ff1769ecdd6fcfa1", "type": "electric_scooter", "is_reserved": 0, "lon": -76.99343883333333}, {"fusion_lat": 0.0, "name": "cbd94ec28abd210a2edceb279dfe3cc1", "is_disabled": 0, "rental_uris": {"android": "https://dc.lft.to/lastmile_qr_scan", "ios": "https://dc.lft.to/lastmile_qr_scan"}, "fusion_lon": 0.0, "lat": 38.910172, "bike_id": "cbd94ec28abd210a2edceb279dfe3cc1", "type": "electric_scooter", "is_reserved": 0, "lon": -77.069077}, {"fusion_lat": 0.0, "name": "51ae6ba39cee6e2a68e74e0c8691211d", "is_disabled": 0, "rental_uris": {"android": "https://dc.lft.to/lastmile_qr_scan", "ios": "https://dc.lft.to/lastmile_qr_scan"}, "fusion_lon": 0.0, "lat": 38.90761166666667, "bike_id": "51ae6ba39cee6e2a68e74e0c8691211d", "type": "electric_scooter", "is_reserved": 0, "lon": -77.00036616666667}, {"fusion_lat": 0.0, "name": "532105c49376de5358a47d404794de3b", "is_disabled": 0, "rental_uris": {"android": "https://dc.lft.to/lastmile_qr_scan", "ios": "https://dc.lft.to/lastmile_qr_scan"}, "fusion_lon": 0.0, "lat": 38.932520833333335, "bike_id": "532105c49376de5358a47d404794de3b", "type": "electric_scooter", "is_reserved": 0, "lon": -77.0384835}, {"fusion_lat": 0.0, "name": "80f8dbc388cabf0101798eea1ebd4c9f", "is_disabled": 0, "rental_uris": {"android": "https://dc.lft.to/lastmile_qr_scan", "ios": "https://dc.lft.to/lastmile_qr_scan"}, "fusion_lon": 0.0, "lat": 38.93059733333333, "bike_id": "80f8dbc388cabf0101798eea1ebd4c9f", "type": "electric_scooter", "is_reserved": 0, "lon": -77.03177566666666}, {"fusion_lat": 0.0, "name": "9d0b57fd8069c29cc1d57140235913b9", "is_disabled": 0, "rental_uris": {"android": "https://dc.lft.to/lastmile_qr_scan", "ios": "https://dc.lft.to/lastmile_qr_scan"}, "fusion_lon": 0.0, "lat": 38.93757766666667, "bike_id": "9d0b57fd8069c29cc1d57140235913b9", "type": "electric_bike", "is_reserved": 0, "lon": -76.95823116666666}, {"fusion_lat": 0.0, "name": "c93a05b691fb15a2b22d37d18f9c5074", "is_disabled": 0, "rental_uris": {"android": "https://dc.lft.to/lastmile_qr_scan", "ios": "https://dc.lft.to/lastmile_qr_scan"}, "fusion_lon": 0.0, "lat": 38.89246216666667, "bike_id": "c93a05b691fb15a2b22d37d18f9c5074", "type": "electric_scooter", "is_reserved": 0, "lon": -77.03959916666666}, {"fusion_lat": 0.0, "name": "e8938d9d0358673b2ec83bcd62298ccc", "is_disabled": 0, "rental_uris": {"android": "https://dc.lft.to/lastmile_qr_scan", "ios": "https://dc.lft.to/lastmile_qr_scan"}, "fusion_lon": 0.0, "lat": 38.91449883333333, "bike_id": "e8938d9d0358673b2ec83bcd62298ccc", "type": "electric_scooter", "is_reserved": 0, "lon": -77.04481466666667}, {"fusion_lat": 0.0, "name": "a8f474f9580a34ab215ea2e74ae25f8e", "is_disabled": 0, "rental_uris": {"android": "https://dc.lft.to/lastmile_qr_scan", "ios": "https://dc.lft.to/lastmile_qr_scan"}, "fusion_lon": 0.0, "lat": 38.908443166666665, "bike_id": "a8f474f9580a34ab215ea2e74ae25f8e", "type": "electric_scooter", "is_reserved": 0, "lon": -77.0467095}, {"fusion_lat": 0.0, "name": "a32f55412ff83639e773e2831d935c71", "is_disabled": 0, "rental_uris": {"android": "https://dc.lft.to/lastmile_qr_scan", "ios": "https://dc.lft.to/lastmile_qr_scan"}, "fusion_lon": 0.0, "lat": 38.91551783333333, "bike_id": "a32f55412ff83639e773e2831d935c71", "type": "electric_scooter", "is_reserved": 0, "lon": -77.03124666666666}, {"fusion_lat": 0.0, "name": "d9216b9c641a4001b0b76b12f940a8c4", "is_disabled": 0, "rental_uris": {"android": "https://dc.lft.to/lastmile_qr_scan", "ios": "https://dc.lft.to/lastmile_qr_scan"}, "fusion_lon": 0.0, "lat": 38.92197616666667, "bike_id": "d9216b9c641a4001b0b76b12f940a8c4", "type": "electric_scooter", "is_reserved": 0, "lon": -77.08093583333333}, {"fusion_lat": 0.0, "name": "1700f35911a1e4df1501bdd7f589c303", "is_disabled": 0, "rental_uris": {"android": "https://dc.lft.to/lastmile_qr_scan", "ios": "https://dc.lft.to/lastmile_qr_scan"}, "fusion_lon": 0.0, "lat": 38.950783666666666, "bike_id": "1700f35911a1e4df1501bdd7f589c303", "type": "electric_bike", "is_reserved": 0, "lon": -77.01195883333334}, {"fusion_lat": 0.0, "name": "42ef0164e8037992bb9385a6d4244aa1", "is_disabled": 0, "rental_uris": {"android": "https://dc.lft.to/lastmile_qr_scan", "ios": "https://dc.lft.to/lastmile_qr_scan"}, "fusion_lon": 0.0, "lat": 38.92147, "bike_id": "42ef0164e8037992bb9385a6d4244aa1", "type": "electric_scooter", "is_reserved": 0, "lon": -77.03505766666666}, {"fusion_lat": 0.0, "name": "4d9e422a48a7fac004e71f32927be982", "is_disabled": 0, "rental_uris": {"android": "https://dc.lft.to/lastmile_qr_scan", "ios": "https://dc.lft.to/lastmile_qr_scan"}, "fusion_lon": 0.0, "lat": 38.8929545, "bike_id": "4d9e422a48a7fac004e71f32927be982", "type": "electric_scooter", "is_reserved": 0, "lon": -77.04874883333333}, {"fusion_lat": 0.0, "name": "9b903ba3a30c2bed2e9c630357dc5e17", "is_disabled": 0, "rental_uris": {"android": "https://dc.lft.to/lastmile_qr_scan", "ios": "https://dc.lft.to/lastmile_qr_scan"}, "fusion_lon": 0.0, "lat": 38.9248515, "bike_id": "9b903ba3a30c2bed2e9c630357dc5e17", "type": "electric_scooter", "is_reserved": 0, "lon": -77.052378}, {"fusion_lat": 0.0, "name": "92c37719ec47def2c9b9e77fe6c3af4f", "is_disabled": 0, "rental_uris": {"android": "https://dc.lft.to/lastmile_qr_scan", "ios": "https://dc.lft.to/lastmile_qr_scan"}, "fusion_lon": 0.0, "lat": 38.889876, "bike_id": "92c37719ec47def2c9b9e77fe6c3af4f", "type": "electric_scooter", "is_reserved": 0, "lon": -76.91418666666667}, {"fusion_lat": 0.0, "name": "a2b02a502f1dc4d7c5d9db459015c81d", "is_disabled": 0, "rental_uris": {"android": "https://dc.lft.to/lastmile_qr_scan", "ios": "https://dc.lft.to/lastmile_qr_scan"}, "fusion_lon": 0.0, "lat": 38.9204025, "bike_id": "a2b02a502f1dc4d7c5d9db459015c81d", "type": "electric_scooter", "is_reserved": 0, "lon": -77.01802333333333}, {"fusion_lat": 0.0, "name": "287f3a5636a3616c795ffaf198031d53", "is_disabled": 0, "rental_uris": {"android": "https://dc.lft.to/lastmile_qr_scan", "ios": "https://dc.lft.to/lastmile_qr_scan"}, "fusion_lon": 0.0, "lat": 38.91551416666667, "bike_id": "287f3a5636a3616c795ffaf198031d53", "type": "electric_scooter", "is_reserved": 0, "lon": -77.03855783333333}, {"fusion_lat": 0.0, "name": "ea49e1792295f26740bac3330acf06c0", "is_disabled": 0, "rental_uris": {"android": "https://dc.lft.to/lastmile_qr_scan", "ios": "https://dc.lft.to/lastmile_qr_scan"}, "fusion_lon": 0.0, "lat": 38.957968, "bike_id": "ea49e1792295f26740bac3330acf06c0", "type": "electric_bike", "is_reserved": 0, "lon": -76.960456}, {"fusion_lat": 0.0, "name": "629bf4ec192077cca2b5a81175ef2cb5", "is_disabled": 0, "rental_uris": {"android": "https://dc.lft.to/lastmile_qr_scan", "ios": "https://dc.lft.to/lastmile_qr_scan"}, "fusion_lon": 0.0, "lat": 38.9053855, "bike_id": "629bf4ec192077cca2b5a81175ef2cb5", "type": "electric_scooter", "is_reserved": 0, "lon": -77.04666116666667}, {"fusion_lat": 0.0, "name": "f6f387c2ce3cbc3ea66f644686d4c49c", "is_disabled": 0, "rental_uris": {"android": "https://dc.lft.to/lastmile_qr_scan", "ios": "https://dc.lft.to/lastmile_qr_scan"}, "fusion_lon": 0.0, "lat": 38.906108833333334, "bike_id": "f6f387c2ce3cbc3ea66f644686d4c49c", "type": "electric_scooter", "is_reserved": 0, "lon": -77.005824}, {"fusion_lat": 0.0, "name": "0340af00f764d94caead1caf9894a94a", "is_disabled": 0, "rental_uris": {"android": "https://dc.lft.to/lastmile_qr_scan", "ios": "https://dc.lft.to/lastmile_qr_scan"}, "fusion_lon": 0.0, "lat": 38.88337516666667, "bike_id": "0340af00f764d94caead1caf9894a94a", "type": "electric_scooter", "is_reserved": 0, "lon": -76.93512566666666}, {"fusion_lat": 0.0, "name": "2219536471cfd5129dbf061a2a5d6848", "is_disabled": 0, "rental_uris": {"android": "https://dc.lft.to/lastmile_qr_scan", "ios": "https://dc.lft.to/lastmile_qr_scan"}, "fusion_lon": 0.0, "lat": 38.915650666666664, "bike_id": "2219536471cfd5129dbf061a2a5d6848", "type": "electric_scooter", "is_reserved": 0, "lon": -77.01035583333334}, {"fusion_lat": 0.0, "name": "a6678b08a48027dfb723902962c0135f", "is_disabled": 0, "rental_uris": {"android": "https://dc.lft.to/lastmile_qr_scan", "ios": "https://dc.lft.to/lastmile_qr_scan"}, "fusion_lon": 0.0, "lat": 38.89023533333334, "bike_id": "a6678b08a48027dfb723902962c0135f", "type": "electric_scooter", "is_reserved": 0, "lon": -77.03180466666667}, {"fusion_lat": 0.0, "name": "0a4352d46dd6e4932ac621c99db67f7f", "is_disabled": 0, "rental_uris": {"android": "https://dc.lft.to/lastmile_qr_scan", "ios": "https://dc.lft.to/lastmile_qr_scan"}, "fusion_lon": 0.0, "lat": 38.943872166666665, "bike_id": "0a4352d46dd6e4932ac621c99db67f7f", "type": "electric_scooter", "is_reserved": 0, "lon": -77.09508316666667}, {"fusion_lat": 0.0, "name": "3b4fa0dc3dde140493ba7af17d28645e", "is_disabled": 0, "rental_uris": {"android": "https://dc.lft.to/lastmile_qr_scan", "ios": "https://dc.lft.to/lastmile_qr_scan"}, "fusion_lon": 0.0, "lat": 38.94719116666667, "bike_id": "3b4fa0dc3dde140493ba7af17d28645e", "type": "electric_scooter", "is_reserved": 0, "lon": -77.06537966666667}, {"fusion_lat": 0.0, "name": "258791cfe1554bf73cad9d9badb96db9", "is_disabled": 0, "rental_uris": {"android": "https://dc.lft.to/lastmile_qr_scan", "ios": "https://dc.lft.to/lastmile_qr_scan"}, "fusion_lon": 0.0, "lat": 38.90125583333333, "bike_id": "258791cfe1554bf73cad9d9badb96db9", "type": "electric_scooter", "is_reserved": 0, "lon": -77.04462433333333}, {"fusion_lat": 0.0, "name": "75ddff5f7108e5c75acd51d8853adb05", "is_disabled": 0, "rental_uris": {"android": "https://dc.lft.to/lastmile_qr_scan", "ios": "https://dc.lft.to/lastmile_qr_scan"}, "fusion_lon": 0.0, "lat": 38.9208935, "bike_id": "75ddff5f7108e5c75acd51d8853adb05", "type": "electric_scooter", "is_reserved": 0, "lon": -77.02525983333334}, {"fusion_lat": 0.0, "name": "ff30e0620bf1e6a6d9d0d380b47b6e9e", "is_disabled": 0, "rental_uris": {"android": "https://dc.lft.to/lastmile_qr_scan", "ios": "https://dc.lft.to/lastmile_qr_scan"}, "fusion_lon": 0.0, "lat": 38.91546833333334, "bike_id": "ff30e0620bf1e6a6d9d0d380b47b6e9e", "type": "electric_scooter", "is_reserved": 0, "lon": -77.03851866666666}, {"fusion_lat": 0.0, "name": "46143ccacd04a4a7edd8b012485f160c", "is_disabled": 0, "rental_uris": {"android": "https://dc.lft.to/lastmile_qr_scan", "ios": "https://dc.lft.to/lastmile_qr_scan"}, "fusion_lon": 0.0, "lat": 38.917112, "bike_id": "46143ccacd04a4a7edd8b012485f160c", "type": "electric_scooter", "is_reserved": 0, "lon": -77.03472266666667}, {"fusion_lat": 0.0, "name": "041d87a5f1979e32c63b7520d3dbc0a9", "is_disabled": 0, "rental_uris": {"android": "https://dc.lft.to/lastmile_qr_scan", "ios": "https://dc.lft.to/lastmile_qr_scan"}, "fusion_lon": 0.0, "lat": 38.897443833333334, "bike_id": "041d87a5f1979e32c63b7520d3dbc0a9", "type": "electric_scooter", "is_reserved": 0, "lon": -77.022102}, {"fusion_lat": 0.0, "name": "e097d86846987fdace79fac1b5eb5762", "is_disabled": 0, "rental_uris": {"android": "https://dc.lft.to/lastmile_qr_scan", "ios": "https://dc.lft.to/lastmile_qr_scan"}, "fusion_lon": 0.0, "lat": 38.92327366666667, "bike_id": "e097d86846987fdace79fac1b5eb5762", "type": "electric_scooter", "is_reserved": 0, "lon": -77.0361735}, {"fusion_lat": 0.0, "name": "1cd79ef1d2df73dbd126ea36c4ec1e7b", "is_disabled": 0, "rental_uris": {"android": "https://dc.lft.to/lastmile_qr_scan", "ios": "https://dc.lft.to/lastmile_qr_scan"}, "fusion_lon": 0.0, "lat": 38.898193666666664, "bike_id": "1cd79ef1d2df73dbd126ea36c4ec1e7b", "type": "electric_scooter", "is_reserved": 0, "lon": -77.0074565}, {"fusion_lat": 0.0, "name": "90d39d3563a772ecba419a7d29467480", "is_disabled": 0, "rental_uris": {"android": "https://dc.lft.to/lastmile_qr_scan", "ios": "https://dc.lft.to/lastmile_qr_scan"}, "fusion_lon": 0.0, "lat": 39.07049133333334, "bike_id": "90d39d3563a772ecba419a7d29467480", "type": "electric_bike", "is_reserved": 0, "lon": -77.1148525}, {"fusion_lat": 0.0, "name": "a01a8185323ad368c3542ec9b364a582", "is_disabled": 0, "rental_uris": {"android": "https://dc.lft.to/lastmile_qr_scan", "ios": "https://dc.lft.to/lastmile_qr_scan"}, "fusion_lon": 0.0, "lat": 38.8766105, "bike_id": "a01a8185323ad368c3542ec9b364a582", "type": "electric_scooter", "is_reserved": 0, "lon": -77.00067466666667}, {"fusion_lat": 0.0, "name": "a8f6c329650e91618ae9676449a86f6d", "is_disabled": 0, "rental_uris": {"android": "https://dc.lft.to/lastmile_qr_scan", "ios": "https://dc.lft.to/lastmile_qr_scan"}, "fusion_lon": 0.0, "lat": 38.901591, "bike_id": "a8f6c329650e91618ae9676449a86f6d", "type": "electric_scooter", "is_reserved": 0, "lon": -77.0531765}, {"fusion_lat": 0.0, "name": "7938cc9e9842c46615983f2eedbdf91f", "is_disabled": 0, "rental_uris": {"android": "https://dc.lft.to/lastmile_qr_scan", "ios": "https://dc.lft.to/lastmile_qr_scan"}, "fusion_lon": 0.0, "lat": 38.899822666666665, "bike_id": "7938cc9e9842c46615983f2eedbdf91f", "type": "electric_scooter", "is_reserved": 0, "lon": -77.02295833333334}, {"fusion_lat": 0.0, "name": "94b2632d2254b69dff4df5af39be4536", "is_disabled": 0, "rental_uris": {"android": "https://dc.lft.to/lastmile_qr_scan", "ios": "https://dc.lft.to/lastmile_qr_scan"}, "fusion_lon": 0.0, "lat": 38.923188333333336, "bike_id": "94b2632d2254b69dff4df5af39be4536", "type": "electric_scooter", "is_reserved": 0, "lon": -77.03812983333333}, {"fusion_lat": 0.0, "name": "34d5d6dc88737757172c9ab9437e25f1", "is_disabled": 0, "rental_uris": {"android": "https://dc.lft.to/lastmile_qr_scan", "ios": "https://dc.lft.to/lastmile_qr_scan"}, "fusion_lon": 0.0, "lat": 38.88508933333333, "bike_id": "34d5d6dc88737757172c9ab9437e25f1", "type": "electric_scooter", "is_reserved": 0, "lon": -77.01113916666667}, {"fusion_lat": 0.0, "name": "99ed6fd77d2503408bddefcdc836a0ef", "is_disabled": 0, "rental_uris": {"android": "https://dc.lft.to/lastmile_qr_scan", "ios": "https://dc.lft.to/lastmile_qr_scan"}, "fusion_lon": 0.0, "lat": 38.964856, "bike_id": "99ed6fd77d2503408bddefcdc836a0ef", "type": "electric_bike", "is_reserved": 0, "lon": -77.10729066666667}, {"fusion_lat": 0.0, "name": "d1f14f5b6a0bf6d610f3be2bb7acd9af", "is_disabled": 0, "rental_uris": {"android": "https://dc.lft.to/lastmile_qr_scan", "ios": "https://dc.lft.to/lastmile_qr_scan"}, "fusion_lon": 0.0, "lat": 38.884261333333335, "bike_id": "d1f14f5b6a0bf6d610f3be2bb7acd9af", "type": "electric_scooter", "is_reserved": 0, "lon": -76.99611133333333}, {"fusion_lat": 0.0, "name": "3685ae439c549ccc51538d25f4808d43", "is_disabled": 0, "rental_uris": {"android": "https://dc.lft.to/lastmile_qr_scan", "ios": "https://dc.lft.to/lastmile_qr_scan"}, "fusion_lon": 0.0, "lat": 38.908408666666666, "bike_id": "3685ae439c549ccc51538d25f4808d43", "type": "electric_scooter", "is_reserved": 0, "lon": -77.00233566666667}, {"fusion_lat": 0.0, "name": "1f3cbc874c7264f28e0ed04566654e29", "is_disabled": 0, "rental_uris": {"android": "https://dc.lft.to/lastmile_qr_scan", "ios": "https://dc.lft.to/lastmile_qr_scan"}, "fusion_lon": 0.0, "lat": 38.94177666666667, "bike_id": "1f3cbc874c7264f28e0ed04566654e29", "type": "electric_scooter", "is_reserved": 0, "lon": -77.02491633333334}, {"fusion_lat": 0.0, "name": "ca68684054837e4cc9cdf852dfffa090", "is_disabled": 0, "rental_uris": {"android": "https://dc.lft.to/lastmile_qr_scan", "ios": "https://dc.lft.to/lastmile_qr_scan"}, "fusion_lon": 0.0, "lat": 38.8788935, "bike_id": "ca68684054837e4cc9cdf852dfffa090", "type": "electric_scooter", "is_reserved": 0, "lon": -77.00583833333333}, {"fusion_lat": 0.0, "name": "280897eff94ef37088a135fb10958a67", "is_disabled": 0, "rental_uris": {"android": "https://dc.lft.to/lastmile_qr_scan", "ios": "https://dc.lft.to/lastmile_qr_scan"}, "fusion_lon": 0.0, "lat": 38.90499533333333, "bike_id": "280897eff94ef37088a135fb10958a67", "type": "electric_scooter", "is_reserved": 0, "lon": -77.06010183333333}, {"fusion_lat": 0.0, "name": "d1a67afd20ffac9ef3c5ae2ff5fa3c70", "is_disabled": 0, "rental_uris": {"android": "https://dc.lft.to/lastmile_qr_scan", "ios": "https://dc.lft.to/lastmile_qr_scan"}, "fusion_lon": 0.0, "lat": 38.939559833333334, "bike_id": "d1a67afd20ffac9ef3c5ae2ff5fa3c70", "type": "electric_scooter", "is_reserved": 0, "lon": -77.03280416666666}, {"fusion_lat": 0.0, "name": "3bd05347eac91c9b5dec16143b6e6755", "is_disabled": 0, "rental_uris": {"android": "https://dc.lft.to/lastmile_qr_scan", "ios": "https://dc.lft.to/lastmile_qr_scan"}, "fusion_lon": 0.0, "lat": 38.92859716666667, "bike_id": "3bd05347eac91c9b5dec16143b6e6755", "type": "electric_scooter", "is_reserved": 0, "lon": -77.03526933333333}, {"fusion_lat": 0.0, "name": "58d71c7be56ef42b86ab91ed8a8c0d6f", "is_disabled": 0, "rental_uris": {"android": "https://dc.lft.to/lastmile_qr_scan", "ios": "https://dc.lft.to/lastmile_qr_scan"}, "fusion_lon": 0.0, "lat": 38.902143333333335, "bike_id": "58d71c7be56ef42b86ab91ed8a8c0d6f", "type": "electric_scooter", "is_reserved": 0, "lon": -76.9861165}, {"fusion_lat": 0.0, "name": "6bc5eb5b8e8f699286c7a5621c4224b9", "is_disabled": 0, "rental_uris": {"android": "https://dc.lft.to/lastmile_qr_scan", "ios": "https://dc.lft.to/lastmile_qr_scan"}, "fusion_lon": 0.0, "lat": 38.8924395, "bike_id": "6bc5eb5b8e8f699286c7a5621c4224b9", "type": "electric_scooter", "is_reserved": 0, "lon": -77.050241}, {"fusion_lat": 0.0, "name": "d1c48311395b611bbceff9f05ae329d5", "is_disabled": 0, "rental_uris": {"android": "https://dc.lft.to/lastmile_qr_scan", "ios": "https://dc.lft.to/lastmile_qr_scan"}, "fusion_lon": 0.0, "lat": 38.959570666666664, "bike_id": "d1c48311395b611bbceff9f05ae329d5", "type": "electric_bike", "is_reserved": 0, "lon": -76.98166733333333}, {"fusion_lat": 0.0, "name": "409dbc6132ef78f3c1c5e63dd730c916", "is_disabled": 0, "rental_uris": {"android": "https://dc.lft.to/lastmile_qr_scan", "ios": "https://dc.lft.to/lastmile_qr_scan"}, "fusion_lon": 0.0, "lat": 38.9095995, "bike_id": "409dbc6132ef78f3c1c5e63dd730c916", "type": "electric_scooter", "is_reserved": 0, "lon": -77.03941133333333}, {"fusion_lat": 0.0, "name": "99be686d506bace869410f8baf0b5743", "is_disabled": 0, "rental_uris": {"android": "https://dc.lft.to/lastmile_qr_scan", "ios": "https://dc.lft.to/lastmile_qr_scan"}, "fusion_lon": 0.0, "lat": 38.903825166666664, "bike_id": "99be686d506bace869410f8baf0b5743", "type": "electric_scooter", "is_reserved": 0, "lon": -77.00733266666667}, {"fusion_lat": 0.0, "name": "1cc10c9654d1bd8c5aecdfc502b9effd", "is_disabled": 0, "rental_uris": {"android": "https://dc.lft.to/lastmile_qr_scan", "ios": "https://dc.lft.to/lastmile_qr_scan"}, "fusion_lon": 0.0, "lat": 38.8551075, "bike_id": "1cc10c9654d1bd8c5aecdfc502b9effd", "type": "electric_bike", "is_reserved": 0, "lon": -77.10540233333333}, {"fusion_lat": 0.0, "name": "97766a760b7bd0af75502e264351ff9d", "is_disabled": 0, "rental_uris": {"android": "https://dc.lft.to/lastmile_qr_scan", "ios": "https://dc.lft.to/lastmile_qr_scan"}, "fusion_lon": 0.0, "lat": 38.907132, "bike_id": "97766a760b7bd0af75502e264351ff9d", "type": "electric_scooter", "is_reserved": 0, "lon": -77.03446383333333}, {"fusion_lat": 0.0, "name": "1946a5e65b2430c2e625cc68db52195c", "is_disabled": 0, "rental_uris": {"android": "https://dc.lft.to/lastmile_qr_scan", "ios": "https://dc.lft.to/lastmile_qr_scan"}, "fusion_lon": 0.0, "lat": 38.8961955, "bike_id": "1946a5e65b2430c2e625cc68db52195c", "type": "electric_scooter", "is_reserved": 0, "lon": -76.98570333333333}, {"fusion_lat": 0.0, "name": "6f13398c13277467b4f5c0c5b7db0efd", "is_disabled": 0, "rental_uris": {"android": "https://dc.lft.to/lastmile_qr_scan", "ios": "https://dc.lft.to/lastmile_qr_scan"}, "fusion_lon": 0.0, "lat": 38.914666833333335, "bike_id": "6f13398c13277467b4f5c0c5b7db0efd", "type": "electric_scooter", "is_reserved": 0, "lon": -77.01554516666667}, {"fusion_lat": 0.0, "name": "ff36b8584f974b698a632c77ef52f074", "is_disabled": 0, "rental_uris": {"android": "https://dc.lft.to/lastmile_qr_scan", "ios": "https://dc.lft.to/lastmile_qr_scan"}, "fusion_lon": 0.0, "lat": 38.9052625, "bike_id": "ff36b8584f974b698a632c77ef52f074", "type": "electric_scooter", "is_reserved": 0, "lon": -77.01714533333333}, {"fusion_lat": 0.0, "name": "7495e46d3f7fd98befcfef229122d54a", "is_disabled": 0, "rental_uris": {"android": "https://dc.lft.to/lastmile_qr_scan", "ios": "https://dc.lft.to/lastmile_qr_scan"}, "fusion_lon": 0.0, "lat": 38.91217816666666, "bike_id": "7495e46d3f7fd98befcfef229122d54a", "type": "electric_scooter", "is_reserved": 0, "lon": -77.047836}, {"fusion_lat": 0.0, "name": "0bfaa44b193b7e59621a68f07380f895", "is_disabled": 0, "rental_uris": {"android": "https://dc.lft.to/lastmile_qr_scan", "ios": "https://dc.lft.to/lastmile_qr_scan"}, "fusion_lon": 0.0, "lat": 38.90731566666667, "bike_id": "0bfaa44b193b7e59621a68f07380f895", "type": "electric_scooter", "is_reserved": 0, "lon": -77.0235785}, {"fusion_lat": 0.0, "name": "5757911e3700440655983187373fda26", "is_disabled": 0, "rental_uris": {"android": "https://dc.lft.to/lastmile_qr_scan", "ios": "https://dc.lft.to/lastmile_qr_scan"}, "fusion_lon": 0.0, "lat": 38.958882333333335, "bike_id": "5757911e3700440655983187373fda26", "type": "electric_scooter", "is_reserved": 0, "lon": -77.00280233333334}, {"fusion_lat": 0.0, "name": "1744069030f5da63dcb0d9a956e74b5c", "is_disabled": 0, "rental_uris": {"android": "https://dc.lft.to/lastmile_qr_scan", "ios": "https://dc.lft.to/lastmile_qr_scan"}, "fusion_lon": 0.0, "lat": 38.8764825, "bike_id": "1744069030f5da63dcb0d9a956e74b5c", "type": "electric_scooter", "is_reserved": 0, "lon": -77.01573816666667}, {"fusion_lat": 0.0, "name": "f2f7f558ca9d85238713b4eadaa221d5", "is_disabled": 0, "rental_uris": {"android": "https://dc.lft.to/lastmile_qr_scan", "ios": "https://dc.lft.to/lastmile_qr_scan"}, "fusion_lon": 0.0, "lat": 38.899339166666664, "bike_id": "f2f7f558ca9d85238713b4eadaa221d5", "type": "electric_scooter", "is_reserved": 0, "lon": -77.0219135}, {"fusion_lat": 0.0, "name": "7f82df4ce4a5cb9ea8497dfc1f71a36a", "is_disabled": 0, "rental_uris": {"android": "https://dc.lft.to/lastmile_qr_scan", "ios": "https://dc.lft.to/lastmile_qr_scan"}, "fusion_lon": 0.0, "lat": 38.916899666666666, "bike_id": "7f82df4ce4a5cb9ea8497dfc1f71a36a", "type": "electric_scooter", "is_reserved": 0, "lon": -77.02599366666666}, {"fusion_lat": 0.0, "name": "750a817a9e80e9b2d775adc6480afd0c", "is_disabled": 0, "rental_uris": {"android": "https://dc.lft.to/lastmile_qr_scan", "ios": "https://dc.lft.to/lastmile_qr_scan"}, "fusion_lon": 0.0, "lat": 38.924475666666666, "bike_id": "750a817a9e80e9b2d775adc6480afd0c", "type": "electric_scooter", "is_reserved": 0, "lon": -77.0397265}, {"fusion_lat": 0.0, "name": "72093ed30519b869ccd93e39f19a5b08", "is_disabled": 0, "rental_uris": {"android": "https://dc.lft.to/lastmile_qr_scan", "ios": "https://dc.lft.to/lastmile_qr_scan"}, "fusion_lon": 0.0, "lat": 38.90090566666667, "bike_id": "72093ed30519b869ccd93e39f19a5b08", "type": "electric_bike", "is_reserved": 0, "lon": -77.03928183333333}, {"fusion_lat": 0.0, "name": "a94032aeb4532ba7e8e9ffd00255ff96", "is_disabled": 0, "rental_uris": {"android": "https://dc.lft.to/lastmile_qr_scan", "ios": "https://dc.lft.to/lastmile_qr_scan"}, "fusion_lon": 0.0, "lat": 38.906637, "bike_id": "a94032aeb4532ba7e8e9ffd00255ff96", "type": "electric_scooter", "is_reserved": 0, "lon": -77.02706633333334}, {"fusion_lat": 0.0, "name": "469ea1600371529da21ab398c40aab78", "is_disabled": 0, "rental_uris": {"android": "https://dc.lft.to/lastmile_qr_scan", "ios": "https://dc.lft.to/lastmile_qr_scan"}, "fusion_lon": 0.0, "lat": 38.8871825, "bike_id": "469ea1600371529da21ab398c40aab78", "type": "electric_scooter", "is_reserved": 0, "lon": -77.0217745}, {"fusion_lat": 0.0, "name": "fd0635dfb523c7d2e0550e380de8131a", "is_disabled": 0, "rental_uris": {"android": "https://dc.lft.to/lastmile_qr_scan", "ios": "https://dc.lft.to/lastmile_qr_scan"}, "fusion_lon": 0.0, "lat": 38.911108166666665, "bike_id": "fd0635dfb523c7d2e0550e380de8131a", "type": "electric_scooter", "is_reserved": 0, "lon": -77.0328235}, {"fusion_lat": 0.0, "name": "2512fcd500da4fdb09ae525f512b0ca6", "is_disabled": 0, "rental_uris": {"android": "https://dc.lft.to/lastmile_qr_scan", "ios": "https://dc.lft.to/lastmile_qr_scan"}, "fusion_lon": 0.0, "lat": 38.92122616666666, "bike_id": "2512fcd500da4fdb09ae525f512b0ca6", "type": "electric_scooter", "is_reserved": 0, "lon": -77.04437533333333}, {"fusion_lat": 0.0, "name": "a427ba613432da94d38893ec573c23d4", "is_disabled": 0, "rental_uris": {"android": "https://dc.lft.to/lastmile_qr_scan", "ios": "https://dc.lft.to/lastmile_qr_scan"}, "fusion_lon": 0.0, "lat": 38.91026883333333, "bike_id": "a427ba613432da94d38893ec573c23d4", "type": "electric_scooter", "is_reserved": 0, "lon": -77.00755233333334}, {"fusion_lat": 0.0, "name": "fafba3b15f0d01112740f63d6ff9f04e", "is_disabled": 0, "rental_uris": {"android": "https://dc.lft.to/lastmile_qr_scan", "ios": "https://dc.lft.to/lastmile_qr_scan"}, "fusion_lon": 0.0, "lat": 38.900947333333335, "bike_id": "fafba3b15f0d01112740f63d6ff9f04e", "type": "electric_scooter", "is_reserved": 0, "lon": -77.01971733333333}, {"fusion_lat": 0.0, "name": "14b25051a380eb835baecae48b839582", "is_disabled": 0, "rental_uris": {"android": "https://dc.lft.to/lastmile_qr_scan", "ios": "https://dc.lft.to/lastmile_qr_scan"}, "fusion_lon": 0.0, "lat": 38.8922275, "bike_id": "14b25051a380eb835baecae48b839582", "type": "electric_scooter", "is_reserved": 0, "lon": -77.02223383333333}, {"fusion_lat": 0.0, "name": "afc5a58e631cc5b5f5c579a374c9d980", "is_disabled": 0, "rental_uris": {"android": "https://dc.lft.to/lastmile_qr_scan", "ios": "https://dc.lft.to/lastmile_qr_scan"}, "fusion_lon": 0.0, "lat": 38.91432016666667, "bike_id": "afc5a58e631cc5b5f5c579a374c9d980", "type": "electric_scooter", "is_reserved": 0, "lon": -77.0449045}, {"fusion_lat": 0.0, "name": "b03ffbed2751273e23667f6cb93faa86", "is_disabled": 0, "rental_uris": {"android": "https://dc.lft.to/lastmile_qr_scan", "ios": "https://dc.lft.to/lastmile_qr_scan"}, "fusion_lon": 0.0, "lat": 38.88870816666667, "bike_id": "b03ffbed2751273e23667f6cb93faa86", "type": "electric_scooter", "is_reserved": 0, "lon": -77.02857633333333}, {"fusion_lat": 0.0, "name": "9c9b7c5e77fff8fb5d2f565405f808e7", "is_disabled": 0, "rental_uris": {"android": "https://dc.lft.to/lastmile_qr_scan", "ios": "https://dc.lft.to/lastmile_qr_scan"}, "fusion_lon": 0.0, "lat": 38.857910333333336, "bike_id": "9c9b7c5e77fff8fb5d2f565405f808e7", "type": "electric_bike", "is_reserved": 0, "lon": -76.987268}, {"fusion_lat": 0.0, "name": "6d7dffef661884e26960e38db78f42ed", "is_disabled": 0, "rental_uris": {"android": "https://dc.lft.to/lastmile_qr_scan", "ios": "https://dc.lft.to/lastmile_qr_scan"}, "fusion_lon": 0.0, "lat": 38.94173683333333, "bike_id": "6d7dffef661884e26960e38db78f42ed", "type": "electric_scooter", "is_reserved": 0, "lon": -77.03656233333334}, {"fusion_lat": 0.0, "name": "23d4a14f6ac9ce0f371b5413012d0212", "is_disabled": 0, "rental_uris": {"android": "https://dc.lft.to/lastmile_qr_scan", "ios": "https://dc.lft.to/lastmile_qr_scan"}, "fusion_lon": 0.0, "lat": 38.917231666666666, "bike_id": "23d4a14f6ac9ce0f371b5413012d0212", "type": "electric_scooter", "is_reserved": 0, "lon": -77.00817583333334}, {"fusion_lat": 0.0, "name": "eb08d464cba84ea3ca30ea4bbd367bba", "is_disabled": 0, "rental_uris": {"android": "https://dc.lft.to/lastmile_qr_scan", "ios": "https://dc.lft.to/lastmile_qr_scan"}, "fusion_lon": 0.0, "lat": 38.86252133333333, "bike_id": "eb08d464cba84ea3ca30ea4bbd367bba", "type": "electric_bike", "is_reserved": 0, "lon": -76.9833525}, {"fusion_lat": 0.0, "name": "12bd6abae14f34ab0bb661fe68d2f2a5", "is_disabled": 0, "rental_uris": {"android": "https://dc.lft.to/lastmile_qr_scan", "ios": "https://dc.lft.to/lastmile_qr_scan"}, "fusion_lon": 0.0, "lat": 38.892309833333336, "bike_id": "12bd6abae14f34ab0bb661fe68d2f2a5", "type": "electric_scooter", "is_reserved": 0, "lon": -77.03189983333333}, {"fusion_lat": 0.0, "name": "0fa63c5d4f2f3b1e983ee022f8a61928", "is_disabled": 0, "rental_uris": {"android": "https://dc.lft.to/lastmile_qr_scan", "ios": "https://dc.lft.to/lastmile_qr_scan"}, "fusion_lon": 0.0, "lat": 38.922333333333334, "bike_id": "0fa63c5d4f2f3b1e983ee022f8a61928", "type": "electric_scooter", "is_reserved": 0, "lon": -77.04251233333333}, {"fusion_lat": 0.0, "name": "c23f2671f4f24f9077ca36c958bf1b8e", "is_disabled": 0, "rental_uris": {"android": "https://dc.lft.to/lastmile_qr_scan", "ios": "https://dc.lft.to/lastmile_qr_scan"}, "fusion_lon": 0.0, "lat": 38.89234666666667, "bike_id": "c23f2671f4f24f9077ca36c958bf1b8e", "type": "electric_scooter", "is_reserved": 0, "lon": -77.04892233333334}, {"fusion_lat": 0.0, "name": "2be95a340581979e629178d0f038d12e", "is_disabled": 0, "rental_uris": {"android": "https://dc.lft.to/lastmile_qr_scan", "ios": "https://dc.lft.to/lastmile_qr_scan"}, "fusion_lon": 0.0, "lat": 38.92452466666667, "bike_id": "2be95a340581979e629178d0f038d12e", "type": "electric_scooter", "is_reserved": 0, "lon": -76.99329616666667}, {"fusion_lat": 0.0, "name": "b844fc587bc033a5fce11b18f4893007", "is_disabled": 0, "rental_uris": {"android": "https://dc.lft.to/lastmile_qr_scan", "ios": "https://dc.lft.to/lastmile_qr_scan"}, "fusion_lon": 0.0, "lat": 38.91400566666667, "bike_id": "b844fc587bc033a5fce11b18f4893007", "type": "electric_scooter", "is_reserved": 0, "lon": -77.03184766666666}, {"fusion_lat": 0.0, "name": "f7e19622344932049aea99b060701e51", "is_disabled": 0, "rental_uris": {"android": "https://dc.lft.to/lastmile_qr_scan", "ios": "https://dc.lft.to/lastmile_qr_scan"}, "fusion_lon": 0.0, "lat": 38.91904183333333, "bike_id": "f7e19622344932049aea99b060701e51", "type": "electric_scooter", "is_reserved": 0, "lon": -77.01367583333334}, {"fusion_lat": 0.0, "name": "a0785fbc0aed6bc2d60c98d030548ae4", "is_disabled": 0, "rental_uris": {"android": "https://dc.lft.to/lastmile_qr_scan", "ios": "https://dc.lft.to/lastmile_qr_scan"}, "fusion_lon": 0.0, "lat": 38.9134375, "bike_id": "a0785fbc0aed6bc2d60c98d030548ae4", "type": "electric_scooter", "is_reserved": 0, "lon": -77.04793516666666}, {"fusion_lat": 0.0, "name": "abf3164e864f6ddc078bec05ced8220d", "is_disabled": 0, "rental_uris": {"android": "https://dc.lft.to/lastmile_qr_scan", "ios": "https://dc.lft.to/lastmile_qr_scan"}, "fusion_lon": 0.0, "lat": 38.89221766666667, "bike_id": "abf3164e864f6ddc078bec05ced8220d", "type": "electric_scooter", "is_reserved": 0, "lon": -77.02660983333334}, {"fusion_lat": 0.0, "name": "8a152f930000bf2c9e92aa8cbc4d5082", "is_disabled": 0, "rental_uris": {"android": "https://dc.lft.to/lastmile_qr_scan", "ios": "https://dc.lft.to/lastmile_qr_scan"}, "fusion_lon": 0.0, "lat": 38.87660616666667, "bike_id": "8a152f930000bf2c9e92aa8cbc4d5082", "type": "electric_scooter", "is_reserved": 0, "lon": -77.001176}, {"fusion_lat": 0.0, "name": "ea212b7afdea50d30f1b71ba3c1d9daa", "is_disabled": 0, "rental_uris": {"android": "https://dc.lft.to/lastmile_qr_scan", "ios": "https://dc.lft.to/lastmile_qr_scan"}, "fusion_lon": 0.0, "lat": 38.884257166666664, "bike_id": "ea212b7afdea50d30f1b71ba3c1d9daa", "type": "electric_scooter", "is_reserved": 0, "lon": -76.99608783333333}, {"fusion_lat": 0.0, "name": "3f06241ba58c26625dc30f009fd3c21a", "is_disabled": 0, "rental_uris": {"android": "https://dc.lft.to/lastmile_qr_scan", "ios": "https://dc.lft.to/lastmile_qr_scan"}, "fusion_lon": 0.0, "lat": 38.91552383333333, "bike_id": "3f06241ba58c26625dc30f009fd3c21a", "type": "electric_scooter", "is_reserved": 0, "lon": -77.03237183333333}, {"fusion_lat": 0.0, "name": "15d33b59b2775ab9f878d5caf623d235", "is_disabled": 0, "rental_uris": {"android": "https://dc.lft.to/lastmile_qr_scan", "ios": "https://dc.lft.to/lastmile_qr_scan"}, "fusion_lon": 0.0, "lat": 38.919141, "bike_id": "15d33b59b2775ab9f878d5caf623d235", "type": "electric_scooter", "is_reserved": 0, "lon": -77.02498433333334}, {"fusion_lat": 0.0, "name": "06d2904198b5f8394f28a04216523ad1", "is_disabled": 0, "rental_uris": {"android": "https://dc.lft.to/lastmile_qr_scan", "ios": "https://dc.lft.to/lastmile_qr_scan"}, "fusion_lon": 0.0, "lat": 38.926155333333334, "bike_id": "06d2904198b5f8394f28a04216523ad1", "type": "electric_scooter", "is_reserved": 0, "lon": -77.04327516666666}, {"fusion_lat": 0.0, "name": "d549207886e43d0e8ec018cca58b7cc8", "is_disabled": 0, "rental_uris": {"android": "https://dc.lft.to/lastmile_qr_scan", "ios": "https://dc.lft.to/lastmile_qr_scan"}, "fusion_lon": 0.0, "lat": 38.92257516666667, "bike_id": "d549207886e43d0e8ec018cca58b7cc8", "type": "electric_scooter", "is_reserved": 0, "lon": -77.019512}, {"fusion_lat": 0.0, "name": "7cda14c2cc104bcbde13019979138c32", "is_disabled": 0, "rental_uris": {"android": "https://dc.lft.to/lastmile_qr_scan", "ios": "https://dc.lft.to/lastmile_qr_scan"}, "fusion_lon": 0.0, "lat": 38.92555333333333, "bike_id": "7cda14c2cc104bcbde13019979138c32", "type": "electric_scooter", "is_reserved": 0, "lon": -77.04298566666667}, {"fusion_lat": 0.0, "name": "5976d924f7d99f9008ae4603e4ea16e0", "is_disabled": 0, "rental_uris": {"android": "https://dc.lft.to/lastmile_qr_scan", "ios": "https://dc.lft.to/lastmile_qr_scan"}, "fusion_lon": 0.0, "lat": 38.917949666666665, "bike_id": "5976d924f7d99f9008ae4603e4ea16e0", "type": "electric_scooter", "is_reserved": 0, "lon": -77.03439983333334}, {"fusion_lat": 0.0, "name": "0a07047222a9bdcafba4363a59138963", "is_disabled": 0, "rental_uris": {"android": "https://dc.lft.to/lastmile_qr_scan", "ios": "https://dc.lft.to/lastmile_qr_scan"}, "fusion_lon": 0.0, "lat": 38.94977, "bike_id": "0a07047222a9bdcafba4363a59138963", "type": "electric_scooter", "is_reserved": 0, "lon": -77.02446883333333}, {"fusion_lat": 0.0, "name": "977581fcbebfa5e2099e1853db7b8a97", "is_disabled": 0, "rental_uris": {"android": "https://dc.lft.to/lastmile_qr_scan", "ios": "https://dc.lft.to/lastmile_qr_scan"}, "fusion_lon": 0.0, "lat": 38.90407233333333, "bike_id": "977581fcbebfa5e2099e1853db7b8a97", "type": "electric_scooter", "is_reserved": 0, "lon": -77.043404}, {"fusion_lat": 0.0, "name": "041fb0572b3ba13fba5ac8def1ed2191", "is_disabled": 0, "rental_uris": {"android": "https://dc.lft.to/lastmile_qr_scan", "ios": "https://dc.lft.to/lastmile_qr_scan"}, "fusion_lon": 0.0, "lat": 38.95957516666667, "bike_id": "041fb0572b3ba13fba5ac8def1ed2191", "type": "electric_bike", "is_reserved": 0, "lon": -77.030555}, {"fusion_lat": 0.0, "name": "acbadd92703dcfe0543406fc81f2b83b", "is_disabled": 0, "rental_uris": {"android": "https://dc.lft.to/lastmile_qr_scan", "ios": "https://dc.lft.to/lastmile_qr_scan"}, "fusion_lon": 0.0, "lat": 38.899852833333334, "bike_id": "acbadd92703dcfe0543406fc81f2b83b", "type": "electric_scooter", "is_reserved": 0, "lon": -77.02297833333333}, {"fusion_lat": 0.0, "name": "fc099651d0e906d2b56ed8bd82455c9a", "is_disabled": 0, "rental_uris": {"android": "https://dc.lft.to/lastmile_qr_scan", "ios": "https://dc.lft.to/lastmile_qr_scan"}, "fusion_lon": 0.0, "lat": 38.90273066666666, "bike_id": "fc099651d0e906d2b56ed8bd82455c9a", "type": "electric_scooter", "is_reserved": 0, "lon": -77.03380583333333}, {"fusion_lat": 0.0, "name": "06fc50879a2eb31dc10940ba57802796", "is_disabled": 0, "rental_uris": {"android": "https://dc.lft.to/lastmile_qr_scan", "ios": "https://dc.lft.to/lastmile_qr_scan"}, "fusion_lon": 0.0, "lat": 38.91112583333334, "bike_id": "06fc50879a2eb31dc10940ba57802796", "type": "electric_scooter", "is_reserved": 0, "lon": -77.038291}, {"fusion_lat": 0.0, "name": "61cc7f45834f839372f3da145b48a3c4", "is_disabled": 0, "rental_uris": {"android": "https://dc.lft.to/lastmile_qr_scan", "ios": "https://dc.lft.to/lastmile_qr_scan"}, "fusion_lon": 0.0, "lat": 38.89227283333334, "bike_id": "61cc7f45834f839372f3da145b48a3c4", "type": "electric_scooter", "is_reserved": 0, "lon": -77.05005333333334},