{"data": {"bikes": [{"lat": 38.91016283333333, "is_disabled": 0, "type": "electric_scooter", "lon": -76.993928, "bike_id": "2bec4bd30bc40276fec7f2400b7b3ce9", "fusion_lat": 0.0, "name": "2bec4bd30bc40276fec7f2400b7b3ce9", "is_reserved": 0, "rental_uris": {"android": "https://dc.lft.to/lastmile_qr_scan", "ios": "https://dc.lft.to/lastmile_qr_scan"}, "fusion_lon": 0.0}, {"lat": 38.91265466666667, "is_disabled": 0, "type": "electric_scooter", "lon": -77.00285916666667, "bike_id": "026cef3462d3d4f89101f5e90293d125", "fusion_lat": 0.0, "name": "026cef3462d3d4f89101f5e90293d125", "is_reserved": 0, "rental_uris": {"android": "https://dc.lft.to/lastmile_qr_scan", "ios": "https://dc.lft.to/lastmile_qr_scan"}, "fusion_lon": 0.0}, {"lat": 38.9009995, "is_disabled": 0, "type": "electric_scooter", "lon": -77.04978066666666, "bike_id": "27a7ee26134d86051fc752e7e51ecb6a", "fusion_lat": 0.0, "name": "27a7ee26134d86051fc752e7e51ecb6a", "is_reserved": 0, "rental_uris": {"android": "https://dc.lft.to/lastmile_qr_scan", "ios": "https://dc.lft.to/lastmile_qr_scan"}, "fusion_lon": 0.0}, {"lat": 38.90035866666667, "is_disabled": 0, "type": "electric_scooter", "lon": -76.9874385, "bike_id": "fef4af900e3ad75d793ee1d9e92b95c4", "fusion_lat": 0.0, "name": "fef4af900e3ad75d793ee1d9e92b95c4", "is_reserved": 0, "rental_uris": {"android": "https://dc.lft.to/lastmile_qr_scan", "ios": "https://dc.lft.to/lastmile_qr_scan"}, "fusion_lon": 0.0}, {"lat": 38.91341, "is_disabled": 0, "type": "electric_scooter", "lon": -77.00223683333333, "bike_id": "b98a0c4ffc5157b4fc648471d3d7934d", "fusion_lat": 0.0, "name": "b98a0c4ffc5157b4fc648471d3d7934d", "is_reserved": 0, "rental_uris": {"android": "https://dc.lft.to/lastmile_qr_scan", "ios": "https://dc.lft.to/lastmile_qr_scan"}, "fusion_lon": 0.0}, {"lat": 38.92343533333333, "is_disabled": 0, "type": "electric_scooter", "lon": -77.019035, "bike_id": "fac6714b4f4775b5de629b5aa3eccb81", "fusion_lat": 0.0, "name": "fac6714b4f4775b5de629b5aa3eccb81", "is_reserved": 0, "rental_uris": {"android": "https://dc.lft.to/lastmile_qr_scan", "ios": "https://dc.lft.to/lastmile_qr_scan"}, "fusion_lon": 0.0}, {"lat": 38.8833925, "is_disabled": 0, "type": "electric_scooter", "lon": -77.03154616666667, "bike_id": "65f5b79909cc7e8b55188e4230e55ce1", "fusion_lat": 0.0, "name": "65f5b79909cc7e8b55188e4230e55ce1", "is_reserved": 0, "rental_uris": {"android": "https://dc.lft.to/lastmile_qr_scan", "ios": "https://dc.lft.to/lastmile_qr_scan"}, "fusion_lon": 0.0}, {"lat": 38.91110483333333, "is_disabled": 0, "type": "electric_scooter", "lon": -77.00237416666667, "bike_id": "00a58437c4f35fbbdf85d81d3cfbb90a", "fusion_lat": 0.0, "name": "00a58437c4f35fbbdf85d81d3cfbb90a", "is_reserved": 0, "rental_uris": {"android": "https://dc.lft.to/lastmile_qr_scan", "ios": "https://dc.lft.to/lastmile_qr_scan"}, "fusion_lon": 0.0}, {"lat": 38.86110583333333, "is_disabled": 0, "type": "electric_scooter", "lon": -76.96773366666666, "bike_id": "17ce04cba0db9607c7b2858089246a1c", "fusion_lat": 0.0, "name": "17ce04cba0db9607c7b2858089246a1c", "is_reserved": 0, "rental_uris": {"android": "https://dc.lft.to/lastmile_qr_scan", "ios": "https://dc.lft.to/lastmile_qr_scan"}, "fusion_lon": 0.0}, {"lat": 38.9000805, "is_disabled": 0, "type": "electric_scooter", "lon": -77.00114683333334, "bike_id": "6ba4b2726a4ddebcf290ee8427aa5777", "fusion_lat": 0.0, "name": "6ba4b2726a4ddebcf290ee8427aa5777", "is_reserved": 0, "rental_uris": {"android": "https://dc.lft.to/lastmile_qr_scan", "ios": "https://dc.lft.to/lastmile_qr_scan"}, "fusion_lon": 0.0}, {"lat": 38.86108, "is_disabled": 0, "type": "electric_scooter", "lon": -76.98359383333333, "bike_id": "36bf39d47652cd5f4bd999242489c02b", "fusion_lat": 0.0, "name": "36bf39d47652cd5f4bd999242489c02b", "is_reserved": 0, "rental_uris": {"android": "https://dc.lft.to/lastmile_qr_scan", "ios": "https://dc.lft.to/lastmile_qr_scan"}, "fusion_lon": 0.0}, {"lat": 38.89738533333333, "is_disabled": 0, "type": "electric_scooter", "lon": -77.05522383333333, "bike_id": "315d70a60d2164b09731e524fd49243a", "fusion_lat": 0.0, "name": "315d70a60d2164b09731e524fd49243a", "is_reserved": 0, "rental_uris": {"android": "https://dc.lft.to/lastmile_qr_scan", "ios": "https://dc.lft.to/lastmile_qr_scan"}, "fusion_lon": 0.0}, {"lat": 38.906188, "is_disabled": 0, "type": "electric_scooter", "lon": -77.06517566666666, "bike_id": "dabbccd763c7912371175dd757879112", "fusion_lat": 0.0, "name": "dabbccd763c7912371175dd757879112", "is_reserved": 0, "rental_uris": {"android": "https://dc.lft.to/lastmile_qr_scan", "ios": "https://dc.lft.to/lastmile_qr_scan"}, "fusion_lon": 0.0}, {"lat": 38.93424916666667, "is_disabled": 0, "type": "electric_scooter", "lon": -77.04407533333334, "bike_id": "1d211afc5be9dec62d5c26a4fb0f710c", "fusion_lat": 0.0, "name": "1d211afc5be9dec62d5c26a4fb0f710c", "is_reserved": 0, "rental_uris": {"android": "https://dc.lft.to/lastmile_qr_scan", "ios": "https://dc.lft.to/lastmile_qr_scan"}, "fusion_lon": 0.0}, {"lat": 38.93188583333333, "is_disabled": 0, "type": "electric_scooter", "lon": -77.03156016666667, "bike_id": "b9e08a15366042b19260fdf5785ccc7b", "fusion_lat": 0.0, "name": "b9e08a15366042b19260fdf5785ccc7b", "is_reserved": 0, "rental_uris": {"android": "https://dc.lft.to/lastmile_qr_scan", "ios": "https://dc.lft.to/lastmile_qr_scan"}, "fusion_lon": 0.0}, {"lat": 38.9376395, "is_disabled": 0, "type": "electric_scooter", "lon": -77.03142316666667, "bike_id": "a23c869a8733157ff9ea43ccac36eee0", "fusion_lat": 0.0, "name": "a23c869a8733157ff9ea43ccac36eee0", "is_reserved": 0, "rental_uris": {"android": "https://dc.lft.to/lastmile_qr_scan", "ios": "https://dc.lft.to/lastmile_qr_scan"}, "fusion_lon": 0.0}, {"lat": 38.896315333333334, "is_disabled": 0, "type": "electric_scooter", "lon": -77.04502616666667, "bike_id": "a3d25ca1abe5acf678567eb8dfa41e3b", "fusion_lat": 0.0, "name": "a3d25ca1abe5acf678567eb8dfa41e3b", "is_reserved": 0, "rental_uris": {"android": "https://dc.lft.to/lastmile_qr_scan", "ios": "https://dc.lft.to/lastmile_qr_scan"}, "fusion_lon": 0.0}, {"lat": 38.8074595, "is_disabled": 0, "type": "electric_bike", "lon": -77.0942565, "bike_id": "b6c0e00b83ac86c634fc066ab3771a8f", "fusion_lat": 0.0, "name": "b6c0e00b83ac86c634fc066ab3771a8f", "is_reserved": 0, "rental_uris": {"android": "https://dc.lft.to/lastmile_qr_scan", "ios": "https://dc.lft.to/lastmile_qr_scan"}, "fusion_lon": 0.0}, {"lat": 38.938787166666664, "is_disabled": 0, "type": "electric_scooter", "lon": -77.02446166666667, "bike_id": "83a1b65185b7e9c784d1c1dc8db496dc", "fusion_lat": 0.0, "name": "83a1b65185b7e9c784d1c1dc8db496dc", "is_reserved": 0, "rental_uris": {"android": "https://dc.lft.to/lastmile_qr_scan", "ios": "https://dc.lft.to/lastmile_qr_scan"}, "fusion_lon": 0.0}, {"lat": 38.925081166666665, "is_disabled": 0, "type": "electric_scooter", "lon": -77.03792066666666, "bike_id": "eaca5001978e65c51eb4b19944a51c6d", "fusion_lat": 0.0, "name": "eaca5001978e65c51eb4b19944a51c6d", "is_reserved": 0, "rental_uris": {"android": "https://dc.lft.to/lastmile_qr_scan", "ios": "https://dc.lft.to/lastmile_qr_scan"}, "fusion_lon": 0.0}, {"lat": 38.92594666666667, "is_disabled": 0, "type": "electric_scooter", "lon": -77.03228283333333, "bike_id": "9d46d80dff6c1c63756bf6b490da74dc", "fusion_lat": 0.0, "name": "9d46d80dff6c1c63756bf6b490da74dc", "is_reserved": 0, "rental_uris": {"android": "https://dc.lft.to/lastmile_qr_scan", "ios": "https://dc.lft.to/lastmile_qr_scan"}, "fusion_lon": 0.0}, {"lat": 38.90955366666667, "is_disabled": 0, "type": "electric_scooter", "lon": -77.03651566666667, "bike_id": "4aa6cfe29b80efe4f56b0a23071e35fc", "fusion_lat": 0.0, "name": "4aa6cfe29b80efe4f56b0a23071e35fc", "is_reserved": 0, "rental_uris": {"android": "https://dc.lft.to/lastmile_qr_scan", "ios": "https://dc.lft.to/lastmile_qr_scan"}, "fusion_lon": 0.0}, {"lat": 38.9121585, "is_disabled": 0, "type": "electric_scooter", "lon": -77.04465416666666, "bike_id": "f437f842054c1cb668f226f11a39dd44", "fusion_lat": 0.0, "name": "f437f842054c1cb668f226f11a39dd44", "is_reserved": 0, "rental_uris": {"android": "https://dc.lft.to/lastmile_qr_scan", "ios": "https://dc.lft.to/lastmile_qr_scan"}, "fusion_lon": 0.0}, {"lat": 38.8846085, "is_disabled": 0, "type": "electric_scooter", "lon": -76.9262225, "bike_id": "e179161cab3bbf36b967fa798e4a40cc", "fusion_lat": 0.0, "name": "e179161cab3bbf36b967fa798e4a40cc", "is_reserved": 0, "rental_uris": {"android": "https://dc.lft.to/lastmile_qr_scan", "ios": "https://dc.lft.to/lastmile_qr_scan"}, "fusion_lon": 0.0}, {"lat": 38.928601666666665, "is_disabled": 0, "type": "electric_bike", "lon": -77.106763, "bike_id": "e583cb461db90ec99fce953c83cf9aaf", "fusion_lat": 0.0, "name": "e583cb461db90ec99fce953c83cf9aaf", "is_reserved": 0, "rental_uris": {"android": "https://dc.lft.to/lastmile_qr_scan", "ios": "https://dc.lft.to/lastmile_qr_scan"}, "fusion_lon": 0.0}, {"lat": 38.90034, "is_disabled": 0, "type": "electric_scooter", "lon": -76.99813583333334, "bike_id": "deb336f23934fcdd8b18fd93e1b77447", "fusion_lat": 0.0, "name": "deb336f23934fcdd8b18fd93e1b77447", "is_reserved": 0, "rental_uris": {"android": "https://dc.lft.to/lastmile_qr_scan", "ios": "https://dc.lft.to/lastmile_qr_scan"}, "fusion_lon": 0.0}, {"lat": 38.908878333333334, "is_disabled": 0, "type": "electric_scooter", "lon": -77.06432633333333, "bike_id": "bd78d827bb046ae0ea22b57d407467de", "fusion_lat": 0.0, "name": "bd78d827bb046ae0ea22b57d407467de", "is_reserved": 0, "rental_uris": {"android": "https://dc.lft.to/lastmile_qr_scan", "ios": "https://dc.lft.to/lastmile_qr_scan"}, "fusion_lon": 0.0}, {"lat": 38.9071775, "is_disabled": 0, "type": "electric_scooter", "lon": -77.03724966666667, "bike_id": "820e1532703bce7d1e886e83e0a751b2", "fusion_lat": 0.0, "name": "820e1532703bce7d1e886e83e0a751b2", "is_reserved": 0, "rental_uris": {"android": "https://dc.lft.to/lastmile_qr_scan", "ios": "https://dc.lft.to/lastmile_qr_scan"}, "fusion_lon": 0.0}, {"lat": 38.938293, "is_disabled": 0, "type": "electric_scooter", "lon": -77.06049416666667, "bike_id": "9456ba3c99bcedc49c2b31ea3e19a4fd", "fusion_lat": 0.0, "name": "9456ba3c99bcedc49c2b31ea3e19a4fd", "is_reserved": 0, "rental_uris": {"android": "https://dc.lft.to/lastmile_qr_scan", "ios": "https://dc.lft.to/lastmile_qr_scan"}, "fusion_lon": 0.0}, {"lat": 38.96606, "is_disabled": 0, "type": "electric_bike", "lon": -76.98330083333333, "bike_id": "270204bbc39bbf528407cb994592af90", "fusion_lat": 0.0, "name": "270204bbc39bbf528407cb994592af90", "is_reserved": 0, "rental_uris": {"android": "https://dc.lft.to/lastmile_qr_scan", "ios": "https://dc.lft.to/lastmile_qr_scan"}, "fusion_lon": 0.0}, {"lat": 38.92304083333333, "is_disabled": 0, "type": "electric_scooter", "lon": -77.0415615, "bike_id": "e24d46cee56c31d2ed4889e79686f619", "fusion_lat": 0.0, "name": "e24d46cee56c31d2ed4889e79686f619", "is_reserved": 0, "rental_uris": {"android": "https://dc.lft.to/lastmile_qr_scan", "ios": "https://dc.lft.to/lastmile_qr_scan"}, "fusion_lon": 0.0}, {"lat": 38.92692733333333, "is_disabled": 0, "type": "electric_scooter", "lon": -77.02593116666667, "bike_id": "e858249ba37401dfb3b0ab08db9a6e05", "fusion_lat": 0.0, "name": "e858249ba37401dfb3b0ab08db9a6e05", "is_reserved": 0, "rental_uris": {"android": "https://dc.lft.to/lastmile_qr_scan", "ios": "https://dc.lft.to/lastmile_qr_scan"}, "fusion_lon": 0.0}, {"lat": 38.8984225, "is_disabled": 0, "type": "electric_scooter", "lon": -76.9310535, "bike_id": "9cdc1f917fc9feeb239043b15197499f", "fusion_lat": 0.0, "name": "9cdc1f917fc9feeb239043b15197499f", "is_reserved": 0, "rental_uris": {"android": "https://dc.lft.to/lastmile_qr_scan", "ios": "https://dc.lft.to/lastmile_qr_scan"}, "fusion_lon": 0.0}, {"lat": 38.937431333333336, "is_disabled": 0, "type": "electric_scooter", "lon": -77.0326325, "bike_id": "f6128e90aa65be7faadf20860979cf4a", "fusion_lat": 0.0, "name": "f6128e90aa65be7faadf20860979cf4a", "is_reserved": 0, "rental_uris": {"android": "https://dc.lft.to/lastmile_qr_scan", "ios": "https://dc.lft.to/lastmile_qr_scan"}, "fusion_lon": 0.0}, {"lat": 38.923233333333336, "is_disabled": 0, "type": "electric_scooter", "lon": -77.02973516666667, "bike_id": "d95994a6ecff77292036f95978c6f085", "fusion_lat": 0.0, "name": "d95994a6ecff77292036f95978c6f085", "is_reserved": 0, "rental_uris": {"android": "https://dc.lft.to/lastmile_qr_scan", "ios": "https://dc.lft.to/lastmile_qr_scan"}, "fusion_lon": 0.0}, {"lat": 38.89840066666667, "is_disabled": 0, "type": "electric_scooter", "lon": -77.00740066666667, "bike_id": "189b804a35937ccbaf8a7e59527060e3", "fusion_lat": 0.0, "name": "189b804a35937ccbaf8a7e59527060e3", "is_reserved": 0, "rental_uris": {"android": "https://dc.lft.to/lastmile_qr_scan", "ios": "https://dc.lft.to/lastmile_qr_scan"}, "fusion_lon": 0.0}, {"lat": 38.9364405, "is_disabled": 0, "type": "electric_bike", "lon": -77.03282883333334, "bike_id": "0b3f9175433e7788cb82603394587615", "fusion_lat": 0.0, "name": "0b3f9175433e7788cb82603394587615", "is_reserved": 0, "rental_uris": {"android": "https://dc.lft.to/lastmile_qr_scan", "ios": "https://dc.lft.to/lastmile_qr_scan"}, "fusion_lon": 0.0}, {"lat": 38.92575266666667, "is_disabled": 0, "type": "electric_scooter", "lon": -76.97006083333333, "bike_id": "452246f057015c818ffb8047d567bfa9", "fusion_lat": 0.0, "name": "452246f057015c818ffb8047d567bfa9", "is_reserved": 0, "rental_uris": {"android": "https://dc.lft.to/lastmile_qr_scan", "ios": "https://dc.lft.to/lastmile_qr_scan"}, "fusion_lon": 0.0}, {"lat": 38.922427, "is_disabled": 0, "type": "electric_bike", "lon": -77.0414955, "bike_id": "5b5ae521f4303bfa59c1060ec8f8d311", "fusion_lat": 0.0, "name": "5b5ae521f4303bfa59c1060ec8f8d311", "is_reserved": 0, "rental_uris": {"android": "https://dc.lft.to/lastmile_qr_scan", "ios": "https://dc.lft.to/lastmile_qr_scan"}, "fusion_lon": 0.0}, {"lat": 38.892316, "is_disabled": 0, "type": "electric_scooter", "lon": -77.04897983333333, "bike_id": "920d04aa80efa9ed762d42b26f0c090f", "fusion_lat": 0.0, "name": "920d04aa80efa9ed762d42b26f0c090f", "is_reserved": 0, "rental_uris": {"android": "https://dc.lft.to/lastmile_qr_scan", "ios": "https://dc.lft.to/lastmile_qr_scan"}, "fusion_lon": 0.0}, {"lat": 38.9333175, "is_disabled": 0, "type": "electric_scooter", "lon": -77.0570585, "bike_id": "2116308285c6dadca52361b15fb73954", "fusion_lat": 0.0, "name": "2116308285c6dadca52361b15fb73954", "is_reserved": 0, "rental_uris": {"android": "https://dc.lft.to/lastmile_qr_scan", "ios": "https://dc.lft.to/lastmile_qr_scan"}, "fusion_lon": 0.0}, {"lat": 38.92446066666667, "is_disabled": 0, "type": "electric_bike", "lon": -77.02696183333333, "bike_id": "d97350b1d5abd028848ffc8fd41f445e", "fusion_lat": 0.0, "name": "d97350b1d5abd028848ffc8fd41f445e", "is_reserved": 0, "rental_uris": {"android": "https://dc.lft.to/lastmile_qr_scan", "ios": "https://dc.lft.to/lastmile_qr_scan"}, "fusion_lon": 0.0}, {"lat": 38.92176533333333, "is_disabled": 0, "type": "electric_scooter", "lon": -77.0382055, "bike_id": "9e606702d737ec396454b49c2264ebce", "fusion_lat": 0.0, "name": "9e606702d737ec396454b49c2264ebce", "is_reserved": 0, "rental_uris": {"android": "https://dc.lft.to/lastmile_qr_scan", "ios": "https://dc.lft.to/lastmile_qr_scan"}, "fusion_lon": 0.0}, {"lat": 38.884310666666664, "is_disabled": 0, "type": "electric_scooter", "lon": -76.95751583333333, "bike_id": "9e0db6bb9cf11f602e60d6b359503460", "fusion_lat": 0.0, "name": "9e0db6bb9cf11f602e60d6b359503460", "is_reserved": 0, "rental_uris": {"android": "https://dc.lft.to/lastmile_qr_scan", "ios": "https://dc.lft.to/lastmile_qr_scan"}, "fusion_lon": 0.0}, {"lat": 38.89776283333333, "is_disabled": 0, "type": "electric_scooter", "lon": -77.03211733333333, "bike_id": "1faf5b4f8c81bd7e6da2c5d3fd2270f4", "fusion_lat": 0.0, "name": "1faf5b4f8c81bd7e6da2c5d3fd2270f4", "is_reserved": 0, "rental_uris": {"android": "https://dc.lft.to/lastmile_qr_scan", "ios": "https://dc.lft.to/lastmile_qr_scan"}, "fusion_lon": 0.0}, {"lat": 38.9361865, "is_disabled": 0, "type": "electric_scooter", "lon": -77.02418033333333, "bike_id": "6690bd90d5c48dcc1ac9b05e419ed38b", "fusion_lat": 0.0, "name": "6690bd90d5c48dcc1ac9b05e419ed38b", "is_reserved": 0, "rental_uris": {"android": "https://dc.lft.to/lastmile_qr_scan", "ios": "https://dc.lft.to/lastmile_qr_scan"}, "fusion_lon": 0.0}, {"lat": 38.855058666666665, "is_disabled": 0, "type": "electric_bike", "lon": -76.9841105, "bike_id": "ee656457ba19810ab2c0550347d52a48", "fusion_lat": 0.0, "name": "ee656457ba19810ab2c0550347d52a48", "is_reserved": 0, "rental_uris": {"android": "https://dc.lft.to/lastmile_qr_scan", "ios": "https://dc.lft.to/lastmile_qr_scan"}, "fusion_lon": 0.0}, {"lat": 38.897608, "is_disabled": 0, "type": "electric_scooter", "lon": -76.94189716666666, "bike_id": "2c015c752117fe92d7561520f9193a57", "fusion_lat": 0.0, "name": "2c015c752117fe92d7561520f9193a57", "is_reserved": 0, "rental_uris": {"android": "https://dc.lft.to/lastmile_qr_scan", "ios": "https://dc.lft.to/lastmile_qr_scan"}, "fusion_lon": 0.0}, {"lat": 38.9087365, "is_disabled": 0, "type": "electric_scooter", "lon": -77.04639116666667, "bike_id": "6125862ad4285d988ecc2227de6662bb", "fusion_lat": 0.0, "name": "6125862ad4285d988ecc2227de6662bb", "is_reserved": 0, "rental_uris": {"android": "https://dc.lft.to/lastmile_qr_scan", "ios": "https://dc.lft.to/lastmile_qr_scan"}, "fusion_lon": 0.0}, {"lat": 38.848188666666665, "is_disabled": 0, "type": "electric_bike", "lon": -77.07898683333333, "bike_id": "937a4149c532835c9bf418d05189aa04", "fusion_lat": 0.0, "name": "937a4149c532835c9bf418d05189aa04", "is_reserved": 0, "rental_uris": {"android": "https://dc.lft.to/lastmile_qr_scan", "ios": "https://dc.lft.to/lastmile_qr_scan"}, "fusion_lon": 0.0}, {"lat": 38.8999155, "is_disabled": 0, "type": "electric_scooter", "lon": -77.033361, "bike_id": "dbb3e3487e0c210ce357e700a7163594", "fusion_lat": 0.0, "name": "dbb3e3487e0c210ce357e700a7163594", "is_reserved": 0, "rental_uris": {"android": "https://dc.lft.to/lastmile_qr_scan", "ios": "https://dc.lft.to/lastmile_qr_scan"}, "fusion_lon": 0.0}, {"lat": 38.911134, "is_disabled": 0, "type": "electric_scooter", "lon": -77.03210083333333, "bike_id": "2f5130a3cdc028e16850f4c244745b00", "fusion_lat": 0.0, "name": "2f5130a3cdc028e16850f4c244745b00", "is_reserved": 0, "rental_uris": {"android": "https://dc.lft.to/lastmile_qr_scan", "ios": "https://dc.lft.to/lastmile_qr_scan"}, "fusion_lon": 0.0}, {"lat": 38.9227535, "is_disabled": 0, "type": "electric_scooter", "lon": -77.01979233333333, "bike_id": "ceceebde69154eb50d385ae02ba968f2", "fusion_lat": 0.0, "name": "ceceebde69154eb50d385ae02ba968f2", "is_reserved": 0, "rental_uris": {"android": "https://dc.lft.to/lastmile_qr_scan", "ios": "https://dc.lft.to/lastmile_qr_scan"}, "fusion_lon": 0.0}, {"lat": 38.9201485, "is_disabled": 0, "type": "electric_scooter", "lon": -77.01947616666666, "bike_id": "9a283863d982d3b7c656a56f08a15a84", "fusion_lat": 0.0, "name": "9a283863d982d3b7c656a56f08a15a84", "is_reserved": 0, "rental_uris": {"android": "https://dc.lft.to/lastmile_qr_scan", "ios": "https://dc.lft.to/lastmile_qr_scan"}, "fusion_lon": 0.0}, {"lat": 38.89931333333333, "is_disabled": 0, "type": "electric_scooter", "lon": -77.01639483333334, "bike_id": "fd6113ef64b0492687c100da5146f790", "fusion_lat": 0.0, "name": "fd6113ef64b0492687c100da5146f790", "is_reserved": 0, "rental_uris": {"android": "https://dc.lft.to/lastmile_qr_scan", "ios": "https://dc.lft.to/lastmile_qr_scan"}, "fusion_lon": 0.0}, {"lat": 38.88027116666667, "is_disabled": 0, "type": "electric_scooter", "lon": -76.9313855, "bike_id": "79babad632b99f1f212b76082e3543f0", "fusion_lat": 0.0, "name": "79babad632b99f1f212b76082e3543f0", "is_reserved": 0, "rental_uris": {"android": "https://dc.lft.to/lastmile_qr_scan", "ios": "https://dc.lft.to/lastmile_qr_scan"}, "fusion_lon": 0.0}, {"lat": 38.92663533333333, "is_disabled": 0, "type": "electric_scooter", "lon": -77.05593883333333, "bike_id": "526e7878bd3fe72b9709373db71751d5", "fusion_lat": 0.0, "name": "526e7878bd3fe72b9709373db71751d5", "is_reserved": 0, "rental_uris": {"android": "https://dc.lft.to/lastmile_qr_scan", "ios": "https://dc.lft.to/lastmile_qr_scan"}, "fusion_lon": 0.0}, {"lat": 38.914193166666664, "is_disabled": 0, "type": "electric_scooter", "lon": -77.04076783333333, "bike_id": "9c3b7fce12bf6a2eb5536a059b813df7", "fusion_lat": 0.0, "name": "9c3b7fce12bf6a2eb5536a059b813df7", "is_reserved": 0, "rental_uris": {"android": "https://dc.lft.to/lastmile_qr_scan", "ios": "https://dc.lft.to/lastmile_qr_scan"}, "fusion_lon": 0.0}, {"lat": 38.7930825, "is_disabled": 0, "type": "electric_bike", "lon": -77.04922616666667, "bike_id": "6c7480ca6c1b3b222af69504b612e721", "fusion_lat": 0.0, "name": "6c7480ca6c1b3b222af69504b612e721", "is_reserved": 0, "rental_uris": {"android": "https://dc.lft.to/lastmile_qr_scan", "ios": "https://dc.lft.to/lastmile_qr_scan"}, "fusion_lon": 0.0}, {"lat": 38.895569, "is_disabled": 0, "type": "electric_scooter", "lon": -76.93376266666667, "bike_id": "482cb6ea5c79f5da354cabfc3af51229", "fusion_lat": 0.0, "name": "482cb6ea5c79f5da354cabfc3af51229", "is_reserved": 0, "rental_uris": {"android": "https://dc.lft.to/lastmile_qr_scan", "ios": "https://dc.lft.to/lastmile_qr_scan"}, "fusion_lon": 0.0}, {"lat": 38.924255333333335, "is_disabled": 0, "type": "electric_scooter", "lon": -77.02986633333333, "bike_id": "d9d5808db7f4cf93b65ea53a3d6ec979", "fusion_lat": 0.0, "name": "d9d5808db7f4cf93b65ea53a3d6ec979", "is_reserved": 0, "rental_uris": {"android": "https://dc.lft.to/lastmile_qr_scan", "ios": "https://dc.lft.to/lastmile_qr_scan"}, "fusion_lon": 0.0}, {"lat": 38.90521616666667, "is_disabled": 0, "type": "electric_scooter", "lon": -77.034675, "bike_id": "dce857c002b4f5639376a0de1b8c01e2", "fusion_lat": 0.0, "name": "dce857c002b4f5639376a0de1b8c01e2", "is_reserved": 0, "rental_uris": {"android": "https://dc.lft.to/lastmile_qr_scan", "ios": "https://dc.lft.to/lastmile_qr_scan"}, "fusion_lon": 0.0}, {"lat": 38.8966095, "is_disabled": 0, "type": "electric_scooter", "lon": -77.02303833333333, "bike_id": "d15c247ab74d9205848f65c799cbffd0", "fusion_lat": 0.0, "name": "d15c247ab74d9205848f65c799cbffd0", "is_reserved": 0, "rental_uris": {"android": "https://dc.lft.to/lastmile_qr_scan", "ios": "https://dc.lft.to/lastmile_qr_scan"}, "fusion_lon": 0.0}, {"lat": 38.90367716666667, "is_disabled": 0, "type": "electric_scooter", "lon": -76.97652533333333, "bike_id": "54a73088df3e1907e0f168a763a69e38", "fusion_lat": 0.0, "name": "54a73088df3e1907e0f168a763a69e38", "is_reserved": 0, "rental_uris": {"android": "https://dc.lft.to/lastmile_qr_scan", "ios": "https://dc.lft.to/lastmile_qr_scan"}, "fusion_lon": 0.0}, {"lat": 38.96799133333333, "is_disabled": 0, "type": "electric_bike", "lon": -76.95657983333334, "bike_id": "7ceb67f1e760cb0ba74261ecb482352c", "fusion_lat": 0.0, "name": "7ceb67f1e760cb0ba74261ecb482352c", "is_reserved": 0, "rental_uris": {"android": "https://dc.lft.to/lastmile_qr_scan", "ios": "https://dc.lft.to/lastmile_qr_scan"}, "fusion_lon": 0.0}, {"lat": 38.89929816666667, "is_disabled": 0, "type": "electric_scooter", "lon": -77.01637883333333, "bike_id": "879c17943524b83414d882d87b75f165", "fusion_lat": 0.0, "name": "879c17943524b83414d882d87b75f165", "is_reserved": 0, "rental_uris": {"android": "https://dc.lft.to/lastmile_qr_scan", "ios": "https://dc.lft.to/lastmile_qr_scan"}, "fusion_lon": 0.0}, {"lat": 38.90213266666667, "is_disabled": 0, "type": "electric_scooter", "lon": -76.98844566666666, "bike_id": "0547a33f3b5d80ab3e7bf7baae784d1b", "fusion_lat": 0.0, "name": "0547a33f3b5d80ab3e7bf7baae784d1b", "is_reserved": 0, "rental_uris": {"android": "https://dc.lft.to/lastmile_qr_scan", "ios": "https://dc.lft.to/lastmile_qr_scan"}, "fusion_lon": 0.0}, {"lat": 38.90479716666667, "is_disabled": 0, "type": "electric_scooter", "lon": -77.00770816666666, "bike_id": "38b9e8e682895afe78f6c136fef9fc11", "fusion_lat": 0.0, "name": "38b9e8e682895afe78f6c136fef9fc11", "is_reserved": 0, "rental_uris": {"android": "https://dc.lft.to/lastmile_qr_scan", "ios": "https://dc.lft.to/lastmile_qr_scan"}, "fusion_lon": 0.0}, {"lat": 38.90452333333333, "is_disabled": 0, "type": "electric_scooter", "lon": -77.04329066666666, "bike_id": "abe67fc73d42862ba913c8419cf7e8ee", "fusion_lat": 0.0, "name": "abe67fc73d42862ba913c8419cf7e8ee", "is_reserved": 0, "rental_uris": {"android": "https://dc.lft.to/lastmile_qr_scan", "ios": "https://dc.lft.to/lastmile_qr_scan"}, "fusion_lon": 0.0}, {"lat": 38.92965216666666, "is_disabled": 0, "type": "electric_scooter", "lon": -77.0281495, "bike_id": "8c526c9c7faf9923c7ccde0ceec4b7b6", "fusion_lat": 0.0, "name": "8c526c9c7faf9923c7ccde0ceec4b7b6", "is_reserved": 0, "rental_uris": {"android": "https://dc.lft.to/lastmile_qr_scan", "ios": "https://dc.lft.to/lastmile_qr_scan"}, "fusion_lon": 0.0}, {"lat": 38.92369716666666, "is_disabled": 0, "type": "electric_scooter", "lon": -77.076806, "bike_id": "694af3da0b90efc0df901cc2d0241c98", "fusion_lat": 0.0, "name": "694af3da0b90efc0df901cc2d0241c98", "is_reserved": 0, "rental_uris": {"android": "https://dc.lft.to/lastmile_qr_scan", "ios": "https://dc.lft.to/lastmile_qr_scan"}, "fusion_lon": 0.0}, {"lat": 38.892944166666666, "is_disabled": 0, "type": "electric_bike", "lon": -77.001438, "bike_id": "1fe06f349ae0a03b04a694988b30e093", "fusion_lat": 0.0, "name": "1fe06f349ae0a03b04a694988b30e093", "is_reserved": 0, "rental_uris": {"android": "https://dc.lft.to/lastmile_qr_scan", "ios": "https://dc.lft.to/lastmile_qr_scan"}, "fusion_lon": 0.0}, {"lat": 38.884247, "is_disabled": 0, "type": "electric_bike", "lon": -76.980878, "bike_id": "3a6bb7fc06f173967cebabaa3d7bd10c", "fusion_lat": 0.0, "name": "3a6bb7fc06f173967cebabaa3d7bd10c", "is_reserved": 0, "rental_uris": {"android": "https://dc.lft.to/lastmile_qr_scan", "ios": "https://dc.lft.to/lastmile_qr_scan"}, "fusion_lon": 0.0}, {"lat": 38.9061055, "is_disabled": 0, "type": "electric_scooter", "lon": -77.05864016666666, "bike_id": "36afd60556a2e996a91aaf4d9d66f292", "fusion_lat": 0.0, "name": "36afd60556a2e996a91aaf4d9d66f292", "is_reserved": 0, "rental_uris": {"android": "https://dc.lft.to/lastmile_qr_scan", "ios": "https://dc.lft.to/lastmile_qr_scan"}, "fusion_lon": 0.0}, {"lat": 38.93190516666667, "is_disabled": 0, "type": "electric_bike", "lon": -77.038741, "bike_id": "d316bfadc9288c2a8f5cd9bf0a76baa9", "fusion_lat": 0.0, "name": "d316bfadc9288c2a8f5cd9bf0a76baa9", "is_reserved": 0, "rental_uris": {"android": "https://dc.lft.to/lastmile_qr_scan", "ios": "https://dc.lft.to/lastmile_qr_scan"}, "fusion_lon": 0.0}, {"lat": 38.895255666666664, "is_disabled": 0, "type": "electric_scooter", "lon": -77.01117733333334, "bike_id": "4b20b0c447589be99964433d056fd8a3", "fusion_lat": 0.0, "name": "4b20b0c447589be99964433d056fd8a3", "is_reserved": 0, "rental_uris": {"android": "https://dc.lft.to/lastmile_qr_scan", "ios": "https://dc.lft.to/lastmile_qr_scan"}, "fusion_lon": 0.0}, {"lat": 38.907228333333336, "is_disabled": 0, "type": "electric_scooter", "lon": -77.04377383333333, "bike_id": "5470113def7b36eb525d8474da3abe49", "fusion_lat": 0.0, "name": "5470113def7b36eb525d8474da3abe49", "is_reserved": 0, "rental_uris": {"android": "https://dc.lft.to/lastmile_qr_scan", "ios": "https://dc.lft.to/lastmile_qr_scan"}, "fusion_lon": 0.0}, {"lat": 38.903240833333335, "is_disabled": 0, "type": "electric_scooter", "lon": -77.03317983333334, "bike_id": "8bddce33123b0c961ced0cddce1ff427", "fusion_lat": 0.0, "name": "8bddce33123b0c961ced0cddce1ff427", "is_reserved": 0, "rental_uris": {"android": "https://dc.lft.to/lastmile_qr_scan", "ios": "https://dc.lft.to/lastmile_qr_scan"}, "fusion_lon": 0.0}, {"lat": 38.909012833333335, "is_disabled": 0, "type": "electric_scooter", "lon": -77.08627266666667, "bike_id": "66a488782245b3fdb1c0d92e9dd300db", "fusion_lat": 0.0, "name": "66a488782245b3fdb1c0d92e9dd300db", "is_reserved": 0, "rental_uris": {"android": "https://dc.lft.to/lastmile_qr_scan", "ios": "https://dc.lft.to/lastmile_qr_scan"}, "fusion_lon": 0.0}, {"lat": 38.892048833333334, "is_disabled": 0, "type": "electric_bike", "lon": -76.97052616666667, "bike_id": "52a1948ca8c3cbe652c08d1de635a325", "fusion_lat": 0.0, "name": "52a1948ca8c3cbe652c08d1de635a325", "is_reserved": 0, "rental_uris": {"android": "https://dc.lft.to/lastmile_qr_scan", "ios": "https://dc.lft.to/lastmile_qr_scan"}, "fusion_lon": 0.0}, {"lat": 38.9300855, "is_disabled": 0, "type": "electric_scooter", "lon": -76.9949635, "bike_id": "2f57d84600703da3e8c44521100a9136", "fusion_lat": 0.0, "name": "2f57d84600703da3e8c44521100a9136", "is_reserved": 0, "rental_uris": {"android": "https://dc.lft.to/lastmile_qr_scan", "ios": "https://dc.lft.to/lastmile_qr_scan"}, "fusion_lon": 0.0}, {"lat": 38.9186705, "is_disabled": 0, "type": "electric_scooter", "lon": -77.07424883333333, "bike_id": "7794cdae8b38811154b898832c52cd7f", "fusion_lat": 0.0, "name": "7794cdae8b38811154b898832c52cd7f", "is_reserved": 0, "rental_uris": {"android": "https://dc.lft.to/lastmile_qr_scan", "ios": "https://dc.lft.to/lastmile_qr_scan"}, "fusion_lon": 0.0}, {"lat": 38.87947066666667, "is_disabled": 0, "type": "electric_scooter", "lon": -77.00688933333333, "bike_id": "e6cbb742fb02866ed30cdb887e70e989", "fusion_lat": 0.0, "name": "e6cbb742fb02866ed30cdb887e70e989", "is_reserved": 0, "rental_uris": {"android": "https://dc.lft.to/lastmile_qr_scan", "ios": "https://dc.lft.to/lastmile_qr_scan"}, "fusion_lon": 0.0}, {"lat": 38.914490666666666, "is_disabled": 0, "type": "electric_scooter", "lon": -77.0384075, "bike_id": "63023f6b29771bd54489bab2b0e39c85", "fusion_lat": 0.0, "name": "63023f6b29771bd54489bab2b0e39c85", "is_reserved": 0, "rental_uris": {"android": "https://dc.lft.to/lastmile_qr_scan", "ios": "https://dc.lft.to/lastmile_qr_scan"}, "fusion_lon": 0.0}, {"lat": 38.919801, "is_disabled": 0, "type": "electric_scooter", "lon": -77.04126616666667, "bike_id": "496ff9ae70c65bb205d5a3eef8029af9", "fusion_lat": 0.0, "name": "496ff9ae70c65bb205d5a3eef8029af9", "is_reserved": 0, "rental_uris": {"android": "https://dc.lft.to/lastmile_qr_scan", "ios": "https://dc.lft.to/lastmile_qr_scan"}, "fusion_lon": 0.0}, {"lat": 38.954077166666664, "is_disabled": 0, "type": "electric_scooter", "lon": -77.02749, "bike_id": "e95b3bd65b4ab922f28307514d2ba70f", "fusion_lat": 0.0, "name": "e95b3bd65b4ab922f28307514d2ba70f", "is_reserved": 0, "rental_uris": {"android": "https://dc.lft.to/lastmile_qr_scan", "ios": "https://dc.lft.to/lastmile_qr_scan"}, "fusion_lon": 0.0}, {"lat": 38.905585, "is_disabled": 0, "type": "electric_scooter", "lon": -77.056903, "bike_id": "517408216c5fc17bcf3b77031a3b8e23", "fusion_lat": 0.0, "name": "517408216c5fc17bcf3b77031a3b8e23", "is_reserved": 0, "rental_uris": {"android": "https://dc.lft.to/lastmile_qr_scan", "ios": "https://dc.lft.to/lastmile_qr_scan"}, "fusion_lon": 0.0}, {"lat": 38.93088483333333, "is_disabled": 0, "type": "electric_scooter", "lon": -77.023785, "bike_id": "656827a55c2e78e87ea7e7b939180ca6", "fusion_lat": 0.0, "name": "656827a55c2e78e87ea7e7b939180ca6", "is_reserved": 0, "rental_uris": {"android": "https://dc.lft.to/lastmile_qr_scan", "ios": "https://dc.lft.to/lastmile_qr_scan"}, "fusion_lon": 0.0}, {"lat": 38.91480516666667, "is_disabled": 0, "type": "electric_scooter", "lon": -77.03457666666667, "bike_id": "de2c11bc93bff2d2ec4dcff68ed47b2f", "fusion_lat": 0.0, "name": "de2c11bc93bff2d2ec4dcff68ed47b2f", "is_reserved": 0, "rental_uris": {"android": "https://dc.lft.to/lastmile_qr_scan", "ios": "https://dc.lft.to/lastmile_qr_scan"}, "fusion_lon": 0.0}, {"lat": 38.802723, "is_disabled": 0, "type": "electric_bike", "lon": -77.08115016666666, "bike_id": "23d245dab6615d9b0a6c2fda5680b65d", "fusion_lat": 0.0, "name": "23d245dab6615d9b0a6c2fda5680b65d", "is_reserved": 0, "rental_uris": {"android": "https://dc.lft.to/lastmile_qr_scan", "ios": "https://dc.lft.to/lastmile_qr_scan"}, "fusion_lon": 0.0}, {"lat": 38.918316833333336, "is_disabled": 0, "type": "electric_scooter", "lon": -77.0452445, "bike_id": "221f883478e6430013447cbcb9d27bce", "fusion_lat": 0.0, "name": "221f883478e6430013447cbcb9d27bce", "is_reserved": 0, "rental_uris": {"android": "https://dc.lft.to/lastmile_qr_scan", "ios": "https://dc.lft.to/lastmile_qr_scan"}, "fusion_lon": 0.0}, {"lat": 38.91701, "is_disabled": 0, "type": "electric_scooter", "lon": -77.030748, "bike_id": "26992e545887612205a508ba2285dbe2", "fusion_lat": 0.0, "name": "26992e545887612205a508ba2285dbe2", "is_reserved": 0, "rental_uris": {"android": "https://dc.lft.to/lastmile_qr_scan", "ios": "https://dc.lft.to/lastmile_qr_scan"}, "fusion_lon": 0.0}, {"lat": 38.918423833333335, "is_disabled": 0, "type": "electric_scooter", "lon": -77.04496416666667, "bike_id": "5ad1562094b99bfc081491ac9bb25ab9", "fusion_lat": 0.0, "name": "5ad1562094b99bfc081491ac9bb25ab9", "is_reserved": 0, "rental_uris": {"android": "https://dc.lft.to/lastmile_qr_scan", "ios": "https://dc.lft.to/lastmile_qr_scan"}, "fusion_lon": 0.0}, {"lat": 38.89748383333333, "is_disabled": 0, "type": "electric_scooter", "lon": -77.03045416666667, "bike_id": "33d52e2c8cf39482795f65de9b569229", "fusion_lat": 0.0, "name": "33d52e2c8cf39482795f65de9b569229", "is_reserved": 0, "rental_uris": {"android": "https://dc.lft.to/lastmile_qr_scan", "ios": "https://dc.lft.to/lastmile_qr_scan"}, "fusion_lon": 0.0}, {"lat": 38.945530833333336, "is_disabled": 0, "type": "electric_bike", "lon": -76.89539933333333, "bike_id": "5667334786e64c407bb02ad28e6debc6", "fusion_lat": 0.0, "name": "5667334786e64c407bb02ad28e6debc6", "is_reserved": 0, "rental_uris": {"android": "https://dc.lft.to/lastmile_qr_scan", "ios": "https://dc.lft.to/lastmile_qr_scan"}, "fusion_lon": 0.0}, {"lat": 38.936635333333335, "is_disabled": 0, "type": "electric_bike", "lon": -76.952171, "bike_id": "32cd26540ab92f2ad415bc8ac855f94e", "fusion_lat": 0.0, "name": "32cd26540ab92f2ad415bc8ac855f94e", "is_reserved": 0, "rental_uris": {"android": "https://dc.lft.to/lastmile_qr_scan", "ios": "https://dc.lft.to/lastmile_qr_scan"}, "fusion_lon": 0.0}, {"lat": 38.943759166666666, "is_disabled": 0, "type": "electric_bike", "lon": -77.07746933333334, "bike_id": "476edc65d2811371a785e3180335f2c4", "fusion_lat": 0.0, "name": "476edc65d2811371a785e3180335f2c4", "is_reserved": 0, "rental_uris": {"android": "https://dc.lft.to/lastmile_qr_scan", "ios": "https://dc.lft.to/lastmile_qr_scan"}, "fusion_lon": 0.0}, {"lat": 38.84430066666667, "is_disabled": 0, "type": "electric_scooter", "lon": -76.997764, "bike_id": "fa6699a5f997a2b3726694097fe12794", "fusion_lat": 0.0, "name": "fa6699a5f997a2b3726694097fe12794", "is_reserved": 0, "rental_uris": {"android": "https://dc.lft.to/lastmile_qr_scan", "ios": "https://dc.lft.to/lastmile_qr_scan"}, "fusion_lon": 0.0}, {"lat": 38.91412783333333, "is_disabled": 0, "type": "electric_scooter", "lon": -77.01122533333333, "bike_id": "b933e6949b21984d139396e5da3bc4e5", "fusion_lat": 0.0, "name": "b933e6949b21984d139396e5da3bc4e5", "is_reserved": 0, "rental_uris": {"android": "https://dc.lft.to/lastmile_qr_scan", "ios": "https://dc.lft.to/lastmile_qr_scan"}, "fusion_lon": 0.0}, {"lat": 38.90077983333333, "is_disabled": 0, "type": "electric_scooter", "lon": -77.0502885, "bike_id": "5ea57a0f63c0e077811a72cd7514d93b", "fusion_lat": 0.0, "name": "5ea57a0f63c0e077811a72cd7514d93b", "is_reserved": 0, "rental_uris": {"android": "https://dc.lft.to/lastmile_qr_scan", "ios": "https://dc.lft.to/lastmile_qr_scan"}, "fusion_lon": 0.0}, {"lat": 38.88093816666667, "is_disabled": 0, "type": "electric_scooter", "lon": -76.99263416666666, "bike_id": "085b37cfb5053870f6b71b85083a9e0f", "fusion_lat": 0.0, "name": "085b37cfb5053870f6b71b85083a9e0f", "is_reserved": 0, "rental_uris": {"android": "https://dc.lft.to/lastmile_qr_scan", "ios": "https://dc.lft.to/lastmile_qr_scan"}, "fusion_lon": 0.0}, {"lat": 38.90936883333333, "is_disabled": 0, "type": "electric_scooter", "lon": -77.0447585, "bike_id": "a3b2b65426a4aa74a3a4cadb4c8df567", "fusion_lat": 0.0, "name": "a3b2b65426a4aa74a3a4cadb4c8df567", "is_reserved": 0, "rental_uris": {"android": "https://dc.lft.to/lastmile_qr_scan", "ios": "https://dc.lft.to/lastmile_qr_scan"}, "fusion_lon": 0.0}, {"lat": 38.92788733333333, "is_disabled": 0, "type": "electric_scooter", "lon": -77.035793, "bike_id": "4a4b55ea350ffb268506d3a4d6f22f59", "fusion_lat": 0.0, "name": "4a4b55ea350ffb268506d3a4d6f22f59", "is_reserved": 0, "rental_uris": {"android": "https://dc.lft.to/lastmile_qr_scan", "ios": "https://dc.lft.to/lastmile_qr_scan"}, "fusion_lon": 0.0}, {"lat": 38.935373166666665, "is_disabled": 0, "type": "electric_scooter", "lon": -77.02354916666667, "bike_id": "7901fbbab191e9b2e693cd9acc288b41", "fusion_lat": 0.0, "name": "7901fbbab191e9b2e693cd9acc288b41", "is_reserved": 0, "rental_uris": {"android": "https://dc.lft.to/lastmile_qr_scan", "ios": "https://dc.lft.to/lastmile_qr_scan"}, "fusion_lon": 0.0}, {"lat": 38.916987166666665, "is_disabled": 0, "type": "electric_scooter", "lon": -77.0244225, "bike_id": "1519d522c7a31fb88b5acdba0ced9129", "fusion_lat": 0.0, "name": "1519d522c7a31fb88b5acdba0ced9129", "is_reserved": 0, "rental_uris": {"android": "https://dc.lft.to/lastmile_qr_scan", "ios": "https://dc.lft.to/lastmile_qr_scan"}, "fusion_lon": 0.0}, {"lat": 38.93260516666667, "is_disabled": 0, "type": "electric_scooter", "lon": -77.01889433333334, "bike_id": "0067e569cc6768a6a00106369b6513ea", "fusion_lat": 0.0, "name": "0067e569cc6768a6a00106369b6513ea", "is_reserved": 0, "rental_uris": {"android": "https://dc.lft.to/lastmile_qr_scan", "ios": "https://dc.lft.to/lastmile_qr_scan"}, "fusion_lon": 0.0}, {"lat": 38.89770733333334, "is_disabled": 0, "type": "electric_scooter", "lon": -77.03219916666667, "bike_id": "3bae91f14b31fb4034311d0b3beb39cc", "fusion_lat": 0.0, "name": "3bae91f14b31fb4034311d0b3beb39cc", "is_reserved": 0, "rental_uris": {"android": "https://dc.lft.to/lastmile_qr_scan", "ios": "https://dc.lft.to/lastmile_qr_scan"}, "fusion_lon": 0.0}, {"lat": 38.9119065, "is_disabled": 0, "type": "electric_scooter", "lon": -77.03840933333333, "bike_id": "f581ad147f16a6b473a5f8922d4c2fcc", "fusion_lat": 0.0, "name": "f581ad147f16a6b473a5f8922d4c2fcc", "is_reserved": 0, "rental_uris": {"android": "https://dc.lft.to/lastmile_qr_scan", "ios": "https://dc.lft.to/lastmile_qr_scan"}, "fusion_lon": 0.0}, {"lat": 38.973313833333336, "is_disabled": 0, "type": "electric_bike", "lon": -77.0214705, "bike_id": "7cb53d3a8f56a2b6ce3a140b6ca3d3b5", "fusion_lat": 0.0, "name": "7cb53d3a8f56a2b6ce3a140b6ca3d3b5", "is_reserved": 0, "rental_uris": {"android": "https://dc.lft.to/lastmile_qr_scan", "ios": "https://dc.lft.to/lastmile_qr_scan"}, "fusion_lon": 0.0}, {"lat": 38.90977633333333, "is_disabled": 0, "type": "electric_scooter", "lon": -77.032243, "bike_id": "4b64e2aced489d5ff07d88be92899de2", "fusion_lat": 0.0, "name": "4b64e2aced489d5ff07d88be92899de2", "is_reserved": 0, "rental_uris": {"android": "https://dc.lft.to/lastmile_qr_scan", "ios": "https://dc.lft.to/lastmile_qr_scan"}, "fusion_lon": 0.0}, {"lat": 38.9312225, "is_disabled": 0, "type": "electric_scooter", "lon": -77.03030983333333, "bike_id": "b5783f0cd8e5cb07296571c1979adb31", "fusion_lat": 0.0, "name": "b5783f0cd8e5cb07296571c1979adb31", "is_reserved": 0, "rental_uris": {"android": "https://dc.lft.to/lastmile_qr_scan", "ios": "https://dc.lft.to/lastmile_qr_scan"}, "fusion_lon": 0.0}, {"lat": 38.942350166666664, "is_disabled": 0, "type": "electric_scooter", "lon": -77.013898, "bike_id": "944e0d851b3002aadbcb6f26836c2d4b", "fusion_lat": 0.0, "name": "944e0d851b3002aadbcb6f26836c2d4b", "is_reserved": 0, "rental_uris": {"android": "https://dc.lft.to/lastmile_qr_scan", "ios": "https://dc.lft.to/lastmile_qr_scan"}, "fusion_lon": 0.0}, {"lat": 38.91359383333333, "is_disabled": 0, "type": "electric_scooter", "lon": -77.01525466666666, "bike_id": "d60620936437e89554298aff32aa24f4", "fusion_lat": 0.0, "name": "d60620936437e89554298aff32aa24f4", "is_reserved": 0, "rental_uris": {"android": "https://dc.lft.to/lastmile_qr_scan", "ios": "https://dc.lft.to/lastmile_qr_scan"}, "fusion_lon": 0.0}, {"lat": 38.908468666666664, "is_disabled": 0, "type": "electric_scooter", "lon": -77.03856433333333, "bike_id": "c1a4301f425dd880c03f4c437c4c30f0", "fusion_lat": 0.0, "name": "c1a4301f425dd880c03f4c437c4c30f0", "is_reserved": 0, "rental_uris": {"android": "https://dc.lft.to/lastmile_qr_scan", "ios": "https://dc.lft.to/lastmile_qr_scan"}, "fusion_lon": 0.0}, {"lat": 38.912728, "is_disabled": 0, "type": "electric_scooter", "lon": -77.00487666666666, "bike_id": "bf41ac5df9246f74912f4fdf243bc804", "fusion_lat": 0.0, "name": "bf41ac5df9246f74912f4fdf243bc804", "is_reserved": 0, "rental_uris": {"android": "https://dc.lft.to/lastmile_qr_scan", "ios": "https://dc.lft.to/lastmile_qr_scan"}, "fusion_lon": 0.0}, {"lat": 38.904855, "is_disabled": 0, "type": "electric_scooter", "lon": -77.00694833333333, "bike_id": "0b0d922dde3bad5ebb20edee234a18d7", "fusion_lat": 0.0, "name": "0b0d922dde3bad5ebb20edee234a18d7", "is_reserved": 0, "rental_uris": {"android": "https://dc.lft.to/lastmile_qr_scan", "ios": "https://dc.lft.to/lastmile_qr_scan"}, "fusion_lon": 0.0}, {"lat": 38.881729, "is_disabled": 0, "type": "electric_scooter", "lon": -76.994841, "bike_id": "3f1f000647739ae97ce1b4007b6a3232", "fusion_lat": 0.0, "name": "3f1f000647739ae97ce1b4007b6a3232", "is_reserved": 0, "rental_uris": {"android": "https://dc.lft.to/lastmile_qr_scan", "ios": "https://dc.lft.to/lastmile_qr_scan"}, "fusion_lon": 0.0}, {"lat": 38.8867575, "is_disabled": 0, "type": "electric_scooter", "lon": -76.98555883333333, "bike_id": "ce25ad2437976157e0fb6fc1ac5820b4", "fusion_lat": 0.0, "name": "ce25ad2437976157e0fb6fc1ac5820b4", "is_reserved": 0, "rental_uris": {"android": "https://dc.lft.to/lastmile_qr_scan", "ios": "https://dc.lft.to/lastmile_qr_scan"}, "fusion_lon": 0.0}, {"lat": 38.9041825, "is_disabled": 0, "type": "electric_scooter", "lon": -76.990764, "bike_id": "a0b612fc1ad3159cefb8d140727dc9fe", "fusion_lat": 0.0, "name": "a0b612fc1ad3159cefb8d140727dc9fe", "is_reserved": 0, "rental_uris": {"android": "https://dc.lft.to/lastmile_qr_scan", "ios": "https://dc.lft.to/lastmile_qr_scan"}, "fusion_lon": 0.0}, {"lat": 38.91464466666667, "is_disabled": 0, "type": "electric_scooter", "lon": -77.03187716666666, "bike_id": "740108637abb3f2113822a4840f6a215", "fusion_lat": 0.0, "name": "740108637abb3f2113822a4840f6a215", "is_reserved": 0, "rental_uris": {"android": "https://dc.lft.to/lastmile_qr_scan", "ios": "https://dc.lft.to/lastmile_qr_scan"}, "fusion_lon": 0.0}, {"lat": 38.846128, "is_disabled": 0, "type": "electric_bike", "lon": -76.9690555, "bike_id": "35ec1dbc5dd5cb8f76c83db5f6892f2b", "fusion_lat": 0.0, "name": "35ec1dbc5dd5cb8f76c83db5f6892f2b", "is_reserved": 0, "rental_uris": {"android": "https://dc.lft.to/lastmile_qr_scan", "ios": "https://dc.lft.to/lastmile_qr_scan"}, "fusion_lon": 0.0}, {"lat": 38.901423666666666, "is_disabled": 0, "type": "electric_scooter", "lon": -76.98057233333333, "bike_id": "bfee0b3a75d4d1f01feca78c73f7c50b", "fusion_lat": 0.0, "name": "bfee0b3a75d4d1f01feca78c73f7c50b", "is_reserved": 0, "rental_uris": {"android": "https://dc.lft.to/lastmile_qr_scan", "ios": "https://dc.lft.to/lastmile_qr_scan"}, "fusion_lon": 0.0}, {"lat": 38.96032916666667, "is_disabled": 0, "type": "electric_scooter", "lon": -77.02827733333334, "bike_id": "6b5f3e2be80f4cd6b13cc1808741f943", "fusion_lat": 0.0, "name": "6b5f3e2be80f4cd6b13cc1808741f943", "is_reserved": 0, "rental_uris": {"android": "https://dc.lft.to/lastmile_qr_scan", "ios": "https://dc.lft.to/lastmile_qr_scan"}, "fusion_lon": 0.0}, {"lat": 38.92028116666667, "is_disabled": 0, "type": "electric_scooter", "lon": -77.04197416666666, "bike_id": "3ae8d2543370ebac7e2b5c5bf3a44481", "fusion_lat": 0.0, "name": "3ae8d2543370ebac7e2b5c5bf3a44481", "is_reserved": 0, "rental_uris": {"android": "https://dc.lft.to/lastmile_qr_scan", "ios": "https://dc.lft.to/lastmile_qr_scan"}, "fusion_lon": 0.0}, {"lat": 38.91979, "is_disabled": 0, "type": "electric_scooter", "lon": -77.00022466666667, "bike_id": "ca40cb5e498b70df1672b7a7c37711c8", "fusion_lat": 0.0, "name": "ca40cb5e498b70df1672b7a7c37711c8", "is_reserved": 0, "rental_uris": {"android": "https://dc.lft.to/lastmile_qr_scan", "ios": "https://dc.lft.to/lastmile_qr_scan"}, "fusion_lon": 0.0}, {"lat": 38.93416666666667, "is_disabled": 0, "type": "electric_bike", "lon": -77.0250715, "bike_id": "3499f0942faa033aa6ab0c61ee764025", "fusion_lat": 0.0, "name": "3499f0942faa033aa6ab0c61ee764025", "is_reserved": 0, "rental_uris": {"android": "https://dc.lft.to/lastmile_qr_scan", "ios": "https://dc.lft.to/lastmile_qr_scan"}, "fusion_lon": 0.0}, {"lat": 38.903672, "is_disabled": 0, "type": "electric_scooter", "lon": -77.02139183333334, "bike_id": "50a2725927cc8bb35364a187042f9e24", "fusion_lat": 0.0, "name": "50a2725927cc8bb35364a187042f9e24", "is_reserved": 0, "rental_uris": {"android": "https://dc.lft.to/lastmile_qr_scan", "ios": "https://dc.lft.to/lastmile_qr_scan"}, "fusion_lon": 0.0}, {"lat": 38.87130616666666, "is_disabled": 0, "type": "electric_scooter", "lon": -77.00781733333334, "bike_id": "58ffb8a3507ebbee7a7bb548f3ef2fe0", "fusion_lat": 0.0, "name": "58ffb8a3507ebbee7a7bb548f3ef2fe0", "is_reserved": 0, "rental_uris": {"android": "https://dc.lft.to/lastmile_qr_scan", "ios": "https://dc.lft.to/lastmile_qr_scan"}, "fusion_lon": 0.0}, {"lat": 38.82872316666667, "is_disabled": 0, "type": "electric_bike", "lon": -77.112266, "bike_id": "dcd2bdda130fcb2090f7153892b1f5fe", "fusion_lat": 0.0, "name": "dcd2bdda130fcb2090f7153892b1f5fe", "is_reserved": 0, "rental_uris": {"android": "https://dc.lft.to/lastmile_qr_scan", "ios": "https://dc.lft.to/lastmile_qr_scan"}, "fusion_lon": 0.0}, {"lat": 38.9097925, "is_disabled": 0, "type": "electric_scooter", "lon": -76.99726283333334, "bike_id": "275290c836be7faaf2bc217afdb49a75", "fusion_lat": 0.0, "name": "275290c836be7faaf2bc217afdb49a75", "is_reserved": 0, "rental_uris": {"android": "https://dc.lft.to/lastmile_qr_scan", "ios": "https://dc.lft.to/lastmile_qr_scan"}, "fusion_lon": 0.0}, {"lat": 38.95617333333333, "is_disabled": 0, "type": "electric_scooter", "lon": -77.0277485, "bike_id": "0e16fe9251165e15af76329a7147274f", "fusion_lat": 0.0, "name": "0e16fe9251165e15af76329a7147274f", "is_reserved": 0, "rental_uris": {"android": "https://dc.lft.to/lastmile_qr_scan", "ios": "https://dc.lft.to/lastmile_qr_scan"}, "fusion_lon": 0.0}, {"lat": 39.000133, "is_disabled": 0, "type": "electric_bike", "lon": -76.91075816666667, "bike_id": "565e8ffbeee05dd8bd08bf57b164694c", "fusion_lat": 0.0, "name": "565e8ffbeee05dd8bd08bf57b164694c", "is_reserved": 0, "rental_uris": {"android": "https://dc.lft.to/lastmile_qr_scan", "ios": "https://dc.lft.to/lastmile_qr_scan"}, "fusion_lon": 0.0}, {"lat": 38.86661466666666, "is_disabled": 0, "type": "electric_scooter", "lon": -76.98882466666667, "bike_id": "10f751f38576ad862587f1e2271c31aa", "fusion_lat": 0.0, "name": "10f751f38576ad862587f1e2271c31aa", "is_reserved": 0, "rental_uris": {"android": "https://dc.lft.to/lastmile_qr_scan", "ios": "https://dc.lft.to/lastmile_qr_scan"}, "fusion_lon": 0.0}, {"lat": 38.9262555, "is_disabled": 0, "type": "electric_scooter", "lon": -77.03787266666667, "bike_id": "aa60ad5976d2748911372081006c8f32", "fusion_lat": 0.0, "name": "aa60ad5976d2748911372081006c8f32", "is_reserved": 0, "rental_uris": {"android": "https://dc.lft.to/lastmile_qr_scan", "ios": "https://dc.lft.to/lastmile_qr_scan"}, "fusion_lon": 0.0}, {"lat": 38.958978333333334, "is_disabled": 0, "type": "electric_bike", "lon": -76.924769, "bike_id": "7953b818da766341d05bbc36eb9269c9", "fusion_lat": 0.0, "name": "7953b818da766341d05bbc36eb9269c9", "is_reserved": 0, "rental_uris": {"android": "https://dc.lft.to/lastmile_qr_scan", "ios": "https://dc.lft.to/lastmile_qr_scan"}, "fusion_lon": 0.0}, {"lat": 38.8836595, "is_disabled": 0, "type": "electric_scooter", "lon": -76.94155866666667, "bike_id": "45d61d8ae10727a26cf4e15c365f7999", "fusion_lat": 0.0, "name": "45d61d8ae10727a26cf4e15c365f7999", "is_reserved": 0, "rental_uris": {"android": "https://dc.lft.to/lastmile_qr_scan", "ios": "https://dc.lft.to/lastmile_qr_scan"}, "fusion_lon": 0.0}, {"lat": 38.918184333333336, "is_disabled": 0, "type": "electric_scooter", "lon": -77.04167016666666, "bike_id": "70f43fadca46904469cc83cff943be06", "fusion_lat": 0.0, "name": "70f43fadca46904469cc83cff943be06", "is_reserved": 0, "rental_uris": {"android": "https://dc.lft.to/lastmile_qr_scan", "ios": "https://dc.lft.to/lastmile_qr_scan"}, "fusion_lon": 0.0}, {"lat": 38.88753033333333, "is_disabled": 0, "type": "electric_scooter", "lon": -77.0217165, "bike_id": "f022f5eb8c289404ee5de0cadeb49c91", "fusion_lat": 0.0, "name": "f022f5eb8c289404ee5de0cadeb49c91", "is_reserved": 0, "rental_uris": {"android": "https://dc.lft.to/lastmile_qr_scan", "ios": "https://dc.lft.to/lastmile_qr_scan"}, "fusion_lon": 0.0}, {"lat": 38.923454, "is_disabled": 0, "type": "electric_scooter", "lon": -77.05110616666667, "bike_id": "fdd74e9eef10fd6d729443ab63488545", "fusion_lat": 0.0, "name": "fdd74e9eef10fd6d729443ab63488545", "is_reserved": 0, "rental_uris": {"android": "https://dc.lft.to/lastmile_qr_scan", "ios": "https://dc.lft.to/lastmile_qr_scan"}, "fusion_lon": 0.0}, {"lat": 38.9274595, "is_disabled": 0, "type": "electric_scooter", "lon": -77.04291733333334, "bike_id": "c54c8fbf702d2fd64f31e465ce8b30c8", "fusion_lat": 0.0, "name": "c54c8fbf702d2fd64f31e465ce8b30c8", "is_reserved": 0, "rental_uris": {"android": "https://dc.lft.to/lastmile_qr_scan", "ios": "https://dc.lft.to/lastmile_qr_scan"}, "fusion_lon": 0.0}, {"lat": 38.957547166666664, "is_disabled": 0, "type": "electric_scooter", "lon": -77.020777, "bike_id": "ba8f7d942cd3e08d7393dd9ef27b0ef0", "fusion_lat": 0.0, "name": "ba8f7d942cd3e08d7393dd9ef27b0ef0", "is_reserved": 0, "rental_uris": {"android": "https://dc.lft.to/lastmile_qr_scan", "ios": "https://dc.lft.to/lastmile_qr_scan"}, "fusion_lon": 0.0}, {"lat": 38.916841166666664, "is_disabled": 0, "type": "electric_scooter", "lon": -77.00193333333333, "bike_id": "2701bc4ab01559e76f405ce0f4b6dbe5", "fusion_lat": 0.0, "name": "2701bc4ab01559e76f405ce0f4b6dbe5", "is_reserved": 0, "rental_uris": {"android": "https://dc.lft.to/lastmile_qr_scan", "ios": "https://dc.lft.to/lastmile_qr_scan"}, "fusion_lon": 0.0}, {"lat": 38.92204, "is_disabled": 0, "type": "electric_scooter", "lon": -76.98370533333333, "bike_id": "68ec3c3a4d9670074cb00497145c4b13", "fusion_lat": 0.0, "name": "68ec3c3a4d9670074cb00497145c4b13", "is_reserved": 0, "rental_uris": {"android": "https://dc.lft.to/lastmile_qr_scan", "ios": "https://dc.lft.to/lastmile_qr_scan"}, "fusion_lon": 0.0}, {"lat": 38.903142, "is_disabled": 0, "type": "electric_scooter", "lon": -77.03825283333333, "bike_id": "676f264218c4672f0ec6783994992df5", "fusion_lat": 0.0, "name": "676f264218c4672f0ec6783994992df5", "is_reserved": 0, "rental_uris": {"android": "https://dc.lft.to/lastmile_qr_scan", "ios": "https://dc.lft.to/lastmile_qr_scan"}, "fusion_lon": 0.0}, {"lat": 38.973270166666666, "is_disabled": 0, "type": "electric_bike", "lon": -77.02151183333334, "bike_id": "4061c689ad8bfebe8779c801d60cff27", "fusion_lat": 0.0, "name": "4061c689ad8bfebe8779c801d60cff27", "is_reserved": 0, "rental_uris": {"android": "https://dc.lft.to/lastmile_qr_scan", "ios": "https://dc.lft.to/lastmile_qr_scan"}, "fusion_lon": 0.0}, {"lat": 38.8831395, "is_disabled": 0, "type": "electric_bike", "lon": -77.03151733333333, "bike_id": "16b351c97ce78ed53b18545fa7b7954a", "fusion_lat": 0.0, "name": "16b351c97ce78ed53b18545fa7b7954a", "is_reserved": 0, "rental_uris": {"android": "https://dc.lft.to/lastmile_qr_scan", "ios": "https://dc.lft.to/lastmile_qr_scan"}, "fusion_lon": 0.0}, {"lat": 38.89391283333333, "is_disabled": 0, "type": "electric_scooter", "lon": -77.0215565, "bike_id": "ac677496f1d28eeca81c33cec3ed4206", "fusion_lat": 0.0, "name": "ac677496f1d28eeca81c33cec3ed4206", "is_reserved": 0, "rental_uris": {"android": "https://dc.lft.to/lastmile_qr_scan", "ios": "https://dc.lft.to/lastmile_qr_scan"}, "fusion_lon": 0.0}, {"lat": 38.86369033333333, "is_disabled": 0, "type": "electric_scooter", "lon": -76.99050416666667, "bike_id": "e4be01bf17cdd492f13d82fc2f5ec6eb", "fusion_lat": 0.0, "name": "e4be01bf17cdd492f13d82fc2f5ec6eb", "is_reserved": 0, "rental_uris": {"android": "https://dc.lft.to/lastmile_qr_scan", "ios": "https://dc.lft.to/lastmile_qr_scan"}, "fusion_lon": 0.0}, {"lat": 38.887071666666664, "is_disabled": 0, "type": "electric_scooter", "lon": -77.03194516666667, "bike_id": "8b9766f33fc550d63eccfd99560c5db3", "fusion_lat": 0.0, "name": "8b9766f33fc550d63eccfd99560c5db3", "is_reserved": 0, "rental_uris": {"android": "https://dc.lft.to/lastmile_qr_scan", "ios": "https://dc.lft.to/lastmile_qr_scan"}, "fusion_lon": 0.0}, {"lat": 38.899528, "is_disabled": 0, "type": "electric_scooter", "lon": -77.05403133333333, "bike_id": "305054b8b35cab030e5d563abaeced72", "fusion_lat": 0.0, "name": "305054b8b35cab030e5d563abaeced72", "is_reserved": 0, "rental_uris": {"android": "https://dc.lft.to/lastmile_qr_scan", "ios": "https://dc.lft.to/lastmile_qr_scan"}, "fusion_lon": 0.0}, {"lat": 38.94328483333334, "is_disabled": 0, "type": "electric_scooter", "lon": -77.07383533333334, "bike_id": "d02a42b0137e226024fb7209e299b421", "fusion_lat": 0.0, "name": "d02a42b0137e226024fb7209e299b421", "is_reserved": 0, "rental_uris": {"android": "https://dc.lft.to/lastmile_qr_scan", "ios": "https://dc.lft.to/lastmile_qr_scan"}, "fusion_lon": 0.0}, {"lat": 38.9269615, "is_disabled": 0, "type": "electric_scooter", "lon": -77.025797, "bike_id": "55c3ae78d440e2870f88748b099ff68c", "fusion_lat": 0.0, "name": "55c3ae78d440e2870f88748b099ff68c", "is_reserved": 0, "rental_uris": {"android": "https://dc.lft.to/lastmile_qr_scan", "ios": "https://dc.lft.to/lastmile_qr_scan"}, "fusion_lon": 0.0}, {"lat": 38.90514866666667, "is_disabled": 0, "type": "electric_scooter", "lon": -77.03169316666667, "bike_id": "e3169b488c5fa34793e96bc5566368f8", "fusion_lat": 0.0, "name": "e3169b488c5fa34793e96bc5566368f8", "is_reserved": 0, "rental_uris": {"android": "https://dc.lft.to/lastmile_qr_scan", "ios": "https://dc.lft.to/lastmile_qr_scan"}, "fusion_lon": 0.0}, {"lat": 38.92842366666667, "is_disabled": 0, "type": "electric_scooter", "lon": -76.99851916666667, "bike_id": "0b1c0da49f53dc9bfab1ee6a4c8d513c", "fusion_lat": 0.0, "name": "0b1c0da49f53dc9bfab1ee6a4c8d513c", "is_reserved": 0, "rental_uris": {"android": "https://dc.lft.to/lastmile_qr_scan", "ios": "https://dc.lft.to/lastmile_qr_scan"}, "fusion_lon": 0.0}, {"lat": 38.94512566666667, "is_disabled": 0, "type": "electric_bike", "lon": -77.0066565, "bike_id": "7e902cb45664830eb034e2e57131b5aa", "fusion_lat": 0.0, "name": "7e902cb45664830eb034e2e57131b5aa", "is_reserved": 0, "rental_uris": {"android": "https://dc.lft.to/lastmile_qr_scan", "ios": "https://dc.lft.to/lastmile_qr_scan"}, "fusion_lon": 0.0}, {"lat": 38.922516333333334, "is_disabled": 0, "type": "electric_scooter", "lon": -77.03084333333334, "bike_id": "4c9712091fbb2d1153fa1e01c8ccf4ea", "fusion_lat": 0.0, "name": "4c9712091fbb2d1153fa1e01c8ccf4ea", "is_reserved": 0, "rental_uris": {"android": "https://dc.lft.to/lastmile_qr_scan", "ios": "https://dc.lft.to/lastmile_qr_scan"}, "fusion_lon": 0.0}, {"lat": 38.9056595, "is_disabled": 0, "type": "electric_scooter", "lon": -77.03451116666666, "bike_id": "6bceb4d89ca14ef83ce5d3dae8bf03c6", "fusion_lat": 0.0, "name": "6bceb4d89ca14ef83ce5d3dae8bf03c6", "is_reserved": 0, "rental_uris": {"android": "https://dc.lft.to/lastmile_qr_scan", "ios": "https://dc.lft.to/lastmile_qr_scan"}, "fusion_lon": 0.0}, {"lat": 38.919893333333334, "is_disabled": 0, "type": "electric_scooter", "lon": -77.04163366666667, "bike_id": "c852a472944a87f39f432d6296ec6870", "fusion_lat": 0.0, "name": "c852a472944a87f39f432d6296ec6870", "is_reserved": 0, "rental_uris": {"android": "https://dc.lft.to/lastmile_qr_scan", "ios": "https://dc.lft.to/lastmile_qr_scan"}, "fusion_lon": 0.0}, {"lat": 38.924236, "is_disabled": 0, "type": "electric_scooter", "lon": -77.05598866666666, "bike_id": "861bbeac9b2ba7d7702c0c401dea2c39", "fusion_lat": 0.0, "name": "861bbeac9b2ba7d7702c0c401dea2c39", "is_reserved": 0, "rental_uris": {"android": "https://dc.lft.to/lastmile_qr_scan", "ios": "https://dc.lft.to/lastmile_qr_scan"}, "fusion_lon": 0.0}, {"lat": 38.9204185, "is_disabled": 0, "type": "electric_scooter", "lon": -77.04198333333333, "bike_id": "314d3f9cd1dca5a7512ab887510777a2", "fusion_lat": 0.0, "name": "314d3f9cd1dca5a7512ab887510777a2", "is_reserved": 0, "rental_uris": {"android": "https://dc.lft.to/lastmile_qr_scan", "ios": "https://dc.lft.to/lastmile_qr_scan"}, "fusion_lon": 0.0}, {"lat": 38.91184616666666, "is_disabled": 0, "type": "electric_scooter", "lon": -77.03504016666666, "bike_id": "e0604c523fe27f477fd87aedf4a4c97e", "fusion_lat": 0.0, "name": "e0604c523fe27f477fd87aedf4a4c97e", "is_reserved": 0, "rental_uris": {"android": "https://dc.lft.to/lastmile_qr_scan", "ios": "https://dc.lft.to/lastmile_qr_scan"}, "fusion_lon": 0.0}, {"lat": 38.90773683333333, "is_disabled": 0, "type": "electric_scooter", "lon": -77.00239666666667, "bike_id": "7e9be81bece9e26ccffafa2ad4406a82", "fusion_lat": 0.0, "name": "7e9be81bece9e26ccffafa2ad4406a82", "is_reserved": 0, "rental_uris": {"android": "https://dc.lft.to/lastmile_qr_scan", "ios": "https://dc.lft.to/lastmile_qr_scan"}, "fusion_lon": 0.0}, {"lat": 38.906849666666666, "is_disabled": 0, "type": "electric_scooter", "lon": -77.06264233333333, "bike_id": "47e61fa1d1b9e749919a1d7e3e9eddae", "fusion_lat": 0.0, "name": "47e61fa1d1b9e749919a1d7e3e9eddae", "is_reserved": 0, "rental_uris": {"android": "https://dc.lft.to/lastmile_qr_scan", "ios": "https://dc.lft.to/lastmile_qr_scan"}, "fusion_lon": 0.0}, {"lat": 38.845886166666666, "is_disabled": 0, "type": "electric_scooter", "lon": -76.9816185, "bike_id": "53c54623e579013323f0ff22092ecb31", "fusion_lat": 0.0, "name": "53c54623e579013323f0ff22092ecb31", "is_reserved": 0, "rental_uris": {"android": "https://dc.lft.to/lastmile_qr_scan", "ios": "https://dc.lft.to/lastmile_qr_scan"}, "fusion_lon": 0.0}, {"lat": 38.907646666666665, "is_disabled": 0, "type": "electric_scooter", "lon": -77.00024216666667, "bike_id": "b2096efe91710e15e427e0b64cb359ed", "fusion_lat": 0.0, "name": "b2096efe91710e15e427e0b64cb359ed", "is_reserved": 0, "rental_uris": {"android": "https://dc.lft.to/lastmile_qr_scan", "ios": "https://dc.lft.to/lastmile_qr_scan"}, "fusion_lon": 0.0}, {"lat": 38.90152, "is_disabled": 0, "type": "electric_scooter", "lon": -76.99017983333333, "bike_id": "409e72ca91f7fe85c6cf3f4c19c2fc3d", "fusion_lat": 0.0, "name": "409e72ca91f7fe85c6cf3f4c19c2fc3d", "is_reserved": 0, "rental_uris": {"android": "https://dc.lft.to/lastmile_qr_scan", "ios": "https://dc.lft.to/lastmile_qr_scan"}, "fusion_lon": 0.0}, {"lat": 38.964904833333335, "is_disabled": 0, "type": "electric_scooter", "lon": -77.027846, "bike_id": "8c4e08e671915f181e1bbb2ef3e5d065", "fusion_lat": 0.0, "name": "8c4e08e671915f181e1bbb2ef3e5d065", "is_reserved": 0, "rental_uris": {"android": "https://dc.lft.to/lastmile_qr_scan", "ios": "https://dc.lft.to/lastmile_qr_scan"}, "fusion_lon": 0.0}, {"lat": 38.921842166666664, "is_disabled": 0, "type": "electric_scooter", "lon": -77.047071, "bike_id": "26f81e897c348034e0fd7399ea9d0af8", "fusion_lat": 0.0, "name": "26f81e897c348034e0fd7399ea9d0af8", "is_reserved": 0, "rental_uris": {"android": "https://dc.lft.to/lastmile_qr_scan", "ios": "https://dc.lft.to/lastmile_qr_scan"}, "fusion_lon": 0.0}, {"lat": 38.932381, "is_disabled": 0, "type": "electric_scooter", "lon": -77.03267283333334, "bike_id": "f1455c5e4d3ef08d630b6df9fb7f365b", "fusion_lat": 0.0, "name": "f1455c5e4d3ef08d630b6df9fb7f365b", "is_reserved": 0, "rental_uris": {"android": "https://dc.lft.to/lastmile_qr_scan", "ios": "https://dc.lft.to/lastmile_qr_scan"}, "fusion_lon": 0.0}, {"lat": 38.86646666666667, "is_disabled": 0, "type": "electric_scooter", "lon": -76.98889016666666, "bike_id": "214cc7064fd0104d0463b8717cdebd7a", "fusion_lat": 0.0, "name": "214cc7064fd0104d0463b8717cdebd7a", "is_reserved": 0, "rental_uris": {"android": "https://dc.lft.to/lastmile_qr_scan", "ios": "https://dc.lft.to/lastmile_qr_scan"}, "fusion_lon": 0.0}, {"lat": 38.897529166666665, "is_disabled": 0, "type": "electric_scooter", "lon": -77.01848966666667, "bike_id": "b92034fce0b2d42a99ae496d63c14c23", "fusion_lat": 0.0, "name": "b92034fce0b2d42a99ae496d63c14c23", "is_reserved": 0, "rental_uris": {"android": "https://dc.lft.to/lastmile_qr_scan", "ios": "https://dc.lft.to/lastmile_qr_scan"}, "fusion_lon": 0.0}, {"lat": 38.902956333333336, "is_disabled": 0, "type": "electric_scooter", "lon": -77.038366, "bike_id": "5cd4abb73a773ee56e4922bee2b83efa", "fusion_lat": 0.0, "name": "5cd4abb73a773ee56e4922bee2b83efa", "is_reserved": 0, "rental_uris": {"android": "https://dc.lft.to/lastmile_qr_scan", "ios": "https://dc.lft.to/lastmile_qr_scan"}, "fusion_lon": 0.0}, {"lat": 38.89499583333333, "is_disabled": 0, "type": "electric_scooter", "lon": -77.02157533333333, "bike_id": "553bd66301ea3e4d37f7fe858e138c71", "fusion_lat": 0.0, "name": "553bd66301ea3e4d37f7fe858e138c71", "is_reserved": 0, "rental_uris": {"android": "https://dc.lft.to/lastmile_qr_scan", "ios": "https://dc.lft.to/lastmile_qr_scan"}, "fusion_lon": 0.0}, {"lat": 38.916817, "is_disabled": 0, "type": "electric_scooter", "lon": -77.02960133333333, "bike_id": "eb7ea5b19977bdb6395d6458e320931f", "fusion_lat": 0.0, "name": "eb7ea5b19977bdb6395d6458e320931f", "is_reserved": 0, "rental_uris": {"android": "https://dc.lft.to/lastmile_qr_scan", "ios": "https://dc.lft.to/lastmile_qr_scan"}, "fusion_lon": 0.0}, {"lat": 38.930225, "is_disabled": 0, "type": "electric_scooter", "lon": -77.01291766666667, "bike_id": "4019b34e9879043af7c41249c6d25d53", "fusion_lat": 0.0, "name": "4019b34e9879043af7c41249c6d25d53", "is_reserved": 0, "rental_uris": {"android": "https://dc.lft.to/lastmile_qr_scan", "ios": "https://dc.lft.to/lastmile_qr_scan"}, "fusion_lon": 0.0}, {"lat": 38.85451183333333, "is_disabled": 0, "type": "electric_scooter", "lon": -76.98584883333334, "bike_id": "093ff10c8f4a999c84e2cd09c2c9db88", "fusion_lat": 0.0, "name": "093ff10c8f4a999c84e2cd09c2c9db88", "is_reserved": 0, "rental_uris": {"android": "https://dc.lft.to/lastmile_qr_scan", "ios": "https://dc.lft.to/lastmile_qr_scan"}, "fusion_lon": 0.0}, {"lat": 38.9581095, "is_disabled": 0, "type": "electric_scooter", "lon": -77.03164316666667, "bike_id": "5c671e583888b2e8c05525ed428b7ac9", "fusion_lat": 0.0, "name": "5c671e583888b2e8c05525ed428b7ac9", "is_reserved": 0, "rental_uris": {"android": "https://dc.lft.to/lastmile_qr_scan", "ios": "https://dc.lft.to/lastmile_qr_scan"}, "fusion_lon": 0.0}, {"lat": 38.88974233333333, "is_disabled": 0, "type": "electric_scooter", "lon": -76.97936566666667, "bike_id": "7fd11192ad6a6e5098a98c5ebbf16b78", "fusion_lat": 0.0, "name": "7fd11192ad6a6e5098a98c5ebbf16b78", "is_reserved": 0, "rental_uris": {"android": "https://dc.lft.to/lastmile_qr_scan", "ios": "https://dc.lft.to/lastmile_qr_scan"}, "fusion_lon": 0.0}, {"lat": 38.9174375, "is_disabled": 0, "type": "electric_scooter", "lon": -77.02121516666666, "bike_id": "9fc66aa8617523ce93c7bbc6e510d9b7", "fusion_lat": 0.0, "name": "9fc66aa8617523ce93c7bbc6e510d9b7", "is_reserved": 0, "rental_uris": {"android": "https://dc.lft.to/lastmile_qr_scan", "ios": "https://dc.lft.to/lastmile_qr_scan"}, "fusion_lon": 0.0}, {"lat": 38.86449016666667, "is_disabled": 0, "type": "electric_bike", "lon": -76.945363, "bike_id": "4f4730c1b4be620220ef03e16bca4294", "fusion_lat": 0.0, "name": "4f4730c1b4be620220ef03e16bca4294", "is_reserved": 0, "rental_uris": {"android": "https://dc.lft.to/lastmile_qr_scan", "ios": "https://dc.lft.to/lastmile_qr_scan"}, "fusion_lon": 0.0}, {"lat": 38.87146383333334, "is_disabled": 0, "type": "electric_bike", "lon": -76.936993, "bike_id": "0c701d8d2e3324e054df3751759df773", "fusion_lat": 0.0, "name": "0c701d8d2e3324e054df3751759df773", "is_reserved": 0, "rental_uris": {"android": "https://dc.lft.to/lastmile_qr_scan", "ios": "https://dc.lft.to/lastmile_qr_scan"}, "fusion_lon": 0.0}, {"lat": 38.90921633333333, "is_disabled": 0, "type": "electric_scooter", "lon": -76.99891333333333, "bike_id": "30f43fdce0675602fe2e1eeb41780c85", "fusion_lat": 0.0, "name": "30f43fdce0675602fe2e1eeb41780c85", "is_reserved": 0, "rental_uris": {"android": "https://dc.lft.to/lastmile_qr_scan", "ios": "https://dc.lft.to/lastmile_qr_scan"}, "fusion_lon": 0.0}, {"lat": 38.9182505, "is_disabled": 0, "type": "electric_scooter", "lon": -77.01213033333333, "bike_id": "f6cd9d699aef8af24682b1717471d62a", "fusion_lat": 0.0, "name": "f6cd9d699aef8af24682b1717471d62a", "is_reserved": 0, "rental_uris": {"android": "https://dc.lft.to/lastmile_qr_scan", "ios": "https://dc.lft.to/lastmile_qr_scan"}, "fusion_lon": 0.0}, {"lat": 38.91818, "is_disabled": 0, "type": "electric_scooter", "lon": -77.03169416666667, "bike_id": "5388d11c7859d5412d1307ab736acc9b", "fusion_lat": 0.0, "name": "5388d11c7859d5412d1307ab736acc9b", "is_reserved": 0, "rental_uris": {"android": "https://dc.lft.to/lastmile_qr_scan", "ios": "https://dc.lft.to/lastmile_qr_scan"}, "fusion_lon": 0.0}, {"lat": 38.90180983333333, "is_disabled": 0, "type": "electric_scooter", "lon": -77.048486, "bike_id": "b8fe5a3714e07f3c9c53fe72f92f7be9", "fusion_lat": 0.0, "name": "b8fe5a3714e07f3c9c53fe72f92f7be9", "is_reserved": 0, "rental_uris": {"android": "https://dc.lft.to/lastmile_qr_scan", "ios": "https://dc.lft.to/lastmile_qr_scan"}, "fusion_lon": 0.0}, {"lat": 38.8962085, "is_disabled": 0, "type": "electric_scooter", "lon": -77.03211583333334, "bike_id": "7274eb9b842ff2d75411ccfcf9cbd251", "fusion_lat": 0.0, "name": "7274eb9b842ff2d75411ccfcf9cbd251", "is_reserved": 0, "rental_uris": {"android": "https://dc.lft.to/lastmile_qr_scan", "ios": "https://dc.lft.to/lastmile_qr_scan"}, "fusion_lon": 0.0}, {"lat": 38.89231616666667, "is_disabled": 0, "type": "electric_scooter", "lon": -77.04999233333334, "bike_id": "dabd05dcda5526211db757d8ca746d78", "fusion_lat": 0.0, "name": "dabd05dcda5526211db757d8ca746d78", "is_reserved": 0, "rental_uris": {"android": "https://dc.lft.to/lastmile_qr_scan", "ios": "https://dc.lft.to/lastmile_qr_scan"}, "fusion_lon": 0.0}, {"lat": 38.941802333333335, "is_disabled": 0, "type": "electric_scooter", "lon": -77.03653633333333, "bike_id": "82e1b226835d68bf3e97491c16eca6d6", "fusion_lat": 0.0, "name": "82e1b226835d68bf3e97491c16eca6d6", "is_reserved": 0, "rental_uris": {"android": "https://dc.lft.to/lastmile_qr_scan", "ios": "https://dc.lft.to/lastmile_qr_scan"}, "fusion_lon": 0.0}, {"lat": 38.8652675, "is_disabled": 0, "type": "electric_scooter", "lon": -76.99032383333333, "bike_id": "a43e86a0382655b0493e391622ce28f1", "fusion_lat": 0.0, "name": "a43e86a0382655b0493e391622ce28f1", "is_reserved": 0, "rental_uris": {"android": "https://dc.lft.to/lastmile_qr_scan", "ios": "https://dc.lft.to/lastmile_qr_scan"}, "fusion_lon": 0.0}, {"lat": 38.870664, "is_disabled": 0, "type": "electric_scooter", "lon": -77.008354, "bike_id": "fe85083f2a17c18cb9839e5cc54d8eb9", "fusion_lat": 0.0, "name": "fe85083f2a17c18cb9839e5cc54d8eb9", "is_reserved": 0, "rental_uris": {"android": "https://dc.lft.to/lastmile_qr_scan", "ios": "https://dc.lft.to/lastmile_qr_scan"}, "fusion_lon": 0.0}, {"lat": 38.92672433333333, "is_disabled": 0, "type": "electric_scooter", "lon": -77.02983, "bike_id": "2509bf28e9bf44ceca408c1472cf5f32", "fusion_lat": 0.0, "name": "2509bf28e9bf44ceca408c1472cf5f32", "is_reserved": 0, "rental_uris": {"android": "https://dc.lft.to/lastmile_qr_scan", "ios": "https://dc.lft.to/lastmile_qr_scan"}, "fusion_lon": 0.0}, {"lat": 38.9394715, "is_disabled": 0, "type": "electric_scooter", "lon": -77.06106233333334, "bike_id": "b7c3a27f8ee9ce2feb8f9072b3e30d52", "fusion_lat": 0.0, "name": "b7c3a27f8ee9ce2feb8f9072b3e30d52", "is_reserved": 0, "rental_uris": {"android": "https://dc.lft.to/lastmile_qr_scan", "ios": "https://dc.lft.to/lastmile_qr_scan"}, "fusion_lon": 0.0}, {"lat": 38.892338, "is_disabled": 0, "type": "electric_scooter", "lon": -77.04897733333334, "bike_id": "7e675b66804c80f2110ff898d2390c9d", "fusion_lat": 0.0, "name": "7e675b66804c80f2110ff898d2390c9d", "is_reserved": 0, "rental_uris": {"android": "https://dc.lft.to/lastmile_qr_scan", "ios": "https://dc.lft.to/lastmile_qr_scan"}, "fusion_lon": 0.0}, {"lat": 38.862127, "is_disabled": 0, "type": "electric_bike", "lon": -76.99777033333334, "bike_id": "f1df282d4f01d18f23978dc74211aef9", "fusion_lat": 0.0, "name": "f1df282d4f01d18f23978dc74211aef9", "is_reserved": 0, "rental_uris": {"android": "https://dc.lft.to/lastmile_qr_scan", "ios": "https://dc.lft.to/lastmile_qr_scan"}, "fusion_lon": 0.0}, {"lat": 38.927409, "is_disabled": 0, "type": "electric_scooter", "lon": -77.03452566666667, "bike_id": "1caa5977824b3789a2f63f3620810a0a", "fusion_lat": 0.0, "name": "1caa5977824b3789a2f63f3620810a0a", "is_reserved": 0, "rental_uris": {"android": "https://dc.lft.to/lastmile_qr_scan", "ios": "https://dc.lft.to/lastmile_qr_scan"}, "fusion_lon": 0.0}, {"lat": 38.91597566666667, "is_disabled": 0, "type": "electric_scooter", "lon": -77.0461485, "bike_id": "bef04df42f6ac41f9601b720263a5ff0", "fusion_lat": 0.0, "name": "bef04df42f6ac41f9601b720263a5ff0", "is_reserved": 0, "rental_uris": {"android": "https://dc.lft.to/lastmile_qr_scan", "ios": "https://dc.lft.to/lastmile_qr_scan"}, "fusion_lon": 0.0}, {"lat": 38.91938783333333, "is_disabled": 0, "type": "electric_scooter", "lon": -77.04543, "bike_id": "f6174dd4d8400df6556f6e031b09632f", "fusion_lat": 0.0, "name": "f6174dd4d8400df6556f6e031b09632f", "is_reserved": 0, "rental_uris": {"android": "https://dc.lft.to/lastmile_qr_scan", "ios": "https://dc.lft.to/lastmile_qr_scan"}, "fusion_lon": 0.0}, {"lat": 38.956174833333336, "is_disabled": 0, "type": "electric_scooter", "lon": -77.02760566666667, "bike_id": "1c6d9fddec8cbcebb4869c7adb33c0e4", "fusion_lat": 0.0, "name": "1c6d9fddec8cbcebb4869c7adb33c0e4", "is_reserved": 0, "rental_uris": {"android": "https://dc.lft.to/lastmile_qr_scan", "ios": "https://dc.lft.to/lastmile_qr_scan"}, "fusion_lon": 0.0}, {"lat": 38.92762366666667, "is_disabled": 0, "type": "electric_scooter", "lon": -77.03215566666667, "bike_id": "99a88133f30ed9d9824169f89c8c63bc", "fusion_lat": 0.0, "name": "99a88133f30ed9d9824169f89c8c63bc", "is_reserved": 0, "rental_uris": {"android": "https://dc.lft.to/lastmile_qr_scan", "ios": "https://dc.lft.to/lastmile_qr_scan"}, "fusion_lon": 0.0}, {"lat": 38.924849333333334, "is_disabled": 0, "type": "electric_scooter", "lon": -77.02844183333333, "bike_id": "ff0a9d1a9d182e328a19fd20ed22d885", "fusion_lat": 0.0, "name": "ff0a9d1a9d182e328a19fd20ed22d885", "is_reserved": 0, "rental_uris": {"android": "https://dc.lft.to/lastmile_qr_scan", "ios": "https://dc.lft.to/lastmile_qr_scan"}, "fusion_lon": 0.0}, {"lat": 38.8981875, "is_disabled": 0, "type": "electric_scooter", "lon": -76.9969385, "bike_id": "5c548af2d5f29540cf1f4658946a1c0f", "fusion_lat": 0.0, "name": "5c548af2d5f29540cf1f4658946a1c0f", "is_reserved": 0, "rental_uris": {"android": "https://dc.lft.to/lastmile_qr_scan", "ios": "https://dc.lft.to/lastmile_qr_scan"}, "fusion_lon": 0.0}, {"lat": 39.0563465, "is_disabled": 0, "type": "electric_bike", "lon": -77.12527833333333, "bike_id": "d376bc08ba062cab86a2c53e7cc0fe8b", "fusion_lat": 0.0, "name": "d376bc08ba062cab86a2c53e7cc0fe8b", "is_reserved": 0, "rental_uris": {"android": "https://dc.lft.to/lastmile_qr_scan", "ios": "https://dc.lft.to/lastmile_qr_scan"}, "fusion_lon": 0.0}, {"lat": 38.91174766666666, "is_disabled": 0, "type": "electric_scooter", "lon": -77.0608745, "bike_id": "b7ba0234c1cf0a2508fdbcab0eb1de14", "fusion_lat": 0.0, "name": "b7ba0234c1cf0a2508fdbcab0eb1de14", "is_reserved": 0, "rental_uris": {"android": "https://dc.lft.to/lastmile_qr_scan", "ios": "https://dc.lft.to/lastmile_qr_scan"}, "fusion_lon": 0.0}, {"lat": 38.886419, "is_disabled": 0, "type": "electric_bike", "lon": -76.95474483333334, "bike_id": "d3c0353f7fd98f8ea9c1b84589216cf3", "fusion_lat": 0.0, "name": "d3c0353f7fd98f8ea9c1b84589216cf3", "is_reserved": 0, "rental_uris": {"android": "https://dc.lft.to/lastmile_qr_scan", "ios": "https://dc.lft.to/lastmile_qr_scan"}, "fusion_lon": 0.0}, {"lat": 38.90131933333333, "is_disabled": 0, "type": "electric_scooter", "lon": -77.02883716666666, "bike_id": "59f40e0ffa63140250f6f8c9507fed39", "fusion_lat": 0.0, "name": "59f40e0ffa63140250f6f8c9507fed39", "is_reserved": 0, "rental_uris": {"android": "https://dc.lft.to/lastmile_qr_scan", "ios": "https://dc.lft.to/lastmile_qr_scan"}, "fusion_lon": 0.0}, {"lat": 38.9003505, "is_disabled": 0, "type": "electric_scooter", "lon": -76.977203, "bike_id": "c5d7e0d4b971b3c351dc3b995bc06647", "fusion_lat": 0.0, "name": "c5d7e0d4b971b3c351dc3b995bc06647", "is_reserved": 0, "rental_uris": {"android": "https://dc.lft.to/lastmile_qr_scan", "ios": "https://dc.lft.to/lastmile_qr_scan"}, "fusion_lon": 0.0}, {"lat": 38.917485666666664, "is_disabled": 0, "type": "electric_scooter", "lon": -77.0415995, "bike_id": "eb7b69e8b0e2bb7cf64a35703531cfe8", "fusion_lat": 0.0, "name": "eb7b69e8b0e2bb7cf64a35703531cfe8", "is_reserved": 0, "rental_uris": {"android": "https://dc.lft.to/lastmile_qr_scan", "ios": "https://dc.lft.to/lastmile_qr_scan"}, "fusion_lon": 0.0}, {"lat": 38.935019, "is_disabled": 0, "type": "electric_scooter", "lon": -77.0580555, "bike_id": "e7b23eea810ca637acac6d1d0fecbdf5", "fusion_lat": 0.0, "name": "e7b23eea810ca637acac6d1d0fecbdf5", "is_reserved": 0, "rental_uris": {"android": "https://dc.lft.to/lastmile_qr_scan", "ios": "https://dc.lft.to/lastmile_qr_scan"}, "fusion_lon": 0.0}, {"lat": 38.908631666666665, "is_disabled": 0, "type": "electric_scooter", "lon": -77.04591266666667, "bike_id": "79f769182925a1c0b187b15aa312eff2", "fusion_lat": 0.0, "name": "79f769182925a1c0b187b15aa312eff2", "is_reserved": 0, "rental_uris": {"android": "https://dc.lft.to/lastmile_qr_scan", "ios": "https://dc.lft.to/lastmile_qr_scan"}, "fusion_lon": 0.0}, {"lat": 38.923855833333334, "is_disabled": 0, "type": "electric_scooter", "lon": -77.03661716666667, "bike_id": "926df6ff600a5bd5068c7e6a7dd89765", "fusion_lat": 0.0, "name": "926df6ff600a5bd5068c7e6a7dd89765", "is_reserved": 0, "rental_uris": {"android": "https://dc.lft.to/lastmile_qr_scan", "ios": "https://dc.lft.to/lastmile_qr_scan"}, "fusion_lon": 0.0}, {"lat": 38.83679683333333, "is_disabled": 0, "type": "electric_scooter", "lon": -77.00574933333333, "bike_id": "df9fa5a9cd7bc93f794fca1299d74889", "fusion_lat": 0.0, "name": "df9fa5a9cd7bc93f794fca1299d74889", "is_reserved": 0, "rental_uris": {"android": "https://dc.lft.to/lastmile_qr_scan", "ios": "https://dc.lft.to/lastmile_qr_scan"}, "fusion_lon": 0.0}, {"lat": 38.91270266666667, "is_disabled": 0, "type": "electric_scooter", "lon": -77.03179616666667, "bike_id": "01d8391e27447dce2dae26af323f2f08", "fusion_lat": 0.0, "name": "01d8391e27447dce2dae26af323f2f08", "is_reserved": 0, "rental_uris": {"android": "https://dc.lft.to/lastmile_qr_scan", "ios": "https://dc.lft.to/lastmile_qr_scan"}, "fusion_lon": 0.0}, {"lat": 38.90045533333333, "is_disabled": 0, "type": "electric_scooter", "lon": -76.99021416666666, "bike_id": "3a0d70a5e95b8c5f1f6dcafbfefdc125", "fusion_lat": 0.0, "name": "3a0d70a5e95b8c5f1f6dcafbfefdc125", "is_reserved": 0, "rental_uris": {"android": "https://dc.lft.to/lastmile_qr_scan", "ios": "https://dc.lft.to/lastmile_qr_scan"}, "fusion_lon": 0.0}, {"lat": 38.885678666666664, "is_disabled": 0, "type": "electric_scooter", "lon": -77.02008433333333, "bike_id": "3bfa426c020d640d03c0bbe3b6bbcb9d", "fusion_lat": 0.0, "name": "3bfa426c020d640d03c0bbe3b6bbcb9d", "is_reserved": 0, "rental_uris": {"android": "https://dc.lft.to/lastmile_qr_scan", "ios": "https://dc.lft.to/lastmile_qr_scan"}, "fusion_lon": 0.0}, {"lat": 38.9084455, "is_disabled": 0, "type": "electric_bike", "lon": -77.0392115, "bike_id": "6c4a2197b32011bdbbe06153e6b04c2d", "fusion_lat": 0.0, "name": "6c4a2197b32011bdbbe06153e6b04c2d", "is_reserved": 0, "rental_uris": {"android": "https://dc.lft.to/lastmile_qr_scan", "ios": "https://dc.lft.to/lastmile_qr_scan"}, "fusion_lon": 0.0}, {"lat": 38.936426, "is_disabled": 0, "type": "electric_scooter", "lon": -77.08194816666666, "bike_id": "794193e3c8e5ea6dc9960b8920ec8258", "fusion_lat": 0.0, "name": "794193e3c8e5ea6dc9960b8920ec8258", "is_reserved": 0, "rental_uris": {"android": "https://dc.lft.to/lastmile_qr_scan", "ios": "https://dc.lft.to/lastmile_qr_scan"}, "fusion_lon": 0.0}, {"lat": 38.92169083333334, "is_disabled": 0, "type": "electric_scooter", "lon": -77.0402885, "bike_id": "1e2ab2d503fe4e7764f5a78ee98a9902", "fusion_lat": 0.0, "name": "1e2ab2d503fe4e7764f5a78ee98a9902", "is_reserved": 0, "rental_uris": {"android": "https://dc.lft.to/lastmile_qr_scan", "ios": "https://dc.lft.to/lastmile_qr_scan"}, "fusion_lon": 0.0}, {"lat": 38.870164, "is_disabled": 0, "type": "electric_bike", "lon": -76.96023133333334, "bike_id": "8d1c7234583663f5fb1a8b256bb91c00", "fusion_lat": 0.0, "name": "8d1c7234583663f5fb1a8b256bb91c00", "is_reserved": 0, "rental_uris": {"android": "https://dc.lft.to/lastmile_qr_scan", "ios": "https://dc.lft.to/lastmile_qr_scan"}, "fusion_lon": 0.0}, {"lat": 38.936121166666666, "is_disabled": 0, "type": "electric_scooter", "lon": -77.05863416666666, "bike_id": "c0d3d41fafd574d8f0110a47ad0f9645", "fusion_lat": 0.0, "name": "c0d3d41fafd574d8f0110a47ad0f9645", "is_reserved": 0, "rental_uris": {"android": "https://dc.lft.to/lastmile_qr_scan", "ios": "https://dc.lft.to/lastmile_qr_scan"}, "fusion_lon": 0.0}, {"lat": 38.86528833333333, "is_disabled": 0, "type": "electric_scooter", "lon": -76.99033766666666, "bike_id": "b209287e1ce1a7f32383c54d72bab5d3", "fusion_lat": 0.0, "name": "b209287e1ce1a7f32383c54d72bab5d3", "is_reserved": 0, "rental_uris": {"android": "https://dc.lft.to/lastmile_qr_scan", "ios": "https://dc.lft.to/lastmile_qr_scan"}, "fusion_lon": 0.0}, {"lat": 38.90972166666667, "is_disabled": 0, "type": "electric_scooter", "lon": -77.04804066666667, "bike_id": "d0d9ae9e9fdc02f4683aa79adedcc3f1", "fusion_lat": 0.0, "name": "d0d9ae9e9fdc02f4683aa79adedcc3f1", "is_reserved": 0, "rental_uris": {"android": "https://dc.lft.to/lastmile_qr_scan", "ios": "https://dc.lft.to/lastmile_qr_scan"}, "fusion_lon": 0.0}, {"lat": 38.86487366666667, "is_disabled": 0, "type": "electric_bike", "lon": -77.05690533333333, "bike_id": "04a013be4de4464b06f327b4231655dd", "fusion_lat": 0.0, "name": "04a013be4de4464b06f327b4231655dd", "is_reserved": 0, "rental_uris": {"android": "https://dc.lft.to/lastmile_qr_scan", "ios": "https://dc.lft.to/lastmile_qr_scan"}, "fusion_lon": 0.0}, {"lat": 38.90646983333333, "is_disabled": 0, "type": "electric_scooter", "lon": -77.02979966666666, "bike_id": "1501a40e33937a2ef385076c5c6296d6", "fusion_lat": 0.0, "name": "1501a40e33937a2ef385076c5c6296d6", "is_reserved": 0, "rental_uris": {"android": "https://dc.lft.to/lastmile_qr_scan", "ios": "https://dc.lft.to/lastmile_qr_scan"}, "fusion_lon": 0.0}, {"lat": 38.8637555, "is_disabled": 0, "type": "electric_scooter", "lon": -76.99060166666666, "bike_id": "ea22ef92840c3999d6e42730f01f35e5", "fusion_lat": 0.0, "name": "ea22ef92840c3999d6e42730f01f35e5", "is_reserved": 0, "rental_uris": {"android": "https://dc.lft.to/lastmile_qr_scan", "ios": "https://dc.lft.to/lastmile_qr_scan"}, "fusion_lon": 0.0}, {"lat": 38.9190855, "is_disabled": 0, "type": "electric_scooter", "lon": -77.04627183333334, "bike_id": "03e6aaf68558eaa5a93c63534d154592", "fusion_lat": 0.0, "name": "03e6aaf68558eaa5a93c63534d154592", "is_reserved": 0, "rental_uris": {"android": "https://dc.lft.to/lastmile_qr_scan", "ios": "https://dc.lft.to/lastmile_qr_scan"}, "fusion_lon": 0.0}, {"lat": 38.90400566666667, "is_disabled": 0, "type": "electric_scooter", "lon": -77.04322416666666, "bike_id": "410d4eaee902afc159027a11b8e3a852", "fusion_lat": 0.0, "name": "410d4eaee902afc159027a11b8e3a852", "is_reserved": 0, "rental_uris": {"android": "https://dc.lft.to/lastmile_qr_scan", "ios": "https://dc.lft.to/lastmile_qr_scan"}, "fusion_lon": 0.0}, {"lat": 38.90881483333333, "is_disabled": 0, "type": "electric_scooter", "lon": -77.04329766666666, "bike_id": "691c0dd1b451bd6b78e4b1682d90afb8", "fusion_lat": 0.0, "name": "691c0dd1b451bd6b78e4b1682d90afb8", "is_reserved": 0, "rental_uris": {"android": "https://dc.lft.to/lastmile_qr_scan", "ios": "https://dc.lft.to/lastmile_qr_scan"}, "fusion_lon": 0.0}, {"lat": 38.9121175, "is_disabled": 0, "type": "electric_scooter", "lon": -77.03856416666666, "bike_id": "a985fc732a8df50f30892e5d1149e57c", "fusion_lat": 0.0, "name": "a985fc732a8df50f30892e5d1149e57c", "is_reserved": 0, "rental_uris": {"android": "https://dc.lft.to/lastmile_qr_scan", "ios": "https://dc.lft.to/lastmile_qr_scan"}, "fusion_lon": 0.0}, {"lat": 38.934275, "is_disabled": 0, "type": "electric_scooter", "lon": -77.04136733333333, "bike_id": "15e4fa302723611c75fb4028a55a74b0", "fusion_lat": 0.0, "name": "15e4fa302723611c75fb4028a55a74b0", "is_reserved": 0, "rental_uris": {"android": "https://dc.lft.to/lastmile_qr_scan", "ios": "https://dc.lft.to/lastmile_qr_scan"}, "fusion_lon": 0.0}, {"lat": 38.8899705, "is_disabled": 0, "type": "electric_scooter", "lon": -76.9556945, "bike_id": "666239be3ef4007a8d4e968ad01e5732", "fusion_lat": 0.0, "name": "666239be3ef4007a8d4e968ad01e5732", "is_reserved": 0, "rental_uris": {"android": "https://dc.lft.to/lastmile_qr_scan", "ios": "https://dc.lft.to/lastmile_qr_scan"}, "fusion_lon": 0.0}, {"lat": 38.93829783333334, "is_disabled": 0, "type": "electric_scooter", "lon": -77.02606183333333, "bike_id": "58d63f121e11d1a1bb42136a8a55e997", "fusion_lat": 0.0, "name": "58d63f121e11d1a1bb42136a8a55e997", "is_reserved": 0, "rental_uris": {"android": "https://dc.lft.to/lastmile_qr_scan", "ios": "https://dc.lft.to/lastmile_qr_scan"}, "fusion_lon": 0.0}, {"lat": 38.8881625, "is_disabled": 0, "type": "electric_scooter", "lon": -77.002023, "bike_id": "8a7df65301c240ef2d4b46ab7dd46eb4", "fusion_lat": 0.0, "name": "8a7df65301c240ef2d4b46ab7dd46eb4", "is_reserved": 0, "rental_uris": {"android": "https://dc.lft.to/lastmile_qr_scan", "ios": "https://dc.lft.to/lastmile_qr_scan"}, "fusion_lon": 0.0}, {"lat": 38.8801085, "is_disabled": 0, "type": "electric_scooter", "lon": -77.00572366666667, "bike_id": "e4667f49b868a46b723540e59264d31a", "fusion_lat": 0.0, "name": "e4667f49b868a46b723540e59264d31a", "is_reserved": 0, "rental_uris": {"android": "https://dc.lft.to/lastmile_qr_scan", "ios": "https://dc.lft.to/lastmile_qr_scan"}, "fusion_lon": 0.0}, {"lat": 38.915551666666666, "is_disabled": 0, "type": "electric_scooter", "lon": -77.04190266666667, "bike_id": "9abed43c06be465a61763870b6cda9ac", "fusion_lat": 0.0, "name": "9abed43c06be465a61763870b6cda9ac", "is_reserved": 0, "rental_uris": {"android": "https://dc.lft.to/lastmile_qr_scan", "ios": "https://dc.lft.to/lastmile_qr_scan"}, "fusion_lon": 0.0}, {"lat": 38.9258345, "is_disabled": 0, "type": "electric_scooter", "lon": -77.033626, "bike_id": "6fd7259c51ab8cfe5acb1db76aa0bc5b", "fusion_lat": 0.0, "name": "6fd7259c51ab8cfe5acb1db76aa0bc5b", "is_reserved": 0, "rental_uris": {"android": "https://dc.lft.to/lastmile_qr_scan", "ios": "https://dc.lft.to/lastmile_qr_scan"}, "fusion_lon": 0.0}, {"lat": 38.83733433333333, "is_disabled": 0, "type": "electric_bike", "lon": -76.997546, "bike_id": "5bb1e7668a2e3166cb7b3672477bbf20", "fusion_lat": 0.0, "name": "5bb1e7668a2e3166cb7b3672477bbf20", "is_reserved": 0, "rental_uris": {"android": "https://dc.lft.to/lastmile_qr_scan", "ios": "https://dc.lft.to/lastmile_qr_scan"}, "fusion_lon": 0.0}, {"lat": 38.932040666666666, "is_disabled": 0, "type": "electric_bike", "lon": -77.0387695, "bike_id": "39d303e5e3468dd0391d57199d1962f0", "fusion_lat": 0.0, "name": "39d303e5e3468dd0391d57199d1962f0", "is_reserved": 0, "rental_uris": {"android": "https://dc.lft.to/lastmile_qr_scan", "ios": "https://dc.lft.to/lastmile_qr_scan"}, "fusion_lon": 0.0}, {"lat": 38.8553095, "is_disabled": 0, "type": "electric_bike", "lon": -76.98445883333333, "bike_id": "09a2453c1f81bdccc546df0b3a1e02eb", "fusion_lat": 0.0, "name": "09a2453c1f81bdccc546df0b3a1e02eb", "is_reserved": 0, "rental_uris": {"android": "https://dc.lft.to/lastmile_qr_scan", "ios": "https://dc.lft.to/lastmile_qr_scan"}, "fusion_lon": 0.0}, {"lat": 38.906788, "is_disabled": 0, "type": "electric_scooter", "lon": -77.07191483333334, "bike_id": "5df8f982e7d6183d62efd034ffe571f1", "fusion_lat": 0.0, "name": "5df8f982e7d6183d62efd034ffe571f1", "is_reserved": 0, "rental_uris": {"android": "https://dc.lft.to/lastmile_qr_scan", "ios": "https://dc.lft.to/lastmile_qr_scan"}, "fusion_lon": 0.0}, {"lat": 38.906138166666665, "is_disabled": 0, "type": "electric_scooter", "lon": -77.01283416666666, "bike_id": "e208497d7b0a734807c5a4be5489ab1a", "fusion_lat": 0.0, "name": "e208497d7b0a734807c5a4be5489ab1a", "is_reserved": 0, "rental_uris": {"android": "https://dc.lft.to/lastmile_qr_scan", "ios": "https://dc.lft.to/lastmile_qr_scan"}, "fusion_lon": 0.0}, {"lat": 38.892441833333336, "is_disabled": 0, "type": "electric_scooter", "lon": -77.02780416666667, "bike_id": "637aa88d5f8e4d0a9c43f7dbb5395974", "fusion_lat": 0.0, "name": "637aa88d5f8e4d0a9c43f7dbb5395974", "is_reserved": 0, "rental_uris": {"android": "https://dc.lft.to/lastmile_qr_scan", "ios": "https://dc.lft.to/lastmile_qr_scan"}, "fusion_lon": 0.0}, {"lat": 38.90043133333333, "is_disabled": 0, "type": "electric_scooter", "lon": -76.988336, "bike_id": "c05f518f9411885e07a937511e78739b", "fusion_lat": 0.0, "name": "c05f518f9411885e07a937511e78739b", "is_reserved": 0, "rental_uris": {"android": "https://dc.lft.to/lastmile_qr_scan", "ios": "https://dc.lft.to/lastmile_qr_scan"}, "fusion_lon": 0.0}, {"lat": 38.90682483333333, "is_disabled": 0, "type": "electric_scooter", "lon": -77.03641033333334, "bike_id": "3f2f76b544c863be4544e22fa01940d7", "fusion_lat": 0.0, "name": "3f2f76b544c863be4544e22fa01940d7", "is_reserved": 0, "rental_uris": {"android": "https://dc.lft.to/lastmile_qr_scan", "ios": "https://dc.lft.to/lastmile_qr_scan"}, "fusion_lon": 0.0}, {"lat": 38.897706666666664, "is_disabled": 0, "type": "electric_bike", "lon": -76.9043565, "bike_id": "d1f93a699aa97c5e3ad2aaae5203c93c", "fusion_lat": 0.0, "name": "d1f93a699aa97c5e3ad2aaae5203c93c", "is_reserved": 0, "rental_uris": {"android": "https://dc.lft.to/lastmile_qr_scan", "ios": "https://dc.lft.to/lastmile_qr_scan"}, "fusion_lon": 0.0}, {"lat": 38.917904666666665, "is_disabled": 0, "type": "electric_scooter", "lon": -77.02393683333334, "bike_id": "171dfb357342ff8096cc373c50b9d147", "fusion_lat": 0.0, "name": "171dfb357342ff8096cc373c50b9d147", "is_reserved": 0, "rental_uris": {"android": "https://dc.lft.to/lastmile_qr_scan", "ios": "https://dc.lft.to/lastmile_qr_scan"}, "fusion_lon": 0.0}, {"lat": 38.8998065, "is_disabled": 0, "type": "electric_scooter", "lon": -77.0509985, "bike_id": "02251764875d6240634778c879097b57", "fusion_lat": 0.0, "name": "02251764875d6240634778c879097b57", "is_reserved": 0, "rental_uris": {"android": "https://dc.lft.to/lastmile_qr_scan", "ios": "https://dc.lft.to/lastmile_qr_scan"}, "fusion_lon": 0.0}, {"lat": 38.9112605, "is_disabled": 0, "type": "electric_scooter", "lon": -77.0313125, "bike_id": "abcb754a63a94b3d2bd9c7d5995c02c1", "fusion_lat": 0.0, "name": "abcb754a63a94b3d2bd9c7d5995c02c1", "is_reserved": 0, "rental_uris": {"android": "https://dc.lft.to/lastmile_qr_scan", "ios": "https://dc.lft.to/lastmile_qr_scan"}, "fusion_lon": 0.0}, {"lat": 38.885216666666665, "is_disabled": 0, "type": "electric_scooter", "lon": -77.00274783333333, "bike_id": "96dc807751bfa749891519939ed4da60", "fusion_lat": 0.0, "name": "96dc807751bfa749891519939ed4da60", "is_reserved": 0, "rental_uris": {"android": "https://dc.lft.to/lastmile_qr_scan", "ios": "https://dc.lft.to/lastmile_qr_scan"}, "fusion_lon": 0.0}, {"lat": 38.86632616666667, "is_disabled": 0, "type": "electric_scooter", "lon": -76.98717833333333, "bike_id": "1027920febbad55da70f3ca971edefb6", "fusion_lat": 0.0, "name": "1027920febbad55da70f3ca971edefb6", "is_reserved": 0, "rental_uris": {"android": "https://dc.lft.to/lastmile_qr_scan", "ios": "https://dc.lft.to/lastmile_qr_scan"}, "fusion_lon": 0.0}, {"lat": 38.956452666666664, "is_disabled": 0, "type": "electric_bike", "lon": -76.9387665, "bike_id": "e7a9644f11c157101cfc74fe0a249a1c", "fusion_lat": 0.0, "name": "e7a9644f11c157101cfc74fe0a249a1c", "is_reserved": 0, "rental_uris": {"android": "https://dc.lft.to/lastmile_qr_scan", "ios": "https://dc.lft.to/lastmile_qr_scan"}, "fusion_lon": 0.0}, {"lat": 38.842764333333335, "is_disabled": 0, "type": "electric_bike", "lon": -76.988454, "bike_id": "329a21c3623d8504459bc808845c4b35", "fusion_lat": 0.0, "name": "329a21c3623d8504459bc808845c4b35", "is_reserved": 0, "rental_uris": {"android": "https://dc.lft.to/lastmile_qr_scan", "ios": "https://dc.lft.to/lastmile_qr_scan"}, "fusion_lon": 0.0}, {"lat": 38.91535566666667, "is_disabled": 0, "type": "electric_scooter", "lon": -77.01368183333334, "bike_id": "76340bbc9fdb0e428041ecbf58ba62f8", "fusion_lat": 0.0, "name": "76340bbc9fdb0e428041ecbf58ba62f8", "is_reserved": 0, "rental_uris": {"android": "https://dc.lft.to/lastmile_qr_scan", "ios": "https://dc.lft.to/lastmile_qr_scan"}, "fusion_lon": 0.0}, {"lat": 38.94432233333333, "is_disabled": 0, "type": "electric_scooter", "lon": -77.06310616666667, "bike_id": "72418a9b6e3931b86c582d9673a15dff", "fusion_lat": 0.0, "name": "72418a9b6e3931b86c582d9673a15dff", "is_reserved": 0, "rental_uris": {"android": "https://dc.lft.to/lastmile_qr_scan", "ios": "https://dc.lft.to/lastmile_qr_scan"}, "fusion_lon": 0.0}, {"lat": 38.90134966666667, "is_disabled": 0, "type": "electric_scooter", "lon": -77.000663, "bike_id": "fc8183215192d593f439b1cd5c396ba0", "fusion_lat": 0.0, "name": "fc8183215192d593f439b1cd5c396ba0", "is_reserved": 0, "rental_uris": {"android": "https://dc.lft.to/lastmile_qr_scan", "ios": "https://dc.lft.to/lastmile_qr_scan"}, "fusion_lon": 0.0}, {"lat": 38.967042166666666, "is_disabled": 0, "type": "electric_bike", "lon": -77.10224766666667, "bike_id": "dbc2bb463a6965ed5910d78e14e81af9", "fusion_lat": 0.0, "name": "dbc2bb463a6965ed5910d78e14e81af9", "is_reserved": 0, "rental_uris": {"android": "https://dc.lft.to/lastmile_qr_scan", "ios": "https://dc.lft.to/lastmile_qr_scan"}, "fusion_lon": 0.0}, {"lat": 38.86163466666667, "is_disabled": 0, "type": "electric_bike", "lon": -77.13094466666666, "bike_id": "42a3a837f6a8a9625ba10bf71cd5d159", "fusion_lat": 0.0, "name": "42a3a837f6a8a9625ba10bf71cd5d159", "is_reserved": 0, "rental_uris": {"android": "https://dc.lft.to/lastmile_qr_scan", "ios": "https://dc.lft.to/lastmile_qr_scan"}, "fusion_lon": 0.0}, {"lat": 38.91458816666667, "is_disabled": 0, "type": "electric_scooter", "lon": -77.04592016666666, "bike_id": "f079c67b0b66a85a8c44663ecaf04765", "fusion_lat": 0.0, "name": "f079c67b0b66a85a8c44663ecaf04765", "is_reserved": 0, "rental_uris": {"android": "https://dc.lft.to/lastmile_qr_scan", "ios": "https://dc.lft.to/lastmile_qr_scan"}, "fusion_lon": 0.0}, {"lat": 38.93264933333333, "is_disabled": 0, "type": "electric_scooter", "lon": -77.03258133333334, "bike_id": "55dca048acc7a0de864e047a25d43e6b", "fusion_lat": 0.0, "name": "55dca048acc7a0de864e047a25d43e6b", "is_reserved": 0, "rental_uris": {"android": "https://dc.lft.to/lastmile_qr_scan", "ios": "https://dc.lft.to/lastmile_qr_scan"}, "fusion_lon": 0.0}, {"lat": 38.9420245, "is_disabled": 0, "type": "electric_scooter", "lon": -77.01830033333333, "bike_id": "f5ecc696743e63c5e20f02b2d335bc9f", "fusion_lat": 0.0, "name": "f5ecc696743e63c5e20f02b2d335bc9f", "is_reserved": 0, "rental_uris": {"android": "https://dc.lft.to/lastmile_qr_scan", "ios": "https://dc.lft.to/lastmile_qr_scan"}, "fusion_lon": 0.0}, {"lat": 38.915043833333335, "is_disabled": 0, "type": "electric_scooter", "lon": -77.02191766666667, "bike_id": "82f19ebc44f0d1ec051abfff6f963a82", "fusion_lat": 0.0, "name": "82f19ebc44f0d1ec051abfff6f963a82", "is_reserved": 0, "rental_uris": {"android": "https://dc.lft.to/lastmile_qr_scan", "ios": "https://dc.lft.to/lastmile_qr_scan"}, "fusion_lon": 0.0}, {"lat": 38.9205895, "is_disabled": 0, "type": "electric_scooter", "lon": -77.03289833333334, "bike_id": "75c359d716fcdd09b5c0794e490ca1b2", "fusion_lat": 0.0, "name": "75c359d716fcdd09b5c0794e490ca1b2", "is_reserved": 0, "rental_uris": {"android": "https://dc.lft.to/lastmile_qr_scan", "ios": "https://dc.lft.to/lastmile_qr_scan"}, "fusion_lon": 0.0}, {"lat": 38.88730666666667, "is_disabled": 0, "type": "electric_scooter", "lon": -77.01386866666667, "bike_id": "992b17f2bdbf6114a9ee5fceedc62b23", "fusion_lat": 0.0, "name": "992b17f2bdbf6114a9ee5fceedc62b23", "is_reserved": 0, "rental_uris": {"android": "https://dc.lft.to/lastmile_qr_scan", "ios": "https://dc.lft.to/lastmile_qr_scan"}, "fusion_lon": 0.0}, {"lat": 38.914106833333335, "is_disabled": 0, "type": "electric_scooter", "lon": -77.0205455, "bike_id": "78b537d1bcf36cb22edf134b891cb6ab", "fusion_lat": 0.0, "name": "78b537d1bcf36cb22edf134b891cb6ab", "is_reserved": 0, "rental_uris": {"android": "https://dc.lft.to/lastmile_qr_scan", "ios": "https://dc.lft.to/lastmile_qr_scan"}, "fusion_lon": 0.0}, {"lat": 38.921038833333334, "is_disabled": 0, "type": "electric_scooter", "lon": -77.03931483333334, "bike_id": "c27b02b8498c13429a6110c7985df44c", "fusion_lat": 0.0, "name": "c27b02b8498c13429a6110c7985df44c", "is_reserved": 0, "rental_uris": {"android": "https://dc.lft.to/lastmile_qr_scan", "ios": "https://dc.lft.to/lastmile_qr_scan"}, "fusion_lon": 0.0}, {"lat": 38.889263166666666, "is_disabled": 0, "type": "electric_scooter", "lon": -76.97373983333334, "bike_id": "bf9b7b16ac047bd60b198c8f7b029b50", "fusion_lat": 0.0, "name": "bf9b7b16ac047bd60b198c8f7b029b50", "is_reserved": 0, "rental_uris": {"android": "https://dc.lft.to/lastmile_qr_scan", "ios": "https://dc.lft.to/lastmile_qr_scan"}, "fusion_lon": 0.0}, {"lat": 38.906363, "is_disabled": 0, "type": "electric_scooter", "lon": -77.0628605, "bike_id": "d87dca9b02aac3e37cbece9c84a146ba", "fusion_lat": 0.0, "name": "d87dca9b02aac3e37cbece9c84a146ba", "is_reserved": 0, "rental_uris": {"android": "https://dc.lft.to/lastmile_qr_scan", "ios": "https://dc.lft.to/lastmile_qr_scan"}, "fusion_lon": 0.0}, {"lat": 38.91695766666667, "is_disabled": 0, "type": "electric_scooter", "lon": -77.04619966666667, "bike_id": "654103464256a42429637a48cd6cbd93", "fusion_lat": 0.0, "name": "654103464256a42429637a48cd6cbd93", "is_reserved": 0, "rental_uris": {"android": "https://dc.lft.to/lastmile_qr_scan", "ios": "https://dc.lft.to/lastmile_qr_scan"}, "fusion_lon": 0.0}, {"lat": 38.93985433333334, "is_disabled": 0, "type": "electric_scooter", "lon": -77.0327575, "bike_id": "609821850e54070678597b206c0f2ce6", "fusion_lat": 0.0, "name": "609821850e54070678597b206c0f2ce6", "is_reserved": 0, "rental_uris": {"android": "https://dc.lft.to/lastmile_qr_scan", "ios": "https://dc.lft.to/lastmile_qr_scan"}, "fusion_lon": 0.0}, {"lat": 38.924816166666666, "is_disabled": 0, "type": "electric_scooter", "lon": -77.02630383333333, "bike_id": "f91415bca7e634621931e4354cf4243d", "fusion_lat": 0.0, "name": "f91415bca7e634621931e4354cf4243d", "is_reserved": 0, "rental_uris": {"android": "https://dc.lft.to/lastmile_qr_scan", "ios": "https://dc.lft.to/lastmile_qr_scan"}, "fusion_lon": 0.0}, {"lat": 38.932255833333336, "is_disabled": 0, "type": "electric_scooter", "lon": -77.038601, "bike_id": "3afa65c075ea5f539ce18c8efe971c0f", "fusion_lat": 0.0, "name": "3afa65c075ea5f539ce18c8efe971c0f", "is_reserved": 0, "rental_uris": {"android": "https://dc.lft.to/lastmile_qr_scan", "ios": "https://dc.lft.to/lastmile_qr_scan"}, "fusion_lon": 0.0}, {"lat": 38.867180166666664, "is_disabled": 0, "type": "electric_scooter", "lon": -77.01010216666667, "bike_id": "ee88fa4a97595481643aa1d4f8ad7c7c", "fusion_lat": 0.0, "name": "ee88fa4a97595481643aa1d4f8ad7c7c", "is_reserved": 0, "rental_uris": {"android": "https://dc.lft.to/lastmile_qr_scan", "ios": "https://dc.lft.to/lastmile_qr_scan"}, "fusion_lon": 0.0}, {"lat": 38.85794083333333, "is_disabled": 0, "type": "electric_bike", "lon": -77.09963066666667, "bike_id": "df50bc24919a7af51cca55e5e86358e8", "fusion_lat": 0.0, "name": "df50bc24919a7af51cca55e5e86358e8", "is_reserved": 0, "rental_uris": {"android": "https://dc.lft.to/lastmile_qr_scan", "ios": "https://dc.lft.to/lastmile_qr_scan"}, "fusion_lon": 0.0}, {"lat": 38.92254283333333, "is_disabled": 0, "type": "electric_scooter", "lon": -77.04252583333333, "bike_id": "e9d06094dd8deae5323ce3fae1659051", "fusion_lat": 0.0, "name": "e9d06094dd8deae5323ce3fae1659051", "is_reserved": 0, "rental_uris": {"android": "https://dc.lft.to/lastmile_qr_scan", "ios": "https://dc.lft.to/lastmile_qr_scan"}, "fusion_lon": 0.0}, {"lat": 38.939766666666664, "is_disabled": 0, "type": "electric_scooter", "lon": -77.02881566666667, "bike_id": "5fe83c01755cde6c7dfb8e766d369d02", "fusion_lat": 0.0, "name": "5fe83c01755cde6c7dfb8e766d369d02", "is_reserved": 0, "rental_uris": {"android": "https://dc.lft.to/lastmile_qr_scan", "ios": "https://dc.lft.to/lastmile_qr_scan"}, "fusion_lon": 0.0}, {"lat": 38.912653, "is_disabled": 0, "type": "electric_scooter", "lon": -77.031841, "bike_id": "fced9885b0cc45f8bf009f77a4816fc6", "fusion_lat": 0.0, "name": "fced9885b0cc45f8bf009f77a4816fc6", "is_reserved": 0, "rental_uris": {"android": "https://dc.lft.to/lastmile_qr_scan", "ios": "https://dc.lft.to/lastmile_qr_scan"}, "fusion_lon": 0.0}, {"lat": 38.8922435, "is_disabled": 0, "type": "electric_scooter", "lon": -77.013888, "bike_id": "8385cae95b09979768812f2f1e660c9b", "fusion_lat": 0.0, "name": "8385cae95b09979768812f2f1e660c9b", "is_reserved": 0, "rental_uris": {"android": "https://dc.lft.to/lastmile_qr_scan", "ios": "https://dc.lft.to/lastmile_qr_scan"}, "fusion_lon": 0.0}, {"lat": 38.90477966666667, "is_disabled": 0, "type": "electric_scooter", "lon": -77.007713, "bike_id": "feafdfe87039936870e4937387e02501", "fusion_lat": 0.0, "name": "feafdfe87039936870e4937387e02501", "is_reserved": 0, "rental_uris": {"android": "https://dc.lft.to/lastmile_qr_scan", "ios": "https://dc.lft.to/lastmile_qr_scan"}, "fusion_lon": 0.0}, {"lat": 38.942762333333334, "is_disabled": 0, "type": "electric_scooter", "lon": -77.03257, "bike_id": "07ec673f6209243c7e170461f83396a0", "fusion_lat": 0.0, "name": "07ec673f6209243c7e170461f83396a0", "is_reserved": 0, "rental_uris": {"android": "https://dc.lft.to/lastmile_qr_scan", "ios": "https://dc.lft.to/lastmile_qr_scan"}, "fusion_lon": 0.0}, {"lat": 38.89615466666667, "is_disabled": 0, "type": "electric_scooter", "lon": -76.95592716666667, "bike_id": "9d50ddb079480f43886bdd623174ed56", "fusion_lat": 0.0, "name": "9d50ddb079480f43886bdd623174ed56", "is_reserved": 0, "rental_uris": {"android": "https://dc.lft.to/lastmile_qr_scan", "ios": "https://dc.lft.to/lastmile_qr_scan"}, "fusion_lon": 0.0}, {"lat": 38.910628333333335, "is_disabled": 0, "type": "electric_scooter", "lon": -77.04578933333333, "bike_id": "317d6070239c8e550b8e19a73a2511a6", "fusion_lat": 0.0, "name": "317d6070239c8e550b8e19a73a2511a6", "is_reserved": 0, "rental_uris": {"android": "https://dc.lft.to/lastmile_qr_scan", "ios": "https://dc.lft.to/lastmile_qr_scan"}, "fusion_lon": 0.0}, {"lat": 38.92425766666667, "is_disabled": 0, "type": "electric_scooter", "lon": -77.03535983333333, "bike_id": "e767186238206fc6ae47cdff6a2c2988", "fusion_lat": 0.0, "name": "e767186238206fc6ae47cdff6a2c2988", "is_reserved": 0, "rental_uris": {"android": "https://dc.lft.to/lastmile_qr_scan", "ios": "https://dc.lft.to/lastmile_qr_scan"}, "fusion_lon": 0.0}, {"lat": 38.908432, "is_disabled": 0, "type": "electric_scooter", "lon": -77.02818383333333, "bike_id": "1bc936d51899e8614e8873eaad03aaac", "fusion_lat": 0.0, "name": "1bc936d51899e8614e8873eaad03aaac", "is_reserved": 0, "rental_uris": {"android": "https://dc.lft.to/lastmile_qr_scan", "ios": "https://dc.lft.to/lastmile_qr_scan"}, "fusion_lon": 0.0},