{"data": {"bikes": [{"lat": 38.85566016666667, "is_disabled": 0, "type": "electric_bike", "lon": -77.111434, "bike_id": "8654394cff721a151b7188a38e80bfc0", "fusion_lat": 0.0, "name": "8654394cff721a151b7188a38e80bfc0", "is_reserved": 0, "rental_uris": {"android": "https://dc.lft.to/lastmile_qr_scan", "ios": "https://dc.lft.to/lastmile_qr_scan"}, "fusion_lon": 0.0}, {"lat": 38.90234183333333, "is_disabled": 0, "type": "electric_scooter", "lon": -77.028214, "bike_id": "623b89fcc44ab5b3e2ab9700b6e856fe", "fusion_lat": 0.0, "name": "623b89fcc44ab5b3e2ab9700b6e856fe", "is_reserved": 0, "rental_uris": {"android": "https://dc.lft.to/lastmile_qr_scan", "ios": "https://dc.lft.to/lastmile_qr_scan"}, "fusion_lon": 0.0}, {"lat": 38.933251, "is_disabled": 0, "type": "electric_scooter", "lon": -77.0436675, "bike_id": "99ed7721b0f74b9263299c9eda55267f", "fusion_lat": 0.0, "name": "99ed7721b0f74b9263299c9eda55267f", "is_reserved": 0, "rental_uris": {"android": "https://dc.lft.to/lastmile_qr_scan", "ios": "https://dc.lft.to/lastmile_qr_scan"}, "fusion_lon": 0.0}, {"lat": 38.898216833333336, "is_disabled": 0, "type": "electric_scooter", "lon": -77.03030033333333, "bike_id": "c7d218319ff5dabce912fbdb8faae99b", "fusion_lat": 0.0, "name": "c7d218319ff5dabce912fbdb8faae99b", "is_reserved": 0, "rental_uris": {"android": "https://dc.lft.to/lastmile_qr_scan", "ios": "https://dc.lft.to/lastmile_qr_scan"}, "fusion_lon": 0.0}, {"lat": 38.91719416666667, "is_disabled": 0, "type": "electric_scooter", "lon": -77.04588316666667, "bike_id": "d68115f3c44aa8e4a26875465515a4fe", "fusion_lat": 0.0, "name": "d68115f3c44aa8e4a26875465515a4fe", "is_reserved": 0, "rental_uris": {"android": "https://dc.lft.to/lastmile_qr_scan", "ios": "https://dc.lft.to/lastmile_qr_scan"}, "fusion_lon": 0.0}, {"lat": 38.919544, "is_disabled": 0, "type": "electric_scooter", "lon": -76.9807895, "bike_id": "c52ebc132a27d3aa6b0c737f90ea68bd", "fusion_lat": 0.0, "name": "c52ebc132a27d3aa6b0c737f90ea68bd", "is_reserved": 0, "rental_uris": {"android": "https://dc.lft.to/lastmile_qr_scan", "ios": "https://dc.lft.to/lastmile_qr_scan"}, "fusion_lon": 0.0}, {"lat": 38.940701, "is_disabled": 0, "type": "electric_scooter", "lon": -77.06136133333334, "bike_id": "7ae3fb2a4a9dd907a11164d30693608f", "fusion_lat": 0.0, "name": "7ae3fb2a4a9dd907a11164d30693608f", "is_reserved": 0, "rental_uris": {"android": "https://dc.lft.to/lastmile_qr_scan", "ios": "https://dc.lft.to/lastmile_qr_scan"}, "fusion_lon": 0.0}, {"lat": 38.936501666666665, "is_disabled": 0, "type": "electric_scooter", "lon": -77.03653916666667, "bike_id": "2ad4b91bb0c9e4c023763058a01b1107", "fusion_lat": 0.0, "name": "2ad4b91bb0c9e4c023763058a01b1107", "is_reserved": 0, "rental_uris": {"android": "https://dc.lft.to/lastmile_qr_scan", "ios": "https://dc.lft.to/lastmile_qr_scan"}, "fusion_lon": 0.0}, {"lat": 38.932906, "is_disabled": 0, "type": "electric_scooter", "lon": -77.02821616666667, "bike_id": "35b1ec59e59fc75352b677b8cd008c14", "fusion_lat": 0.0, "name": "35b1ec59e59fc75352b677b8cd008c14", "is_reserved": 0, "rental_uris": {"android": "https://dc.lft.to/lastmile_qr_scan", "ios": "https://dc.lft.to/lastmile_qr_scan"}, "fusion_lon": 0.0}, {"lat": 38.93104, "is_disabled": 0, "type": "electric_scooter", "lon": -77.035144, "bike_id": "34bc729ebd398621de4c88f41e8d1e5c", "fusion_lat": 0.0, "name": "34bc729ebd398621de4c88f41e8d1e5c", "is_reserved": 0, "rental_uris": {"android": "https://dc.lft.to/lastmile_qr_scan", "ios": "https://dc.lft.to/lastmile_qr_scan"}, "fusion_lon": 0.0}, {"lat": 38.914736833333336, "is_disabled": 0, "type": "electric_scooter", "lon": -76.98360533333333, "bike_id": "5d1acf8d9f32532d2b6f6a8c7502f8b7", "fusion_lat": 0.0, "name": "5d1acf8d9f32532d2b6f6a8c7502f8b7", "is_reserved": 0, "rental_uris": {"android": "https://dc.lft.to/lastmile_qr_scan", "ios": "https://dc.lft.to/lastmile_qr_scan"}, "fusion_lon": 0.0}, {"lat": 38.931950666666665, "is_disabled": 0, "type": "electric_scooter", "lon": -77.04424683333333, "bike_id": "6871c3ffc51699c4197ec06d27d2bedb", "fusion_lat": 0.0, "name": "6871c3ffc51699c4197ec06d27d2bedb", "is_reserved": 0, "rental_uris": {"android": "https://dc.lft.to/lastmile_qr_scan", "ios": "https://dc.lft.to/lastmile_qr_scan"}, "fusion_lon": 0.0}, {"lat": 38.90219233333333, "is_disabled": 0, "type": "electric_scooter", "lon": -77.05328733333333, "bike_id": "2de76bf27f2099c25a8ed5bb9d667511", "fusion_lat": 0.0, "name": "2de76bf27f2099c25a8ed5bb9d667511", "is_reserved": 0, "rental_uris": {"android": "https://dc.lft.to/lastmile_qr_scan", "ios": "https://dc.lft.to/lastmile_qr_scan"}, "fusion_lon": 0.0}, {"lat": 38.8763225, "is_disabled": 0, "type": "electric_scooter", "lon": -76.96526683333333, "bike_id": "5eb936c6d8c0b63da00b3e7f24f7cf4a", "fusion_lat": 0.0, "name": "5eb936c6d8c0b63da00b3e7f24f7cf4a", "is_reserved": 0, "rental_uris": {"android": "https://dc.lft.to/lastmile_qr_scan", "ios": "https://dc.lft.to/lastmile_qr_scan"}, "fusion_lon": 0.0}, {"lat": 38.905210333333336, "is_disabled": 0, "type": "electric_scooter", "lon": -77.0058105, "bike_id": "b37bc66136c2895b561248bb1f170142", "fusion_lat": 0.0, "name": "b37bc66136c2895b561248bb1f170142", "is_reserved": 0, "rental_uris": {"android": "https://dc.lft.to/lastmile_qr_scan", "ios": "https://dc.lft.to/lastmile_qr_scan"}, "fusion_lon": 0.0}, {"lat": 38.902090333333334, "is_disabled": 0, "type": "electric_scooter", "lon": -77.021829, "bike_id": "390ebf53b08a4899baa6683119fe56d5", "fusion_lat": 0.0, "name": "390ebf53b08a4899baa6683119fe56d5", "is_reserved": 0, "rental_uris": {"android": "https://dc.lft.to/lastmile_qr_scan", "ios": "https://dc.lft.to/lastmile_qr_scan"}, "fusion_lon": 0.0}, {"lat": 38.932502666666664, "is_disabled": 0, "type": "electric_scooter", "lon": -77.032705, "bike_id": "7a27bd1c300db1bd4fdf9920e61ca6a5", "fusion_lat": 0.0, "name": "7a27bd1c300db1bd4fdf9920e61ca6a5", "is_reserved": 0, "rental_uris": {"android": "https://dc.lft.to/lastmile_qr_scan", "ios": "https://dc.lft.to/lastmile_qr_scan"}, "fusion_lon": 0.0}, {"lat": 38.88678733333333, "is_disabled": 0, "type": "electric_bike", "lon": -77.16242083333333, "bike_id": "c62971c378df074099bcc34a97600ea8", "fusion_lat": 0.0, "name": "c62971c378df074099bcc34a97600ea8", "is_reserved": 0, "rental_uris": {"android": "https://dc.lft.to/lastmile_qr_scan", "ios": "https://dc.lft.to/lastmile_qr_scan"}, "fusion_lon": 0.0}, {"lat": 38.8999225, "is_disabled": 0, "type": "electric_scooter", "lon": -77.04228083333334, "bike_id": "38a5683c347277e5c8bae5012a5a92db", "fusion_lat": 0.0, "name": "38a5683c347277e5c8bae5012a5a92db", "is_reserved": 0, "rental_uris": {"android": "https://dc.lft.to/lastmile_qr_scan", "ios": "https://dc.lft.to/lastmile_qr_scan"}, "fusion_lon": 0.0}, {"lat": 38.9054485, "is_disabled": 0, "type": "electric_scooter", "lon": -77.00483883333334, "bike_id": "a47e620a2c8e0e27c31f997f82e5e844", "fusion_lat": 0.0, "name": "a47e620a2c8e0e27c31f997f82e5e844", "is_reserved": 0, "rental_uris": {"android": "https://dc.lft.to/lastmile_qr_scan", "ios": "https://dc.lft.to/lastmile_qr_scan"}, "fusion_lon": 0.0}, {"lat": 38.948238333333336, "is_disabled": 0, "type": "electric_scooter", "lon": -76.99904083333334, "bike_id": "3346ab76c43df3dccad794514485fc6b", "fusion_lat": 0.0, "name": "3346ab76c43df3dccad794514485fc6b", "is_reserved": 0, "rental_uris": {"android": "https://dc.lft.to/lastmile_qr_scan", "ios": "https://dc.lft.to/lastmile_qr_scan"}, "fusion_lon": 0.0}, {"lat": 38.92907066666667, "is_disabled": 0, "type": "electric_scooter", "lon": -77.0165765, "bike_id": "4df4eff92ddcda74897beb08dff0ebae", "fusion_lat": 0.0, "name": "4df4eff92ddcda74897beb08dff0ebae", "is_reserved": 0, "rental_uris": {"android": "https://dc.lft.to/lastmile_qr_scan", "ios": "https://dc.lft.to/lastmile_qr_scan"}, "fusion_lon": 0.0}, {"lat": 38.885463666666666, "is_disabled": 0, "type": "electric_bike", "lon": -77.11785433333333, "bike_id": "4e5a3185b0a9b0e86cd4bc257f759493", "fusion_lat": 0.0, "name": "4e5a3185b0a9b0e86cd4bc257f759493", "is_reserved": 0, "rental_uris": {"android": "https://dc.lft.to/lastmile_qr_scan", "ios": "https://dc.lft.to/lastmile_qr_scan"}, "fusion_lon": 0.0}, {"lat": 38.906767333333335, "is_disabled": 0, "type": "electric_scooter", "lon": -77.00807566666667, "bike_id": "8b383f5add279e088cc5d138f3c64a38", "fusion_lat": 0.0, "name": "8b383f5add279e088cc5d138f3c64a38", "is_reserved": 0, "rental_uris": {"android": "https://dc.lft.to/lastmile_qr_scan", "ios": "https://dc.lft.to/lastmile_qr_scan"}, "fusion_lon": 0.0}, {"lat": 38.903867, "is_disabled": 0, "type": "electric_scooter", "lon": -76.990047, "bike_id": "e319d1a5e10197359afa7903f3a07bc3", "fusion_lat": 0.0, "name": "e319d1a5e10197359afa7903f3a07bc3", "is_reserved": 0, "rental_uris": {"android": "https://dc.lft.to/lastmile_qr_scan", "ios": "https://dc.lft.to/lastmile_qr_scan"}, "fusion_lon": 0.0}, {"lat": 38.93378633333333, "is_disabled": 0, "type": "electric_scooter", "lon": -77.0355845, "bike_id": "e4257f332bdc40f5538e2988bf0277d1", "fusion_lat": 0.0, "name": "e4257f332bdc40f5538e2988bf0277d1", "is_reserved": 0, "rental_uris": {"android": "https://dc.lft.to/lastmile_qr_scan", "ios": "https://dc.lft.to/lastmile_qr_scan"}, "fusion_lon": 0.0}, {"lat": 38.8860035, "is_disabled": 0, "type": "electric_scooter", "lon": -77.01892833333333, "bike_id": "38843027257d6364d955854769990771", "fusion_lat": 0.0, "name": "38843027257d6364d955854769990771", "is_reserved": 0, "rental_uris": {"android": "https://dc.lft.to/lastmile_qr_scan", "ios": "https://dc.lft.to/lastmile_qr_scan"}, "fusion_lon": 0.0}, {"lat": 38.957095, "is_disabled": 0, "type": "electric_scooter", "lon": -77.02402033333334, "bike_id": "d2ae60bc5dd21cd1c6660e0da53884f0", "fusion_lat": 0.0, "name": "d2ae60bc5dd21cd1c6660e0da53884f0", "is_reserved": 0, "rental_uris": {"android": "https://dc.lft.to/lastmile_qr_scan", "ios": "https://dc.lft.to/lastmile_qr_scan"}, "fusion_lon": 0.0}, {"lat": 38.908515, "is_disabled": 0, "type": "electric_scooter", "lon": -77.038521, "bike_id": "8fdb23fadf8c58b9759e6375a39d9137", "fusion_lat": 0.0, "name": "8fdb23fadf8c58b9759e6375a39d9137", "is_reserved": 0, "rental_uris": {"android": "https://dc.lft.to/lastmile_qr_scan", "ios": "https://dc.lft.to/lastmile_qr_scan"}, "fusion_lon": 0.0}, {"lat": 38.944998166666664, "is_disabled": 0, "type": "electric_bike", "lon": -77.00681916666667, "bike_id": "e4e1bc7708079940af3e891bb54daaec", "fusion_lat": 0.0, "name": "e4e1bc7708079940af3e891bb54daaec", "is_reserved": 0, "rental_uris": {"android": "https://dc.lft.to/lastmile_qr_scan", "ios": "https://dc.lft.to/lastmile_qr_scan"}, "fusion_lon": 0.0}, {"lat": 38.96626716666667, "is_disabled": 0, "type": "electric_bike", "lon": -76.9767095, "bike_id": "86d936b81761bd495c03394f1abc38c6", "fusion_lat": 0.0, "name": "86d936b81761bd495c03394f1abc38c6", "is_reserved": 0, "rental_uris": {"android": "https://dc.lft.to/lastmile_qr_scan", "ios": "https://dc.lft.to/lastmile_qr_scan"}, "fusion_lon": 0.0}, {"lat": 38.902745, "is_disabled": 0, "type": "electric_scooter", "lon": -77.0363395, "bike_id": "a39c7d8185c5e0be06b59485d8a13422", "fusion_lat": 0.0, "name": "a39c7d8185c5e0be06b59485d8a13422", "is_reserved": 0, "rental_uris": {"android": "https://dc.lft.to/lastmile_qr_scan", "ios": "https://dc.lft.to/lastmile_qr_scan"}, "fusion_lon": 0.0}, {"lat": 38.91177616666667, "is_disabled": 0, "type": "electric_scooter", "lon": -77.0625835, "bike_id": "cf71b28a0d00bab3b67fde0f7d6c5c7f", "fusion_lat": 0.0, "name": "cf71b28a0d00bab3b67fde0f7d6c5c7f", "is_reserved": 0, "rental_uris": {"android": "https://dc.lft.to/lastmile_qr_scan", "ios": "https://dc.lft.to/lastmile_qr_scan"}, "fusion_lon": 0.0}, {"lat": 38.8964885, "is_disabled": 0, "type": "electric_scooter", "lon": -77.0092465, "bike_id": "59b07f393a4cebfe0c75df80fee4f845", "fusion_lat": 0.0, "name": "59b07f393a4cebfe0c75df80fee4f845", "is_reserved": 0, "rental_uris": {"android": "https://dc.lft.to/lastmile_qr_scan", "ios": "https://dc.lft.to/lastmile_qr_scan"}, "fusion_lon": 0.0}, {"lat": 38.90018283333333, "is_disabled": 0, "type": "electric_scooter", "lon": -77.03340216666666, "bike_id": "e347b3fc5fe0c9071253ee6346aee745", "fusion_lat": 0.0, "name": "e347b3fc5fe0c9071253ee6346aee745", "is_reserved": 0, "rental_uris": {"android": "https://dc.lft.to/lastmile_qr_scan", "ios": "https://dc.lft.to/lastmile_qr_scan"}, "fusion_lon": 0.0}, {"lat": 38.94137166666667, "is_disabled": 0, "type": "electric_scooter", "lon": -77.07618783333334, "bike_id": "66d85b7bb770aa4682a0a16162a7b0d5", "fusion_lat": 0.0, "name": "66d85b7bb770aa4682a0a16162a7b0d5", "is_reserved": 0, "rental_uris": {"android": "https://dc.lft.to/lastmile_qr_scan", "ios": "https://dc.lft.to/lastmile_qr_scan"}, "fusion_lon": 0.0}, {"lat": 38.916376166666666, "is_disabled": 0, "type": "electric_scooter", "lon": -77.02695433333334, "bike_id": "3494ec29d13b35e1952c5859ea537962", "fusion_lat": 0.0, "name": "3494ec29d13b35e1952c5859ea537962", "is_reserved": 0, "rental_uris": {"android": "https://dc.lft.to/lastmile_qr_scan", "ios": "https://dc.lft.to/lastmile_qr_scan"}, "fusion_lon": 0.0}, {"lat": 38.871446, "is_disabled": 0, "type": "electric_bike", "lon": -76.9367485, "bike_id": "4660babb6927b6ca2daa911df5a86d95", "fusion_lat": 0.0, "name": "4660babb6927b6ca2daa911df5a86d95", "is_reserved": 0, "rental_uris": {"android": "https://dc.lft.to/lastmile_qr_scan", "ios": "https://dc.lft.to/lastmile_qr_scan"}, "fusion_lon": 0.0}, {"lat": 38.90946433333333, "is_disabled": 0, "type": "electric_scooter", "lon": -77.04661183333333, "bike_id": "0b12a0a2c6070dc0db77f901cc675111", "fusion_lat": 0.0, "name": "0b12a0a2c6070dc0db77f901cc675111", "is_reserved": 0, "rental_uris": {"android": "https://dc.lft.to/lastmile_qr_scan", "ios": "https://dc.lft.to/lastmile_qr_scan"}, "fusion_lon": 0.0}, {"lat": 38.9026615, "is_disabled": 0, "type": "electric_scooter", "lon": -77.01165933333333, "bike_id": "1cb9272e09df019ea893997b27e3fe4d", "fusion_lat": 0.0, "name": "1cb9272e09df019ea893997b27e3fe4d", "is_reserved": 0, "rental_uris": {"android": "https://dc.lft.to/lastmile_qr_scan", "ios": "https://dc.lft.to/lastmile_qr_scan"}, "fusion_lon": 0.0}, {"lat": 38.8999665, "is_disabled": 0, "type": "electric_scooter", "lon": -77.03323016666667, "bike_id": "cb63abde00e759ad0d6385122055ffbb", "fusion_lat": 0.0, "name": "cb63abde00e759ad0d6385122055ffbb", "is_reserved": 0, "rental_uris": {"android": "https://dc.lft.to/lastmile_qr_scan", "ios": "https://dc.lft.to/lastmile_qr_scan"}, "fusion_lon": 0.0}, {"lat": 38.86362316666667, "is_disabled": 0, "type": "electric_scooter", "lon": -76.99036633333333, "bike_id": "3f7537e76d626d194b540849e85beec3", "fusion_lat": 0.0, "name": "3f7537e76d626d194b540849e85beec3", "is_reserved": 0, "rental_uris": {"android": "https://dc.lft.to/lastmile_qr_scan", "ios": "https://dc.lft.to/lastmile_qr_scan"}, "fusion_lon": 0.0}, {"lat": 38.952261, "is_disabled": 0, "type": "electric_scooter", "lon": -77.00264983333334, "bike_id": "db15119f47e6a7619b85aaa24172a2cb", "fusion_lat": 0.0, "name": "db15119f47e6a7619b85aaa24172a2cb", "is_reserved": 0, "rental_uris": {"android": "https://dc.lft.to/lastmile_qr_scan", "ios": "https://dc.lft.to/lastmile_qr_scan"}, "fusion_lon": 0.0}, {"lat": 38.89521116666667, "is_disabled": 0, "type": "electric_scooter", "lon": -77.00053883333334, "bike_id": "4d1c07dc07b44e40dca54db96f891433", "fusion_lat": 0.0, "name": "4d1c07dc07b44e40dca54db96f891433", "is_reserved": 0, "rental_uris": {"android": "https://dc.lft.to/lastmile_qr_scan", "ios": "https://dc.lft.to/lastmile_qr_scan"}, "fusion_lon": 0.0}, {"lat": 38.948364166666664, "is_disabled": 0, "type": "electric_scooter", "lon": -77.025817, "bike_id": "ca2189302495f748754ff3c665047753", "fusion_lat": 0.0, "name": "ca2189302495f748754ff3c665047753", "is_reserved": 0, "rental_uris": {"android": "https://dc.lft.to/lastmile_qr_scan", "ios": "https://dc.lft.to/lastmile_qr_scan"}, "fusion_lon": 0.0}, {"lat": 38.935847, "is_disabled": 0, "type": "electric_bike", "lon": -77.10687666666666, "bike_id": "6a159ebb43f7a9168a075a10bb375fc7", "fusion_lat": 0.0, "name": "6a159ebb43f7a9168a075a10bb375fc7", "is_reserved": 0, "rental_uris": {"android": "https://dc.lft.to/lastmile_qr_scan", "ios": "https://dc.lft.to/lastmile_qr_scan"}, "fusion_lon": 0.0}, {"lat": 38.927846333333335, "is_disabled": 0, "type": "electric_scooter", "lon": -77.02689033333333, "bike_id": "5dfc94806318d4e084663587ba925557", "fusion_lat": 0.0, "name": "5dfc94806318d4e084663587ba925557", "is_reserved": 0, "rental_uris": {"android": "https://dc.lft.to/lastmile_qr_scan", "ios": "https://dc.lft.to/lastmile_qr_scan"}, "fusion_lon": 0.0}, {"lat": 38.909971, "is_disabled": 0, "type": "electric_scooter", "lon": -77.04005883333333, "bike_id": "8ac27f370e9b759655434afbec70e18a", "fusion_lat": 0.0, "name": "8ac27f370e9b759655434afbec70e18a", "is_reserved": 0, "rental_uris": {"android": "https://dc.lft.to/lastmile_qr_scan", "ios": "https://dc.lft.to/lastmile_qr_scan"}, "fusion_lon": 0.0}, {"lat": 38.927404, "is_disabled": 0, "type": "electric_scooter", "lon": -77.02423433333334, "bike_id": "55b4ee036cd578a125985bd045686a27", "fusion_lat": 0.0, "name": "55b4ee036cd578a125985bd045686a27", "is_reserved": 0, "rental_uris": {"android": "https://dc.lft.to/lastmile_qr_scan", "ios": "https://dc.lft.to/lastmile_qr_scan"}, "fusion_lon": 0.0}, {"lat": 38.89762416666667, "is_disabled": 0, "type": "electric_scooter", "lon": -77.04669783333334, "bike_id": "80ca67c950590547bac97aedf8687bcf", "fusion_lat": 0.0, "name": "80ca67c950590547bac97aedf8687bcf", "is_reserved": 0, "rental_uris": {"android": "https://dc.lft.to/lastmile_qr_scan", "ios": "https://dc.lft.to/lastmile_qr_scan"}, "fusion_lon": 0.0}, {"lat": 38.901497166666665, "is_disabled": 0, "type": "electric_scooter", "lon": -77.0006765, "bike_id": "3304238c7cc72d57fc2503b9eb73ba0c", "fusion_lat": 0.0, "name": "3304238c7cc72d57fc2503b9eb73ba0c", "is_reserved": 0, "rental_uris": {"android": "https://dc.lft.to/lastmile_qr_scan", "ios": "https://dc.lft.to/lastmile_qr_scan"}, "fusion_lon": 0.0}, {"lat": 38.923618, "is_disabled": 0, "type": "electric_scooter", "lon": -77.0414935, "bike_id": "8d97b33294566e1f5f89cd713e40b257", "fusion_lat": 0.0, "name": "8d97b33294566e1f5f89cd713e40b257", "is_reserved": 0, "rental_uris": {"android": "https://dc.lft.to/lastmile_qr_scan", "ios": "https://dc.lft.to/lastmile_qr_scan"}, "fusion_lon": 0.0}, {"lat": 38.9573545, "is_disabled": 0, "type": "electric_scooter", "lon": -77.0240645, "bike_id": "7fd8f96ba041ecf9403c06b89d78d247", "fusion_lat": 0.0, "name": "7fd8f96ba041ecf9403c06b89d78d247", "is_reserved": 0, "rental_uris": {"android": "https://dc.lft.to/lastmile_qr_scan", "ios": "https://dc.lft.to/lastmile_qr_scan"}, "fusion_lon": 0.0}, {"lat": 38.9463715, "is_disabled": 0, "type": "electric_scooter", "lon": -77.02515416666667, "bike_id": "53725ff6646b02503a8ee133d95a2d7c", "fusion_lat": 0.0, "name": "53725ff6646b02503a8ee133d95a2d7c", "is_reserved": 0, "rental_uris": {"android": "https://dc.lft.to/lastmile_qr_scan", "ios": "https://dc.lft.to/lastmile_qr_scan"}, "fusion_lon": 0.0}, {"lat": 38.92296283333334, "is_disabled": 0, "type": "electric_scooter", "lon": -77.04269466666666, "bike_id": "b779374d7d00393b42f0c2ff28cbea9c", "fusion_lat": 0.0, "name": "b779374d7d00393b42f0c2ff28cbea9c", "is_reserved": 0, "rental_uris": {"android": "https://dc.lft.to/lastmile_qr_scan", "ios": "https://dc.lft.to/lastmile_qr_scan"}, "fusion_lon": 0.0}, {"lat": 38.90227183333333, "is_disabled": 0, "type": "electric_scooter", "lon": -77.02304133333334, "bike_id": "4bf193dcaa01f55d18988973c65a4303", "fusion_lat": 0.0, "name": "4bf193dcaa01f55d18988973c65a4303", "is_reserved": 0, "rental_uris": {"android": "https://dc.lft.to/lastmile_qr_scan", "ios": "https://dc.lft.to/lastmile_qr_scan"}, "fusion_lon": 0.0}, {"lat": 38.916106166666665, "is_disabled": 0, "type": "electric_scooter", "lon": -77.032795, "bike_id": "c3562f899c44fe399a28742c8de0cac9", "fusion_lat": 0.0, "name": "c3562f899c44fe399a28742c8de0cac9", "is_reserved": 0, "rental_uris": {"android": "https://dc.lft.to/lastmile_qr_scan", "ios": "https://dc.lft.to/lastmile_qr_scan"}, "fusion_lon": 0.0}, {"lat": 38.88113933333333, "is_disabled": 0, "type": "electric_scooter", "lon": -76.98337733333334, "bike_id": "b11c11ffbcac232eb1b535c0218afa20", "fusion_lat": 0.0, "name": "b11c11ffbcac232eb1b535c0218afa20", "is_reserved": 0, "rental_uris": {"android": "https://dc.lft.to/lastmile_qr_scan", "ios": "https://dc.lft.to/lastmile_qr_scan"}, "fusion_lon": 0.0}, {"lat": 38.936665, "is_disabled": 0, "type": "electric_scooter", "lon": -77.059309, "bike_id": "1f28a772aaae90b42e13341ed0db5440", "fusion_lat": 0.0, "name": "1f28a772aaae90b42e13341ed0db5440", "is_reserved": 0, "rental_uris": {"android": "https://dc.lft.to/lastmile_qr_scan", "ios": "https://dc.lft.to/lastmile_qr_scan"}, "fusion_lon": 0.0}, {"lat": 38.86710716666666, "is_disabled": 0, "type": "electric_scooter", "lon": -76.98724683333333, "bike_id": "e5801b3828caaec547c5b1dba1e6dc23", "fusion_lat": 0.0, "name": "e5801b3828caaec547c5b1dba1e6dc23", "is_reserved": 0, "rental_uris": {"android": "https://dc.lft.to/lastmile_qr_scan", "ios": "https://dc.lft.to/lastmile_qr_scan"}, "fusion_lon": 0.0}, {"lat": 38.836951166666665, "is_disabled": 0, "type": "electric_scooter", "lon": -77.10306, "bike_id": "bf0e8a4777bf561ead13a33d9f14f2ba", "fusion_lat": 0.0, "name": "bf0e8a4777bf561ead13a33d9f14f2ba", "is_reserved": 0, "rental_uris": {"android": "https://dc.lft.to/lastmile_qr_scan", "ios": "https://dc.lft.to/lastmile_qr_scan"}, "fusion_lon": 0.0}, {"lat": 38.92703566666667, "is_disabled": 0, "type": "electric_scooter", "lon": -77.02078716666666, "bike_id": "39a99d3327da6a2c558166e370720428", "fusion_lat": 0.0, "name": "39a99d3327da6a2c558166e370720428", "is_reserved": 0, "rental_uris": {"android": "https://dc.lft.to/lastmile_qr_scan", "ios": "https://dc.lft.to/lastmile_qr_scan"}, "fusion_lon": 0.0}, {"lat": 38.87141666666667, "is_disabled": 0, "type": "electric_bike", "lon": -76.937065, "bike_id": "3e3ae1ce12cbf7b3e9995780b202713a", "fusion_lat": 0.0, "name": "3e3ae1ce12cbf7b3e9995780b202713a", "is_reserved": 0, "rental_uris": {"android": "https://dc.lft.to/lastmile_qr_scan", "ios": "https://dc.lft.to/lastmile_qr_scan"}, "fusion_lon": 0.0}, {"lat": 38.84565166666667, "is_disabled": 0, "type": "electric_bike", "lon": -77.09623366666666, "bike_id": "63213d06ce5824d1fcf90ef696640e27", "fusion_lat": 0.0, "name": "63213d06ce5824d1fcf90ef696640e27", "is_reserved": 0, "rental_uris": {"android": "https://dc.lft.to/lastmile_qr_scan", "ios": "https://dc.lft.to/lastmile_qr_scan"}, "fusion_lon": 0.0}, {"lat": 38.90062116666667, "is_disabled": 0, "type": "electric_scooter", "lon": -77.050635, "bike_id": "058a475a8f3da89c6cd200231c290a4e", "fusion_lat": 0.0, "name": "058a475a8f3da89c6cd200231c290a4e", "is_reserved": 0, "rental_uris": {"android": "https://dc.lft.to/lastmile_qr_scan", "ios": "https://dc.lft.to/lastmile_qr_scan"}, "fusion_lon": 0.0}, {"lat": 38.956513, "is_disabled": 0, "type": "electric_scooter", "lon": -77.02400683333333, "bike_id": "b59ef71415152b009ffa49034db174e2", "fusion_lat": 0.0, "name": "b59ef71415152b009ffa49034db174e2", "is_reserved": 0, "rental_uris": {"android": "https://dc.lft.to/lastmile_qr_scan", "ios": "https://dc.lft.to/lastmile_qr_scan"}, "fusion_lon": 0.0}, {"lat": 38.908756333333336, "is_disabled": 0, "type": "electric_scooter", "lon": -77.03678233333333, "bike_id": "c600228c4ce23384b45e062136f8f416", "fusion_lat": 0.0, "name": "c600228c4ce23384b45e062136f8f416", "is_reserved": 0, "rental_uris": {"android": "https://dc.lft.to/lastmile_qr_scan", "ios": "https://dc.lft.to/lastmile_qr_scan"}, "fusion_lon": 0.0}, {"lat": 38.9259255, "is_disabled": 0, "type": "electric_scooter", "lon": -77.02269333333334, "bike_id": "9f2e2fc2c217d787220b9670914bb289", "fusion_lat": 0.0, "name": "9f2e2fc2c217d787220b9670914bb289", "is_reserved": 0, "rental_uris": {"android": "https://dc.lft.to/lastmile_qr_scan", "ios": "https://dc.lft.to/lastmile_qr_scan"}, "fusion_lon": 0.0}, {"lat": 38.900711333333334, "is_disabled": 0, "type": "electric_scooter", "lon": -77.049163, "bike_id": "219422f8fa212086f4fe4e2651dafb9c", "fusion_lat": 0.0, "name": "219422f8fa212086f4fe4e2651dafb9c", "is_reserved": 0, "rental_uris": {"android": "https://dc.lft.to/lastmile_qr_scan", "ios": "https://dc.lft.to/lastmile_qr_scan"}, "fusion_lon": 0.0}, {"lat": 38.939748, "is_disabled": 0, "type": "electric_scooter", "lon": -77.03589433333333, "bike_id": "3efdf29435117aa5d7da55e08970dfe9", "fusion_lat": 0.0, "name": "3efdf29435117aa5d7da55e08970dfe9", "is_reserved": 0, "rental_uris": {"android": "https://dc.lft.to/lastmile_qr_scan", "ios": "https://dc.lft.to/lastmile_qr_scan"}, "fusion_lon": 0.0}, {"lat": 38.9202675, "is_disabled": 0, "type": "electric_scooter", "lon": -77.0373195, "bike_id": "1b7badcd68ad3c6abe9aff4793ed36be", "fusion_lat": 0.0, "name": "1b7badcd68ad3c6abe9aff4793ed36be", "is_reserved": 0, "rental_uris": {"android": "https://dc.lft.to/lastmile_qr_scan", "ios": "https://dc.lft.to/lastmile_qr_scan"}, "fusion_lon": 0.0}, {"lat": 38.93293466666667, "is_disabled": 0, "type": "electric_scooter", "lon": -77.035464, "bike_id": "f72f470c0f7d52b593521a69814820a6", "fusion_lat": 0.0, "name": "f72f470c0f7d52b593521a69814820a6", "is_reserved": 0, "rental_uris": {"android": "https://dc.lft.to/lastmile_qr_scan", "ios": "https://dc.lft.to/lastmile_qr_scan"}, "fusion_lon": 0.0}, {"lat": 38.957817666666664, "is_disabled": 0, "type": "electric_scooter", "lon": -77.02758816666666, "bike_id": "313e805c94b29bd60a80865e7c568214", "fusion_lat": 0.0, "name": "313e805c94b29bd60a80865e7c568214", "is_reserved": 0, "rental_uris": {"android": "https://dc.lft.to/lastmile_qr_scan", "ios": "https://dc.lft.to/lastmile_qr_scan"}, "fusion_lon": 0.0}, {"lat": 38.91560916666667, "is_disabled": 0, "type": "electric_scooter", "lon": -77.03848966666666, "bike_id": "1f6855fa568f49bf439c89e1e609be60", "fusion_lat": 0.0, "name": "1f6855fa568f49bf439c89e1e609be60", "is_reserved": 0, "rental_uris": {"android": "https://dc.lft.to/lastmile_qr_scan", "ios": "https://dc.lft.to/lastmile_qr_scan"}, "fusion_lon": 0.0}, {"lat": 38.9549385, "is_disabled": 0, "type": "electric_scooter", "lon": -77.06566216666667, "bike_id": "c860c08d2869c18817544fe9205e56ee", "fusion_lat": 0.0, "name": "c860c08d2869c18817544fe9205e56ee", "is_reserved": 0, "rental_uris": {"android": "https://dc.lft.to/lastmile_qr_scan", "ios": "https://dc.lft.to/lastmile_qr_scan"}, "fusion_lon": 0.0}, {"lat": 38.91199783333333, "is_disabled": 0, "type": "electric_scooter", "lon": -77.01468, "bike_id": "4dbc1dd4cec34d6175904ef433271d5d", "fusion_lat": 0.0, "name": "4dbc1dd4cec34d6175904ef433271d5d", "is_reserved": 0, "rental_uris": {"android": "https://dc.lft.to/lastmile_qr_scan", "ios": "https://dc.lft.to/lastmile_qr_scan"}, "fusion_lon": 0.0}, {"lat": 38.9526265, "is_disabled": 0, "type": "electric_scooter", "lon": -77.06985583333334, "bike_id": "281042e5663a88eec0f859b4b468c762", "fusion_lat": 0.0, "name": "281042e5663a88eec0f859b4b468c762", "is_reserved": 0, "rental_uris": {"android": "https://dc.lft.to/lastmile_qr_scan", "ios": "https://dc.lft.to/lastmile_qr_scan"}, "fusion_lon": 0.0}, {"lat": 38.923799833333334, "is_disabled": 0, "type": "electric_scooter", "lon": -77.05757683333333, "bike_id": "5243654113416594b9422115f3c5c9a4", "fusion_lat": 0.0, "name": "5243654113416594b9422115f3c5c9a4", "is_reserved": 0, "rental_uris": {"android": "https://dc.lft.to/lastmile_qr_scan", "ios": "https://dc.lft.to/lastmile_qr_scan"}, "fusion_lon": 0.0}, {"lat": 38.90680416666667, "is_disabled": 0, "type": "electric_scooter", "lon": -77.036416, "bike_id": "95f92706f7787ede1ef7ace59e5d2a1c", "fusion_lat": 0.0, "name": "95f92706f7787ede1ef7ace59e5d2a1c", "is_reserved": 0, "rental_uris": {"android": "https://dc.lft.to/lastmile_qr_scan", "ios": "https://dc.lft.to/lastmile_qr_scan"}, "fusion_lon": 0.0}, {"lat": 38.91687816666666, "is_disabled": 0, "type": "electric_scooter", "lon": -77.02955766666666, "bike_id": "597341e99b7df2066b92ce4028625718", "fusion_lat": 0.0, "name": "597341e99b7df2066b92ce4028625718", "is_reserved": 0, "rental_uris": {"android": "https://dc.lft.to/lastmile_qr_scan", "ios": "https://dc.lft.to/lastmile_qr_scan"}, "fusion_lon": 0.0}, {"lat": 38.9161595, "is_disabled": 0, "type": "electric_scooter", "lon": -77.0364245, "bike_id": "120b45f997158e8018e725bf5526553a", "fusion_lat": 0.0, "name": "120b45f997158e8018e725bf5526553a", "is_reserved": 0, "rental_uris": {"android": "https://dc.lft.to/lastmile_qr_scan", "ios": "https://dc.lft.to/lastmile_qr_scan"}, "fusion_lon": 0.0}, {"lat": 38.93443216666667, "is_disabled": 0, "type": "electric_scooter", "lon": -77.03453766666667, "bike_id": "916ce8f40f00cd88e581e890f2193ae1", "fusion_lat": 0.0, "name": "916ce8f40f00cd88e581e890f2193ae1", "is_reserved": 0, "rental_uris": {"android": "https://dc.lft.to/lastmile_qr_scan", "ios": "https://dc.lft.to/lastmile_qr_scan"}, "fusion_lon": 0.0}, {"lat": 38.8621225, "is_disabled": 0, "type": "electric_bike", "lon": -76.99778366666666, "bike_id": "7b4f88190574f9a634f664453206a1f3", "fusion_lat": 0.0, "name": "7b4f88190574f9a634f664453206a1f3", "is_reserved": 0, "rental_uris": {"android": "https://dc.lft.to/lastmile_qr_scan", "ios": "https://dc.lft.to/lastmile_qr_scan"}, "fusion_lon": 0.0}, {"lat": 38.91771633333333, "is_disabled": 0, "type": "electric_scooter", "lon": -77.02309166666667, "bike_id": "290b5e4edfb72d73fb91f2effa80598e", "fusion_lat": 0.0, "name": "290b5e4edfb72d73fb91f2effa80598e", "is_reserved": 0, "rental_uris": {"android": "https://dc.lft.to/lastmile_qr_scan", "ios": "https://dc.lft.to/lastmile_qr_scan"}, "fusion_lon": 0.0}, {"lat": 38.870656, "is_disabled": 0, "type": "electric_scooter", "lon": -77.00838983333334, "bike_id": "c1be7f5dc63d34652b2532bb2766e2c2", "fusion_lat": 0.0, "name": "c1be7f5dc63d34652b2532bb2766e2c2", "is_reserved": 0, "rental_uris": {"android": "https://dc.lft.to/lastmile_qr_scan", "ios": "https://dc.lft.to/lastmile_qr_scan"}, "fusion_lon": 0.0}, {"lat": 38.8667525, "is_disabled": 0, "type": "electric_scooter", "lon": -76.98545416666667, "bike_id": "52bb1e6c4a4689062826a5e0b7442f9d", "fusion_lat": 0.0, "name": "52bb1e6c4a4689062826a5e0b7442f9d", "is_reserved": 0, "rental_uris": {"android": "https://dc.lft.to/lastmile_qr_scan", "ios": "https://dc.lft.to/lastmile_qr_scan"}, "fusion_lon": 0.0}, {"lat": 38.992548166666666, "is_disabled": 0, "type": "electric_scooter", "lon": -77.0365245, "bike_id": "2050afa20b5dae9c7ea02f64404635e8", "fusion_lat": 0.0, "name": "2050afa20b5dae9c7ea02f64404635e8", "is_reserved": 0, "rental_uris": {"android": "https://dc.lft.to/lastmile_qr_scan", "ios": "https://dc.lft.to/lastmile_qr_scan"}, "fusion_lon": 0.0}, {"lat": 38.9056015, "is_disabled": 0, "type": "electric_scooter", "lon": -77.00564016666667, "bike_id": "c166f9c14fa710455428ca2fc9fee9df", "fusion_lat": 0.0, "name": "c166f9c14fa710455428ca2fc9fee9df", "is_reserved": 0, "rental_uris": {"android": "https://dc.lft.to/lastmile_qr_scan", "ios": "https://dc.lft.to/lastmile_qr_scan"}, "fusion_lon": 0.0}, {"lat": 38.936590333333335, "is_disabled": 0, "type": "electric_bike", "lon": -76.95224166666667, "bike_id": "bab5e017f079497b2f80abf6d52814e4", "fusion_lat": 0.0, "name": "bab5e017f079497b2f80abf6d52814e4", "is_reserved": 0, "rental_uris": {"android": "https://dc.lft.to/lastmile_qr_scan", "ios": "https://dc.lft.to/lastmile_qr_scan"}, "fusion_lon": 0.0}, {"lat": 38.90524083333333, "is_disabled": 0, "type": "electric_scooter", "lon": -77.06309733333333, "bike_id": "0824ee4f3a9080e7351917cbe5df7186", "fusion_lat": 0.0, "name": "0824ee4f3a9080e7351917cbe5df7186", "is_reserved": 0, "rental_uris": {"android": "https://dc.lft.to/lastmile_qr_scan", "ios": "https://dc.lft.to/lastmile_qr_scan"}, "fusion_lon": 0.0}, {"lat": 39.03427383333333, "is_disabled": 0, "type": "electric_bike", "lon": -77.04304583333334, "bike_id": "08b62dbb7e106f4b80ed4c618abde59f", "fusion_lat": 0.0, "name": "08b62dbb7e106f4b80ed4c618abde59f", "is_reserved": 0, "rental_uris": {"android": "https://dc.lft.to/lastmile_qr_scan", "ios": "https://dc.lft.to/lastmile_qr_scan"}, "fusion_lon": 0.0}, {"lat": 38.94552066666667, "is_disabled": 0, "type": "electric_bike", "lon": -76.89537483333334, "bike_id": "982c19028f3d3bb8d91a8f127457e91c", "fusion_lat": 0.0, "name": "982c19028f3d3bb8d91a8f127457e91c", "is_reserved": 0, "rental_uris": {"android": "https://dc.lft.to/lastmile_qr_scan", "ios": "https://dc.lft.to/lastmile_qr_scan"}, "fusion_lon": 0.0}, {"lat": 38.84429566666667, "is_disabled": 0, "type": "electric_scooter", "lon": -76.996635, "bike_id": "f3f34541881f4b6a413ab1bd08ad9bfe", "fusion_lat": 0.0, "name": "f3f34541881f4b6a413ab1bd08ad9bfe", "is_reserved": 0, "rental_uris": {"android": "https://dc.lft.to/lastmile_qr_scan", "ios": "https://dc.lft.to/lastmile_qr_scan"}, "fusion_lon": 0.0}, {"lat": 38.90342166666667, "is_disabled": 0, "type": "electric_scooter", "lon": -77.03868266666667, "bike_id": "f85249e9105770c75d1ceaef2b7443f2", "fusion_lat": 0.0, "name": "f85249e9105770c75d1ceaef2b7443f2", "is_reserved": 0, "rental_uris": {"android": "https://dc.lft.to/lastmile_qr_scan", "ios": "https://dc.lft.to/lastmile_qr_scan"}, "fusion_lon": 0.0}, {"lat": 38.862567166666665, "is_disabled": 0, "type": "electric_scooter", "lon": -76.995174, "bike_id": "839ecbd07f04deaadaf0118e44cf91e6", "fusion_lat": 0.0, "name": "839ecbd07f04deaadaf0118e44cf91e6", "is_reserved": 0, "rental_uris": {"android": "https://dc.lft.to/lastmile_qr_scan", "ios": "https://dc.lft.to/lastmile_qr_scan"}, "fusion_lon": 0.0}, {"lat": 38.851872166666666, "is_disabled": 0, "type": "electric_scooter", "lon": -76.97620916666666, "bike_id": "652bb2024835d49f83498cacdd5c7957", "fusion_lat": 0.0, "name": "652bb2024835d49f83498cacdd5c7957", "is_reserved": 0, "rental_uris": {"android": "https://dc.lft.to/lastmile_qr_scan", "ios": "https://dc.lft.to/lastmile_qr_scan"}, "fusion_lon": 0.0}, {"lat": 38.96431916666667, "is_disabled": 0, "type": "electric_bike", "lon": -77.02146816666666, "bike_id": "f8ce3c751147a5158018a61b54e1dda3", "fusion_lat": 0.0, "name": "f8ce3c751147a5158018a61b54e1dda3", "is_reserved": 0, "rental_uris": {"android": "https://dc.lft.to/lastmile_qr_scan", "ios": "https://dc.lft.to/lastmile_qr_scan"}, "fusion_lon": 0.0}, {"lat": 38.93742316666667, "is_disabled": 0, "type": "electric_scooter", "lon": -77.03618816666666, "bike_id": "59cba6da4e36624f36a754d8839d686a", "fusion_lat": 0.0, "name": "59cba6da4e36624f36a754d8839d686a", "is_reserved": 0, "rental_uris": {"android": "https://dc.lft.to/lastmile_qr_scan", "ios": "https://dc.lft.to/lastmile_qr_scan"}, "fusion_lon": 0.0}, {"lat": 38.910507, "is_disabled": 0, "type": "electric_scooter", "lon": -77.04376633333334, "bike_id": "51461f75929b98e07de53bf8585907f5", "fusion_lat": 0.0, "name": "51461f75929b98e07de53bf8585907f5", "is_reserved": 0, "rental_uris": {"android": "https://dc.lft.to/lastmile_qr_scan", "ios": "https://dc.lft.to/lastmile_qr_scan"}, "fusion_lon": 0.0}, {"lat": 38.925945, "is_disabled": 0, "type": "electric_scooter", "lon": -77.04423283333334, "bike_id": "aefad589a1e2401031d9655268858e62", "fusion_lat": 0.0, "name": "aefad589a1e2401031d9655268858e62", "is_reserved": 0, "rental_uris": {"android": "https://dc.lft.to/lastmile_qr_scan", "ios": "https://dc.lft.to/lastmile_qr_scan"}, "fusion_lon": 0.0}, {"lat": 38.8985355, "is_disabled": 0, "type": "electric_scooter", "lon": -76.99031583333333, "bike_id": "f31835af5e5dafb8c9c5420ab2577fb7", "fusion_lat": 0.0, "name": "f31835af5e5dafb8c9c5420ab2577fb7", "is_reserved": 0, "rental_uris": {"android": "https://dc.lft.to/lastmile_qr_scan", "ios": "https://dc.lft.to/lastmile_qr_scan"}, "fusion_lon": 0.0}, {"lat": 38.9060135, "is_disabled": 0, "type": "electric_scooter", "lon": -77.05131433333334, "bike_id": "d8db1cbc002bf6f44dfdd82fe7b21ca3", "fusion_lat": 0.0, "name": "d8db1cbc002bf6f44dfdd82fe7b21ca3", "is_reserved": 0, "rental_uris": {"android": "https://dc.lft.to/lastmile_qr_scan", "ios": "https://dc.lft.to/lastmile_qr_scan"}, "fusion_lon": 0.0}, {"lat": 38.897292, "is_disabled": 0, "type": "electric_scooter", "lon": -77.04988466666667, "bike_id": "1bbc8ab45792b9c427ce8227dbfdeddb", "fusion_lat": 0.0, "name": "1bbc8ab45792b9c427ce8227dbfdeddb", "is_reserved": 0, "rental_uris": {"android": "https://dc.lft.to/lastmile_qr_scan", "ios": "https://dc.lft.to/lastmile_qr_scan"}, "fusion_lon": 0.0}, {"lat": 38.909541833333336, "is_disabled": 0, "type": "electric_scooter", "lon": -77.047912, "bike_id": "0b5a6599472c8ac6903487c8ff7b1ec7", "fusion_lat": 0.0, "name": "0b5a6599472c8ac6903487c8ff7b1ec7", "is_reserved": 0, "rental_uris": {"android": "https://dc.lft.to/lastmile_qr_scan", "ios": "https://dc.lft.to/lastmile_qr_scan"}, "fusion_lon": 0.0}, {"lat": 38.92367016666667, "is_disabled": 0, "type": "electric_scooter", "lon": -77.02925283333333, "bike_id": "0aa7f231a8ad2888c60c308d0a991672", "fusion_lat": 0.0, "name": "0aa7f231a8ad2888c60c308d0a991672", "is_reserved": 0, "rental_uris": {"android": "https://dc.lft.to/lastmile_qr_scan", "ios": "https://dc.lft.to/lastmile_qr_scan"}, "fusion_lon": 0.0}, {"lat": 38.90103416666667, "is_disabled": 0, "type": "electric_scooter", "lon": -77.033203, "bike_id": "e09fd3da9edc3c9815621f88f709754a", "fusion_lat": 0.0, "name": "e09fd3da9edc3c9815621f88f709754a", "is_reserved": 0, "rental_uris": {"android": "https://dc.lft.to/lastmile_qr_scan", "ios": "https://dc.lft.to/lastmile_qr_scan"}, "fusion_lon": 0.0}, {"lat": 38.87774833333334, "is_disabled": 0, "type": "electric_scooter", "lon": -76.99507733333333, "bike_id": "d264c1e0051f1a05042734e83a2c858f", "fusion_lat": 0.0, "name": "d264c1e0051f1a05042734e83a2c858f", "is_reserved": 0, "rental_uris": {"android": "https://dc.lft.to/lastmile_qr_scan", "ios": "https://dc.lft.to/lastmile_qr_scan"}, "fusion_lon": 0.0}, {"lat": 38.90243316666667, "is_disabled": 0, "type": "electric_scooter", "lon": -77.05370816666667, "bike_id": "aa83460c0bcd0eae80d4ee4e8cbbe10e", "fusion_lat": 0.0, "name": "aa83460c0bcd0eae80d4ee4e8cbbe10e", "is_reserved": 0, "rental_uris": {"android": "https://dc.lft.to/lastmile_qr_scan", "ios": "https://dc.lft.to/lastmile_qr_scan"}, "fusion_lon": 0.0}, {"lat": 38.926136166666666, "is_disabled": 0, "type": "electric_scooter", "lon": -77.02162416666667, "bike_id": "0be948f679dff2f2407b087acbbe126b", "fusion_lat": 0.0, "name": "0be948f679dff2f2407b087acbbe126b", "is_reserved": 0, "rental_uris": {"android": "https://dc.lft.to/lastmile_qr_scan", "ios": "https://dc.lft.to/lastmile_qr_scan"}, "fusion_lon": 0.0}, {"lat": 38.884874, "is_disabled": 0, "type": "electric_scooter", "lon": -77.007075, "bike_id": "411a7ace9a7ad7484c518f88e782dab3", "fusion_lat": 0.0, "name": "411a7ace9a7ad7484c518f88e782dab3", "is_reserved": 0, "rental_uris": {"android": "https://dc.lft.to/lastmile_qr_scan", "ios": "https://dc.lft.to/lastmile_qr_scan"}, "fusion_lon": 0.0}, {"lat": 38.934924, "is_disabled": 0, "type": "electric_scooter", "lon": -77.03621266666667, "bike_id": "907c98cee2b10a14fc7781244485f1e9", "fusion_lat": 0.0, "name": "907c98cee2b10a14fc7781244485f1e9", "is_reserved": 0, "rental_uris": {"android": "https://dc.lft.to/lastmile_qr_scan", "ios": "https://dc.lft.to/lastmile_qr_scan"}, "fusion_lon": 0.0}, {"lat": 38.90981633333333, "is_disabled": 0, "type": "electric_scooter", "lon": -77.03448566666667, "bike_id": "44eee42c2d96eb714710a786aa733a56", "fusion_lat": 0.0, "name": "44eee42c2d96eb714710a786aa733a56", "is_reserved": 0, "rental_uris": {"android": "https://dc.lft.to/lastmile_qr_scan", "ios": "https://dc.lft.to/lastmile_qr_scan"}, "fusion_lon": 0.0}, {"lat": 38.89734283333333, "is_disabled": 0, "type": "electric_scooter", "lon": -77.04991566666666, "bike_id": "8972e1a17be6b0756978926a48c1eacd", "fusion_lat": 0.0, "name": "8972e1a17be6b0756978926a48c1eacd", "is_reserved": 0, "rental_uris": {"android": "https://dc.lft.to/lastmile_qr_scan", "ios": "https://dc.lft.to/lastmile_qr_scan"}, "fusion_lon": 0.0}, {"lat": 38.9941865, "is_disabled": 0, "type": "electric_bike", "lon": -77.03187416666667, "bike_id": "ffc3c53dc0fd6e16e2aba31ec56d8e85", "fusion_lat": 0.0, "name": "ffc3c53dc0fd6e16e2aba31ec56d8e85", "is_reserved": 0, "rental_uris": {"android": "https://dc.lft.to/lastmile_qr_scan", "ios": "https://dc.lft.to/lastmile_qr_scan"}, "fusion_lon": 0.0}, {"lat": 38.90002833333333, "is_disabled": 0, "type": "electric_scooter", "lon": -77.01192983333334, "bike_id": "6eca913ee4498e3958756f6a253fcf56", "fusion_lat": 0.0, "name": "6eca913ee4498e3958756f6a253fcf56", "is_reserved": 0, "rental_uris": {"android": "https://dc.lft.to/lastmile_qr_scan", "ios": "https://dc.lft.to/lastmile_qr_scan"}, "fusion_lon": 0.0}, {"lat": 38.92574533333333, "is_disabled": 0, "type": "electric_scooter", "lon": -76.98610166666667, "bike_id": "abb7a178bda61640a55274069f41d12a", "fusion_lat": 0.0, "name": "abb7a178bda61640a55274069f41d12a", "is_reserved": 0, "rental_uris": {"android": "https://dc.lft.to/lastmile_qr_scan", "ios": "https://dc.lft.to/lastmile_qr_scan"}, "fusion_lon": 0.0}, {"lat": 38.842928, "is_disabled": 0, "type": "electric_scooter", "lon": -76.99952433333333, "bike_id": "fa3764696273e7b2a177742728792259", "fusion_lat": 0.0, "name": "fa3764696273e7b2a177742728792259", "is_reserved": 0, "rental_uris": {"android": "https://dc.lft.to/lastmile_qr_scan", "ios": "https://dc.lft.to/lastmile_qr_scan"}, "fusion_lon": 0.0}, {"lat": 38.923273, "is_disabled": 0, "type": "electric_scooter", "lon": -77.03582783333333, "bike_id": "ca6f96800ff8b0b4bbf5bed0bfa15439", "fusion_lat": 0.0, "name": "ca6f96800ff8b0b4bbf5bed0bfa15439", "is_reserved": 0, "rental_uris": {"android": "https://dc.lft.to/lastmile_qr_scan", "ios": "https://dc.lft.to/lastmile_qr_scan"}, "fusion_lon": 0.0}, {"lat": 38.8520595, "is_disabled": 0, "type": "electric_bike", "lon": -77.10125066666667, "bike_id": "a1c97212fe127b2fda596dfc3e999294", "fusion_lat": 0.0, "name": "a1c97212fe127b2fda596dfc3e999294", "is_reserved": 0, "rental_uris": {"android": "https://dc.lft.to/lastmile_qr_scan", "ios": "https://dc.lft.to/lastmile_qr_scan"}, "fusion_lon": 0.0}, {"lat": 38.910099, "is_disabled": 0, "type": "electric_scooter", "lon": -77.0269435, "bike_id": "83000a0772f41e11d431be9a4c7225e0", "fusion_lat": 0.0, "name": "83000a0772f41e11d431be9a4c7225e0", "is_reserved": 0, "rental_uris": {"android": "https://dc.lft.to/lastmile_qr_scan", "ios": "https://dc.lft.to/lastmile_qr_scan"}, "fusion_lon": 0.0}, {"lat": 38.912898166666665, "is_disabled": 0, "type": "electric_scooter", "lon": -77.04014083333334, "bike_id": "f0de4ef7f349e4a290438c98663fe63c", "fusion_lat": 0.0, "name": "f0de4ef7f349e4a290438c98663fe63c", "is_reserved": 0, "rental_uris": {"android": "https://dc.lft.to/lastmile_qr_scan", "ios": "https://dc.lft.to/lastmile_qr_scan"}, "fusion_lon": 0.0}, {"lat": 38.907199166666665, "is_disabled": 0, "type": "electric_scooter", "lon": -77.04338333333334, "bike_id": "aa1682e0c66088b01a1828612f41c623", "fusion_lat": 0.0, "name": "aa1682e0c66088b01a1828612f41c623", "is_reserved": 0, "rental_uris": {"android": "https://dc.lft.to/lastmile_qr_scan", "ios": "https://dc.lft.to/lastmile_qr_scan"}, "fusion_lon": 0.0}, {"lat": 38.919975, "is_disabled": 0, "type": "electric_scooter", "lon": -77.0238585, "bike_id": "b298ae7a44a84894601d5f23b43ecd7a", "fusion_lat": 0.0, "name": "b298ae7a44a84894601d5f23b43ecd7a", "is_reserved": 0, "rental_uris": {"android": "https://dc.lft.to/lastmile_qr_scan", "ios": "https://dc.lft.to/lastmile_qr_scan"}, "fusion_lon": 0.0}, {"lat": 38.9267475, "is_disabled": 0, "type": "electric_scooter", "lon": -77.028616, "bike_id": "8720bf869679886fd4c345affa113fe6", "fusion_lat": 0.0, "name": "8720bf869679886fd4c345affa113fe6", "is_reserved": 0, "rental_uris": {"android": "https://dc.lft.to/lastmile_qr_scan", "ios": "https://dc.lft.to/lastmile_qr_scan"}, "fusion_lon": 0.0}, {"lat": 38.92058766666667, "is_disabled": 0, "type": "electric_scooter", "lon": -77.0243375, "bike_id": "fc7e2a5deda3e596acb7c8a31b0aafaf", "fusion_lat": 0.0, "name": "fc7e2a5deda3e596acb7c8a31b0aafaf", "is_reserved": 0, "rental_uris": {"android": "https://dc.lft.to/lastmile_qr_scan", "ios": "https://dc.lft.to/lastmile_qr_scan"}, "fusion_lon": 0.0}, {"lat": 38.985107, "is_disabled": 0, "type": "electric_bike", "lon": -76.98203216666667, "bike_id": "21bab9f181e35943038752024d4e8284", "fusion_lat": 0.0, "name": "21bab9f181e35943038752024d4e8284", "is_reserved": 0, "rental_uris": {"android": "https://dc.lft.to/lastmile_qr_scan", "ios": "https://dc.lft.to/lastmile_qr_scan"}, "fusion_lon": 0.0}, {"lat": 38.901976, "is_disabled": 0, "type": "electric_scooter", "lon": -77.02378583333333, "bike_id": "72e2f836e4e6575d0ec0b41f743ec0a9", "fusion_lat": 0.0, "name": "72e2f836e4e6575d0ec0b41f743ec0a9", "is_reserved": 0, "rental_uris": {"android": "https://dc.lft.to/lastmile_qr_scan", "ios": "https://dc.lft.to/lastmile_qr_scan"}, "fusion_lon": 0.0}, {"lat": 38.805746, "is_disabled": 0, "type": "electric_bike", "lon": -77.06859833333333, "bike_id": "159aa2bca47ad7b26e46a67bf8e0224c", "fusion_lat": 0.0, "name": "159aa2bca47ad7b26e46a67bf8e0224c", "is_reserved": 0, "rental_uris": {"android": "https://dc.lft.to/lastmile_qr_scan", "ios": "https://dc.lft.to/lastmile_qr_scan"}, "fusion_lon": 0.0}, {"lat": 38.864033666666664, "is_disabled": 0, "type": "electric_bike", "lon": -76.97442283333334, "bike_id": "7d19ac49f0ece8d445e1e8892b169677", "fusion_lat": 0.0, "name": "7d19ac49f0ece8d445e1e8892b169677", "is_reserved": 0, "rental_uris": {"android": "https://dc.lft.to/lastmile_qr_scan", "ios": "https://dc.lft.to/lastmile_qr_scan"}, "fusion_lon": 0.0}, {"lat": 38.900204, "is_disabled": 0, "type": "electric_scooter", "lon": -76.99570383333334, "bike_id": "e6b11fb031c17af593eb9ae36dbbb23b", "fusion_lat": 0.0, "name": "e6b11fb031c17af593eb9ae36dbbb23b", "is_reserved": 0, "rental_uris": {"android": "https://dc.lft.to/lastmile_qr_scan", "ios": "https://dc.lft.to/lastmile_qr_scan"}, "fusion_lon": 0.0}, {"lat": 38.982729666666664, "is_disabled": 0, "type": "electric_bike", "lon": -77.0177075, "bike_id": "75b270be7bc51bd56d8ad697e143f718", "fusion_lat": 0.0, "name": "75b270be7bc51bd56d8ad697e143f718", "is_reserved": 0, "rental_uris": {"android": "https://dc.lft.to/lastmile_qr_scan", "ios": "https://dc.lft.to/lastmile_qr_scan"}, "fusion_lon": 0.0}, {"lat": 38.930710833333336, "is_disabled": 0, "type": "electric_scooter", "lon": -77.03408733333333, "bike_id": "f6e298e495f71baaa93aaeca14c9ddf0", "fusion_lat": 0.0, "name": "f6e298e495f71baaa93aaeca14c9ddf0", "is_reserved": 0, "rental_uris": {"android": "https://dc.lft.to/lastmile_qr_scan", "ios": "https://dc.lft.to/lastmile_qr_scan"}, "fusion_lon": 0.0}, {"lat": 38.9143835, "is_disabled": 0, "type": "electric_scooter", "lon": -77.03641483333334, "bike_id": "2861d378afcfa84365942e6c4ca84fd6", "fusion_lat": 0.0, "name": "2861d378afcfa84365942e6c4ca84fd6", "is_reserved": 0, "rental_uris": {"android": "https://dc.lft.to/lastmile_qr_scan", "ios": "https://dc.lft.to/lastmile_qr_scan"}, "fusion_lon": 0.0}, {"lat": 38.9234675, "is_disabled": 0, "type": "electric_scooter", "lon": -77.0341825, "bike_id": "aefa3597147d5db165a49a3923625b48", "fusion_lat": 0.0, "name": "aefa3597147d5db165a49a3923625b48", "is_reserved": 0, "rental_uris": {"android": "https://dc.lft.to/lastmile_qr_scan", "ios": "https://dc.lft.to/lastmile_qr_scan"}, "fusion_lon": 0.0}, {"lat": 38.9011375, "is_disabled": 0, "type": "electric_scooter", "lon": -77.04978283333334, "bike_id": "c0fa99a92f17813641dfdd6600701e91", "fusion_lat": 0.0, "name": "c0fa99a92f17813641dfdd6600701e91", "is_reserved": 0, "rental_uris": {"android": "https://dc.lft.to/lastmile_qr_scan", "ios": "https://dc.lft.to/lastmile_qr_scan"}, "fusion_lon": 0.0}, {"lat": 38.895416, "is_disabled": 0, "type": "electric_scooter", "lon": -77.02290366666666, "bike_id": "40d54d8aff35d6a2a9d38bad14ef37c4", "fusion_lat": 0.0, "name": "40d54d8aff35d6a2a9d38bad14ef37c4", "is_reserved": 0, "rental_uris": {"android": "https://dc.lft.to/lastmile_qr_scan", "ios": "https://dc.lft.to/lastmile_qr_scan"}, "fusion_lon": 0.0}, {"lat": 38.90259366666667, "is_disabled": 0, "type": "electric_scooter", "lon": -77.0185725, "bike_id": "de1129f17f9222917e19f196e8cc7b06", "fusion_lat": 0.0, "name": "de1129f17f9222917e19f196e8cc7b06", "is_reserved": 0, "rental_uris": {"android": "https://dc.lft.to/lastmile_qr_scan", "ios": "https://dc.lft.to/lastmile_qr_scan"}, "fusion_lon": 0.0}, {"lat": 38.89611216666667, "is_disabled": 0, "type": "electric_scooter", "lon": -77.04414133333333, "bike_id": "9ca9927136f2577cb6b70744fccc1684", "fusion_lat": 0.0, "name": "9ca9927136f2577cb6b70744fccc1684", "is_reserved": 0, "rental_uris": {"android": "https://dc.lft.to/lastmile_qr_scan", "ios": "https://dc.lft.to/lastmile_qr_scan"}, "fusion_lon": 0.0}, {"lat": 38.85219516666667, "is_disabled": 0, "type": "electric_bike", "lon": -77.12959566666666, "bike_id": "2347586a971d497fa649ad1100cc9804", "fusion_lat": 0.0, "name": "2347586a971d497fa649ad1100cc9804", "is_reserved": 0, "rental_uris": {"android": "https://dc.lft.to/lastmile_qr_scan", "ios": "https://dc.lft.to/lastmile_qr_scan"}, "fusion_lon": 0.0}, {"lat": 38.921727833333335, "is_disabled": 0, "type": "electric_scooter", "lon": -77.051371, "bike_id": "ee0e702546d0369187e29a7738884f34", "fusion_lat": 0.0, "name": "ee0e702546d0369187e29a7738884f34", "is_reserved": 0, "rental_uris": {"android": "https://dc.lft.to/lastmile_qr_scan", "ios": "https://dc.lft.to/lastmile_qr_scan"}, "fusion_lon": 0.0}, {"lat": 38.800607, "is_disabled": 0, "type": "electric_bike", "lon": -77.07118916666667, "bike_id": "6e2ce7cf88a4e3f50a34b22883153bf0", "fusion_lat": 0.0, "name": "6e2ce7cf88a4e3f50a34b22883153bf0", "is_reserved": 0, "rental_uris": {"android": "https://dc.lft.to/lastmile_qr_scan", "ios": "https://dc.lft.to/lastmile_qr_scan"}, "fusion_lon": 0.0}, {"lat": 38.91816583333333, "is_disabled": 0, "type": "electric_scooter", "lon": -76.99970816666666, "bike_id": "39878c187c663cd08ecda5a5d027e0d8", "fusion_lat": 0.0, "name": "39878c187c663cd08ecda5a5d027e0d8", "is_reserved": 0, "rental_uris": {"android": "https://dc.lft.to/lastmile_qr_scan", "ios": "https://dc.lft.to/lastmile_qr_scan"}, "fusion_lon": 0.0}, {"lat": 38.911119, "is_disabled": 0, "type": "electric_scooter", "lon": -77.037356, "bike_id": "04a5de60426274867e048eaf5eb8d872", "fusion_lat": 0.0, "name": "04a5de60426274867e048eaf5eb8d872", "is_reserved": 0, "rental_uris": {"android": "https://dc.lft.to/lastmile_qr_scan", "ios": "https://dc.lft.to/lastmile_qr_scan"}, "fusion_lon": 0.0}, {"lat": 38.909984666666666, "is_disabled": 0, "type": "electric_scooter", "lon": -77.040098, "bike_id": "f3ab412df7a688dfd96b4e4e8ea5b734", "fusion_lat": 0.0, "name": "f3ab412df7a688dfd96b4e4e8ea5b734", "is_reserved": 0, "rental_uris": {"android": "https://dc.lft.to/lastmile_qr_scan", "ios": "https://dc.lft.to/lastmile_qr_scan"}, "fusion_lon": 0.0}, {"lat": 38.865916, "is_disabled": 0, "type": "electric_bike", "lon": -76.93222916666667, "bike_id": "a1779b91798dde39eeeee88077a3b8d4", "fusion_lat": 0.0, "name": "a1779b91798dde39eeeee88077a3b8d4", "is_reserved": 0, "rental_uris": {"android": "https://dc.lft.to/lastmile_qr_scan", "ios": "https://dc.lft.to/lastmile_qr_scan"}, "fusion_lon": 0.0}, {"lat": 38.934558333333335, "is_disabled": 0, "type": "electric_scooter", "lon": -77.0323565, "bike_id": "49f048dcef845f0d9d169d43ab222080", "fusion_lat": 0.0, "name": "49f048dcef845f0d9d169d43ab222080", "is_reserved": 0, "rental_uris": {"android": "https://dc.lft.to/lastmile_qr_scan", "ios": "https://dc.lft.to/lastmile_qr_scan"}, "fusion_lon": 0.0}, {"lat": 38.93227, "is_disabled": 0, "type": "electric_scooter", "lon": -77.0441495, "bike_id": "544260c87ba205e9216be20c837c9372", "fusion_lat": 0.0, "name": "544260c87ba205e9216be20c837c9372", "is_reserved": 0, "rental_uris": {"android": "https://dc.lft.to/lastmile_qr_scan", "ios": "https://dc.lft.to/lastmile_qr_scan"}, "fusion_lon": 0.0}, {"lat": 38.921701666666664, "is_disabled": 0, "type": "electric_scooter", "lon": -77.04029066666666, "bike_id": "ff82ccea10fa61c9cbb46f83d34e224e", "fusion_lat": 0.0, "name": "ff82ccea10fa61c9cbb46f83d34e224e", "is_reserved": 0, "rental_uris": {"android": "https://dc.lft.to/lastmile_qr_scan", "ios": "https://dc.lft.to/lastmile_qr_scan"}, "fusion_lon": 0.0}, {"lat": 38.88512983333333, "is_disabled": 0, "type": "electric_scooter", "lon": -77.0153695, "bike_id": "4e2a9a618e94b6d4beff34bda021d2b0", "fusion_lat": 0.0, "name": "4e2a9a618e94b6d4beff34bda021d2b0", "is_reserved": 0, "rental_uris": {"android": "https://dc.lft.to/lastmile_qr_scan", "ios": "https://dc.lft.to/lastmile_qr_scan"}, "fusion_lon": 0.0}, {"lat": 38.865201666666664, "is_disabled": 0, "type": "electric_scooter", "lon": -76.990319, "bike_id": "1686ac02e1db2d01eef8eeebab064d9e", "fusion_lat": 0.0, "name": "1686ac02e1db2d01eef8eeebab064d9e", "is_reserved": 0, "rental_uris": {"android": "https://dc.lft.to/lastmile_qr_scan", "ios": "https://dc.lft.to/lastmile_qr_scan"}, "fusion_lon": 0.0}, {"lat": 38.920145166666664, "is_disabled": 0, "type": "electric_scooter", "lon": -77.04180116666667, "bike_id": "83391b67ae6b967da8fdaa65d163a0fa", "fusion_lat": 0.0, "name": "83391b67ae6b967da8fdaa65d163a0fa", "is_reserved": 0, "rental_uris": {"android": "https://dc.lft.to/lastmile_qr_scan", "ios": "https://dc.lft.to/lastmile_qr_scan"}, "fusion_lon": 0.0}, {"lat": 38.9175625, "is_disabled": 0, "type": "electric_scooter", "lon": -77.004487, "bike_id": "9d8b155d9837a1f391284920897a3188", "fusion_lat": 0.0, "name": "9d8b155d9837a1f391284920897a3188", "is_reserved": 0, "rental_uris": {"android": "https://dc.lft.to/lastmile_qr_scan", "ios": "https://dc.lft.to/lastmile_qr_scan"}, "fusion_lon": 0.0}, {"lat": 38.9621745, "is_disabled": 0, "type": "electric_bike", "lon": -77.02778883333333, "bike_id": "f38ba62f993088b4323f6c163f0982ac", "fusion_lat": 0.0, "name": "f38ba62f993088b4323f6c163f0982ac", "is_reserved": 0, "rental_uris": {"android": "https://dc.lft.to/lastmile_qr_scan", "ios": "https://dc.lft.to/lastmile_qr_scan"}, "fusion_lon": 0.0}, {"lat": 38.900629333333335, "is_disabled": 0, "type": "electric_scooter", "lon": -77.007398, "bike_id": "24b35e35cc05cfdbaccc6694e48a841d", "fusion_lat": 0.0, "name": "24b35e35cc05cfdbaccc6694e48a841d", "is_reserved": 0, "rental_uris": {"android": "https://dc.lft.to/lastmile_qr_scan", "ios": "https://dc.lft.to/lastmile_qr_scan"}, "fusion_lon": 0.0}, {"lat": 38.915526, "is_disabled": 0, "type": "electric_scooter", "lon": -77.02430216666667, "bike_id": "e47dfd218506110a790b24de2244ab74", "fusion_lat": 0.0, "name": "e47dfd218506110a790b24de2244ab74", "is_reserved": 0, "rental_uris": {"android": "https://dc.lft.to/lastmile_qr_scan", "ios": "https://dc.lft.to/lastmile_qr_scan"}, "fusion_lon": 0.0}, {"lat": 38.884949666666664, "is_disabled": 0, "type": "electric_scooter", "lon": -77.00727466666666, "bike_id": "6874ab6c48113d29ef2fee808a63492b", "fusion_lat": 0.0, "name": "6874ab6c48113d29ef2fee808a63492b", "is_reserved": 0, "rental_uris": {"android": "https://dc.lft.to/lastmile_qr_scan", "ios": "https://dc.lft.to/lastmile_qr_scan"}, "fusion_lon": 0.0}, {"lat": 38.9144645, "is_disabled": 0, "type": "electric_scooter", "lon": -77.029716, "bike_id": "8de215222eb3330dab4d5e7c5a611efb", "fusion_lat": 0.0, "name": "8de215222eb3330dab4d5e7c5a611efb", "is_reserved": 0, "rental_uris": {"android": "https://dc.lft.to/lastmile_qr_scan", "ios": "https://dc.lft.to/lastmile_qr_scan"}, "fusion_lon": 0.0}, {"lat": 38.933414, "is_disabled": 0, "type": "electric_scooter", "lon": -76.99311383333334, "bike_id": "962343d6d17d06f09b601fdcb0fd6c48", "fusion_lat": 0.0, "name": "962343d6d17d06f09b601fdcb0fd6c48", "is_reserved": 0, "rental_uris": {"android": "https://dc.lft.to/lastmile_qr_scan", "ios": "https://dc.lft.to/lastmile_qr_scan"}, "fusion_lon": 0.0}, {"lat": 38.90011066666667, "is_disabled": 0, "type": "electric_scooter", "lon": -76.92240366666667, "bike_id": "f7bef51057db3bb999d31b495aecd7ec", "fusion_lat": 0.0, "name": "f7bef51057db3bb999d31b495aecd7ec", "is_reserved": 0, "rental_uris": {"android": "https://dc.lft.to/lastmile_qr_scan", "ios": "https://dc.lft.to/lastmile_qr_scan"}, "fusion_lon": 0.0}, {"lat": 38.931446666666666, "is_disabled": 0, "type": "electric_scooter", "lon": -77.02146, "bike_id": "a5542486f6d31167d051f4b09d5f8757", "fusion_lat": 0.0, "name": "a5542486f6d31167d051f4b09d5f8757", "is_reserved": 0, "rental_uris": {"android": "https://dc.lft.to/lastmile_qr_scan", "ios": "https://dc.lft.to/lastmile_qr_scan"}, "fusion_lon": 0.0}, {"lat": 38.90065383333334, "is_disabled": 0, "type": "electric_scooter", "lon": -77.025935, "bike_id": "fdcce37372cc7b37acba3689f6502183", "fusion_lat": 0.0, "name": "fdcce37372cc7b37acba3689f6502183", "is_reserved": 0, "rental_uris": {"android": "https://dc.lft.to/lastmile_qr_scan", "ios": "https://dc.lft.to/lastmile_qr_scan"}, "fusion_lon": 0.0}, {"lat": 38.90123216666667, "is_disabled": 0, "type": "electric_scooter", "lon": -76.98636016666667, "bike_id": "1453f7cdf08a3404c7a2ca7501d351ae", "fusion_lat": 0.0, "name": "1453f7cdf08a3404c7a2ca7501d351ae", "is_reserved": 0, "rental_uris": {"android": "https://dc.lft.to/lastmile_qr_scan", "ios": "https://dc.lft.to/lastmile_qr_scan"}, "fusion_lon": 0.0}, {"lat": 38.927475333333334, "is_disabled": 0, "type": "electric_scooter", "lon": -77.02964916666667, "bike_id": "4449c7ea133493eec6659689d7bc6e79", "fusion_lat": 0.0, "name": "4449c7ea133493eec6659689d7bc6e79", "is_reserved": 0, "rental_uris": {"android": "https://dc.lft.to/lastmile_qr_scan", "ios": "https://dc.lft.to/lastmile_qr_scan"}, "fusion_lon": 0.0}, {"lat": 38.91706833333333, "is_disabled": 0, "type": "electric_scooter", "lon": -77.03223816666667, "bike_id": "4d258b53d96aea6c64a15540b0430cff", "fusion_lat": 0.0, "name": "4d258b53d96aea6c64a15540b0430cff", "is_reserved": 0, "rental_uris": {"android": "https://dc.lft.to/lastmile_qr_scan", "ios": "https://dc.lft.to/lastmile_qr_scan"}, "fusion_lon": 0.0}, {"lat": 38.924061, "is_disabled": 0, "type": "electric_bike", "lon": -77.0504445, "bike_id": "63b29303743e60fa46e7b22de223368b", "fusion_lat": 0.0, "name": "63b29303743e60fa46e7b22de223368b", "is_reserved": 0, "rental_uris": {"android": "https://dc.lft.to/lastmile_qr_scan", "ios": "https://dc.lft.to/lastmile_qr_scan"}, "fusion_lon": 0.0}, {"lat": 38.91791466666667, "is_disabled": 0, "type": "electric_bike", "lon": -76.97192483333333, "bike_id": "94bbab90ee74c0a33bf73fdc5e0bb4f3", "fusion_lat": 0.0, "name": "94bbab90ee74c0a33bf73fdc5e0bb4f3", "is_reserved": 0, "rental_uris": {"android": "https://dc.lft.to/lastmile_qr_scan", "ios": "https://dc.lft.to/lastmile_qr_scan"}, "fusion_lon": 0.0}, {"lat": 38.905734333333335, "is_disabled": 0, "type": "electric_scooter", "lon": -77.0487145, "bike_id": "8eb9687c3787cb80a4a5b1893536ae30", "fusion_lat": 0.0, "name": "8eb9687c3787cb80a4a5b1893536ae30", "is_reserved": 0, "rental_uris": {"android": "https://dc.lft.to/lastmile_qr_scan", "ios": "https://dc.lft.to/lastmile_qr_scan"}, "fusion_lon": 0.0}, {"lat": 38.86169533333333, "is_disabled": 0, "type": "electric_bike", "lon": -77.13147833333333, "bike_id": "87e20e10dbf0afa405fbb0302bb24d88", "fusion_lat": 0.0, "name": "87e20e10dbf0afa405fbb0302bb24d88", "is_reserved": 0, "rental_uris": {"android": "https://dc.lft.to/lastmile_qr_scan", "ios": "https://dc.lft.to/lastmile_qr_scan"}, "fusion_lon": 0.0}, {"lat": 38.9177515, "is_disabled": 0, "type": "electric_scooter", "lon": -77.02308083333334, "bike_id": "ff8417488e37751c694eb30f0b0413fd", "fusion_lat": 0.0, "name": "ff8417488e37751c694eb30f0b0413fd", "is_reserved": 0, "rental_uris": {"android": "https://dc.lft.to/lastmile_qr_scan", "ios": "https://dc.lft.to/lastmile_qr_scan"}, "fusion_lon": 0.0}, {"lat": 38.900936333333334, "is_disabled": 0, "type": "electric_scooter", "lon": -77.00339933333333, "bike_id": "7765fa9280a5100ec88ca02bfb52930a", "fusion_lat": 0.0, "name": "7765fa9280a5100ec88ca02bfb52930a", "is_reserved": 0, "rental_uris": {"android": "https://dc.lft.to/lastmile_qr_scan", "ios": "https://dc.lft.to/lastmile_qr_scan"}, "fusion_lon": 0.0}, {"lat": 38.92856533333333, "is_disabled": 0, "type": "electric_bike", "lon": -76.98934916666667, "bike_id": "f4f3e83602753c3b1409e2e39bd953e0", "fusion_lat": 0.0, "name": "f4f3e83602753c3b1409e2e39bd953e0", "is_reserved": 0, "rental_uris": {"android": "https://dc.lft.to/lastmile_qr_scan", "ios": "https://dc.lft.to/lastmile_qr_scan"}, "fusion_lon": 0.0}, {"lat": 38.907241166666665, "is_disabled": 0, "type": "electric_scooter", "lon": -76.9981275, "bike_id": "ce264e6741f859cef6cd9a9df1b62c17", "fusion_lat": 0.0, "name": "ce264e6741f859cef6cd9a9df1b62c17", "is_reserved": 0, "rental_uris": {"android": "https://dc.lft.to/lastmile_qr_scan", "ios": "https://dc.lft.to/lastmile_qr_scan"}, "fusion_lon": 0.0}, {"lat": 38.921456166666665, "is_disabled": 0, "type": "electric_scooter", "lon": -77.03379666666666, "bike_id": "a5edbf3578f6b2691ae5d63813fa0af7", "fusion_lat": 0.0, "name": "a5edbf3578f6b2691ae5d63813fa0af7", "is_reserved": 0, "rental_uris": {"android": "https://dc.lft.to/lastmile_qr_scan", "ios": "https://dc.lft.to/lastmile_qr_scan"}, "fusion_lon": 0.0}, {"lat": 38.866968, "is_disabled": 0, "type": "electric_scooter", "lon": -76.98708483333333, "bike_id": "84882f5a7d5f9840cb4593b9ba491248", "fusion_lat": 0.0, "name": "84882f5a7d5f9840cb4593b9ba491248", "is_reserved": 0, "rental_uris": {"android": "https://dc.lft.to/lastmile_qr_scan", "ios": "https://dc.lft.to/lastmile_qr_scan"}, "fusion_lon": 0.0}, {"lat": 38.9196655, "is_disabled": 0, "type": "electric_scooter", "lon": -77.042922, "bike_id": "0e4318172ab4a56395821c67f3ba6829", "fusion_lat": 0.0, "name": "0e4318172ab4a56395821c67f3ba6829", "is_reserved": 0, "rental_uris": {"android": "https://dc.lft.to/lastmile_qr_scan", "ios": "https://dc.lft.to/lastmile_qr_scan"}, "fusion_lon": 0.0}, {"lat": 38.8990435, "is_disabled": 0, "type": "electric_scooter", "lon": -76.93363783333334, "bike_id": "b46a276c217f11b83e8a8823fa0df7c0", "fusion_lat": 0.0, "name": "b46a276c217f11b83e8a8823fa0df7c0", "is_reserved": 0, "rental_uris": {"android": "https://dc.lft.to/lastmile_qr_scan", "ios": "https://dc.lft.to/lastmile_qr_scan"}, "fusion_lon": 0.0}, {"lat": 38.93066566666667, "is_disabled": 0, "type": "electric_scooter", "lon": -77.04184266666667, "bike_id": "840dee83f3f83dba1d8e3c9752324730", "fusion_lat": 0.0, "name": "840dee83f3f83dba1d8e3c9752324730", "is_reserved": 0, "rental_uris": {"android": "https://dc.lft.to/lastmile_qr_scan", "ios": "https://dc.lft.to/lastmile_qr_scan"}, "fusion_lon": 0.0}, {"lat": 38.901127, "is_disabled": 0, "type": "electric_scooter", "lon": -77.04985383333333, "bike_id": "8c661827f579ac39a39ee5cf35971047", "fusion_lat": 0.0, "name": "8c661827f579ac39a39ee5cf35971047", "is_reserved": 0, "rental_uris": {"android": "https://dc.lft.to/lastmile_qr_scan", "ios": "https://dc.lft.to/lastmile_qr_scan"}, "fusion_lon": 0.0}, {"lat": 38.9617535, "is_disabled": 0, "type": "electric_bike", "lon": -77.07372283333333, "bike_id": "5088575cadd10bd7411c635beb51b8c3", "fusion_lat": 0.0, "name": "5088575cadd10bd7411c635beb51b8c3", "is_reserved": 0, "rental_uris": {"android": "https://dc.lft.to/lastmile_qr_scan", "ios": "https://dc.lft.to/lastmile_qr_scan"}, "fusion_lon": 0.0}, {"lat": 38.908593833333335, "is_disabled": 0, "type": "electric_scooter", "lon": -76.9916835, "bike_id": "41ad59a916fba5b7587bd4593a4d546c", "fusion_lat": 0.0, "name": "41ad59a916fba5b7587bd4593a4d546c", "is_reserved": 0, "rental_uris": {"android": "https://dc.lft.to/lastmile_qr_scan", "ios": "https://dc.lft.to/lastmile_qr_scan"}, "fusion_lon": 0.0}, {"lat": 38.900374, "is_disabled": 0, "type": "electric_scooter", "lon": -76.99373883333334, "bike_id": "6d39796d33f35cf61a0d688f4bec4b87", "fusion_lat": 0.0, "name": "6d39796d33f35cf61a0d688f4bec4b87", "is_reserved": 0, "rental_uris": {"android": "https://dc.lft.to/lastmile_qr_scan", "ios": "https://dc.lft.to/lastmile_qr_scan"}, "fusion_lon": 0.0}, {"lat": 38.9273905, "is_disabled": 0, "type": "electric_scooter", "lon": -77.0253435, "bike_id": "52cfcad75ddea0a6bd656a4b87f85e72", "fusion_lat": 0.0, "name": "52cfcad75ddea0a6bd656a4b87f85e72", "is_reserved": 0, "rental_uris": {"android": "https://dc.lft.to/lastmile_qr_scan", "ios": "https://dc.lft.to/lastmile_qr_scan"}, "fusion_lon": 0.0}, {"lat": 38.906225166666665, "is_disabled": 0, "type": "electric_scooter", "lon": -76.98982466666666, "bike_id": "d25c794d3b283c0331a858d5fa26dee6", "fusion_lat": 0.0, "name": "d25c794d3b283c0331a858d5fa26dee6", "is_reserved": 0, "rental_uris": {"android": "https://dc.lft.to/lastmile_qr_scan", "ios": "https://dc.lft.to/lastmile_qr_scan"}, "fusion_lon": 0.0}, {"lat": 38.891082833333336, "is_disabled": 0, "type": "electric_scooter", "lon": -76.9438795, "bike_id": "ad31c8e351212507b1d89273854a84df", "fusion_lat": 0.0, "name": "ad31c8e351212507b1d89273854a84df", "is_reserved": 0, "rental_uris": {"android": "https://dc.lft.to/lastmile_qr_scan", "ios": "https://dc.lft.to/lastmile_qr_scan"}, "fusion_lon": 0.0}, {"lat": 38.859041166666664, "is_disabled": 0, "type": "electric_scooter", "lon": -76.99149966666667, "bike_id": "17e21871923be3a4a792c54c74cfe86b", "fusion_lat": 0.0, "name": "17e21871923be3a4a792c54c74cfe86b", "is_reserved": 0, "rental_uris": {"android": "https://dc.lft.to/lastmile_qr_scan", "ios": "https://dc.lft.to/lastmile_qr_scan"}, "fusion_lon": 0.0}, {"lat": 38.895221166666666, "is_disabled": 0, "type": "electric_scooter", "lon": -77.0282805, "bike_id": "55c9622ccae9aa0cfd63885b595dbc94", "fusion_lat": 0.0, "name": "55c9622ccae9aa0cfd63885b595dbc94", "is_reserved": 0, "rental_uris": {"android": "https://dc.lft.to/lastmile_qr_scan", "ios": "https://dc.lft.to/lastmile_qr_scan"}, "fusion_lon": 0.0}, {"lat": 38.911019333333336, "is_disabled": 0, "type": "electric_scooter", "lon": -77.0422565, "bike_id": "ab914739d7cc8a2e1d088a6d6c72ad82", "fusion_lat": 0.0, "name": "ab914739d7cc8a2e1d088a6d6c72ad82", "is_reserved": 0, "rental_uris": {"android": "https://dc.lft.to/lastmile_qr_scan", "ios": "https://dc.lft.to/lastmile_qr_scan"}, "fusion_lon": 0.0}, {"lat": 38.947436333333336, "is_disabled": 0, "type": "electric_scooter", "lon": -77.06527383333334, "bike_id": "c5e6eecf63b52e27def1be9e1cd43938", "fusion_lat": 0.0, "name": "c5e6eecf63b52e27def1be9e1cd43938", "is_reserved": 0, "rental_uris": {"android": "https://dc.lft.to/lastmile_qr_scan", "ios": "https://dc.lft.to/lastmile_qr_scan"}, "fusion_lon": 0.0}, {"lat": 38.866534, "is_disabled": 0, "type": "electric_scooter", "lon": -76.98882383333333, "bike_id": "1a50a41ecb0ab8f2138372a8cfa1360c", "fusion_lat": 0.0, "name": "1a50a41ecb0ab8f2138372a8cfa1360c", "is_reserved": 0, "rental_uris": {"android": "https://dc.lft.to/lastmile_qr_scan", "ios": "https://dc.lft.to/lastmile_qr_scan"}, "fusion_lon": 0.0}, {"lat": 38.90029783333333, "is_disabled": 0, "type": "electric_scooter", "lon": -76.997189, "bike_id": "ec4597408493db6c29a46bdccc37cc96", "fusion_lat": 0.0, "name": "ec4597408493db6c29a46bdccc37cc96", "is_reserved": 0, "rental_uris": {"android": "https://dc.lft.to/lastmile_qr_scan", "ios": "https://dc.lft.to/lastmile_qr_scan"}, "fusion_lon": 0.0}, {"lat": 38.92747083333333, "is_disabled": 0, "type": "electric_scooter", "lon": -76.99726716666666, "bike_id": "5f20803d00fafebdeadc2794c4dca3e6", "fusion_lat": 0.0, "name": "5f20803d00fafebdeadc2794c4dca3e6", "is_reserved": 0, "rental_uris": {"android": "https://dc.lft.to/lastmile_qr_scan", "ios": "https://dc.lft.to/lastmile_qr_scan"}, "fusion_lon": 0.0}, {"lat": 38.863668833333335, "is_disabled": 0, "type": "electric_scooter", "lon": -76.990336, "bike_id": "4316f878f5ad17dc8e3856dcadd56e7f", "fusion_lat": 0.0, "name": "4316f878f5ad17dc8e3856dcadd56e7f", "is_reserved": 0, "rental_uris": {"android": "https://dc.lft.to/lastmile_qr_scan", "ios": "https://dc.lft.to/lastmile_qr_scan"}, "fusion_lon": 0.0}, {"lat": 38.915315, "is_disabled": 0, "type": "electric_scooter", "lon": -76.98216916666667, "bike_id": "cc30ed08f7380a9b363752239c67d6e4", "fusion_lat": 0.0, "name": "cc30ed08f7380a9b363752239c67d6e4", "is_reserved": 0, "rental_uris": {"android": "https://dc.lft.to/lastmile_qr_scan", "ios": "https://dc.lft.to/lastmile_qr_scan"}, "fusion_lon": 0.0}, {"lat": 38.9072485, "is_disabled": 0, "type": "electric_scooter", "lon": -77.04830716666666, "bike_id": "7db51a8279842be87cadfb871ed12e77", "fusion_lat": 0.0, "name": "7db51a8279842be87cadfb871ed12e77", "is_reserved": 0, "rental_uris": {"android": "https://dc.lft.to/lastmile_qr_scan", "ios": "https://dc.lft.to/lastmile_qr_scan"}, "fusion_lon": 0.0}, {"lat": 39.0305005, "is_disabled": 0, "type": "electric_bike", "lon": -77.09475833333333, "bike_id": "02fec9150a54ba76bd6a6d07f6205d0d", "fusion_lat": 0.0, "name": "02fec9150a54ba76bd6a6d07f6205d0d", "is_reserved": 0, "rental_uris": {"android": "https://dc.lft.to/lastmile_qr_scan", "ios": "https://dc.lft.to/lastmile_qr_scan"}, "fusion_lon": 0.0}, {"lat": 38.907915333333335, "is_disabled": 0, "type": "electric_scooter", "lon": -77.03476116666667, "bike_id": "bfc1a1c84d42f6764d85856346154bf2", "fusion_lat": 0.0, "name": "bfc1a1c84d42f6764d85856346154bf2", "is_reserved": 0, "rental_uris": {"android": "https://dc.lft.to/lastmile_qr_scan", "ios": "https://dc.lft.to/lastmile_qr_scan"}, "fusion_lon": 0.0}, {"lat": 38.87567666666666, "is_disabled": 0, "type": "electric_scooter", "lon": -77.020715, "bike_id": "200c28b8d800c22e49c30e70e31a2274", "fusion_lat": 0.0, "name": "200c28b8d800c22e49c30e70e31a2274", "is_reserved": 0, "rental_uris": {"android": "https://dc.lft.to/lastmile_qr_scan", "ios": "https://dc.lft.to/lastmile_qr_scan"}, "fusion_lon": 0.0}, {"lat": 38.903500333333334, "is_disabled": 0, "type": "electric_scooter", "lon": -77.038552, "bike_id": "83ce9b281b09b6bfb7ab4eb26722ca67", "fusion_lat": 0.0, "name": "83ce9b281b09b6bfb7ab4eb26722ca67", "is_reserved": 0, "rental_uris": {"android": "https://dc.lft.to/lastmile_qr_scan", "ios": "https://dc.lft.to/lastmile_qr_scan"}, "fusion_lon": 0.0}, {"lat": 38.938417, "is_disabled": 0, "type": "electric_bike", "lon": -76.98863933333334, "bike_id": "7bb09cce71fa14e2374dbdb0e1e030f6", "fusion_lat": 0.0, "name": "7bb09cce71fa14e2374dbdb0e1e030f6", "is_reserved": 0, "rental_uris": {"android": "https://dc.lft.to/lastmile_qr_scan", "ios": "https://dc.lft.to/lastmile_qr_scan"}, "fusion_lon": 0.0}, {"lat": 38.917095333333336, "is_disabled": 0, "type": "electric_scooter", "lon": -77.03864433333334, "bike_id": "a645fd1954907b8bc52ddc85217076d8", "fusion_lat": 0.0, "name": "a645fd1954907b8bc52ddc85217076d8", "is_reserved": 0, "rental_uris": {"android": "https://dc.lft.to/lastmile_qr_scan", "ios": "https://dc.lft.to/lastmile_qr_scan"}, "fusion_lon": 0.0}, {"lat": 38.9171175, "is_disabled": 0, "type": "electric_scooter", "lon": -77.037281, "bike_id": "ee45edae33e936c8804ef73812235913", "fusion_lat": 0.0, "name": "ee45edae33e936c8804ef73812235913", "is_reserved": 0, "rental_uris": {"android": "https://dc.lft.to/lastmile_qr_scan", "ios": "https://dc.lft.to/lastmile_qr_scan"}, "fusion_lon": 0.0}, {"lat": 38.885091333333335, "is_disabled": 0, "type": "electric_scooter", "lon": -77.00680333333334, "bike_id": "d02c688e9321e184567ca4c5a930412b", "fusion_lat": 0.0, "name": "d02c688e9321e184567ca4c5a930412b", "is_reserved": 0, "rental_uris": {"android": "https://dc.lft.to/lastmile_qr_scan", "ios": "https://dc.lft.to/lastmile_qr_scan"}, "fusion_lon": 0.0}, {"lat": 38.948932666666664, "is_disabled": 0, "type": "electric_scooter", "lon": -77.03047716666667, "bike_id": "376560d74a8fc0d100366bb28b41e8f7", "fusion_lat": 0.0, "name": "376560d74a8fc0d100366bb28b41e8f7", "is_reserved": 0, "rental_uris": {"android": "https://dc.lft.to/lastmile_qr_scan", "ios": "https://dc.lft.to/lastmile_qr_scan"}, "fusion_lon": 0.0}, {"lat": 38.93317566666666, "is_disabled": 0, "type": "electric_scooter", "lon": -77.04523816666666, "bike_id": "94cbfb7c3f535be5fd5321d148a2c233", "fusion_lat": 0.0, "name": "94cbfb7c3f535be5fd5321d148a2c233", "is_reserved": 0, "rental_uris": {"android": "https://dc.lft.to/lastmile_qr_scan", "ios": "https://dc.lft.to/lastmile_qr_scan"}, "fusion_lon": 0.0}, {"lat": 38.972304666666666, "is_disabled": 0, "type": "electric_bike", "lon": -76.99342483333334, "bike_id": "e84d489dd7652ec2d536e49787fddf03", "fusion_lat": 0.0, "name": "e84d489dd7652ec2d536e49787fddf03", "is_reserved": 0, "rental_uris": {"android": "https://dc.lft.to/lastmile_qr_scan", "ios": "https://dc.lft.to/lastmile_qr_scan"}, "fusion_lon": 0.0}, {"lat": 38.9223885, "is_disabled": 0, "type": "electric_scooter", "lon": -77.0457865, "bike_id": "a5ab5d531f297808f682c68377fb4414", "fusion_lat": 0.0, "name": "a5ab5d531f297808f682c68377fb4414", "is_reserved": 0, "rental_uris": {"android": "https://dc.lft.to/lastmile_qr_scan", "ios": "https://dc.lft.to/lastmile_qr_scan"}, "fusion_lon": 0.0}, {"lat": 38.903109666666666, "is_disabled": 0, "type": "electric_scooter", "lon": -77.03754366666666, "bike_id": "fd69ca4b81d01bea9cd35e72570bb34e", "fusion_lat": 0.0, "name": "fd69ca4b81d01bea9cd35e72570bb34e", "is_reserved": 0, "rental_uris": {"android": "https://dc.lft.to/lastmile_qr_scan", "ios": "https://dc.lft.to/lastmile_qr_scan"}, "fusion_lon": 0.0}, {"lat": 38.9025715, "is_disabled": 0, "type": "electric_scooter", "lon": -77.01858966666667, "bike_id": "464396bf7fec86d6562e8e81f1ab3529", "fusion_lat": 0.0, "name": "464396bf7fec86d6562e8e81f1ab3529", "is_reserved": 0, "rental_uris": {"android": "https://dc.lft.to/lastmile_qr_scan", "ios": "https://dc.lft.to/lastmile_qr_scan"}, "fusion_lon": 0.0}, {"lat": 38.893490166666666, "is_disabled": 0, "type": "electric_scooter", "lon": -77.03989, "bike_id": "71fdc34c4430cf29d1c40dce15fdc5c5", "fusion_lat": 0.0, "name": "71fdc34c4430cf29d1c40dce15fdc5c5", "is_reserved": 0, "rental_uris": {"android": "https://dc.lft.to/lastmile_qr_scan", "ios": "https://dc.lft.to/lastmile_qr_scan"}, "fusion_lon": 0.0}, {"lat": 38.902344, "is_disabled": 0, "type": "electric_scooter", "lon": -77.02817916666666, "bike_id": "860c5f04856994dfb0f8c0ca33da0172", "fusion_lat": 0.0, "name": "860c5f04856994dfb0f8c0ca33da0172", "is_reserved": 0, "rental_uris": {"android": "https://dc.lft.to/lastmile_qr_scan", "ios": "https://dc.lft.to/lastmile_qr_scan"}, "fusion_lon": 0.0}, {"lat": 38.93198983333333, "is_disabled": 0, "type": "electric_scooter", "lon": -77.02355883333334, "bike_id": "a7d1def16633bf40488095105c367bf9", "fusion_lat": 0.0, "name": "a7d1def16633bf40488095105c367bf9", "is_reserved": 0, "rental_uris": {"android": "https://dc.lft.to/lastmile_qr_scan", "ios": "https://dc.lft.to/lastmile_qr_scan"}, "fusion_lon": 0.0}, {"lat": 38.886903833333335, "is_disabled": 0, "type": "electric_scooter", "lon": -77.0176665, "bike_id": "bf1e63b271c9c078b0ec69e59d3b5cf1", "fusion_lat": 0.0, "name": "bf1e63b271c9c078b0ec69e59d3b5cf1", "is_reserved": 0, "rental_uris": {"android": "https://dc.lft.to/lastmile_qr_scan", "ios": "https://dc.lft.to/lastmile_qr_scan"}, "fusion_lon": 0.0}, {"lat": 38.892223666666666, "is_disabled": 0, "type": "electric_bike", "lon": -77.107822, "bike_id": "90362a5397978495b1b24cb54a6935ad", "fusion_lat": 0.0, "name": "90362a5397978495b1b24cb54a6935ad", "is_reserved": 0, "rental_uris": {"android": "https://dc.lft.to/lastmile_qr_scan", "ios": "https://dc.lft.to/lastmile_qr_scan"}, "fusion_lon": 0.0}, {"lat": 38.89499416666666, "is_disabled": 0, "type": "electric_scooter", "lon": -77.00212933333333, "bike_id": "c8e808fe7c0a14692b9beec3a2aae03a", "fusion_lat": 0.0, "name": "c8e808fe7c0a14692b9beec3a2aae03a", "is_reserved": 0, "rental_uris": {"android": "https://dc.lft.to/lastmile_qr_scan", "ios": "https://dc.lft.to/lastmile_qr_scan"}, "fusion_lon": 0.0}, {"lat": 38.89840366666667, "is_disabled": 0, "type": "electric_scooter", "lon": -76.995004, "bike_id": "4f7710144891ffa9526ea038f21eab94", "fusion_lat": 0.0, "name": "4f7710144891ffa9526ea038f21eab94", "is_reserved": 0, "rental_uris": {"android": "https://dc.lft.to/lastmile_qr_scan", "ios": "https://dc.lft.to/lastmile_qr_scan"}, "fusion_lon": 0.0}, {"lat": 38.962224166666665, "is_disabled": 0, "type": "electric_bike", "lon": -77.026253, "bike_id": "9fbe3f517777218d2855bae780f9c3d0", "fusion_lat": 0.0, "name": "9fbe3f517777218d2855bae780f9c3d0", "is_reserved": 0, "rental_uris": {"android": "https://dc.lft.to/lastmile_qr_scan", "ios": "https://dc.lft.to/lastmile_qr_scan"}, "fusion_lon": 0.0}, {"lat": 38.9020675, "is_disabled": 0, "type": "electric_scooter", "lon": -77.02319883333334, "bike_id": "a8f9f927c5c45b3e979808add0319257", "fusion_lat": 0.0, "name": "a8f9f927c5c45b3e979808add0319257", "is_reserved": 0, "rental_uris": {"android": "https://dc.lft.to/lastmile_qr_scan", "ios": "https://dc.lft.to/lastmile_qr_scan"}, "fusion_lon": 0.0}, {"lat": 38.9224415, "is_disabled": 0, "type": "electric_scooter", "lon": -77.04345566666667, "bike_id": "19edc55c53118297e6abb3901945006e", "fusion_lat": 0.0, "name": "19edc55c53118297e6abb3901945006e", "is_reserved": 0, "rental_uris": {"android": "https://dc.lft.to/lastmile_qr_scan", "ios": "https://dc.lft.to/lastmile_qr_scan"}, "fusion_lon": 0.0}, {"lat": 38.90849083333333, "is_disabled": 0, "type": "electric_scooter", "lon": -77.003726, "bike_id": "709537a498f3fd2231d0db849a6ccaa5", "fusion_lat": 0.0, "name": "709537a498f3fd2231d0db849a6ccaa5", "is_reserved": 0, "rental_uris": {"android": "https://dc.lft.to/lastmile_qr_scan", "ios": "https://dc.lft.to/lastmile_qr_scan"}, "fusion_lon": 0.0}, {"lat": 38.903964333333334, "is_disabled": 0, "type": "electric_scooter", "lon": -76.9846565, "bike_id": "c89799e70d80dec6c37d52a43f59b20c", "fusion_lat": 0.0, "name": "c89799e70d80dec6c37d52a43f59b20c", "is_reserved": 0, "rental_uris": {"android": "https://dc.lft.to/lastmile_qr_scan", "ios": "https://dc.lft.to/lastmile_qr_scan"}, "fusion_lon": 0.0}, {"lat": 38.913372333333335, "is_disabled": 0, "type": "electric_scooter", "lon": -77.01269116666667, "bike_id": "291e1d12b381e3eb8c9d22c50578b378", "fusion_lat": 0.0, "name": "291e1d12b381e3eb8c9d22c50578b378", "is_reserved": 0, "rental_uris": {"android": "https://dc.lft.to/lastmile_qr_scan", "ios": "https://dc.lft.to/lastmile_qr_scan"}, "fusion_lon": 0.0}, {"lat": 38.882818, "is_disabled": 0, "type": "electric_bike", "lon": -76.98782216666666, "bike_id": "883c901a9d9e1ed479ffcee0435c2f55", "fusion_lat": 0.0, "name": "883c901a9d9e1ed479ffcee0435c2f55", "is_reserved": 0, "rental_uris": {"android": "https://dc.lft.to/lastmile_qr_scan", "ios": "https://dc.lft.to/lastmile_qr_scan"}, "fusion_lon": 0.0}, {"lat": 38.86344866666666, "is_disabled": 0, "type": "electric_scooter", "lon": -76.99004683333334, "bike_id": "cddd57f3a9b0142ef582eed29e79f716", "fusion_lat": 0.0, "name": "cddd57f3a9b0142ef582eed29e79f716", "is_reserved": 0, "rental_uris": {"android": "https://dc.lft.to/lastmile_qr_scan", "ios": "https://dc.lft.to/lastmile_qr_scan"}, "fusion_lon": 0.0}, {"lat": 38.848674, "is_disabled": 0, "type": "electric_scooter", "lon": -76.9769155, "bike_id": "3cd0e179423f81b91c0260962dad2d4f", "fusion_lat": 0.0, "name": "3cd0e179423f81b91c0260962dad2d4f", "is_reserved": 0, "rental_uris": {"android": "https://dc.lft.to/lastmile_qr_scan", "ios": "https://dc.lft.to/lastmile_qr_scan"}, "fusion_lon": 0.0}, {"lat": 38.95547166666667, "is_disabled": 0, "type": "electric_bike", "lon": -76.9352765, "bike_id": "44b6f77b5c3c0ac3be8dde02d114f87f", "fusion_lat": 0.0, "name": "44b6f77b5c3c0ac3be8dde02d114f87f", "is_reserved": 0, "rental_uris": {"android": "https://dc.lft.to/lastmile_qr_scan", "ios": "https://dc.lft.to/lastmile_qr_scan"}, "fusion_lon": 0.0}, {"lat": 38.912554666666665, "is_disabled": 0, "type": "electric_scooter", "lon": -77.0476955, "bike_id": "81ff06ecb64572e71ee71915dce8f10f", "fusion_lat": 0.0, "name": "81ff06ecb64572e71ee71915dce8f10f", "is_reserved": 0, "rental_uris": {"android": "https://dc.lft.to/lastmile_qr_scan", "ios": "https://dc.lft.to/lastmile_qr_scan"}, "fusion_lon": 0.0}, {"lat": 38.915529, "is_disabled": 0, "type": "electric_scooter", "lon": -77.0243055, "bike_id": "8e0f5b57dd28d66e9f5f1714f3d3aba2", "fusion_lat": 0.0, "name": "8e0f5b57dd28d66e9f5f1714f3d3aba2", "is_reserved": 0, "rental_uris": {"android": "https://dc.lft.to/lastmile_qr_scan", "ios": "https://dc.lft.to/lastmile_qr_scan"}, "fusion_lon": 0.0}, {"lat": 38.898792666666665, "is_disabled": 0, "type": "electric_scooter", "lon": -77.05338816666666, "bike_id": "6346229e3d22492fcc1a1b080e91b408", "fusion_lat": 0.0, "name": "6346229e3d22492fcc1a1b080e91b408", "is_reserved": 0, "rental_uris": {"android": "https://dc.lft.to/lastmile_qr_scan", "ios": "https://dc.lft.to/lastmile_qr_scan"}, "fusion_lon": 0.0}, {"lat": 38.899159833333336, "is_disabled": 0, "type": "electric_scooter", "lon": -76.93380166666667, "bike_id": "6259415d465edefef156ca0ce3d46acb", "fusion_lat": 0.0, "name": "6259415d465edefef156ca0ce3d46acb", "is_reserved": 0, "rental_uris": {"android": "https://dc.lft.to/lastmile_qr_scan", "ios": "https://dc.lft.to/lastmile_qr_scan"}, "fusion_lon": 0.0}, {"lat": 38.87073266666667, "is_disabled": 0, "type": "electric_bike", "lon": -76.97843166666667, "bike_id": "46c4bc9e125a3765132f5b3e2401faf8", "fusion_lat": 0.0, "name": "46c4bc9e125a3765132f5b3e2401faf8", "is_reserved": 0, "rental_uris": {"android": "https://dc.lft.to/lastmile_qr_scan", "ios": "https://dc.lft.to/lastmile_qr_scan"}, "fusion_lon": 0.0}, {"lat": 38.923550166666665, "is_disabled": 0, "type": "electric_scooter", "lon": -77.05427866666666, "bike_id": "3e151254c4dac7e4c328c29ce38a80f6", "fusion_lat": 0.0, "name": "3e151254c4dac7e4c328c29ce38a80f6", "is_reserved": 0, "rental_uris": {"android": "https://dc.lft.to/lastmile_qr_scan", "ios": "https://dc.lft.to/lastmile_qr_scan"}, "fusion_lon": 0.0}, {"lat": 38.915600166666664, "is_disabled": 0, "type": "electric_scooter", "lon": -77.01043933333334, "bike_id": "93b1d8e6fe47ec343c7642ab8a1f6205", "fusion_lat": 0.0, "name": "93b1d8e6fe47ec343c7642ab8a1f6205", "is_reserved": 0, "rental_uris": {"android": "https://dc.lft.to/lastmile_qr_scan", "ios": "https://dc.lft.to/lastmile_qr_scan"}, "fusion_lon": 0.0}, {"lat": 38.9329405, "is_disabled": 0, "type": "electric_scooter", "lon": -77.04532683333333, "bike_id": "595994e2ed6a3f3a75d712caee800d86", "fusion_lat": 0.0, "name": "595994e2ed6a3f3a75d712caee800d86", "is_reserved": 0, "rental_uris": {"android": "https://dc.lft.to/lastmile_qr_scan", "ios": "https://dc.lft.to/lastmile_qr_scan"}, "fusion_lon": 0.0}, {"lat": 38.827793666666665, "is_disabled": 0, "type": "electric_bike", "lon": -77.0091925, "bike_id": "f0ee9f9c259fcf1fa30610d6db22cae0", "fusion_lat": 0.0, "name": "f0ee9f9c259fcf1fa30610d6db22cae0", "is_reserved": 0, "rental_uris": {"android": "https://dc.lft.to/lastmile_qr_scan", "ios": "https://dc.lft.to/lastmile_qr_scan"}, "fusion_lon": 0.0}, {"lat": 38.90970733333333, "is_disabled": 0, "type": "electric_bike", "lon": -77.0881885, "bike_id": "5cf645f97775986a620bd83847248e47", "fusion_lat": 0.0, "name": "5cf645f97775986a620bd83847248e47", "is_reserved": 0, "rental_uris": {"android": "https://dc.lft.to/lastmile_qr_scan", "ios": "https://dc.lft.to/lastmile_qr_scan"}, "fusion_lon": 0.0}, {"lat": 38.91465083333333, "is_disabled": 0, "type": "electric_scooter", "lon": -77.01430733333333, "bike_id": "78f87d8001d7c6dc1fe5faff9ffa4e4d", "fusion_lat": 0.0, "name": "78f87d8001d7c6dc1fe5faff9ffa4e4d", "is_reserved": 0, "rental_uris": {"android": "https://dc.lft.to/lastmile_qr_scan", "ios": "https://dc.lft.to/lastmile_qr_scan"}, "fusion_lon": 0.0}, {"lat": 38.87729566666667, "is_disabled": 0, "type": "electric_scooter", "lon": -77.00301816666666, "bike_id": "d137910367e65649b8d9c2def3fcda77", "fusion_lat": 0.0, "name": "d137910367e65649b8d9c2def3fcda77", "is_reserved": 0, "rental_uris": {"android": "https://dc.lft.to/lastmile_qr_scan", "ios": "https://dc.lft.to/lastmile_qr_scan"}, "fusion_lon": 0.0}, {"lat": 38.9209705, "is_disabled": 0, "type": "electric_scooter", "lon": -77.031709, "bike_id": "bd90ff564f9cdd8a9530a0fd9a736a27", "fusion_lat": 0.0, "name": "bd90ff564f9cdd8a9530a0fd9a736a27", "is_reserved": 0, "rental_uris": {"android": "https://dc.lft.to/lastmile_qr_scan", "ios": "https://dc.lft.to/lastmile_qr_scan"}, "fusion_lon": 0.0}, {"lat": 38.88796933333333, "is_disabled": 0, "type": "electric_scooter", "lon": -76.93361983333334, "bike_id": "c41f0d86ac9d6570fef85981b99bb958", "fusion_lat": 0.0, "name": "c41f0d86ac9d6570fef85981b99bb958", "is_reserved": 0, "rental_uris": {"android": "https://dc.lft.to/lastmile_qr_scan", "ios": "https://dc.lft.to/lastmile_qr_scan"}, "fusion_lon": 0.0}, {"lat": 38.92472016666667, "is_disabled": 0, "type": "electric_scooter", "lon": -77.03480033333334, "bike_id": "86602851d2af27c7b5643cdf8c23daba", "fusion_lat": 0.0, "name": "86602851d2af27c7b5643cdf8c23daba", "is_reserved": 0, "rental_uris": {"android": "https://dc.lft.to/lastmile_qr_scan", "ios": "https://dc.lft.to/lastmile_qr_scan"}, "fusion_lon": 0.0}, {"lat": 38.9656625, "is_disabled": 0, "type": "electric_scooter", "lon": -77.0162945, "bike_id": "317f996779ec7f966f2996244c56960d", "fusion_lat": 0.0, "name": "317f996779ec7f966f2996244c56960d", "is_reserved": 0, "rental_uris": {"android": "https://dc.lft.to/lastmile_qr_scan", "ios": "https://dc.lft.to/lastmile_qr_scan"}, "fusion_lon": 0.0}, {"lat": 38.886390166666665, "is_disabled": 0, "type": "electric_scooter", "lon": -76.95486916666667, "bike_id": "62f0b72cbd70fc461af8b1bb079ce3db", "fusion_lat": 0.0, "name": "62f0b72cbd70fc461af8b1bb079ce3db", "is_reserved": 0, "rental_uris": {"android": "https://dc.lft.to/lastmile_qr_scan", "ios": "https://dc.lft.to/lastmile_qr_scan"}, "fusion_lon": 0.0}, {"lat": 38.94302033333334, "is_disabled": 0, "type": "electric_scooter", "lon": -77.06130216666666, "bike_id": "f5c610640092b01a3cfec40e4ade2788", "fusion_lat": 0.0, "name": "f5c610640092b01a3cfec40e4ade2788", "is_reserved": 0, "rental_uris": {"android": "https://dc.lft.to/lastmile_qr_scan", "ios": "https://dc.lft.to/lastmile_qr_scan"}, "fusion_lon": 0.0}, {"lat": 38.902679166666665, "is_disabled": 0, "type": "electric_scooter", "lon": -77.033834, "bike_id": "0d90b9f4acbca5793f951bc3e0d29b2a", "fusion_lat": 0.0, "name": "0d90b9f4acbca5793f951bc3e0d29b2a", "is_reserved": 0, "rental_uris": {"android": "https://dc.lft.to/lastmile_qr_scan", "ios": "https://dc.lft.to/lastmile_qr_scan"}, "fusion_lon": 0.0}, {"lat": 38.91572933333333, "is_disabled": 0, "type": "electric_scooter", "lon": -77.05026933333333, "bike_id": "6842e5bc4109c3e5228e13d836fc1736", "fusion_lat": 0.0, "name": "6842e5bc4109c3e5228e13d836fc1736", "is_reserved": 0, "rental_uris": {"android": "https://dc.lft.to/lastmile_qr_scan", "ios": "https://dc.lft.to/lastmile_qr_scan"}, "fusion_lon": 0.0}, {"lat": 38.9269965, "is_disabled": 0, "type": "electric_scooter", "lon": -77.01509916666667, "bike_id": "c3f0ffb7d17b329940f08bc9d682517f", "fusion_lat": 0.0, "name": "c3f0ffb7d17b329940f08bc9d682517f", "is_reserved": 0, "rental_uris": {"android": "https://dc.lft.to/lastmile_qr_scan", "ios": "https://dc.lft.to/lastmile_qr_scan"}, "fusion_lon": 0.0}, {"lat": 38.894875, "is_disabled": 0, "type": "electric_scooter", "lon": -77.00249033333333, "bike_id": "541fd072f941a004389d7af69d200b38", "fusion_lat": 0.0, "name": "541fd072f941a004389d7af69d200b38", "is_reserved": 0, "rental_uris": {"android": "https://dc.lft.to/lastmile_qr_scan", "ios": "https://dc.lft.to/lastmile_qr_scan"}, "fusion_lon": 0.0}, {"lat": 38.89650266666666, "is_disabled": 0, "type": "electric_scooter", "lon": -77.04661133333333, "bike_id": "daa5969761722d061c3a1ca0333a3f33", "fusion_lat": 0.0, "name": "daa5969761722d061c3a1ca0333a3f33", "is_reserved": 0, "rental_uris": {"android": "https://dc.lft.to/lastmile_qr_scan", "ios": "https://dc.lft.to/lastmile_qr_scan"}, "fusion_lon": 0.0}, {"lat": 38.8935035, "is_disabled": 0, "type": "electric_scooter", "lon": -76.9847155, "bike_id": "cc5303e506b45d2d45e404b69c1726d7", "fusion_lat": 0.0, "name": "cc5303e506b45d2d45e404b69c1726d7", "is_reserved": 0, "rental_uris": {"android": "https://dc.lft.to/lastmile_qr_scan", "ios": "https://dc.lft.to/lastmile_qr_scan"}, "fusion_lon": 0.0}, {"lat": 38.910564666666666, "is_disabled": 0, "type": "electric_scooter", "lon": -77.04570416666667, "bike_id": "925565f71c11216632403c44e0370708", "fusion_lat": 0.0, "name": "925565f71c11216632403c44e0370708", "is_reserved": 0, "rental_uris": {"android": "https://dc.lft.to/lastmile_qr_scan", "ios": "https://dc.lft.to/lastmile_qr_scan"}, "fusion_lon": 0.0}, {"lat": 38.90650333333333, "is_disabled": 0, "type": "electric_scooter", "lon": -77.03871066666666, "bike_id": "471273c9ec8b879cb0669efed29d0cd7", "fusion_lat": 0.0, "name": "471273c9ec8b879cb0669efed29d0cd7", "is_reserved": 0, "rental_uris": {"android": "https://dc.lft.to/lastmile_qr_scan", "ios": "https://dc.lft.to/lastmile_qr_scan"}, "fusion_lon": 0.0}, {"lat": 38.89509666666667, "is_disabled": 0, "type": "electric_scooter", "lon": -77.01605583333334, "bike_id": "69fc677ac875bcbc89c956ea5be4a1ba", "fusion_lat": 0.0, "name": "69fc677ac875bcbc89c956ea5be4a1ba", "is_reserved": 0, "rental_uris": {"android": "https://dc.lft.to/lastmile_qr_scan", "ios": "https://dc.lft.to/lastmile_qr_scan"}, "fusion_lon": 0.0}, {"lat": 38.913622, "is_disabled": 0, "type": "electric_scooter", "lon": -77.04653216666667, "bike_id": "014aa8321fd0d0eca9f3c3d8ef727a65", "fusion_lat": 0.0, "name": "014aa8321fd0d0eca9f3c3d8ef727a65", "is_reserved": 0, "rental_uris": {"android": "https://dc.lft.to/lastmile_qr_scan", "ios": "https://dc.lft.to/lastmile_qr_scan"}, "fusion_lon": 0.0}, {"lat": 38.92114266666667, "is_disabled": 0, "type": "electric_scooter", "lon": -77.04177816666666, "bike_id": "a523d6dd80920cd8f648a3902e6413a4", "fusion_lat": 0.0, "name": "a523d6dd80920cd8f648a3902e6413a4", "is_reserved": 0, "rental_uris": {"android": "https://dc.lft.to/lastmile_qr_scan", "ios": "https://dc.lft.to/lastmile_qr_scan"}, "fusion_lon": 0.0}, {"lat": 38.921726166666666, "is_disabled": 0, "type": "electric_scooter", "lon": -77.04018666666667, "bike_id": "5dd4692be3575e58ee22f51bf468e4da", "fusion_lat": 0.0, "name": "5dd4692be3575e58ee22f51bf468e4da", "is_reserved": 0, "rental_uris": {"android": "https://dc.lft.to/lastmile_qr_scan", "ios": "https://dc.lft.to/lastmile_qr_scan"}, "fusion_lon": 0.0}, {"lat": 38.90483533333333, "is_disabled": 0, "type": "electric_scooter", "lon": -76.97326083333333, "bike_id": "96e09f21720eb7b9c224257e86bd0b1a", "fusion_lat": 0.0, "name": "96e09f21720eb7b9c224257e86bd0b1a", "is_reserved": 0, "rental_uris": {"android": "https://dc.lft.to/lastmile_qr_scan", "ios": "https://dc.lft.to/lastmile_qr_scan"}, "fusion_lon": 0.0}, {"lat": 38.9170515, "is_disabled": 0, "type": "electric_scooter", "lon": -77.032232, "bike_id": "0518b50278f841015de0f8b5301e54dd", "fusion_lat": 0.0, "name": "0518b50278f841015de0f8b5301e54dd", "is_reserved": 0, "rental_uris": {"android": "https://dc.lft.to/lastmile_qr_scan", "ios": "https://dc.lft.to/lastmile_qr_scan"}, "fusion_lon": 0.0}, {"lat": 38.92760916666667, "is_disabled": 0, "type": "electric_bike", "lon": -77.068842, "bike_id": "1d92ad8f6d3103fdf5cace99ba43a58f", "fusion_lat": 0.0, "name": "1d92ad8f6d3103fdf5cace99ba43a58f", "is_reserved": 0, "rental_uris": {"android": "https://dc.lft.to/lastmile_qr_scan", "ios": "https://dc.lft.to/lastmile_qr_scan"}, "fusion_lon": 0.0}, {"lat": 38.89224266666667, "is_disabled": 0, "type": "electric_scooter", "lon": -76.93297966666667, "bike_id": "601abdf5fb3ac1220182bdd6cb3dcff8", "fusion_lat": 0.0, "name": "601abdf5fb3ac1220182bdd6cb3dcff8", "is_reserved": 0, "rental_uris": {"android": "https://dc.lft.to/lastmile_qr_scan", "ios": "https://dc.lft.to/lastmile_qr_scan"}, "fusion_lon": 0.0}, {"lat": 38.94509083333333, "is_disabled": 0, "type": "electric_scooter", "lon": -77.02173883333333, "bike_id": "42e5ff45404b281a994134e3d5e3a4fe", "fusion_lat": 0.0, "name": "42e5ff45404b281a994134e3d5e3a4fe", "is_reserved": 0, "rental_uris": {"android": "https://dc.lft.to/lastmile_qr_scan", "ios": "https://dc.lft.to/lastmile_qr_scan"}, "fusion_lon": 0.0}, {"lat": 38.910396666666664, "is_disabled": 0, "type": "electric_scooter", "lon": -77.03842183333333, "bike_id": "b0bae313e9b243bcfd871b175e8f4c83", "fusion_lat": 0.0, "name": "b0bae313e9b243bcfd871b175e8f4c83", "is_reserved": 0, "rental_uris": {"android": "https://dc.lft.to/lastmile_qr_scan", "ios": "https://dc.lft.to/lastmile_qr_scan"}, "fusion_lon": 0.0}, {"lat": 38.932210833333336, "is_disabled": 0, "type": "electric_scooter", "lon": -77.02730733333334, "bike_id": "788449155acdd8a92045157023545ed8", "fusion_lat": 0.0, "name": "788449155acdd8a92045157023545ed8", "is_reserved": 0, "rental_uris": {"android": "https://dc.lft.to/lastmile_qr_scan", "ios": "https://dc.lft.to/lastmile_qr_scan"}, "fusion_lon": 0.0}, {"lat": 38.896223166666665, "is_disabled": 0, "type": "electric_scooter", "lon": -77.0447725, "bike_id": "5539072c3fcfb09d6c7b403ad5ccd68f", "fusion_lat": 0.0, "name": "5539072c3fcfb09d6c7b403ad5ccd68f", "is_reserved": 0, "rental_uris": {"android": "https://dc.lft.to/lastmile_qr_scan", "ios": "https://dc.lft.to/lastmile_qr_scan"}, "fusion_lon": 0.0}, {"lat": 38.865072166666664, "is_disabled": 0, "type": "electric_scooter", "lon": -76.99004766666667, "bike_id": "0cc2f4926ea8446a684e79864f9a3f93", "fusion_lat": 0.0, "name": "0cc2f4926ea8446a684e79864f9a3f93", "is_reserved": 0, "rental_uris": {"android": "https://dc.lft.to/lastmile_qr_scan", "ios": "https://dc.lft.to/lastmile_qr_scan"}, "fusion_lon": 0.0}, {"lat": 38.90860133333334, "is_disabled": 0, "type": "electric_scooter", "lon": -77.02930083333334, "bike_id": "c60dbe4a2dc5ef23d58d95a767ce7779", "fusion_lat": 0.0, "name": "c60dbe4a2dc5ef23d58d95a767ce7779", "is_reserved": 0, "rental_uris": {"android": "https://dc.lft.to/lastmile_qr_scan", "ios": "https://dc.lft.to/lastmile_qr_scan"}, "fusion_lon": 0.0}, {"lat": 38.928668333333334, "is_disabled": 0, "type": "electric_scooter", "lon": -77.03417016666667, "bike_id": "74fa456cd9c2a3cfcea5e57827c187d4", "fusion_lat": 0.0, "name": "74fa456cd9c2a3cfcea5e57827c187d4", "is_reserved": 0, "rental_uris": {"android": "https://dc.lft.to/lastmile_qr_scan", "ios": "https://dc.lft.to/lastmile_qr_scan"}, "fusion_lon": 0.0}, {"lat": 38.899747166666664, "is_disabled": 0, "type": "electric_scooter", "lon": -77.01905233333333, "bike_id": "dc2eef3892ec51ab89a16b37e400f9ce", "fusion_lat": 0.0, "name": "dc2eef3892ec51ab89a16b37e400f9ce", "is_reserved": 0, "rental_uris": {"android": "https://dc.lft.to/lastmile_qr_scan", "ios": "https://dc.lft.to/lastmile_qr_scan"}, "fusion_lon": 0.0}, {"lat": 38.914271166666666, "is_disabled": 0, "type": "electric_scooter", "lon": -77.032022, "bike_id": "7d6a0ee3398c8eea44a623fa0835d698", "fusion_lat": 0.0, "name": "7d6a0ee3398c8eea44a623fa0835d698", "is_reserved": 0, "rental_uris": {"android": "https://dc.lft.to/lastmile_qr_scan", "ios": "https://dc.lft.to/lastmile_qr_scan"}, "fusion_lon": 0.0}, {"lat": 38.90095683333333, "is_disabled": 0, "type": "electric_scooter", "lon": -77.05602766666667, "bike_id": "949bc3811733cbddcbb26e9ca64fd1e8", "fusion_lat": 0.0, "name": "949bc3811733cbddcbb26e9ca64fd1e8", "is_reserved": 0, "rental_uris": {"android": "https://dc.lft.to/lastmile_qr_scan", "ios": "https://dc.lft.to/lastmile_qr_scan"}, "fusion_lon": 0.0}, {"lat": 38.90021466666666, "is_disabled": 0, "type": "electric_scooter", "lon": -77.03332633333333, "bike_id": "85fb4ba03f30a4e91ea01ca97bf9e4b4", "fusion_lat": 0.0, "name": "85fb4ba03f30a4e91ea01ca97bf9e4b4", "is_reserved": 0, "rental_uris": {"android": "https://dc.lft.to/lastmile_qr_scan", "ios": "https://dc.lft.to/lastmile_qr_scan"}, "fusion_lon": 0.0}, {"lat": 38.8897215, "is_disabled": 0, "type": "electric_scooter", "lon": -76.937426, "bike_id": "23729e3c3fd0fd8632fae1ca668dd73b", "fusion_lat": 0.0, "name": "23729e3c3fd0fd8632fae1ca668dd73b", "is_reserved": 0, "rental_uris": {"android": "https://dc.lft.to/lastmile_qr_scan", "ios": "https://dc.lft.to/lastmile_qr_scan"}, "fusion_lon": 0.0}, {"lat": 38.8006, "is_disabled": 0, "type": "electric_bike", "lon": -77.07123533333333, "bike_id": "f54a3aa35109b3c3a6205b7e0f973684", "fusion_lat": 0.0, "name": "f54a3aa35109b3c3a6205b7e0f973684", "is_reserved": 0, "rental_uris": {"android": "https://dc.lft.to/lastmile_qr_scan", "ios": "https://dc.lft.to/lastmile_qr_scan"}, "fusion_lon": 0.0}, {"lat": 38.88496583333333, "is_disabled": 0, "type": "electric_scooter", "lon": -77.007094, "bike_id": "25bdf9f251ab7f4ab9c11ae08cb97858", "fusion_lat": 0.0, "name": "25bdf9f251ab7f4ab9c11ae08cb97858", "is_reserved": 0, "rental_uris": {"android": "https://dc.lft.to/lastmile_qr_scan", "ios": "https://dc.lft.to/lastmile_qr_scan"}, "fusion_lon": 0.0}, {"lat": 38.866558833333336, "is_disabled": 0, "type": "electric_scooter", "lon": -76.98881616666667, "bike_id": "3b6dbb9a72530eb58f6e80e991ae84a2", "fusion_lat": 0.0, "name": "3b6dbb9a72530eb58f6e80e991ae84a2", "is_reserved": 0, "rental_uris": {"android": "https://dc.lft.to/lastmile_qr_scan", "ios": "https://dc.lft.to/lastmile_qr_scan"}, "fusion_lon": 0.0}, {"lat": 38.91419833333333, "is_disabled": 0, "type": "electric_scooter", "lon": -77.0220425, "bike_id": "64b666c9ab29f6e871a59422f1515d22", "fusion_lat": 0.0, "name": "64b666c9ab29f6e871a59422f1515d22", "is_reserved": 0, "rental_uris": {"android": "https://dc.lft.to/lastmile_qr_scan", "ios": "https://dc.lft.to/lastmile_qr_scan"}, "fusion_lon": 0.0}, {"lat": 38.93496016666667, "is_disabled": 0, "type": "electric_bike", "lon": -76.98650866666667, "bike_id": "cb4a2574967f84646b8c54088949b85c", "fusion_lat": 0.0, "name": "cb4a2574967f84646b8c54088949b85c", "is_reserved": 0, "rental_uris": {"android": "https://dc.lft.to/lastmile_qr_scan", "ios": "https://dc.lft.to/lastmile_qr_scan"}, "fusion_lon": 0.0}, {"lat": 38.919138333333336, "is_disabled": 0, "type": "electric_scooter", "lon": -77.04177983333334, "bike_id": "be9ce28f1e2cd23b1349cc4db5e75b1d", "fusion_lat": 0.0, "name": "be9ce28f1e2cd23b1349cc4db5e75b1d", "is_reserved": 0, "rental_uris": {"android": "https://dc.lft.to/lastmile_qr_scan", "ios": "https://dc.lft.to/lastmile_qr_scan"}, "fusion_lon": 0.0}, {"lat": 38.886917833333335, "is_disabled": 0, "type": "electric_scooter", "lon": -77.01296833333333, "bike_id": "d914f522b93464f6c79bab40e7b9ae54", "fusion_lat": 0.0, "name": "d914f522b93464f6c79bab40e7b9ae54", "is_reserved": 0, "rental_uris": {"android": "https://dc.lft.to/lastmile_qr_scan", "ios": "https://dc.lft.to/lastmile_qr_scan"}, "fusion_lon": 0.0}, {"lat": 38.857278666666666, "is_disabled": 0, "type": "electric_scooter", "lon": -76.99435, "bike_id": "11250294db06c0e1537c2c4d037490c2", "fusion_lat": 0.0, "name": "11250294db06c0e1537c2c4d037490c2", "is_reserved": 0, "rental_uris": {"android": "https://dc.lft.to/lastmile_qr_scan", "ios": "https://dc.lft.to/lastmile_qr_scan"}, "fusion_lon": 0.0}, {"lat": 38.9199615, "is_disabled": 0, "type": "electric_scooter", "lon": -77.02383133333333, "bike_id": "78ff8e8e927108a216cb57cef876aafe", "fusion_lat": 0.0, "name": "78ff8e8e927108a216cb57cef876aafe", "is_reserved": 0, "rental_uris": {"android": "https://dc.lft.to/lastmile_qr_scan", "ios": "https://dc.lft.to/lastmile_qr_scan"}, "fusion_lon": 0.0}, {"lat": 38.90185616666667, "is_disabled": 0, "type": "electric_scooter", "lon": -77.0217075, "bike_id": "b5d0cb364359888573574072ebdf5e5f", "fusion_lat": 0.0, "name": "b5d0cb364359888573574072ebdf5e5f", "is_reserved": 0, "rental_uris": {"android": "https://dc.lft.to/lastmile_qr_scan", "ios": "https://dc.lft.to/lastmile_qr_scan"}, "fusion_lon": 0.0}, {"lat": 38.944395666666665, "is_disabled": 0, "type": "electric_scooter", "lon": -77.023453, "bike_id": "e51fe28766d9ef92c905a4d9e3d9ca79", "fusion_lat": 0.0, "name": "e51fe28766d9ef92c905a4d9e3d9ca79", "is_reserved": 0, "rental_uris": {"android": "https://dc.lft.to/lastmile_qr_scan", "ios": "https://dc.lft.to/lastmile_qr_scan"}, "fusion_lon": 0.0},