{"data": {"bikes": [{"name": "d1c8960385312cbd053e2f0a57ae1045", "is_reserved": 0, "is_disabled": 0, "lon": -77.059372, "rental_uris": {"android": "https://dc.lft.to/lastmile_qr_scan", "ios": "https://dc.lft.to/lastmile_qr_scan"}, "fusion_lon": 0.0, "lat": 38.929021666666664, "type": "electric_scooter", "fusion_lat": 0.0, "bike_id": "d1c8960385312cbd053e2f0a57ae1045"}, {"name": "d55f40d1a1441e04638c9c2711d7b100", "is_reserved": 0, "is_disabled": 0, "lon": -77.02487283333333, "rental_uris": {"android": "https://dc.lft.to/lastmile_qr_scan", "ios": "https://dc.lft.to/lastmile_qr_scan"}, "fusion_lon": 0.0, "lat": 38.941863166666664, "type": "electric_scooter", "fusion_lat": 0.0, "bike_id": "d55f40d1a1441e04638c9c2711d7b100"}, {"name": "b4e0844ae99da159ffbc89ab3ec902d9", "is_reserved": 0, "is_disabled": 0, "lon": -77.003121, "rental_uris": {"android": "https://dc.lft.to/lastmile_qr_scan", "ios": "https://dc.lft.to/lastmile_qr_scan"}, "fusion_lon": 0.0, "lat": 38.90894266666667, "type": "electric_scooter", "fusion_lat": 0.0, "bike_id": "b4e0844ae99da159ffbc89ab3ec902d9"}, {"name": "5fb659eab8ccd94f736ce0878af7a5ed", "is_reserved": 0, "is_disabled": 0, "lon": -77.04523183333333, "rental_uris": {"android": "https://dc.lft.to/lastmile_qr_scan", "ios": "https://dc.lft.to/lastmile_qr_scan"}, "fusion_lon": 0.0, "lat": 38.90733083333333, "type": "electric_scooter", "fusion_lat": 0.0, "bike_id": "5fb659eab8ccd94f736ce0878af7a5ed"}, {"name": "cb00b0db79641a4d10a16c4bb311da76", "is_reserved": 0, "is_disabled": 0, "lon": -77.04675916666666, "rental_uris": {"android": "https://dc.lft.to/lastmile_qr_scan", "ios": "https://dc.lft.to/lastmile_qr_scan"}, "fusion_lon": 0.0, "lat": 38.90379716666666, "type": "electric_scooter", "fusion_lat": 0.0, "bike_id": "cb00b0db79641a4d10a16c4bb311da76"}, {"name": "7363173c5827ce99f0f26342f9f7e0ac", "is_reserved": 0, "is_disabled": 0, "lon": -77.02638516666667, "rental_uris": {"android": "https://dc.lft.to/lastmile_qr_scan", "ios": "https://dc.lft.to/lastmile_qr_scan"}, "fusion_lon": 0.0, "lat": 38.88115883333333, "type": "electric_scooter", "fusion_lat": 0.0, "bike_id": "7363173c5827ce99f0f26342f9f7e0ac"}, {"name": "43da08d13f920ff90a81450955812035", "is_reserved": 0, "is_disabled": 0, "lon": -77.046327, "rental_uris": {"android": "https://dc.lft.to/lastmile_qr_scan", "ios": "https://dc.lft.to/lastmile_qr_scan"}, "fusion_lon": 0.0, "lat": 38.897372, "type": "electric_scooter", "fusion_lat": 0.0, "bike_id": "43da08d13f920ff90a81450955812035"}, {"name": "af9165f9b86617da5a76327c211a3a15", "is_reserved": 0, "is_disabled": 0, "lon": -77.064929, "rental_uris": {"android": "https://dc.lft.to/lastmile_qr_scan", "ios": "https://dc.lft.to/lastmile_qr_scan"}, "fusion_lon": 0.0, "lat": 38.90511933333333, "type": "electric_scooter", "fusion_lat": 0.0, "bike_id": "af9165f9b86617da5a76327c211a3a15"}, {"name": "db1ecd71f55839f1a204f0d5576ccafe", "is_reserved": 0, "is_disabled": 0, "lon": -76.94641516666667, "rental_uris": {"android": "https://dc.lft.to/lastmile_qr_scan", "ios": "https://dc.lft.to/lastmile_qr_scan"}, "fusion_lon": 0.0, "lat": 38.8984875, "type": "electric_scooter", "fusion_lat": 0.0, "bike_id": "db1ecd71f55839f1a204f0d5576ccafe"}, {"name": "f92b64f8a321eb319fde7d1166ab7001", "is_reserved": 0, "is_disabled": 0, "lon": -77.02921416666666, "rental_uris": {"android": "https://dc.lft.to/lastmile_qr_scan", "ios": "https://dc.lft.to/lastmile_qr_scan"}, "fusion_lon": 0.0, "lat": 38.916922666666665, "type": "electric_scooter", "fusion_lat": 0.0, "bike_id": "f92b64f8a321eb319fde7d1166ab7001"}, {"name": "e97b395a525c41a7048988fe14625170", "is_reserved": 0, "is_disabled": 0, "lon": -77.02288816666666, "rental_uris": {"android": "https://dc.lft.to/lastmile_qr_scan", "ios": "https://dc.lft.to/lastmile_qr_scan"}, "fusion_lon": 0.0, "lat": 38.901514, "type": "electric_scooter", "fusion_lat": 0.0, "bike_id": "e97b395a525c41a7048988fe14625170"}, {"name": "92a1469f0960862916dfd08c4fb4b63b", "is_reserved": 0, "is_disabled": 0, "lon": -77.0056, "rental_uris": {"android": "https://dc.lft.to/lastmile_qr_scan", "ios": "https://dc.lft.to/lastmile_qr_scan"}, "fusion_lon": 0.0, "lat": 38.874726333333335, "type": "electric_scooter", "fusion_lat": 0.0, "bike_id": "92a1469f0960862916dfd08c4fb4b63b"}, {"name": "b46b9787797060bd718b7f16c5782f68", "is_reserved": 0, "is_disabled": 0, "lon": -77.02602916666666, "rental_uris": {"android": "https://dc.lft.to/lastmile_qr_scan", "ios": "https://dc.lft.to/lastmile_qr_scan"}, "fusion_lon": 0.0, "lat": 38.9142635, "type": "electric_scooter", "fusion_lat": 0.0, "bike_id": "b46b9787797060bd718b7f16c5782f68"}, {"name": "4a1b1a8bf098d7fb761a1985b69b6ba9", "is_reserved": 0, "is_disabled": 0, "lon": -77.02706233333333, "rental_uris": {"android": "https://dc.lft.to/lastmile_qr_scan", "ios": "https://dc.lft.to/lastmile_qr_scan"}, "fusion_lon": 0.0, "lat": 38.90667783333333, "type": "electric_scooter", "fusion_lat": 0.0, "bike_id": "4a1b1a8bf098d7fb761a1985b69b6ba9"}, {"name": "e907f2dc1c5a65a09cc5ea246d66872e", "is_reserved": 0, "is_disabled": 0, "lon": -76.96926583333334, "rental_uris": {"android": "https://dc.lft.to/lastmile_qr_scan", "ios": "https://dc.lft.to/lastmile_qr_scan"}, "fusion_lon": 0.0, "lat": 38.930304666666665, "type": "electric_scooter", "fusion_lat": 0.0, "bike_id": "e907f2dc1c5a65a09cc5ea246d66872e"}, {"name": "a135f3cfc407bd26a67c67f06b219097", "is_reserved": 0, "is_disabled": 0, "lon": -76.994459, "rental_uris": {"android": "https://dc.lft.to/lastmile_qr_scan", "ios": "https://dc.lft.to/lastmile_qr_scan"}, "fusion_lon": 0.0, "lat": 38.90506533333333, "type": "electric_scooter", "fusion_lat": 0.0, "bike_id": "a135f3cfc407bd26a67c67f06b219097"}, {"name": "6f844150ce18c40d90c28b288eec8ea1", "is_reserved": 0, "is_disabled": 0, "lon": -76.95517583333333, "rental_uris": {"android": "https://dc.lft.to/lastmile_qr_scan", "ios": "https://dc.lft.to/lastmile_qr_scan"}, "fusion_lon": 0.0, "lat": 38.890563, "type": "electric_scooter", "fusion_lat": 0.0, "bike_id": "6f844150ce18c40d90c28b288eec8ea1"}, {"name": "6299b5d5f30537769ba6c9efa050a89d", "is_reserved": 0, "is_disabled": 0, "lon": -77.032057, "rental_uris": {"android": "https://dc.lft.to/lastmile_qr_scan", "ios": "https://dc.lft.to/lastmile_qr_scan"}, "fusion_lon": 0.0, "lat": 38.90792483333333, "type": "electric_scooter", "fusion_lat": 0.0, "bike_id": "6299b5d5f30537769ba6c9efa050a89d"}, {"name": "0375baed5856673d3e0c2525ba311994", "is_reserved": 0, "is_disabled": 0, "lon": -76.92920383333333, "rental_uris": {"android": "https://dc.lft.to/lastmile_qr_scan", "ios": "https://dc.lft.to/lastmile_qr_scan"}, "fusion_lon": 0.0, "lat": 38.980259833333335, "type": "electric_bike", "fusion_lat": 0.0, "bike_id": "0375baed5856673d3e0c2525ba311994"}, {"name": "a9e846c01b28c3f5934ea4fe84858e63", "is_reserved": 0, "is_disabled": 0, "lon": -76.92778, "rental_uris": {"android": "https://dc.lft.to/lastmile_qr_scan", "ios": "https://dc.lft.to/lastmile_qr_scan"}, "fusion_lon": 0.0, "lat": 38.90272016666667, "type": "electric_scooter", "fusion_lat": 0.0, "bike_id": "a9e846c01b28c3f5934ea4fe84858e63"}, {"name": "690f9f2d03aa8298d1d8433cd7b985e8", "is_reserved": 0, "is_disabled": 0, "lon": -77.01953483333334, "rental_uris": {"android": "https://dc.lft.to/lastmile_qr_scan", "ios": "https://dc.lft.to/lastmile_qr_scan"}, "fusion_lon": 0.0, "lat": 38.92253733333333, "type": "electric_scooter", "fusion_lat": 0.0, "bike_id": "690f9f2d03aa8298d1d8433cd7b985e8"}, {"name": "8677d0e209cdc7e291b0ab117a584b6a", "is_reserved": 0, "is_disabled": 0, "lon": -77.0481505, "rental_uris": {"android": "https://dc.lft.to/lastmile_qr_scan", "ios": "https://dc.lft.to/lastmile_qr_scan"}, "fusion_lon": 0.0, "lat": 38.90516266666667, "type": "electric_scooter", "fusion_lat": 0.0, "bike_id": "8677d0e209cdc7e291b0ab117a584b6a"}, {"name": "506d51eae116acf978ef91c1d47c94e0", "is_reserved": 0, "is_disabled": 0, "lon": -77.0269665, "rental_uris": {"android": "https://dc.lft.to/lastmile_qr_scan", "ios": "https://dc.lft.to/lastmile_qr_scan"}, "fusion_lon": 0.0, "lat": 38.9084535, "type": "electric_scooter", "fusion_lat": 0.0, "bike_id": "506d51eae116acf978ef91c1d47c94e0"}, {"name": "cf3dc8da0bc87d723f7962ae358f2df6", "is_reserved": 0, "is_disabled": 0, "lon": -76.99015416666667, "rental_uris": {"android": "https://dc.lft.to/lastmile_qr_scan", "ios": "https://dc.lft.to/lastmile_qr_scan"}, "fusion_lon": 0.0, "lat": 38.861126, "type": "electric_scooter", "fusion_lat": 0.0, "bike_id": "cf3dc8da0bc87d723f7962ae358f2df6"}, {"name": "44ba0aece5752f1d8cda0caa364c8302", "is_reserved": 0, "is_disabled": 0, "lon": -76.9671695, "rental_uris": {"android": "https://dc.lft.to/lastmile_qr_scan", "ios": "https://dc.lft.to/lastmile_qr_scan"}, "fusion_lon": 0.0, "lat": 38.86951233333333, "type": "electric_scooter", "fusion_lat": 0.0, "bike_id": "44ba0aece5752f1d8cda0caa364c8302"}, {"name": "6bf14720728d61070531ba7f06d16144", "is_reserved": 0, "is_disabled": 0, "lon": -77.0628915, "rental_uris": {"android": "https://dc.lft.to/lastmile_qr_scan", "ios": "https://dc.lft.to/lastmile_qr_scan"}, "fusion_lon": 0.0, "lat": 38.904604, "type": "electric_scooter", "fusion_lat": 0.0, "bike_id": "6bf14720728d61070531ba7f06d16144"}, {"name": "dc2308e75c1d219ba7569554539ed022", "is_reserved": 0, "is_disabled": 0, "lon": -76.957544, "rental_uris": {"android": "https://dc.lft.to/lastmile_qr_scan", "ios": "https://dc.lft.to/lastmile_qr_scan"}, "fusion_lon": 0.0, "lat": 38.884403166666665, "type": "electric_scooter", "fusion_lat": 0.0, "bike_id": "dc2308e75c1d219ba7569554539ed022"}, {"name": "39ebd3669bca723a231aa78d00cae55d", "is_reserved": 0, "is_disabled": 0, "lon": -77.0249235, "rental_uris": {"android": "https://dc.lft.to/lastmile_qr_scan", "ios": "https://dc.lft.to/lastmile_qr_scan"}, "fusion_lon": 0.0, "lat": 38.9736875, "type": "electric_bike", "fusion_lat": 0.0, "bike_id": "39ebd3669bca723a231aa78d00cae55d"}, {"name": "c434d66bb9db1529dfec6c9b16d9bfb7", "is_reserved": 0, "is_disabled": 0, "lon": -76.99631166666667, "rental_uris": {"android": "https://dc.lft.to/lastmile_qr_scan", "ios": "https://dc.lft.to/lastmile_qr_scan"}, "fusion_lon": 0.0, "lat": 38.84621933333333, "type": "electric_scooter", "fusion_lat": 0.0, "bike_id": "c434d66bb9db1529dfec6c9b16d9bfb7"}, {"name": "38c8271d0e557ca48183b642a82c9a02", "is_reserved": 0, "is_disabled": 0, "lon": -77.0709855, "rental_uris": {"android": "https://dc.lft.to/lastmile_qr_scan", "ios": "https://dc.lft.to/lastmile_qr_scan"}, "fusion_lon": 0.0, "lat": 38.9198735, "type": "electric_scooter", "fusion_lat": 0.0, "bike_id": "38c8271d0e557ca48183b642a82c9a02"}, {"name": "61c547164b85dd16562f38cbfa0030a4", "is_reserved": 0, "is_disabled": 0, "lon": -77.06254733333333, "rental_uris": {"android": "https://dc.lft.to/lastmile_qr_scan", "ios": "https://dc.lft.to/lastmile_qr_scan"}, "fusion_lon": 0.0, "lat": 38.913197333333336, "type": "electric_scooter", "fusion_lat": 0.0, "bike_id": "61c547164b85dd16562f38cbfa0030a4"}, {"name": "06f049d74ae33dbc4da80e0117290d30", "is_reserved": 0, "is_disabled": 0, "lon": -77.01994883333333, "rental_uris": {"android": "https://dc.lft.to/lastmile_qr_scan", "ios": "https://dc.lft.to/lastmile_qr_scan"}, "fusion_lon": 0.0, "lat": 38.966393833333335, "type": "electric_scooter", "fusion_lat": 0.0, "bike_id": "06f049d74ae33dbc4da80e0117290d30"}, {"name": "d399d2a4feb020b8ee4c0765ef103951", "is_reserved": 0, "is_disabled": 0, "lon": -77.01323733333334, "rental_uris": {"android": "https://dc.lft.to/lastmile_qr_scan", "ios": "https://dc.lft.to/lastmile_qr_scan"}, "fusion_lon": 0.0, "lat": 38.89231916666667, "type": "electric_scooter", "fusion_lat": 0.0, "bike_id": "d399d2a4feb020b8ee4c0765ef103951"}, {"name": "b1f10f4c10a152ade052da7f246eaced", "is_reserved": 0, "is_disabled": 0, "lon": -77.04648866666666, "rental_uris": {"android": "https://dc.lft.to/lastmile_qr_scan", "ios": "https://dc.lft.to/lastmile_qr_scan"}, "fusion_lon": 0.0, "lat": 38.900133833333335, "type": "electric_scooter", "fusion_lat": 0.0, "bike_id": "b1f10f4c10a152ade052da7f246eaced"}, {"name": "9b5983b83cfa04c3320e2a5e8fec3c2e", "is_reserved": 0, "is_disabled": 0, "lon": -76.99365983333334, "rental_uris": {"android": "https://dc.lft.to/lastmile_qr_scan", "ios": "https://dc.lft.to/lastmile_qr_scan"}, "fusion_lon": 0.0, "lat": 38.92842, "type": "electric_scooter", "fusion_lat": 0.0, "bike_id": "9b5983b83cfa04c3320e2a5e8fec3c2e"}, {"name": "e73d2da710b54ff062c7beccdb096684", "is_reserved": 0, "is_disabled": 0, "lon": -76.9900535, "rental_uris": {"android": "https://dc.lft.to/lastmile_qr_scan", "ios": "https://dc.lft.to/lastmile_qr_scan"}, "fusion_lon": 0.0, "lat": 38.86506883333333, "type": "electric_scooter", "fusion_lat": 0.0, "bike_id": "e73d2da710b54ff062c7beccdb096684"}, {"name": "6efa2ba2cd53a49e347a3a6a6d4766c4", "is_reserved": 0, "is_disabled": 0, "lon": -77.02274183333333, "rental_uris": {"android": "https://dc.lft.to/lastmile_qr_scan", "ios": "https://dc.lft.to/lastmile_qr_scan"}, "fusion_lon": 0.0, "lat": 38.917205, "type": "electric_scooter", "fusion_lat": 0.0, "bike_id": "6efa2ba2cd53a49e347a3a6a6d4766c4"}, {"name": "cf8e185b15cd29ea6f37e47fc06c3c14", "is_reserved": 0, "is_disabled": 0, "lon": -76.990788, "rental_uris": {"android": "https://dc.lft.to/lastmile_qr_scan", "ios": "https://dc.lft.to/lastmile_qr_scan"}, "fusion_lon": 0.0, "lat": 38.860500333333334, "type": "electric_scooter", "fusion_lat": 0.0, "bike_id": "cf8e185b15cd29ea6f37e47fc06c3c14"}, {"name": "2d290673220778f624b0abfd7b5f7a6d", "is_reserved": 0, "is_disabled": 0, "lon": -76.99941383333334, "rental_uris": {"android": "https://dc.lft.to/lastmile_qr_scan", "ios": "https://dc.lft.to/lastmile_qr_scan"}, "fusion_lon": 0.0, "lat": 38.843205833333336, "type": "electric_scooter", "fusion_lat": 0.0, "bike_id": "2d290673220778f624b0abfd7b5f7a6d"}, {"name": "37399cadd0d6fd374b5005a802473c42", "is_reserved": 0, "is_disabled": 0, "lon": -77.01200466666667, "rental_uris": {"android": "https://dc.lft.to/lastmile_qr_scan", "ios": "https://dc.lft.to/lastmile_qr_scan"}, "fusion_lon": 0.0, "lat": 38.925882666666666, "type": "electric_scooter", "fusion_lat": 0.0, "bike_id": "37399cadd0d6fd374b5005a802473c42"}, {"name": "72606e96e264c4e4db0fe2a160fdba0a", "is_reserved": 0, "is_disabled": 0, "lon": -77.02526366666666, "rental_uris": {"android": "https://dc.lft.to/lastmile_qr_scan", "ios": "https://dc.lft.to/lastmile_qr_scan"}, "fusion_lon": 0.0, "lat": 38.900848, "type": "electric_scooter", "fusion_lat": 0.0, "bike_id": "72606e96e264c4e4db0fe2a160fdba0a"}, {"name": "a2ad3b9e0fc9f9894d037f9d96b162b9", "is_reserved": 0, "is_disabled": 0, "lon": -77.00747416666667, "rental_uris": {"android": "https://dc.lft.to/lastmile_qr_scan", "ios": "https://dc.lft.to/lastmile_qr_scan"}, "fusion_lon": 0.0, "lat": 38.87663933333333, "type": "electric_scooter", "fusion_lat": 0.0, "bike_id": "a2ad3b9e0fc9f9894d037f9d96b162b9"}, {"name": "b44798f3357105e82ccfb1c5f2dea768", "is_reserved": 0, "is_disabled": 0, "lon": -77.021678, "rental_uris": {"android": "https://dc.lft.to/lastmile_qr_scan", "ios": "https://dc.lft.to/lastmile_qr_scan"}, "fusion_lon": 0.0, "lat": 38.94295183333333, "type": "electric_scooter", "fusion_lat": 0.0, "bike_id": "b44798f3357105e82ccfb1c5f2dea768"}, {"name": "bb1662ad990707b5aefec6cca7f0cb30", "is_reserved": 0, "is_disabled": 0, "lon": -77.02412366666667, "rental_uris": {"android": "https://dc.lft.to/lastmile_qr_scan", "ios": "https://dc.lft.to/lastmile_qr_scan"}, "fusion_lon": 0.0, "lat": 38.91830266666667, "type": "electric_scooter", "fusion_lat": 0.0, "bike_id": "bb1662ad990707b5aefec6cca7f0cb30"}, {"name": "83ce3905a1c9338d771e347a9747a524", "is_reserved": 0, "is_disabled": 0, "lon": -77.0716645, "rental_uris": {"android": "https://dc.lft.to/lastmile_qr_scan", "ios": "https://dc.lft.to/lastmile_qr_scan"}, "fusion_lon": 0.0, "lat": 38.90779233333333, "type": "electric_scooter", "fusion_lat": 0.0, "bike_id": "83ce3905a1c9338d771e347a9747a524"}, {"name": "454b0e50cad47ca39b5bb63ff9658cc3", "is_reserved": 0, "is_disabled": 0, "lon": -77.04707133333334, "rental_uris": {"android": "https://dc.lft.to/lastmile_qr_scan", "ios": "https://dc.lft.to/lastmile_qr_scan"}, "fusion_lon": 0.0, "lat": 38.917741, "type": "electric_scooter", "fusion_lat": 0.0, "bike_id": "454b0e50cad47ca39b5bb63ff9658cc3"}, {"name": "4ecb626e9d40a4deffbb609de505831e", "is_reserved": 0, "is_disabled": 0, "lon": -77.0333505, "rental_uris": {"android": "https://dc.lft.to/lastmile_qr_scan", "ios": "https://dc.lft.to/lastmile_qr_scan"}, "fusion_lon": 0.0, "lat": 38.898294, "type": "electric_scooter", "fusion_lat": 0.0, "bike_id": "4ecb626e9d40a4deffbb609de505831e"}, {"name": "f710c10c92d7566b6410e83fdd114cd0", "is_reserved": 0, "is_disabled": 0, "lon": -77.06264316666666, "rental_uris": {"android": "https://dc.lft.to/lastmile_qr_scan", "ios": "https://dc.lft.to/lastmile_qr_scan"}, "fusion_lon": 0.0, "lat": 38.90497716666667, "type": "electric_scooter", "fusion_lat": 0.0, "bike_id": "f710c10c92d7566b6410e83fdd114cd0"}, {"name": "b2defcde0ff903a9cdf37c8b3f3d91d7", "is_reserved": 0, "is_disabled": 0, "lon": -77.00365033333334, "rental_uris": {"android": "https://dc.lft.to/lastmile_qr_scan", "ios": "https://dc.lft.to/lastmile_qr_scan"}, "fusion_lon": 0.0, "lat": 38.87760566666667, "type": "electric_scooter", "fusion_lat": 0.0, "bike_id": "b2defcde0ff903a9cdf37c8b3f3d91d7"}, {"name": "af78431b871a90b0997813760321d820", "is_reserved": 0, "is_disabled": 0, "lon": -77.0579245, "rental_uris": {"android": "https://dc.lft.to/lastmile_qr_scan", "ios": "https://dc.lft.to/lastmile_qr_scan"}, "fusion_lon": 0.0, "lat": 38.903698, "type": "electric_scooter", "fusion_lat": 0.0, "bike_id": "af78431b871a90b0997813760321d820"}, {"name": "007c6703da2bc7e67cc78cd8deea94a4", "is_reserved": 0, "is_disabled": 0, "lon": -77.13231333333333, "rental_uris": {"android": "https://dc.lft.to/lastmile_qr_scan", "ios": "https://dc.lft.to/lastmile_qr_scan"}, "fusion_lon": 0.0, "lat": 38.86976133333334, "type": "electric_bike", "fusion_lat": 0.0, "bike_id": "007c6703da2bc7e67cc78cd8deea94a4"}, {"name": "366dea4800bdaecf18a166e95213f3ce", "is_reserved": 0, "is_disabled": 0, "lon": -76.9916975, "rental_uris": {"android": "https://dc.lft.to/lastmile_qr_scan", "ios": "https://dc.lft.to/lastmile_qr_scan"}, "fusion_lon": 0.0, "lat": 38.88975933333333, "type": "electric_bike", "fusion_lat": 0.0, "bike_id": "366dea4800bdaecf18a166e95213f3ce"}, {"name": "1f547d81e91ab20aeb7e13015a0fce8c", "is_reserved": 0, "is_disabled": 0, "lon": -77.00567683333334, "rental_uris": {"android": "https://dc.lft.to/lastmile_qr_scan", "ios": "https://dc.lft.to/lastmile_qr_scan"}, "fusion_lon": 0.0, "lat": 38.885024, "type": "electric_scooter", "fusion_lat": 0.0, "bike_id": "1f547d81e91ab20aeb7e13015a0fce8c"}, {"name": "cc645026299a63fa6f8602b9dffd9551", "is_reserved": 0, "is_disabled": 0, "lon": -77.010254, "rental_uris": {"android": "https://dc.lft.to/lastmile_qr_scan", "ios": "https://dc.lft.to/lastmile_qr_scan"}, "fusion_lon": 0.0, "lat": 38.9000015, "type": "electric_scooter", "fusion_lat": 0.0, "bike_id": "cc645026299a63fa6f8602b9dffd9551"}, {"name": "2e5cdc1bc0c5680d4214c6348fd8dbb7", "is_reserved": 0, "is_disabled": 0, "lon": -77.03266816666667, "rental_uris": {"android": "https://dc.lft.to/lastmile_qr_scan", "ios": "https://dc.lft.to/lastmile_qr_scan"}, "fusion_lon": 0.0, "lat": 38.93211183333333, "type": "electric_scooter", "fusion_lat": 0.0, "bike_id": "2e5cdc1bc0c5680d4214c6348fd8dbb7"}, {"name": "5c7294637b8a10461624e97be5cedf39", "is_reserved": 0, "is_disabled": 0, "lon": -77.0434325, "rental_uris": {"android": "https://dc.lft.to/lastmile_qr_scan", "ios": "https://dc.lft.to/lastmile_qr_scan"}, "fusion_lon": 0.0, "lat": 38.92323233333333, "type": "electric_scooter", "fusion_lat": 0.0, "bike_id": "5c7294637b8a10461624e97be5cedf39"}, {"name": "7446bc22fb04dabb4126352305010100", "is_reserved": 0, "is_disabled": 0, "lon": -77.031469, "rental_uris": {"android": "https://dc.lft.to/lastmile_qr_scan", "ios": "https://dc.lft.to/lastmile_qr_scan"}, "fusion_lon": 0.0, "lat": 38.92722583333333, "type": "electric_scooter", "fusion_lat": 0.0, "bike_id": "7446bc22fb04dabb4126352305010100"}, {"name": "34c0d68b2d622ff101d0ef0104077e65", "is_reserved": 0, "is_disabled": 0, "lon": -77.025305, "rental_uris": {"android": "https://dc.lft.to/lastmile_qr_scan", "ios": "https://dc.lft.to/lastmile_qr_scan"}, "fusion_lon": 0.0, "lat": 38.924033666666666, "type": "electric_scooter", "fusion_lat": 0.0, "bike_id": "34c0d68b2d622ff101d0ef0104077e65"}, {"name": "e62c05f1cc2086edbf2738a15b7c3ea4", "is_reserved": 0, "is_disabled": 0, "lon": -77.00723033333334, "rental_uris": {"android": "https://dc.lft.to/lastmile_qr_scan", "ios": "https://dc.lft.to/lastmile_qr_scan"}, "fusion_lon": 0.0, "lat": 38.87661666666666, "type": "electric_scooter", "fusion_lat": 0.0, "bike_id": "e62c05f1cc2086edbf2738a15b7c3ea4"}, {"name": "8ca5a8dd12a3b764be7c42a06bb90cf9", "is_reserved": 0, "is_disabled": 0, "lon": -77.02653366666667, "rental_uris": {"android": "https://dc.lft.to/lastmile_qr_scan", "ios": "https://dc.lft.to/lastmile_qr_scan"}, "fusion_lon": 0.0, "lat": 38.88112983333333, "type": "electric_scooter", "fusion_lat": 0.0, "bike_id": "8ca5a8dd12a3b764be7c42a06bb90cf9"}, {"name": "0c8bc8b63b52a6e0e5659494f92a17d9", "is_reserved": 0, "is_disabled": 0, "lon": -76.98192383333334, "rental_uris": {"android": "https://dc.lft.to/lastmile_qr_scan", "ios": "https://dc.lft.to/lastmile_qr_scan"}, "fusion_lon": 0.0, "lat": 38.985010833333334, "type": "electric_bike", "fusion_lat": 0.0, "bike_id": "0c8bc8b63b52a6e0e5659494f92a17d9"}, {"name": "b44d4f8e5cede7247a782d1720fd2658", "is_reserved": 0, "is_disabled": 0, "lon": -76.99789833333334, "rental_uris": {"android": "https://dc.lft.to/lastmile_qr_scan", "ios": "https://dc.lft.to/lastmile_qr_scan"}, "fusion_lon": 0.0, "lat": 38.953247166666664, "type": "electric_scooter", "fusion_lat": 0.0, "bike_id": "b44d4f8e5cede7247a782d1720fd2658"}, {"name": "74d7a20248c0d8507d119b41389eb545", "is_reserved": 0, "is_disabled": 0, "lon": -77.02686416666667, "rental_uris": {"android": "https://dc.lft.to/lastmile_qr_scan", "ios": "https://dc.lft.to/lastmile_qr_scan"}, "fusion_lon": 0.0, "lat": 38.9096855, "type": "electric_scooter", "fusion_lat": 0.0, "bike_id": "74d7a20248c0d8507d119b41389eb545"}, {"name": "92852f69aa87b52c50f5043c01342395", "is_reserved": 0, "is_disabled": 0, "lon": -77.03862383333333, "rental_uris": {"android": "https://dc.lft.to/lastmile_qr_scan", "ios": "https://dc.lft.to/lastmile_qr_scan"}, "fusion_lon": 0.0, "lat": 38.918095, "type": "electric_scooter", "fusion_lat": 0.0, "bike_id": "92852f69aa87b52c50f5043c01342395"}, {"name": "c143856bb82a01da149711bc389ee52f", "is_reserved": 0, "is_disabled": 0, "lon": -77.0526685, "rental_uris": {"android": "https://dc.lft.to/lastmile_qr_scan", "ios": "https://dc.lft.to/lastmile_qr_scan"}, "fusion_lon": 0.0, "lat": 38.92756766666667, "type": "electric_scooter", "fusion_lat": 0.0, "bike_id": "c143856bb82a01da149711bc389ee52f"}, {"name": "7d1c2f980e03350c1a9ae084eaec50fc", "is_reserved": 0, "is_disabled": 0, "lon": -77.047895, "rental_uris": {"android": "https://dc.lft.to/lastmile_qr_scan", "ios": "https://dc.lft.to/lastmile_qr_scan"}, "fusion_lon": 0.0, "lat": 38.893689333333334, "type": "electric_scooter", "fusion_lat": 0.0, "bike_id": "7d1c2f980e03350c1a9ae084eaec50fc"}, {"name": "b0e75c1a0bad53323a54f0665ad4399b", "is_reserved": 0, "is_disabled": 0, "lon": -77.0104125, "rental_uris": {"android": "https://dc.lft.to/lastmile_qr_scan", "ios": "https://dc.lft.to/lastmile_qr_scan"}, "fusion_lon": 0.0, "lat": 38.884483, "type": "electric_scooter", "fusion_lat": 0.0, "bike_id": "b0e75c1a0bad53323a54f0665ad4399b"}, {"name": "84856aae97811951de78ca1b1a91facf", "is_reserved": 0, "is_disabled": 0, "lon": -77.04059716666667, "rental_uris": {"android": "https://dc.lft.to/lastmile_qr_scan", "ios": "https://dc.lft.to/lastmile_qr_scan"}, "fusion_lon": 0.0, "lat": 38.90846166666667, "type": "electric_bike", "fusion_lat": 0.0, "bike_id": "84856aae97811951de78ca1b1a91facf"}, {"name": "637befeb61d2b76eb20cde6d089902df", "is_reserved": 0, "is_disabled": 0, "lon": -76.9839055, "rental_uris": {"android": "https://dc.lft.to/lastmile_qr_scan", "ios": "https://dc.lft.to/lastmile_qr_scan"}, "fusion_lon": 0.0, "lat": 38.909775333333336, "type": "electric_scooter", "fusion_lat": 0.0, "bike_id": "637befeb61d2b76eb20cde6d089902df"}, {"name": "e0c15f356f89e7936ae730f3066002da", "is_reserved": 0, "is_disabled": 0, "lon": -77.01355966666667, "rental_uris": {"android": "https://dc.lft.to/lastmile_qr_scan", "ios": "https://dc.lft.to/lastmile_qr_scan"}, "fusion_lon": 0.0, "lat": 38.903858166666666, "type": "electric_scooter", "fusion_lat": 0.0, "bike_id": "e0c15f356f89e7936ae730f3066002da"}, {"name": "5e469153152c7e17572c107def000272", "is_reserved": 0, "is_disabled": 0, "lon": -77.003754, "rental_uris": {"android": "https://dc.lft.to/lastmile_qr_scan", "ios": "https://dc.lft.to/lastmile_qr_scan"}, "fusion_lon": 0.0, "lat": 38.90732233333333, "type": "electric_scooter", "fusion_lat": 0.0, "bike_id": "5e469153152c7e17572c107def000272"}, {"name": "da82f1170f50e13d3650d7688fee2f08", "is_reserved": 0, "is_disabled": 0, "lon": -76.98590666666666, "rental_uris": {"android": "https://dc.lft.to/lastmile_qr_scan", "ios": "https://dc.lft.to/lastmile_qr_scan"}, "fusion_lon": 0.0, "lat": 38.889719, "type": "electric_scooter", "fusion_lat": 0.0, "bike_id": "da82f1170f50e13d3650d7688fee2f08"}, {"name": "d5f2516741695e3b0a68a9bacd018195", "is_reserved": 0, "is_disabled": 0, "lon": -77.03936216666666, "rental_uris": {"android": "https://dc.lft.to/lastmile_qr_scan", "ios": "https://dc.lft.to/lastmile_qr_scan"}, "fusion_lon": 0.0, "lat": 38.90364016666667, "type": "electric_scooter", "fusion_lat": 0.0, "bike_id": "d5f2516741695e3b0a68a9bacd018195"}, {"name": "3966b35c7285b4f34fbb87a4aecbc407", "is_reserved": 0, "is_disabled": 0, "lon": -76.99738783333333, "rental_uris": {"android": "https://dc.lft.to/lastmile_qr_scan", "ios": "https://dc.lft.to/lastmile_qr_scan"}, "fusion_lon": 0.0, "lat": 38.932598, "type": "electric_scooter", "fusion_lat": 0.0, "bike_id": "3966b35c7285b4f34fbb87a4aecbc407"}, {"name": "4bfdd3504002a6b860a2eed38d6e1d69", "is_reserved": 0, "is_disabled": 0, "lon": -76.94108383333334, "rental_uris": {"android": "https://dc.lft.to/lastmile_qr_scan", "ios": "https://dc.lft.to/lastmile_qr_scan"}, "fusion_lon": 0.0, "lat": 38.890409, "type": "electric_scooter", "fusion_lat": 0.0, "bike_id": "4bfdd3504002a6b860a2eed38d6e1d69"}, {"name": "f7d684e878e4bc6a2863a7752c84d7f1", "is_reserved": 0, "is_disabled": 0, "lon": -76.91118716666666, "rental_uris": {"android": "https://dc.lft.to/lastmile_qr_scan", "ios": "https://dc.lft.to/lastmile_qr_scan"}, "fusion_lon": 0.0, "lat": 39.01039133333333, "type": "electric_bike", "fusion_lat": 0.0, "bike_id": "f7d684e878e4bc6a2863a7752c84d7f1"}, {"name": "eb5e9767c9e1704e1252cd5ee93df28d", "is_reserved": 0, "is_disabled": 0, "lon": -77.05992266666667, "rental_uris": {"android": "https://dc.lft.to/lastmile_qr_scan", "ios": "https://dc.lft.to/lastmile_qr_scan"}, "fusion_lon": 0.0, "lat": 38.91197316666667, "type": "electric_scooter", "fusion_lat": 0.0, "bike_id": "eb5e9767c9e1704e1252cd5ee93df28d"}, {"name": "38b2e666a333e946e35629428e2f3dc6", "is_reserved": 0, "is_disabled": 0, "lon": -77.03433783333334, "rental_uris": {"android": "https://dc.lft.to/lastmile_qr_scan", "ios": "https://dc.lft.to/lastmile_qr_scan"}, "fusion_lon": 0.0, "lat": 38.90434033333333, "type": "electric_scooter", "fusion_lat": 0.0, "bike_id": "38b2e666a333e946e35629428e2f3dc6"}, {"name": "a923bfb2d901c27721c913e6e07185df", "is_reserved": 0, "is_disabled": 0, "lon": -77.008829, "rental_uris": {"android": "https://dc.lft.to/lastmile_qr_scan", "ios": "https://dc.lft.to/lastmile_qr_scan"}, "fusion_lon": 0.0, "lat": 38.87352933333333, "type": "electric_scooter", "fusion_lat": 0.0, "bike_id": "a923bfb2d901c27721c913e6e07185df"}, {"name": "ba7c951d4130af49121591b41ac93f2b", "is_reserved": 0, "is_disabled": 0, "lon": -77.0242, "rental_uris": {"android": "https://dc.lft.to/lastmile_qr_scan", "ios": "https://dc.lft.to/lastmile_qr_scan"}, "fusion_lon": 0.0, "lat": 38.903079, "type": "electric_scooter", "fusion_lat": 0.0, "bike_id": "ba7c951d4130af49121591b41ac93f2b"}, {"name": "daa6ac2e1077e739a160e39c33e65daf", "is_reserved": 0, "is_disabled": 0, "lon": -77.01231166666666, "rental_uris": {"android": "https://dc.lft.to/lastmile_qr_scan", "ios": "https://dc.lft.to/lastmile_qr_scan"}, "fusion_lon": 0.0, "lat": 38.893393, "type": "electric_scooter", "fusion_lat": 0.0, "bike_id": "daa6ac2e1077e739a160e39c33e65daf"}, {"name": "b7faa2ac8a9868bd5c66e3672b79e7e0", "is_reserved": 0, "is_disabled": 0, "lon": -76.9948225, "rental_uris": {"android": "https://dc.lft.to/lastmile_qr_scan", "ios": "https://dc.lft.to/lastmile_qr_scan"}, "fusion_lon": 0.0, "lat": 38.89991083333334, "type": "electric_scooter", "fusion_lat": 0.0, "bike_id": "b7faa2ac8a9868bd5c66e3672b79e7e0"}, {"name": "dbde8e028bb25df6783991aede0b3ea1", "is_reserved": 0, "is_disabled": 0, "lon": -77.05294566666667, "rental_uris": {"android": "https://dc.lft.to/lastmile_qr_scan", "ios": "https://dc.lft.to/lastmile_qr_scan"}, "fusion_lon": 0.0, "lat": 38.91696, "type": "electric_scooter", "fusion_lat": 0.0, "bike_id": "dbde8e028bb25df6783991aede0b3ea1"}, {"name": "1de402db4e81ef09dd8fffbf66f563ce", "is_reserved": 0, "is_disabled": 0, "lon": -77.0179835, "rental_uris": {"android": "https://dc.lft.to/lastmile_qr_scan", "ios": "https://dc.lft.to/lastmile_qr_scan"}, "fusion_lon": 0.0, "lat": 38.989923, "type": "electric_bike", "fusion_lat": 0.0, "bike_id": "1de402db4e81ef09dd8fffbf66f563ce"}, {"name": "15d98e06d200d51424ad0c56f486e380", "is_reserved": 0, "is_disabled": 0, "lon": -77.03635166666666, "rental_uris": {"android": "https://dc.lft.to/lastmile_qr_scan", "ios": "https://dc.lft.to/lastmile_qr_scan"}, "fusion_lon": 0.0, "lat": 38.93171433333333, "type": "electric_scooter", "fusion_lat": 0.0, "bike_id": "15d98e06d200d51424ad0c56f486e380"}, {"name": "8630f314d63ecbcacbfb7a4487574946", "is_reserved": 0, "is_disabled": 0, "lon": -77.02395383333334, "rental_uris": {"android": "https://dc.lft.to/lastmile_qr_scan", "ios": "https://dc.lft.to/lastmile_qr_scan"}, "fusion_lon": 0.0, "lat": 38.89902266666667, "type": "electric_scooter", "fusion_lat": 0.0, "bike_id": "8630f314d63ecbcacbfb7a4487574946"}, {"name": "625603ce4684cbe3f70eceb92d13eec0", "is_reserved": 0, "is_disabled": 0, "lon": -77.0269855, "rental_uris": {"android": "https://dc.lft.to/lastmile_qr_scan", "ios": "https://dc.lft.to/lastmile_qr_scan"}, "fusion_lon": 0.0, "lat": 38.9085075, "type": "electric_scooter", "fusion_lat": 0.0, "bike_id": "625603ce4684cbe3f70eceb92d13eec0"}, {"name": "e8b7aef571cc8ad06398001e8370b4bd", "is_reserved": 0, "is_disabled": 0, "lon": -76.94759016666667, "rental_uris": {"android": "https://dc.lft.to/lastmile_qr_scan", "ios": "https://dc.lft.to/lastmile_qr_scan"}, "fusion_lon": 0.0, "lat": 38.8966645, "type": "electric_scooter", "fusion_lat": 0.0, "bike_id": "e8b7aef571cc8ad06398001e8370b4bd"}, {"name": "5e484e2f54e7cb79238c8d9b0ec9b00f", "is_reserved": 0, "is_disabled": 0, "lon": -77.0363865, "rental_uris": {"android": "https://dc.lft.to/lastmile_qr_scan", "ios": "https://dc.lft.to/lastmile_qr_scan"}, "fusion_lon": 0.0, "lat": 38.9162255, "type": "electric_scooter", "fusion_lat": 0.0, "bike_id": "5e484e2f54e7cb79238c8d9b0ec9b00f"}, {"name": "bb95eaed1ad2ab9a2f38f552d16dd478", "is_reserved": 0, "is_disabled": 0, "lon": -77.002103, "rental_uris": {"android": "https://dc.lft.to/lastmile_qr_scan", "ios": "https://dc.lft.to/lastmile_qr_scan"}, "fusion_lon": 0.0, "lat": 38.89496183333333, "type": "electric_scooter", "fusion_lat": 0.0, "bike_id": "bb95eaed1ad2ab9a2f38f552d16dd478"}, {"name": "a241010f5903ea45d20e43e70f92fc59", "is_reserved": 0, "is_disabled": 0, "lon": -77.00224266666666, "rental_uris": {"android": "https://dc.lft.to/lastmile_qr_scan", "ios": "https://dc.lft.to/lastmile_qr_scan"}, "fusion_lon": 0.0, "lat": 38.902929, "type": "electric_scooter", "fusion_lat": 0.0, "bike_id": "a241010f5903ea45d20e43e70f92fc59"}, {"name": "d42f01fcdc1521bb7c46b8fe08dcc5b8", "is_reserved": 0, "is_disabled": 0, "lon": -77.0318245, "rental_uris": {"android": "https://dc.lft.to/lastmile_qr_scan", "ios": "https://dc.lft.to/lastmile_qr_scan"}, "fusion_lon": 0.0, "lat": 38.907832, "type": "electric_scooter", "fusion_lat": 0.0, "bike_id": "d42f01fcdc1521bb7c46b8fe08dcc5b8"}, {"name": "eba41bbb50d2647bebaf7238a500d6db", "is_reserved": 0, "is_disabled": 0, "lon": -77.02373533333333, "rental_uris": {"android": "https://dc.lft.to/lastmile_qr_scan", "ios": "https://dc.lft.to/lastmile_qr_scan"}, "fusion_lon": 0.0, "lat": 38.9022125, "type": "electric_scooter", "fusion_lat": 0.0, "bike_id": "eba41bbb50d2647bebaf7238a500d6db"}, {"name": "4a9b55154f3e47c717dd712eb468fbfe", "is_reserved": 0, "is_disabled": 0, "lon": -77.03811233333333, "rental_uris": {"android": "https://dc.lft.to/lastmile_qr_scan", "ios": "https://dc.lft.to/lastmile_qr_scan"}, "fusion_lon": 0.0, "lat": 38.9206495, "type": "electric_scooter", "fusion_lat": 0.0, "bike_id": "4a9b55154f3e47c717dd712eb468fbfe"}, {"name": "90d4c920d744289c8d4e8ed3d4775d22", "is_reserved": 0, "is_disabled": 0, "lon": -76.99741566666667, "rental_uris": {"android": "https://dc.lft.to/lastmile_qr_scan", "ios": "https://dc.lft.to/lastmile_qr_scan"}, "fusion_lon": 0.0, "lat": 38.920420166666666, "type": "electric_scooter", "fusion_lat": 0.0, "bike_id": "90d4c920d744289c8d4e8ed3d4775d22"}, {"name": "601947c6b57fb0bee4c149342f0beb1e", "is_reserved": 0, "is_disabled": 0, "lon": -77.03841433333334, "rental_uris": {"android": "https://dc.lft.to/lastmile_qr_scan", "ios": "https://dc.lft.to/lastmile_qr_scan"}, "fusion_lon": 0.0, "lat": 38.9311225, "type": "electric_scooter", "fusion_lat": 0.0, "bike_id": "601947c6b57fb0bee4c149342f0beb1e"}, {"name": "79850c743af9e8d40850a5f770ef47ce", "is_reserved": 0, "is_disabled": 0, "lon": -77.05651866666666, "rental_uris": {"android": "https://dc.lft.to/lastmile_qr_scan", "ios": "https://dc.lft.to/lastmile_qr_scan"}, "fusion_lon": 0.0, "lat": 38.9654505, "type": "electric_scooter", "fusion_lat": 0.0, "bike_id": "79850c743af9e8d40850a5f770ef47ce"}, {"name": "29659478da2aef5b8150555197173a5d", "is_reserved": 0, "is_disabled": 0, "lon": -77.03465566666667, "rental_uris": {"android": "https://dc.lft.to/lastmile_qr_scan", "ios": "https://dc.lft.to/lastmile_qr_scan"}, "fusion_lon": 0.0, "lat": 38.90837583333333, "type": "electric_scooter", "fusion_lat": 0.0, "bike_id": "29659478da2aef5b8150555197173a5d"}, {"name": "b1dffd51250b147cb51ad5dd9e242055", "is_reserved": 0, "is_disabled": 0, "lon": -77.01762466666666, "rental_uris": {"android": "https://dc.lft.to/lastmile_qr_scan", "ios": "https://dc.lft.to/lastmile_qr_scan"}, "fusion_lon": 0.0, "lat": 38.92111666666667, "type": "electric_scooter", "fusion_lat": 0.0, "bike_id": "b1dffd51250b147cb51ad5dd9e242055"}, {"name": "25d7c76e8322ef765c7a1a6831eabf17", "is_reserved": 0, "is_disabled": 0, "lon": -76.973849, "rental_uris": {"android": "https://dc.lft.to/lastmile_qr_scan", "ios": "https://dc.lft.to/lastmile_qr_scan"}, "fusion_lon": 0.0, "lat": 38.883838833333336, "type": "electric_scooter", "fusion_lat": 0.0, "bike_id": "25d7c76e8322ef765c7a1a6831eabf17"}, {"name": "5da81cd8f24e3ad636ba640afbb2561e", "is_reserved": 0, "is_disabled": 0, "lon": -76.94726733333333, "rental_uris": {"android": "https://dc.lft.to/lastmile_qr_scan", "ios": "https://dc.lft.to/lastmile_qr_scan"}, "fusion_lon": 0.0, "lat": 38.89740233333333, "type": "electric_scooter", "fusion_lat": 0.0, "bike_id": "5da81cd8f24e3ad636ba640afbb2561e"}, {"name": "89c8b81b46682be7e022b277d1a2b6ef", "is_reserved": 0, "is_disabled": 0, "lon": -77.02032766666666, "rental_uris": {"android": "https://dc.lft.to/lastmile_qr_scan", "ios": "https://dc.lft.to/lastmile_qr_scan"}, "fusion_lon": 0.0, "lat": 38.89278, "type": "electric_scooter", "fusion_lat": 0.0, "bike_id": "89c8b81b46682be7e022b277d1a2b6ef"}, {"name": "ceee76ea77ecede471977f6d646867ba", "is_reserved": 0, "is_disabled": 0, "lon": -77.06534216666667, "rental_uris": {"android": "https://dc.lft.to/lastmile_qr_scan", "ios": "https://dc.lft.to/lastmile_qr_scan"}, "fusion_lon": 0.0, "lat": 38.95072066666667, "type": "electric_scooter", "fusion_lat": 0.0, "bike_id": "ceee76ea77ecede471977f6d646867ba"}, {"name": "894249c69a50361898a7b90c794cc1d4", "is_reserved": 0, "is_disabled": 0, "lon": -77.07255166666667, "rental_uris": {"android": "https://dc.lft.to/lastmile_qr_scan", "ios": "https://dc.lft.to/lastmile_qr_scan"}, "fusion_lon": 0.0, "lat": 38.90786416666667, "type": "electric_scooter", "fusion_lat": 0.0, "bike_id": "894249c69a50361898a7b90c794cc1d4"}, {"name": "96891708575c9e9d40255e9a05b25d87", "is_reserved": 0, "is_disabled": 0, "lon": -77.17799916666667, "rental_uris": {"android": "https://dc.lft.to/lastmile_qr_scan", "ios": "https://dc.lft.to/lastmile_qr_scan"}, "fusion_lon": 0.0, "lat": 39.088445666666665, "type": "electric_bike", "fusion_lat": 0.0, "bike_id": "96891708575c9e9d40255e9a05b25d87"}, {"name": "4dbddf370395d925328f2aaa8364175e", "is_reserved": 0, "is_disabled": 0, "lon": -76.98653883333333, "rental_uris": {"android": "https://dc.lft.to/lastmile_qr_scan", "ios": "https://dc.lft.to/lastmile_qr_scan"}, "fusion_lon": 0.0, "lat": 38.902705, "type": "electric_scooter", "fusion_lat": 0.0, "bike_id": "4dbddf370395d925328f2aaa8364175e"}, {"name": "cbefec67e97312cefb029b99538d5e1a", "is_reserved": 0, "is_disabled": 0, "lon": -76.98765816666666, "rental_uris": {"android": "https://dc.lft.to/lastmile_qr_scan", "ios": "https://dc.lft.to/lastmile_qr_scan"}, "fusion_lon": 0.0, "lat": 38.84456216666667, "type": "electric_scooter", "fusion_lat": 0.0, "bike_id": "cbefec67e97312cefb029b99538d5e1a"}, {"name": "4f9239e6fc04890573dac0ec5740202e", "is_reserved": 0, "is_disabled": 0, "lon": -76.98869433333333, "rental_uris": {"android": "https://dc.lft.to/lastmile_qr_scan", "ios": "https://dc.lft.to/lastmile_qr_scan"}, "fusion_lon": 0.0, "lat": 38.86682366666667, "type": "electric_scooter", "fusion_lat": 0.0, "bike_id": "4f9239e6fc04890573dac0ec5740202e"}, {"name": "6eb90e8e3a45600f208169dcdd83ed79", "is_reserved": 0, "is_disabled": 0, "lon": -76.9950145, "rental_uris": {"android": "https://dc.lft.to/lastmile_qr_scan", "ios": "https://dc.lft.to/lastmile_qr_scan"}, "fusion_lon": 0.0, "lat": 38.88583933333334, "type": "electric_scooter", "fusion_lat": 0.0, "bike_id": "6eb90e8e3a45600f208169dcdd83ed79"}, {"name": "605a6f5f3f5e87b987c9d983b8fc91e8", "is_reserved": 0, "is_disabled": 0, "lon": -76.99938733333333, "rental_uris": {"android": "https://dc.lft.to/lastmile_qr_scan", "ios": "https://dc.lft.to/lastmile_qr_scan"}, "fusion_lon": 0.0, "lat": 38.84324066666667, "type": "electric_scooter", "fusion_lat": 0.0, "bike_id": "605a6f5f3f5e87b987c9d983b8fc91e8"}, {"name": "8ee12b4001ab5809da35ac62cb5de628", "is_reserved": 0, "is_disabled": 0, "lon": -77.0487335, "rental_uris": {"android": "https://dc.lft.to/lastmile_qr_scan", "ios": "https://dc.lft.to/lastmile_qr_scan"}, "fusion_lon": 0.0, "lat": 38.89234116666667, "type": "electric_scooter", "fusion_lat": 0.0, "bike_id": "8ee12b4001ab5809da35ac62cb5de628"}, {"name": "276ba43a2c13c1ef50c01b89d2a97195", "is_reserved": 0, "is_disabled": 0, "lon": -77.03207466666667, "rental_uris": {"android": "https://dc.lft.to/lastmile_qr_scan", "ios": "https://dc.lft.to/lastmile_qr_scan"}, "fusion_lon": 0.0, "lat": 38.917258333333336, "type": "electric_scooter", "fusion_lat": 0.0, "bike_id": "276ba43a2c13c1ef50c01b89d2a97195"}, {"name": "de8b8dd45a77ca9640902fbf1e7ea787", "is_reserved": 0, "is_disabled": 0, "lon": -77.0256135, "rental_uris": {"android": "https://dc.lft.to/lastmile_qr_scan", "ios": "https://dc.lft.to/lastmile_qr_scan"}, "fusion_lon": 0.0, "lat": 38.9208605, "type": "electric_scooter", "fusion_lat": 0.0, "bike_id": "de8b8dd45a77ca9640902fbf1e7ea787"}, {"name": "4d06f3ac878b8a240be29ab5c8e01613", "is_reserved": 0, "is_disabled": 0, "lon": -77.02421866666667, "rental_uris": {"android": "https://dc.lft.to/lastmile_qr_scan", "ios": "https://dc.lft.to/lastmile_qr_scan"}, "fusion_lon": 0.0, "lat": 38.89226516666667, "type": "electric_scooter", "fusion_lat": 0.0, "bike_id": "4d06f3ac878b8a240be29ab5c8e01613"}, {"name": "5fc92ff827e0d2548752e3a0e70a6ae8", "is_reserved": 0, "is_disabled": 0, "lon": -77.04363333333333, "rental_uris": {"android": "https://dc.lft.to/lastmile_qr_scan", "ios": "https://dc.lft.to/lastmile_qr_scan"}, "fusion_lon": 0.0, "lat": 38.904720166666664, "type": "electric_scooter", "fusion_lat": 0.0, "bike_id": "5fc92ff827e0d2548752e3a0e70a6ae8"}, {"name": "cd56d43ad843e86cfc8b0effd197d2e7", "is_reserved": 0, "is_disabled": 0, "lon": -77.03852383333333, "rental_uris": {"android": "https://dc.lft.to/lastmile_qr_scan", "ios": "https://dc.lft.to/lastmile_qr_scan"}, "fusion_lon": 0.0, "lat": 38.91208233333333, "type": "electric_scooter", "fusion_lat": 0.0, "bike_id": "cd56d43ad843e86cfc8b0effd197d2e7"}, {"name": "dedf5101c89ff3f41667b1b5b083cb99", "is_reserved": 0, "is_disabled": 0, "lon": -77.02616483333334, "rental_uris": {"android": "https://dc.lft.to/lastmile_qr_scan", "ios": "https://dc.lft.to/lastmile_qr_scan"}, "fusion_lon": 0.0, "lat": 38.90015616666667, "type": "electric_scooter", "fusion_lat": 0.0, "bike_id": "dedf5101c89ff3f41667b1b5b083cb99"}, {"name": "5670df60d09e4965c6d8afa7b02d34ff", "is_reserved": 0, "is_disabled": 0, "lon": -77.02705983333334, "rental_uris": {"android": "https://dc.lft.to/lastmile_qr_scan", "ios": "https://dc.lft.to/lastmile_qr_scan"}, "fusion_lon": 0.0, "lat": 38.906706166666666, "type": "electric_scooter", "fusion_lat": 0.0, "bike_id": "5670df60d09e4965c6d8afa7b02d34ff"}, {"name": "dac6a43e336a68e22a1e1c93349f54ca", "is_reserved": 0, "is_disabled": 0, "lon": -77.021658, "rental_uris": {"android": "https://dc.lft.to/lastmile_qr_scan", "ios": "https://dc.lft.to/lastmile_qr_scan"}, "fusion_lon": 0.0, "lat": 38.89733066666667, "type": "electric_scooter", "fusion_lat": 0.0, "bike_id": "dac6a43e336a68e22a1e1c93349f54ca"}, {"name": "4510c666ef7630f11b47728e843fd938", "is_reserved": 0, "is_disabled": 0, "lon": -77.04304666666667, "rental_uris": {"android": "https://dc.lft.to/lastmile_qr_scan", "ios": "https://dc.lft.to/lastmile_qr_scan"}, "fusion_lon": 0.0, "lat": 39.05451266666667, "type": "electric_bike", "fusion_lat": 0.0, "bike_id": "4510c666ef7630f11b47728e843fd938"}, {"name": "fde7e8a17fddc97274b27de8cd5c71e4", "is_reserved": 0, "is_disabled": 0, "lon": -77.17848466666666, "rental_uris": {"android": "https://dc.lft.to/lastmile_qr_scan", "ios": "https://dc.lft.to/lastmile_qr_scan"}, "fusion_lon": 0.0, "lat": 39.089045166666665, "type": "electric_bike", "fusion_lat": 0.0, "bike_id": "fde7e8a17fddc97274b27de8cd5c71e4"}, {"name": "6e375d32bbfab6b7ffd6d556520e0aa2", "is_reserved": 0, "is_disabled": 0, "lon": -76.99865216666667, "rental_uris": {"android": "https://dc.lft.to/lastmile_qr_scan", "ios": "https://dc.lft.to/lastmile_qr_scan"}, "fusion_lon": 0.0, "lat": 38.90901516666667, "type": "electric_scooter", "fusion_lat": 0.0, "bike_id": "6e375d32bbfab6b7ffd6d556520e0aa2"}, {"name": "865f4274a271951b75959a96780560f2", "is_reserved": 0, "is_disabled": 0, "lon": -76.98662233333333, "rental_uris": {"android": "https://dc.lft.to/lastmile_qr_scan", "ios": "https://dc.lft.to/lastmile_qr_scan"}, "fusion_lon": 0.0, "lat": 38.90148666666666, "type": "electric_scooter", "fusion_lat": 0.0, "bike_id": "865f4274a271951b75959a96780560f2"}, {"name": "673fa7be6793ac8a9698957ce19d8970", "is_reserved": 0, "is_disabled": 0, "lon": -77.03434316666667, "rental_uris": {"android": "https://dc.lft.to/lastmile_qr_scan", "ios": "https://dc.lft.to/lastmile_qr_scan"}, "fusion_lon": 0.0, "lat": 38.903183166666665, "type": "electric_scooter", "fusion_lat": 0.0, "bike_id": "673fa7be6793ac8a9698957ce19d8970"}, {"name": "48cb622b8b250f2285a09b727a9e63e7", "is_reserved": 0, "is_disabled": 0, "lon": -77.08218366666667, "rental_uris": {"android": "https://dc.lft.to/lastmile_qr_scan", "ios": "https://dc.lft.to/lastmile_qr_scan"}, "fusion_lon": 0.0, "lat": 38.935657, "type": "electric_scooter", "fusion_lat": 0.0, "bike_id": "48cb622b8b250f2285a09b727a9e63e7"}, {"name": "566c166601f478e2c904d52d8a554efa", "is_reserved": 0, "is_disabled": 0, "lon": -77.03831533333333, "rental_uris": {"android": "https://dc.lft.to/lastmile_qr_scan", "ios": "https://dc.lft.to/lastmile_qr_scan"}, "fusion_lon": 0.0, "lat": 38.91119616666667, "type": "electric_scooter", "fusion_lat": 0.0, "bike_id": "566c166601f478e2c904d52d8a554efa"}, {"name": "b27011560046545ed7ea0237614b2f4e", "is_reserved": 0, "is_disabled": 0, "lon": -76.98835933333334, "rental_uris": {"android": "https://dc.lft.to/lastmile_qr_scan", "ios": "https://dc.lft.to/lastmile_qr_scan"}, "fusion_lon": 0.0, "lat": 38.9004825, "type": "electric_scooter", "fusion_lat": 0.0, "bike_id": "b27011560046545ed7ea0237614b2f4e"}, {"name": "3779719eec9cf6dbb22c42140da4f265", "is_reserved": 0, "is_disabled": 0, "lon": -77.02228466666666, "rental_uris": {"android": "https://dc.lft.to/lastmile_qr_scan", "ios": "https://dc.lft.to/lastmile_qr_scan"}, "fusion_lon": 0.0, "lat": 38.912705333333335, "type": "electric_scooter", "fusion_lat": 0.0, "bike_id": "3779719eec9cf6dbb22c42140da4f265"}, {"name": "08e723917876c88685cdd0133ae38d47", "is_reserved": 0, "is_disabled": 0, "lon": -77.02641283333334, "rental_uris": {"android": "https://dc.lft.to/lastmile_qr_scan", "ios": "https://dc.lft.to/lastmile_qr_scan"}, "fusion_lon": 0.0, "lat": 38.936770333333335, "type": "electric_bike", "fusion_lat": 0.0, "bike_id": "08e723917876c88685cdd0133ae38d47"}, {"name": "421f68e830c76b41c33ac66a9b67be2f", "is_reserved": 0, "is_disabled": 0, "lon": -77.05795783333333, "rental_uris": {"android": "https://dc.lft.to/lastmile_qr_scan", "ios": "https://dc.lft.to/lastmile_qr_scan"}, "fusion_lon": 0.0, "lat": 38.9347925, "type": "electric_scooter", "fusion_lat": 0.0, "bike_id": "421f68e830c76b41c33ac66a9b67be2f"}, {"name": "dde628391e7e886e30544ba5a02f2435", "is_reserved": 0, "is_disabled": 0, "lon": -77.0311385, "rental_uris": {"android": "https://dc.lft.to/lastmile_qr_scan", "ios": "https://dc.lft.to/lastmile_qr_scan"}, "fusion_lon": 0.0, "lat": 38.919217, "type": "electric_scooter", "fusion_lat": 0.0, "bike_id": "dde628391e7e886e30544ba5a02f2435"}, {"name": "29ff34250584b2fe00b16a2316c578bb", "is_reserved": 0, "is_disabled": 0, "lon": -77.03204983333333, "rental_uris": {"android": "https://dc.lft.to/lastmile_qr_scan", "ios": "https://dc.lft.to/lastmile_qr_scan"}, "fusion_lon": 0.0, "lat": 38.90375133333333, "type": "electric_scooter", "fusion_lat": 0.0, "bike_id": "29ff34250584b2fe00b16a2316c578bb"}, {"name": "f1e79f223851703adc3cd6ed9f87df21", "is_reserved": 0, "is_disabled": 0, "lon": -77.02327433333333, "rental_uris": {"android": "https://dc.lft.to/lastmile_qr_scan", "ios": "https://dc.lft.to/lastmile_qr_scan"}, "fusion_lon": 0.0, "lat": 38.91678783333333, "type": "electric_scooter", "fusion_lat": 0.0, "bike_id": "f1e79f223851703adc3cd6ed9f87df21"}, {"name": "7b46069f7c08a1a0b13a802db4971739", "is_reserved": 0, "is_disabled": 0, "lon": -77.03406833333334, "rental_uris": {"android": "https://dc.lft.to/lastmile_qr_scan", "ios": "https://dc.lft.to/lastmile_qr_scan"}, "fusion_lon": 0.0, "lat": 38.919203, "type": "electric_scooter", "fusion_lat": 0.0, "bike_id": "7b46069f7c08a1a0b13a802db4971739"}, {"name": "8cc476e84628814ddf5a73e38ff94312", "is_reserved": 0, "is_disabled": 0, "lon": -77.04329633333333, "rental_uris": {"android": "https://dc.lft.to/lastmile_qr_scan", "ios": "https://dc.lft.to/lastmile_qr_scan"}, "fusion_lon": 0.0, "lat": 38.911127666666665, "type": "electric_scooter", "fusion_lat": 0.0, "bike_id": "8cc476e84628814ddf5a73e38ff94312"}, {"name": "ee71fed89c8245c63015615d9f1f4dd0", "is_reserved": 0, "is_disabled": 0, "lon": -77.04524566666667, "rental_uris": {"android": "https://dc.lft.to/lastmile_qr_scan", "ios": "https://dc.lft.to/lastmile_qr_scan"}, "fusion_lon": 0.0, "lat": 38.903529666666664, "type": "electric_scooter", "fusion_lat": 0.0, "bike_id": "ee71fed89c8245c63015615d9f1f4dd0"}, {"name": "b0b20f288915680bd831473137814f99", "is_reserved": 0, "is_disabled": 0, "lon": -77.03834483333333, "rental_uris": {"android": "https://dc.lft.to/lastmile_qr_scan", "ios": "https://dc.lft.to/lastmile_qr_scan"}, "fusion_lon": 0.0, "lat": 38.9040545, "type": "electric_scooter", "fusion_lat": 0.0, "bike_id": "b0b20f288915680bd831473137814f99"}, {"name": "03099fcfddef02567f3ad33f83eee8e6", "is_reserved": 0, "is_disabled": 0, "lon": -76.96519083333334, "rental_uris": {"android": "https://dc.lft.to/lastmile_qr_scan", "ios": "https://dc.lft.to/lastmile_qr_scan"}, "fusion_lon": 0.0, "lat": 38.8748055, "type": "electric_scooter", "fusion_lat": 0.0, "bike_id": "03099fcfddef02567f3ad33f83eee8e6"}, {"name": "9b641003764b7c1355f46a1467d00ac1", "is_reserved": 0, "is_disabled": 0, "lon": -76.98361, "rental_uris": {"android": "https://dc.lft.to/lastmile_qr_scan", "ios": "https://dc.lft.to/lastmile_qr_scan"}, "fusion_lon": 0.0, "lat": 38.8610575, "type": "electric_scooter", "fusion_lat": 0.0, "bike_id": "9b641003764b7c1355f46a1467d00ac1"}, {"name": "736e9f5046c22f5ff9de2e5b6e57235a", "is_reserved": 0, "is_disabled": 0, "lon": -76.94465766666667, "rental_uris": {"android": "https://dc.lft.to/lastmile_qr_scan", "ios": "https://dc.lft.to/lastmile_qr_scan"}, "fusion_lon": 0.0, "lat": 38.94556566666667, "type": "electric_bike", "fusion_lat": 0.0, "bike_id": "736e9f5046c22f5ff9de2e5b6e57235a"}, {"name": "67f8133ff12657ad97f019da1bf95eeb", "is_reserved": 0, "is_disabled": 0, "lon": -77.07898483333334, "rental_uris": {"android": "https://dc.lft.to/lastmile_qr_scan", "ios": "https://dc.lft.to/lastmile_qr_scan"}, "fusion_lon": 0.0, "lat": 38.839394166666665, "type": "electric_bike", "fusion_lat": 0.0, "bike_id": "67f8133ff12657ad97f019da1bf95eeb"}, {"name": "fc6836acfbf626255afaa7f1a73dbf4b", "is_reserved": 0, "is_disabled": 0, "lon": -77.00831016666666, "rental_uris": {"android": "https://dc.lft.to/lastmile_qr_scan", "ios": "https://dc.lft.to/lastmile_qr_scan"}, "fusion_lon": 0.0, "lat": 38.87948516666667, "type": "electric_scooter", "fusion_lat": 0.0, "bike_id": "fc6836acfbf626255afaa7f1a73dbf4b"}, {"name": "eaa2f2830bc24fad31fc17d27714e2ed", "is_reserved": 0, "is_disabled": 0, "lon": -77.033003, "rental_uris": {"android": "https://dc.lft.to/lastmile_qr_scan", "ios": "https://dc.lft.to/lastmile_qr_scan"}, "fusion_lon": 0.0, "lat": 38.9226945, "type": "electric_scooter", "fusion_lat": 0.0, "bike_id": "eaa2f2830bc24fad31fc17d27714e2ed"}, {"name": "8110fc9d86c818e28ce2d5a4a2e6cf70", "is_reserved": 0, "is_disabled": 0, "lon": -77.0415665, "rental_uris": {"android": "https://dc.lft.to/lastmile_qr_scan", "ios": "https://dc.lft.to/lastmile_qr_scan"}, "fusion_lon": 0.0, "lat": 38.909244666666666, "type": "electric_scooter", "fusion_lat": 0.0, "bike_id": "8110fc9d86c818e28ce2d5a4a2e6cf70"}, {"name": "52942aabe6d79171d7b44e0e2e156648", "is_reserved": 0, "is_disabled": 0, "lon": -77.068997, "rental_uris": {"android": "https://dc.lft.to/lastmile_qr_scan", "ios": "https://dc.lft.to/lastmile_qr_scan"}, "fusion_lon": 0.0, "lat": 38.907319, "type": "electric_scooter", "fusion_lat": 0.0, "bike_id": "52942aabe6d79171d7b44e0e2e156648"}, {"name": "d0e34d5599b387d82d61970eb96a43ae", "is_reserved": 0, "is_disabled": 0, "lon": -77.1141265, "rental_uris": {"android": "https://dc.lft.to/lastmile_qr_scan", "ios": "https://dc.lft.to/lastmile_qr_scan"}, "fusion_lon": 0.0, "lat": 38.8429475, "type": "electric_bike", "fusion_lat": 0.0, "bike_id": "d0e34d5599b387d82d61970eb96a43ae"}, {"name": "f97b46badd6165af8f71c0ff389bb61f", "is_reserved": 0, "is_disabled": 0, "lon": -77.03399583333334, "rental_uris": {"android": "https://dc.lft.to/lastmile_qr_scan", "ios": "https://dc.lft.to/lastmile_qr_scan"}, "fusion_lon": 0.0, "lat": 38.919652, "type": "electric_scooter", "fusion_lat": 0.0, "bike_id": "f97b46badd6165af8f71c0ff389bb61f"}, {"name": "a634c952f25d3e35f79d60fd5efe0982", "is_reserved": 0, "is_disabled": 0, "lon": -77.05092066666667, "rental_uris": {"android": "https://dc.lft.to/lastmile_qr_scan", "ios": "https://dc.lft.to/lastmile_qr_scan"}, "fusion_lon": 0.0, "lat": 38.813315833333334, "type": "electric_bike", "fusion_lat": 0.0, "bike_id": "a634c952f25d3e35f79d60fd5efe0982"}, {"name": "c52d35ff4074ac1adf672f52822ea15f", "is_reserved": 0, "is_disabled": 0, "lon": -77.09165233333333, "rental_uris": {"android": "https://dc.lft.to/lastmile_qr_scan", "ios": "https://dc.lft.to/lastmile_qr_scan"}, "fusion_lon": 0.0, "lat": 38.96762733333333, "type": "electric_bike", "fusion_lat": 0.0, "bike_id": "c52d35ff4074ac1adf672f52822ea15f"}, {"name": "dd517b3fe9bfdc40128d7b4bd4b4f165", "is_reserved": 0, "is_disabled": 0, "lon": -77.00520483333334, "rental_uris": {"android": "https://dc.lft.to/lastmile_qr_scan", "ios": "https://dc.lft.to/lastmile_qr_scan"}, "fusion_lon": 0.0, "lat": 38.874742, "type": "electric_scooter", "fusion_lat": 0.0, "bike_id": "dd517b3fe9bfdc40128d7b4bd4b4f165"}, {"name": "a0128a688826ca80142288c016b364c1", "is_reserved": 0, "is_disabled": 0, "lon": -77.0372345, "rental_uris": {"android": "https://dc.lft.to/lastmile_qr_scan", "ios": "https://dc.lft.to/lastmile_qr_scan"}, "fusion_lon": 0.0, "lat": 38.918207833333334, "type": "electric_scooter", "fusion_lat": 0.0, "bike_id": "a0128a688826ca80142288c016b364c1"}, {"name": "fc3271614d8f1e8a053a57f3cc0eee59", "is_reserved": 0, "is_disabled": 0, "lon": -77.01684333333333, "rental_uris": {"android": "https://dc.lft.to/lastmile_qr_scan", "ios": "https://dc.lft.to/lastmile_qr_scan"}, "fusion_lon": 0.0, "lat": 38.97536266666667, "type": "electric_scooter", "fusion_lat": 0.0, "bike_id": "fc3271614d8f1e8a053a57f3cc0eee59"}, {"name": "63994716d10356dc39678627f0e4fd8c", "is_reserved": 0, "is_disabled": 0, "lon": -77.0465925, "rental_uris": {"android": "https://dc.lft.to/lastmile_qr_scan", "ios": "https://dc.lft.to/lastmile_qr_scan"}, "fusion_lon": 0.0, "lat": 38.892989166666666, "type": "electric_scooter", "fusion_lat": 0.0, "bike_id": "63994716d10356dc39678627f0e4fd8c"}, {"name": "55020c23ab4c77e6a62bcf6ce0b79c07", "is_reserved": 0, "is_disabled": 0, "lon": -77.04422783333334, "rental_uris": {"android": "https://dc.lft.to/lastmile_qr_scan", "ios": "https://dc.lft.to/lastmile_qr_scan"}, "fusion_lon": 0.0, "lat": 38.87435833333333, "type": "electric_scooter", "fusion_lat": 0.0, "bike_id": "55020c23ab4c77e6a62bcf6ce0b79c07"}, {"name": "482961d332ac223ee5d2961a38c8dab3", "is_reserved": 0, "is_disabled": 0, "lon": -77.04224183333334, "rental_uris": {"android": "https://dc.lft.to/lastmile_qr_scan", "ios": "https://dc.lft.to/lastmile_qr_scan"}, "fusion_lon": 0.0, "lat": 38.92127983333334, "type": "electric_scooter", "fusion_lat": 0.0, "bike_id": "482961d332ac223ee5d2961a38c8dab3"}, {"name": "f1618c7c64e567378cad4cd900cdbc73", "is_reserved": 0, "is_disabled": 0, "lon": -77.03354133333333, "rental_uris": {"android": "https://dc.lft.to/lastmile_qr_scan", "ios": "https://dc.lft.to/lastmile_qr_scan"}, "fusion_lon": 0.0, "lat": 38.92253683333333, "type": "electric_scooter", "fusion_lat": 0.0, "bike_id": "f1618c7c64e567378cad4cd900cdbc73"}, {"name": "3ee561282238d57259cb73f1663b59eb", "is_reserved": 0, "is_disabled": 0, "lon": -76.96708566666666, "rental_uris": {"android": "https://dc.lft.to/lastmile_qr_scan", "ios": "https://dc.lft.to/lastmile_qr_scan"}, "fusion_lon": 0.0, "lat": 38.85893866666667, "type": "electric_scooter", "fusion_lat": 0.0, "bike_id": "3ee561282238d57259cb73f1663b59eb"}, {"name": "c233ec6b45c723f3e41e6bd692d27545", "is_reserved": 0, "is_disabled": 0, "lon": -77.000559, "rental_uris": {"android": "https://dc.lft.to/lastmile_qr_scan", "ios": "https://dc.lft.to/lastmile_qr_scan"}, "fusion_lon": 0.0, "lat": 38.8765395, "type": "electric_scooter", "fusion_lat": 0.0, "bike_id": "c233ec6b45c723f3e41e6bd692d27545"}, {"name": "107204c206cd53686fdfb547c99a0bd0", "is_reserved": 0, "is_disabled": 0, "lon": -77.032848, "rental_uris": {"android": "https://dc.lft.to/lastmile_qr_scan", "ios": "https://dc.lft.to/lastmile_qr_scan"}, "fusion_lon": 0.0, "lat": 38.93447916666667, "type": "electric_scooter", "fusion_lat": 0.0, "bike_id": "107204c206cd53686fdfb547c99a0bd0"}, {"name": "3488c616bfc889901b9c2c3fa588ee04", "is_reserved": 0, "is_disabled": 0, "lon": -77.04404133333334, "rental_uris": {"android": "https://dc.lft.to/lastmile_qr_scan", "ios": "https://dc.lft.to/lastmile_qr_scan"}, "fusion_lon": 0.0, "lat": 38.92950416666667, "type": "electric_scooter", "fusion_lat": 0.0, "bike_id": "3488c616bfc889901b9c2c3fa588ee04"}, {"name": "0fba54163873bbb85ea91cf66e02bedd", "is_reserved": 0, "is_disabled": 0, "lon": -77.03178, "rental_uris": {"android": "https://dc.lft.to/lastmile_qr_scan", "ios": "https://dc.lft.to/lastmile_qr_scan"}, "fusion_lon": 0.0, "lat": 38.92909916666667, "type": "electric_scooter", "fusion_lat": 0.0, "bike_id": "0fba54163873bbb85ea91cf66e02bedd"}, {"name": "7b9fca8475e63899a61c41a47017eca3", "is_reserved": 0, "is_disabled": 0, "lon": -77.00182416666667, "rental_uris": {"android": "https://dc.lft.to/lastmile_qr_scan", "ios": "https://dc.lft.to/lastmile_qr_scan"}, "fusion_lon": 0.0, "lat": 38.9003545, "type": "electric_scooter", "fusion_lat": 0.0, "bike_id": "7b9fca8475e63899a61c41a47017eca3"}, {"name": "3d3c5596d977c488c3213671f6732369", "is_reserved": 0, "is_disabled": 0, "lon": -76.974375, "rental_uris": {"android": "https://dc.lft.to/lastmile_qr_scan", "ios": "https://dc.lft.to/lastmile_qr_scan"}, "fusion_lon": 0.0, "lat": 38.86404916666667, "type": "electric_scooter", "fusion_lat": 0.0, "bike_id": "3d3c5596d977c488c3213671f6732369"}, {"name": "0791737c3c78a64243762f3a2445b362", "is_reserved": 0, "is_disabled": 0, "lon": -77.02053316666667, "rental_uris": {"android": "https://dc.lft.to/lastmile_qr_scan", "ios": "https://dc.lft.to/lastmile_qr_scan"}, "fusion_lon": 0.0, "lat": 38.9412205, "type": "electric_scooter", "fusion_lat": 0.0, "bike_id": "0791737c3c78a64243762f3a2445b362"}, {"name": "4f8c399dd34abd2c32b09d9a0961c6ec", "is_reserved": 0, "is_disabled": 0, "lon": -76.98361216666666, "rental_uris": {"android": "https://dc.lft.to/lastmile_qr_scan", "ios": "https://dc.lft.to/lastmile_qr_scan"}, "fusion_lon": 0.0, "lat": 38.91485133333333, "type": "electric_scooter", "fusion_lat": 0.0, "bike_id": "4f8c399dd34abd2c32b09d9a0961c6ec"}, {"name": "3acf9d1c7a224255f2ffd3d25368b309", "is_reserved": 0, "is_disabled": 0, "lon": -77.04981183333334, "rental_uris": {"android": "https://dc.lft.to/lastmile_qr_scan", "ios": "https://dc.lft.to/lastmile_qr_scan"}, "fusion_lon": 0.0, "lat": 38.992481833333336, "type": "electric_bike", "fusion_lat": 0.0, "bike_id": "3acf9d1c7a224255f2ffd3d25368b309"}, {"name": "1f3e51763a8d6ee346a8915d482ca30d", "is_reserved": 0, "is_disabled": 0, "lon": -77.19547, "rental_uris": {"android": "https://dc.lft.to/lastmile_qr_scan", "ios": "https://dc.lft.to/lastmile_qr_scan"}, "fusion_lon": 0.0, "lat": 39.11506466666667, "type": "electric_bike", "fusion_lat": 0.0, "bike_id": "1f3e51763a8d6ee346a8915d482ca30d"}, {"name": "f8904f53747a4049080443df38fce22c", "is_reserved": 0, "is_disabled": 0, "lon": -77.01577233333333, "rental_uris": {"android": "https://dc.lft.to/lastmile_qr_scan", "ios": "https://dc.lft.to/lastmile_qr_scan"}, "fusion_lon": 0.0, "lat": 38.95322616666667, "type": "electric_bike", "fusion_lat": 0.0, "bike_id": "f8904f53747a4049080443df38fce22c"}, {"name": "4e7a46a31755d256cdacedb64ffbea53", "is_reserved": 0, "is_disabled": 0, "lon": -77.00922116666666, "rental_uris": {"android": "https://dc.lft.to/lastmile_qr_scan", "ios": "https://dc.lft.to/lastmile_qr_scan"}, "fusion_lon": 0.0, "lat": 38.87635983333333, "type": "electric_scooter", "fusion_lat": 0.0, "bike_id": "4e7a46a31755d256cdacedb64ffbea53"}, {"name": "f470d3c79bf4a1c1e1234321fa80bfec", "is_reserved": 0, "is_disabled": 0, "lon": -76.983397, "rental_uris": {"android": "https://dc.lft.to/lastmile_qr_scan", "ios": "https://dc.lft.to/lastmile_qr_scan"}, "fusion_lon": 0.0, "lat": 38.895452666666664, "type": "electric_scooter", "fusion_lat": 0.0, "bike_id": "f470d3c79bf4a1c1e1234321fa80bfec"}, {"name": "23b5d16de5ca1867c40bd31a8832e334", "is_reserved": 0, "is_disabled": 0, "lon": -77.04674633333333, "rental_uris": {"android": "https://dc.lft.to/lastmile_qr_scan", "ios": "https://dc.lft.to/lastmile_qr_scan"}, "fusion_lon": 0.0, "lat": 38.915667, "type": "electric_scooter", "fusion_lat": 0.0, "bike_id": "23b5d16de5ca1867c40bd31a8832e334"}, {"name": "5fddff000c8af32073d9ae7197681a65", "is_reserved": 0, "is_disabled": 0, "lon": -76.9670185, "rental_uris": {"android": "https://dc.lft.to/lastmile_qr_scan", "ios": "https://dc.lft.to/lastmile_qr_scan"}, "fusion_lon": 0.0, "lat": 38.868522666666664, "type": "electric_bike", "fusion_lat": 0.0, "bike_id": "5fddff000c8af32073d9ae7197681a65"}, {"name": "1dd37e4ef847524bfbb754e7655b230c", "is_reserved": 0, "is_disabled": 0, "lon": -77.0798925, "rental_uris": {"android": "https://dc.lft.to/lastmile_qr_scan", "ios": "https://dc.lft.to/lastmile_qr_scan"}, "fusion_lon": 0.0, "lat": 38.948080166666664, "type": "electric_scooter", "fusion_lat": 0.0, "bike_id": "1dd37e4ef847524bfbb754e7655b230c"}, {"name": "646bec586cc86e576748616e038c253c", "is_reserved": 0, "is_disabled": 0, "lon": -77.06518966666667, "rental_uris": {"android": "https://dc.lft.to/lastmile_qr_scan", "ios": "https://dc.lft.to/lastmile_qr_scan"}, "fusion_lon": 0.0, "lat": 38.905333166666665, "type": "electric_scooter", "fusion_lat": 0.0, "bike_id": "646bec586cc86e576748616e038c253c"}, {"name": "67eb1c80d1b421e6456d64f81771359c", "is_reserved": 0, "is_disabled": 0, "lon": -77.01771583333333, "rental_uris": {"android": "https://dc.lft.to/lastmile_qr_scan", "ios": "https://dc.lft.to/lastmile_qr_scan"}, "fusion_lon": 0.0, "lat": 38.878036333333334, "type": "electric_scooter", "fusion_lat": 0.0, "bike_id": "67eb1c80d1b421e6456d64f81771359c"}, {"name": "998618ecc528df2c101a1e450ee49b2b", "is_reserved": 0, "is_disabled": 0, "lon": -77.00334266666667, "rental_uris": {"android": "https://dc.lft.to/lastmile_qr_scan", "ios": "https://dc.lft.to/lastmile_qr_scan"}, "fusion_lon": 0.0, "lat": 38.89511066666667, "type": "electric_scooter", "fusion_lat": 0.0, "bike_id": "998618ecc528df2c101a1e450ee49b2b"}, {"name": "4e336ece848696528af9c74b32423d6b", "is_reserved": 0, "is_disabled": 0, "lon": -77.0042105, "rental_uris": {"android": "https://dc.lft.to/lastmile_qr_scan", "ios": "https://dc.lft.to/lastmile_qr_scan"}, "fusion_lon": 0.0, "lat": 38.876566333333336, "type": "electric_scooter", "fusion_lat": 0.0, "bike_id": "4e336ece848696528af9c74b32423d6b"}, {"name": "8043e82cbd20f628752e1b6cb3aef177", "is_reserved": 0, "is_disabled": 0, "lon": -77.01456183333333, "rental_uris": {"android": "https://dc.lft.to/lastmile_qr_scan", "ios": "https://dc.lft.to/lastmile_qr_scan"}, "fusion_lon": 0.0, "lat": 38.867983833333334, "type": "electric_bike", "fusion_lat": 0.0, "bike_id": "8043e82cbd20f628752e1b6cb3aef177"}, {"name": "bc0fb5fae723bc89e77e13a748c2dda8", "is_reserved": 0, "is_disabled": 0, "lon": -77.03688733333334, "rental_uris": {"android": "https://dc.lft.to/lastmile_qr_scan", "ios": "https://dc.lft.to/lastmile_qr_scan"}, "fusion_lon": 0.0, "lat": 38.91680616666667, "type": "electric_scooter", "fusion_lat": 0.0, "bike_id": "bc0fb5fae723bc89e77e13a748c2dda8"}, {"name": "40d574d32038f37b699270f98e523951", "is_reserved": 0, "is_disabled": 0, "lon": -77.03271983333333, "rental_uris": {"android": "https://dc.lft.to/lastmile_qr_scan", "ios": "https://dc.lft.to/lastmile_qr_scan"}, "fusion_lon": 0.0, "lat": 38.92854283333333, "type": "electric_scooter", "fusion_lat": 0.0, "bike_id": "40d574d32038f37b699270f98e523951"}, {"name": "c1ea49c16bc30319e64fb9bb6f4af2e1", "is_reserved": 0, "is_disabled": 0, "lon": -77.03218483333333, "rental_uris": {"android": "https://dc.lft.to/lastmile_qr_scan", "ios": "https://dc.lft.to/lastmile_qr_scan"}, "fusion_lon": 0.0, "lat": 38.8922425, "type": "electric_scooter", "fusion_lat": 0.0, "bike_id": "c1ea49c16bc30319e64fb9bb6f4af2e1"}, {"name": "761fc07cb9f338cdf12c5f76d8a272cf", "is_reserved": 0, "is_disabled": 0, "lon": -77.00761266666666, "rental_uris": {"android": "https://dc.lft.to/lastmile_qr_scan", "ios": "https://dc.lft.to/lastmile_qr_scan"}, "fusion_lon": 0.0, "lat": 38.907363833333335, "type": "electric_scooter", "fusion_lat": 0.0, "bike_id": "761fc07cb9f338cdf12c5f76d8a272cf"}, {"name": "815092ca29ef0c0e10ba01ece920c1b0", "is_reserved": 0, "is_disabled": 0, "lon": -77.011124, "rental_uris": {"android": "https://dc.lft.to/lastmile_qr_scan", "ios": "https://dc.lft.to/lastmile_qr_scan"}, "fusion_lon": 0.0, "lat": 38.8959905, "type": "electric_scooter", "fusion_lat": 0.0, "bike_id": "815092ca29ef0c0e10ba01ece920c1b0"}, {"name": "28c09929d5cee8729cb4d00632b4d1ec", "is_reserved": 0, "is_disabled": 0, "lon": -77.03517016666666, "rental_uris": {"android": "https://dc.lft.to/lastmile_qr_scan", "ios": "https://dc.lft.to/lastmile_qr_scan"}, "fusion_lon": 0.0, "lat": 38.9225985, "type": "electric_scooter", "fusion_lat": 0.0, "bike_id": "28c09929d5cee8729cb4d00632b4d1ec"}, {"name": "4e995aa4c4d58ed70fb7a4ea4519f0e2", "is_reserved": 0, "is_disabled": 0, "lon": -77.0209305, "rental_uris": {"android": "https://dc.lft.to/lastmile_qr_scan", "ios": "https://dc.lft.to/lastmile_qr_scan"}, "fusion_lon": 0.0, "lat": 38.92911866666667, "type": "electric_scooter", "fusion_lat": 0.0, "bike_id": "4e995aa4c4d58ed70fb7a4ea4519f0e2"}, {"name": "82aa08f8f15f7ee4bf2c96da89194d38", "is_reserved": 0, "is_disabled": 0, "lon": -77.040314, "rental_uris": {"android": "https://dc.lft.to/lastmile_qr_scan", "ios": "https://dc.lft.to/lastmile_qr_scan"}, "fusion_lon": 0.0, "lat": 38.905561, "type": "electric_scooter", "fusion_lat": 0.0, "bike_id": "82aa08f8f15f7ee4bf2c96da89194d38"}, {"name": "9b31bad6ef63e5f3c32cb44f2261c8a9", "is_reserved": 0, "is_disabled": 0, "lon": -77.07707, "rental_uris": {"android": "https://dc.lft.to/lastmile_qr_scan", "ios": "https://dc.lft.to/lastmile_qr_scan"}, "fusion_lon": 0.0, "lat": 38.942933, "type": "electric_scooter", "fusion_lat": 0.0, "bike_id": "9b31bad6ef63e5f3c32cb44f2261c8a9"}, {"name": "59198963d512ec93b1ce5b8905bc76e0", "is_reserved": 0, "is_disabled": 0, "lon": -76.985426, "rental_uris": {"android": "https://dc.lft.to/lastmile_qr_scan", "ios": "https://dc.lft.to/lastmile_qr_scan"}, "fusion_lon": 0.0, "lat": 38.88597033333333, "type": "electric_scooter", "fusion_lat": 0.0, "bike_id": "59198963d512ec93b1ce5b8905bc76e0"}, {"name": "df8c2b7f2e3666995d55627e294da9bd", "is_reserved": 0, "is_disabled": 0, "lon": -77.0269425, "rental_uris": {"android": "https://dc.lft.to/lastmile_qr_scan", "ios": "https://dc.lft.to/lastmile_qr_scan"}, "fusion_lon": 0.0, "lat": 38.908461333333335, "type": "electric_scooter", "fusion_lat": 0.0, "bike_id": "df8c2b7f2e3666995d55627e294da9bd"}, {"name": "9ce7e55162ee0c709de34e927c7f2642", "is_reserved": 0, "is_disabled": 0, "lon": -77.04705616666666, "rental_uris": {"android": "https://dc.lft.to/lastmile_qr_scan", "ios": "https://dc.lft.to/lastmile_qr_scan"}, "fusion_lon": 0.0, "lat": 38.91268733333333, "type": "electric_scooter", "fusion_lat": 0.0, "bike_id": "9ce7e55162ee0c709de34e927c7f2642"}, {"name": "c521d89f902106b0200c260518bf256e", "is_reserved": 0, "is_disabled": 0, "lon": -76.98848783333334, "rental_uris": {"android": "https://dc.lft.to/lastmile_qr_scan", "ios": "https://dc.lft.to/lastmile_qr_scan"}, "fusion_lon": 0.0, "lat": 38.901944, "type": "electric_scooter", "fusion_lat": 0.0, "bike_id": "c521d89f902106b0200c260518bf256e"}, {"name": "efa652771bd8cb5b356e940ce2cb5d56", "is_reserved": 0, "is_disabled": 0, "lon": -76.93743216666667, "rental_uris": {"android": "https://dc.lft.to/lastmile_qr_scan", "ios": "https://dc.lft.to/lastmile_qr_scan"}, "fusion_lon": 0.0, "lat": 38.89015333333333, "type": "electric_scooter", "fusion_lat": 0.0, "bike_id": "efa652771bd8cb5b356e940ce2cb5d56"}, {"name": "bacaa72028c3121daa54dc8ff6ea99cc", "is_reserved": 0, "is_disabled": 0, "lon": -77.04245583333334, "rental_uris": {"android": "https://dc.lft.to/lastmile_qr_scan", "ios": "https://dc.lft.to/lastmile_qr_scan"}, "fusion_lon": 0.0, "lat": 38.91779233333333, "type": "electric_scooter", "fusion_lat": 0.0, "bike_id": "bacaa72028c3121daa54dc8ff6ea99cc"}, {"name": "a782674eb836fecd4aff80c590461832", "is_reserved": 0, "is_disabled": 0, "lon": -77.0333275, "rental_uris": {"android": "https://dc.lft.to/lastmile_qr_scan", "ios": "https://dc.lft.to/lastmile_qr_scan"}, "fusion_lon": 0.0, "lat": 38.92867533333333, "type": "electric_scooter", "fusion_lat": 0.0, "bike_id": "a782674eb836fecd4aff80c590461832"}, {"name": "4718b1e533dbe455fafa607bb20070a6", "is_reserved": 0, "is_disabled": 0, "lon": -77.02164416666666, "rental_uris": {"android": "https://dc.lft.to/lastmile_qr_scan", "ios": "https://dc.lft.to/lastmile_qr_scan"}, "fusion_lon": 0.0, "lat": 38.89729083333334, "type": "electric_scooter", "fusion_lat": 0.0, "bike_id": "4718b1e533dbe455fafa607bb20070a6"}, {"name": "762c0ec4ac9e9215612a40dc84b63e33", "is_reserved": 0, "is_disabled": 0, "lon": -76.9987135, "rental_uris": {"android": "https://dc.lft.to/lastmile_qr_scan", "ios": "https://dc.lft.to/lastmile_qr_scan"}, "fusion_lon": 0.0, "lat": 38.92058133333333, "type": "electric_scooter", "fusion_lat": 0.0, "bike_id": "762c0ec4ac9e9215612a40dc84b63e33"}, {"name": "bad091ffe08c7f97ece0bda2fa2e9ba2", "is_reserved": 0, "is_disabled": 0, "lon": -76.9488765, "rental_uris": {"android": "https://dc.lft.to/lastmile_qr_scan", "ios": "https://dc.lft.to/lastmile_qr_scan"}, "fusion_lon": 0.0, "lat": 38.89513783333334, "type": "electric_scooter", "fusion_lat": 0.0, "bike_id": "bad091ffe08c7f97ece0bda2fa2e9ba2"}, {"name": "be93ba1a5850e923c1ef4ced5556af0a", "is_reserved": 0, "is_disabled": 0, "lon": -77.02211433333333, "rental_uris": {"android": "https://dc.lft.to/lastmile_qr_scan", "ios": "https://dc.lft.to/lastmile_qr_scan"}, "fusion_lon": 0.0, "lat": 38.905451666666664, "type": "electric_scooter", "fusion_lat": 0.0, "bike_id": "be93ba1a5850e923c1ef4ced5556af0a"}, {"name": "b05088265bc84c121e2d7c991e5c3257", "is_reserved": 0, "is_disabled": 0, "lon": -77.04228716666667, "rental_uris": {"android": "https://dc.lft.to/lastmile_qr_scan", "ios": "https://dc.lft.to/lastmile_qr_scan"}, "fusion_lon": 0.0, "lat": 38.92174966666666, "type": "electric_scooter", "fusion_lat": 0.0, "bike_id": "b05088265bc84c121e2d7c991e5c3257"}, {"name": "45036f75dc6a5721b76f049dacd0fad3", "is_reserved": 0, "is_disabled": 0, "lon": -77.041763, "rental_uris": {"android": "https://dc.lft.to/lastmile_qr_scan", "ios": "https://dc.lft.to/lastmile_qr_scan"}, "fusion_lon": 0.0, "lat": 38.91413766666667, "type": "electric_scooter", "fusion_lat": 0.0, "bike_id": "45036f75dc6a5721b76f049dacd0fad3"}, {"name": "9832840001e3712cbbc613948d5909d5", "is_reserved": 0, "is_disabled": 0, "lon": -77.00517216666667, "rental_uris": {"android": "https://dc.lft.to/lastmile_qr_scan", "ios": "https://dc.lft.to/lastmile_qr_scan"}, "fusion_lon": 0.0, "lat": 38.87472066666667, "type": "electric_scooter", "fusion_lat": 0.0, "bike_id": "9832840001e3712cbbc613948d5909d5"}, {"name": "6292d7a97c365e75ac1e9f39bef9fa20", "is_reserved": 0, "is_disabled": 0, "lon": -77.0390805, "rental_uris": {"android": "https://dc.lft.to/lastmile_qr_scan", "ios": "https://dc.lft.to/lastmile_qr_scan"}, "fusion_lon": 0.0, "lat": 38.9232205, "type": "electric_scooter", "fusion_lat": 0.0, "bike_id": "6292d7a97c365e75ac1e9f39bef9fa20"}, {"name": "7a16614b68c04a2c23f78291883d3e1c", "is_reserved": 0, "is_disabled": 0, "lon": -76.99514433333333, "rental_uris": {"android": "https://dc.lft.to/lastmile_qr_scan", "ios": "https://dc.lft.to/lastmile_qr_scan"}, "fusion_lon": 0.0, "lat": 38.895507333333335, "type": "electric_scooter", "fusion_lat": 0.0, "bike_id": "7a16614b68c04a2c23f78291883d3e1c"}, {"name": "39bd4610445bbd7b281ddd3ed1e9f44f", "is_reserved": 0, "is_disabled": 0, "lon": -76.99119566666667, "rental_uris": {"android": "https://dc.lft.to/lastmile_qr_scan", "ios": "https://dc.lft.to/lastmile_qr_scan"}, "fusion_lon": 0.0, "lat": 38.93384783333333, "type": "electric_scooter", "fusion_lat": 0.0, "bike_id": "39bd4610445bbd7b281ddd3ed1e9f44f"}, {"name": "50eed8320bd5fc23a4a9753fee5991c2", "is_reserved": 0, "is_disabled": 0, "lon": -77.01729566666667, "rental_uris": {"android": "https://dc.lft.to/lastmile_qr_scan", "ios": "https://dc.lft.to/lastmile_qr_scan"}, "fusion_lon": 0.0, "lat": 38.877034333333334, "type": "electric_scooter", "fusion_lat": 0.0, "bike_id": "50eed8320bd5fc23a4a9753fee5991c2"}, {"name": "5851daa0c4afff2913ee854912c1b41b", "is_reserved": 0, "is_disabled": 0, "lon": -77.00281966666667, "rental_uris": {"android": "https://dc.lft.to/lastmile_qr_scan", "ios": "https://dc.lft.to/lastmile_qr_scan"}, "fusion_lon": 0.0, "lat": 38.93919533333333, "type": "electric_scooter", "fusion_lat": 0.0, "bike_id": "5851daa0c4afff2913ee854912c1b41b"}, {"name": "84995c1bdc15391b5556e71ba866d522", "is_reserved": 0, "is_disabled": 0, "lon": -77.03037633333334, "rental_uris": {"android": "https://dc.lft.to/lastmile_qr_scan", "ios": "https://dc.lft.to/lastmile_qr_scan"}, "fusion_lon": 0.0, "lat": 38.922405833333336, "type": "electric_scooter", "fusion_lat": 0.0, "bike_id": "84995c1bdc15391b5556e71ba866d522"}, {"name": "59a4e9b5b16f7729c02fd3a3f5c22590", "is_reserved": 0, "is_disabled": 0, "lon": -77.0271605, "rental_uris": {"android": "https://dc.lft.to/lastmile_qr_scan", "ios": "https://dc.lft.to/lastmile_qr_scan"}, "fusion_lon": 0.0, "lat": 38.90749316666667, "type": "electric_scooter", "fusion_lat": 0.0, "bike_id": "59a4e9b5b16f7729c02fd3a3f5c22590"}, {"name": "9d87d75e8c995ad81823a3702d585d8c", "is_reserved": 0, "is_disabled": 0, "lon": -76.90816216666667, "rental_uris": {"android": "https://dc.lft.to/lastmile_qr_scan", "ios": "https://dc.lft.to/lastmile_qr_scan"}, "fusion_lon": 0.0, "lat": 38.99454083333333, "type": "electric_bike", "fusion_lat": 0.0, "bike_id": "9d87d75e8c995ad81823a3702d585d8c"}, {"name": "e1e73070ca6bc5368f21e9978737e49e", "is_reserved": 0, "is_disabled": 0, "lon": -77.0623395, "rental_uris": {"android": "https://dc.lft.to/lastmile_qr_scan", "ios": "https://dc.lft.to/lastmile_qr_scan"}, "fusion_lon": 0.0, "lat": 38.905268, "type": "electric_scooter", "fusion_lat": 0.0, "bike_id": "e1e73070ca6bc5368f21e9978737e49e"}, {"name": "28160f0d3ae9d8ea96e3b7ac074d1b42", "is_reserved": 0, "is_disabled": 0, "lon": -76.978939, "rental_uris": {"android": "https://dc.lft.to/lastmile_qr_scan", "ios": "https://dc.lft.to/lastmile_qr_scan"}, "fusion_lon": 0.0, "lat": 38.85491716666667, "type": "electric_bike", "fusion_lat": 0.0, "bike_id": "28160f0d3ae9d8ea96e3b7ac074d1b42"}, {"name": "e92477c894da49a2731708a46a47e965", "is_reserved": 0, "is_disabled": 0, "lon": -77.03623083333333, "rental_uris": {"android": "https://dc.lft.to/lastmile_qr_scan", "ios": "https://dc.lft.to/lastmile_qr_scan"}, "fusion_lon": 0.0, "lat": 38.9528745, "type": "electric_scooter", "fusion_lat": 0.0, "bike_id": "e92477c894da49a2731708a46a47e965"}, {"name": "99ec8592d1c218b8cf7f2006b2e5e6a6", "is_reserved": 0, "is_disabled": 0, "lon": -77.1017265, "rental_uris": {"android": "https://dc.lft.to/lastmile_qr_scan", "ios": "https://dc.lft.to/lastmile_qr_scan"}, "fusion_lon": 0.0, "lat": 38.925484166666664, "type": "electric_scooter", "fusion_lat": 0.0, "bike_id": "99ec8592d1c218b8cf7f2006b2e5e6a6"}, {"name": "fab9fa8543aaba6dd3a3ea58026a1a5c", "is_reserved": 0, "is_disabled": 0, "lon": -76.99459066666667, "rental_uris": {"android": "https://dc.lft.to/lastmile_qr_scan", "ios": "https://dc.lft.to/lastmile_qr_scan"}, "fusion_lon": 0.0, "lat": 38.862233333333336, "type": "electric_scooter", "fusion_lat": 0.0, "bike_id": "fab9fa8543aaba6dd3a3ea58026a1a5c"}, {"name": "21867819eaab869025dfea6263503777", "is_reserved": 0, "is_disabled": 0, "lon": -76.987181, "rental_uris": {"android": "https://dc.lft.to/lastmile_qr_scan", "ios": "https://dc.lft.to/lastmile_qr_scan"}, "fusion_lon": 0.0, "lat": 38.8992915, "type": "electric_scooter", "fusion_lat": 0.0, "bike_id": "21867819eaab869025dfea6263503777"}, {"name": "3db611263d5aee5608f88122a1ede7a5", "is_reserved": 0, "is_disabled": 0, "lon": -77.03295366666667, "rental_uris": {"android": "https://dc.lft.to/lastmile_qr_scan", "ios": "https://dc.lft.to/lastmile_qr_scan"}, "fusion_lon": 0.0, "lat": 38.9564375, "type": "electric_scooter", "fusion_lat": 0.0, "bike_id": "3db611263d5aee5608f88122a1ede7a5"}, {"name": "50693c85e19f389c32f55fe05b0a8228", "is_reserved": 0, "is_disabled": 0, "lon": -77.02481416666667, "rental_uris": {"android": "https://dc.lft.to/lastmile_qr_scan", "ios": "https://dc.lft.to/lastmile_qr_scan"}, "fusion_lon": 0.0, "lat": 38.938798166666665, "type": "electric_scooter", "fusion_lat": 0.0, "bike_id": "50693c85e19f389c32f55fe05b0a8228"}, {"name": "d510707643a794cd4fa0bcd7dd8cd705", "is_reserved": 0, "is_disabled": 0, "lon": -76.9553525, "rental_uris": {"android": "https://dc.lft.to/lastmile_qr_scan", "ios": "https://dc.lft.to/lastmile_qr_scan"}, "fusion_lon": 0.0, "lat": 38.88767333333333, "type": "electric_scooter", "fusion_lat": 0.0, "bike_id": "d510707643a794cd4fa0bcd7dd8cd705"}, {"name": "acf152cf7d039aa46a47cfdadbf03637", "is_reserved": 0, "is_disabled": 0, "lon": -76.97548516666667, "rental_uris": {"android": "https://dc.lft.to/lastmile_qr_scan", "ios": "https://dc.lft.to/lastmile_qr_scan"}, "fusion_lon": 0.0, "lat": 38.90260683333333, "type": "electric_scooter", "fusion_lat": 0.0, "bike_id": "acf152cf7d039aa46a47cfdadbf03637"}, {"name": "11b0e73d03a0315679f76806f2cca01c", "is_reserved": 0, "is_disabled": 0, "lon": -77.05263383333333, "rental_uris": {"android": "https://dc.lft.to/lastmile_qr_scan", "ios": "https://dc.lft.to/lastmile_qr_scan"}, "fusion_lon": 0.0, "lat": 38.925707833333334, "type": "electric_scooter", "fusion_lat": 0.0, "bike_id": "11b0e73d03a0315679f76806f2cca01c"}, {"name": "ccfd778a932028f472571fc01e8ae734", "is_reserved": 0, "is_disabled": 0, "lon": -77.039848, "rental_uris": {"android": "https://dc.lft.to/lastmile_qr_scan", "ios": "https://dc.lft.to/lastmile_qr_scan"}, "fusion_lon": 0.0, "lat": 38.80297516666667, "type": "electric_bike", "fusion_lat": 0.0, "bike_id": "ccfd778a932028f472571fc01e8ae734"}, {"name": "afaf915af27be044932ad05a649ede9f", "is_reserved": 0, "is_disabled": 0, "lon": -77.015659, "rental_uris": {"android": "https://dc.lft.to/lastmile_qr_scan", "ios": "https://dc.lft.to/lastmile_qr_scan"}, "fusion_lon": 0.0, "lat": 38.87261083333333, "type": "electric_scooter", "fusion_lat": 0.0, "bike_id": "afaf915af27be044932ad05a649ede9f"}, {"name": "3fe027898efafc71a143748ef6aab1ce", "is_reserved": 0, "is_disabled": 0, "lon": -77.01427166666667, "rental_uris": {"android": "https://dc.lft.to/lastmile_qr_scan", "ios": "https://dc.lft.to/lastmile_qr_scan"}, "fusion_lon": 0.0, "lat": 38.97219583333333, "type": "electric_bike", "fusion_lat": 0.0, "bike_id": "3fe027898efafc71a143748ef6aab1ce"}, {"name": "067753a18a4cb6c0ac476c30001b457e", "is_reserved": 0, "is_disabled": 0, "lon": -76.98932333333333, "rental_uris": {"android": "https://dc.lft.to/lastmile_qr_scan", "ios": "https://dc.lft.to/lastmile_qr_scan"}, "fusion_lon": 0.0, "lat": 38.865889333333335, "type": "electric_scooter", "fusion_lat": 0.0, "bike_id": "067753a18a4cb6c0ac476c30001b457e"}, {"name": "5dc88236cc7c44bf9a24911767c87369", "is_reserved": 0, "is_disabled": 0, "lon": -77.03910683333334, "rental_uris": {"android": "https://dc.lft.to/lastmile_qr_scan", "ios": "https://dc.lft.to/lastmile_qr_scan"}, "fusion_lon": 0.0, "lat": 38.9126275, "type": "electric_scooter", "fusion_lat": 0.0, "bike_id": "5dc88236cc7c44bf9a24911767c87369"}, {"name": "025b827a8a8328d1635382a6dd5e23b8", "is_reserved": 0, "is_disabled": 0, "lon": -76.9948955, "rental_uris": {"android": "https://dc.lft.to/lastmile_qr_scan", "ios": "https://dc.lft.to/lastmile_qr_scan"}, "fusion_lon": 0.0, "lat": 38.925792, "type": "electric_scooter", "fusion_lat": 0.0, "bike_id": "025b827a8a8328d1635382a6dd5e23b8"}, {"name": "4dfe27b4bd8926ab5f5840d55d0edebe", "is_reserved": 0, "is_disabled": 0, "lon": -77.0324135, "rental_uris": {"android": "https://dc.lft.to/lastmile_qr_scan", "ios": "https://dc.lft.to/lastmile_qr_scan"}, "fusion_lon": 0.0, "lat": 38.93026483333333, "type": "electric_scooter", "fusion_lat": 0.0, "bike_id": "4dfe27b4bd8926ab5f5840d55d0edebe"}, {"name": "00a4354b61a7bea2967ae9cf52392ab8", "is_reserved": 0, "is_disabled": 0, "lon": -77.04333716666666, "rental_uris": {"android": "https://dc.lft.to/lastmile_qr_scan", "ios": "https://dc.lft.to/lastmile_qr_scan"}, "fusion_lon": 0.0, "lat": 38.90516233333334, "type": "electric_scooter", "fusion_lat": 0.0, "bike_id": "00a4354b61a7bea2967ae9cf52392ab8"}, {"name": "faa6f0af34f46c02f4242bfff2e60553", "is_reserved": 0, "is_disabled": 0, "lon": -77.00548366666666, "rental_uris": {"android": "https://dc.lft.to/lastmile_qr_scan", "ios": "https://dc.lft.to/lastmile_qr_scan"}, "fusion_lon": 0.0, "lat": 38.905763666666665, "type": "electric_scooter", "fusion_lat": 0.0, "bike_id": "faa6f0af34f46c02f4242bfff2e60553"}, {"name": "6661858d7d731de30e487f5d2e9de804", "is_reserved": 0, "is_disabled": 0, "lon": -77.02278033333333, "rental_uris": {"android": "https://dc.lft.to/lastmile_qr_scan", "ios": "https://dc.lft.to/lastmile_qr_scan"}, "fusion_lon": 0.0, "lat": 38.92684883333333, "type": "electric_scooter", "fusion_lat": 0.0, "bike_id": "6661858d7d731de30e487f5d2e9de804"}, {"name": "0d50c13e50df3b7eee9447028b7a0ffe", "is_reserved": 0, "is_disabled": 0, "lon": -76.996232, "rental_uris": {"android": "https://dc.lft.to/lastmile_qr_scan", "ios": "https://dc.lft.to/lastmile_qr_scan"}, "fusion_lon": 0.0, "lat": 38.88031816666667, "type": "electric_scooter", "fusion_lat": 0.0, "bike_id": "0d50c13e50df3b7eee9447028b7a0ffe"}, {"name": "24e4ddf28fbbdfb17ce74245a0d37926", "is_reserved": 0, "is_disabled": 0, "lon": -77.03162866666666, "rental_uris": {"android": "https://dc.lft.to/lastmile_qr_scan", "ios": "https://dc.lft.to/lastmile_qr_scan"}, "fusion_lon": 0.0, "lat": 38.90442433333333, "type": "electric_scooter", "fusion_lat": 0.0, "bike_id": "24e4ddf28fbbdfb17ce74245a0d37926"}, {"name": "08fe5f5b359600a963995f4d0184b1a8", "is_reserved": 0, "is_disabled": 0, "lon": -76.98877416666667, "rental_uris": {"android": "https://dc.lft.to/lastmile_qr_scan", "ios": "https://dc.lft.to/lastmile_qr_scan"}, "fusion_lon": 0.0, "lat": 38.902132333333334, "type": "electric_scooter", "fusion_lat": 0.0, "bike_id": "08fe5f5b359600a963995f4d0184b1a8"}, {"name": "4c118f235101feb26deb5eda3a519ff9", "is_reserved": 0, "is_disabled": 0, "lon": -77.01563533333334, "rental_uris": {"android": "https://dc.lft.to/lastmile_qr_scan", "ios": "https://dc.lft.to/lastmile_qr_scan"}, "fusion_lon": 0.0, "lat": 38.902609, "type": "electric_scooter", "fusion_lat": 0.0, "bike_id": "4c118f235101feb26deb5eda3a519ff9"}, {"name": "e0cea7918a7c4ac07bd9ada015e8df73", "is_reserved": 0, "is_disabled": 0, "lon": -77.08931533333333, "rental_uris": {"android": "https://dc.lft.to/lastmile_qr_scan", "ios": "https://dc.lft.to/lastmile_qr_scan"}, "fusion_lon": 0.0, "lat": 38.8410405, "type": "electric_bike", "fusion_lat": 0.0, "bike_id": "e0cea7918a7c4ac07bd9ada015e8df73"}, {"name": "e2eef0e9cecbf3dcd07cb1ab6659893f", "is_reserved": 0, "is_disabled": 0, "lon": -76.94769916666667, "rental_uris": {"android": "https://dc.lft.to/lastmile_qr_scan", "ios": "https://dc.lft.to/lastmile_qr_scan"}, "fusion_lon": 0.0, "lat": 38.89630666666667, "type": "electric_scooter", "fusion_lat": 0.0, "bike_id": "e2eef0e9cecbf3dcd07cb1ab6659893f"}, {"name": "72785d1160867009e19a72df63311273", "is_reserved": 0, "is_disabled": 0, "lon": -77.032806, "rental_uris": {"android": "https://dc.lft.to/lastmile_qr_scan", "ios": "https://dc.lft.to/lastmile_qr_scan"}, "fusion_lon": 0.0, "lat": 38.956517166666664, "type": "electric_scooter", "fusion_lat": 0.0, "bike_id": "72785d1160867009e19a72df63311273"}, {"name": "045b7437e0627a239411ea759b6cab33", "is_reserved": 0, "is_disabled": 0, "lon": -76.97616, "rental_uris": {"android": "https://dc.lft.to/lastmile_qr_scan", "ios": "https://dc.lft.to/lastmile_qr_scan"}, "fusion_lon": 0.0, "lat": 38.892930666666665, "type": "electric_bike", "fusion_lat": 0.0, "bike_id": "045b7437e0627a239411ea759b6cab33"}, {"name": "a849ba6cfc0645f8169384997cab74e7", "is_reserved": 0, "is_disabled": 0, "lon": -77.00441916666666, "rental_uris": {"android": "https://dc.lft.to/lastmile_qr_scan", "ios": "https://dc.lft.to/lastmile_qr_scan"}, "fusion_lon": 0.0, "lat": 38.9072945, "type": "electric_scooter", "fusion_lat": 0.0, "bike_id": "a849ba6cfc0645f8169384997cab74e7"}, {"name": "5263d4fbc5c2f461d5e37018dc48a00c", "is_reserved": 0, "is_disabled": 0, "lon": -77.026484, "rental_uris": {"android": "https://dc.lft.to/lastmile_qr_scan", "ios": "https://dc.lft.to/lastmile_qr_scan"}, "fusion_lon": 0.0, "lat": 38.938699, "type": "electric_bike", "fusion_lat": 0.0, "bike_id": "5263d4fbc5c2f461d5e37018dc48a00c"}, {"name": "e12d9d9045e269e2c9793be1d41f2b3d", "is_reserved": 0, "is_disabled": 0, "lon": -77.034412, "rental_uris": {"android": "https://dc.lft.to/lastmile_qr_scan", "ios": "https://dc.lft.to/lastmile_qr_scan"}, "fusion_lon": 0.0, "lat": 38.91690716666667, "type": "electric_scooter", "fusion_lat": 0.0, "bike_id": "e12d9d9045e269e2c9793be1d41f2b3d"}, {"name": "a15f2d5fcb35bef844bc45a299a8cac9", "is_reserved": 0, "is_disabled": 0, "lon": -76.98841816666666, "rental_uris": {"android": "https://dc.lft.to/lastmile_qr_scan", "ios": "https://dc.lft.to/lastmile_qr_scan"}, "fusion_lon": 0.0, "lat": 38.842764, "type": "electric_bike", "fusion_lat": 0.0, "bike_id": "a15f2d5fcb35bef844bc45a299a8cac9"}, {"name": "16e50314a21742070b1d5634b79a3b0a", "is_reserved": 0, "is_disabled": 0, "lon": -76.94944466666666, "rental_uris": {"android": "https://dc.lft.to/lastmile_qr_scan", "ios": "https://dc.lft.to/lastmile_qr_scan"}, "fusion_lon": 0.0, "lat": 38.88320083333333, "type": "electric_scooter", "fusion_lat": 0.0, "bike_id": "16e50314a21742070b1d5634b79a3b0a"}, {"name": "c7a3df25112af89d83b4dcc8ff8f049a", "is_reserved": 0, "is_disabled": 0, "lon": -77.02394083333333, "rental_uris": {"android": "https://dc.lft.to/lastmile_qr_scan", "ios": "https://dc.lft.to/lastmile_qr_scan"}, "fusion_lon": 0.0, "lat": 38.90746, "type": "electric_scooter", "fusion_lat": 0.0, "bike_id": "c7a3df25112af89d83b4dcc8ff8f049a"}, {"name": "4512d901ac1b5aac9e6f8f5709bf540a", "is_reserved": 0, "is_disabled": 0, "lon": -77.022917, "rental_uris": {"android": "https://dc.lft.to/lastmile_qr_scan", "ios": "https://dc.lft.to/lastmile_qr_scan"}, "fusion_lon": 0.0, "lat": 38.93763216666667, "type": "electric_scooter", "fusion_lat": 0.0, "bike_id": "4512d901ac1b5aac9e6f8f5709bf540a"}, {"name": "fbe663a5ccb4fbe07445b06dab4489e2", "is_reserved": 0, "is_disabled": 0, "lon": -77.0299935, "rental_uris": {"android": "https://dc.lft.to/lastmile_qr_scan", "ios": "https://dc.lft.to/lastmile_qr_scan"}, "fusion_lon": 0.0, "lat": 38.924806, "type": "electric_scooter", "fusion_lat": 0.0, "bike_id": "fbe663a5ccb4fbe07445b06dab4489e2"}, {"name": "bd63b3178231014930b8a8ee47b02937", "is_reserved": 0, "is_disabled": 0, "lon": -77.019856, "rental_uris": {"android": "https://dc.lft.to/lastmile_qr_scan", "ios": "https://dc.lft.to/lastmile_qr_scan"}, "fusion_lon": 0.0, "lat": 38.902354333333335, "type": "electric_scooter", "fusion_lat": 0.0, "bike_id": "bd63b3178231014930b8a8ee47b02937"}, {"name": "e323808251e86eec815ca91dcc9d57a7", "is_reserved": 0, "is_disabled": 0, "lon": -77.03517333333333, "rental_uris": {"android": "https://dc.lft.to/lastmile_qr_scan", "ios": "https://dc.lft.to/lastmile_qr_scan"}, "fusion_lon": 0.0, "lat": 38.932851166666666, "type": "electric_scooter", "fusion_lat": 0.0, "bike_id": "e323808251e86eec815ca91dcc9d57a7"}, {"name": "7cc0421d60e1faca1f0e0713f2f9564d", "is_reserved": 0, "is_disabled": 0, "lon": -77.0396165, "rental_uris": {"android": "https://dc.lft.to/lastmile_qr_scan", "ios": "https://dc.lft.to/lastmile_qr_scan"}, "fusion_lon": 0.0, "lat": 38.902806166666664, "type": "electric_scooter", "fusion_lat": 0.0, "bike_id": "7cc0421d60e1faca1f0e0713f2f9564d"}, {"name": "765d6bb0af79df7d8fe0ec6987812b20", "is_reserved": 0, "is_disabled": 0, "lon": -77.00809433333333, "rental_uris": {"android": "https://dc.lft.to/lastmile_qr_scan", "ios": "https://dc.lft.to/lastmile_qr_scan"}, "fusion_lon": 0.0, "lat": 38.887294, "type": "electric_bike", "fusion_lat": 0.0, "bike_id": "765d6bb0af79df7d8fe0ec6987812b20"}, {"name": "7c1965b79ad606791deaa757188e05d0", "is_reserved": 0, "is_disabled": 0, "lon": -77.0319515, "rental_uris": {"android": "https://dc.lft.to/lastmile_qr_scan", "ios": "https://dc.lft.to/lastmile_qr_scan"}, "fusion_lon": 0.0, "lat": 38.9089555, "type": "electric_bike", "fusion_lat": 0.0, "bike_id": "7c1965b79ad606791deaa757188e05d0"}, {"name": "eccc2902172d593ed4e4323eef2f655b", "is_reserved": 0, "is_disabled": 0, "lon": -76.99494783333333, "rental_uris": {"android": "https://dc.lft.to/lastmile_qr_scan", "ios": "https://dc.lft.to/lastmile_qr_scan"}, "fusion_lon": 0.0, "lat": 38.862222333333335, "type": "electric_scooter", "fusion_lat": 0.0, "bike_id": "eccc2902172d593ed4e4323eef2f655b"}, {"name": "5a31f1211b43da1e6b22ab1f56a7be1c", "is_reserved": 0, "is_disabled": 0, "lon": -77.0380095, "rental_uris": {"android": "https://dc.lft.to/lastmile_qr_scan", "ios": "https://dc.lft.to/lastmile_qr_scan"}, "fusion_lon": 0.0, "lat": 38.910372833333334, "type": "electric_scooter", "fusion_lat": 0.0, "bike_id": "5a31f1211b43da1e6b22ab1f56a7be1c"}, {"name": "11fbce8da03acaa63dcdb1ffd7757ce3", "is_reserved": 0, "is_disabled": 0, "lon": -77.0333685, "rental_uris": {"android": "https://dc.lft.to/lastmile_qr_scan", "ios": "https://dc.lft.to/lastmile_qr_scan"}, "fusion_lon": 0.0, "lat": 38.89842516666667, "type": "electric_scooter", "fusion_lat": 0.0, "bike_id": "11fbce8da03acaa63dcdb1ffd7757ce3"}, {"name": "3fa0ebcfbea388c9498326d79b859718", "is_reserved": 0, "is_disabled": 0, "lon": -77.00209166666667, "rental_uris": {"android": "https://dc.lft.to/lastmile_qr_scan", "ios": "https://dc.lft.to/lastmile_qr_scan"}, "fusion_lon": 0.0, "lat": 38.90027833333333, "type": "electric_scooter", "fusion_lat": 0.0, "bike_id": "3fa0ebcfbea388c9498326d79b859718"}, {"name": "460ac210f184669481457222b01e5df4", "is_reserved": 0, "is_disabled": 0, "lon": -77.0451175, "rental_uris": {"android": "https://dc.lft.to/lastmile_qr_scan", "ios": "https://dc.lft.to/lastmile_qr_scan"}, "fusion_lon": 0.0, "lat": 38.88604633333333, "type": "electric_scooter", "fusion_lat": 0.0, "bike_id": "460ac210f184669481457222b01e5df4"}, {"name": "9a4fb442dfa2eae050af808148a6da35", "is_reserved": 0, "is_disabled": 0, "lon": -77.10132433333334, "rental_uris": {"android": "https://dc.lft.to/lastmile_qr_scan", "ios": "https://dc.lft.to/lastmile_qr_scan"}, "fusion_lon": 0.0, "lat": 38.852055166666666, "type": "electric_bike", "fusion_lat": 0.0, "bike_id": "9a4fb442dfa2eae050af808148a6da35"}, {"name": "7691b03db5cd40a563c547ce0e1adc6b", "is_reserved": 0, "is_disabled": 0, "lon": -77.029705, "rental_uris": {"android": "https://dc.lft.to/lastmile_qr_scan", "ios": "https://dc.lft.to/lastmile_qr_scan"}, "fusion_lon": 0.0, "lat": 38.916834333333334, "type": "electric_scooter", "fusion_lat": 0.0, "bike_id": "7691b03db5cd40a563c547ce0e1adc6b"}, {"name": "c140f356afce0e9092f05fd50288ad41", "is_reserved": 0, "is_disabled": 0, "lon": -77.02387866666666, "rental_uris": {"android": "https://dc.lft.to/lastmile_qr_scan", "ios": "https://dc.lft.to/lastmile_qr_scan"}, "fusion_lon": 0.0, "lat": 38.933515166666666, "type": "electric_scooter", "fusion_lat": 0.0, "bike_id": "c140f356afce0e9092f05fd50288ad41"}, {"name": "4b18422f5eda8676f85ef8d7bf529c5f", "is_reserved": 0, "is_disabled": 0, "lon": -77.035801, "rental_uris": {"android": "https://dc.lft.to/lastmile_qr_scan", "ios": "https://dc.lft.to/lastmile_qr_scan"}, "fusion_lon": 0.0, "lat": 38.934794333333336, "type": "electric_scooter", "fusion_lat": 0.0, "bike_id": "4b18422f5eda8676f85ef8d7bf529c5f"}, {"name": "02050743c0351f4fc72001c389696a19", "is_reserved": 0, "is_disabled": 0, "lon": -77.36090583333333, "rental_uris": {"android": "https://dc.lft.to/lastmile_qr_scan", "ios": "https://dc.lft.to/lastmile_qr_scan"}, "fusion_lon": 0.0, "lat": 38.93959683333333, "type": "electric_bike", "fusion_lat": 0.0, "bike_id": "02050743c0351f4fc72001c389696a19"}, {"name": "705da968180c2b2ab17de37477f9bb91", "is_reserved": 0, "is_disabled": 0, "lon": -77.031837, "rental_uris": {"android": "https://dc.lft.to/lastmile_qr_scan", "ios": "https://dc.lft.to/lastmile_qr_scan"}, "fusion_lon": 0.0, "lat": 38.899864, "type": "electric_scooter", "fusion_lat": 0.0, "bike_id": "705da968180c2b2ab17de37477f9bb91"}, {"name": "c773aba14d7121a662838377f87d059b", "is_reserved": 0, "is_disabled": 0, "lon": -77.036731, "rental_uris": {"android": "https://dc.lft.to/lastmile_qr_scan", "ios": "https://dc.lft.to/lastmile_qr_scan"}, "fusion_lon": 0.0, "lat": 38.905745333333336, "type": "electric_scooter", "fusion_lat": 0.0, "bike_id": "c773aba14d7121a662838377f87d059b"}, {"name": "8d86d253d2ed49ba3ee20e8b8ff9d5d7", "is_reserved": 0, "is_disabled": 0, "lon": -77.03169066666666, "rental_uris": {"android": "https://dc.lft.to/lastmile_qr_scan", "ios": "https://dc.lft.to/lastmile_qr_scan"}, "fusion_lon": 0.0, "lat": 38.9271275, "type": "electric_scooter", "fusion_lat": 0.0, "bike_id": "8d86d253d2ed49ba3ee20e8b8ff9d5d7"}, {"name": "f069f684da7b35f31ca26ec471bec5b6", "is_reserved": 0, "is_disabled": 0, "lon": -77.04824583333334, "rental_uris": {"android": "https://dc.lft.to/lastmile_qr_scan", "ios": "https://dc.lft.to/lastmile_qr_scan"}, "fusion_lon": 0.0, "lat": 38.90516566666667, "type": "electric_scooter", "fusion_lat": 0.0, "bike_id": "f069f684da7b35f31ca26ec471bec5b6"}, {"name": "9e9d3836072e36f9efd71d24f9219ff5", "is_reserved": 0, "is_disabled": 0, "lon": -77.02114883333333, "rental_uris": {"android": "https://dc.lft.to/lastmile_qr_scan", "ios": "https://dc.lft.to/lastmile_qr_scan"}, "fusion_lon": 0.0, "lat": 38.917390833333336, "type": "electric_scooter", "fusion_lat": 0.0, "bike_id": "9e9d3836072e36f9efd71d24f9219ff5"}, {"name": "e03b3150f44c706c0b2487e045d42e47", "is_reserved": 0, "is_disabled": 0, "lon": -77.01413066666667, "rental_uris": {"android": "https://dc.lft.to/lastmile_qr_scan", "ios": "https://dc.lft.to/lastmile_qr_scan"}, "fusion_lon": 0.0, "lat": 38.878965666666666, "type": "electric_scooter", "fusion_lat": 0.0, "bike_id": "e03b3150f44c706c0b2487e045d42e47"}, {"name": "182d1f8ea678d0965a9eb968c4a3e255", "is_reserved": 0, "is_disabled": 0, "lon": -77.018486, "rental_uris": {"android": "https://dc.lft.to/lastmile_qr_scan", "ios": "https://dc.lft.to/lastmile_qr_scan"}, "fusion_lon": 0.0, "lat": 38.9150725, "type": "electric_scooter", "fusion_lat": 0.0, "bike_id": "182d1f8ea678d0965a9eb968c4a3e255"}, {"name": "fdf139fe11207a68914ce8cd338a4a0b", "is_reserved": 0, "is_disabled": 0, "lon": -77.041674, "rental_uris": {"android": "https://dc.lft.to/lastmile_qr_scan", "ios": "https://dc.lft.to/lastmile_qr_scan"}, "fusion_lon": 0.0, "lat": 38.911460166666664, "type": "electric_scooter", "fusion_lat": 0.0, "bike_id": "fdf139fe11207a68914ce8cd338a4a0b"}, {"name": "fa01a121c7ae4d4e649cd1c73c585562", "is_reserved": 0, "is_disabled": 0, "lon": -77.04355983333333, "rental_uris": {"android": "https://dc.lft.to/lastmile_qr_scan", "ios": "https://dc.lft.to/lastmile_qr_scan"}, "fusion_lon": 0.0, "lat": 38.910577333333336, "type": "electric_scooter", "fusion_lat": 0.0, "bike_id": "fa01a121c7ae4d4e649cd1c73c585562"}, {"name": "5eb76df12e0e3391f108275fd7168313", "is_reserved": 0, "is_disabled": 0, "lon": -76.99505666666667, "rental_uris": {"android": "https://dc.lft.to/lastmile_qr_scan", "ios": "https://dc.lft.to/lastmile_qr_scan"}, "fusion_lon": 0.0, "lat": 38.880773833333336, "type": "electric_scooter", "fusion_lat": 0.0, "bike_id": "5eb76df12e0e3391f108275fd7168313"}, {"name": "7d55576aea0268cbd70fd0fd2c252332", "is_reserved": 0, "is_disabled": 0, "lon": -77.03851783333333, "rental_uris": {"android": "https://dc.lft.to/lastmile_qr_scan", "ios": "https://dc.lft.to/lastmile_qr_scan"}, "fusion_lon": 0.0, "lat": 38.909899833333334, "type": "electric_scooter", "fusion_lat": 0.0, "bike_id": "7d55576aea0268cbd70fd0fd2c252332"}, {"name": "93f73924e47127b61ef81604bc598b5d", "is_reserved": 0, "is_disabled": 0, "lon": -76.99959, "rental_uris": {"android": "https://dc.lft.to/lastmile_qr_scan", "ios": "https://dc.lft.to/lastmile_qr_scan"}, "fusion_lon": 0.0, "lat": 38.893197, "type": "electric_scooter", "fusion_lat": 0.0, "bike_id": "93f73924e47127b61ef81604bc598b5d"}, {"name": "752017358bb825a4dad0b7b9237acb7c", "is_reserved": 0, "is_disabled": 0, "lon": -77.02980333333333, "rental_uris": {"android": "https://dc.lft.to/lastmile_qr_scan", "ios": "https://dc.lft.to/lastmile_qr_scan"}, "fusion_lon": 0.0, "lat": 38.94070966666666, "type": "electric_scooter", "fusion_lat": 0.0, "bike_id": "752017358bb825a4dad0b7b9237acb7c"}, {"name": "0975c83e19132714329c59ab5eb0e94b", "is_reserved": 0, "is_disabled": 0, "lon": -77.021683, "rental_uris": {"android": "https://dc.lft.to/lastmile_qr_scan", "ios": "https://dc.lft.to/lastmile_qr_scan"}, "fusion_lon": 0.0, "lat": 38.942995833333335, "type": "electric_scooter", "fusion_lat": 0.0, "bike_id": "0975c83e19132714329c59ab5eb0e94b"}, {"name": "2c990555fbfa64b8801c363d80e26cd8", "is_reserved": 0, "is_disabled": 0, "lon": -77.03945216666666, "rental_uris": {"android": "https://dc.lft.to/lastmile_qr_scan", "ios": "https://dc.lft.to/lastmile_qr_scan"}, "fusion_lon": 0.0, "lat": 38.9168935, "type": "electric_scooter", "fusion_lat": 0.0, "bike_id": "2c990555fbfa64b8801c363d80e26cd8"}, {"name": "c5d6e25eeb9f5f4b5fa64c34fc59993f", "is_reserved": 0, "is_disabled": 0, "lon": -77.00917316666667, "rental_uris": {"android": "https://dc.lft.to/lastmile_qr_scan", "ios": "https://dc.lft.to/lastmile_qr_scan"}, "fusion_lon": 0.0, "lat": 38.87243683333333, "type": "electric_bike", "fusion_lat": 0.0, "bike_id": "c5d6e25eeb9f5f4b5fa64c34fc59993f"}, {"name": "566d9bc8a124dd818d2c4daeba7aca5a", "is_reserved": 0, "is_disabled": 0, "lon": -77.03785183333333, "rental_uris": {"android": "https://dc.lft.to/lastmile_qr_scan", "ios": "https://dc.lft.to/lastmile_qr_scan"}, "fusion_lon": 0.0, "lat": 38.92628883333333, "type": "electric_scooter", "fusion_lat": 0.0, "bike_id": "566d9bc8a124dd818d2c4daeba7aca5a"}, {"name": "381d76bf4077e638984d71910738bcf4", "is_reserved": 0, "is_disabled": 0, "lon": -77.05305466666667, "rental_uris": {"android": "https://dc.lft.to/lastmile_qr_scan", "ios": "https://dc.lft.to/lastmile_qr_scan"}, "fusion_lon": 0.0, "lat": 38.92785, "type": "electric_scooter", "fusion_lat": 0.0, "bike_id": "381d76bf4077e638984d71910738bcf4"}, {"name": "6b5d981c2faf060e760ca484155889b8", "is_reserved": 0, "is_disabled": 0, "lon": -76.99003183333333, "rental_uris": {"android": "https://dc.lft.to/lastmile_qr_scan", "ios": "https://dc.lft.to/lastmile_qr_scan"}, "fusion_lon": 0.0, "lat": 38.86506933333333, "type": "electric_scooter", "fusion_lat": 0.0, "bike_id": "6b5d981c2faf060e760ca484155889b8"}, {"name": "1810427ac30bb23e5c41ff8f630dd48a", "is_reserved": 0, "is_disabled": 0, "lon": -77.02860733333333, "rental_uris": {"android": "https://dc.lft.to/lastmile_qr_scan", "ios": "https://dc.lft.to/lastmile_qr_scan"}, "fusion_lon": 0.0, "lat": 38.92230166666667, "type": "electric_scooter", "fusion_lat": 0.0, "bike_id": "1810427ac30bb23e5c41ff8f630dd48a"}, {"name": "9af4d01100701daca221a31654fa62a9", "is_reserved": 0, "is_disabled": 0, "lon": -77.03227016666666, "rental_uris": {"android": "https://dc.lft.to/lastmile_qr_scan", "ios": "https://dc.lft.to/lastmile_qr_scan"}, "fusion_lon": 0.0, "lat": 38.907646666666665, "type": "electric_scooter", "fusion_lat": 0.0, "bike_id": "9af4d01100701daca221a31654fa62a9"},