{"data": {"bikes": [{"rental_uris": {"ios": "https://dc.lft.to/lastmile_qr_scan", "android": "https://dc.lft.to/lastmile_qr_scan"}, "type": "electric_scooter", "name": "60bd67b97bbd75484d0f09929ae554dc", "is_reserved": 0, "lon": -77.05261033333333, "is_disabled": 0, "fusion_lat": 0.0, "lat": 38.92562183333333, "bike_id": "60bd67b97bbd75484d0f09929ae554dc", "fusion_lon": 0.0}, {"rental_uris": {"ios": "https://dc.lft.to/lastmile_qr_scan", "android": "https://dc.lft.to/lastmile_qr_scan"}, "type": "electric_scooter", "name": "ac5f544985646cbac4cf49372ea18b7e", "is_reserved": 0, "lon": -77.03885, "is_disabled": 0, "fusion_lat": 0.0, "lat": 38.93399, "bike_id": "ac5f544985646cbac4cf49372ea18b7e", "fusion_lon": 0.0}, {"rental_uris": {"ios": "https://dc.lft.to/lastmile_qr_scan", "android": "https://dc.lft.to/lastmile_qr_scan"}, "type": "electric_scooter", "name": "4c26509c72d38271bed3bb75f7699120", "is_reserved": 0, "lon": -77.02819166666667, "is_disabled": 0, "fusion_lat": 0.0, "lat": 38.912508833333334, "bike_id": "4c26509c72d38271bed3bb75f7699120", "fusion_lon": 0.0}, {"rental_uris": {"ios": "https://dc.lft.to/lastmile_qr_scan", "android": "https://dc.lft.to/lastmile_qr_scan"}, "type": "electric_scooter", "name": "d373216dc0ea1ea732042a49e5223c84", "is_reserved": 0, "lon": -77.02696033333334, "is_disabled": 0, "fusion_lat": 0.0, "lat": 38.899914833333334, "bike_id": "d373216dc0ea1ea732042a49e5223c84", "fusion_lon": 0.0}, {"rental_uris": {"ios": "https://dc.lft.to/lastmile_qr_scan", "android": "https://dc.lft.to/lastmile_qr_scan"}, "type": "electric_scooter", "name": "cbed54f8de5ac3a2f207a5b69d712dd0", "is_reserved": 0, "lon": -77.00068083333333, "is_disabled": 0, "fusion_lat": 0.0, "lat": 38.8768225, "bike_id": "cbed54f8de5ac3a2f207a5b69d712dd0", "fusion_lon": 0.0}, {"rental_uris": {"ios": "https://dc.lft.to/lastmile_qr_scan", "android": "https://dc.lft.to/lastmile_qr_scan"}, "type": "electric_scooter", "name": "5a95f9dd87c1054e33497f355688f4fb", "is_reserved": 0, "lon": -77.02729766666667, "is_disabled": 0, "fusion_lat": 0.0, "lat": 38.90567866666667, "bike_id": "5a95f9dd87c1054e33497f355688f4fb", "fusion_lon": 0.0}, {"rental_uris": {"ios": "https://dc.lft.to/lastmile_qr_scan", "android": "https://dc.lft.to/lastmile_qr_scan"}, "type": "electric_bike", "name": "e0349c7c00e847cfc217ba52105db4b4", "is_reserved": 0, "lon": -77.002078, "is_disabled": 0, "fusion_lat": 0.0, "lat": 38.9884655, "bike_id": "e0349c7c00e847cfc217ba52105db4b4", "fusion_lon": 0.0}, {"rental_uris": {"ios": "https://dc.lft.to/lastmile_qr_scan", "android": "https://dc.lft.to/lastmile_qr_scan"}, "type": "electric_scooter", "name": "1066f51e2f7768168934982b3422947f", "is_reserved": 0, "lon": -77.03220266666666, "is_disabled": 0, "fusion_lat": 0.0, "lat": 38.89223583333333, "bike_id": "1066f51e2f7768168934982b3422947f", "fusion_lon": 0.0}, {"rental_uris": {"ios": "https://dc.lft.to/lastmile_qr_scan", "android": "https://dc.lft.to/lastmile_qr_scan"}, "type": "electric_scooter", "name": "eb600d424511790a6733bdc78d26d3a9", "is_reserved": 0, "lon": -77.0131815, "is_disabled": 0, "fusion_lat": 0.0, "lat": 38.956495, "bike_id": "eb600d424511790a6733bdc78d26d3a9", "fusion_lon": 0.0}, {"rental_uris": {"ios": "https://dc.lft.to/lastmile_qr_scan", "android": "https://dc.lft.to/lastmile_qr_scan"}, "type": "electric_scooter", "name": "8d22b43f6d776d3429e08babb8ea1062", "is_reserved": 0, "lon": -77.04054516666666, "is_disabled": 0, "fusion_lat": 0.0, "lat": 38.89633516666667, "bike_id": "8d22b43f6d776d3429e08babb8ea1062", "fusion_lon": 0.0}, {"rental_uris": {"ios": "https://dc.lft.to/lastmile_qr_scan", "android": "https://dc.lft.to/lastmile_qr_scan"}, "type": "electric_bike", "name": "c2cc76f85fd79beaba5c95e2bb1a0017", "is_reserved": 0, "lon": -77.01515033333334, "is_disabled": 0, "fusion_lat": 0.0, "lat": 38.902438333333336, "bike_id": "c2cc76f85fd79beaba5c95e2bb1a0017", "fusion_lon": 0.0}, {"rental_uris": {"ios": "https://dc.lft.to/lastmile_qr_scan", "android": "https://dc.lft.to/lastmile_qr_scan"}, "type": "electric_scooter", "name": "ead07429b3993ce2896c6810ad89586b", "is_reserved": 0, "lon": -77.0337145, "is_disabled": 0, "fusion_lat": 0.0, "lat": 38.91036033333334, "bike_id": "ead07429b3993ce2896c6810ad89586b", "fusion_lon": 0.0}, {"rental_uris": {"ios": "https://dc.lft.to/lastmile_qr_scan", "android": "https://dc.lft.to/lastmile_qr_scan"}, "type": "electric_scooter", "name": "c9fdfc1d775c51d30e286a1eca85e58e", "is_reserved": 0, "lon": -77.04131433333333, "is_disabled": 0, "fusion_lat": 0.0, "lat": 38.9346835, "bike_id": "c9fdfc1d775c51d30e286a1eca85e58e", "fusion_lon": 0.0}, {"rental_uris": {"ios": "https://dc.lft.to/lastmile_qr_scan", "android": "https://dc.lft.to/lastmile_qr_scan"}, "type": "electric_scooter", "name": "4ca17ecf21ecbbce0bea0adc31ce8ef6", "is_reserved": 0, "lon": -77.0271585, "is_disabled": 0, "fusion_lat": 0.0, "lat": 38.9002865, "bike_id": "4ca17ecf21ecbbce0bea0adc31ce8ef6", "fusion_lon": 0.0}, {"rental_uris": {"ios": "https://dc.lft.to/lastmile_qr_scan", "android": "https://dc.lft.to/lastmile_qr_scan"}, "type": "electric_scooter", "name": "8750ecc20bda15c1c0cfcfb8de392e9b", "is_reserved": 0, "lon": -77.02293566666667, "is_disabled": 0, "fusion_lat": 0.0, "lat": 38.961260833333334, "bike_id": "8750ecc20bda15c1c0cfcfb8de392e9b", "fusion_lon": 0.0}, {"rental_uris": {"ios": "https://dc.lft.to/lastmile_qr_scan", "android": "https://dc.lft.to/lastmile_qr_scan"}, "type": "electric_scooter", "name": "594a5419b9723b89177eb258ea30ff1c", "is_reserved": 0, "lon": -77.00581316666667, "is_disabled": 0, "fusion_lat": 0.0, "lat": 38.87570733333333, "bike_id": "594a5419b9723b89177eb258ea30ff1c", "fusion_lon": 0.0}, {"rental_uris": {"ios": "https://dc.lft.to/lastmile_qr_scan", "android": "https://dc.lft.to/lastmile_qr_scan"}, "type": "electric_scooter", "name": "797152399063a09da26070e36a33cc0a", "is_reserved": 0, "lon": -77.04297516666666, "is_disabled": 0, "fusion_lat": 0.0, "lat": 38.910300166666666, "bike_id": "797152399063a09da26070e36a33cc0a", "fusion_lon": 0.0}, {"rental_uris": {"ios": "https://dc.lft.to/lastmile_qr_scan", "android": "https://dc.lft.to/lastmile_qr_scan"}, "type": "electric_scooter", "name": "cb3d7d312e196e4b442ba1bb5481472c", "is_reserved": 0, "lon": -77.032258, "is_disabled": 0, "fusion_lat": 0.0, "lat": 38.9387475, "bike_id": "cb3d7d312e196e4b442ba1bb5481472c", "fusion_lon": 0.0}, {"rental_uris": {"ios": "https://dc.lft.to/lastmile_qr_scan", "android": "https://dc.lft.to/lastmile_qr_scan"}, "type": "electric_scooter", "name": "92c7bffa2ece295aad9f0433838526e2", "is_reserved": 0, "lon": -77.0834455, "is_disabled": 0, "fusion_lat": 0.0, "lat": 38.8941595, "bike_id": "92c7bffa2ece295aad9f0433838526e2", "fusion_lon": 0.0}, {"rental_uris": {"ios": "https://dc.lft.to/lastmile_qr_scan", "android": "https://dc.lft.to/lastmile_qr_scan"}, "type": "electric_scooter", "name": "f21da154e2aac353059ab52664051329", "is_reserved": 0, "lon": -77.0404555, "is_disabled": 0, "fusion_lat": 0.0, "lat": 38.90448833333333, "bike_id": "f21da154e2aac353059ab52664051329", "fusion_lon": 0.0}, {"rental_uris": {"ios": "https://dc.lft.to/lastmile_qr_scan", "android": "https://dc.lft.to/lastmile_qr_scan"}, "type": "electric_scooter", "name": "5e7573cf9fdf194ee04d424d53ca5eff", "is_reserved": 0, "lon": -76.99689266666667, "is_disabled": 0, "fusion_lat": 0.0, "lat": 38.922028166666664, "bike_id": "5e7573cf9fdf194ee04d424d53ca5eff", "fusion_lon": 0.0}, {"rental_uris": {"ios": "https://dc.lft.to/lastmile_qr_scan", "android": "https://dc.lft.to/lastmile_qr_scan"}, "type": "electric_scooter", "name": "0976935f14b1117119067c2f40808b39", "is_reserved": 0, "lon": -77.04560516666666, "is_disabled": 0, "fusion_lat": 0.0, "lat": 38.91933216666666, "bike_id": "0976935f14b1117119067c2f40808b39", "fusion_lon": 0.0}, {"rental_uris": {"ios": "https://dc.lft.to/lastmile_qr_scan", "android": "https://dc.lft.to/lastmile_qr_scan"}, "type": "electric_scooter", "name": "cb0ec97bc99d3f53891f33dd4a36c1e4", "is_reserved": 0, "lon": -77.02585233333333, "is_disabled": 0, "fusion_lat": 0.0, "lat": 38.88464183333333, "bike_id": "cb0ec97bc99d3f53891f33dd4a36c1e4", "fusion_lon": 0.0}, {"rental_uris": {"ios": "https://dc.lft.to/lastmile_qr_scan", "android": "https://dc.lft.to/lastmile_qr_scan"}, "type": "electric_scooter", "name": "957ff59ffee2721bd2282867fcf620c7", "is_reserved": 0, "lon": -77.02464366666666, "is_disabled": 0, "fusion_lat": 0.0, "lat": 38.919127833333334, "bike_id": "957ff59ffee2721bd2282867fcf620c7", "fusion_lon": 0.0}, {"rental_uris": {"ios": "https://dc.lft.to/lastmile_qr_scan", "android": "https://dc.lft.to/lastmile_qr_scan"}, "type": "electric_bike", "name": "007ec0810037db918e93238f982f2ce7", "is_reserved": 0, "lon": -77.0836735, "is_disabled": 0, "fusion_lat": 0.0, "lat": 38.854149166666666, "bike_id": "007ec0810037db918e93238f982f2ce7", "fusion_lon": 0.0}, {"rental_uris": {"ios": "https://dc.lft.to/lastmile_qr_scan", "android": "https://dc.lft.to/lastmile_qr_scan"}, "type": "electric_scooter", "name": "3be877d6ad13d66a6ed1b1209ad5d89a", "is_reserved": 0, "lon": -77.02089833333334, "is_disabled": 0, "fusion_lat": 0.0, "lat": 38.914186666666666, "bike_id": "3be877d6ad13d66a6ed1b1209ad5d89a", "fusion_lon": 0.0}, {"rental_uris": {"ios": "https://dc.lft.to/lastmile_qr_scan", "android": "https://dc.lft.to/lastmile_qr_scan"}, "type": "electric_scooter", "name": "724b9883795f194faca1a84bdd373876", "is_reserved": 0, "lon": -77.03189733333333, "is_disabled": 0, "fusion_lat": 0.0, "lat": 38.916669666666664, "bike_id": "724b9883795f194faca1a84bdd373876", "fusion_lon": 0.0}, {"rental_uris": {"ios": "https://dc.lft.to/lastmile_qr_scan", "android": "https://dc.lft.to/lastmile_qr_scan"}, "type": "electric_scooter", "name": "3089577e3f22dfa82bd66ffbb15492fd", "is_reserved": 0, "lon": -76.99742516666667, "is_disabled": 0, "fusion_lat": 0.0, "lat": 38.920375166666666, "bike_id": "3089577e3f22dfa82bd66ffbb15492fd", "fusion_lon": 0.0}, {"rental_uris": {"ios": "https://dc.lft.to/lastmile_qr_scan", "android": "https://dc.lft.to/lastmile_qr_scan"}, "type": "electric_scooter", "name": "b9b9b3261fce2abcaa2eb1580dddc064", "is_reserved": 0, "lon": -77.0419005, "is_disabled": 0, "fusion_lat": 0.0, "lat": 38.920463166666664, "bike_id": "b9b9b3261fce2abcaa2eb1580dddc064", "fusion_lon": 0.0}, {"rental_uris": {"ios": "https://dc.lft.to/lastmile_qr_scan", "android": "https://dc.lft.to/lastmile_qr_scan"}, "type": "electric_bike", "name": "71b82abf1c627a68463f03cc38e85364", "is_reserved": 0, "lon": -76.97703966666667, "is_disabled": 0, "fusion_lat": 0.0, "lat": 38.82208283333333, "bike_id": "71b82abf1c627a68463f03cc38e85364", "fusion_lon": 0.0}, {"rental_uris": {"ios": "https://dc.lft.to/lastmile_qr_scan", "android": "https://dc.lft.to/lastmile_qr_scan"}, "type": "electric_scooter", "name": "c578c8b68f7d5a6085dff02c06d82094", "is_reserved": 0, "lon": -77.041754, "is_disabled": 0, "fusion_lat": 0.0, "lat": 38.915892, "bike_id": "c578c8b68f7d5a6085dff02c06d82094", "fusion_lon": 0.0}, {"rental_uris": {"ios": "https://dc.lft.to/lastmile_qr_scan", "android": "https://dc.lft.to/lastmile_qr_scan"}, "type": "electric_scooter", "name": "8a6f866ac07ca486006a476c50c26167", "is_reserved": 0, "lon": -77.03854333333334, "is_disabled": 0, "fusion_lat": 0.0, "lat": 38.926424833333336, "bike_id": "8a6f866ac07ca486006a476c50c26167", "fusion_lon": 0.0}, {"rental_uris": {"ios": "https://dc.lft.to/lastmile_qr_scan", "android": "https://dc.lft.to/lastmile_qr_scan"}, "type": "electric_scooter", "name": "50d715f41e24621b7c57615b1737f3bd", "is_reserved": 0, "lon": -77.04656666666666, "is_disabled": 0, "fusion_lat": 0.0, "lat": 38.91045916666667, "bike_id": "50d715f41e24621b7c57615b1737f3bd", "fusion_lon": 0.0}, {"rental_uris": {"ios": "https://dc.lft.to/lastmile_qr_scan", "android": "https://dc.lft.to/lastmile_qr_scan"}, "type": "electric_scooter", "name": "d4a7c2c8fd986153e82ca7acfce666f9", "is_reserved": 0, "lon": -76.96541216666667, "is_disabled": 0, "fusion_lat": 0.0, "lat": 38.87882, "bike_id": "d4a7c2c8fd986153e82ca7acfce666f9", "fusion_lon": 0.0}, {"rental_uris": {"ios": "https://dc.lft.to/lastmile_qr_scan", "android": "https://dc.lft.to/lastmile_qr_scan"}, "type": "electric_scooter", "name": "c97f1390fa768efd9453d09cd6befc6f", "is_reserved": 0, "lon": -77.01478283333333, "is_disabled": 0, "fusion_lat": 0.0, "lat": 38.919543833333336, "bike_id": "c97f1390fa768efd9453d09cd6befc6f", "fusion_lon": 0.0}, {"rental_uris": {"ios": "https://dc.lft.to/lastmile_qr_scan", "android": "https://dc.lft.to/lastmile_qr_scan"}, "type": "electric_scooter", "name": "a83518793b27e720a6985746cc66bf21", "is_reserved": 0, "lon": -77.03866616666667, "is_disabled": 0, "fusion_lat": 0.0, "lat": 38.91193633333334, "bike_id": "a83518793b27e720a6985746cc66bf21", "fusion_lon": 0.0}, {"rental_uris": {"ios": "https://dc.lft.to/lastmile_qr_scan", "android": "https://dc.lft.to/lastmile_qr_scan"}, "type": "electric_scooter", "name": "150221236d07c83c5b79199a688007be", "is_reserved": 0, "lon": -77.041585, "is_disabled": 0, "fusion_lat": 0.0, "lat": 38.919846166666666, "bike_id": "150221236d07c83c5b79199a688007be", "fusion_lon": 0.0}, {"rental_uris": {"ios": "https://dc.lft.to/lastmile_qr_scan", "android": "https://dc.lft.to/lastmile_qr_scan"}, "type": "electric_bike", "name": "de3d451aa5efdab9ad5319a2d002766b", "is_reserved": 0, "lon": -76.98843083333334, "is_disabled": 0, "fusion_lat": 0.0, "lat": 38.842743666666664, "bike_id": "de3d451aa5efdab9ad5319a2d002766b", "fusion_lon": 0.0}, {"rental_uris": {"ios": "https://dc.lft.to/lastmile_qr_scan", "android": "https://dc.lft.to/lastmile_qr_scan"}, "type": "electric_bike", "name": "8b76df82b52275206914f4e86160f261", "is_reserved": 0, "lon": -77.10746633333333, "is_disabled": 0, "fusion_lat": 0.0, "lat": 38.85525583333333, "bike_id": "8b76df82b52275206914f4e86160f261", "fusion_lon": 0.0}, {"rental_uris": {"ios": "https://dc.lft.to/lastmile_qr_scan", "android": "https://dc.lft.to/lastmile_qr_scan"}, "type": "electric_scooter", "name": "27db0603928d3dec63c224112e4c4f2f", "is_reserved": 0, "lon": -77.0416175, "is_disabled": 0, "fusion_lat": 0.0, "lat": 38.91943083333334, "bike_id": "27db0603928d3dec63c224112e4c4f2f", "fusion_lon": 0.0}, {"rental_uris": {"ios": "https://dc.lft.to/lastmile_qr_scan", "android": "https://dc.lft.to/lastmile_qr_scan"}, "type": "electric_scooter", "name": "dc91408c4cd6f6cce748d0a102afcddc", "is_reserved": 0, "lon": -77.02352783333333, "is_disabled": 0, "fusion_lat": 0.0, "lat": 38.920418, "bike_id": "dc91408c4cd6f6cce748d0a102afcddc", "fusion_lon": 0.0}, {"rental_uris": {"ios": "https://dc.lft.to/lastmile_qr_scan", "android": "https://dc.lft.to/lastmile_qr_scan"}, "type": "electric_scooter", "name": "c1c679eee7d2607057ca552912b6284b", "is_reserved": 0, "lon": -77.02201, "is_disabled": 0, "fusion_lat": 0.0, "lat": 38.911299166666666, "bike_id": "c1c679eee7d2607057ca552912b6284b", "fusion_lon": 0.0}, {"rental_uris": {"ios": "https://dc.lft.to/lastmile_qr_scan", "android": "https://dc.lft.to/lastmile_qr_scan"}, "type": "electric_scooter", "name": "3864376f335d16e9339b161aebab935d", "is_reserved": 0, "lon": -77.00192983333334, "is_disabled": 0, "fusion_lat": 0.0, "lat": 38.90846283333333, "bike_id": "3864376f335d16e9339b161aebab935d", "fusion_lon": 0.0}, {"rental_uris": {"ios": "https://dc.lft.to/lastmile_qr_scan", "android": "https://dc.lft.to/lastmile_qr_scan"}, "type": "electric_scooter", "name": "a4f3f5122fb30e0af53afc20c3bc0167", "is_reserved": 0, "lon": -77.0400415, "is_disabled": 0, "fusion_lat": 0.0, "lat": 38.91180666666666, "bike_id": "a4f3f5122fb30e0af53afc20c3bc0167", "fusion_lon": 0.0}, {"rental_uris": {"ios": "https://dc.lft.to/lastmile_qr_scan", "android": "https://dc.lft.to/lastmile_qr_scan"}, "type": "electric_scooter", "name": "50bddfa0f0dee852bcbf3dbc61cb55db", "is_reserved": 0, "lon": -77.0332825, "is_disabled": 0, "fusion_lat": 0.0, "lat": 38.909546166666665, "bike_id": "50bddfa0f0dee852bcbf3dbc61cb55db", "fusion_lon": 0.0}, {"rental_uris": {"ios": "https://dc.lft.to/lastmile_qr_scan", "android": "https://dc.lft.to/lastmile_qr_scan"}, "type": "electric_scooter", "name": "1683e678626bb5e0edefc391b56322db", "is_reserved": 0, "lon": -77.019222, "is_disabled": 0, "fusion_lat": 0.0, "lat": 38.937293833333335, "bike_id": "1683e678626bb5e0edefc391b56322db", "fusion_lon": 0.0}, {"rental_uris": {"ios": "https://dc.lft.to/lastmile_qr_scan", "android": "https://dc.lft.to/lastmile_qr_scan"}, "type": "electric_scooter", "name": "d2a066b74c4b7c1413d4471edadb1065", "is_reserved": 0, "lon": -77.04556783333334, "is_disabled": 0, "fusion_lat": 0.0, "lat": 38.89614, "bike_id": "d2a066b74c4b7c1413d4471edadb1065", "fusion_lon": 0.0}, {"rental_uris": {"ios": "https://dc.lft.to/lastmile_qr_scan", "android": "https://dc.lft.to/lastmile_qr_scan"}, "type": "electric_scooter", "name": "7037673213ae301202fe38e7d8527497", "is_reserved": 0, "lon": -76.99845616666667, "is_disabled": 0, "fusion_lat": 0.0, "lat": 38.900408, "bike_id": "7037673213ae301202fe38e7d8527497", "fusion_lon": 0.0}, {"rental_uris": {"ios": "https://dc.lft.to/lastmile_qr_scan", "android": "https://dc.lft.to/lastmile_qr_scan"}, "type": "electric_scooter", "name": "ff74bb12d5bdc1ae414edc481563f9ad", "is_reserved": 0, "lon": -77.0518635, "is_disabled": 0, "fusion_lat": 0.0, "lat": 38.9244065, "bike_id": "ff74bb12d5bdc1ae414edc481563f9ad", "fusion_lon": 0.0}, {"rental_uris": {"ios": "https://dc.lft.to/lastmile_qr_scan", "android": "https://dc.lft.to/lastmile_qr_scan"}, "type": "electric_scooter", "name": "d6c2dec55853d094689d386e2672d024", "is_reserved": 0, "lon": -77.04226916666667, "is_disabled": 0, "fusion_lat": 0.0, "lat": 38.911066166666664, "bike_id": "d6c2dec55853d094689d386e2672d024", "fusion_lon": 0.0}, {"rental_uris": {"ios": "https://dc.lft.to/lastmile_qr_scan", "android": "https://dc.lft.to/lastmile_qr_scan"}, "type": "electric_scooter", "name": "8c0d77d2e0adc89f43af04f47d150be7", "is_reserved": 0, "lon": -76.9941035, "is_disabled": 0, "fusion_lat": 0.0, "lat": 38.87787083333333, "bike_id": "8c0d77d2e0adc89f43af04f47d150be7", "fusion_lon": 0.0}, {"rental_uris": {"ios": "https://dc.lft.to/lastmile_qr_scan", "android": "https://dc.lft.to/lastmile_qr_scan"}, "type": "electric_scooter", "name": "7134c399bdde52a39d72c9da0bdff20c", "is_reserved": 0, "lon": -77.0347405, "is_disabled": 0, "fusion_lat": 0.0, "lat": 38.930195833333336, "bike_id": "7134c399bdde52a39d72c9da0bdff20c", "fusion_lon": 0.0}, {"rental_uris": {"ios": "https://dc.lft.to/lastmile_qr_scan", "android": "https://dc.lft.to/lastmile_qr_scan"}, "type": "electric_scooter", "name": "c483b5d436098a02f8d3605e4efdb26f", "is_reserved": 0, "lon": -77.00870083333334, "is_disabled": 0, "fusion_lat": 0.0, "lat": 38.912548, "bike_id": "c483b5d436098a02f8d3605e4efdb26f", "fusion_lon": 0.0}, {"rental_uris": {"ios": "https://dc.lft.to/lastmile_qr_scan", "android": "https://dc.lft.to/lastmile_qr_scan"}, "type": "electric_bike", "name": "b76852e09de79a7be27f3cd32e4bba05", "is_reserved": 0, "lon": -76.88968816666667, "is_disabled": 0, "fusion_lat": 0.0, "lat": 39.00778183333333, "bike_id": "b76852e09de79a7be27f3cd32e4bba05", "fusion_lon": 0.0}, {"rental_uris": {"ios": "https://dc.lft.to/lastmile_qr_scan", "android": "https://dc.lft.to/lastmile_qr_scan"}, "type": "electric_scooter", "name": "999efb885b638c0ecefbad8e22feeaaf", "is_reserved": 0, "lon": -76.984013, "is_disabled": 0, "fusion_lat": 0.0, "lat": 38.9251405, "bike_id": "999efb885b638c0ecefbad8e22feeaaf", "fusion_lon": 0.0}, {"rental_uris": {"ios": "https://dc.lft.to/lastmile_qr_scan", "android": "https://dc.lft.to/lastmile_qr_scan"}, "type": "electric_scooter", "name": "ee7f5ca7bd91cc7a7845fac35ce5cf64", "is_reserved": 0, "lon": -77.04072633333334, "is_disabled": 0, "fusion_lat": 0.0, "lat": 38.9141355, "bike_id": "ee7f5ca7bd91cc7a7845fac35ce5cf64", "fusion_lon": 0.0}, {"rental_uris": {"ios": "https://dc.lft.to/lastmile_qr_scan", "android": "https://dc.lft.to/lastmile_qr_scan"}, "type": "electric_scooter", "name": "435858db357fcf55b809c72d27380a92", "is_reserved": 0, "lon": -77.017392, "is_disabled": 0, "fusion_lat": 0.0, "lat": 38.87913566666667, "bike_id": "435858db357fcf55b809c72d27380a92", "fusion_lon": 0.0}, {"rental_uris": {"ios": "https://dc.lft.to/lastmile_qr_scan", "android": "https://dc.lft.to/lastmile_qr_scan"}, "type": "electric_scooter", "name": "8463535f5fd721e4a326e226290a4084", "is_reserved": 0, "lon": -77.04390516666666, "is_disabled": 0, "fusion_lat": 0.0, "lat": 38.910703, "bike_id": "8463535f5fd721e4a326e226290a4084", "fusion_lon": 0.0}, {"rental_uris": {"ios": "https://dc.lft.to/lastmile_qr_scan", "android": "https://dc.lft.to/lastmile_qr_scan"}, "type": "electric_bike", "name": "33fbd399462111e6ca9af541e4c130b7", "is_reserved": 0, "lon": -77.09821583333333, "is_disabled": 0, "fusion_lat": 0.0, "lat": 38.85015633333333, "bike_id": "33fbd399462111e6ca9af541e4c130b7", "fusion_lon": 0.0}, {"rental_uris": {"ios": "https://dc.lft.to/lastmile_qr_scan", "android": "https://dc.lft.to/lastmile_qr_scan"}, "type": "electric_scooter", "name": "2f04dbefe9afa3684074d273483ac408", "is_reserved": 0, "lon": -77.03866266666667, "is_disabled": 0, "fusion_lat": 0.0, "lat": 38.912664166666666, "bike_id": "2f04dbefe9afa3684074d273483ac408", "fusion_lon": 0.0}, {"rental_uris": {"ios": "https://dc.lft.to/lastmile_qr_scan", "android": "https://dc.lft.to/lastmile_qr_scan"}, "type": "electric_scooter", "name": "60ebb9a03e23c1f4ee6bb984ca0a9b35", "is_reserved": 0, "lon": -77.02358083333333, "is_disabled": 0, "fusion_lat": 0.0, "lat": 38.9020925, "bike_id": "60ebb9a03e23c1f4ee6bb984ca0a9b35", "fusion_lon": 0.0}, {"rental_uris": {"ios": "https://dc.lft.to/lastmile_qr_scan", "android": "https://dc.lft.to/lastmile_qr_scan"}, "type": "electric_scooter", "name": "d22922a9f1707d3a72b138357af5837d", "is_reserved": 0, "lon": -77.04400566666666, "is_disabled": 0, "fusion_lat": 0.0, "lat": 38.929508, "bike_id": "d22922a9f1707d3a72b138357af5837d", "fusion_lon": 0.0}, {"rental_uris": {"ios": "https://dc.lft.to/lastmile_qr_scan", "android": "https://dc.lft.to/lastmile_qr_scan"}, "type": "electric_scooter", "name": "4506f4472c2f22dc8482719e5281876f", "is_reserved": 0, "lon": -77.04259466666667, "is_disabled": 0, "fusion_lat": 0.0, "lat": 38.904105, "bike_id": "4506f4472c2f22dc8482719e5281876f", "fusion_lon": 0.0}, {"rental_uris": {"ios": "https://dc.lft.to/lastmile_qr_scan", "android": "https://dc.lft.to/lastmile_qr_scan"}, "type": "electric_scooter", "name": "ddc68aca819fea234c03e3d5f12106f4", "is_reserved": 0, "lon": -76.93185633333333, "is_disabled": 0, "fusion_lat": 0.0, "lat": 38.89872916666667, "bike_id": "ddc68aca819fea234c03e3d5f12106f4", "fusion_lon": 0.0}, {"rental_uris": {"ios": "https://dc.lft.to/lastmile_qr_scan", "android": "https://dc.lft.to/lastmile_qr_scan"}, "type": "electric_scooter", "name": "b86fbb4baaa8dfa2ada3ce60573c14cb", "is_reserved": 0, "lon": -76.9995095, "is_disabled": 0, "fusion_lat": 0.0, "lat": 38.891603, "bike_id": "b86fbb4baaa8dfa2ada3ce60573c14cb", "fusion_lon": 0.0}, {"rental_uris": {"ios": "https://dc.lft.to/lastmile_qr_scan", "android": "https://dc.lft.to/lastmile_qr_scan"}, "type": "electric_scooter", "name": "b3fbf3ddaa6f368ee9413a1aa0c11c19", "is_reserved": 0, "lon": -77.0135865, "is_disabled": 0, "fusion_lat": 0.0, "lat": 38.89592533333333, "bike_id": "b3fbf3ddaa6f368ee9413a1aa0c11c19", "fusion_lon": 0.0}, {"rental_uris": {"ios": "https://dc.lft.to/lastmile_qr_scan", "android": "https://dc.lft.to/lastmile_qr_scan"}, "type": "electric_scooter", "name": "b2c79668333371da6f6bfbb8fae16892", "is_reserved": 0, "lon": -77.03583116666667, "is_disabled": 0, "fusion_lat": 0.0, "lat": 38.90028566666667, "bike_id": "b2c79668333371da6f6bfbb8fae16892", "fusion_lon": 0.0}, {"rental_uris": {"ios": "https://dc.lft.to/lastmile_qr_scan", "android": "https://dc.lft.to/lastmile_qr_scan"}, "type": "electric_scooter", "name": "c20738c79e19bf11112b8f78a73ef9f4", "is_reserved": 0, "lon": -77.03658316666667, "is_disabled": 0, "fusion_lat": 0.0, "lat": 38.91541866666667, "bike_id": "c20738c79e19bf11112b8f78a73ef9f4", "fusion_lon": 0.0}, {"rental_uris": {"ios": "https://dc.lft.to/lastmile_qr_scan", "android": "https://dc.lft.to/lastmile_qr_scan"}, "type": "electric_scooter", "name": "8b11edad06f4e798936fa91991b660b2", "is_reserved": 0, "lon": -77.02181183333333, "is_disabled": 0, "fusion_lat": 0.0, "lat": 38.91987783333333, "bike_id": "8b11edad06f4e798936fa91991b660b2", "fusion_lon": 0.0}, {"rental_uris": {"ios": "https://dc.lft.to/lastmile_qr_scan", "android": "https://dc.lft.to/lastmile_qr_scan"}, "type": "electric_scooter", "name": "95b6f7976d6e46c9ad114e5fc74eb216", "is_reserved": 0, "lon": -77.03116633333333, "is_disabled": 0, "fusion_lat": 0.0, "lat": 38.920171, "bike_id": "95b6f7976d6e46c9ad114e5fc74eb216", "fusion_lon": 0.0}, {"rental_uris": {"ios": "https://dc.lft.to/lastmile_qr_scan", "android": "https://dc.lft.to/lastmile_qr_scan"}, "type": "electric_scooter", "name": "9cbaf7b8cde8f19ff9061c78413e8c12", "is_reserved": 0, "lon": -77.07150283333333, "is_disabled": 0, "fusion_lat": 0.0, "lat": 38.907687833333334, "bike_id": "9cbaf7b8cde8f19ff9061c78413e8c12", "fusion_lon": 0.0}, {"rental_uris": {"ios": "https://dc.lft.to/lastmile_qr_scan", "android": "https://dc.lft.to/lastmile_qr_scan"}, "type": "electric_scooter", "name": "a821e41dd0d0653f5fa0b67246da4e3d", "is_reserved": 0, "lon": -77.0075505, "is_disabled": 0, "fusion_lat": 0.0, "lat": 38.876588, "bike_id": "a821e41dd0d0653f5fa0b67246da4e3d", "fusion_lon": 0.0}, {"rental_uris": {"ios": "https://dc.lft.to/lastmile_qr_scan", "android": "https://dc.lft.to/lastmile_qr_scan"}, "type": "electric_scooter", "name": "c93b75a2ecd614292a3751c94a10d2c5", "is_reserved": 0, "lon": -77.04488416666666, "is_disabled": 0, "fusion_lat": 0.0, "lat": 38.912193333333335, "bike_id": "c93b75a2ecd614292a3751c94a10d2c5", "fusion_lon": 0.0}, {"rental_uris": {"ios": "https://dc.lft.to/lastmile_qr_scan", "android": "https://dc.lft.to/lastmile_qr_scan"}, "type": "electric_scooter", "name": "1ea455d257f6b48cb1d64876abbad1c5", "is_reserved": 0, "lon": -77.03128266666667, "is_disabled": 0, "fusion_lat": 0.0, "lat": 38.9155375, "bike_id": "1ea455d257f6b48cb1d64876abbad1c5", "fusion_lon": 0.0}, {"rental_uris": {"ios": "https://dc.lft.to/lastmile_qr_scan", "android": "https://dc.lft.to/lastmile_qr_scan"}, "type": "electric_scooter", "name": "98fa1f36b19256369a83b60a8a3dfa1d", "is_reserved": 0, "lon": -76.99351116666666, "is_disabled": 0, "fusion_lat": 0.0, "lat": 38.87691083333333, "bike_id": "98fa1f36b19256369a83b60a8a3dfa1d", "fusion_lon": 0.0}, {"rental_uris": {"ios": "https://dc.lft.to/lastmile_qr_scan", "android": "https://dc.lft.to/lastmile_qr_scan"}, "type": "electric_scooter", "name": "297dcc72f12c1e7609b62e1949d487e9", "is_reserved": 0, "lon": -76.9892925, "is_disabled": 0, "fusion_lat": 0.0, "lat": 38.87863433333333, "bike_id": "297dcc72f12c1e7609b62e1949d487e9", "fusion_lon": 0.0}, {"rental_uris": {"ios": "https://dc.lft.to/lastmile_qr_scan", "android": "https://dc.lft.to/lastmile_qr_scan"}, "type": "electric_scooter", "name": "8e658a8865d707c5d532e592225be33a", "is_reserved": 0, "lon": -77.02078566666667, "is_disabled": 0, "fusion_lat": 0.0, "lat": 38.908648, "bike_id": "8e658a8865d707c5d532e592225be33a", "fusion_lon": 0.0}, {"rental_uris": {"ios": "https://dc.lft.to/lastmile_qr_scan", "android": "https://dc.lft.to/lastmile_qr_scan"}, "type": "electric_scooter", "name": "e6b5c70741b258735537a5be4f118641", "is_reserved": 0, "lon": -77.07462266666667, "is_disabled": 0, "fusion_lat": 0.0, "lat": 38.93771266666667, "bike_id": "e6b5c70741b258735537a5be4f118641", "fusion_lon": 0.0}, {"rental_uris": {"ios": "https://dc.lft.to/lastmile_qr_scan", "android": "https://dc.lft.to/lastmile_qr_scan"}, "type": "electric_scooter", "name": "0213ff5653ffa891694917734a885afd", "is_reserved": 0, "lon": -77.0512905, "is_disabled": 0, "fusion_lat": 0.0, "lat": 38.923608, "bike_id": "0213ff5653ffa891694917734a885afd", "fusion_lon": 0.0}, {"rental_uris": {"ios": "https://dc.lft.to/lastmile_qr_scan", "android": "https://dc.lft.to/lastmile_qr_scan"}, "type": "electric_scooter", "name": "9e8754079e76ae7656379cdb69490b19", "is_reserved": 0, "lon": -77.02187716666667, "is_disabled": 0, "fusion_lat": 0.0, "lat": 38.909730333333336, "bike_id": "9e8754079e76ae7656379cdb69490b19", "fusion_lon": 0.0}, {"rental_uris": {"ios": "https://dc.lft.to/lastmile_qr_scan", "android": "https://dc.lft.to/lastmile_qr_scan"}, "type": "electric_scooter", "name": "b4a99ddd5c368379bf7fe7c9d7a6d01e", "is_reserved": 0, "lon": -77.03228, "is_disabled": 0, "fusion_lat": 0.0, "lat": 38.92353133333334, "bike_id": "b4a99ddd5c368379bf7fe7c9d7a6d01e", "fusion_lon": 0.0}, {"rental_uris": {"ios": "https://dc.lft.to/lastmile_qr_scan", "android": "https://dc.lft.to/lastmile_qr_scan"}, "type": "electric_scooter", "name": "40a968e3a76012b80750461c63576f47", "is_reserved": 0, "lon": -77.0316455, "is_disabled": 0, "fusion_lat": 0.0, "lat": 38.914129833333334, "bike_id": "40a968e3a76012b80750461c63576f47", "fusion_lon": 0.0}, {"rental_uris": {"ios": "https://dc.lft.to/lastmile_qr_scan", "android": "https://dc.lft.to/lastmile_qr_scan"}, "type": "electric_scooter", "name": "17887c7cbd49f31be294a45db7f8d93c", "is_reserved": 0, "lon": -77.04403733333334, "is_disabled": 0, "fusion_lat": 0.0, "lat": 38.908900333333335, "bike_id": "17887c7cbd49f31be294a45db7f8d93c", "fusion_lon": 0.0}, {"rental_uris": {"ios": "https://dc.lft.to/lastmile_qr_scan", "android": "https://dc.lft.to/lastmile_qr_scan"}, "type": "electric_scooter", "name": "452056e6e26f52b86ad8ab3d853b051a", "is_reserved": 0, "lon": -76.99541483333333, "is_disabled": 0, "fusion_lat": 0.0, "lat": 38.87749766666666, "bike_id": "452056e6e26f52b86ad8ab3d853b051a", "fusion_lon": 0.0}, {"rental_uris": {"ios": "https://dc.lft.to/lastmile_qr_scan", "android": "https://dc.lft.to/lastmile_qr_scan"}, "type": "electric_scooter", "name": "34ed07377e16caeb38ca4b06e836a85f", "is_reserved": 0, "lon": -77.04134216666667, "is_disabled": 0, "fusion_lat": 0.0, "lat": 38.932753, "bike_id": "34ed07377e16caeb38ca4b06e836a85f", "fusion_lon": 0.0}, {"rental_uris": {"ios": "https://dc.lft.to/lastmile_qr_scan", "android": "https://dc.lft.to/lastmile_qr_scan"}, "type": "electric_scooter", "name": "14dce9893efaecef68eb34197f3aa348", "is_reserved": 0, "lon": -77.03859233333333, "is_disabled": 0, "fusion_lat": 0.0, "lat": 38.911051, "bike_id": "14dce9893efaecef68eb34197f3aa348", "fusion_lon": 0.0}, {"rental_uris": {"ios": "https://dc.lft.to/lastmile_qr_scan", "android": "https://dc.lft.to/lastmile_qr_scan"}, "type": "electric_scooter", "name": "8ca59feb81898e8819f295e3f9b9d73b", "is_reserved": 0, "lon": -76.98107933333333, "is_disabled": 0, "fusion_lat": 0.0, "lat": 38.9023905, "bike_id": "8ca59feb81898e8819f295e3f9b9d73b", "fusion_lon": 0.0}, {"rental_uris": {"ios": "https://dc.lft.to/lastmile_qr_scan", "android": "https://dc.lft.to/lastmile_qr_scan"}, "type": "electric_bike", "name": "8a1e3a9a17b6cbc8efe5e1385815c8e3", "is_reserved": 0, "lon": -77.04322783333333, "is_disabled": 0, "fusion_lat": 0.0, "lat": 39.03430783333334, "bike_id": "8a1e3a9a17b6cbc8efe5e1385815c8e3", "fusion_lon": 0.0}, {"rental_uris": {"ios": "https://dc.lft.to/lastmile_qr_scan", "android": "https://dc.lft.to/lastmile_qr_scan"}, "type": "electric_scooter", "name": "72966ab687354d647484b1345a4184da", "is_reserved": 0, "lon": -76.99925116666667, "is_disabled": 0, "fusion_lat": 0.0, "lat": 38.92187, "bike_id": "72966ab687354d647484b1345a4184da", "fusion_lon": 0.0}, {"rental_uris": {"ios": "https://dc.lft.to/lastmile_qr_scan", "android": "https://dc.lft.to/lastmile_qr_scan"}, "type": "electric_bike", "name": "41e1b506b9ef5b6085f40006cb4c8448", "is_reserved": 0, "lon": -77.11351683333334, "is_disabled": 0, "fusion_lat": 0.0, "lat": 38.84194933333333, "bike_id": "41e1b506b9ef5b6085f40006cb4c8448", "fusion_lon": 0.0}, {"rental_uris": {"ios": "https://dc.lft.to/lastmile_qr_scan", "android": "https://dc.lft.to/lastmile_qr_scan"}, "type": "electric_scooter", "name": "6ac28e943539550503cf8211b17a0510", "is_reserved": 0, "lon": -76.933713, "is_disabled": 0, "fusion_lat": 0.0, "lat": 38.89912133333333, "bike_id": "6ac28e943539550503cf8211b17a0510", "fusion_lon": 0.0}, {"rental_uris": {"ios": "https://dc.lft.to/lastmile_qr_scan", "android": "https://dc.lft.to/lastmile_qr_scan"}, "type": "electric_scooter", "name": "0f95735532e8a2751aa981a897830e0f", "is_reserved": 0, "lon": -77.017509, "is_disabled": 0, "fusion_lat": 0.0, "lat": 38.900255333333334, "bike_id": "0f95735532e8a2751aa981a897830e0f", "fusion_lon": 0.0}, {"rental_uris": {"ios": "https://dc.lft.to/lastmile_qr_scan", "android": "https://dc.lft.to/lastmile_qr_scan"}, "type": "electric_scooter", "name": "90ab96b477f58f5403d51ee27e406f6e", "is_reserved": 0, "lon": -77.00554116666666, "is_disabled": 0, "fusion_lat": 0.0, "lat": 38.874727, "bike_id": "90ab96b477f58f5403d51ee27e406f6e", "fusion_lon": 0.0}, {"rental_uris": {"ios": "https://dc.lft.to/lastmile_qr_scan", "android": "https://dc.lft.to/lastmile_qr_scan"}, "type": "electric_scooter", "name": "a04e521abafc22a9fe9412048c71b028", "is_reserved": 0, "lon": -77.073432, "is_disabled": 0, "fusion_lat": 0.0, "lat": 38.94323166666667, "bike_id": "a04e521abafc22a9fe9412048c71b028", "fusion_lon": 0.0}, {"rental_uris": {"ios": "https://dc.lft.to/lastmile_qr_scan", "android": "https://dc.lft.to/lastmile_qr_scan"}, "type": "electric_scooter", "name": "8464be2c1736864b13b60ff7d555109f", "is_reserved": 0, "lon": -77.07300283333333, "is_disabled": 0, "fusion_lat": 0.0, "lat": 38.93021816666667, "bike_id": "8464be2c1736864b13b60ff7d555109f", "fusion_lon": 0.0}, {"rental_uris": {"ios": "https://dc.lft.to/lastmile_qr_scan", "android": "https://dc.lft.to/lastmile_qr_scan"}, "type": "electric_scooter", "name": "eea39f1e9ba6739f538c2bb3f6226b39", "is_reserved": 0, "lon": -77.04945666666667, "is_disabled": 0, "fusion_lat": 0.0, "lat": 38.9202115, "bike_id": "eea39f1e9ba6739f538c2bb3f6226b39", "fusion_lon": 0.0}, {"rental_uris": {"ios": "https://dc.lft.to/lastmile_qr_scan", "android": "https://dc.lft.to/lastmile_qr_scan"}, "type": "electric_scooter", "name": "7ad20a80803ab13b96198b6a445cc425", "is_reserved": 0, "lon": -77.0254885, "is_disabled": 0, "fusion_lat": 0.0, "lat": 38.9125545, "bike_id": "7ad20a80803ab13b96198b6a445cc425", "fusion_lon": 0.0}, {"rental_uris": {"ios": "https://dc.lft.to/lastmile_qr_scan", "android": "https://dc.lft.to/lastmile_qr_scan"}, "type": "electric_scooter", "name": "99427c585be79d1b8f53a9dcdaf14c1b", "is_reserved": 0, "lon": -77.0258845, "is_disabled": 0, "fusion_lat": 0.0, "lat": 38.89833216666667, "bike_id": "99427c585be79d1b8f53a9dcdaf14c1b", "fusion_lon": 0.0}, {"rental_uris": {"ios": "https://dc.lft.to/lastmile_qr_scan", "android": "https://dc.lft.to/lastmile_qr_scan"}, "type": "electric_bike", "name": "f8aad35c14c5b34a196763b1d782c120", "is_reserved": 0, "lon": -77.23411583333333, "is_disabled": 0, "fusion_lat": 0.0, "lat": 38.8757765, "bike_id": "f8aad35c14c5b34a196763b1d782c120", "fusion_lon": 0.0}, {"rental_uris": {"ios": "https://dc.lft.to/lastmile_qr_scan", "android": "https://dc.lft.to/lastmile_qr_scan"}, "type": "electric_scooter", "name": "98f1679ef706718143937db1b1008ad5", "is_reserved": 0, "lon": -77.03708983333334, "is_disabled": 0, "fusion_lat": 0.0, "lat": 38.90029366666667, "bike_id": "98f1679ef706718143937db1b1008ad5", "fusion_lon": 0.0}, {"rental_uris": {"ios": "https://dc.lft.to/lastmile_qr_scan", "android": "https://dc.lft.to/lastmile_qr_scan"}, "type": "electric_scooter", "name": "d8f82449a53b9a5252e65dbb8b016e02", "is_reserved": 0, "lon": -77.02490066666667, "is_disabled": 0, "fusion_lat": 0.0, "lat": 38.90348983333333, "bike_id": "d8f82449a53b9a5252e65dbb8b016e02", "fusion_lon": 0.0}, {"rental_uris": {"ios": "https://dc.lft.to/lastmile_qr_scan", "android": "https://dc.lft.to/lastmile_qr_scan"}, "type": "electric_scooter", "name": "fc493d39fdf92571e982384e3c90de8d", "is_reserved": 0, "lon": -77.02290133333334, "is_disabled": 0, "fusion_lat": 0.0, "lat": 38.917271666666664, "bike_id": "fc493d39fdf92571e982384e3c90de8d", "fusion_lon": 0.0}, {"rental_uris": {"ios": "https://dc.lft.to/lastmile_qr_scan", "android": "https://dc.lft.to/lastmile_qr_scan"}, "type": "electric_scooter", "name": "e7cfe92fa036b555f05b982347b0baad", "is_reserved": 0, "lon": -76.97630116666667, "is_disabled": 0, "fusion_lat": 0.0, "lat": 38.9057, "bike_id": "e7cfe92fa036b555f05b982347b0baad", "fusion_lon": 0.0}, {"rental_uris": {"ios": "https://dc.lft.to/lastmile_qr_scan", "android": "https://dc.lft.to/lastmile_qr_scan"}, "type": "electric_bike", "name": "f26db32ef96d83c5cc4f908734eb95e2", "is_reserved": 0, "lon": -76.9957945, "is_disabled": 0, "fusion_lat": 0.0, "lat": 38.920687, "bike_id": "f26db32ef96d83c5cc4f908734eb95e2", "fusion_lon": 0.0}, {"rental_uris": {"ios": "https://dc.lft.to/lastmile_qr_scan", "android": "https://dc.lft.to/lastmile_qr_scan"}, "type": "electric_scooter", "name": "d0d14f6c7a9237c8dfb0812e07596dca", "is_reserved": 0, "lon": -77.02978233333333, "is_disabled": 0, "fusion_lat": 0.0, "lat": 38.917069833333336, "bike_id": "d0d14f6c7a9237c8dfb0812e07596dca", "fusion_lon": 0.0}, {"rental_uris": {"ios": "https://dc.lft.to/lastmile_qr_scan", "android": "https://dc.lft.to/lastmile_qr_scan"}, "type": "electric_bike", "name": "37a5f9060170e3e9c071a5fd2437bc17", "is_reserved": 0, "lon": -76.95240533333333, "is_disabled": 0, "fusion_lat": 0.0, "lat": 38.884681666666665, "bike_id": "37a5f9060170e3e9c071a5fd2437bc17", "fusion_lon": 0.0}, {"rental_uris": {"ios": "https://dc.lft.to/lastmile_qr_scan", "android": "https://dc.lft.to/lastmile_qr_scan"}, "type": "electric_scooter", "name": "73932b404e7dd12b903aaecfca6afc7b", "is_reserved": 0, "lon": -77.08399, "is_disabled": 0, "fusion_lat": 0.0, "lat": 38.90800266666667, "bike_id": "73932b404e7dd12b903aaecfca6afc7b", "fusion_lon": 0.0}, {"rental_uris": {"ios": "https://dc.lft.to/lastmile_qr_scan", "android": "https://dc.lft.to/lastmile_qr_scan"}, "type": "electric_scooter", "name": "9d7a2085f85d029c443b38dbb0f67595", "is_reserved": 0, "lon": -77.04248883333334, "is_disabled": 0, "fusion_lat": 0.0, "lat": 38.9218065, "bike_id": "9d7a2085f85d029c443b38dbb0f67595", "fusion_lon": 0.0}, {"rental_uris": {"ios": "https://dc.lft.to/lastmile_qr_scan", "android": "https://dc.lft.to/lastmile_qr_scan"}, "type": "electric_bike", "name": "f2ff79904130306907a3b9f19fad43f7", "is_reserved": 0, "lon": -76.94555883333334, "is_disabled": 0, "fusion_lat": 0.0, "lat": 38.9830415, "bike_id": "f2ff79904130306907a3b9f19fad43f7", "fusion_lon": 0.0}, {"rental_uris": {"ios": "https://dc.lft.to/lastmile_qr_scan", "android": "https://dc.lft.to/lastmile_qr_scan"}, "type": "electric_scooter", "name": "450b890384f8f117e088d8f11d543309", "is_reserved": 0, "lon": -77.03349133333333, "is_disabled": 0, "fusion_lat": 0.0, "lat": 38.9171455, "bike_id": "450b890384f8f117e088d8f11d543309", "fusion_lon": 0.0}, {"rental_uris": {"ios": "https://dc.lft.to/lastmile_qr_scan", "android": "https://dc.lft.to/lastmile_qr_scan"}, "type": "electric_scooter", "name": "cac8cc7e7ba0eddcb297c77869925672", "is_reserved": 0, "lon": -77.0007, "is_disabled": 0, "fusion_lat": 0.0, "lat": 38.876857, "bike_id": "cac8cc7e7ba0eddcb297c77869925672", "fusion_lon": 0.0}, {"rental_uris": {"ios": "https://dc.lft.to/lastmile_qr_scan", "android": "https://dc.lft.to/lastmile_qr_scan"}, "type": "electric_scooter", "name": "e4a7b1a2c1e233d07d5b9ad86fe2c0c5", "is_reserved": 0, "lon": -77.00345033333333, "is_disabled": 0, "fusion_lat": 0.0, "lat": 38.8770925, "bike_id": "e4a7b1a2c1e233d07d5b9ad86fe2c0c5", "fusion_lon": 0.0}, {"rental_uris": {"ios": "https://dc.lft.to/lastmile_qr_scan", "android": "https://dc.lft.to/lastmile_qr_scan"}, "type": "electric_scooter", "name": "f709492419e3f5f572639272baea4131", "is_reserved": 0, "lon": -77.04464866666666, "is_disabled": 0, "fusion_lat": 0.0, "lat": 38.908043, "bike_id": "f709492419e3f5f572639272baea4131", "fusion_lon": 0.0}, {"rental_uris": {"ios": "https://dc.lft.to/lastmile_qr_scan", "android": "https://dc.lft.to/lastmile_qr_scan"}, "type": "electric_scooter", "name": "254f8334f666b44d6e24348f7295809c", "is_reserved": 0, "lon": -77.044702, "is_disabled": 0, "fusion_lat": 0.0, "lat": 38.90064666666667, "bike_id": "254f8334f666b44d6e24348f7295809c", "fusion_lon": 0.0}, {"rental_uris": {"ios": "https://dc.lft.to/lastmile_qr_scan", "android": "https://dc.lft.to/lastmile_qr_scan"}, "type": "electric_scooter", "name": "f6486162ba7c19bf40b37773fa83360a", "is_reserved": 0, "lon": -77.0175265, "is_disabled": 0, "fusion_lat": 0.0, "lat": 38.87719766666667, "bike_id": "f6486162ba7c19bf40b37773fa83360a", "fusion_lon": 0.0}, {"rental_uris": {"ios": "https://dc.lft.to/lastmile_qr_scan", "android": "https://dc.lft.to/lastmile_qr_scan"}, "type": "electric_bike", "name": "131cc83203050c98dbd169f6e03ab383", "is_reserved": 0, "lon": -77.016877, "is_disabled": 0, "fusion_lat": 0.0, "lat": 38.975157333333335, "bike_id": "131cc83203050c98dbd169f6e03ab383", "fusion_lon": 0.0}, {"rental_uris": {"ios": "https://dc.lft.to/lastmile_qr_scan", "android": "https://dc.lft.to/lastmile_qr_scan"}, "type": "electric_scooter", "name": "5a2a8508694e5fee86f9802b7d89229a", "is_reserved": 0, "lon": -77.03133316666667, "is_disabled": 0, "fusion_lat": 0.0, "lat": 38.923740333333335, "bike_id": "5a2a8508694e5fee86f9802b7d89229a", "fusion_lon": 0.0}, {"rental_uris": {"ios": "https://dc.lft.to/lastmile_qr_scan", "android": "https://dc.lft.to/lastmile_qr_scan"}, "type": "electric_scooter", "name": "c00bf6ca1225233bd85211fe8670fb32", "is_reserved": 0, "lon": -77.02838, "is_disabled": 0, "fusion_lat": 0.0, "lat": 38.887294833333335, "bike_id": "c00bf6ca1225233bd85211fe8670fb32", "fusion_lon": 0.0}, {"rental_uris": {"ios": "https://dc.lft.to/lastmile_qr_scan", "android": "https://dc.lft.to/lastmile_qr_scan"}, "type": "electric_bike", "name": "bfdbece3652309cca655605cceda9038", "is_reserved": 0, "lon": -77.05264183333334, "is_disabled": 0, "fusion_lat": 0.0, "lat": 38.94087583333334, "bike_id": "bfdbece3652309cca655605cceda9038", "fusion_lon": 0.0}, {"rental_uris": {"ios": "https://dc.lft.to/lastmile_qr_scan", "android": "https://dc.lft.to/lastmile_qr_scan"}, "type": "electric_scooter", "name": "84f0d3cf7c7142e4e8cadcdf9b0f0c23", "is_reserved": 0, "lon": -77.0447835, "is_disabled": 0, "fusion_lat": 0.0, "lat": 38.914464333333335, "bike_id": "84f0d3cf7c7142e4e8cadcdf9b0f0c23", "fusion_lon": 0.0}, {"rental_uris": {"ios": "https://dc.lft.to/lastmile_qr_scan", "android": "https://dc.lft.to/lastmile_qr_scan"}, "type": "electric_scooter", "name": "52b8b8f9fd684b1bb5e84b20c23b0200", "is_reserved": 0, "lon": -77.03477083333334, "is_disabled": 0, "fusion_lat": 0.0, "lat": 38.90150833333333, "bike_id": "52b8b8f9fd684b1bb5e84b20c23b0200", "fusion_lon": 0.0}, {"rental_uris": {"ios": "https://dc.lft.to/lastmile_qr_scan", "android": "https://dc.lft.to/lastmile_qr_scan"}, "type": "electric_scooter", "name": "7f16b36f71977eb7ca46ec6a9f57943a", "is_reserved": 0, "lon": -77.042485, "is_disabled": 0, "fusion_lat": 0.0, "lat": 38.916312, "bike_id": "7f16b36f71977eb7ca46ec6a9f57943a", "fusion_lon": 0.0}, {"rental_uris": {"ios": "https://dc.lft.to/lastmile_qr_scan", "android": "https://dc.lft.to/lastmile_qr_scan"}, "type": "electric_scooter", "name": "2d35f6baab1bd93352b095531cdf7fc9", "is_reserved": 0, "lon": -77.0327165, "is_disabled": 0, "fusion_lat": 0.0, "lat": 38.9056125, "bike_id": "2d35f6baab1bd93352b095531cdf7fc9", "fusion_lon": 0.0}, {"rental_uris": {"ios": "https://dc.lft.to/lastmile_qr_scan", "android": "https://dc.lft.to/lastmile_qr_scan"}, "type": "electric_scooter", "name": "162b8f7db2816412bb0cd8b5f76e6377", "is_reserved": 0, "lon": -77.00202, "is_disabled": 0, "fusion_lat": 0.0, "lat": 38.90234383333333, "bike_id": "162b8f7db2816412bb0cd8b5f76e6377", "fusion_lon": 0.0}, {"rental_uris": {"ios": "https://dc.lft.to/lastmile_qr_scan", "android": "https://dc.lft.to/lastmile_qr_scan"}, "type": "electric_scooter", "name": "c7c81d9a0f1ca50b3fd280155056f83b", "is_reserved": 0, "lon": -77.03141166666667, "is_disabled": 0, "fusion_lat": 0.0, "lat": 38.91265283333333, "bike_id": "c7c81d9a0f1ca50b3fd280155056f83b", "fusion_lon": 0.0}, {"rental_uris": {"ios": "https://dc.lft.to/lastmile_qr_scan", "android": "https://dc.lft.to/lastmile_qr_scan"}, "type": "electric_scooter", "name": "a53728c1722bf8451f071d87471df4b3", "is_reserved": 0, "lon": -77.02686916666667, "is_disabled": 0, "fusion_lat": 0.0, "lat": 38.972423, "bike_id": "a53728c1722bf8451f071d87471df4b3", "fusion_lon": 0.0}, {"rental_uris": {"ios": "https://dc.lft.to/lastmile_qr_scan", "android": "https://dc.lft.to/lastmile_qr_scan"}, "type": "electric_scooter", "name": "14241ce96ea2f75751d2eeb58502277f", "is_reserved": 0, "lon": -76.942005, "is_disabled": 0, "fusion_lat": 0.0, "lat": 38.9022435, "bike_id": "14241ce96ea2f75751d2eeb58502277f", "fusion_lon": 0.0}, {"rental_uris": {"ios": "https://dc.lft.to/lastmile_qr_scan", "android": "https://dc.lft.to/lastmile_qr_scan"}, "type": "electric_scooter", "name": "df8b593a4e15a1157e4e8f72e97821e7", "is_reserved": 0, "lon": -76.99443916666667, "is_disabled": 0, "fusion_lat": 0.0, "lat": 38.9001515, "bike_id": "df8b593a4e15a1157e4e8f72e97821e7", "fusion_lon": 0.0}, {"rental_uris": {"ios": "https://dc.lft.to/lastmile_qr_scan", "android": "https://dc.lft.to/lastmile_qr_scan"}, "type": "electric_scooter", "name": "3fe9348a1e9c4e9e8af296cd6b15febf", "is_reserved": 0, "lon": -77.0215265, "is_disabled": 0, "fusion_lat": 0.0, "lat": 38.903026, "bike_id": "3fe9348a1e9c4e9e8af296cd6b15febf", "fusion_lon": 0.0}, {"rental_uris": {"ios": "https://dc.lft.to/lastmile_qr_scan", "android": "https://dc.lft.to/lastmile_qr_scan"}, "type": "electric_scooter", "name": "dcf869efb98be649f46007e179b57e3f", "is_reserved": 0, "lon": -77.00206183333333, "is_disabled": 0, "fusion_lat": 0.0, "lat": 38.900395, "bike_id": "dcf869efb98be649f46007e179b57e3f", "fusion_lon": 0.0}, {"rental_uris": {"ios": "https://dc.lft.to/lastmile_qr_scan", "android": "https://dc.lft.to/lastmile_qr_scan"}, "type": "electric_scooter", "name": "aec22e9c14553f5b4c0098f4eafd4f18", "is_reserved": 0, "lon": -76.9827955, "is_disabled": 0, "fusion_lat": 0.0, "lat": 38.903371666666665, "bike_id": "aec22e9c14553f5b4c0098f4eafd4f18", "fusion_lon": 0.0}, {"rental_uris": {"ios": "https://dc.lft.to/lastmile_qr_scan", "android": "https://dc.lft.to/lastmile_qr_scan"}, "type": "electric_scooter", "name": "c1fc3e6ec5e045f3b8422a8aa020a033", "is_reserved": 0, "lon": -77.022968, "is_disabled": 0, "fusion_lat": 0.0, "lat": 38.91841316666667, "bike_id": "c1fc3e6ec5e045f3b8422a8aa020a033", "fusion_lon": 0.0}, {"rental_uris": {"ios": "https://dc.lft.to/lastmile_qr_scan", "android": "https://dc.lft.to/lastmile_qr_scan"}, "type": "electric_scooter", "name": "2c7df3dd158b2c1f9107e7d9e6de88cb", "is_reserved": 0, "lon": -77.04171466666666, "is_disabled": 0, "fusion_lat": 0.0, "lat": 38.911885166666664, "bike_id": "2c7df3dd158b2c1f9107e7d9e6de88cb", "fusion_lon": 0.0}, {"rental_uris": {"ios": "https://dc.lft.to/lastmile_qr_scan", "android": "https://dc.lft.to/lastmile_qr_scan"}, "type": "electric_scooter", "name": "335c3778ce6a669597a3257287df9ce3", "is_reserved": 0, "lon": -77.07552966666667, "is_disabled": 0, "fusion_lat": 0.0, "lat": 38.920853, "bike_id": "335c3778ce6a669597a3257287df9ce3", "fusion_lon": 0.0}, {"rental_uris": {"ios": "https://dc.lft.to/lastmile_qr_scan", "android": "https://dc.lft.to/lastmile_qr_scan"}, "type": "electric_scooter", "name": "21219ca8d6224be33df8e069be907bc2", "is_reserved": 0, "lon": -77.02621666666667, "is_disabled": 0, "fusion_lat": 0.0, "lat": 38.896126833333334, "bike_id": "21219ca8d6224be33df8e069be907bc2", "fusion_lon": 0.0}, {"rental_uris": {"ios": "https://dc.lft.to/lastmile_qr_scan", "android": "https://dc.lft.to/lastmile_qr_scan"}, "type": "electric_bike", "name": "66b1a85354cf99a03581b6c31c44b588", "is_reserved": 0, "lon": -77.065744, "is_disabled": 0, "fusion_lat": 0.0, "lat": 38.9112965, "bike_id": "66b1a85354cf99a03581b6c31c44b588", "fusion_lon": 0.0}, {"rental_uris": {"ios": "https://dc.lft.to/lastmile_qr_scan", "android": "https://dc.lft.to/lastmile_qr_scan"}, "type": "electric_scooter", "name": "6c3dbf369afd09a0344b21ad3b6a5835", "is_reserved": 0, "lon": -77.047344, "is_disabled": 0, "fusion_lat": 0.0, "lat": 38.8954965, "bike_id": "6c3dbf369afd09a0344b21ad3b6a5835", "fusion_lon": 0.0}, {"rental_uris": {"ios": "https://dc.lft.to/lastmile_qr_scan", "android": "https://dc.lft.to/lastmile_qr_scan"}, "type": "electric_scooter", "name": "68d475ad3d7a6797cf7274bb1ab55b2a", "is_reserved": 0, "lon": -77.019112, "is_disabled": 0, "fusion_lat": 0.0, "lat": 38.90501483333333, "bike_id": "68d475ad3d7a6797cf7274bb1ab55b2a", "fusion_lon": 0.0}, {"rental_uris": {"ios": "https://dc.lft.to/lastmile_qr_scan", "android": "https://dc.lft.to/lastmile_qr_scan"}, "type": "electric_scooter", "name": "9b6197d0d7a02b0880c7491b59f4575c", "is_reserved": 0, "lon": -77.0422875, "is_disabled": 0, "fusion_lat": 0.0, "lat": 38.911043, "bike_id": "9b6197d0d7a02b0880c7491b59f4575c", "fusion_lon": 0.0}, {"rental_uris": {"ios": "https://dc.lft.to/lastmile_qr_scan", "android": "https://dc.lft.to/lastmile_qr_scan"}, "type": "electric_scooter", "name": "d3636578d41f635a47edf5d49a0a4bdb", "is_reserved": 0, "lon": -77.0317825, "is_disabled": 0, "fusion_lat": 0.0, "lat": 38.915513833333335, "bike_id": "d3636578d41f635a47edf5d49a0a4bdb", "fusion_lon": 0.0}, {"rental_uris": {"ios": "https://dc.lft.to/lastmile_qr_scan", "android": "https://dc.lft.to/lastmile_qr_scan"}, "type": "electric_scooter", "name": "66bbc792d3f97a240a126b28e308e3bb", "is_reserved": 0, "lon": -77.02699366666667, "is_disabled": 0, "fusion_lat": 0.0, "lat": 38.9083945, "bike_id": "66bbc792d3f97a240a126b28e308e3bb", "fusion_lon": 0.0}, {"rental_uris": {"ios": "https://dc.lft.to/lastmile_qr_scan", "android": "https://dc.lft.to/lastmile_qr_scan"}, "type": "electric_scooter", "name": "cb0731815907929eddd4707c091aeb65", "is_reserved": 0, "lon": -77.044332, "is_disabled": 0, "fusion_lat": 0.0, "lat": 38.917857, "bike_id": "cb0731815907929eddd4707c091aeb65", "fusion_lon": 0.0}, {"rental_uris": {"ios": "https://dc.lft.to/lastmile_qr_scan", "android": "https://dc.lft.to/lastmile_qr_scan"}, "type": "electric_scooter", "name": "c8272be65d7779970c5caa09d4baaf32", "is_reserved": 0, "lon": -77.01015983333333, "is_disabled": 0, "fusion_lat": 0.0, "lat": 38.91257316666667, "bike_id": "c8272be65d7779970c5caa09d4baaf32", "fusion_lon": 0.0}, {"rental_uris": {"ios": "https://dc.lft.to/lastmile_qr_scan", "android": "https://dc.lft.to/lastmile_qr_scan"}, "type": "electric_scooter", "name": "4bccd78aef7b3fa3eb9b3cae753cea6d", "is_reserved": 0, "lon": -76.99419283333333, "is_disabled": 0, "fusion_lat": 0.0, "lat": 38.91685983333333, "bike_id": "4bccd78aef7b3fa3eb9b3cae753cea6d", "fusion_lon": 0.0}, {"rental_uris": {"ios": "https://dc.lft.to/lastmile_qr_scan", "android": "https://dc.lft.to/lastmile_qr_scan"}, "type": "electric_bike", "name": "415a8b105d689a8949b0a0ee2857827e", "is_reserved": 0, "lon": -77.09960433333333, "is_disabled": 0, "fusion_lat": 0.0, "lat": 38.857847166666666, "bike_id": "415a8b105d689a8949b0a0ee2857827e", "fusion_lon": 0.0}, {"rental_uris": {"ios": "https://dc.lft.to/lastmile_qr_scan", "android": "https://dc.lft.to/lastmile_qr_scan"}, "type": "electric_scooter", "name": "199604e4c47e98489c86dff328e04c61", "is_reserved": 0, "lon": -77.00942, "is_disabled": 0, "fusion_lat": 0.0, "lat": 38.9126005, "bike_id": "199604e4c47e98489c86dff328e04c61", "fusion_lon": 0.0}, {"rental_uris": {"ios": "https://dc.lft.to/lastmile_qr_scan", "android": "https://dc.lft.to/lastmile_qr_scan"}, "type": "electric_scooter", "name": "bccc621d962b65568262a2bdf186f8f9", "is_reserved": 0, "lon": -77.03195933333333, "is_disabled": 0, "fusion_lat": 0.0, "lat": 38.912142833333334, "bike_id": "bccc621d962b65568262a2bdf186f8f9", "fusion_lon": 0.0}, {"rental_uris": {"ios": "https://dc.lft.to/lastmile_qr_scan", "android": "https://dc.lft.to/lastmile_qr_scan"}, "type": "electric_scooter", "name": "76a7091325f24f67204c4f7de21e4081", "is_reserved": 0, "lon": -76.97939633333333, "is_disabled": 0, "fusion_lat": 0.0, "lat": 38.916019666666664, "bike_id": "76a7091325f24f67204c4f7de21e4081", "fusion_lon": 0.0}, {"rental_uris": {"ios": "https://dc.lft.to/lastmile_qr_scan", "android": "https://dc.lft.to/lastmile_qr_scan"}, "type": "electric_scooter", "name": "e9684d183acd98515b51b8012a6bcd32", "is_reserved": 0, "lon": -77.00573283333334, "is_disabled": 0, "fusion_lat": 0.0, "lat": 38.87456683333333, "bike_id": "e9684d183acd98515b51b8012a6bcd32", "fusion_lon": 0.0}, {"rental_uris": {"ios": "https://dc.lft.to/lastmile_qr_scan", "android": "https://dc.lft.to/lastmile_qr_scan"}, "type": "electric_scooter", "name": "da10a584ef6cbbbb5a2951ad519fb935", "is_reserved": 0, "lon": -76.97335183333334, "is_disabled": 0, "fusion_lat": 0.0, "lat": 38.90403516666667, "bike_id": "da10a584ef6cbbbb5a2951ad519fb935", "fusion_lon": 0.0}, {"rental_uris": {"ios": "https://dc.lft.to/lastmile_qr_scan", "android": "https://dc.lft.to/lastmile_qr_scan"}, "type": "electric_scooter", "name": "b59ae00af712a2b8f85d1fdeb9b57473", "is_reserved": 0, "lon": -77.023162, "is_disabled": 0, "fusion_lat": 0.0, "lat": 38.8787975, "bike_id": "b59ae00af712a2b8f85d1fdeb9b57473", "fusion_lon": 0.0}, {"rental_uris": {"ios": "https://dc.lft.to/lastmile_qr_scan", "android": "https://dc.lft.to/lastmile_qr_scan"}, "type": "electric_scooter", "name": "b19538228762b35286b2e7039e9bb005", "is_reserved": 0, "lon": -77.03192133333333, "is_disabled": 0, "fusion_lat": 0.0, "lat": 38.90945983333334, "bike_id": "b19538228762b35286b2e7039e9bb005", "fusion_lon": 0.0}, {"rental_uris": {"ios": "https://dc.lft.to/lastmile_qr_scan", "android": "https://dc.lft.to/lastmile_qr_scan"}, "type": "electric_bike", "name": "18a9d6821b2e1f739fd39a299fdde215", "is_reserved": 0, "lon": -76.97854083333333, "is_disabled": 0, "fusion_lat": 0.0, "lat": 38.98380566666667, "bike_id": "18a9d6821b2e1f739fd39a299fdde215", "fusion_lon": 0.0}, {"rental_uris": {"ios": "https://dc.lft.to/lastmile_qr_scan", "android": "https://dc.lft.to/lastmile_qr_scan"}, "type": "electric_scooter", "name": "ac7cfa7b16ebce595ad71b56d9bb8591", "is_reserved": 0, "lon": -77.01844, "is_disabled": 0, "fusion_lat": 0.0, "lat": 38.94995433333333, "bike_id": "ac7cfa7b16ebce595ad71b56d9bb8591", "fusion_lon": 0.0}, {"rental_uris": {"ios": "https://dc.lft.to/lastmile_qr_scan", "android": "https://dc.lft.to/lastmile_qr_scan"}, "type": "electric_scooter", "name": "0ad7ae7051a17a7460e64e6f86bb5696", "is_reserved": 0, "lon": -76.98703316666666, "is_disabled": 0, "fusion_lat": 0.0, "lat": 38.88836633333333, "bike_id": "0ad7ae7051a17a7460e64e6f86bb5696", "fusion_lon": 0.0}, {"rental_uris": {"ios": "https://dc.lft.to/lastmile_qr_scan", "android": "https://dc.lft.to/lastmile_qr_scan"}, "type": "electric_scooter", "name": "358ee62b63f86c106188f8177a09a90a", "is_reserved": 0, "lon": -77.032184, "is_disabled": 0, "fusion_lat": 0.0, "lat": 38.892210166666665, "bike_id": "358ee62b63f86c106188f8177a09a90a", "fusion_lon": 0.0}, {"rental_uris": {"ios": "https://dc.lft.to/lastmile_qr_scan", "android": "https://dc.lft.to/lastmile_qr_scan"}, "type": "electric_bike", "name": "89bdd7a2c156ff9d8fa49fc5be853fe7", "is_reserved": 0, "lon": -77.0945255, "is_disabled": 0, "fusion_lat": 0.0, "lat": 38.807526, "bike_id": "89bdd7a2c156ff9d8fa49fc5be853fe7", "fusion_lon": 0.0}, {"rental_uris": {"ios": "https://dc.lft.to/lastmile_qr_scan", "android": "https://dc.lft.to/lastmile_qr_scan"}, "type": "electric_scooter", "name": "bc7e94cbc2e95f373c1c0c2f9ef78df3", "is_reserved": 0, "lon": -77.07873416666666, "is_disabled": 0, "fusion_lat": 0.0, "lat": 38.946067166666666, "bike_id": "bc7e94cbc2e95f373c1c0c2f9ef78df3", "fusion_lon": 0.0}, {"rental_uris": {"ios": "https://dc.lft.to/lastmile_qr_scan", "android": "https://dc.lft.to/lastmile_qr_scan"}, "type": "electric_scooter", "name": "3ed6fd7fdaccc806d6b9bf9353c13cc8", "is_reserved": 0, "lon": -77.02200833333333, "is_disabled": 0, "fusion_lat": 0.0, "lat": 38.9515365, "bike_id": "3ed6fd7fdaccc806d6b9bf9353c13cc8", "fusion_lon": 0.0}, {"rental_uris": {"ios": "https://dc.lft.to/lastmile_qr_scan", "android": "https://dc.lft.to/lastmile_qr_scan"}, "type": "electric_scooter", "name": "1459125ff60ddb9ec09dab34b1dcecb9", "is_reserved": 0, "lon": -76.94874383333334, "is_disabled": 0, "fusion_lat": 0.0, "lat": 38.8948485, "bike_id": "1459125ff60ddb9ec09dab34b1dcecb9", "fusion_lon": 0.0}, {"rental_uris": {"ios": "https://dc.lft.to/lastmile_qr_scan", "android": "https://dc.lft.to/lastmile_qr_scan"}, "type": "electric_scooter", "name": "d789298e4494be87fd3eb9e6810280cd", "is_reserved": 0, "lon": -77.0215635, "is_disabled": 0, "fusion_lat": 0.0, "lat": 38.926012666666665, "bike_id": "d789298e4494be87fd3eb9e6810280cd", "fusion_lon": 0.0}, {"rental_uris": {"ios": "https://dc.lft.to/lastmile_qr_scan", "android": "https://dc.lft.to/lastmile_qr_scan"}, "type": "electric_scooter", "name": "17e3e1bac44e022ba0d096ce6c226593", "is_reserved": 0, "lon": -77.02730766666667, "is_disabled": 0, "fusion_lat": 0.0, "lat": 38.93495166666666, "bike_id": "17e3e1bac44e022ba0d096ce6c226593", "fusion_lon": 0.0}, {"rental_uris": {"ios": "https://dc.lft.to/lastmile_qr_scan", "android": "https://dc.lft.to/lastmile_qr_scan"}, "type": "electric_scooter", "name": "cce46b7709583b06423224a61f112e3e", "is_reserved": 0, "lon": -77.02622416666667, "is_disabled": 0, "fusion_lat": 0.0, "lat": 38.902517, "bike_id": "cce46b7709583b06423224a61f112e3e", "fusion_lon": 0.0}, {"rental_uris": {"ios": "https://dc.lft.to/lastmile_qr_scan", "android": "https://dc.lft.to/lastmile_qr_scan"}, "type": "electric_scooter", "name": "4a977ec66867ee5cb826e6c867883a7c", "is_reserved": 0, "lon": -77.0214235, "is_disabled": 0, "fusion_lat": 0.0, "lat": 38.915510833333336, "bike_id": "4a977ec66867ee5cb826e6c867883a7c", "fusion_lon": 0.0}, {"rental_uris": {"ios": "https://dc.lft.to/lastmile_qr_scan", "android": "https://dc.lft.to/lastmile_qr_scan"}, "type": "electric_scooter", "name": "2a74815b29e6e7750f1553d48cd12e66", "is_reserved": 0, "lon": -77.02111566666666, "is_disabled": 0, "fusion_lat": 0.0, "lat": 38.90937783333333, "bike_id": "2a74815b29e6e7750f1553d48cd12e66", "fusion_lon": 0.0}, {"rental_uris": {"ios": "https://dc.lft.to/lastmile_qr_scan", "android": "https://dc.lft.to/lastmile_qr_scan"}, "type": "electric_scooter", "name": "e739bfc377fb2250e58acdc645a5a7b0", "is_reserved": 0, "lon": -77.03239383333333, "is_disabled": 0, "fusion_lat": 0.0, "lat": 38.927454, "bike_id": "e739bfc377fb2250e58acdc645a5a7b0", "fusion_lon": 0.0}, {"rental_uris": {"ios": "https://dc.lft.to/lastmile_qr_scan", "android": "https://dc.lft.to/lastmile_qr_scan"}, "type": "electric_scooter", "name": "d3e3c9f24ae8782eb7ec0e5b29336921", "is_reserved": 0, "lon": -77.02221366666667, "is_disabled": 0, "fusion_lat": 0.0, "lat": 38.91413983333333, "bike_id": "d3e3c9f24ae8782eb7ec0e5b29336921", "fusion_lon": 0.0}, {"rental_uris": {"ios": "https://dc.lft.to/lastmile_qr_scan", "android": "https://dc.lft.to/lastmile_qr_scan"}, "type": "electric_scooter", "name": "645c193c5ed622c629626e7cc9b108b1", "is_reserved": 0, "lon": -77.0521975, "is_disabled": 0, "fusion_lat": 0.0, "lat": 38.924903, "bike_id": "645c193c5ed622c629626e7cc9b108b1", "fusion_lon": 0.0}, {"rental_uris": {"ios": "https://dc.lft.to/lastmile_qr_scan", "android": "https://dc.lft.to/lastmile_qr_scan"}, "type": "electric_scooter", "name": "36f6bb235d75d097b4160c456ee93319", "is_reserved": 0, "lon": -77.00631266666667, "is_disabled": 0, "fusion_lat": 0.0, "lat": 38.90575783333333, "bike_id": "36f6bb235d75d097b4160c456ee93319", "fusion_lon": 0.0}, {"rental_uris": {"ios": "https://dc.lft.to/lastmile_qr_scan", "android": "https://dc.lft.to/lastmile_qr_scan"}, "type": "electric_scooter", "name": "e573d1f9eb2e92d677d7fa0b3342a9c2", "is_reserved": 0, "lon": -77.04648966666667, "is_disabled": 0, "fusion_lat": 0.0, "lat": 38.90060866666666, "bike_id": "e573d1f9eb2e92d677d7fa0b3342a9c2", "fusion_lon": 0.0}, {"rental_uris": {"ios": "https://dc.lft.to/lastmile_qr_scan", "android": "https://dc.lft.to/lastmile_qr_scan"}, "type": "electric_scooter", "name": "ed45f23b091d2b499712b73721807810", "is_reserved": 0, "lon": -77.059726, "is_disabled": 0, "fusion_lat": 0.0, "lat": 38.905377666666666, "bike_id": "ed45f23b091d2b499712b73721807810", "fusion_lon": 0.0}, {"rental_uris": {"ios": "https://dc.lft.to/lastmile_qr_scan", "android": "https://dc.lft.to/lastmile_qr_scan"}, "type": "electric_scooter", "name": "491db4f148068b613d33de8c70e02d0b", "is_reserved": 0, "lon": -77.0387675, "is_disabled": 0, "fusion_lat": 0.0, "lat": 38.9081045, "bike_id": "491db4f148068b613d33de8c70e02d0b", "fusion_lon": 0.0}, {"rental_uris": {"ios": "https://dc.lft.to/lastmile_qr_scan", "android": "https://dc.lft.to/lastmile_qr_scan"}, "type": "electric_scooter", "name": "ee2765b694cf22fe0139e87e18599f3b", "is_reserved": 0, "lon": -77.02596366666667, "is_disabled": 0, "fusion_lat": 0.0, "lat": 38.8807445, "bike_id": "ee2765b694cf22fe0139e87e18599f3b", "fusion_lon": 0.0}, {"rental_uris": {"ios": "https://dc.lft.to/lastmile_qr_scan", "android": "https://dc.lft.to/lastmile_qr_scan"}, "type": "electric_scooter", "name": "41e29c73fe6cc428d1541b2bf8073487", "is_reserved": 0, "lon": -77.0398575, "is_disabled": 0, "fusion_lat": 0.0, "lat": 38.909708333333334, "bike_id": "41e29c73fe6cc428d1541b2bf8073487", "fusion_lon": 0.0}, {"rental_uris": {"ios": "https://dc.lft.to/lastmile_qr_scan", "android": "https://dc.lft.to/lastmile_qr_scan"}, "type": "electric_bike", "name": "c2d2acd378a53933def5e88ee994e6d0", "is_reserved": 0, "lon": -76.9609425, "is_disabled": 0, "fusion_lat": 0.0, "lat": 38.949631333333336, "bike_id": "c2d2acd378a53933def5e88ee994e6d0", "fusion_lon": 0.0}, {"rental_uris": {"ios": "https://dc.lft.to/lastmile_qr_scan", "android": "https://dc.lft.to/lastmile_qr_scan"}, "type": "electric_scooter", "name": "9f1de6bdc327edfe1d10a6248d53c644", "is_reserved": 0, "lon": -77.00209666666667, "is_disabled": 0, "fusion_lat": 0.0, "lat": 38.90157083333333, "bike_id": "9f1de6bdc327edfe1d10a6248d53c644", "fusion_lon": 0.0}, {"rental_uris": {"ios": "https://dc.lft.to/lastmile_qr_scan", "android": "https://dc.lft.to/lastmile_qr_scan"}, "type": "electric_scooter", "name": "2cc6f223f7e5714f32515d3120aac6e7", "is_reserved": 0, "lon": -77.038529, "is_disabled": 0, "fusion_lat": 0.0, "lat": 38.902589666666664, "bike_id": "2cc6f223f7e5714f32515d3120aac6e7", "fusion_lon": 0.0}, {"rental_uris": {"ios": "https://dc.lft.to/lastmile_qr_scan", "android": "https://dc.lft.to/lastmile_qr_scan"}, "type": "electric_scooter", "name": "352e028f0c76498fd1d00f822a3286cd", "is_reserved": 0, "lon": -77.007399, "is_disabled": 0, "fusion_lat": 0.0, "lat": 38.878559, "bike_id": "352e028f0c76498fd1d00f822a3286cd", "fusion_lon": 0.0}, {"rental_uris": {"ios": "https://dc.lft.to/lastmile_qr_scan", "android": "https://dc.lft.to/lastmile_qr_scan"}, "type": "electric_scooter", "name": "f87ec077a0caebc98f59c3270f1047c2", "is_reserved": 0, "lon": -77.02692116666667, "is_disabled": 0, "fusion_lat": 0.0, "lat": 38.899873166666666, "bike_id": "f87ec077a0caebc98f59c3270f1047c2", "fusion_lon": 0.0}, {"rental_uris": {"ios": "https://dc.lft.to/lastmile_qr_scan", "android": "https://dc.lft.to/lastmile_qr_scan"}, "type": "electric_scooter", "name": "a1eb445e70b2b379362680e922c767f3", "is_reserved": 0, "lon": -77.011018, "is_disabled": 0, "fusion_lat": 0.0, "lat": 38.88539983333333, "bike_id": "a1eb445e70b2b379362680e922c767f3", "fusion_lon": 0.0}, {"rental_uris": {"ios": "https://dc.lft.to/lastmile_qr_scan", "android": "https://dc.lft.to/lastmile_qr_scan"}, "type": "electric_scooter", "name": "ace9cb2c066653bd5cea9e2f9131b66f", "is_reserved": 0, "lon": -77.026649, "is_disabled": 0, "fusion_lat": 0.0, "lat": 38.884902, "bike_id": "ace9cb2c066653bd5cea9e2f9131b66f", "fusion_lon": 0.0}, {"rental_uris": {"ios": "https://dc.lft.to/lastmile_qr_scan", "android": "https://dc.lft.to/lastmile_qr_scan"}, "type": "electric_bike", "name": "901fbe93ea6d7f0a17efc4b1035f688a", "is_reserved": 0, "lon": -76.95704316666667, "is_disabled": 0, "fusion_lat": 0.0, "lat": 38.85090316666667, "bike_id": "901fbe93ea6d7f0a17efc4b1035f688a", "fusion_lon": 0.0}, {"rental_uris": {"ios": "https://dc.lft.to/lastmile_qr_scan", "android": "https://dc.lft.to/lastmile_qr_scan"}, "type": "electric_bike", "name": "fdfb8fefdcada4ae9ab8259a64fc5884", "is_reserved": 0, "lon": -77.09021116666666, "is_disabled": 0, "fusion_lat": 0.0, "lat": 38.9264375, "bike_id": "fdfb8fefdcada4ae9ab8259a64fc5884", "fusion_lon": 0.0}, {"rental_uris": {"ios": "https://dc.lft.to/lastmile_qr_scan", "android": "https://dc.lft.to/lastmile_qr_scan"}, "type": "electric_scooter", "name": "7def5a0c7afcb59d1afdb863701bbb6b", "is_reserved": 0, "lon": -77.00762466666667, "is_disabled": 0, "fusion_lat": 0.0, "lat": 38.9252595, "bike_id": "7def5a0c7afcb59d1afdb863701bbb6b", "fusion_lon": 0.0}, {"rental_uris": {"ios": "https://dc.lft.to/lastmile_qr_scan", "android": "https://dc.lft.to/lastmile_qr_scan"}, "type": "electric_scooter", "name": "0e372193579632b2b0641d6af7fec9c4", "is_reserved": 0, "lon": -77.04860733333334, "is_disabled": 0, "fusion_lat": 0.0, "lat": 38.90469483333333, "bike_id": "0e372193579632b2b0641d6af7fec9c4", "fusion_lon": 0.0}, {"rental_uris": {"ios": "https://dc.lft.to/lastmile_qr_scan", "android": "https://dc.lft.to/lastmile_qr_scan"}, "type": "electric_scooter", "name": "4c1efe82d66204afc1dd26ea4dfd5d76", "is_reserved": 0, "lon": -76.9588465, "is_disabled": 0, "fusion_lat": 0.0, "lat": 38.858392, "bike_id": "4c1efe82d66204afc1dd26ea4dfd5d76", "fusion_lon": 0.0}, {"rental_uris": {"ios": "https://dc.lft.to/lastmile_qr_scan", "android": "https://dc.lft.to/lastmile_qr_scan"}, "type": "electric_scooter", "name": "f7f437452b0cec5b5747caefa8928f33", "is_reserved": 0, "lon": -77.03863183333333, "is_disabled": 0, "fusion_lat": 0.0, "lat": 38.9103645, "bike_id": "f7f437452b0cec5b5747caefa8928f33", "fusion_lon": 0.0}, {"rental_uris": {"ios": "https://dc.lft.to/lastmile_qr_scan", "android": "https://dc.lft.to/lastmile_qr_scan"}, "type": "electric_scooter", "name": "90cec46ab2814b5b1d6eb4a5dc548205", "is_reserved": 0, "lon": -77.025641, "is_disabled": 0, "fusion_lat": 0.0, "lat": 38.93858183333333, "bike_id": "90cec46ab2814b5b1d6eb4a5dc548205", "fusion_lon": 0.0}, {"rental_uris": {"ios": "https://dc.lft.to/lastmile_qr_scan", "android": "https://dc.lft.to/lastmile_qr_scan"}, "type": "electric_scooter", "name": "01fe92bbf7f8b83d82c4ddd8561bc940", "is_reserved": 0, "lon": -76.98356266666667, "is_disabled": 0, "fusion_lat": 0.0, "lat": 38.887388666666666, "bike_id": "01fe92bbf7f8b83d82c4ddd8561bc940", "fusion_lon": 0.0}, {"rental_uris": {"ios": "https://dc.lft.to/lastmile_qr_scan", "android": "https://dc.lft.to/lastmile_qr_scan"}, "type": "electric_scooter", "name": "568967eb325e153ce796c4d92a5999eb", "is_reserved": 0, "lon": -76.98618383333333, "is_disabled": 0, "fusion_lat": 0.0, "lat": 38.90347716666667, "bike_id": "568967eb325e153ce796c4d92a5999eb", "fusion_lon": 0.0}, {"rental_uris": {"ios": "https://dc.lft.to/lastmile_qr_scan", "android": "https://dc.lft.to/lastmile_qr_scan"}, "type": "electric_bike", "name": "c0da1332e205e38a63f590e9381a4250", "is_reserved": 0, "lon": -77.12697766666666, "is_disabled": 0, "fusion_lat": 0.0, "lat": 38.895656833333334, "bike_id": "c0da1332e205e38a63f590e9381a4250", "fusion_lon": 0.0}, {"rental_uris": {"ios": "https://dc.lft.to/lastmile_qr_scan", "android": "https://dc.lft.to/lastmile_qr_scan"}, "type": "electric_scooter", "name": "226ea6d08d0de6e34f14b664acac224d", "is_reserved": 0, "lon": -77.02799783333333, "is_disabled": 0, "fusion_lat": 0.0, "lat": 38.90741366666666, "bike_id": "226ea6d08d0de6e34f14b664acac224d", "fusion_lon": 0.0}, {"rental_uris": {"ios": "https://dc.lft.to/lastmile_qr_scan", "android": "https://dc.lft.to/lastmile_qr_scan"}, "type": "electric_scooter", "name": "6bbb0c1dbd99044ae18aa0d6a50f8a95", "is_reserved": 0, "lon": -77.024265, "is_disabled": 0, "fusion_lat": 0.0, "lat": 38.903071833333335, "bike_id": "6bbb0c1dbd99044ae18aa0d6a50f8a95", "fusion_lon": 0.0}, {"rental_uris": {"ios": "https://dc.lft.to/lastmile_qr_scan", "android": "https://dc.lft.to/lastmile_qr_scan"}, "type": "electric_scooter", "name": "115152763246348d3312cca8315245e9", "is_reserved": 0, "lon": -76.98582866666666, "is_disabled": 0, "fusion_lat": 0.0, "lat": 38.861793166666665, "bike_id": "115152763246348d3312cca8315245e9", "fusion_lon": 0.0}, {"rental_uris": {"ios": "https://dc.lft.to/lastmile_qr_scan", "android": "https://dc.lft.to/lastmile_qr_scan"}, "type": "electric_scooter", "name": "e45d0dfb211145b7a7810cd4eac0f453", "is_reserved": 0, "lon": -77.02965366666666, "is_disabled": 0, "fusion_lat": 0.0, "lat": 38.906409833333335, "bike_id": "e45d0dfb211145b7a7810cd4eac0f453", "fusion_lon": 0.0}, {"rental_uris": {"ios": "https://dc.lft.to/lastmile_qr_scan", "android": "https://dc.lft.to/lastmile_qr_scan"}, "type": "electric_bike", "name": "0d984fe1d8fd9bb7199a258143d58908", "is_reserved": 0, "lon": -76.96088733333333, "is_disabled": 0, "fusion_lat": 0.0, "lat": 38.918541, "bike_id": "0d984fe1d8fd9bb7199a258143d58908", "fusion_lon": 0.0}, {"rental_uris": {"ios": "https://dc.lft.to/lastmile_qr_scan", "android": "https://dc.lft.to/lastmile_qr_scan"}, "type": "electric_scooter", "name": "080b4ffef10e24bc3b349ddf838de962", "is_reserved": 0, "lon": -77.0549625, "is_disabled": 0, "fusion_lat": 0.0, "lat": 38.915436, "bike_id": "080b4ffef10e24bc3b349ddf838de962", "fusion_lon": 0.0}, {"rental_uris": {"ios": "https://dc.lft.to/lastmile_qr_scan", "android": "https://dc.lft.to/lastmile_qr_scan"}, "type": "electric_scooter", "name": "375c95f22d7a15bb02bb9d110e364d62", "is_reserved": 0, "lon": -77.00811366666667, "is_disabled": 0, "fusion_lat": 0.0, "lat": 38.91697833333333, "bike_id": "375c95f22d7a15bb02bb9d110e364d62", "fusion_lon": 0.0}, {"rental_uris": {"ios": "https://dc.lft.to/lastmile_qr_scan", "android": "https://dc.lft.to/lastmile_qr_scan"}, "type": "electric_scooter", "name": "3b99120b95d27d9c0d68af08d0b54969", "is_reserved": 0, "lon": -77.01940566666667, "is_disabled": 0, "fusion_lat": 0.0, "lat": 38.947035, "bike_id": "3b99120b95d27d9c0d68af08d0b54969", "fusion_lon": 0.0}, {"rental_uris": {"ios": "https://dc.lft.to/lastmile_qr_scan", "android": "https://dc.lft.to/lastmile_qr_scan"}, "type": "electric_scooter", "name": "00c0135bd4da9a12f40affd8aee20703", "is_reserved": 0, "lon": -77.04440316666667, "is_disabled": 0, "fusion_lat": 0.0, "lat": 38.901356166666666, "bike_id": "00c0135bd4da9a12f40affd8aee20703", "fusion_lon": 0.0}, {"rental_uris": {"ios": "https://dc.lft.to/lastmile_qr_scan", "android": "https://dc.lft.to/lastmile_qr_scan"}, "type": "electric_scooter", "name": "e0c777a5fd594657405de2d93b648f0c", "is_reserved": 0, "lon": -76.9996555, "is_disabled": 0, "fusion_lat": 0.0, "lat": 38.908473666666666, "bike_id": "e0c777a5fd594657405de2d93b648f0c", "fusion_lon": 0.0}, {"rental_uris": {"ios": "https://dc.lft.to/lastmile_qr_scan", "android": "https://dc.lft.to/lastmile_qr_scan"}, "type": "electric_scooter", "name": "ec9c7c4434ec01ea048f0e49effc4e0c", "is_reserved": 0, "lon": -77.04343183333333, "is_disabled": 0, "fusion_lat": 0.0, "lat": 38.91774016666667, "bike_id": "ec9c7c4434ec01ea048f0e49effc4e0c", "fusion_lon": 0.0}, {"rental_uris": {"ios": "https://dc.lft.to/lastmile_qr_scan", "android": "https://dc.lft.to/lastmile_qr_scan"}, "type": "electric_scooter", "name": "54fd5c4293af305249f17da190fed08a", "is_reserved": 0, "lon": -77.02175933333334, "is_disabled": 0, "fusion_lat": 0.0, "lat": 38.89570583333333, "bike_id": "54fd5c4293af305249f17da190fed08a", "fusion_lon": 0.0}, {"rental_uris": {"ios": "https://dc.lft.to/lastmile_qr_scan", "android": "https://dc.lft.to/lastmile_qr_scan"}, "type": "electric_bike", "name": "35b90a5ea639d7d4d80f6175d1131ab6", "is_reserved": 0, "lon": -76.97310733333333, "is_disabled": 0, "fusion_lat": 0.0, "lat": 38.917593, "bike_id": "35b90a5ea639d7d4d80f6175d1131ab6", "fusion_lon": 0.0}, {"rental_uris": {"ios": "https://dc.lft.to/lastmile_qr_scan", "android": "https://dc.lft.to/lastmile_qr_scan"}, "type": "electric_scooter", "name": "d7c507eb747b057d3a39969354da4438", "is_reserved": 0, "lon": -77.005459, "is_disabled": 0, "fusion_lat": 0.0, "lat": 38.879223833333334, "bike_id": "d7c507eb747b057d3a39969354da4438", "fusion_lon": 0.0}, {"rental_uris": {"ios": "https://dc.lft.to/lastmile_qr_scan", "android": "https://dc.lft.to/lastmile_qr_scan"}, "type": "electric_scooter", "name": "0f015c62bc60ec04ecf89084f410c8e1", "is_reserved": 0, "lon": -76.98887466666666, "is_disabled": 0, "fusion_lat": 0.0, "lat": 38.89951033333333, "bike_id": "0f015c62bc60ec04ecf89084f410c8e1", "fusion_lon": 0.0}, {"rental_uris": {"ios": "https://dc.lft.to/lastmile_qr_scan", "android": "https://dc.lft.to/lastmile_qr_scan"}, "type": "electric_scooter", "name": "ddd4c40619d80a11e8e0de75046958c2", "is_reserved": 0, "lon": -77.0312245, "is_disabled": 0, "fusion_lat": 0.0, "lat": 38.9185155, "bike_id": "ddd4c40619d80a11e8e0de75046958c2", "fusion_lon": 0.0}, {"rental_uris": {"ios": "https://dc.lft.to/lastmile_qr_scan", "android": "https://dc.lft.to/lastmile_qr_scan"}, "type": "electric_scooter", "name": "e28cf5d796b480a642af18d802e3404d", "is_reserved": 0, "lon": -77.03173666666666, "is_disabled": 0, "fusion_lat": 0.0, "lat": 38.92484916666667, "bike_id": "e28cf5d796b480a642af18d802e3404d", "fusion_lon": 0.0}, {"rental_uris": {"ios": "https://dc.lft.to/lastmile_qr_scan", "android": "https://dc.lft.to/lastmile_qr_scan"}, "type": "electric_scooter", "name": "588e79b2ed0f5f4611d5d7c5524e3df3", "is_reserved": 0, "lon": -77.04183566666667, "is_disabled": 0, "fusion_lat": 0.0, "lat": 38.90145033333334, "bike_id": "588e79b2ed0f5f4611d5d7c5524e3df3", "fusion_lon": 0.0}, {"rental_uris": {"ios": "https://dc.lft.to/lastmile_qr_scan", "android": "https://dc.lft.to/lastmile_qr_scan"}, "type": "electric_scooter", "name": "ad06d4f7528513eae1c1d3be4650dac3", "is_reserved": 0, "lon": -77.04428033333333, "is_disabled": 0, "fusion_lat": 0.0, "lat": 38.910864833333335, "bike_id": "ad06d4f7528513eae1c1d3be4650dac3", "fusion_lon": 0.0}, {"rental_uris": {"ios": "https://dc.lft.to/lastmile_qr_scan", "android": "https://dc.lft.to/lastmile_qr_scan"}, "type": "electric_scooter", "name": "1631c8306671288b6829ff2c8d475beb", "is_reserved": 0, "lon": -76.99104983333334, "is_disabled": 0, "fusion_lat": 0.0, "lat": 38.857261666666666, "bike_id": "1631c8306671288b6829ff2c8d475beb", "fusion_lon": 0.0}, {"rental_uris": {"ios": "https://dc.lft.to/lastmile_qr_scan", "android": "https://dc.lft.to/lastmile_qr_scan"}, "type": "electric_scooter", "name": "416dbdaa8f5613280e7441728004d3f0", "is_reserved": 0, "lon": -77.04342233333334, "is_disabled": 0, "fusion_lat": 0.0, "lat": 38.903407666666666, "bike_id": "416dbdaa8f5613280e7441728004d3f0", "fusion_lon": 0.0}, {"rental_uris": {"ios": "https://dc.lft.to/lastmile_qr_scan", "android": "https://dc.lft.to/lastmile_qr_scan"}, "type": "electric_scooter", "name": "d86bc49a8b15c3c7ec54f4afdda9d312", "is_reserved": 0, "lon": -77.0487635, "is_disabled": 0, "fusion_lat": 0.0, "lat": 38.90716233333333, "bike_id": "d86bc49a8b15c3c7ec54f4afdda9d312", "fusion_lon": 0.0}, {"rental_uris": {"ios": "https://dc.lft.to/lastmile_qr_scan", "android": "https://dc.lft.to/lastmile_qr_scan"}, "type": "electric_scooter", "name": "c418d707b95092085e9022252f549e8f", "is_reserved": 0, "lon": -77.015509, "is_disabled": 0, "fusion_lat": 0.0, "lat": 38.90269383333333, "bike_id": "c418d707b95092085e9022252f549e8f", "fusion_lon": 0.0}, {"rental_uris": {"ios": "https://dc.lft.to/lastmile_qr_scan", "android": "https://dc.lft.to/lastmile_qr_scan"}, "type": "electric_scooter", "name": "36749176caf677a9c8cf4ecb7509494e", "is_reserved": 0, "lon": -77.023004, "is_disabled": 0, "fusion_lat": 0.0, "lat": 38.925157166666665, "bike_id": "36749176caf677a9c8cf4ecb7509494e", "fusion_lon": 0.0}, {"rental_uris": {"ios": "https://dc.lft.to/lastmile_qr_scan", "android": "https://dc.lft.to/lastmile_qr_scan"}, "type": "electric_scooter", "name": "f97af5d0240bce8f63d00727312c6b46", "is_reserved": 0, "lon": -77.04088083333333, "is_disabled": 0, "fusion_lat": 0.0, "lat": 38.90503016666667, "bike_id": "f97af5d0240bce8f63d00727312c6b46", "fusion_lon": 0.0}, {"rental_uris": {"ios": "https://dc.lft.to/lastmile_qr_scan", "android": "https://dc.lft.to/lastmile_qr_scan"}, "type": "electric_scooter", "name": "10b325cc690a790d98a8029c5fca4055", "is_reserved": 0, "lon": -77.04865566666666, "is_disabled": 0, "fusion_lat": 0.0, "lat": 38.892215, "bike_id": "10b325cc690a790d98a8029c5fca4055", "fusion_lon": 0.0}, {"rental_uris": {"ios": "https://dc.lft.to/lastmile_qr_scan", "android": "https://dc.lft.to/lastmile_qr_scan"}, "type": "electric_scooter", "name": "22617aed4f305a5198cfd99d5da20bb3", "is_reserved": 0, "lon": -77.00208716666667, "is_disabled": 0, "fusion_lat": 0.0, "lat": 38.90044533333333, "bike_id": "22617aed4f305a5198cfd99d5da20bb3", "fusion_lon": 0.0}, {"rental_uris": {"ios": "https://dc.lft.to/lastmile_qr_scan", "android": "https://dc.lft.to/lastmile_qr_scan"}, "type": "electric_scooter", "name": "bfe4f04ee05bf6d3cdf6ab85092baf69", "is_reserved": 0, "lon": -77.01971933333333, "is_disabled": 0, "fusion_lat": 0.0, "lat": 38.876056, "bike_id": "bfe4f04ee05bf6d3cdf6ab85092baf69", "fusion_lon": 0.0}, {"rental_uris": {"ios": "https://dc.lft.to/lastmile_qr_scan", "android": "https://dc.lft.to/lastmile_qr_scan"}, "type": "electric_scooter", "name": "6edaf1543a4e071e369785325e509fad", "is_reserved": 0, "lon": -77.0268355, "is_disabled": 0, "fusion_lat": 0.0, "lat": 38.90237616666667, "bike_id": "6edaf1543a4e071e369785325e509fad", "fusion_lon": 0.0}, {"rental_uris": {"ios": "https://dc.lft.to/lastmile_qr_scan", "android": "https://dc.lft.to/lastmile_qr_scan"}, "type": "electric_bike", "name": "a8d2b2e32715887211d77692238c550a", "is_reserved": 0, "lon": -77.1284315, "is_disabled": 0, "fusion_lat": 0.0, "lat": 38.80049666666667, "bike_id": "a8d2b2e32715887211d77692238c550a", "fusion_lon": 0.0}, {"rental_uris": {"ios": "https://dc.lft.to/lastmile_qr_scan", "android": "https://dc.lft.to/lastmile_qr_scan"}, "type": "electric_bike", "name": "fbc7ccfae1e28df63dd4735c66ab6f2e", "is_reserved": 0, "lon": -76.99261916666667, "is_disabled": 0, "fusion_lat": 0.0, "lat": 38.941685, "bike_id": "fbc7ccfae1e28df63dd4735c66ab6f2e", "fusion_lon": 0.0}, {"rental_uris": {"ios": "https://dc.lft.to/lastmile_qr_scan", "android": "https://dc.lft.to/lastmile_qr_scan"}, "type": "electric_scooter", "name": "d0b9a719d9d61a8fde596e95e994e143", "is_reserved": 0, "lon": -77.04149666666666, "is_disabled": 0, "fusion_lat": 0.0, "lat": 38.91042566666667, "bike_id": "d0b9a719d9d61a8fde596e95e994e143", "fusion_lon": 0.0}, {"rental_uris": {"ios": "https://dc.lft.to/lastmile_qr_scan", "android": "https://dc.lft.to/lastmile_qr_scan"}, "type": "electric_scooter", "name": "742cfee5b8f4c3d63cecbb8e4e2fa408", "is_reserved": 0, "lon": -77.024011, "is_disabled": 0, "fusion_lat": 0.0, "lat": 38.9098095, "bike_id": "742cfee5b8f4c3d63cecbb8e4e2fa408", "fusion_lon": 0.0}, {"rental_uris": {"ios": "https://dc.lft.to/lastmile_qr_scan", "android": "https://dc.lft.to/lastmile_qr_scan"}, "type": "electric_bike", "name": "e7bd612894e74e5283c6b1dd38080ccb", "is_reserved": 0, "lon": -77.12650466666666, "is_disabled": 0, "fusion_lat": 0.0, "lat": 38.81907483333333, "bike_id": "e7bd612894e74e5283c6b1dd38080ccb", "fusion_lon": 0.0}, {"rental_uris": {"ios": "https://dc.lft.to/lastmile_qr_scan", "android": "https://dc.lft.to/lastmile_qr_scan"}, "type": "electric_scooter", "name": "705495cc30af6db5b728641202a5da71", "is_reserved": 0, "lon": -77.03861716666667, "is_disabled": 0, "fusion_lat": 0.0, "lat": 38.91708283333333, "bike_id": "705495cc30af6db5b728641202a5da71", "fusion_lon": 0.0}, {"rental_uris": {"ios": "https://dc.lft.to/lastmile_qr_scan", "android": "https://dc.lft.to/lastmile_qr_scan"}, "type": "electric_scooter", "name": "9283556839e2ab88100db3f242f79163", "is_reserved": 0, "lon": -77.01234566666666, "is_disabled": 0, "fusion_lat": 0.0, "lat": 38.91107483333333, "bike_id": "9283556839e2ab88100db3f242f79163", "fusion_lon": 0.0}, {"rental_uris": {"ios": "https://dc.lft.to/lastmile_qr_scan", "android": "https://dc.lft.to/lastmile_qr_scan"}, "type": "electric_scooter", "name": "61124c5bb3ba30efda02f8df25909ec7", "is_reserved": 0, "lon": -77.06404766666667, "is_disabled": 0, "fusion_lat": 0.0, "lat": 38.908548833333334, "bike_id": "61124c5bb3ba30efda02f8df25909ec7", "fusion_lon": 0.0}, {"rental_uris": {"ios": "https://dc.lft.to/lastmile_qr_scan", "android": "https://dc.lft.to/lastmile_qr_scan"}, "type": "electric_scooter", "name": "f402b36510592278b2a16711880d7910", "is_reserved": 0, "lon": -77.04506133333334, "is_disabled": 0, "fusion_lat": 0.0, "lat": 38.915968166666666, "bike_id": "f402b36510592278b2a16711880d7910", "fusion_lon": 0.0}, {"rental_uris": {"ios": "https://dc.lft.to/lastmile_qr_scan", "android": "https://dc.lft.to/lastmile_qr_scan"}, "type": "electric_scooter", "name": "38625198fc715c86838d37a03de47989", "is_reserved": 0, "lon": -77.06372766666667, "is_disabled": 0, "fusion_lat": 0.0, "lat": 38.935584166666665, "bike_id": "38625198fc715c86838d37a03de47989", "fusion_lon": 0.0}, {"rental_uris": {"ios": "https://dc.lft.to/lastmile_qr_scan", "android": "https://dc.lft.to/lastmile_qr_scan"}, "type": "electric_scooter", "name": "aaede99fe3ad2b96b7a65eec5c8f4581", "is_reserved": 0, "lon": -77.03587533333334, "is_disabled": 0, "fusion_lat": 0.0, "lat": 38.92790933333333, "bike_id": "aaede99fe3ad2b96b7a65eec5c8f4581", "fusion_lon": 0.0}, {"rental_uris": {"ios": "https://dc.lft.to/lastmile_qr_scan", "android": "https://dc.lft.to/lastmile_qr_scan"}, "type": "electric_scooter", "name": "ab303fb215727c6c10d809bd33068d90", "is_reserved": 0, "lon": -77.04357566666667, "is_disabled": 0, "fusion_lat": 0.0, "lat": 38.90792616666667, "bike_id": "ab303fb215727c6c10d809bd33068d90", "fusion_lon": 0.0}, {"rental_uris": {"ios": "https://dc.lft.to/lastmile_qr_scan", "android": "https://dc.lft.to/lastmile_qr_scan"}, "type": "electric_scooter", "name": "e92b29cbb4d97cfed618e8d68d40042b", "is_reserved": 0, "lon": -76.92831333333334, "is_disabled": 0, "fusion_lat": 0.0, "lat": 38.90178183333333, "bike_id": "e92b29cbb4d97cfed618e8d68d40042b", "fusion_lon": 0.0}, {"rental_uris": {"ios": "https://dc.lft.to/lastmile_qr_scan", "android": "https://dc.lft.to/lastmile_qr_scan"}, "type": "electric_scooter", "name": "204921cf3242d5cd72a1fea56d6d3a21", "is_reserved": 0, "lon": -77.03088083333333, "is_disabled": 0, "fusion_lat": 0.0, "lat": 38.9155745, "bike_id": "204921cf3242d5cd72a1fea56d6d3a21", "fusion_lon": 0.0}, {"rental_uris": {"ios": "https://dc.lft.to/lastmile_qr_scan", "android": "https://dc.lft.to/lastmile_qr_scan"}, "type": "electric_scooter", "name": "6c9a9f4c599f0df248bb93a8c6af41cf", "is_reserved": 0, "lon": -76.94703916666667, "is_disabled": 0, "fusion_lat": 0.0, "lat": 38.89297366666667, "bike_id": "6c9a9f4c599f0df248bb93a8c6af41cf", "fusion_lon": 0.0}, {"rental_uris": {"ios": "https://dc.lft.to/lastmile_qr_scan", "android": "https://dc.lft.to/lastmile_qr_scan"}, "type": "electric_bike", "name": "ede25d0f312ed44a4b010223f5fa7051", "is_reserved": 0, "lon": -77.02404533333333, "is_disabled": 0, "fusion_lat": 0.0, "lat": 38.934622833333336, "bike_id": "ede25d0f312ed44a4b010223f5fa7051", "fusion_lon": 0.0}, {"rental_uris": {"ios": "https://dc.lft.to/lastmile_qr_scan", "android": "https://dc.lft.to/lastmile_qr_scan"}, "type": "electric_scooter", "name": "e15fb5ff51094358013654c17404d7d3", "is_reserved": 0, "lon": -77.04437266666666, "is_disabled": 0, "fusion_lat": 0.0, "lat": 38.9057505, "bike_id": "e15fb5ff51094358013654c17404d7d3", "fusion_lon": 0.0}, {"rental_uris": {"ios": "https://dc.lft.to/lastmile_qr_scan", "android": "https://dc.lft.to/lastmile_qr_scan"}, "type": "electric_bike", "name": "957903a496e25bb907e656d8efca1cf0", "is_reserved": 0, "lon": -76.95254383333334, "is_disabled": 0, "fusion_lat": 0.0, "lat": 38.90694633333333, "bike_id": "957903a496e25bb907e656d8efca1cf0", "fusion_lon": 0.0}, {"rental_uris": {"ios": "https://dc.lft.to/lastmile_qr_scan", "android": "https://dc.lft.to/lastmile_qr_scan"}, "type": "electric_scooter", "name": "2f687c3caef9d9d3e35e3a16a63857b7", "is_reserved": 0, "lon": -77.0338535, "is_disabled": 0, "fusion_lat": 0.0, "lat": 38.90104983333333, "bike_id": "2f687c3caef9d9d3e35e3a16a63857b7", "fusion_lon": 0.0}, {"rental_uris": {"ios": "https://dc.lft.to/lastmile_qr_scan", "android": "https://dc.lft.to/lastmile_qr_scan"}, "type": "electric_scooter", "name": "fec08616b9aa22d752df7d31042d0293", "is_reserved": 0, "lon": -77.035352, "is_disabled": 0, "fusion_lat": 0.0, "lat": 38.903768, "bike_id": "fec08616b9aa22d752df7d31042d0293", "fusion_lon": 0.0}, {"rental_uris": {"ios": "https://dc.lft.to/lastmile_qr_scan", "android": "https://dc.lft.to/lastmile_qr_scan"}, "type": "electric_scooter", "name": "14907e7c13b69ce92c3e67e22cb0973b", "is_reserved": 0, "lon": -76.99759233333333, "is_disabled": 0, "fusion_lat": 0.0, "lat": 38.896753833333335, "bike_id": "14907e7c13b69ce92c3e67e22cb0973b", "fusion_lon": 0.0}, {"rental_uris": {"ios": "https://dc.lft.to/lastmile_qr_scan", "android": "https://dc.lft.to/lastmile_qr_scan"}, "type": "electric_scooter", "name": "2d480b8367ed4ece818681adafd79bf3", "is_reserved": 0, "lon": -77.02411383333333, "is_disabled": 0, "fusion_lat": 0.0, "lat": 38.938125, "bike_id": "2d480b8367ed4ece818681adafd79bf3", "fusion_lon": 0.0}, {"rental_uris": {"ios": "https://dc.lft.to/lastmile_qr_scan", "android": "https://dc.lft.to/lastmile_qr_scan"}, "type": "electric_scooter", "name": "9460a4839b3ba38a92a6ef5011105fe4", "is_reserved": 0, "lon": -77.015627, "is_disabled": 0, "fusion_lat": 0.0, "lat": 38.90261983333333, "bike_id": "9460a4839b3ba38a92a6ef5011105fe4", "fusion_lon": 0.0}, {"rental_uris": {"ios": "https://dc.lft.to/lastmile_qr_scan", "android": "https://dc.lft.to/lastmile_qr_scan"}, "type": "electric_bike", "name": "bb71496ab83c66d2856aa3a3eed7fbc0", "is_reserved": 0, "lon": -76.99697616666667, "is_disabled": 0, "fusion_lat": 0.0, "lat": 38.838650333333334, "bike_id": "bb71496ab83c66d2856aa3a3eed7fbc0", "fusion_lon": 0.0}, {"rental_uris": {"ios": "https://dc.lft.to/lastmile_qr_scan", "android": "https://dc.lft.to/lastmile_qr_scan"}, "type": "electric_scooter", "name": "bf4338f11af55e6885cd9e9dd7240e29", "is_reserved": 0, "lon": -77.007238, "is_disabled": 0, "fusion_lat": 0.0, "lat": 38.87854183333334, "bike_id": "bf4338f11af55e6885cd9e9dd7240e29", "fusion_lon": 0.0}, {"rental_uris": {"ios": "https://dc.lft.to/lastmile_qr_scan", "android": "https://dc.lft.to/lastmile_qr_scan"}, "type": "electric_scooter", "name": "610096ac6d0633756e68cdaca4090039", "is_reserved": 0, "lon": -77.0448105, "is_disabled": 0, "fusion_lat": 0.0, "lat": 38.918671333333336, "bike_id": "610096ac6d0633756e68cdaca4090039", "fusion_lon": 0.0}, {"rental_uris": {"ios": "https://dc.lft.to/lastmile_qr_scan", "android": "https://dc.lft.to/lastmile_qr_scan"}, "type": "electric_bike", "name": "69745b13ec0af2d823ae9475500cee86", "is_reserved": 0, "lon": -76.99277983333333, "is_disabled": 0, "fusion_lat": 0.0, "lat": 38.9725505, "bike_id": "69745b13ec0af2d823ae9475500cee86", "fusion_lon": 0.0}, {"rental_uris": {"ios": "https://dc.lft.to/lastmile_qr_scan", "android": "https://dc.lft.to/lastmile_qr_scan"}, "type": "electric_scooter", "name": "be6cbcaf53eae90abf24868a9cd36121", "is_reserved": 0, "lon": -77.03859866666667, "is_disabled": 0, "fusion_lat": 0.0, "lat": 38.903900166666666, "bike_id": "be6cbcaf53eae90abf24868a9cd36121", "fusion_lon": 0.0}, {"rental_uris": {"ios": "https://dc.lft.to/lastmile_qr_scan", "android": "https://dc.lft.to/lastmile_qr_scan"}, "type": "electric_scooter", "name": "aa8b500ca7c6eb00c8e9af78794bc517", "is_reserved": 0, "lon": -77.03246833333333, "is_disabled": 0, "fusion_lat": 0.0, "lat": 38.914188833333334, "bike_id": "aa8b500ca7c6eb00c8e9af78794bc517", "fusion_lon": 0.0}, {"rental_uris": {"ios": "https://dc.lft.to/lastmile_qr_scan", "android": "https://dc.lft.to/lastmile_qr_scan"}, "type": "electric_scooter", "name": "66ca20376db1d73c557e9ec05900fa1e", "is_reserved": 0, "lon": -77.04037716666667, "is_disabled": 0, "fusion_lat": 0.0, "lat": 38.91181733333333, "bike_id": "66ca20376db1d73c557e9ec05900fa1e", "fusion_lon": 0.0}, {"rental_uris": {"ios": "https://dc.lft.to/lastmile_qr_scan", "android": "https://dc.lft.to/lastmile_qr_scan"}, "type": "electric_scooter", "name": "dce32bc934ce46a93ee4fb58da1cddf9", "is_reserved": 0, "lon": -77.05219633333333, "is_disabled": 0, "fusion_lat": 0.0, "lat": 38.92489533333333, "bike_id": "dce32bc934ce46a93ee4fb58da1cddf9", "fusion_lon": 0.0}, {"rental_uris": {"ios": "https://dc.lft.to/lastmile_qr_scan", "android": "https://dc.lft.to/lastmile_qr_scan"}, "type": "electric_scooter", "name": "cd860292fb977089535609d7bf7e28af", "is_reserved": 0, "lon": -77.0420015, "is_disabled": 0, "fusion_lat": 0.0, "lat": 38.91665883333334, "bike_id": "cd860292fb977089535609d7bf7e28af", "fusion_lon": 0.0}, {"rental_uris": {"ios": "https://dc.lft.to/lastmile_qr_scan", "android": "https://dc.lft.to/lastmile_qr_scan"}, "type": "electric_bike", "name": "5fea92f0ee1020e2c97a66dd4576f91a", "is_reserved": 0, "lon": -76.963278, "is_disabled": 0, "fusion_lat": 0.0, "lat": 38.938939166666664, "bike_id": "5fea92f0ee1020e2c97a66dd4576f91a", "fusion_lon": 0.0}, {"rental_uris": {"ios": "https://dc.lft.to/lastmile_qr_scan", "android": "https://dc.lft.to/lastmile_qr_scan"}, "type": "electric_scooter", "name": "84ef1c3956d589f5ce9f1bd1f2295d39", "is_reserved": 0, "lon": -77.0428285, "is_disabled": 0, "fusion_lat": 0.0, "lat": 38.92264983333333, "bike_id": "84ef1c3956d589f5ce9f1bd1f2295d39", "fusion_lon": 0.0}, {"rental_uris": {"ios": "https://dc.lft.to/lastmile_qr_scan", "android": "https://dc.lft.to/lastmile_qr_scan"}, "type": "electric_scooter", "name": "ae879d89088b462b95d2a4599876ff8b", "is_reserved": 0, "lon": -77.03839783333333, "is_disabled": 0, "fusion_lat": 0.0, "lat": 38.90842133333334, "bike_id": "ae879d89088b462b95d2a4599876ff8b", "fusion_lon": 0.0}, {"rental_uris": {"ios": "https://dc.lft.to/lastmile_qr_scan", "android": "https://dc.lft.to/lastmile_qr_scan"}, "type": "electric_scooter", "name": "a7595c65be3c8778f44a4624c4d01229", "is_reserved": 0, "lon": -77.0242935, "is_disabled": 0, "fusion_lat": 0.0, "lat": 38.907141333333335, "bike_id": "a7595c65be3c8778f44a4624c4d01229", "fusion_lon": 0.0}, {"rental_uris": {"ios": "https://dc.lft.to/lastmile_qr_scan", "android": "https://dc.lft.to/lastmile_qr_scan"}, "type": "electric_scooter", "name": "0387c409d03bda1ef1553e0986e85de8", "is_reserved": 0, "lon": -77.078471, "is_disabled": 0, "fusion_lat": 0.0, "lat": 38.93127116666667, "bike_id": "0387c409d03bda1ef1553e0986e85de8", "fusion_lon": 0.0}, {"rental_uris": {"ios": "https://dc.lft.to/lastmile_qr_scan", "android": "https://dc.lft.to/lastmile_qr_scan"}, "type": "electric_scooter", "name": "3cdc6f785be189211a910819f5046964", "is_reserved": 0, "lon": -77.029732, "is_disabled": 0, "fusion_lat": 0.0, "lat": 38.9168, "bike_id": "3cdc6f785be189211a910819f5046964", "fusion_lon": 0.0}, {"rental_uris": {"ios": "https://dc.lft.to/lastmile_qr_scan", "android": "https://dc.lft.to/lastmile_qr_scan"}, "type": "electric_scooter", "name": "225dc226c20738659098b7212319e612", "is_reserved": 0, "lon": -77.046368, "is_disabled": 0, "fusion_lat": 0.0, "lat": 38.900633, "bike_id": "225dc226c20738659098b7212319e612", "fusion_lon": 0.0}, {"rental_uris": {"ios": "https://dc.lft.to/lastmile_qr_scan", "android": "https://dc.lft.to/lastmile_qr_scan"}, "type": "electric_bike", "name": "49032d665bda4fba6acc2d24862eab20", "is_reserved": 0, "lon": -77.08146533333333, "is_disabled": 0, "fusion_lat": 0.0, "lat": 38.82293116666666, "bike_id": "49032d665bda4fba6acc2d24862eab20", "fusion_lon": 0.0}, {"rental_uris": {"ios": "https://dc.lft.to/lastmile_qr_scan", "android": "https://dc.lft.to/lastmile_qr_scan"}, "type": "electric_scooter", "name": "79925b41898dd3b09af110cc7baeab1f", "is_reserved": 0, "lon": -77.03116983333334, "is_disabled": 0, "fusion_lat": 0.0, "lat": 38.92016733333333, "bike_id": "79925b41898dd3b09af110cc7baeab1f", "fusion_lon": 0.0}, {"rental_uris": {"ios": "https://dc.lft.to/lastmile_qr_scan", "android": "https://dc.lft.to/lastmile_qr_scan"}, "type": "electric_scooter", "name": "310397c207c97cb573d84da248b69d7f", "is_reserved": 0, "lon": -77.0392585, "is_disabled": 0, "fusion_lat": 0.0, "lat": 38.90123, "bike_id": "310397c207c97cb573d84da248b69d7f", "fusion_lon": 0.0}, {"rental_uris": {"ios": "https://dc.lft.to/lastmile_qr_scan", "android": "https://dc.lft.to/lastmile_qr_scan"}, "type": "electric_bike", "name": "ce48f280f8a507da44006306e40e5d9c", "is_reserved": 0, "lon": -76.98270783333334, "is_disabled": 0, "fusion_lat": 0.0, "lat": 38.84674416666667, "bike_id": "ce48f280f8a507da44006306e40e5d9c", "fusion_lon": 0.0}, {"rental_uris": {"ios": "https://dc.lft.to/lastmile_qr_scan", "android": "https://dc.lft.to/lastmile_qr_scan"}, "type": "electric_scooter", "name": "ace254d93299ae4ebd9ee88b0b375f09", "is_reserved": 0, "lon": -77.034327, "is_disabled": 0, "fusion_lat": 0.0, "lat": 38.9009465, "bike_id": "ace254d93299ae4ebd9ee88b0b375f09", "fusion_lon": 0.0}, {"rental_uris": {"ios": "https://dc.lft.to/lastmile_qr_scan", "android": "https://dc.lft.to/lastmile_qr_scan"}, "type": "electric_scooter", "name": "753bb710eee92639330fa7d0d0c2ea27", "is_reserved": 0, "lon": -77.03142766666667, "is_disabled": 0, "fusion_lat": 0.0, "lat": 38.914152666666666, "bike_id": "753bb710eee92639330fa7d0d0c2ea27", "fusion_lon": 0.0}, {"rental_uris": {"ios": "https://dc.lft.to/lastmile_qr_scan", "android": "https://dc.lft.to/lastmile_qr_scan"}, "type": "electric_scooter", "name": "33b2732f6a96d49ec5440627acf164ce", "is_reserved": 0, "lon": -77.02284483333334, "is_disabled": 0, "fusion_lat": 0.0, "lat": 38.926555, "bike_id": "33b2732f6a96d49ec5440627acf164ce", "fusion_lon": 0.0}, {"rental_uris": {"ios": "https://dc.lft.to/lastmile_qr_scan", "android": "https://dc.lft.to/lastmile_qr_scan"}, "type": "electric_scooter", "name": "bb84dc7a3864a645433bbeffd3b6546c", "is_reserved": 0, "lon": -77.0248985, "is_disabled": 0, "fusion_lat": 0.0, "lat": 38.94182716666667, "bike_id": "bb84dc7a3864a645433bbeffd3b6546c", "fusion_lon": 0.0}, {"rental_uris": {"ios": "https://dc.lft.to/lastmile_qr_scan", "android": "https://dc.lft.to/lastmile_qr_scan"}, "type": "electric_scooter", "name": "f7b7ec252704b2f35e5b15fc72d780e0", "is_reserved": 0, "lon": -77.048596, "is_disabled": 0, "fusion_lat": 0.0, "lat": 38.90381083333333, "bike_id": "f7b7ec252704b2f35e5b15fc72d780e0", "fusion_lon": 0.0}, {"rental_uris": {"ios": "https://dc.lft.to/lastmile_qr_scan", "android": "https://dc.lft.to/lastmile_qr_scan"}, "type": "electric_scooter", "name": "04b5f5e506f4d6d0069ba46a3d7ad098", "is_reserved": 0, "lon": -77.0490135, "is_disabled": 0, "fusion_lat": 0.0, "lat": 38.90293466666667, "bike_id": "04b5f5e506f4d6d0069ba46a3d7ad098", "fusion_lon": 0.0}, {"rental_uris": {"ios": "https://dc.lft.to/lastmile_qr_scan", "android": "https://dc.lft.to/lastmile_qr_scan"}, "type": "electric_scooter", "name": "71e7b854983c383f817a62609d2eafce", "is_reserved": 0, "lon": -77.01538666666667, "is_disabled": 0, "fusion_lat": 0.0, "lat": 38.87834683333333, "bike_id": "71e7b854983c383f817a62609d2eafce", "fusion_lon": 0.0}, {"rental_uris": {"ios": "https://dc.lft.to/lastmile_qr_scan", "android": "https://dc.lft.to/lastmile_qr_scan"}, "type": "electric_bike", "name": "3997e8a85f187b3a2a2291f5c398001e", "is_reserved": 0, "lon": -77.02032933333334, "is_disabled": 0, "fusion_lat": 0.0, "lat": 38.96556066666667, "bike_id": "3997e8a85f187b3a2a2291f5c398001e", "fusion_lon": 0.0}, {"rental_uris": {"ios": "https://dc.lft.to/lastmile_qr_scan", "android": "https://dc.lft.to/lastmile_qr_scan"}, "type": "electric_scooter", "name": "33a88b6f4fdce7e9207c4227c43f1209", "is_reserved": 0, "lon": -77.02880633333334, "is_disabled": 0, "fusion_lat": 0.0, "lat": 38.90313783333333, "bike_id": "33a88b6f4fdce7e9207c4227c43f1209", "fusion_lon": 0.0}, {"rental_uris": {"ios": "https://dc.lft.to/lastmile_qr_scan", "android": "https://dc.lft.to/lastmile_qr_scan"}, "type": "electric_scooter", "name": "d41f1c92c989bea40f19a1a9c6159f89", "is_reserved": 0, "lon": -77.02974066666667, "is_disabled": 0, "fusion_lat": 0.0, "lat": 38.932463166666665, "bike_id": "d41f1c92c989bea40f19a1a9c6159f89", "fusion_lon": 0.0}, {"rental_uris": {"ios": "https://dc.lft.to/lastmile_qr_scan", "android": "https://dc.lft.to/lastmile_qr_scan"}, "type": "electric_scooter", "name": "bcd43740d3d56c3570bf6fbe3b5596cc", "is_reserved": 0, "lon": -77.021552, "is_disabled": 0, "fusion_lat": 0.0, "lat": 38.92601716666667, "bike_id": "bcd43740d3d56c3570bf6fbe3b5596cc", "fusion_lon": 0.0}, {"rental_uris": {"ios": "https://dc.lft.to/lastmile_qr_scan", "android": "https://dc.lft.to/lastmile_qr_scan"}, "type": "electric_scooter", "name": "459b0f6fddaeee705cf4be427ff2a8fa", "is_reserved": 0, "lon": -76.981613, "is_disabled": 0, "fusion_lat": 0.0, "lat": 38.8617405, "bike_id": "459b0f6fddaeee705cf4be427ff2a8fa", "fusion_lon": 0.0}, {"rental_uris": {"ios": "https://dc.lft.to/lastmile_qr_scan", "android": "https://dc.lft.to/lastmile_qr_scan"}, "type": "electric_scooter", "name": "dfd1fd580f56049df56ceed9cc7c3ff3", "is_reserved": 0, "lon": -77.06279066666667, "is_disabled": 0, "fusion_lat": 0.0, "lat": 38.912433, "bike_id": "dfd1fd580f56049df56ceed9cc7c3ff3", "fusion_lon": 0.0}, {"rental_uris": {"ios": "https://dc.lft.to/lastmile_qr_scan", "android": "https://dc.lft.to/lastmile_qr_scan"}, "type": "electric_bike", "name": "74b2ed9669c36517882f7772a552045e", "is_reserved": 0, "lon": -77.013514, "is_disabled": 0, "fusion_lat": 0.0, "lat": 38.915985666666664, "bike_id": "74b2ed9669c36517882f7772a552045e", "fusion_lon": 0.0}, {"rental_uris": {"ios": "https://dc.lft.to/lastmile_qr_scan", "android": "https://dc.lft.to/lastmile_qr_scan"}, "type": "electric_scooter", "name": "f128129c60def0235ff34546a2f76e10", "is_reserved": 0, "lon": -77.04420083333333, "is_disabled": 0, "fusion_lat": 0.0, "lat": 38.911277166666665, "bike_id": "f128129c60def0235ff34546a2f76e10", "fusion_lon": 0.0}, {"rental_uris": {"ios": "https://dc.lft.to/lastmile_qr_scan", "android": "https://dc.lft.to/lastmile_qr_scan"}, "type": "electric_scooter", "name": "b00e586bca91a9013d49ffe35ad98911", "is_reserved": 0, "lon": -77.02143716666667, "is_disabled": 0, "fusion_lat": 0.0, "lat": 38.924447666666666, "bike_id": "b00e586bca91a9013d49ffe35ad98911", "fusion_lon": 0.0}, {"rental_uris": {"ios": "https://dc.lft.to/lastmile_qr_scan", "android": "https://dc.lft.to/lastmile_qr_scan"}, "type": "electric_scooter", "name": "77bdf4b29fb7d703e1c0f334a0cd5af5", "is_reserved": 0, "lon": -77.03439033333333, "is_disabled": 0, "fusion_lat": 0.0, "lat": 38.909658666666665, "bike_id": "77bdf4b29fb7d703e1c0f334a0cd5af5", "fusion_lon": 0.0}, {"rental_uris": {"ios": "https://dc.lft.to/lastmile_qr_scan", "android": "https://dc.lft.to/lastmile_qr_scan"}, "type": "electric_scooter", "name": "033e9295b12f0b7b8efbe49e07bbea04", "is_reserved": 0, "lon": -77.02385133333334, "is_disabled": 0, "fusion_lat": 0.0, "lat": 38.89741316666667, "bike_id": "033e9295b12f0b7b8efbe49e07bbea04", "fusion_lon": 0.0}, {"rental_uris": {"ios": "https://dc.lft.to/lastmile_qr_scan", "android": "https://dc.lft.to/lastmile_qr_scan"}, "type": "electric_scooter", "name": "395614659eba356ea3e26cb2cb88cd40", "is_reserved": 0, "lon": -77.01962816666666, "is_disabled": 0, "fusion_lat": 0.0, "lat": 38.92909366666667, "bike_id": "395614659eba356ea3e26cb2cb88cd40", "fusion_lon": 0.0}, {"rental_uris": {"ios": "https://dc.lft.to/lastmile_qr_scan", "android": "https://dc.lft.to/lastmile_qr_scan"},