{"data": {"bikes": [{"is_reserved": 0, "type": "electric_scooter", "fusion_lat": 0.0, "is_disabled": 0, "rental_uris": {"ios": "https://dc.lft.to/lastmile_qr_scan", "android": "https://dc.lft.to/lastmile_qr_scan"}, "bike_id": "29aa2fd2c4889eb0629f29918d405549", "lat": 38.912574, "name": "29aa2fd2c4889eb0629f29918d405549", "lon": -77.04595866666666, "fusion_lon": 0.0}, {"is_reserved": 0, "type": "electric_bike", "fusion_lat": 0.0, "is_disabled": 0, "rental_uris": {"ios": "https://dc.lft.to/lastmile_qr_scan", "android": "https://dc.lft.to/lastmile_qr_scan"}, "bike_id": "b0b5994b6f3536360d985cdbd61eca5c", "lat": 38.90812433333333, "name": "b0b5994b6f3536360d985cdbd61eca5c", "lon": -77.03862833333334, "fusion_lon": 0.0}, {"is_reserved": 0, "type": "electric_scooter", "fusion_lat": 0.0, "is_disabled": 0, "rental_uris": {"ios": "https://dc.lft.to/lastmile_qr_scan", "android": "https://dc.lft.to/lastmile_qr_scan"}, "bike_id": "74cff619ad8bd13e087edc9f848e8ec1", "lat": 38.9063575, "name": "74cff619ad8bd13e087edc9f848e8ec1", "lon": -77.045458, "fusion_lon": 0.0}, {"is_reserved": 0, "type": "electric_scooter", "fusion_lat": 0.0, "is_disabled": 0, "rental_uris": {"ios": "https://dc.lft.to/lastmile_qr_scan", "android": "https://dc.lft.to/lastmile_qr_scan"}, "bike_id": "f6877cfd24d6e13c43b584ee9d2c31de", "lat": 38.93184183333334, "name": "f6877cfd24d6e13c43b584ee9d2c31de", "lon": -77.036552, "fusion_lon": 0.0}, {"is_reserved": 0, "type": "electric_scooter", "fusion_lat": 0.0, "is_disabled": 0, "rental_uris": {"ios": "https://dc.lft.to/lastmile_qr_scan", "android": "https://dc.lft.to/lastmile_qr_scan"}, "bike_id": "8c03e709c9e415e8b7e22a24e48415fe", "lat": 38.913102333333335, "name": "8c03e709c9e415e8b7e22a24e48415fe", "lon": -77.031891, "fusion_lon": 0.0}, {"is_reserved": 0, "type": "electric_scooter", "fusion_lat": 0.0, "is_disabled": 0, "rental_uris": {"ios": "https://dc.lft.to/lastmile_qr_scan", "android": "https://dc.lft.to/lastmile_qr_scan"}, "bike_id": "908ce1396e7453db68e60c61938adb91", "lat": 38.905691166666664, "name": "908ce1396e7453db68e60c61938adb91", "lon": -77.0172015, "fusion_lon": 0.0}, {"is_reserved": 0, "type": "electric_scooter", "fusion_lat": 0.0, "is_disabled": 0, "rental_uris": {"ios": "https://dc.lft.to/lastmile_qr_scan", "android": "https://dc.lft.to/lastmile_qr_scan"}, "bike_id": "144e48181f2ffd449a2941f479bfd44d", "lat": 38.902279666666665, "name": "144e48181f2ffd449a2941f479bfd44d", "lon": -77.01552833333334, "fusion_lon": 0.0}, {"is_reserved": 0, "type": "electric_scooter", "fusion_lat": 0.0, "is_disabled": 0, "rental_uris": {"ios": "https://dc.lft.to/lastmile_qr_scan", "android": "https://dc.lft.to/lastmile_qr_scan"}, "bike_id": "b1f8405ea131628198dc9cbdf27853ee", "lat": 38.919844833333336, "name": "b1f8405ea131628198dc9cbdf27853ee", "lon": -76.97305216666666, "fusion_lon": 0.0}, {"is_reserved": 0, "type": "electric_scooter", "fusion_lat": 0.0, "is_disabled": 0, "rental_uris": {"ios": "https://dc.lft.to/lastmile_qr_scan", "android": "https://dc.lft.to/lastmile_qr_scan"}, "bike_id": "6b13858ee214f2d070a1c8436d8fc4a0", "lat": 38.945893833333336, "name": "6b13858ee214f2d070a1c8436d8fc4a0", "lon": -77.0202975, "fusion_lon": 0.0}, {"is_reserved": 0, "type": "electric_scooter", "fusion_lat": 0.0, "is_disabled": 0, "rental_uris": {"ios": "https://dc.lft.to/lastmile_qr_scan", "android": "https://dc.lft.to/lastmile_qr_scan"}, "bike_id": "825ebc22349ec6da377de7c332ce09e1", "lat": 38.925227, "name": "825ebc22349ec6da377de7c332ce09e1", "lon": -77.04451033333333, "fusion_lon": 0.0}, {"is_reserved": 0, "type": "electric_scooter", "fusion_lat": 0.0, "is_disabled": 0, "rental_uris": {"ios": "https://dc.lft.to/lastmile_qr_scan", "android": "https://dc.lft.to/lastmile_qr_scan"}, "bike_id": "5e58547893ef40c863ef9ff25c5e35cb", "lat": 38.89567, "name": "5e58547893ef40c863ef9ff25c5e35cb", "lon": -77.02180383333334, "fusion_lon": 0.0}, {"is_reserved": 0, "type": "electric_scooter", "fusion_lat": 0.0, "is_disabled": 0, "rental_uris": {"ios": "https://dc.lft.to/lastmile_qr_scan", "android": "https://dc.lft.to/lastmile_qr_scan"}, "bike_id": "7e61da2b5281c7d503ce6eaa6d07e9ca", "lat": 38.924225166666666, "name": "7e61da2b5281c7d503ce6eaa6d07e9ca", "lon": -77.03542483333334, "fusion_lon": 0.0}, {"is_reserved": 0, "type": "electric_scooter", "fusion_lat": 0.0, "is_disabled": 0, "rental_uris": {"ios": "https://dc.lft.to/lastmile_qr_scan", "android": "https://dc.lft.to/lastmile_qr_scan"}, "bike_id": "5a08931d399e30be1219b80152898cdf", "lat": 38.908354, "name": "5a08931d399e30be1219b80152898cdf", "lon": -76.99969916666667, "fusion_lon": 0.0}, {"is_reserved": 0, "type": "electric_scooter", "fusion_lat": 0.0, "is_disabled": 0, "rental_uris": {"ios": "https://dc.lft.to/lastmile_qr_scan", "android": "https://dc.lft.to/lastmile_qr_scan"}, "bike_id": "aa93d17d6d9e0a7e2042f322c5b4c990", "lat": 38.900356, "name": "aa93d17d6d9e0a7e2042f322c5b4c990", "lon": -76.99503866666667, "fusion_lon": 0.0}, {"is_reserved": 0, "type": "electric_bike", "fusion_lat": 0.0, "is_disabled": 0, "rental_uris": {"ios": "https://dc.lft.to/lastmile_qr_scan", "android": "https://dc.lft.to/lastmile_qr_scan"}, "bike_id": "d92386f72d085a400e43894f72f0bb15", "lat": 38.842779, "name": "d92386f72d085a400e43894f72f0bb15", "lon": -76.98841583333333, "fusion_lon": 0.0}, {"is_reserved": 0, "type": "electric_scooter", "fusion_lat": 0.0, "is_disabled": 0, "rental_uris": {"ios": "https://dc.lft.to/lastmile_qr_scan", "android": "https://dc.lft.to/lastmile_qr_scan"}, "bike_id": "015bd7fab0616e3ac4ad35e00893991f", "lat": 38.8758965, "name": "015bd7fab0616e3ac4ad35e00893991f", "lon": -77.0057275, "fusion_lon": 0.0}, {"is_reserved": 0, "type": "electric_scooter", "fusion_lat": 0.0, "is_disabled": 0, "rental_uris": {"ios": "https://dc.lft.to/lastmile_qr_scan", "android": "https://dc.lft.to/lastmile_qr_scan"}, "bike_id": "cc0796d12736e91dd0298b0814184089", "lat": 38.924648166666664, "name": "cc0796d12736e91dd0298b0814184089", "lon": -77.02715116666667, "fusion_lon": 0.0}, {"is_reserved": 0, "type": "electric_scooter", "fusion_lat": 0.0, "is_disabled": 0, "rental_uris": {"ios": "https://dc.lft.to/lastmile_qr_scan", "android": "https://dc.lft.to/lastmile_qr_scan"}, "bike_id": "049fa4c028bbe9f825642a5d2c11be27", "lat": 38.956418666666664, "name": "049fa4c028bbe9f825642a5d2c11be27", "lon": -77.02815116666666, "fusion_lon": 0.0}, {"is_reserved": 0, "type": "electric_scooter", "fusion_lat": 0.0, "is_disabled": 0, "rental_uris": {"ios": "https://dc.lft.to/lastmile_qr_scan", "android": "https://dc.lft.to/lastmile_qr_scan"}, "bike_id": "e8e12100a7502085a0350f7bc49b4a2f", "lat": 38.887457166666664, "name": "e8e12100a7502085a0350f7bc49b4a2f", "lon": -77.015389, "fusion_lon": 0.0}, {"is_reserved": 0, "type": "electric_scooter", "fusion_lat": 0.0, "is_disabled": 0, "rental_uris": {"ios": "https://dc.lft.to/lastmile_qr_scan", "android": "https://dc.lft.to/lastmile_qr_scan"}, "bike_id": "e364246991e4d17e686b1bd74583479e", "lat": 38.88744233333333, "name": "e364246991e4d17e686b1bd74583479e", "lon": -77.02629183333333, "fusion_lon": 0.0}, {"is_reserved": 0, "type": "electric_scooter", "fusion_lat": 0.0, "is_disabled": 0, "rental_uris": {"ios": "https://dc.lft.to/lastmile_qr_scan", "android": "https://dc.lft.to/lastmile_qr_scan"}, "bike_id": "08c2db91eea55c8b1983f0d0f04df2f8", "lat": 38.90348983333333, "name": "08c2db91eea55c8b1983f0d0f04df2f8", "lon": -77.0215985, "fusion_lon": 0.0}, {"is_reserved": 0, "type": "electric_scooter", "fusion_lat": 0.0, "is_disabled": 0, "rental_uris": {"ios": "https://dc.lft.to/lastmile_qr_scan", "android": "https://dc.lft.to/lastmile_qr_scan"}, "bike_id": "091bfdaf31d923421d89c264017b3234", "lat": 38.8427125, "name": "091bfdaf31d923421d89c264017b3234", "lon": -76.98843, "fusion_lon": 0.0}, {"is_reserved": 0, "type": "electric_scooter", "fusion_lat": 0.0, "is_disabled": 0, "rental_uris": {"ios": "https://dc.lft.to/lastmile_qr_scan", "android": "https://dc.lft.to/lastmile_qr_scan"}, "bike_id": "c1a5e2284713ed66e9abcccb02080725", "lat": 38.9031085, "name": "c1a5e2284713ed66e9abcccb02080725", "lon": -76.977979, "fusion_lon": 0.0}, {"is_reserved": 0, "type": "electric_scooter", "fusion_lat": 0.0, "is_disabled": 0, "rental_uris": {"ios": "https://dc.lft.to/lastmile_qr_scan", "android": "https://dc.lft.to/lastmile_qr_scan"}, "bike_id": "46e784ab0da60a6c1b932fb567142f26", "lat": 38.9005135, "name": "46e784ab0da60a6c1b932fb567142f26", "lon": -76.99335733333334, "fusion_lon": 0.0}, {"is_reserved": 0, "type": "electric_scooter", "fusion_lat": 0.0, "is_disabled": 0, "rental_uris": {"ios": "https://dc.lft.to/lastmile_qr_scan", "android": "https://dc.lft.to/lastmile_qr_scan"}, "bike_id": "e4601c8736d30157b27c7e8d59537c1e", "lat": 38.91916783333333, "name": "e4601c8736d30157b27c7e8d59537c1e", "lon": -77.02312766666667, "fusion_lon": 0.0}, {"is_reserved": 0, "type": "electric_scooter", "fusion_lat": 0.0, "is_disabled": 0, "rental_uris": {"ios": "https://dc.lft.to/lastmile_qr_scan", "android": "https://dc.lft.to/lastmile_qr_scan"}, "bike_id": "b716fc06d22718d2edd830a918dcb98f", "lat": 38.91036916666667, "name": "b716fc06d22718d2edd830a918dcb98f", "lon": -77.026953, "fusion_lon": 0.0}, {"is_reserved": 0, "type": "electric_scooter", "fusion_lat": 0.0, "is_disabled": 0, "rental_uris": {"ios": "https://dc.lft.to/lastmile_qr_scan", "android": "https://dc.lft.to/lastmile_qr_scan"}, "bike_id": "49a615a6b062fc5d40af271b3a77036b", "lat": 38.883571, "name": "49a615a6b062fc5d40af271b3a77036b", "lon": -76.99506066666666, "fusion_lon": 0.0}, {"is_reserved": 0, "type": "electric_scooter", "fusion_lat": 0.0, "is_disabled": 0, "rental_uris": {"ios": "https://dc.lft.to/lastmile_qr_scan", "android": "https://dc.lft.to/lastmile_qr_scan"}, "bike_id": "a8bca7bc22da209dc88e2458940d750e", "lat": 38.900334666666666, "name": "a8bca7bc22da209dc88e2458940d750e", "lon": -77.0122245, "fusion_lon": 0.0}, {"is_reserved": 0, "type": "electric_scooter", "fusion_lat": 0.0, "is_disabled": 0, "rental_uris": {"ios": "https://dc.lft.to/lastmile_qr_scan", "android": "https://dc.lft.to/lastmile_qr_scan"}, "bike_id": "f938efe1d0ca518364e7cdd0a2ec6952", "lat": 38.903808166666664, "name": "f938efe1d0ca518364e7cdd0a2ec6952", "lon": -77.05078983333334, "fusion_lon": 0.0}, {"is_reserved": 0, "type": "electric_scooter", "fusion_lat": 0.0, "is_disabled": 0, "rental_uris": {"ios": "https://dc.lft.to/lastmile_qr_scan", "android": "https://dc.lft.to/lastmile_qr_scan"}, "bike_id": "81219a858007924cab949926da57a1f7", "lat": 38.921533833333335, "name": "81219a858007924cab949926da57a1f7", "lon": -77.03506766666666, "fusion_lon": 0.0}, {"is_reserved": 0, "type": "electric_scooter", "fusion_lat": 0.0, "is_disabled": 0, "rental_uris": {"ios": "https://dc.lft.to/lastmile_qr_scan", "android": "https://dc.lft.to/lastmile_qr_scan"}, "bike_id": "b8bdedef22b07d2811b9f89a5b9b64ce", "lat": 38.8863635, "name": "b8bdedef22b07d2811b9f89a5b9b64ce", "lon": -77.02211033333333, "fusion_lon": 0.0}, {"is_reserved": 0, "type": "electric_scooter", "fusion_lat": 0.0, "is_disabled": 0, "rental_uris": {"ios": "https://dc.lft.to/lastmile_qr_scan", "android": "https://dc.lft.to/lastmile_qr_scan"}, "bike_id": "d26f6ecd1edfd6c1b524bcb7752e2fff", "lat": 38.881156833333335, "name": "d26f6ecd1edfd6c1b524bcb7752e2fff", "lon": -77.02652633333334, "fusion_lon": 0.0}, {"is_reserved": 0, "type": "electric_scooter", "fusion_lat": 0.0, "is_disabled": 0, "rental_uris": {"ios": "https://dc.lft.to/lastmile_qr_scan", "android": "https://dc.lft.to/lastmile_qr_scan"}, "bike_id": "2d30b08279a2e5c0b25519096be5a8ab", "lat": 38.96139383333333, "name": "2d30b08279a2e5c0b25519096be5a8ab", "lon": -77.0280285, "fusion_lon": 0.0}, {"is_reserved": 0, "type": "electric_scooter", "fusion_lat": 0.0, "is_disabled": 0, "rental_uris": {"ios": "https://dc.lft.to/lastmile_qr_scan", "android": "https://dc.lft.to/lastmile_qr_scan"}, "bike_id": "4f7fdfe5b30cd224159810fdcec39ebf", "lat": 38.927181833333336, "name": "4f7fdfe5b30cd224159810fdcec39ebf", "lon": -77.05375783333334, "fusion_lon": 0.0}, {"is_reserved": 0, "type": "electric_scooter", "fusion_lat": 0.0, "is_disabled": 0, "rental_uris": {"ios": "https://dc.lft.to/lastmile_qr_scan", "android": "https://dc.lft.to/lastmile_qr_scan"}, "bike_id": "f6de5357e482cfc72b9a59ac7052b314", "lat": 38.92211983333333, "name": "f6de5357e482cfc72b9a59ac7052b314", "lon": -77.07438466666666, "fusion_lon": 0.0}, {"is_reserved": 0, "type": "electric_scooter", "fusion_lat": 0.0, "is_disabled": 0, "rental_uris": {"ios": "https://dc.lft.to/lastmile_qr_scan", "android": "https://dc.lft.to/lastmile_qr_scan"}, "bike_id": "2473e9831438202ed8666549ef2a0cfa", "lat": 38.90307466666667, "name": "2473e9831438202ed8666549ef2a0cfa", "lon": -77.02811716666666, "fusion_lon": 0.0}, {"is_reserved": 0, "type": "electric_scooter", "fusion_lat": 0.0, "is_disabled": 0, "rental_uris": {"ios": "https://dc.lft.to/lastmile_qr_scan", "android": "https://dc.lft.to/lastmile_qr_scan"}, "bike_id": "c5659851da9813598e92eb170d1a4ac8", "lat": 38.89318683333333, "name": "c5659851da9813598e92eb170d1a4ac8", "lon": -77.02587216666667, "fusion_lon": 0.0}, {"is_reserved": 0, "type": "electric_scooter", "fusion_lat": 0.0, "is_disabled": 0, "rental_uris": {"ios": "https://dc.lft.to/lastmile_qr_scan", "android": "https://dc.lft.to/lastmile_qr_scan"}, "bike_id": "3ab2968fb2daaaaefc104b324991e1b8", "lat": 38.91738516666667, "name": "3ab2968fb2daaaaefc104b324991e1b8", "lon": -77.02114183333333, "fusion_lon": 0.0}, {"is_reserved": 0, "type": "electric_scooter", "fusion_lat": 0.0, "is_disabled": 0, "rental_uris": {"ios": "https://dc.lft.to/lastmile_qr_scan", "android": "https://dc.lft.to/lastmile_qr_scan"}, "bike_id": "ef766a73e0483e7a1d61dff49c62f8b5", "lat": 38.967966833333335, "name": "ef766a73e0483e7a1d61dff49c62f8b5", "lon": -77.02562383333333, "fusion_lon": 0.0}, {"is_reserved": 0, "type": "electric_scooter", "fusion_lat": 0.0, "is_disabled": 0, "rental_uris": {"ios": "https://dc.lft.to/lastmile_qr_scan", "android": "https://dc.lft.to/lastmile_qr_scan"}, "bike_id": "c13a346acc86f4623e4a40c43fb79d6f", "lat": 38.904841166666664, "name": "c13a346acc86f4623e4a40c43fb79d6f", "lon": -76.94960183333333, "fusion_lon": 0.0}, {"is_reserved": 0, "type": "electric_scooter", "fusion_lat": 0.0, "is_disabled": 0, "rental_uris": {"ios": "https://dc.lft.to/lastmile_qr_scan", "android": "https://dc.lft.to/lastmile_qr_scan"}, "bike_id": "5b7b756257fecefe112f74ea735043b3", "lat": 38.91983066666667, "name": "5b7b756257fecefe112f74ea735043b3", "lon": -77.04167766666667, "fusion_lon": 0.0}, {"is_reserved": 0, "type": "electric_scooter", "fusion_lat": 0.0, "is_disabled": 0, "rental_uris": {"ios": "https://dc.lft.to/lastmile_qr_scan", "android": "https://dc.lft.to/lastmile_qr_scan"}, "bike_id": "cd6f6131a0b2e9368763ad447f0f01fa", "lat": 38.9221265, "name": "cd6f6131a0b2e9368763ad447f0f01fa", "lon": -77.04253733333333, "fusion_lon": 0.0}, {"is_reserved": 0, "type": "electric_bike", "fusion_lat": 0.0, "is_disabled": 0, "rental_uris": {"ios": "https://dc.lft.to/lastmile_qr_scan", "android": "https://dc.lft.to/lastmile_qr_scan"}, "bike_id": "8176440bacab67cf6e1bbee207421bdf", "lat": 38.884999, "name": "8176440bacab67cf6e1bbee207421bdf", "lon": -77.00061066666666, "fusion_lon": 0.0}, {"is_reserved": 0, "type": "electric_scooter", "fusion_lat": 0.0, "is_disabled": 0, "rental_uris": {"ios": "https://dc.lft.to/lastmile_qr_scan", "android": "https://dc.lft.to/lastmile_qr_scan"}, "bike_id": "0b1e2be63ea4a0cd330aae818acd456e", "lat": 38.93528466666667, "name": "0b1e2be63ea4a0cd330aae818acd456e", "lon": -77.05453683333333, "fusion_lon": 0.0}, {"is_reserved": 0, "type": "electric_scooter", "fusion_lat": 0.0, "is_disabled": 0, "rental_uris": {"ios": "https://dc.lft.to/lastmile_qr_scan", "android": "https://dc.lft.to/lastmile_qr_scan"}, "bike_id": "cc3f896a66c088259bfbefb9ec0200a5", "lat": 38.887401, "name": "cc3f896a66c088259bfbefb9ec0200a5", "lon": -77.01532316666666, "fusion_lon": 0.0}, {"is_reserved": 0, "type": "electric_scooter", "fusion_lat": 0.0, "is_disabled": 0, "rental_uris": {"ios": "https://dc.lft.to/lastmile_qr_scan", "android": "https://dc.lft.to/lastmile_qr_scan"}, "bike_id": "a6a5b70dd16c664702e3978361213892", "lat": 38.87068933333333, "name": "a6a5b70dd16c664702e3978361213892", "lon": -76.98129116666667, "fusion_lon": 0.0}, {"is_reserved": 0, "type": "electric_scooter", "fusion_lat": 0.0, "is_disabled": 0, "rental_uris": {"ios": "https://dc.lft.to/lastmile_qr_scan", "android": "https://dc.lft.to/lastmile_qr_scan"}, "bike_id": "a0ff50e103f836cc002343b383c29ef6", "lat": 38.9074465, "name": "a0ff50e103f836cc002343b383c29ef6", "lon": -76.99919983333334, "fusion_lon": 0.0}, {"is_reserved": 0, "type": "electric_scooter", "fusion_lat": 0.0, "is_disabled": 0, "rental_uris": {"ios": "https://dc.lft.to/lastmile_qr_scan", "android": "https://dc.lft.to/lastmile_qr_scan"}, "bike_id": "6f3081ec6b0d40d9e17926a6b4e9cb1c", "lat": 38.8995295, "name": "6f3081ec6b0d40d9e17926a6b4e9cb1c", "lon": -77.04843883333334, "fusion_lon": 0.0}, {"is_reserved": 0, "type": "electric_scooter", "fusion_lat": 0.0, "is_disabled": 0, "rental_uris": {"ios": "https://dc.lft.to/lastmile_qr_scan", "android": "https://dc.lft.to/lastmile_qr_scan"}, "bike_id": "461a0d532c816bd10dbedae31955bdf3", "lat": 38.92166133333333, "name": "461a0d532c816bd10dbedae31955bdf3", "lon": -77.02520783333334, "fusion_lon": 0.0}, {"is_reserved": 0, "type": "electric_scooter", "fusion_lat": 0.0, "is_disabled": 0, "rental_uris": {"ios": "https://dc.lft.to/lastmile_qr_scan", "android": "https://dc.lft.to/lastmile_qr_scan"}, "bike_id": "9495dc0d4073293deb02295e216dee38", "lat": 38.918215333333336, "name": "9495dc0d4073293deb02295e216dee38", "lon": -77.041749, "fusion_lon": 0.0}, {"is_reserved": 0, "type": "electric_scooter", "fusion_lat": 0.0, "is_disabled": 0, "rental_uris": {"ios": "https://dc.lft.to/lastmile_qr_scan", "android": "https://dc.lft.to/lastmile_qr_scan"}, "bike_id": "6a300f569995947b7d66f41b3e062711", "lat": 38.913601166666666, "name": "6a300f569995947b7d66f41b3e062711", "lon": -77.04658083333334, "fusion_lon": 0.0}, {"is_reserved": 0, "type": "electric_scooter", "fusion_lat": 0.0, "is_disabled": 0, "rental_uris": {"ios": "https://dc.lft.to/lastmile_qr_scan", "android": "https://dc.lft.to/lastmile_qr_scan"}, "bike_id": "9c0f0fa68131a48854283b3218068cb3", "lat": 38.93401133333333, "name": "9c0f0fa68131a48854283b3218068cb3", "lon": -77.045455, "fusion_lon": 0.0}, {"is_reserved": 0, "type": "electric_scooter", "fusion_lat": 0.0, "is_disabled": 0, "rental_uris": {"ios": "https://dc.lft.to/lastmile_qr_scan", "android": "https://dc.lft.to/lastmile_qr_scan"}, "bike_id": "e95d379cd9a4329da676f9358d1bd183", "lat": 38.9134995, "name": "e95d379cd9a4329da676f9358d1bd183", "lon": -76.97141033333334, "fusion_lon": 0.0}, {"is_reserved": 0, "type": "electric_bike", "fusion_lat": 0.0, "is_disabled": 0, "rental_uris": {"ios": "https://dc.lft.to/lastmile_qr_scan", "android": "https://dc.lft.to/lastmile_qr_scan"}, "bike_id": "50976c343b76dabdd1328fd2ca5be481", "lat": 38.910350666666666, "name": "50976c343b76dabdd1328fd2ca5be481", "lon": -76.92335233333333, "fusion_lon": 0.0}, {"is_reserved": 0, "type": "electric_scooter", "fusion_lat": 0.0, "is_disabled": 0, "rental_uris": {"ios": "https://dc.lft.to/lastmile_qr_scan", "android": "https://dc.lft.to/lastmile_qr_scan"}, "bike_id": "1f46260c3ab6e205ccd0aaa60d122088", "lat": 38.8982505, "name": "1f46260c3ab6e205ccd0aaa60d122088", "lon": -77.04820766666667, "fusion_lon": 0.0}, {"is_reserved": 0, "type": "electric_scooter", "fusion_lat": 0.0, "is_disabled": 0, "rental_uris": {"ios": "https://dc.lft.to/lastmile_qr_scan", "android": "https://dc.lft.to/lastmile_qr_scan"}, "bike_id": "96a9f54af420b93a4a7ce9ebf9398ad2", "lat": 38.93034266666667, "name": "96a9f54af420b93a4a7ce9ebf9398ad2", "lon": -77.0380675, "fusion_lon": 0.0}, {"is_reserved": 0, "type": "electric_scooter", "fusion_lat": 0.0, "is_disabled": 0, "rental_uris": {"ios": "https://dc.lft.to/lastmile_qr_scan", "android": "https://dc.lft.to/lastmile_qr_scan"}, "bike_id": "fedf6f90ac22c3a81a1c37ba788a15f3", "lat": 38.9145155, "name": "fedf6f90ac22c3a81a1c37ba788a15f3", "lon": -77.02190216666666, "fusion_lon": 0.0}, {"is_reserved": 0, "type": "electric_scooter", "fusion_lat": 0.0, "is_disabled": 0, "rental_uris": {"ios": "https://dc.lft.to/lastmile_qr_scan", "android": "https://dc.lft.to/lastmile_qr_scan"}, "bike_id": "893991f1ee6f55096192b2a5670206e8", "lat": 38.900012, "name": "893991f1ee6f55096192b2a5670206e8", "lon": -77.02702333333333, "fusion_lon": 0.0}, {"is_reserved": 0, "type": "electric_scooter", "fusion_lat": 0.0, "is_disabled": 0, "rental_uris": {"ios": "https://dc.lft.to/lastmile_qr_scan", "android": "https://dc.lft.to/lastmile_qr_scan"}, "bike_id": "cb22d1d51796fd14cf02323263d2c025", "lat": 38.909139, "name": "cb22d1d51796fd14cf02323263d2c025", "lon": -77.04940966666666, "fusion_lon": 0.0}, {"is_reserved": 0, "type": "electric_scooter", "fusion_lat": 0.0, "is_disabled": 0, "rental_uris": {"ios": "https://dc.lft.to/lastmile_qr_scan", "android": "https://dc.lft.to/lastmile_qr_scan"}, "bike_id": "d2d7e7a2b0712e048d42e69949154328", "lat": 38.924097833333335, "name": "d2d7e7a2b0712e048d42e69949154328", "lon": -77.02015133333333, "fusion_lon": 0.0}, {"is_reserved": 0, "type": "electric_scooter", "fusion_lat": 0.0, "is_disabled": 0, "rental_uris": {"ios": "https://dc.lft.to/lastmile_qr_scan", "android": "https://dc.lft.to/lastmile_qr_scan"}, "bike_id": "443089e90c61a9ef4bdb3dc98057d5cc", "lat": 38.8924995, "name": "443089e90c61a9ef4bdb3dc98057d5cc", "lon": -77.02598683333333, "fusion_lon": 0.0}, {"is_reserved": 0, "type": "electric_scooter", "fusion_lat": 0.0, "is_disabled": 0, "rental_uris": {"ios": "https://dc.lft.to/lastmile_qr_scan", "android": "https://dc.lft.to/lastmile_qr_scan"}, "bike_id": "83d1b4e689e5ec2b2743687373b2bbc6", "lat": 38.89164133333333, "name": "83d1b4e689e5ec2b2743687373b2bbc6", "lon": -77.01544166666666, "fusion_lon": 0.0}, {"is_reserved": 0, "type": "electric_scooter", "fusion_lat": 0.0, "is_disabled": 0, "rental_uris": {"ios": "https://dc.lft.to/lastmile_qr_scan", "android": "https://dc.lft.to/lastmile_qr_scan"}, "bike_id": "ba82ae9916fa6ac3eb2638532de9525e", "lat": 38.899916, "name": "ba82ae9916fa6ac3eb2638532de9525e", "lon": -77.0064875, "fusion_lon": 0.0}, {"is_reserved": 0, "type": "electric_scooter", "fusion_lat": 0.0, "is_disabled": 0, "rental_uris": {"ios": "https://dc.lft.to/lastmile_qr_scan", "android": "https://dc.lft.to/lastmile_qr_scan"}, "bike_id": "645bd9481c4e4bbbca15accc36608131", "lat": 38.928123666666664, "name": "645bd9481c4e4bbbca15accc36608131", "lon": -77.036087, "fusion_lon": 0.0}, {"is_reserved": 0, "type": "electric_scooter", "fusion_lat": 0.0, "is_disabled": 0, "rental_uris": {"ios": "https://dc.lft.to/lastmile_qr_scan", "android": "https://dc.lft.to/lastmile_qr_scan"}, "bike_id": "33e0d347ce77efd0449fa594d6b2b21c", "lat": 38.922165666666665, "name": "33e0d347ce77efd0449fa594d6b2b21c", "lon": -77.02028516666667, "fusion_lon": 0.0}, {"is_reserved": 0, "type": "electric_scooter", "fusion_lat": 0.0, "is_disabled": 0, "rental_uris": {"ios": "https://dc.lft.to/lastmile_qr_scan", "android": "https://dc.lft.to/lastmile_qr_scan"}, "bike_id": "5acd90e9c5b345c4084a29cf956a04bb", "lat": 38.91743433333333, "name": "5acd90e9c5b345c4084a29cf956a04bb", "lon": -77.01086766666667, "fusion_lon": 0.0}, {"is_reserved": 0, "type": "electric_scooter", "fusion_lat": 0.0, "is_disabled": 0, "rental_uris": {"ios": "https://dc.lft.to/lastmile_qr_scan", "android": "https://dc.lft.to/lastmile_qr_scan"}, "bike_id": "12a491f2ccb91874cd70387ce3d52edb", "lat": 38.933264666666666, "name": "12a491f2ccb91874cd70387ce3d52edb", "lon": -77.0290905, "fusion_lon": 0.0}, {"is_reserved": 0, "type": "electric_bike", "fusion_lat": 0.0, "is_disabled": 0, "rental_uris": {"ios": "https://dc.lft.to/lastmile_qr_scan", "android": "https://dc.lft.to/lastmile_qr_scan"}, "bike_id": "372b33a2d792ddd5665ebe88839878ab", "lat": 38.9144995, "name": "372b33a2d792ddd5665ebe88839878ab", "lon": -76.97280033333334, "fusion_lon": 0.0}, {"is_reserved": 0, "type": "electric_bike", "fusion_lat": 0.0, "is_disabled": 0, "rental_uris": {"ios": "https://dc.lft.to/lastmile_qr_scan", "android": "https://dc.lft.to/lastmile_qr_scan"}, "bike_id": "81e17c0cf98938aa732e7ec7ce5e84d8", "lat": 38.835805666666666, "name": "81e17c0cf98938aa732e7ec7ce5e84d8", "lon": -76.9902305, "fusion_lon": 0.0}, {"is_reserved": 0, "type": "electric_bike", "fusion_lat": 0.0, "is_disabled": 0, "rental_uris": {"ios": "https://dc.lft.to/lastmile_qr_scan", "android": "https://dc.lft.to/lastmile_qr_scan"}, "bike_id": "7fe20fc4ff23fc510ab2653085d3b900", "lat": 38.850865166666665, "name": "7fe20fc4ff23fc510ab2653085d3b900", "lon": -76.981574, "fusion_lon": 0.0}, {"is_reserved": 0, "type": "electric_scooter", "fusion_lat": 0.0, "is_disabled": 0, "rental_uris": {"ios": "https://dc.lft.to/lastmile_qr_scan", "android": "https://dc.lft.to/lastmile_qr_scan"}, "bike_id": "395b6dd0615e90aaa480aede37ed0afb", "lat": 38.895893, "name": "395b6dd0615e90aaa480aede37ed0afb", "lon": -77.02758683333333, "fusion_lon": 0.0}, {"is_reserved": 0, "type": "electric_bike", "fusion_lat": 0.0, "is_disabled": 0, "rental_uris": {"ios": "https://dc.lft.to/lastmile_qr_scan", "android": "https://dc.lft.to/lastmile_qr_scan"}, "bike_id": "5e36d9a373878473a56f9448e00e43c4", "lat": 38.900115166666666, "name": "5e36d9a373878473a56f9448e00e43c4", "lon": -76.9904395, "fusion_lon": 0.0}, {"is_reserved": 0, "type": "electric_scooter", "fusion_lat": 0.0, "is_disabled": 0, "rental_uris": {"ios": "https://dc.lft.to/lastmile_qr_scan", "android": "https://dc.lft.to/lastmile_qr_scan"}, "bike_id": "3b63716bfef47d144159a689cfc40404", "lat": 38.8876465, "name": "3b63716bfef47d144159a689cfc40404", "lon": -77.00046616666667, "fusion_lon": 0.0}, {"is_reserved": 0, "type": "electric_bike", "fusion_lat": 0.0, "is_disabled": 0, "rental_uris": {"ios": "https://dc.lft.to/lastmile_qr_scan", "android": "https://dc.lft.to/lastmile_qr_scan"}, "bike_id": "2d4c987f362c6448c9c8a48f51742f01", "lat": 38.900779, "name": "2d4c987f362c6448c9c8a48f51742f01", "lon": -77.046818, "fusion_lon": 0.0}, {"is_reserved": 0, "type": "electric_bike", "fusion_lat": 0.0, "is_disabled": 0, "rental_uris": {"ios": "https://dc.lft.to/lastmile_qr_scan", "android": "https://dc.lft.to/lastmile_qr_scan"}, "bike_id": "71330e2c6921de25a8c911b147d444b1", "lat": 38.95507, "name": "71330e2c6921de25a8c911b147d444b1", "lon": -77.0276985, "fusion_lon": 0.0}, {"is_reserved": 0, "type": "electric_bike", "fusion_lat": 0.0, "is_disabled": 0, "rental_uris": {"ios": "https://dc.lft.to/lastmile_qr_scan", "android": "https://dc.lft.to/lastmile_qr_scan"}, "bike_id": "ced8ee5f343053e1744e81e392582572", "lat": 38.9673495, "name": "ced8ee5f343053e1744e81e392582572", "lon": -77.0891, "fusion_lon": 0.0}, {"is_reserved": 0, "type": "electric_scooter", "fusion_lat": 0.0, "is_disabled": 0, "rental_uris": {"ios": "https://dc.lft.to/lastmile_qr_scan", "android": "https://dc.lft.to/lastmile_qr_scan"}, "bike_id": "bbc360c2a99265bce826066112dbc18d", "lat": 38.92952666666667, "name": "bbc360c2a99265bce826066112dbc18d", "lon": -77.044053, "fusion_lon": 0.0}, {"is_reserved": 0, "type": "electric_scooter", "fusion_lat": 0.0, "is_disabled": 0, "rental_uris": {"ios": "https://dc.lft.to/lastmile_qr_scan", "android": "https://dc.lft.to/lastmile_qr_scan"}, "bike_id": "6c479cbfac1979d43bfee4a9374f609d", "lat": 38.895014833333335, "name": "6c479cbfac1979d43bfee4a9374f609d", "lon": -77.022977, "fusion_lon": 0.0}, {"is_reserved": 0, "type": "electric_scooter", "fusion_lat": 0.0, "is_disabled": 0, "rental_uris": {"ios": "https://dc.lft.to/lastmile_qr_scan", "android": "https://dc.lft.to/lastmile_qr_scan"}, "bike_id": "f3e2fef554b52394ddaff7175dee9dcf", "lat": 38.90996616666666, "name": "f3e2fef554b52394ddaff7175dee9dcf", "lon": -77.0269325, "fusion_lon": 0.0}, {"is_reserved": 0, "type": "electric_scooter", "fusion_lat": 0.0, "is_disabled": 0, "rental_uris": {"ios": "https://dc.lft.to/lastmile_qr_scan", "android": "https://dc.lft.to/lastmile_qr_scan"}, "bike_id": "38126db1a1124d424f3063daee169c30", "lat": 38.88837616666667, "name": "38126db1a1124d424f3063daee169c30", "lon": -76.97745066666667, "fusion_lon": 0.0}, {"is_reserved": 0, "type": "electric_scooter", "fusion_lat": 0.0, "is_disabled": 0, "rental_uris": {"ios": "https://dc.lft.to/lastmile_qr_scan", "android": "https://dc.lft.to/lastmile_qr_scan"}, "bike_id": "4b9783e5788b5d2cca1d8e17b2677606", "lat": 38.90804816666667, "name": "4b9783e5788b5d2cca1d8e17b2677606", "lon": -77.0434065, "fusion_lon": 0.0}, {"is_reserved": 0, "type": "electric_scooter", "fusion_lat": 0.0, "is_disabled": 0, "rental_uris": {"ios": "https://dc.lft.to/lastmile_qr_scan", "android": "https://dc.lft.to/lastmile_qr_scan"}, "bike_id": "62a8424ecc346e62b8bfdfda352e9e3f", "lat": 38.88623333333334, "name": "62a8424ecc346e62b8bfdfda352e9e3f", "lon": -76.98705816666667, "fusion_lon": 0.0}, {"is_reserved": 0, "type": "electric_scooter", "fusion_lat": 0.0, "is_disabled": 0, "rental_uris": {"ios": "https://dc.lft.to/lastmile_qr_scan", "android": "https://dc.lft.to/lastmile_qr_scan"}, "bike_id": "f22a46b04636a4f1107e26b1623f9586", "lat": 38.892312, "name": "f22a46b04636a4f1107e26b1623f9586", "lon": -77.02384783333333, "fusion_lon": 0.0}, {"is_reserved": 0, "type": "electric_scooter", "fusion_lat": 0.0, "is_disabled": 0, "rental_uris": {"ios": "https://dc.lft.to/lastmile_qr_scan", "android": "https://dc.lft.to/lastmile_qr_scan"}, "bike_id": "a9c6324dad48f1eef142e9ffe8bd2e6b", "lat": 38.916836833333335, "name": "a9c6324dad48f1eef142e9ffe8bd2e6b", "lon": -77.02952, "fusion_lon": 0.0}, {"is_reserved": 0, "type": "electric_scooter", "fusion_lat": 0.0, "is_disabled": 0, "rental_uris": {"ios": "https://dc.lft.to/lastmile_qr_scan", "android": "https://dc.lft.to/lastmile_qr_scan"}, "bike_id": "ae35fc3bf87cb6ae999f15ad83aa642f", "lat": 38.907321333333336, "name": "ae35fc3bf87cb6ae999f15ad83aa642f", "lon": -77.03982866666666, "fusion_lon": 0.0}, {"is_reserved": 0, "type": "electric_scooter", "fusion_lat": 0.0, "is_disabled": 0, "rental_uris": {"ios": "https://dc.lft.to/lastmile_qr_scan", "android": "https://dc.lft.to/lastmile_qr_scan"}, "bike_id": "d3e7555d09a9927b08df8132d2549b2c", "lat": 38.900590666666666, "name": "d3e7555d09a9927b08df8132d2549b2c", "lon": -77.0365685, "fusion_lon": 0.0}, {"is_reserved": 0, "type": "electric_scooter", "fusion_lat": 0.0, "is_disabled": 0, "rental_uris": {"ios": "https://dc.lft.to/lastmile_qr_scan", "android": "https://dc.lft.to/lastmile_qr_scan"}, "bike_id": "1c4a9642b5cc14d425c9ac569cd1b21e", "lat": 38.9024465, "name": "1c4a9642b5cc14d425c9ac569cd1b21e", "lon": -77.0469335, "fusion_lon": 0.0}, {"is_reserved": 0, "type": "electric_scooter", "fusion_lat": 0.0, "is_disabled": 0, "rental_uris": {"ios": "https://dc.lft.to/lastmile_qr_scan", "android": "https://dc.lft.to/lastmile_qr_scan"}, "bike_id": "6115b7a47069d7a0693c11b8d02db466", "lat": 38.920202833333335, "name": "6115b7a47069d7a0693c11b8d02db466", "lon": -77.031221, "fusion_lon": 0.0}, {"is_reserved": 0, "type": "electric_scooter", "fusion_lat": 0.0, "is_disabled": 0, "rental_uris": {"ios": "https://dc.lft.to/lastmile_qr_scan", "android": "https://dc.lft.to/lastmile_qr_scan"}, "bike_id": "702ea63bd3c85eaa559173a389d57994", "lat": 38.909481166666666, "name": "702ea63bd3c85eaa559173a389d57994", "lon": -77.04659533333333, "fusion_lon": 0.0}, {"is_reserved": 0, "type": "electric_scooter", "fusion_lat": 0.0, "is_disabled": 0, "rental_uris": {"ios": "https://dc.lft.to/lastmile_qr_scan", "android": "https://dc.lft.to/lastmile_qr_scan"}, "bike_id": "0185048efbf7db2e3e16510383af64c0", "lat": 38.925352333333336, "name": "0185048efbf7db2e3e16510383af64c0", "lon": -77.03473, "fusion_lon": 0.0}, {"is_reserved": 0, "type": "electric_scooter", "fusion_lat": 0.0, "is_disabled": 0, "rental_uris": {"ios": "https://dc.lft.to/lastmile_qr_scan", "android": "https://dc.lft.to/lastmile_qr_scan"}, "bike_id": "ade3319fb7a38bf79d55922087b3e9de", "lat": 38.941940833333334, "name": "ade3319fb7a38bf79d55922087b3e9de", "lon": -77.08825966666667, "fusion_lon": 0.0}, {"is_reserved": 0, "type": "electric_scooter", "fusion_lat": 0.0, "is_disabled": 0, "rental_uris": {"ios": "https://dc.lft.to/lastmile_qr_scan", "android": "https://dc.lft.to/lastmile_qr_scan"}, "bike_id": "b8ce4ab2b10168cd242c8a00541e5032", "lat": 38.9039445, "name": "b8ce4ab2b10168cd242c8a00541e5032", "lon": -77.06328166666667, "fusion_lon": 0.0}, {"is_reserved": 0, "type": "electric_scooter", "fusion_lat": 0.0, "is_disabled": 0, "rental_uris": {"ios": "https://dc.lft.to/lastmile_qr_scan", "android": "https://dc.lft.to/lastmile_qr_scan"}, "bike_id": "76d6b722874541228f92411ed87a0c5c", "lat": 38.91705066666667, "name": "76d6b722874541228f92411ed87a0c5c", "lon": -77.033348, "fusion_lon": 0.0}, {"is_reserved": 0, "type": "electric_scooter", "fusion_lat": 0.0, "is_disabled": 0, "rental_uris": {"ios": "https://dc.lft.to/lastmile_qr_scan", "android": "https://dc.lft.to/lastmile_qr_scan"}, "bike_id": "0f08561720852a2fd3e8377471103edc", "lat": 38.9224325, "name": "0f08561720852a2fd3e8377471103edc", "lon": -77.01843583333333, "fusion_lon": 0.0}, {"is_reserved": 0, "type": "electric_scooter", "fusion_lat": 0.0, "is_disabled": 0, "rental_uris": {"ios": "https://dc.lft.to/lastmile_qr_scan", "android": "https://dc.lft.to/lastmile_qr_scan"}, "bike_id": "af04c8683452b685a4022c9959eb10e2", "lat": 38.9469985, "name": "af04c8683452b685a4022c9959eb10e2", "lon": -77.0328585, "fusion_lon": 0.0}, {"is_reserved": 0, "type": "electric_scooter", "fusion_lat": 0.0, "is_disabled": 0, "rental_uris": {"ios": "https://dc.lft.to/lastmile_qr_scan", "android": "https://dc.lft.to/lastmile_qr_scan"}, "bike_id": "13a207c8156eb6e31c7dd60e97f879a1", "lat": 38.912569500000004, "name": "13a207c8156eb6e31c7dd60e97f879a1", "lon": -77.03863216666667, "fusion_lon": 0.0}, {"is_reserved": 0, "type": "electric_scooter", "fusion_lat": 0.0, "is_disabled": 0, "rental_uris": {"ios": "https://dc.lft.to/lastmile_qr_scan", "android": "https://dc.lft.to/lastmile_qr_scan"}, "bike_id": "7f02eea4babd2deb706610fff3e35c51", "lat": 38.95732233333333, "name": "7f02eea4babd2deb706610fff3e35c51", "lon": -77.02424966666666, "fusion_lon": 0.0}, {"is_reserved": 0, "type": "electric_scooter", "fusion_lat": 0.0, "is_disabled": 0, "rental_uris": {"ios": "https://dc.lft.to/lastmile_qr_scan", "android": "https://dc.lft.to/lastmile_qr_scan"}, "bike_id": "0316155c11aa87da918c472501485302", "lat": 38.89825183333333, "name": "0316155c11aa87da918c472501485302", "lon": -77.04643583333333, "fusion_lon": 0.0}, {"is_reserved": 0, "type": "electric_scooter", "fusion_lat": 0.0, "is_disabled": 0, "rental_uris": {"ios": "https://dc.lft.to/lastmile_qr_scan", "android": "https://dc.lft.to/lastmile_qr_scan"}, "bike_id": "31ae3eab4520a8228f8ad1367c8e3a40", "lat": 38.90258733333334, "name": "31ae3eab4520a8228f8ad1367c8e3a40", "lon": -77.0277235, "fusion_lon": 0.0}, {"is_reserved": 0, "type": "electric_scooter", "fusion_lat": 0.0, "is_disabled": 0, "rental_uris": {"ios": "https://dc.lft.to/lastmile_qr_scan", "android": "https://dc.lft.to/lastmile_qr_scan"}, "bike_id": "9a2b0757f0e29c3f5264d8342f914954", "lat": 38.94087283333333, "name": "9a2b0757f0e29c3f5264d8342f914954", "lon": -77.0230695, "fusion_lon": 0.0}, {"is_reserved": 0, "type": "electric_scooter", "fusion_lat": 0.0, "is_disabled": 0, "rental_uris": {"ios": "https://dc.lft.to/lastmile_qr_scan", "android": "https://dc.lft.to/lastmile_qr_scan"}, "bike_id": "d1e935d710e8ec97ffb0affdc4ce457d", "lat": 38.913645333333335, "name": "d1e935d710e8ec97ffb0affdc4ce457d", "lon": -77.0448075, "fusion_lon": 0.0}, {"is_reserved": 0, "type": "electric_scooter", "fusion_lat": 0.0, "is_disabled": 0, "rental_uris": {"ios": "https://dc.lft.to/lastmile_qr_scan", "android": "https://dc.lft.to/lastmile_qr_scan"}, "bike_id": "4b1a34331d9ac56c2567b09532cb7db2", "lat": 38.9036465, "name": "4b1a34331d9ac56c2567b09532cb7db2", "lon": -77.01635016666667, "fusion_lon": 0.0}, {"is_reserved": 0, "type": "electric_scooter", "fusion_lat": 0.0, "is_disabled": 0, "rental_uris": {"ios": "https://dc.lft.to/lastmile_qr_scan", "android": "https://dc.lft.to/lastmile_qr_scan"}, "bike_id": "97ea9d3ee652dca1dcd7722a288ea074", "lat": 38.907037, "name": "97ea9d3ee652dca1dcd7722a288ea074", "lon": -77.03954716666667, "fusion_lon": 0.0}, {"is_reserved": 0, "type": "electric_scooter", "fusion_lat": 0.0, "is_disabled": 0, "rental_uris": {"ios": "https://dc.lft.to/lastmile_qr_scan", "android": "https://dc.lft.to/lastmile_qr_scan"}, "bike_id": "35a0c2470a5edd850d609fb432c497ce", "lat": 38.88709, "name": "35a0c2470a5edd850d609fb432c497ce", "lon": -76.98382166666667, "fusion_lon": 0.0}, {"is_reserved": 0, "type": "electric_scooter", "fusion_lat": 0.0, "is_disabled": 0, "rental_uris": {"ios": "https://dc.lft.to/lastmile_qr_scan", "android": "https://dc.lft.to/lastmile_qr_scan"}, "bike_id": "3ecadb4c89da94659ace3c76ea3d268d", "lat": 38.92361566666666, "name": "3ecadb4c89da94659ace3c76ea3d268d", "lon": -77.04319533333333, "fusion_lon": 0.0}, {"is_reserved": 0, "type": "electric_scooter", "fusion_lat": 0.0, "is_disabled": 0, "rental_uris": {"ios": "https://dc.lft.to/lastmile_qr_scan", "android": "https://dc.lft.to/lastmile_qr_scan"}, "bike_id": "3c79825afb9cb33b1b8b4cdca0095836", "lat": 38.917975, "name": "3c79825afb9cb33b1b8b4cdca0095836", "lon": -77.04020283333334, "fusion_lon": 0.0}, {"is_reserved": 0, "type": "electric_scooter", "fusion_lat": 0.0, "is_disabled": 0, "rental_uris": {"ios": "https://dc.lft.to/lastmile_qr_scan", "android": "https://dc.lft.to/lastmile_qr_scan"}, "bike_id": "52e087dc4bc4646ab65cfcbd1d6e07f9", "lat": 38.89882083333333, "name": "52e087dc4bc4646ab65cfcbd1d6e07f9", "lon": -77.00724533333333, "fusion_lon": 0.0}, {"is_reserved": 0, "type": "electric_bike", "fusion_lat": 0.0, "is_disabled": 0, "rental_uris": {"ios": "https://dc.lft.to/lastmile_qr_scan", "android": "https://dc.lft.to/lastmile_qr_scan"}, "bike_id": "d213cdae720c8d47c33f77f85b71f8c4", "lat": 38.888745, "name": "d213cdae720c8d47c33f77f85b71f8c4", "lon": -76.95700283333333, "fusion_lon": 0.0}, {"is_reserved": 0, "type": "electric_bike", "fusion_lat": 0.0, "is_disabled": 0, "rental_uris": {"ios": "https://dc.lft.to/lastmile_qr_scan", "android": "https://dc.lft.to/lastmile_qr_scan"}, "bike_id": "54b4eb08540c06a9082942277b50369e", "lat": 38.879501833333336, "name": "54b4eb08540c06a9082942277b50369e", "lon": -76.93191983333334, "fusion_lon": 0.0}, {"is_reserved": 0, "type": "electric_scooter", "fusion_lat": 0.0, "is_disabled": 0, "rental_uris": {"ios": "https://dc.lft.to/lastmile_qr_scan", "android": "https://dc.lft.to/lastmile_qr_scan"}, "bike_id": "21e0d6d2c277673ac0d93d7089a9fcbb", "lat": 38.91771166666667, "name": "21e0d6d2c277673ac0d93d7089a9fcbb", "lon": -77.02311316666666, "fusion_lon": 0.0}, {"is_reserved": 0, "type": "electric_scooter", "fusion_lat": 0.0, "is_disabled": 0, "rental_uris": {"ios": "https://dc.lft.to/lastmile_qr_scan", "android": "https://dc.lft.to/lastmile_qr_scan"}, "bike_id": "a3a0d4da4b360e2f1e129297d46ce149", "lat": 38.89256733333333, "name": "a3a0d4da4b360e2f1e129297d46ce149", "lon": -77.02622183333334, "fusion_lon": 0.0}, {"is_reserved": 0, "type": "electric_scooter", "fusion_lat": 0.0, "is_disabled": 0, "rental_uris": {"ios": "https://dc.lft.to/lastmile_qr_scan", "android": "https://dc.lft.to/lastmile_qr_scan"}, "bike_id": "014658dc199a606b0982784e6fd70917", "lat": 38.920843, "name": "014658dc199a606b0982784e6fd70917", "lon": -77.02552983333334, "fusion_lon": 0.0}, {"is_reserved": 0, "type": "electric_scooter", "fusion_lat": 0.0, "is_disabled": 0, "rental_uris": {"ios": "https://dc.lft.to/lastmile_qr_scan", "android": "https://dc.lft.to/lastmile_qr_scan"}, "bike_id": "82ce8b0abaf2dea215976bb1bf77b3bc", "lat": 38.907675166666664, "name": "82ce8b0abaf2dea215976bb1bf77b3bc", "lon": -77.0189605, "fusion_lon": 0.0}, {"is_reserved": 0, "type": "electric_scooter", "fusion_lat": 0.0, "is_disabled": 0, "rental_uris": {"ios": "https://dc.lft.to/lastmile_qr_scan", "android": "https://dc.lft.to/lastmile_qr_scan"}, "bike_id": "48199174b3894a47843f3bf63e975924", "lat": 38.903819166666665, "name": "48199174b3894a47843f3bf63e975924", "lon": -77.0163015, "fusion_lon": 0.0}, {"is_reserved": 0, "type": "electric_bike", "fusion_lat": 0.0, "is_disabled": 0, "rental_uris": {"ios": "https://dc.lft.to/lastmile_qr_scan", "android": "https://dc.lft.to/lastmile_qr_scan"}, "bike_id": "94392b38889b95b8e14f4ecd451b5823", "lat": 38.877631666666666, "name": "94392b38889b95b8e14f4ecd451b5823", "lon": -77.01051633333333, "fusion_lon": 0.0}, {"is_reserved": 0, "type": "electric_scooter", "fusion_lat": 0.0, "is_disabled": 0, "rental_uris": {"ios": "https://dc.lft.to/lastmile_qr_scan", "android": "https://dc.lft.to/lastmile_qr_scan"}, "bike_id": "93b656391f13705e224248d2f2389607", "lat": 38.9201635, "name": "93b656391f13705e224248d2f2389607", "lon": -77.07135966666667, "fusion_lon": 0.0}, {"is_reserved": 0, "type": "electric_scooter", "fusion_lat": 0.0, "is_disabled": 0, "rental_uris": {"ios": "https://dc.lft.to/lastmile_qr_scan", "android": "https://dc.lft.to/lastmile_qr_scan"}, "bike_id": "46750f1d33d61e4b9ba02f4041880e43", "lat": 38.920669333333336, "name": "46750f1d33d61e4b9ba02f4041880e43", "lon": -77.02518933333333, "fusion_lon": 0.0}, {"is_reserved": 0, "type": "electric_scooter", "fusion_lat": 0.0, "is_disabled": 0, "rental_uris": {"ios": "https://dc.lft.to/lastmile_qr_scan", "android": "https://dc.lft.to/lastmile_qr_scan"}, "bike_id": "71ecab007189b22a3a41eb50f1dee7bd", "lat": 38.89730866666667, "name": "71ecab007189b22a3a41eb50f1dee7bd", "lon": -77.04148083333334, "fusion_lon": 0.0}, {"is_reserved": 0, "type": "electric_scooter", "fusion_lat": 0.0, "is_disabled": 0, "rental_uris": {"ios": "https://dc.lft.to/lastmile_qr_scan", "android": "https://dc.lft.to/lastmile_qr_scan"}, "bike_id": "97c76a86d5796f18c69c67927043b5eb", "lat": 38.87833666666667, "name": "97c76a86d5796f18c69c67927043b5eb", "lon": -77.00575083333334, "fusion_lon": 0.0}, {"is_reserved": 0, "type": "electric_scooter", "fusion_lat": 0.0, "is_disabled": 0, "rental_uris": {"ios": "https://dc.lft.to/lastmile_qr_scan", "android": "https://dc.lft.to/lastmile_qr_scan"}, "bike_id": "0baf0f787b80145e36352e8afeadbe19", "lat": 38.932164666666665, "name": "0baf0f787b80145e36352e8afeadbe19", "lon": -77.035296, "fusion_lon": 0.0}, {"is_reserved": 0, "type": "electric_scooter", "fusion_lat": 0.0, "is_disabled": 0, "rental_uris": {"ios": "https://dc.lft.to/lastmile_qr_scan", "android": "https://dc.lft.to/lastmile_qr_scan"}, "bike_id": "a84e83f4885b8a0803a24eb47cce74b1", "lat": 38.88012633333334, "name": "a84e83f4885b8a0803a24eb47cce74b1", "lon": -76.99737383333333, "fusion_lon": 0.0}, {"is_reserved": 0, "type": "electric_scooter", "fusion_lat": 0.0, "is_disabled": 0, "rental_uris": {"ios": "https://dc.lft.to/lastmile_qr_scan", "android": "https://dc.lft.to/lastmile_qr_scan"}, "bike_id": "c1c2a94c2f295b1b5656f009be9fa569", "lat": 38.89221216666667, "name": "c1c2a94c2f295b1b5656f009be9fa569", "lon": -77.02220683333333, "fusion_lon": 0.0}, {"is_reserved": 0, "type": "electric_scooter", "fusion_lat": 0.0, "is_disabled": 0, "rental_uris": {"ios": "https://dc.lft.to/lastmile_qr_scan", "android": "https://dc.lft.to/lastmile_qr_scan"}, "bike_id": "1d35bc4c5315bd113192394447df5061", "lat": 38.901194, "name": "1d35bc4c5315bd113192394447df5061", "lon": -77.0317135, "fusion_lon": 0.0}, {"is_reserved": 0, "type": "electric_scooter", "fusion_lat": 0.0, "is_disabled": 0, "rental_uris": {"ios": "https://dc.lft.to/lastmile_qr_scan", "android": "https://dc.lft.to/lastmile_qr_scan"}, "bike_id": "ef8e77045a2f1d762a9fe24c9a580be1", "lat": 38.9179565, "name": "ef8e77045a2f1d762a9fe24c9a580be1", "lon": -77.04020016666666, "fusion_lon": 0.0}, {"is_reserved": 0, "type": "electric_scooter", "fusion_lat": 0.0, "is_disabled": 0, "rental_uris": {"ios": "https://dc.lft.to/lastmile_qr_scan", "android": "https://dc.lft.to/lastmile_qr_scan"}, "bike_id": "bd1abb075e5c699b852bbc83fb9d63db", "lat": 38.897762166666666, "name": "bd1abb075e5c699b852bbc83fb9d63db", "lon": -77.05034883333333, "fusion_lon": 0.0}, {"is_reserved": 0, "type": "electric_scooter", "fusion_lat": 0.0, "is_disabled": 0, "rental_uris": {"ios": "https://dc.lft.to/lastmile_qr_scan", "android": "https://dc.lft.to/lastmile_qr_scan"}, "bike_id": "1e90e565b08a3724cf2f6054a40c9ff9", "lat": 38.948578833333336, "name": "1e90e565b08a3724cf2f6054a40c9ff9", "lon": -77.07877716666667, "fusion_lon": 0.0}, {"is_reserved": 0, "type": "electric_scooter", "fusion_lat": 0.0, "is_disabled": 0, "rental_uris": {"ios": "https://dc.lft.to/lastmile_qr_scan", "android": "https://dc.lft.to/lastmile_qr_scan"}, "bike_id": "d10c7a63f844491724464896a6d97052", "lat": 38.89690783333333, "name": "d10c7a63f844491724464896a6d97052", "lon": -77.04330466666667, "fusion_lon": 0.0}, {"is_reserved": 0, "type": "electric_scooter", "fusion_lat": 0.0, "is_disabled": 0, "rental_uris": {"ios": "https://dc.lft.to/lastmile_qr_scan", "android": "https://dc.lft.to/lastmile_qr_scan"}, "bike_id": "ad8926592f52836bc909e452a0fd992f", "lat": 38.92266133333333, "name": "ad8926592f52836bc909e452a0fd992f", "lon": -76.997752, "fusion_lon": 0.0}, {"is_reserved": 0, "type": "electric_scooter", "fusion_lat": 0.0, "is_disabled": 0, "rental_uris": {"ios": "https://dc.lft.to/lastmile_qr_scan", "android": "https://dc.lft.to/lastmile_qr_scan"}, "bike_id": "db4ff3d82bbd0aaa4564129e12bbdc3f", "lat": 38.927228, "name": "db4ff3d82bbd0aaa4564129e12bbdc3f", "lon": -77.05135933333334, "fusion_lon": 0.0}, {"is_reserved": 0, "type": "electric_scooter", "fusion_lat": 0.0, "is_disabled": 0, "rental_uris": {"ios": "https://dc.lft.to/lastmile_qr_scan", "android": "https://dc.lft.to/lastmile_qr_scan"}, "bike_id": "645690547b2f0b7a2e50d2ded9c9dc39", "lat": 38.892528166666665, "name": "645690547b2f0b7a2e50d2ded9c9dc39", "lon": -77.03197, "fusion_lon": 0.0}, {"is_reserved": 0, "type": "electric_scooter", "fusion_lat": 0.0, "is_disabled": 0, "rental_uris": {"ios": "https://dc.lft.to/lastmile_qr_scan", "android": "https://dc.lft.to/lastmile_qr_scan"}, "bike_id": "1ad0de83bc8def803d8cdf30d784c895", "lat": 38.898827833333335, "name": "1ad0de83bc8def803d8cdf30d784c895", "lon": -76.93177166666666, "fusion_lon": 0.0}, {"is_reserved": 0, "type": "electric_scooter", "fusion_lat": 0.0, "is_disabled": 0, "rental_uris": {"ios": "https://dc.lft.to/lastmile_qr_scan", "android": "https://dc.lft.to/lastmile_qr_scan"}, "bike_id": "5d7a58716ab85ca482093bad12b1e624", "lat": 38.92713, "name": "5d7a58716ab85ca482093bad12b1e624", "lon": -77.0368545, "fusion_lon": 0.0}, {"is_reserved": 0, "type": "electric_scooter", "fusion_lat": 0.0, "is_disabled": 0, "rental_uris": {"ios": "https://dc.lft.to/lastmile_qr_scan", "android": "https://dc.lft.to/lastmile_qr_scan"}, "bike_id": "88a48325f5958ea2f049e47ed3904167", "lat": 38.905672833333334, "name": "88a48325f5958ea2f049e47ed3904167", "lon": -77.04469816666666, "fusion_lon": 0.0}, {"is_reserved": 0, "type": "electric_scooter", "fusion_lat": 0.0, "is_disabled": 0, "rental_uris": {"ios": "https://dc.lft.to/lastmile_qr_scan", "android": "https://dc.lft.to/lastmile_qr_scan"}, "bike_id": "4df8f23e1e2a92c7b6817319a0f8fd40", "lat": 38.898958, "name": "4df8f23e1e2a92c7b6817319a0f8fd40", "lon": -77.02297416666667, "fusion_lon": 0.0}, {"is_reserved": 0, "type": "electric_scooter", "fusion_lat": 0.0, "is_disabled": 0, "rental_uris": {"ios": "https://dc.lft.to/lastmile_qr_scan", "android": "https://dc.lft.to/lastmile_qr_scan"}, "bike_id": "cd141ffd295748c201a3c68a8993e93f", "lat": 38.953658, "name": "cd141ffd295748c201a3c68a8993e93f", "lon": -76.99839216666666, "fusion_lon": 0.0}, {"is_reserved": 0, "type": "electric_scooter", "fusion_lat": 0.0, "is_disabled": 0, "rental_uris": {"ios": "https://dc.lft.to/lastmile_qr_scan", "android": "https://dc.lft.to/lastmile_qr_scan"}, "bike_id": "65f7df95d516ea7101ff530ecd31d063", "lat": 38.924625666666664, "name": "65f7df95d516ea7101ff530ecd31d063", "lon": -77.03779816666666, "fusion_lon": 0.0}, {"is_reserved": 0, "type": "electric_scooter", "fusion_lat": 0.0, "is_disabled": 0, "rental_uris": {"ios": "https://dc.lft.to/lastmile_qr_scan", "android": "https://dc.lft.to/lastmile_qr_scan"}, "bike_id": "94c4d412d01ccc3b4e5f8539496c9bd0", "lat": 38.93695183333333, "name": "94c4d412d01ccc3b4e5f8539496c9bd0", "lon": -77.0559585, "fusion_lon": 0.0}, {"is_reserved": 0, "type": "electric_scooter", "fusion_lat": 0.0, "is_disabled": 0, "rental_uris": {"ios": "https://dc.lft.to/lastmile_qr_scan", "android": "https://dc.lft.to/lastmile_qr_scan"}, "bike_id": "8066623a4acf1a3ed971edd332110f20", "lat": 38.91713266666667, "name": "8066623a4acf1a3ed971edd332110f20", "lon": -77.0385395, "fusion_lon": 0.0}, {"is_reserved": 0, "type": "electric_scooter", "fusion_lat": 0.0, "is_disabled": 0, "rental_uris": {"ios": "https://dc.lft.to/lastmile_qr_scan", "android": "https://dc.lft.to/lastmile_qr_scan"}, "bike_id": "3e33137de19dd7cf30b34d8137a46b59", "lat": 38.9125725, "name": "3e33137de19dd7cf30b34d8137a46b59", "lon": -77.0102765, "fusion_lon": 0.0}, {"is_reserved": 0, "type": "electric_scooter", "fusion_lat": 0.0, "is_disabled": 0, "rental_uris": {"ios": "https://dc.lft.to/lastmile_qr_scan", "android": "https://dc.lft.to/lastmile_qr_scan"}, "bike_id": "c5f41522f13897d4b7e1bfff6fe543c0", "lat": 38.88581933333333, "name": "c5f41522f13897d4b7e1bfff6fe543c0", "lon": -77.012287, "fusion_lon": 0.0}, {"is_reserved": 0, "type": "electric_scooter", "fusion_lat": 0.0, "is_disabled": 0, "rental_uris": {"ios": "https://dc.lft.to/lastmile_qr_scan", "android": "https://dc.lft.to/lastmile_qr_scan"}, "bike_id": "52a9aa22b0936c193ce102e941651765", "lat": 38.920402833333334, "name": "52a9aa22b0936c193ce102e941651765", "lon": -77.02593416666667, "fusion_lon": 0.0}, {"is_reserved": 0, "type": "electric_scooter", "fusion_lat": 0.0, "is_disabled": 0, "rental_uris": {"ios": "https://dc.lft.to/lastmile_qr_scan", "android": "https://dc.lft.to/lastmile_qr_scan"}, "bike_id": "8a331a480416a29551c28193f39b4678", "lat": 38.893300333333336, "name": "8a331a480416a29551c28193f39b4678", "lon": -76.93928066666666, "fusion_lon": 0.0}, {"is_reserved": 0, "type": "electric_scooter", "fusion_lat": 0.0, "is_disabled": 0, "rental_uris": {"ios": "https://dc.lft.to/lastmile_qr_scan", "android": "https://dc.lft.to/lastmile_qr_scan"}, "bike_id": "36f918c768e784acafaf4ac3602f3fb7", "lat": 38.952572, "name": "36f918c768e784acafaf4ac3602f3fb7", "lon": -77.02077466666667, "fusion_lon": 0.0}, {"is_reserved": 0, "type": "electric_scooter", "fusion_lat": 0.0, "is_disabled": 0, "rental_uris": {"ios": "https://dc.lft.to/lastmile_qr_scan", "android": "https://dc.lft.to/lastmile_qr_scan"}, "bike_id": "e8751c4c7076a629b5da015c47e74fcb", "lat": 38.9208715, "name": "e8751c4c7076a629b5da015c47e74fcb", "lon": -77.02445766666666, "fusion_lon": 0.0}, {"is_reserved": 0, "type": "electric_scooter", "fusion_lat": 0.0, "is_disabled": 0, "rental_uris": {"ios": "https://dc.lft.to/lastmile_qr_scan", "android": "https://dc.lft.to/lastmile_qr_scan"}, "bike_id": "822b81f94f457f594639556caf9aefde", "lat": 38.90574433333333, "name": "822b81f94f457f594639556caf9aefde", "lon": -77.0240965, "fusion_lon": 0.0}, {"is_reserved": 0, "type": "electric_scooter", "fusion_lat": 0.0, "is_disabled": 0, "rental_uris": {"ios": "https://dc.lft.to/lastmile_qr_scan", "android": "https://dc.lft.to/lastmile_qr_scan"}, "bike_id": "187cd4b897944a3bab18926196baaa15", "lat": 38.90234183333333, "name": "187cd4b897944a3bab18926196baaa15", "lon": -76.995102, "fusion_lon": 0.0}, {"is_reserved": 0, "type": "electric_bike", "fusion_lat": 0.0, "is_disabled": 0, "rental_uris": {"ios": "https://dc.lft.to/lastmile_qr_scan", "android": "https://dc.lft.to/lastmile_qr_scan"}, "bike_id": "c3e86265adc00bc3065e9335cde5b654", "lat": 38.89831383333333, "name": "c3e86265adc00bc3065e9335cde5b654", "lon": -76.942744, "fusion_lon": 0.0}, {"is_reserved": 0, "type": "electric_scooter", "fusion_lat": 0.0, "is_disabled": 0, "rental_uris": {"ios": "https://dc.lft.to/lastmile_qr_scan", "android": "https://dc.lft.to/lastmile_qr_scan"}, "bike_id": "d13f703895fafd6fe107af75b7e70807", "lat": 38.90537466666667, "name": "d13f703895fafd6fe107af75b7e70807", "lon": -77.05697183333334, "fusion_lon": 0.0}, {"is_reserved": 0, "type": "electric_bike", "fusion_lat": 0.0, "is_disabled": 0, "rental_uris": {"ios": "https://dc.lft.to/lastmile_qr_scan", "android": "https://dc.lft.to/lastmile_qr_scan"}, "bike_id": "4389f5a4b736308da5ff724175ce7cb2", "lat": 38.88119016666667, "name": "4389f5a4b736308da5ff724175ce7cb2", "lon": -77.01681216666667, "fusion_lon": 0.0}, {"is_reserved": 0, "type": "electric_scooter", "fusion_lat": 0.0, "is_disabled": 0, "rental_uris": {"ios": "https://dc.lft.to/lastmile_qr_scan", "android": "https://dc.lft.to/lastmile_qr_scan"}, "bike_id": "c53d0501f1a80c2fb4da4f5440cf1b29", "lat": 38.911150166666665, "name": "c53d0501f1a80c2fb4da4f5440cf1b29", "lon": -77.0435275, "fusion_lon": 0.0}, {"is_reserved": 0, "type": "electric_scooter", "fusion_lat": 0.0, "is_disabled": 0, "rental_uris": {"ios": "https://dc.lft.to/lastmile_qr_scan", "android": "https://dc.lft.to/lastmile_qr_scan"}, "bike_id": "d937dc8727cec49e2992dc1138f907ee", "lat": 38.904279333333335, "name": "d937dc8727cec49e2992dc1138f907ee", "lon": -77.03259583333333, "fusion_lon": 0.0}, {"is_reserved": 0, "type": "electric_scooter", "fusion_lat": 0.0, "is_disabled": 0, "rental_uris": {"ios": "https://dc.lft.to/lastmile_qr_scan", "android": "https://dc.lft.to/lastmile_qr_scan"}, "bike_id": "eda5538afe2cdbe7646576c7f959cc79", "lat": 38.938749, "name": "eda5538afe2cdbe7646576c7f959cc79", "lon": -77.029267, "fusion_lon": 0.0}, {"is_reserved": 0, "type": "electric_scooter", "fusion_lat": 0.0, "is_disabled": 0, "rental_uris": {"ios": "https://dc.lft.to/lastmile_qr_scan", "android": "https://dc.lft.to/lastmile_qr_scan"}, "bike_id": "104ef858539325f8a6e0fc15e635621d", "lat": 38.876963333333336, "name": "104ef858539325f8a6e0fc15e635621d", "lon": -76.9962175, "fusion_lon": 0.0}, {"is_reserved": 0, "type": "electric_scooter", "fusion_lat": 0.0, "is_disabled": 0, "rental_uris": {"ios": "https://dc.lft.to/lastmile_qr_scan", "android": "https://dc.lft.to/lastmile_qr_scan"}, "bike_id": "5666d9823fc851f110eeacbf08dbd982", "lat": 38.898179999999996, "name": "5666d9823fc851f110eeacbf08dbd982", "lon": -77.03330616666666, "fusion_lon": 0.0}, {"is_reserved": 0, "type": "electric_scooter", "fusion_lat": 0.0, "is_disabled": 0, "rental_uris": {"ios": "https://dc.lft.to/lastmile_qr_scan", "android": "https://dc.lft.to/lastmile_qr_scan"}, "bike_id": "be5a8bcfce3c20f1a327229146691d38", "lat": 38.9221575, "name": "be5a8bcfce3c20f1a327229146691d38", "lon": -77.03896366666666, "fusion_lon": 0.0}, {"is_reserved": 0, "type": "electric_bike", "fusion_lat": 0.0, "is_disabled": 0, "rental_uris": {"ios": "https://dc.lft.to/lastmile_qr_scan", "android": "https://dc.lft.to/lastmile_qr_scan"}, "bike_id": "daf2ed5466db7b6b4088b17a32110f0f", "lat": 38.844725, "name": "daf2ed5466db7b6b4088b17a32110f0f", "lon": -76.996045, "fusion_lon": 0.0}, {"is_reserved": 0, "type": "electric_scooter", "fusion_lat": 0.0, "is_disabled": 0, "rental_uris": {"ios": "https://dc.lft.to/lastmile_qr_scan", "android": "https://dc.lft.to/lastmile_qr_scan"}, "bike_id": "eaa41e17a219cff4edd2249a1357b9d4", "lat": 38.92374783333333, "name": "eaa41e17a219cff4edd2249a1357b9d4", "lon": -77.02922816666667, "fusion_lon": 0.0}, {"is_reserved": 0, "type": "electric_scooter", "fusion_lat": 0.0, "is_disabled": 0, "rental_uris": {"ios": "https://dc.lft.to/lastmile_qr_scan", "android": "https://dc.lft.to/lastmile_qr_scan"}, "bike_id": "5a0bf50dbe114bf657cc2def1625bdf7", "lat": 38.90571833333333, "name": "5a0bf50dbe114bf657cc2def1625bdf7", "lon": -77.02760416666666, "fusion_lon": 0.0}, {"is_reserved": 0, "type": "electric_scooter", "fusion_lat": 0.0, "is_disabled": 0, "rental_uris": {"ios": "https://dc.lft.to/lastmile_qr_scan", "android": "https://dc.lft.to/lastmile_qr_scan"}, "bike_id": "83b4c25f0262f5660cb54d7eefd2c428", "lat": 38.8966515, "name": "83b4c25f0262f5660cb54d7eefd2c428", "lon": -76.94911133333333, "fusion_lon": 0.0}, {"is_reserved": 0, "type": "electric_scooter", "fusion_lat": 0.0, "is_disabled": 0, "rental_uris": {"ios": "https://dc.lft.to/lastmile_qr_scan", "android": "https://dc.lft.to/lastmile_qr_scan"}, "bike_id": "bb0c2d026908b90f4efa7290797b311e", "lat": 38.917972, "name": "bb0c2d026908b90f4efa7290797b311e", "lon": -77.04023966666666, "fusion_lon": 0.0}, {"is_reserved": 0, "type": "electric_scooter", "fusion_lat": 0.0, "is_disabled": 0, "rental_uris": {"ios": "https://dc.lft.to/lastmile_qr_scan", "android": "https://dc.lft.to/lastmile_qr_scan"}, "bike_id": "9462d99d85f7bf51c873e74754572aee", "lat": 38.910896, "name": "9462d99d85f7bf51c873e74754572aee", "lon": -77.02178366666666, "fusion_lon": 0.0}, {"is_reserved": 0, "type": "electric_scooter", "fusion_lat": 0.0, "is_disabled": 0, "rental_uris": {"ios": "https://dc.lft.to/lastmile_qr_scan", "android": "https://dc.lft.to/lastmile_qr_scan"}, "bike_id": "4807fd09e04983bf9f77295639238afd", "lat": 38.9055175, "name": "4807fd09e04983bf9f77295639238afd", "lon": -77.04745516666667, "fusion_lon": 0.0}, {"is_reserved": 0, "type": "electric_scooter", "fusion_lat": 0.0, "is_disabled": 0, "rental_uris": {"ios": "https://dc.lft.to/lastmile_qr_scan", "android": "https://dc.lft.to/lastmile_qr_scan"}, "bike_id": "e0184e6a08388f969befbd5ca1c64968", "lat": 38.8728905, "name": "e0184e6a08388f969befbd5ca1c64968", "lon": -77.00988833333334, "fusion_lon": 0.0}, {"is_reserved": 0, "type": "electric_scooter", "fusion_lat": 0.0, "is_disabled": 0, "rental_uris": {"ios": "https://dc.lft.to/lastmile_qr_scan", "android": "https://dc.lft.to/lastmile_qr_scan"}, "bike_id": "b1842ae4a2c76f93f704ccf50cfde639", "lat": 38.8829845, "name": "b1842ae4a2c76f93f704ccf50cfde639", "lon": -77.01762616666667, "fusion_lon": 0.0}, {"is_reserved": 0, "type": "electric_scooter", "fusion_lat": 0.0, "is_disabled": 0, "rental_uris": {"ios": "https://dc.lft.to/lastmile_qr_scan", "android": "https://dc.lft.to/lastmile_qr_scan"}, "bike_id": "57f5561e0486541ac41370148c9a0f28", "lat": 38.89853683333333, "name": "57f5561e0486541ac41370148c9a0f28", "lon": -76.99615216666666, "fusion_lon": 0.0}, {"is_reserved": 0, "type": "electric_scooter", "fusion_lat": 0.0, "is_disabled": 0, "rental_uris": {"ios": "https://dc.lft.to/lastmile_qr_scan", "android": "https://dc.lft.to/lastmile_qr_scan"}, "bike_id": "427da27e55e6588cbde0b3c14fd4c38b", "lat": 38.90958766666667, "name": "427da27e55e6588cbde0b3c14fd4c38b", "lon": -77.0227895, "fusion_lon": 0.0}, {"is_reserved": 0, "type": "electric_scooter", "fusion_lat": 0.0, "is_disabled": 0, "rental_uris": {"ios": "https://dc.lft.to/lastmile_qr_scan", "android": "https://dc.lft.to/lastmile_qr_scan"}, "bike_id": "dec518a857e1133fc64374eac2135afa", "lat": 38.93007033333333, "name": "dec518a857e1133fc64374eac2135afa", "lon": -77.03252683333334, "fusion_lon": 0.0}, {"is_reserved": 0, "type": "electric_scooter", "fusion_lat": 0.0, "is_disabled": 0, "rental_uris": {"ios": "https://dc.lft.to/lastmile_qr_scan", "android": "https://dc.lft.to/lastmile_qr_scan"}, "bike_id": "554a20e530c8a7a86c37236458e1c401", "lat": 38.88655716666667, "name": "554a20e530c8a7a86c37236458e1c401", "lon": -77.03390116666667, "fusion_lon": 0.0}, {"is_reserved": 0, "type": "electric_scooter", "fusion_lat": 0.0, "is_disabled": 0, "rental_uris": {"ios": "https://dc.lft.to/lastmile_qr_scan", "android": "https://dc.lft.to/lastmile_qr_scan"}, "bike_id": "b40ab88d6aff9f2d660266b1081f5642", "lat": 38.93597166666667, "name": "b40ab88d6aff9f2d660266b1081f5642", "lon": -77.0243045, "fusion_lon": 0.0}, {"is_reserved": 0, "type": "electric_scooter", "fusion_lat": 0.0, "is_disabled": 0, "rental_uris": {"ios": "https://dc.lft.to/lastmile_qr_scan", "android": "https://dc.lft.to/lastmile_qr_scan"}, "bike_id": "72ba50f19993b6b6bf436987cd3e7c60", "lat": 38.882282833333335, "name": "72ba50f19993b6b6bf436987cd3e7c60", "lon": -76.93330316666666, "fusion_lon": 0.0}, {"is_reserved": 0, "type": "electric_scooter", "fusion_lat": 0.0, "is_disabled": 0, "rental_uris": {"ios": "https://dc.lft.to/lastmile_qr_scan", "android": "https://dc.lft.to/lastmile_qr_scan"}, "bike_id": "3655be910bd3d2f11d8722d2224ea6cd", "lat": 38.90194916666667, "name": "3655be910bd3d2f11d8722d2224ea6cd", "lon": -76.99483066666667, "fusion_lon": 0.0}, {"is_reserved": 0, "type": "electric_scooter", "fusion_lat": 0.0, "is_disabled": 0, "rental_uris": {"ios": "https://dc.lft.to/lastmile_qr_scan", "android": "https://dc.lft.to/lastmile_qr_scan"}, "bike_id": "a42f98d05c630b0f71d79a1fee3a03b1", "lat": 38.899389, "name": "a42f98d05c630b0f71d79a1fee3a03b1", "lon": -77.03206583333333, "fusion_lon": 0.0}, {"is_reserved": 0, "type": "electric_scooter", "fusion_lat": 0.0, "is_disabled": 0, "rental_uris": {"ios": "https://dc.lft.to/lastmile_qr_scan", "android": "https://dc.lft.to/lastmile_qr_scan"}, "bike_id": "a7bb52ae42e25fe65606135bf10c0535", "lat": 38.8936865, "name": "a7bb52ae42e25fe65606135bf10c0535", "lon": -77.02085066666666, "fusion_lon": 0.0}, {"is_reserved": 0, "type": "electric_scooter", "fusion_lat": 0.0, "is_disabled": 0, "rental_uris": {"ios": "https://dc.lft.to/lastmile_qr_scan", "android": "https://dc.lft.to/lastmile_qr_scan"}, "bike_id": "4cd5ebce70b66bf37403ee465b0c0bd8", "lat": 38.9291135, "name": "4cd5ebce70b66bf37403ee465b0c0bd8", "lon": -77.02093633333334, "fusion_lon": 0.0}, {"is_reserved": 0, "type": "electric_scooter", "fusion_lat": 0.0, "is_disabled": 0, "rental_uris": {"ios": "https://dc.lft.to/lastmile_qr_scan", "android": "https://dc.lft.to/lastmile_qr_scan"}, "bike_id": "03a644157aebcf88d1e154386434a29e", "lat": 38.8756915, "name": "03a644157aebcf88d1e154386434a29e", "lon": -77.00586633333333, "fusion_lon": 0.0}, {"is_reserved": 0, "type": "electric_scooter", "fusion_lat": 0.0, "is_disabled": 0, "rental_uris": {"ios": "https://dc.lft.to/lastmile_qr_scan", "android": "https://dc.lft.to/lastmile_qr_scan"}, "bike_id": "35d7c362269dd5e2fa1576dc93df0906", "lat": 38.895301833333335, "name": "35d7c362269dd5e2fa1576dc93df0906", "lon": -76.94894433333333, "fusion_lon": 0.0}, {"is_reserved": 0, "type": "electric_scooter", "fusion_lat": 0.0, "is_disabled": 0, "rental_uris": {"ios": "https://dc.lft.to/lastmile_qr_scan", "android": "https://dc.lft.to/lastmile_qr_scan"}, "bike_id": "2624621cebf939008a17534eec82ccb5", "lat": 38.93953883333333, "name": "2624621cebf939008a17534eec82ccb5", "lon": -77.07240066666667, "fusion_lon": 0.0}, {"is_reserved": 0, "type": "electric_scooter", "fusion_lat": 0.0, "is_disabled": 0, "rental_uris": {"ios": "https://dc.lft.to/lastmile_qr_scan", "android": "https://dc.lft.to/lastmile_qr_scan"}, "bike_id": "69cd24ec6fbee444ab8593196498f27d", "lat": 38.910534166666665, "name": "69cd24ec6fbee444ab8593196498f27d", "lon": -77.04168783333333, "fusion_lon": 0.0}, {"is_reserved": 0, "type": "electric_scooter", "fusion_lat": 0.0, "is_disabled": 0, "rental_uris": {"ios": "https://dc.lft.to/lastmile_qr_scan", "android": "https://dc.lft.to/lastmile_qr_scan"}, "bike_id": "e2abbc1ef1ea948cab6dd504c6d8711e", "lat": 38.92532816666667, "name": "e2abbc1ef1ea948cab6dd504c6d8711e", "lon": -77.035341, "fusion_lon": 0.0}, {"is_reserved": 0, "type": "electric_scooter", "fusion_lat": 0.0, "is_disabled": 0, "rental_uris": {"ios": "https://dc.lft.to/lastmile_qr_scan", "android": "https://dc.lft.to/lastmile_qr_scan"}, "bike_id": "6a3ebf830d919cbc6c2036af408e7a0d", "lat": 38.917971666666666, "name": "6a3ebf830d919cbc6c2036af408e7a0d", "lon": -77.03437266666667, "fusion_lon": 0.0}, {"is_reserved": 0, "type": "electric_scooter", "fusion_lat": 0.0, "is_disabled": 0, "rental_uris": {"ios": "https://dc.lft.to/lastmile_qr_scan", "android": "https://dc.lft.to/lastmile_qr_scan"}, "bike_id": "9cb8bb8086b00de66e17c0bc3c31fb80", "lat": 38.91482966666667, "name": "9cb8bb8086b00de66e17c0bc3c31fb80", "lon": -77.04945916666667, "fusion_lon": 0.0}, {"is_reserved": 0, "type": "electric_scooter", "fusion_lat": 0.0, "is_disabled": 0, "rental_uris": {"ios": "https://dc.lft.to/lastmile_qr_scan", "android": "https://dc.lft.to/lastmile_qr_scan"}, "bike_id": "998d434f806fa3e59751072df14fdd6b", "lat": 38.919323166666665, "name": "998d434f806fa3e59751072df14fdd6b", "lon": -77.04487583333334, "fusion_lon": 0.0}, {"is_reserved": 0, "type": "electric_scooter", "fusion_lat": 0.0, "is_disabled": 0, "rental_uris": {"ios": "https://dc.lft.to/lastmile_qr_scan", "android": "https://dc.lft.to/lastmile_qr_scan"}, "bike_id": "f06fec505a0fec5e9e3e2a8353ff72dd", "lat": 38.89171866666667, "name": "f06fec505a0fec5e9e3e2a8353ff72dd", "lon": -77.01552133333334, "fusion_lon": 0.0}, {"is_reserved": 0, "type": "electric_scooter", "fusion_lat": 0.0, "is_disabled": 0, "rental_uris": {"ios": "https://dc.lft.to/lastmile_qr_scan", "android": "https://dc.lft.to/lastmile_qr_scan"}, "bike_id": "9357bc20d75c762a8202db8eb2629afa", "lat": 38.894194, "name": "9357bc20d75c762a8202db8eb2629afa", "lon": -77.021304, "fusion_lon": 0.0}, {"is_reserved": 0, "type": "electric_scooter", "fusion_lat": 0.0, "is_disabled": 0, "rental_uris": {"ios": "https://dc.lft.to/lastmile_qr_scan", "android": "https://dc.lft.to/lastmile_qr_scan"}, "bike_id": "7719e32a66530e1597c734242982477c", "lat": 38.93094883333333, "name": "7719e32a66530e1597c734242982477c", "lon": -77.03613533333333, "fusion_lon": 0.0}, {"is_reserved": 0, "type": "electric_scooter", "fusion_lat": 0.0, "is_disabled": 0, "rental_uris": {"ios": "https://dc.lft.to/lastmile_qr_scan", "android": "https://dc.lft.to/lastmile_qr_scan"}, "bike_id": "48d4e9aa1074961fd520f6ff20513ae4", "lat": 38.93375733333333, "name": "48d4e9aa1074961fd520f6ff20513ae4", "lon": -77.05762, "fusion_lon": 0.0}, {"is_reserved": 0, "type": "electric_scooter", "fusion_lat": 0.0, "is_disabled": 0, "rental_uris": {"ios": "https://dc.lft.to/lastmile_qr_scan", "android": "https://dc.lft.to/lastmile_qr_scan"}, "bike_id": "af3275706c01d21b68258b91bd2d80e7", "lat": 38.89737616666667, "name": "af3275706c01d21b68258b91bd2d80e7", "lon": -77.02048233333333, "fusion_lon": 0.0}, {"is_reserved": 0, "type": "electric_scooter", "fusion_lat": 0.0, "is_disabled": 0, "rental_uris": {"ios": "https://dc.lft.to/lastmile_qr_scan", "android": "https://dc.lft.to/lastmile_qr_scan"}, "bike_id": "0327e7af7823b3555177bbd7b3d0e9e5", "lat": 38.938635166666664, "name": "0327e7af7823b3555177bbd7b3d0e9e5", "lon": -77.078175, "fusion_lon": 0.0}, {"is_reserved": 0, "type": "electric_scooter", "fusion_lat": 0.0, "is_disabled": 0, "rental_uris": {"ios": "https://dc.lft.to/lastmile_qr_scan", "android": "https://dc.lft.to/lastmile_qr_scan"}, "bike_id": "442d40ea26e530b05c9a535de61ebf42", "lat": 38.9007115, "name": "442d40ea26e530b05c9a535de61ebf42", "lon": -77.0434305, "fusion_lon": 0.0}, {"is_reserved": 0, "type": "electric_scooter", "fusion_lat": 0.0, "is_disabled": 0, "rental_uris": {"ios": "https://dc.lft.to/lastmile_qr_scan", "android": "https://dc.lft.to/lastmile_qr_scan"}, "bike_id": "4b17690532272b2a0f7675f16948f5f1", "lat": 38.926899666666664, "name": "4b17690532272b2a0f7675f16948f5f1", "lon": -77.02295033333333, "fusion_lon": 0.0}, {"is_reserved": 0, "type": "electric_scooter", "fusion_lat": 0.0, "is_disabled": 0, "rental_uris": {"ios": "https://dc.lft.to/lastmile_qr_scan", "android": "https://dc.lft.to/lastmile_qr_scan"}, "bike_id": "fbe0aee9bdace03f4e0cf7edc311ad65", "lat": 38.9178245, "name": "fbe0aee9bdace03f4e0cf7edc311ad65", "lon": -77.02398333333333, "fusion_lon": 0.0}, {"is_reserved": 0, "type": "electric_scooter", "fusion_lat": 0.0, "is_disabled": 0, "rental_uris": {"ios": "https://dc.lft.to/lastmile_qr_scan", "android": "https://dc.lft.to/lastmile_qr_scan"}, "bike_id": "7579ddfc9499c9ca1b2821b6ede5063d", "lat": 38.903627166666666, "name": "7579ddfc9499c9ca1b2821b6ede5063d", "lon": -77.03987616666667, "fusion_lon": 0.0}, {"is_reserved": 0, "type": "electric_scooter", "fusion_lat": 0.0, "is_disabled": 0, "rental_uris": {"ios": "https://dc.lft.to/lastmile_qr_scan", "android": "https://dc.lft.to/lastmile_qr_scan"}, "bike_id": "a636b540c9d9e1fa75479fcab4c2797e", "lat": 38.920498, "name": "a636b540c9d9e1fa75479fcab4c2797e", "lon": -77.03391033333334, "fusion_lon": 0.0}, {"is_reserved": 0, "type": "electric_scooter", "fusion_lat": 0.0, "is_disabled": 0, "rental_uris": {"ios": "https://dc.lft.to/lastmile_qr_scan", "android": "https://dc.lft.to/lastmile_qr_scan"}, "bike_id": "1380cb2688d3f4f4b3bebd0fb1b40dd7", "lat": 38.9222845, "name": "1380cb2688d3f4f4b3bebd0fb1b40dd7", "lon": -76.97531616666667, "fusion_lon": 0.0}, {"is_reserved": 0, "type": "electric_scooter", "fusion_lat": 0.0, "is_disabled": 0, "rental_uris": {"ios": "https://dc.lft.to/lastmile_qr_scan", "android": "https://dc.lft.to/lastmile_qr_scan"}, "bike_id": "4040ec71843e1854bd8378eca7f9888f", "lat": 38.895765, "name": "4040ec71843e1854bd8378eca7f9888f", "lon": -77.02763966666667, "fusion_lon": 0.0}, {"is_reserved": 0, "type": "electric_scooter", "fusion_lat": 0.0, "is_disabled": 0, "rental_uris": {"ios": "https://dc.lft.to/lastmile_qr_scan", "android": "https://dc.lft.to/lastmile_qr_scan"}, "bike_id": "b48cdaac6bea426617ce1589c0508bb0", "lat": 38.9649715, "name": "b48cdaac6bea426617ce1589c0508bb0", "lon": -77.06285266666667, "fusion_lon": 0.0}, {"is_reserved": 0, "type": "electric_scooter", "fusion_lat": 0.0, "is_disabled": 0, "rental_uris": {"ios": "https://dc.lft.to/lastmile_qr_scan", "android": "https://dc.lft.to/lastmile_qr_scan"}, "bike_id": "02ab40d8837f3ad0407ae58d251fadec", "lat": 38.92357916666667, "name": "02ab40d8837f3ad0407ae58d251fadec", "lon": -76.9885415, "fusion_lon": 0.0}, {"is_reserved": 0, "type": "electric_scooter", "fusion_lat": 0.0, "is_disabled": 0, "rental_uris": {"ios": "https://dc.lft.to/lastmile_qr_scan", "android": "https://dc.lft.to/lastmile_qr_scan"}, "bike_id": "35ee1fccd78425b84cc7d8f88355db5e", "lat": 38.91264866666667, "name": "35ee1fccd78425b84cc7d8f88355db5e", "lon": -77.0168525, "fusion_lon": 0.0}, {"is_reserved": 0, "type": "electric_scooter", "fusion_lat": 0.0, "is_disabled": 0, "rental_uris": {"ios": "https://dc.lft.to/lastmile_qr_scan", "android": "https://dc.lft.to/lastmile_qr_scan"}, "bike_id": "32bdf1b1b1e7614128bfe71836d0f00c", "lat": 38.883981166666665, "name": "32bdf1b1b1e7614128bfe71836d0f00c", "lon": -77.03031966666667, "fusion_lon": 0.0}, {"is_reserved": 0, "type": "electric_scooter", "fusion_lat": 0.0, "is_disabled": 0, "rental_uris": {"ios": "https://dc.lft.to/lastmile_qr_scan", "android": "https://dc.lft.to/lastmile_qr_scan"}, "bike_id": "576d3aa44353ddad6332278fe1dcfc06", "lat": 38.88519016666667, "name": "576d3aa44353ddad6332278fe1dcfc06", "lon": -76.99609533333333, "fusion_lon": 0.0}, {"is_reserved": 0, "type": "electric_bike", "fusion_lat": 0.0, "is_disabled": 0, "rental_uris": {"ios": "https://dc.lft.to/lastmile_qr_scan", "android": "https://dc.lft.to/lastmile_qr_scan"}, "bike_id": "561c763c2947b45a18cf7294df783496", "lat": 38.9116495, "name": "561c763c2947b45a18cf7294df783496", "lon": -77.00274216666666, "fusion_lon": 0.0}, {"is_reserved": 0, "type": "electric_scooter", "fusion_lat": 0.0, "is_disabled": 0, "rental_uris": {"ios": "https://dc.lft.to/lastmile_qr_scan", "android": "https://dc.lft.to/lastmile_qr_scan"}, "bike_id": "fcfcc5100e06b211f08191a755d16551", "lat": 38.91932116666667, "name": "fcfcc5100e06b211f08191a755d16551", "lon": -77.0461495, "fusion_lon": 0.0}, {"is_reserved": 0, "type": "electric_bike", "fusion_lat": 0.0, "is_disabled": 0, "rental_uris": {"ios": "https://dc.lft.to/lastmile_qr_scan", "android": "https://dc.lft.to/lastmile_qr_scan"}, "bike_id": "cc98e5fe0b1ab8b523af783675829e35", "lat": 38.877415, "name": "cc98e5fe0b1ab8b523af783675829e35", "lon": -77.1487275, "fusion_lon": 0.0}, {"is_reserved": 0, "type": "electric_scooter", "fusion_lat": 0.0, "is_disabled": 0, "rental_uris": {"ios": "https://dc.lft.to/lastmile_qr_scan", "android": "https://dc.lft.to/lastmile_qr_scan"}, "bike_id": "8ee4f9678029775db7495b8e0c5e55f9", "lat": 38.8810435, "name": "8ee4f9678029775db7495b8e0c5e55f9", "lon": -77.012394, "fusion_lon": 0.0}, {"is_reserved": 0, "type": "electric_scooter", "fusion_lat": 0.0, "is_disabled": 0, "rental_uris": {"ios": "https://dc.lft.to/lastmile_qr_scan", "android": "https://dc.lft.to/lastmile_qr_scan"}, "bike_id": "55ad6ef7f45a5d4b19910188b2f74e47", "lat": 38.89819166666667, "name": "55ad6ef7f45a5d4b19910188b2f74e47", "lon": -77.03359283333333, "fusion_lon": 0.0}, {"is_reserved": 0, "type": "electric_bike", "fusion_lat": 0.0, "is_disabled": 0, "rental_uris": {"ios": "https://dc.lft.to/lastmile_qr_scan", "android": "https://dc.lft.to/lastmile_qr_scan"}, "bike_id": "9e185b6ff5eb2f3bcb146ba4762a0679", "lat": 38.866196333333335, "name": "9e185b6ff5eb2f3bcb146ba4762a0679", "lon": -76.98165316666666, "fusion_lon": 0.0}, {"is_reserved": 0, "type": "electric_scooter", "fusion_lat": 0.0, "is_disabled": 0, "rental_uris": {"ios": "https://dc.lft.to/lastmile_qr_scan", "android": "https://dc.lft.to/lastmile_qr_scan"}, "bike_id": "131e04f60dd4d5940cfdbf7b0a3ba2b0", "lat": 38.8782935, "name": "131e04f60dd4d5940cfdbf7b0a3ba2b0", "lon": -77.00858366666667, "fusion_lon": 0.0}, {"is_reserved": 0, "type": "electric_scooter", "fusion_lat": 0.0, "is_disabled": 0, "rental_uris": {"ios": "https://dc.lft.to/lastmile_qr_scan", "android": "https://dc.lft.to/lastmile_qr_scan"}, "bike_id": "59c0ed8b5760a6648039c6f267752443", "lat": 38.907788, "name": "59c0ed8b5760a6648039c6f267752443", "lon": -77.04542816666667, "fusion_lon": 0.0}, {"is_reserved": 0, "type": "electric_bike", "fusion_lat": 0.0, "is_disabled": 0, "rental_uris": {"ios": "https://dc.lft.to/lastmile_qr_scan", "android": "https://dc.lft.to/lastmile_qr_scan"}, "bike_id": "c98b5daf314d6ad28293869ad94f4635", "lat": 39.005338333333334, "name": "c98b5daf314d6ad28293869ad94f4635", "lon": -77.10403983333333, "fusion_lon": 0.0}, {"is_reserved": 0, "type": "electric_scooter", "fusion_lat": 0.0, "is_disabled": 0, "rental_uris": {"ios": "https://dc.lft.to/lastmile_qr_scan", "android": "https://dc.lft.to/lastmile_qr_scan"}, "bike_id": "9c44901df8ec43065f25b1296b91e442", "lat": 38.92968966666667, "name": "9c44901df8ec43065f25b1296b91e442", "lon": -77.02345533333333, "fusion_lon": 0.0}, {"is_reserved": 0, "type": "electric_scooter", "fusion_lat": 0.0, "is_disabled": 0, "rental_uris": {"ios": "https://dc.lft.to/lastmile_qr_scan", "android": "https://dc.lft.to/lastmile_qr_scan"}, "bike_id": "8a28e99ad7ab097cbd732a4600209ba8", "lat": 38.892507333333334, "name": "8a28e99ad7ab097cbd732a4600209ba8", "lon": -77.02622833333334, "fusion_lon": 0.0}, {"is_reserved": 0, "type": "electric_scooter", "fusion_lat": 0.0, "is_disabled": 0, "rental_uris": {"ios": "https://dc.lft.to/lastmile_qr_scan", "android": "https://dc.lft.to/lastmile_qr_scan"}, "bike_id": "0b8be21d38bf190a470db8e4f4f9c906", "lat": 38.91776766666667, "name": "0b8be21d38bf190a470db8e4f4f9c906", "lon": -77.02405483333334, "fusion_lon": 0.0}, {"is_reserved": 0, "type": "electric_scooter", "fusion_lat": 0.0, "is_disabled": 0, "rental_uris": {"ios": "https://dc.lft.to/lastmile_qr_scan", "android": "https://dc.lft.to/lastmile_qr_scan"}, "bike_id": "3a54e62106193db3c69f4a079977207b", "lat": 38.89994733333333, "name": "3a54e62106193db3c69f4a079977207b", "lon": -77.02700833333333, "fusion_lon": 0.0}, {"is_reserved": 0, "type": "electric_bike", "fusion_lat": 0.0, "is_disabled": 0, "rental_uris": {"ios": "https://dc.lft.to/lastmile_qr_scan", "android": "https://dc.lft.to/lastmile_qr_scan"}, "bike_id": "343209bdb376254fcb56cf1b0b0a1f31", "lat": 38.94257066666667, "name": "343209bdb376254fcb56cf1b0b0a1f31", "lon": -76.990761, "fusion_lon": 0.0}, {"is_reserved": 0, "type": "electric_scooter", "fusion_lat": 0.0, "is_disabled": 0, "rental_uris": {"ios": "https://dc.lft.to/lastmile_qr_scan", "android": "https://dc.lft.to/lastmile_qr_scan"}, "bike_id": "a7002ae076bd4626bdbf66fc8efd4792", "lat": 38.92354783333333, "name": "a7002ae076bd4626bdbf66fc8efd4792", "lon": -76.98843916666667, "fusion_lon": 0.0}, {"is_reserved": 0, "type": "electric_bike", "fusion_lat": 0.0, "is_disabled": 0, "rental_uris": {"ios": "https://dc.lft.to/lastmile_qr_scan", "android": "https://dc.lft.to/lastmile_qr_scan"}, "bike_id": "a5520d24b71fca2587914d770c506957", "lat": 38.95410716666667, "name": "a5520d24b71fca2587914d770c506957", "lon": -76.98124433333334, "fusion_lon": 0.0}, {"is_reserved": 0, "type": "electric_scooter", "fusion_lat": 0.0, "is_disabled": 0, "rental_uris": {"ios": "https://dc.lft.to/lastmile_qr_scan", "android": "https://dc.lft.to/lastmile_qr_scan"}, "bike_id": "dd4554f87ddb43c66e917ce25704e8e6", "lat": 38.91120166666666, "name": "dd4554f87ddb43c66e917ce25704e8e6", "lon": -77.0363975, "fusion_lon": 0.0}, {"is_reserved": 0, "type": "electric_scooter", "fusion_lat": 0.0, "is_disabled": 0, "rental_uris": {"ios": "https://dc.lft.to/lastmile_qr_scan", "android": "https://dc.lft.to/lastmile_qr_scan"}, "bike_id": "4cb9e0f5b85aa001a1a6a643244c5c8e", "lat": 38.881431166666665, "name": "4cb9e0f5b85aa001a1a6a643244c5c8e", "lon": -77.01296266666667, "fusion_lon": 0.0}, {"is_reserved": 0, "type": "electric_scooter", "fusion_lat": 0.0, "is_disabled": 0, "rental_uris": {"ios": "https://dc.lft.to/lastmile_qr_scan", "android": "https://dc.lft.to/lastmile_qr_scan"}, "bike_id": "45b7e535a1e954386244a295ad2262ba", "lat": 38.896309, "name": "45b7e535a1e954386244a295ad2262ba", "lon": -77.0286, "fusion_lon": 0.0}, {"is_reserved": 0, "type": "electric_scooter", "fusion_lat": 0.0, "is_disabled": 0, "rental_uris": {"ios": "https://dc.lft.to/lastmile_qr_scan", "android": "https://dc.lft.to/lastmile_qr_scan"}, "bike_id": "885f1348b1dfc73e2508b9bd8f6d22b7", "lat": 38.920055833333336, "name": "885f1348b1dfc73e2508b9bd8f6d22b7", "lon": -77.04173283333333, "fusion_lon": 0.0}, {"is_reserved": 0, "type": "electric_scooter", "fusion_lat": 0.0, "is_disabled": 0, "rental_uris": {"ios": "https://dc.lft.to/lastmile_qr_scan", "android": "https://dc.lft.to/lastmile_qr_scan"}, "bike_id": "286633a4824c1bb8cd4e4e34fe6dbff0", "lat": 38.916580333333336, "name": "286633a4824c1bb8cd4e4e34fe6dbff0", "lon": -77.01028216666667, "fusion_lon": 0.0}, {"is_reserved": 0, "type": "electric_scooter", "fusion_lat": 0.0, "is_disabled": 0, "rental_uris": {"ios": "https://dc.lft.to/lastmile_qr_scan", "android": "https://dc.lft.to/lastmile_qr_scan"}, "bike_id": "89e9b468a667312d128d97bd9fc74b96", "lat": 38.89818916666667, "name": "89e9b468a667312d128d97bd9fc74b96", "lon": -76.93005183333334, "fusion_lon": 0.0}, {"is_reserved": 0, "type": "electric_bike", "fusion_lat": 0.0, "is_disabled": 0, "rental_uris": {"ios": "https://dc.lft.to/lastmile_qr_scan", "android": "https://dc.lft.to/lastmile_qr_scan"}, "bike_id": "03e3b873c35db44b801203b7f8caa5aa", "lat": 38.80978616666667, "name": "03e3b873c35db44b801203b7f8caa5aa", "lon": -77.07660333333334, "fusion_lon": 0.0}, {"is_reserved": 0, "type": "electric_scooter", "fusion_lat": 0.0, "is_disabled": 0, "rental_uris": {"ios": "https://dc.lft.to/lastmile_qr_scan", "android": "https://dc.lft.to/lastmile_qr_scan"}, "bike_id": "3e339a98b29e5e4af33e63bc925d39a6", "lat": 38.88853483333333, "name": "3e339a98b29e5e4af33e63bc925d39a6", "lon": -76.97733883333333, "fusion_lon": 0.0}, {"is_reserved": 0, "type": "electric_scooter", "fusion_lat": 0.0, "is_disabled": 0, "rental_uris": {"ios": "https://dc.lft.to/lastmile_qr_scan", "android": "https://dc.lft.to/lastmile_qr_scan"}, "bike_id": "d5268dd6a2810fa3b7f43d44cbf1831b", "lat": 38.8976565, "name": "d5268dd6a2810fa3b7f43d44cbf1831b", "lon": -77.047896, "fusion_lon": 0.0}, {"is_reserved": 0, "type": "electric_scooter", "fusion_lat": 0.0, "is_disabled": 0, "rental_uris": {"ios": "https://dc.lft.to/lastmile_qr_scan", "android": "https://dc.lft.to/lastmile_qr_scan"}, "bike_id": "9078037032f0ef637c7db95a39a94fd2", "lat": 38.922074, "name": "9078037032f0ef637c7db95a39a94fd2", "lon": -77.04244466666667, "fusion_lon": 0.0}, {"is_reserved": 0, "type": "electric_scooter", "fusion_lat": 0.0, "is_disabled": 0, "rental_uris": {"ios": "https://dc.lft.to/lastmile_qr_scan", "android": "https://dc.lft.to/lastmile_qr_scan"}, "bike_id": "0f804d25156c689048711ecb031804c2", "lat": 38.900012, "name": "0f804d25156c689048711ecb031804c2", "lon": -77.02669033333333, "fusion_lon": 0.0}, {"is_reserved": 0, "type": "electric_scooter", "fusion_lat": 0.0, "is_disabled": 0, "rental_uris": {"ios": "https://dc.lft.to/lastmile_qr_scan", "android": "https://dc.lft.to/lastmile_qr_scan"}, "bike_id": "66763209a09e3155e905f536a228f1dc", "lat": 38.924090166666666, "name": "66763209a09e3155e905f536a228f1dc", "lon": -77.02043183333333, "fusion_lon": 0.0}, {"is_reserved": 0, "type": "electric_scooter", "fusion_lat": 0.0, "is_disabled": 0, "rental_uris": {"ios": "https://dc.lft.to/lastmile_qr_scan", "android": "https://dc.lft.to/lastmile_qr_scan"}, "bike_id": "b8e5748bfd604f723bb19c2bd3b77b67", "lat": 38.90065283333333, "name": "b8e5748bfd604f723bb19c2bd3b77b67", "lon": -77.04532316666666, "fusion_lon": 0.0}, {"is_reserved": 0, "type": "electric_scooter", "fusion_lat": 0.0, "is_disabled": 0, "rental_uris": {"ios": "https://dc.lft.to/lastmile_qr_scan", "android": "https://dc.lft.to/lastmile_qr_scan"}, "bike_id": "758806e5bb6ad057843f099f1c602004", "lat": 38.936643333333336, "name": "758806e5bb6ad057843f099f1c602004", "lon": -77.03639616666666, "fusion_lon": 0.0}, {"is_reserved": 0, "type": "electric_bike", "fusion_lat": 0.0, "is_disabled": 0, "rental_uris": {"ios": "https://dc.lft.to/lastmile_qr_scan", "android": "https://dc.lft.to/lastmile_qr_scan"}, "bike_id": "da1c5486bfeda87d778aba27de30268b", "lat": 38.94677566666667, "name": "da1c5486bfeda87d778aba27de30268b", "lon": -76.95673933333333, "fusion_lon": 0.0}, {"is_reserved": 0, "type": "electric_scooter", "fusion_lat": 0.0, "is_disabled": 0, "rental_uris": {"ios": "https://dc.lft.to/lastmile_qr_scan", "android": "https://dc.lft.to/lastmile_qr_scan"}, "bike_id": "66eb06b9a59cbbb42510ca4c55fe88a3", "lat": 38.920468666666665, "name": "66eb06b9a59cbbb42510ca4c55fe88a3", "lon": -77.01668583333333, "fusion_lon": 0.0}, {"is_reserved": 0, "type": "electric_scooter", "fusion_lat": 0.0, "is_disabled": 0, "rental_uris": {"ios": "https://dc.lft.to/lastmile_qr_scan", "android": "https://dc.lft.to/lastmile_qr_scan"}, "bike_id": "e03c16cae9cf31eabd75fa2f66b4f99f", "lat": 38.95634866666666, "name": "e03c16cae9cf31eabd75fa2f66b4f99f", "lon": -77.02212633333333, "fusion_lon": 0.0}, {"is_reserved": 0, "type": "electric_bike", "fusion_lat": 0.0, "is_disabled": 0, "rental_uris": {"ios": "https://dc.lft.to/lastmile_qr_scan", "android": "https://dc.lft.to/lastmile_qr_scan"}, "bike_id": "5b771733d50707d7ac026e5daf15759b", "lat": 38.832686333333335, "name": "5b771733d50707d7ac026e5daf15759b", "lon": -77.08368933333334, "fusion_lon": 0.0}, {"is_reserved": 0, "type": "electric_scooter", "fusion_lat": 0.0, "is_disabled": 0, "rental_uris": {"ios": "https://dc.lft.to/lastmile_qr_scan", "android": "https://dc.lft.to/lastmile_qr_scan"}, "bike_id": "8b0e7cbeec7f878ba883b4bf0f9e9cca", "lat": 38.898985, "name": "8b0e7cbeec7f878ba883b4bf0f9e9cca", "lon": -77.05001333333334, "fusion_lon": 0.0}, {"is_reserved": 0, "type": "electric_scooter", "fusion_lat": 0.0, "is_disabled": 0, "rental_uris": {"ios": "https://dc.lft.to/lastmile_qr_scan", "android": "https://dc.lft.to/lastmile_qr_scan"}, "bike_id": "4152bc98c51fef1bbb9c9d9f0098ec3f", "lat": 38.92262066666667, "name": "4152bc98c51fef1bbb9c9d9f0098ec3f", "lon": -77.03664133333334, "fusion_lon": 0.0}, {"is_reserved": 0, "type": "electric_scooter", "fusion_lat": 0.0, "is_disabled": 0, "rental_uris": {"ios": "https://dc.lft.to/lastmile_qr_scan", "android": "https://dc.lft.to/lastmile_qr_scan"}, "bike_id": "c3e6f49256e09f73c4b21bb3f4338218", "lat": 38.920264, "name": "c3e6f49256e09f73c4b21bb3f4338218", "lon": -77.01706983333334, "fusion_lon": 0.0}, {"is_reserved": 0, "type": "electric_scooter", "fusion_lat": 0.0, "is_disabled": 0, "rental_uris": {"ios": "https://dc.lft.to/lastmile_qr_scan", "android": "https://dc.lft.to/lastmile_qr_scan"}, "bike_id": "89256883b9a4d7c5fabffb3e1094112a", "lat": 38.9386395, "name": "89256883b9a4d7c5fabffb3e1094112a", "lon": -77.0723735, "fusion_lon": 0.0}, {"is_reserved": 0, "type": "electric_scooter", "fusion_lat": 0.0, "is_disabled": 0, "rental_uris": {"ios": "https://dc.lft.to/lastmile_qr_scan", "android": "https://dc.lft.to/lastmile_qr_scan"}, "bike_id": "e1c25e1ab8a6da0a8da0e93d12bba11f", "lat": 38.9020835, "name": "e1c25e1ab8a6da0a8da0e93d12bba11f", "lon": -77.06121616666667, "fusion_lon": 0.0}, {"is_reserved": 0, "type": "electric_scooter", "fusion_lat": 0.0, "is_disabled": 0, "rental_uris": {"ios": "https://dc.lft.to/lastmile_qr_scan", "android": "https://dc.lft.to/lastmile_qr_scan"}, "bike_id": "aa2f3f98ba7524ba617acc0e0a9639e3", "lat": 38.917050833333334, "name": "aa2f3f98ba7524ba617acc0e0a9639e3", "lon": -77.04175866666667, "fusion_lon": 0.0}, {"is_reserved": 0, "type": "electric_scooter", "fusion_lat": 0.0, "is_disabled": 0, "rental_uris": {"ios": "https://dc.lft.to/lastmile_qr_scan", "android": "https://dc.lft.to/lastmile_qr_scan"}, "bike_id": "ad872b4be135a8308834f93bc556f9d0", "lat": 38.93931516666667, "name": "ad872b4be135a8308834f93bc556f9d0", "lon": -77.07247866666667, "fusion_lon": 0.0}, {"is_reserved": 0, "type": "electric_scooter", "fusion_lat": 0.0, "is_disabled": 0, "rental_uris": {"ios": "https://dc.lft.to/lastmile_qr_scan", "android": "https://dc.lft.to/lastmile_qr_scan"}, "bike_id": "cb41130140bc310443ed74a09c4feb4f", "lat": 38.92271816666667, "name": "cb41130140bc310443ed74a09c4feb4f", "lon": -77.04238133333334, "fusion_lon": 0.0}, {"is_reserved": 0, "type": "electric_scooter", "fusion_lat": 0.0, "is_disabled": 0, "rental_uris": {"ios": "https://dc.lft.to/lastmile_qr_scan", "android": "https://dc.lft.to/lastmile_qr_scan"}, "bike_id": "c05cb217d534e197dc64f958232d1fbc", "lat": 38.89726816666666, "name": "c05cb217d534e197dc64f958232d1fbc", "lon": -77.0499105, "fusion_lon": 0.0}, {"is_reserved": 0, "type": "electric_scooter", "fusion_lat": 0.0, "is_disabled": 0, "rental_uris": {"ios": "https://dc.lft.to/lastmile_qr_scan", "android": "https://dc.lft.to/lastmile_qr_scan"}, "bike_id": "2798ef840791cc65c742c15bad416f55", "lat": 38.9170285, "name": "2798ef840791cc65c742c15bad416f55", "lon": -77.024829, "fusion_lon": 0.0}, {"is_reserved": 0, "type": "electric_scooter", "fusion_lat": 0.0, "is_disabled": 0, "rental_uris": {"ios": "https://dc.lft.to/lastmile_qr_scan", "android": "https://dc.lft.to/lastmile_qr_scan"}, "bike_id": "eb317b6786733b6b8c34b81dd9d79769", "lat": 38.91253733333333, "name": "eb317b6786733b6b8c34b81dd9d79769", "lon": -76.98347066666666, "fusion_lon": 0.0}, {"is_reserved": 0, "type": "electric_scooter", "fusion_lat": 0.0, "is_disabled": 0, "rental_uris": {"ios": "https://dc.lft.to/lastmile_qr_scan", "android": "https://dc.lft.to/lastmile_qr_scan"}, "bike_id": "fb5276c1f9c77977e0cbaf4462e36e0e", "lat": 38.876156333333334, "name": "fb5276c1f9c77977e0cbaf4462e36e0e", "lon": -77.00599866666667, "fusion_lon": 0.0}, {"is_reserved": 0, "type": "electric_scooter", "fusion_lat": 0.0, "is_disabled": 0, "rental_uris": {"ios": "https://dc.lft.to/lastmile_qr_scan", "android": "https://dc.lft.to/lastmile_qr_scan"}, "bike_id": "e2a09e2a6f341773463d769e36b0dc0c", "lat": 38.91661283333333, "name": "e2a09e2a6f341773463d769e36b0dc0c", "lon": -77.0385375, "fusion_lon": 0.0}, {"is_reserved": 0, "type": "electric_scooter", "fusion_lat": 0.0, "is_disabled": 0, "rental_uris": {"ios": "https://dc.lft.to/lastmile_qr_scan", "android": "https://dc.lft.to/lastmile_qr_scan"}, "bike_id": "36ec88a1fcddb7e7032b9455b8683343", "lat": 38.92088783333333, "name": "36ec88a1fcddb7e7032b9455b8683343", "lon": -77.04126166666667, "fusion_lon": 0.0}, {"is_reserved": 0, "type": "electric_scooter", "fusion_lat": 0.0, "is_disabled": 0, "rental_uris": {"ios": "https://dc.lft.to/lastmile_qr_scan", "android": "https://dc.lft.to/lastmile_qr_scan"}, "bike_id": "db5fffe2a9dd5a1bcbb4d2a19b04ac3f", "lat": 38.923284, "name": "db5fffe2a9dd5a1bcbb4d2a19b04ac3f", "lon": -77.04305583333333, "fusion_lon": 0.0}, {"is_reserved": 0, "type": "electric_bike", "fusion_lat": 0.0, "is_disabled": 0, "rental_uris": {"ios": "https://dc.lft.to/lastmile_qr_scan", "android": "https://dc.lft.to/lastmile_qr_scan"}, "bike_id": "d23afa3f75d8e88ccd0a18f88d11cc09", "lat": 38.8466965, "name": "d23afa3f75d8e88ccd0a18f88d11cc09", "lon": -77.13935216666667, "fusion_lon": 0.0}, {"is_reserved": 0, "type": "electric_scooter", "fusion_lat": 0.0, "is_disabled": 0, "rental_uris": {"ios": "https://dc.lft.to/lastmile_qr_scan", "android": "https://dc.lft.to/lastmile_qr_scan"}, "bike_id": "b1a624f0fd90700e0f6d54dd9578f26c", "lat": 38.911085666666665, "name": "b1a624f0fd90700e0f6d54dd9578f26c", "lon": -77.0383215, "fusion_lon": 0.0}, {"is_reserved": 0, "type": "electric_scooter", "fusion_lat": 0.0, "is_disabled": 0, "rental_uris": {"ios": "https://dc.lft.to/lastmile_qr_scan", "android": "https://dc.lft.to/lastmile_qr_scan"}, "bike_id": "048c9c57a0ad37d1da1a0bc9a18e8f33", "lat": 38.9053545, "name": "048c9c57a0ad37d1da1a0bc9a18e8f33", "lon": -77.05703683333333, "fusion_lon": 0.0}, {"is_reserved": 0, "type": "electric_scooter", "fusion_lat": 0.0, "is_disabled": 0, "rental_uris": {"ios": "https://dc.lft.to/lastmile_qr_scan", "android": "https://dc.lft.to/lastmile_qr_scan"}, "bike_id": "659029179bc5842836deff204d9a5cf9", "lat": 38.943125333333334, "name": "659029179bc5842836deff204d9a5cf9", "lon": -77.01726983333333, "fusion_lon": 0.0}, {"is_reserved": 0, "type": "electric_scooter", "fusion_lat": 0.0, "is_disabled": 0, "rental_uris": {"ios": "https://dc.lft.to/lastmile_qr_scan", "android": "https://dc.lft.to/lastmile_qr_scan"}, "bike_id": "d318c4d9d262f5ccd302225034f2f801", "lat": 38.91924066666667, "name": "d318c4d9d262f5ccd302225034f2f801", "lon": -77.00976483333334, "fusion_lon": 0.0}, {"is_reserved": 0, "type": "electric_scooter", "fusion_lat": 0.0, "is_disabled": 0, "rental_uris": {"ios": "https://dc.lft.to/lastmile_qr_scan", "android": "https://dc.lft.to/lastmile_qr_scan"}, "bike_id": "42e7ccf8c9b233d3c6a00f66be6706a0", "lat": 38.933517, "name": "42e7ccf8c9b233d3c6a00f66be6706a0", "lon": -77.03266283333333, "fusion_lon": 0.0}, {"is_reserved": 0, "type": "electric_scooter", "fusion_lat": 0.0, "is_disabled": 0, "rental_uris": {"ios": "https://dc.lft.to/lastmile_qr_scan", "android": "https://dc.lft.to/lastmile_qr_scan"}, "bike_id": "daca6864d22dba1cf9a5621a555f3ed8", "lat": 38.89737066666667, "name": "daca6864d22dba1cf9a5621a555f3ed8", "lon": -77.01049066666667, "fusion_lon": 0.0}, {"is_reserved": 0, "type": "electric_scooter", "fusion_lat": 0.0, "is_disabled": 0, "rental_uris": {"ios": "https://dc.lft.to/lastmile_qr_scan", "android": "https://dc.lft.to/lastmile_qr_scan"}, "bike_id": "9809799628cb56d39b499c7b3465f271", "lat": 38.907338333333335, "name": "9809799628cb56d39b499c7b3465f271", "lon": -77.00360566666667, "fusion_lon": 0.0}, {"is_reserved": 0, "type": "electric_scooter", "fusion_lat": 0.0, "is_disabled": 0, "rental_uris": {"ios": "https://dc.lft.to/lastmile_qr_scan", "android": "https://dc.lft.to/lastmile_qr_scan"}, "bike_id": "18b0a710e704307330ab90035b2eb9fa", "lat": 38.92355583333333, "name": "18b0a710e704307330ab90035b2eb9fa", "lon": -76.988476, "fusion_lon": 0.0}, {"is_reserved": 0, "type": "electric_scooter", "fusion_lat": 0.0, "is_disabled": 0, "rental_uris": {"ios": "https://dc.lft.to/lastmile_qr_scan", "android": "https://dc.lft.to/lastmile_qr_scan"}, "bike_id": "ae2cf38c746d50cb82087f3010050a5c", "lat": 38.909745, "name": "ae2cf38c746d50cb82087f3010050a5c", "lon": -77.0240315, "fusion_lon": 0.0}, {"is_reserved": 0, "type": "electric_scooter", "fusion_lat": 0.0, "is_disabled": 0, "rental_uris": {"ios": "https://dc.lft.to/lastmile_qr_scan", "android": "https://dc.lft.to/lastmile_qr_scan"}, "bike_id": "70824bb165165b039db152a6c4be75af", "lat": 38.900694333333334, "name": "70824bb165165b039db152a6c4be75af", "lon": -77.01780433333333, "fusion_lon": 0.0}, {"is_reserved": 0, "type": "electric_scooter", "fusion_lat": 0.0, "is_disabled": 0, "rental_uris": {"ios": "https://dc.lft.to/lastmile_qr_scan", "android": "https://dc.lft.to/lastmile_qr_scan"}, "bike_id": "f40157976beb51af078ce00b51c53e95", "lat": 38.9142425, "name": "f40157976beb51af078ce00b51c53e95", "lon": -77.044895, "fusion_lon": 0.0}, {"is_reserved": 0, "type": "electric_scooter", "fusion_lat": 0.0, "is_disabled": 0, "rental_uris": {"ios": "https://dc.lft.to/lastmile_qr_scan", "android": "https://dc.lft.to/lastmile_qr_scan"}, "bike_id": "8b02c30450be5494257fada88671d795", "lat": 38.909803, "name": "8b02c30450be5494257fada88671d795", "lon": -77.028772, "fusion_lon": 0.0}, {"is_reserved": 0, "type": "electric_scooter", "fusion_lat": 0.0, "is_disabled": 0, "rental_uris": {"ios": "https://dc.lft.to/lastmile_qr_scan", "android": "https://dc.lft.to/lastmile_qr_scan"}, "bike_id": "920f6bb5da60aae5373bcfba18e3ead9", "lat": 38.9206725, "name": "920f6bb5da60aae5373bcfba18e3ead9", "lon": -77.02385216666667, "fusion_lon": 0.0}, {"is_reserved": 0, "type": "electric_scooter", "fusion_lat": 0.0, "is_disabled": 0, "rental_uris": {"ios": "https://dc.lft.to/lastmile_qr_scan", "android": "https://dc.lft.to/lastmile_qr_scan"}, "bike_id": "5da7d9961314e4b91020b1ad1404ee9a", "lat": 38.90860766666667, "name": "5da7d9961314e4b91020b1ad1404ee9a", "lon": -76.999642, "fusion_lon": 0.0}, {"is_reserved": 0, "type": "electric_scooter", "fusion_lat": 0.0, "is_disabled": 0, "rental_uris": {"ios": "https://dc.lft.to/lastmile_qr_scan", "android": "https://dc.lft.to/lastmile_qr_scan"}, "bike_id": "8305268b9ef8c46d3ca7b512c92a4c68", "lat": 38.922326, "name": "8305268b9ef8c46d3ca7b512c92a4c68", "lon": -77.03519233333333, "fusion_lon": 0.0}, {"is_reserved": 0, "type": "electric_scooter", "fusion_lat": 0.0, "is_disabled": 0, "rental_uris": {"ios": "https://dc.lft.to/lastmile_qr_scan", "android": "https://dc.lft.to/lastmile_qr_scan"}, "bike_id": "613d26aacdb19898e99ffc0d1d62a868", "lat": 38.93602583333333, "name": "613d26aacdb19898e99ffc0d1d62a868", "lon": -77.05589016666667, "fusion_lon": 0.0}, {"is_reserved": 0, "type": "electric_scooter", "fusion_lat": 0.0, "is_disabled": 0, "rental_uris": {"ios": "https://dc.lft.to/lastmile_qr_scan", "android": "https://dc.lft.to/lastmile_qr_scan"}, "bike_id": "38f1f65a16c7443650df5c8078e4ae74", "lat": 38.89218116666667, "name": "38f1f65a16c7443650df5c8078e4ae74", "lon": -77.02219533333333, "fusion_lon": 0.0}, {"is_reserved": 0, "type": "electric_scooter", "fusion_lat": 0.0, "is_disabled": 0, "rental_uris": {"ios": "https://dc.lft.to/lastmile_qr_scan", "android": "https://dc.lft.to/lastmile_qr_scan"}, "bike_id": "47d86d1f41fafc7e3ac9d229c5414883", "lat": 38.930917666666666, "name": "47d86d1f41fafc7e3ac9d229c5414883", "lon": -77.03435566666667, "fusion_lon": 0.0}, {"is_reserved": 0, "type": "electric_scooter", "fusion_lat": 0.0, "is_disabled": 0, "rental_uris": {"ios": "https://dc.lft.to/lastmile_qr_scan", "android": "https://dc.lft.to/lastmile_qr_scan"}, "bike_id": "92e2ef7b12d8bcf80689272cdebc03bd", "lat": 38.9162665, "name": "92e2ef7b12d8bcf80689272cdebc03bd", "lon": -77.03179316666667, "fusion_lon": 0.0}, {"is_reserved": 0, "type": "electric_scooter", "fusion_lat": 0.0, "is_disabled": 0, "rental_uris": {"ios": "https://dc.lft.to/lastmile_qr_scan", "android": "https://dc.lft.to/lastmile_qr_scan"}, "bike_id": "c40e15f063341ec67481a64ae5424cd7", "lat": 38.93683516666667, "name": "c40e15f063341ec67481a64ae5424cd7", "lon": -77.05629233333333, "fusion_lon": 0.0}, {"is_reserved": 0, "type": "electric_scooter", "fusion_lat": 0.0, "is_disabled": 0, "rental_uris": {"ios": "https://dc.lft.to/lastmile_qr_scan", "android": "https://dc.lft.to/lastmile_qr_scan"}, "bike_id": "6237182e41df34c27ad7d82a28d269b1", "lat": 38.9162295, "name": "6237182e41df34c27ad7d82a28d269b1", "lon": -77.03185233333333, "fusion_lon": 0.0}, {"is_reserved": 0, "type": "electric_scooter", "fusion_lat": 0.0, "is_disabled": 0, "rental_uris": {"ios": "https://dc.lft.to/lastmile_qr_scan", "android": "https://dc.lft.to/lastmile_qr_scan"}, "bike_id": "b64743730f83a49195e0235d5639c711", "lat": 38.9235895, "name": "b64743730f83a49195e0235d5639c711", "lon": -76.9884545, "fusion_lon": 0.0}, {"is_reserved": 0, "type": "electric_bike", "fusion_lat": 0.0, "is_disabled": 0, "rental_uris": {"ios": "https://dc.lft.to/lastmile_qr_scan", "android": "https://dc.lft.to/lastmile_qr_scan"}, "bike_id": "8410d63a3c10279ec6cfd8cb987ce1eb", "lat": 38.89576483333333, "name": "8410d63a3c10279ec6cfd8cb987ce1eb", "lon": -77.02173183333333, "fusion_lon": 0.0}, {"is_reserved": 0, "type": "electric_bike", "fusion_lat": 0.0, "is_disabled": 0, "rental_uris": {"ios": "https://dc.lft.to/lastmile_qr_scan", "android": "https://dc.lft.to/lastmile_qr_scan"}, "bike_id": "b7daf24ff0834b8e264af0f63c52b0c9", "lat": 38.91036066666667, "name": "b7daf24ff0834b8e264af0f63c52b0c9", "lon": -77.05917433333333, "fusion_lon": 0.0}, {"is_reserved": 0, "type": "electric_scooter", "fusion_lat": 0.0, "is_disabled": 0, "rental_uris": {"ios": "https://dc.lft.to/lastmile_qr_scan", "android": "https://dc.lft.to/lastmile_qr_scan"}, "bike_id": "1aa31ddc7f25206bfed3318d7cf59f0c", "lat": 38.916031833333335, "name": "1aa31ddc7f25206bfed3318d7cf59f0c", "lon": -77.03217333333333, "fusion_lon": 0.0}, {"is_reserved": 0, "type": "electric_scooter", "fusion_lat": 0.0, "is_disabled": 0, "rental_uris": {"ios": "https://dc.lft.to/lastmile_qr_scan", "android": "https://dc.lft.to/lastmile_qr_scan"}, "bike_id": "fec7234ee6661db224769d76deb834fb", "lat": 38.914171, "name": "fec7234ee6661db224769d76deb834fb", "lon": -77.03331116666666, "fusion_lon": 0.0}, {"is_reserved": 0, "type": "electric_scooter", "fusion_lat": 0.0, "is_disabled": 0, "rental_uris": {"ios": "https://dc.lft.to/lastmile_qr_scan", "android": "https://dc.lft.to/lastmile_qr_scan"}, "bike_id": "eb84609b7c52245b32af12ab520bb2f8", "lat": 38.92357283333333, "name": "eb84609b7c52245b32af12ab520bb2f8", "lon": -77.07310916666667, "fusion_lon": 0.0}, {"is_reserved": 0, "type": "electric_scooter", "fusion_lat": 0.0, "is_disabled": 0, "rental_uris": {"ios": "https://dc.lft.to/lastmile_qr_scan", "android": "https://dc.lft.to/lastmile_qr_scan"}, "bike_id": "cf26803aaf90a8fe138d78a140c6696e", "lat": 38.9025305, "name": "cf26803aaf90a8fe138d78a140c6696e", "lon": -77.0201675, "fusion_lon": 0.0}, {"is_reserved": 0, "type": "electric_bike", "fusion_lat": 0.0, "is_disabled": 0, "rental_uris": {"ios": "https://dc.lft.to/lastmile_qr_scan", "android": "https://dc.lft.to/lastmile_qr_scan"}, "bike_id": "9a881ce231d3817b9d6b5333555ade98", "lat": 38.98283516666667, "name": "9a881ce231d3817b9d6b5333555ade98", "lon": -76.97638133333334, "fusion_lon": 0.0}, {"is_reserved": 0, "type": "electric_scooter", "fusion_lat": 0.0, "is_disabled": 0, "rental_uris": {"ios": "https://dc.lft.to/lastmile_qr_scan", "android": "https://dc.lft.to/lastmile_qr_scan"}, "bike_id": "50063dead61e9356a9f710727037fe19", "lat": 38.91799966666667, "name": "50063dead61e9356a9f710727037fe19", "lon": -77.033433, "fusion_lon": 0.0}, {"is_reserved": 0, "type": "electric_scooter", "fusion_lat": 0.0, "is_disabled": 0, "rental_uris": {"ios": "https://dc.lft.to/lastmile_qr_scan", "android": "https://dc.lft.to/lastmile_qr_scan"}, "bike_id": "62d02061c9f7bd98a0d1dec3a53e47e8", "lat": 38.88744233333333, "name": "62d02061c9f7bd98a0d1dec3a53e47e8", "lon": -77.02628616666667, "fusion_lon": 0.0}, {"is_reserved": 0, "type": "electric_scooter", "fusion_lat": 0.0, "is_disabled": 0, "rental_uris": {"ios": "https://dc.lft.to/lastmile_qr_scan", "android": "https://dc.lft.to/lastmile_qr_scan"}, "bike_id": "996f5e107c7d473fc0fea36fec56ac03", "lat": 38.918185666666666, "name": "996f5e107c7d473fc0fea36fec56ac03", "lon": -77.01214466666667, "fusion_lon": 0.0},