{"data": {"bikes": [{"rental_uris": {"ios": "https://dc.lft.to/lastmile_qr_scan", "android": "https://dc.lft.to/lastmile_qr_scan"}, "lon": -77.02913016666666, "type": "electric_scooter", "fusion_lat": 0.0, "lat": 38.898499, "name": "834447dd4d64af87e06a685c2482e9ed", "fusion_lon": 0.0, "bike_id": "834447dd4d64af87e06a685c2482e9ed", "is_disabled": 0, "is_reserved": 0}, {"rental_uris": {"ios": "https://dc.lft.to/lastmile_qr_scan", "android": "https://dc.lft.to/lastmile_qr_scan"}, "lon": -77.04803166666666, "type": "electric_scooter", "fusion_lat": 0.0, "lat": 38.892235, "name": "cd970b5a5d4df211a4a41aee50b857c3", "fusion_lon": 0.0, "bike_id": "cd970b5a5d4df211a4a41aee50b857c3", "is_disabled": 0, "is_reserved": 0}, {"rental_uris": {"ios": "https://dc.lft.to/lastmile_qr_scan", "android": "https://dc.lft.to/lastmile_qr_scan"}, "lon": -77.11218016666666, "type": "electric_bike", "fusion_lat": 0.0, "lat": 38.828753, "name": "bcb20317ec784d30d03cabc729ede0ae", "fusion_lon": 0.0, "bike_id": "bcb20317ec784d30d03cabc729ede0ae", "is_disabled": 0, "is_reserved": 0}, {"rental_uris": {"ios": "https://dc.lft.to/lastmile_qr_scan", "android": "https://dc.lft.to/lastmile_qr_scan"}, "lon": -77.02715833333333, "type": "electric_scooter", "fusion_lat": 0.0, "lat": 38.91819316666667, "name": "27604735ca53f740753d232b9425cdfc", "fusion_lon": 0.0, "bike_id": "27604735ca53f740753d232b9425cdfc", "is_disabled": 0, "is_reserved": 0}, {"rental_uris": {"ios": "https://dc.lft.to/lastmile_qr_scan", "android": "https://dc.lft.to/lastmile_qr_scan"}, "lon": -77.036843, "type": "electric_scooter", "fusion_lat": 0.0, "lat": 38.936512, "name": "bb83bb8521a02d37a3e0414adaca1d5e", "fusion_lon": 0.0, "bike_id": "bb83bb8521a02d37a3e0414adaca1d5e", "is_disabled": 0, "is_reserved": 0}, {"rental_uris": {"ios": "https://dc.lft.to/lastmile_qr_scan", "android": "https://dc.lft.to/lastmile_qr_scan"}, "lon": -77.04740783333334, "type": "electric_scooter", "fusion_lat": 0.0, "lat": 38.90248233333333, "name": "3efff61f14cf6ec933f6fe9190e29950", "fusion_lon": 0.0, "bike_id": "3efff61f14cf6ec933f6fe9190e29950", "is_disabled": 0, "is_reserved": 0}, {"rental_uris": {"ios": "https://dc.lft.to/lastmile_qr_scan", "android": "https://dc.lft.to/lastmile_qr_scan"}, "lon": -77.112041, "type": "electric_bike", "fusion_lat": 0.0, "lat": 38.81304216666667, "name": "b14efa6671b11aef5474deffe9ccbce5", "fusion_lon": 0.0, "bike_id": "b14efa6671b11aef5474deffe9ccbce5", "is_disabled": 0, "is_reserved": 0}, {"rental_uris": {"ios": "https://dc.lft.to/lastmile_qr_scan", "android": "https://dc.lft.to/lastmile_qr_scan"}, "lon": -76.93535466666667, "type": "electric_bike", "fusion_lat": 0.0, "lat": 38.955431833333336, "name": "07526ef1dcedd5375cbf15bc591f64bd", "fusion_lon": 0.0, "bike_id": "07526ef1dcedd5375cbf15bc591f64bd", "is_disabled": 0, "is_reserved": 0}, {"rental_uris": {"ios": "https://dc.lft.to/lastmile_qr_scan", "android": "https://dc.lft.to/lastmile_qr_scan"}, "lon": -77.12260266666667, "type": "electric_bike", "fusion_lat": 0.0, "lat": 38.891902, "name": "fc25cdece8e42e3d2bd83aaaed270d6e", "fusion_lon": 0.0, "bike_id": "fc25cdece8e42e3d2bd83aaaed270d6e", "is_disabled": 0, "is_reserved": 0}, {"rental_uris": {"ios": "https://dc.lft.to/lastmile_qr_scan", "android": "https://dc.lft.to/lastmile_qr_scan"}, "lon": -76.95756933333334, "type": "electric_scooter", "fusion_lat": 0.0, "lat": 38.8842725, "name": "0cb7d215bc2cadae5cc557fd3622f6b2", "fusion_lon": 0.0, "bike_id": "0cb7d215bc2cadae5cc557fd3622f6b2", "is_disabled": 0, "is_reserved": 0}, {"rental_uris": {"ios": "https://dc.lft.to/lastmile_qr_scan", "android": "https://dc.lft.to/lastmile_qr_scan"}, "lon": -77.02397733333333, "type": "electric_scooter", "fusion_lat": 0.0, "lat": 38.915992333333335, "name": "756a38f9317a59f8d4b846994501de6f", "fusion_lon": 0.0, "bike_id": "756a38f9317a59f8d4b846994501de6f", "is_disabled": 0, "is_reserved": 0}, {"rental_uris": {"ios": "https://dc.lft.to/lastmile_qr_scan", "android": "https://dc.lft.to/lastmile_qr_scan"}, "lon": -76.99507883333334, "type": "electric_scooter", "fusion_lat": 0.0, "lat": 38.88494766666667, "name": "8c2d95bd00f240fc1dab6f3933af6e00", "fusion_lon": 0.0, "bike_id": "8c2d95bd00f240fc1dab6f3933af6e00", "is_disabled": 0, "is_reserved": 0}, {"rental_uris": {"ios": "https://dc.lft.to/lastmile_qr_scan", "android": "https://dc.lft.to/lastmile_qr_scan"}, "lon": -77.0500485, "type": "electric_scooter", "fusion_lat": 0.0, "lat": 38.89900433333333, "name": "afb149fe39a60c833d078d3f713ee805", "fusion_lon": 0.0, "bike_id": "afb149fe39a60c833d078d3f713ee805", "is_disabled": 0, "is_reserved": 0}, {"rental_uris": {"ios": "https://dc.lft.to/lastmile_qr_scan", "android": "https://dc.lft.to/lastmile_qr_scan"}, "lon": -77.03261083333334, "type": "electric_scooter", "fusion_lat": 0.0, "lat": 38.9293405, "name": "897782a98dd11e40c4daeeab52b4167f", "fusion_lon": 0.0, "bike_id": "897782a98dd11e40c4daeeab52b4167f", "is_disabled": 0, "is_reserved": 0}, {"rental_uris": {"ios": "https://dc.lft.to/lastmile_qr_scan", "android": "https://dc.lft.to/lastmile_qr_scan"}, "lon": -77.076837, "type": "electric_bike", "fusion_lat": 0.0, "lat": 38.83192016666667, "name": "7276a3e981bd825bab47f796d2c59ba6", "fusion_lon": 0.0, "bike_id": "7276a3e981bd825bab47f796d2c59ba6", "is_disabled": 0, "is_reserved": 0}, {"rental_uris": {"ios": "https://dc.lft.to/lastmile_qr_scan", "android": "https://dc.lft.to/lastmile_qr_scan"}, "lon": -77.03257516666666, "type": "electric_scooter", "fusion_lat": 0.0, "lat": 38.928441166666666, "name": "2793940423e144d45706d7c3fe86206c", "fusion_lon": 0.0, "bike_id": "2793940423e144d45706d7c3fe86206c", "is_disabled": 0, "is_reserved": 0}, {"rental_uris": {"ios": "https://dc.lft.to/lastmile_qr_scan", "android": "https://dc.lft.to/lastmile_qr_scan"}, "lon": -77.00069583333334, "type": "electric_scooter", "fusion_lat": 0.0, "lat": 38.923892, "name": "31481d16c337571b7a4fcfd55c851a67", "fusion_lon": 0.0, "bike_id": "31481d16c337571b7a4fcfd55c851a67", "is_disabled": 0, "is_reserved": 0}, {"rental_uris": {"ios": "https://dc.lft.to/lastmile_qr_scan", "android": "https://dc.lft.to/lastmile_qr_scan"}, "lon": -77.00247433333334, "type": "electric_scooter", "fusion_lat": 0.0, "lat": 38.901298833333335, "name": "9160f059304e74af93d990d38cc91d76", "fusion_lon": 0.0, "bike_id": "9160f059304e74af93d990d38cc91d76", "is_disabled": 0, "is_reserved": 0}, {"rental_uris": {"ios": "https://dc.lft.to/lastmile_qr_scan", "android": "https://dc.lft.to/lastmile_qr_scan"}, "lon": -77.0269165, "type": "electric_scooter", "fusion_lat": 0.0, "lat": 38.899990333333335, "name": "fe9a053bd83132686d38a0e821e373f5", "fusion_lon": 0.0, "bike_id": "fe9a053bd83132686d38a0e821e373f5", "is_disabled": 0, "is_reserved": 0}, {"rental_uris": {"ios": "https://dc.lft.to/lastmile_qr_scan", "android": "https://dc.lft.to/lastmile_qr_scan"}, "lon": -77.04618116666667, "type": "electric_bike", "fusion_lat": 0.0, "lat": 38.999077166666666, "name": "3ade745e37d715afc45036fa17b36f62", "fusion_lon": 0.0, "bike_id": "3ade745e37d715afc45036fa17b36f62", "is_disabled": 0, "is_reserved": 0}, {"rental_uris": {"ios": "https://dc.lft.to/lastmile_qr_scan", "android": "https://dc.lft.to/lastmile_qr_scan"}, "lon": -77.02385516666666, "type": "electric_scooter", "fusion_lat": 0.0, "lat": 38.933715166666666, "name": "cd39c242c909f6f5cf746b2b4079e908", "fusion_lon": 0.0, "bike_id": "cd39c242c909f6f5cf746b2b4079e908", "is_disabled": 0, "is_reserved": 0}, {"rental_uris": {"ios": "https://dc.lft.to/lastmile_qr_scan", "android": "https://dc.lft.to/lastmile_qr_scan"}, "lon": -77.02398433333333, "type": "electric_scooter", "fusion_lat": 0.0, "lat": 38.907027, "name": "ed65b89c5d8065d6b69ceae4abb63f6f", "fusion_lon": 0.0, "bike_id": "ed65b89c5d8065d6b69ceae4abb63f6f", "is_disabled": 0, "is_reserved": 0}, {"rental_uris": {"ios": "https://dc.lft.to/lastmile_qr_scan", "android": "https://dc.lft.to/lastmile_qr_scan"}, "lon": -77.03042516666666, "type": "electric_scooter", "fusion_lat": 0.0, "lat": 38.917038833333336, "name": "40a5effd2fae40742cbb7f897d6d8476", "fusion_lon": 0.0, "bike_id": "40a5effd2fae40742cbb7f897d6d8476", "is_disabled": 0, "is_reserved": 0}, {"rental_uris": {"ios": "https://dc.lft.to/lastmile_qr_scan", "android": "https://dc.lft.to/lastmile_qr_scan"}, "lon": -77.04155466666667, "type": "electric_scooter", "fusion_lat": 0.0, "lat": 38.91025416666667, "name": "33517b0504564ec4aa7c06e761531b3b", "fusion_lon": 0.0, "bike_id": "33517b0504564ec4aa7c06e761531b3b", "is_disabled": 0, "is_reserved": 0}, {"rental_uris": {"ios": "https://dc.lft.to/lastmile_qr_scan", "android": "https://dc.lft.to/lastmile_qr_scan"}, "lon": -77.0338965, "type": "electric_scooter", "fusion_lat": 0.0, "lat": 38.9104635, "name": "1426b4678c777df82bf350d3810f1477", "fusion_lon": 0.0, "bike_id": "1426b4678c777df82bf350d3810f1477", "is_disabled": 0, "is_reserved": 0}, {"rental_uris": {"ios": "https://dc.lft.to/lastmile_qr_scan", "android": "https://dc.lft.to/lastmile_qr_scan"}, "lon": -76.99169966666666, "type": "electric_scooter", "fusion_lat": 0.0, "lat": 38.87922416666667, "name": "c5a4de13f9b252ef8b794a8d2e5205bc", "fusion_lon": 0.0, "bike_id": "c5a4de13f9b252ef8b794a8d2e5205bc", "is_disabled": 0, "is_reserved": 0}, {"rental_uris": {"ios": "https://dc.lft.to/lastmile_qr_scan", "android": "https://dc.lft.to/lastmile_qr_scan"}, "lon": -77.06475916666666, "type": "electric_bike", "fusion_lat": 0.0, "lat": 38.973813, "name": "fea2aba8caec2c90873a186ec54d2c1e", "fusion_lon": 0.0, "bike_id": "fea2aba8caec2c90873a186ec54d2c1e", "is_disabled": 0, "is_reserved": 0}, {"rental_uris": {"ios": "https://dc.lft.to/lastmile_qr_scan", "android": "https://dc.lft.to/lastmile_qr_scan"}, "lon": -77.02496233333333, "type": "electric_scooter", "fusion_lat": 0.0, "lat": 38.94287166666667, "name": "faafa2bc7ae61fe495e654af31712bfd", "fusion_lon": 0.0, "bike_id": "faafa2bc7ae61fe495e654af31712bfd", "is_disabled": 0, "is_reserved": 0}, {"rental_uris": {"ios": "https://dc.lft.to/lastmile_qr_scan", "android": "https://dc.lft.to/lastmile_qr_scan"}, "lon": -77.00508083333334, "type": "electric_scooter", "fusion_lat": 0.0, "lat": 38.8753075, "name": "bc21b69b43d7e60418b418f83022c101", "fusion_lon": 0.0, "bike_id": "bc21b69b43d7e60418b418f83022c101", "is_disabled": 0, "is_reserved": 0}, {"rental_uris": {"ios": "https://dc.lft.to/lastmile_qr_scan", "android": "https://dc.lft.to/lastmile_qr_scan"}, "lon": -77.0005245, "type": "electric_scooter", "fusion_lat": 0.0, "lat": 38.908632, "name": "a502c7a580cf8f07163134cdf18507a4", "fusion_lon": 0.0, "bike_id": "a502c7a580cf8f07163134cdf18507a4", "is_disabled": 0, "is_reserved": 0}, {"rental_uris": {"ios": "https://dc.lft.to/lastmile_qr_scan", "android": "https://dc.lft.to/lastmile_qr_scan"}, "lon": -77.026065, "type": "electric_scooter", "fusion_lat": 0.0, "lat": 38.88357666666667, "name": "ca90f9024cbb700aca9abecb5d4b041a", "fusion_lon": 0.0, "bike_id": "ca90f9024cbb700aca9abecb5d4b041a", "is_disabled": 0, "is_reserved": 0}, {"rental_uris": {"ios": "https://dc.lft.to/lastmile_qr_scan", "android": "https://dc.lft.to/lastmile_qr_scan"}, "lon": -77.04367383333333, "type": "electric_scooter", "fusion_lat": 0.0, "lat": 38.93334016666667, "name": "282aaf4771e11d26906d34caa9581ca0", "fusion_lon": 0.0, "bike_id": "282aaf4771e11d26906d34caa9581ca0", "is_disabled": 0, "is_reserved": 0}, {"rental_uris": {"ios": "https://dc.lft.to/lastmile_qr_scan", "android": "https://dc.lft.to/lastmile_qr_scan"}, "lon": -77.04025583333333, "type": "electric_scooter", "fusion_lat": 0.0, "lat": 38.90391433333333, "name": "d755c36c1a3c8b8c4b6b92a46bc5d778", "fusion_lon": 0.0, "bike_id": "d755c36c1a3c8b8c4b6b92a46bc5d778", "is_disabled": 0, "is_reserved": 0}, {"rental_uris": {"ios": "https://dc.lft.to/lastmile_qr_scan", "android": "https://dc.lft.to/lastmile_qr_scan"}, "lon": -77.02615933333334, "type": "electric_scooter", "fusion_lat": 0.0, "lat": 38.88568866666667, "name": "d690ee2ccae2b161208badda9dd53b74", "fusion_lon": 0.0, "bike_id": "d690ee2ccae2b161208badda9dd53b74", "is_disabled": 0, "is_reserved": 0}, {"rental_uris": {"ios": "https://dc.lft.to/lastmile_qr_scan", "android": "https://dc.lft.to/lastmile_qr_scan"}, "lon": -77.009355, "type": "electric_scooter", "fusion_lat": 0.0, "lat": 38.876261666666664, "name": "b259002574d604ee30dae64da74c911e", "fusion_lon": 0.0, "bike_id": "b259002574d604ee30dae64da74c911e", "is_disabled": 0, "is_reserved": 0}, {"rental_uris": {"ios": "https://dc.lft.to/lastmile_qr_scan", "android": "https://dc.lft.to/lastmile_qr_scan"}, "lon": -76.975952, "type": "electric_scooter", "fusion_lat": 0.0, "lat": 38.9033245, "name": "590aea77f699ed7aa04488a902d0e8e4", "fusion_lon": 0.0, "bike_id": "590aea77f699ed7aa04488a902d0e8e4", "is_disabled": 0, "is_reserved": 0}, {"rental_uris": {"ios": "https://dc.lft.to/lastmile_qr_scan", "android": "https://dc.lft.to/lastmile_qr_scan"}, "lon": -76.94621116666667, "type": "electric_bike", "fusion_lat": 0.0, "lat": 38.832355166666666, "name": "081f12a456edf5cc326038e9c97ff88e", "fusion_lon": 0.0, "bike_id": "081f12a456edf5cc326038e9c97ff88e", "is_disabled": 0, "is_reserved": 0}, {"rental_uris": {"ios": "https://dc.lft.to/lastmile_qr_scan", "android": "https://dc.lft.to/lastmile_qr_scan"}, "lon": -77.04145833333334, "type": "electric_scooter", "fusion_lat": 0.0, "lat": 38.91707433333333, "name": "f1fbb13242424390aee2160b415236b1", "fusion_lon": 0.0, "bike_id": "f1fbb13242424390aee2160b415236b1", "is_disabled": 0, "is_reserved": 0}, {"rental_uris": {"ios": "https://dc.lft.to/lastmile_qr_scan", "android": "https://dc.lft.to/lastmile_qr_scan"}, "lon": -77.023921, "type": "electric_scooter", "fusion_lat": 0.0, "lat": 38.915899333333336, "name": "d59aa9c59ee430d0f4704eeae4123059", "fusion_lon": 0.0, "bike_id": "d59aa9c59ee430d0f4704eeae4123059", "is_disabled": 0, "is_reserved": 0}, {"rental_uris": {"ios": "https://dc.lft.to/lastmile_qr_scan", "android": "https://dc.lft.to/lastmile_qr_scan"}, "lon": -76.98394283333333, "type": "electric_bike", "fusion_lat": 0.0, "lat": 38.922006, "name": "8a1aa8cf2a484c0141e15c4cbc224b63", "fusion_lon": 0.0, "bike_id": "8a1aa8cf2a484c0141e15c4cbc224b63", "is_disabled": 0, "is_reserved": 0}, {"rental_uris": {"ios": "https://dc.lft.to/lastmile_qr_scan", "android": "https://dc.lft.to/lastmile_qr_scan"}, "lon": -77.12622283333333, "type": "electric_bike", "fusion_lat": 0.0, "lat": 39.0580885, "name": "6f6baf58563346c70ba1487f400e2e2c", "fusion_lon": 0.0, "bike_id": "6f6baf58563346c70ba1487f400e2e2c", "is_disabled": 0, "is_reserved": 0}, {"rental_uris": {"ios": "https://dc.lft.to/lastmile_qr_scan", "android": "https://dc.lft.to/lastmile_qr_scan"}, "lon": -77.026962, "type": "electric_scooter", "fusion_lat": 0.0, "lat": 38.90625983333334, "name": "f0e2a5faff2c0928831fae45013398f6", "fusion_lon": 0.0, "bike_id": "f0e2a5faff2c0928831fae45013398f6", "is_disabled": 0, "is_reserved": 0}, {"rental_uris": {"ios": "https://dc.lft.to/lastmile_qr_scan", "android": "https://dc.lft.to/lastmile_qr_scan"}, "lon": -77.02955033333333, "type": "electric_scooter", "fusion_lat": 0.0, "lat": 38.8922335, "name": "e4f57cc040161573503cad9d20d80353", "fusion_lon": 0.0, "bike_id": "e4f57cc040161573503cad9d20d80353", "is_disabled": 0, "is_reserved": 0}, {"rental_uris": {"ios": "https://dc.lft.to/lastmile_qr_scan", "android": "https://dc.lft.to/lastmile_qr_scan"}, "lon": -77.06181683333334, "type": "electric_scooter", "fusion_lat": 0.0, "lat": 38.90274, "name": "e3adf24d659228727581a3356d134f29", "fusion_lon": 0.0, "bike_id": "e3adf24d659228727581a3356d134f29", "is_disabled": 0, "is_reserved": 0}, {"rental_uris": {"ios": "https://dc.lft.to/lastmile_qr_scan", "android": "https://dc.lft.to/lastmile_qr_scan"}, "lon": -77.031127, "type": "electric_scooter", "fusion_lat": 0.0, "lat": 38.910202166666664, "name": "55d3041a87c258c95650ddca628d8c6b", "fusion_lon": 0.0, "bike_id": "55d3041a87c258c95650ddca628d8c6b", "is_disabled": 0, "is_reserved": 0}, {"rental_uris": {"ios": "https://dc.lft.to/lastmile_qr_scan", "android": "https://dc.lft.to/lastmile_qr_scan"}, "lon": -77.024299, "type": "electric_scooter", "fusion_lat": 0.0, "lat": 38.9009405, "name": "ceb6236fb0d8cb7bf5c6aedbb46a3db1", "fusion_lon": 0.0, "bike_id": "ceb6236fb0d8cb7bf5c6aedbb46a3db1", "is_disabled": 0, "is_reserved": 0}, {"rental_uris": {"ios": "https://dc.lft.to/lastmile_qr_scan", "android": "https://dc.lft.to/lastmile_qr_scan"}, "lon": -77.031618, "type": "electric_scooter", "fusion_lat": 0.0, "lat": 38.911960666666666, "name": "930e45303fe95f99bcc50f87b5178c8e", "fusion_lon": 0.0, "bike_id": "930e45303fe95f99bcc50f87b5178c8e", "is_disabled": 0, "is_reserved": 0}, {"rental_uris": {"ios": "https://dc.lft.to/lastmile_qr_scan", "android": "https://dc.lft.to/lastmile_qr_scan"}, "lon": -76.9783365, "type": "electric_bike", "fusion_lat": 0.0, "lat": 38.84608516666667, "name": "091d26fc4123f2a5721c50f13321ffee", "fusion_lon": 0.0, "bike_id": "091d26fc4123f2a5721c50f13321ffee", "is_disabled": 0, "is_reserved": 0}, {"rental_uris": {"ios": "https://dc.lft.to/lastmile_qr_scan", "android": "https://dc.lft.to/lastmile_qr_scan"}, "lon": -77.03186033333333, "type": "electric_scooter", "fusion_lat": 0.0, "lat": 38.917964166666664, "name": "c059a4489fc70f8e7fcb36a9035bbd3d", "fusion_lon": 0.0, "bike_id": "c059a4489fc70f8e7fcb36a9035bbd3d", "is_disabled": 0, "is_reserved": 0}, {"rental_uris": {"ios": "https://dc.lft.to/lastmile_qr_scan", "android": "https://dc.lft.to/lastmile_qr_scan"}, "lon": -77.07477033333333, "type": "electric_scooter", "fusion_lat": 0.0, "lat": 38.96038183333334, "name": "1b6531bfb4499bfd5c495d3d01d4d03d", "fusion_lon": 0.0, "bike_id": "1b6531bfb4499bfd5c495d3d01d4d03d", "is_disabled": 0, "is_reserved": 0}, {"rental_uris": {"ios": "https://dc.lft.to/lastmile_qr_scan", "android": "https://dc.lft.to/lastmile_qr_scan"}, "lon": -77.072685, "type": "electric_scooter", "fusion_lat": 0.0, "lat": 38.934793, "name": "d7ef3c1e952753fcaedfab9e31f7187f", "fusion_lon": 0.0, "bike_id": "d7ef3c1e952753fcaedfab9e31f7187f", "is_disabled": 0, "is_reserved": 0}, {"rental_uris": {"ios": "https://dc.lft.to/lastmile_qr_scan", "android": "https://dc.lft.to/lastmile_qr_scan"}, "lon": -77.02342916666667, "type": "electric_scooter", "fusion_lat": 0.0, "lat": 38.96206, "name": "3f36fd5f21c7e5a08f76f1cb8a01966d", "fusion_lon": 0.0, "bike_id": "3f36fd5f21c7e5a08f76f1cb8a01966d", "is_disabled": 0, "is_reserved": 0}, {"rental_uris": {"ios": "https://dc.lft.to/lastmile_qr_scan", "android": "https://dc.lft.to/lastmile_qr_scan"}, "lon": -77.00506916666667, "type": "electric_scooter", "fusion_lat": 0.0, "lat": 38.89593583333333, "name": "80d53f9c66bfa9f4be4bf374fc61c93a", "fusion_lon": 0.0, "bike_id": "80d53f9c66bfa9f4be4bf374fc61c93a", "is_disabled": 0, "is_reserved": 0}, {"rental_uris": {"ios": "https://dc.lft.to/lastmile_qr_scan", "android": "https://dc.lft.to/lastmile_qr_scan"}, "lon": -77.01199116666666, "type": "electric_scooter", "fusion_lat": 0.0, "lat": 38.90014083333333, "name": "644b873f4c88c70f120a6e1809bce83e", "fusion_lon": 0.0, "bike_id": "644b873f4c88c70f120a6e1809bce83e", "is_disabled": 0, "is_reserved": 0}, {"rental_uris": {"ios": "https://dc.lft.to/lastmile_qr_scan", "android": "https://dc.lft.to/lastmile_qr_scan"}, "lon": -77.046513, "type": "electric_scooter", "fusion_lat": 0.0, "lat": 38.91276033333333, "name": "c37544d26c0094904cdfc494ffc60f07", "fusion_lon": 0.0, "bike_id": "c37544d26c0094904cdfc494ffc60f07", "is_disabled": 0, "is_reserved": 0}, {"rental_uris": {"ios": "https://dc.lft.to/lastmile_qr_scan", "android": "https://dc.lft.to/lastmile_qr_scan"}, "lon": -77.04182616666667, "type": "electric_scooter", "fusion_lat": 0.0, "lat": 38.919824166666665, "name": "e78ce6401edcf9f5110d777fe04c1b60", "fusion_lon": 0.0, "bike_id": "e78ce6401edcf9f5110d777fe04c1b60", "is_disabled": 0, "is_reserved": 0}, {"rental_uris": {"ios": "https://dc.lft.to/lastmile_qr_scan", "android": "https://dc.lft.to/lastmile_qr_scan"}, "lon": -77.00521, "type": "electric_scooter", "fusion_lat": 0.0, "lat": 38.92901766666667, "name": "aead75f6defc09d8810a7ceb5f4f3997", "fusion_lon": 0.0, "bike_id": "aead75f6defc09d8810a7ceb5f4f3997", "is_disabled": 0, "is_reserved": 0}, {"rental_uris": {"ios": "https://dc.lft.to/lastmile_qr_scan", "android": "https://dc.lft.to/lastmile_qr_scan"}, "lon": -77.01388616666667, "type": "electric_scooter", "fusion_lat": 0.0, "lat": 38.919437, "name": "be8274f2340d175779a86b4aa61b99c7", "fusion_lon": 0.0, "bike_id": "be8274f2340d175779a86b4aa61b99c7", "is_disabled": 0, "is_reserved": 0}, {"rental_uris": {"ios": "https://dc.lft.to/lastmile_qr_scan", "android": "https://dc.lft.to/lastmile_qr_scan"}, "lon": -77.064153, "type": "electric_scooter", "fusion_lat": 0.0, "lat": 38.9090875, "name": "e0680a6cfa983b5e6feb432814d4408b", "fusion_lon": 0.0, "bike_id": "e0680a6cfa983b5e6feb432814d4408b", "is_disabled": 0, "is_reserved": 0}, {"rental_uris": {"ios": "https://dc.lft.to/lastmile_qr_scan", "android": "https://dc.lft.to/lastmile_qr_scan"}, "lon": -77.05638483333334, "type": "electric_scooter", "fusion_lat": 0.0, "lat": 38.92752466666666, "name": "7b4fb580af338c2292b824db4c183edc", "fusion_lon": 0.0, "bike_id": "7b4fb580af338c2292b824db4c183edc", "is_disabled": 0, "is_reserved": 0}, {"rental_uris": {"ios": "https://dc.lft.to/lastmile_qr_scan", "android": "https://dc.lft.to/lastmile_qr_scan"}, "lon": -77.07237583333334, "type": "electric_scooter", "fusion_lat": 0.0, "lat": 38.933860333333335, "name": "7c3c036c1757322b2f5f30f92daa9f93", "fusion_lon": 0.0, "bike_id": "7c3c036c1757322b2f5f30f92daa9f93", "is_disabled": 0, "is_reserved": 0}, {"rental_uris": {"ios": "https://dc.lft.to/lastmile_qr_scan", "android": "https://dc.lft.to/lastmile_qr_scan"}, "lon": -77.04026133333333, "type": "electric_scooter", "fusion_lat": 0.0, "lat": 38.92441816666667, "name": "ee9263202cf91f24050b0b36feacd906", "fusion_lon": 0.0, "bike_id": "ee9263202cf91f24050b0b36feacd906", "is_disabled": 0, "is_reserved": 0}, {"rental_uris": {"ios": "https://dc.lft.to/lastmile_qr_scan", "android": "https://dc.lft.to/lastmile_qr_scan"}, "lon": -77.04674633333333, "type": "electric_scooter", "fusion_lat": 0.0, "lat": 38.90540383333333, "name": "ea72ad0568aa30332a0c1ecb4c4e8df1", "fusion_lon": 0.0, "bike_id": "ea72ad0568aa30332a0c1ecb4c4e8df1", "is_disabled": 0, "is_reserved": 0}, {"rental_uris": {"ios": "https://dc.lft.to/lastmile_qr_scan", "android": "https://dc.lft.to/lastmile_qr_scan"}, "lon": -76.97619966666667, "type": "electric_bike", "fusion_lat": 0.0, "lat": 38.8929145, "name": "bb5838206e6c56570b3be935347fadd8", "fusion_lon": 0.0, "bike_id": "bb5838206e6c56570b3be935347fadd8", "is_disabled": 0, "is_reserved": 0}, {"rental_uris": {"ios": "https://dc.lft.to/lastmile_qr_scan", "android": "https://dc.lft.to/lastmile_qr_scan"}, "lon": -77.098781, "type": "electric_bike", "fusion_lat": 0.0, "lat": 38.947841833333335, "name": "4153041d015d2623cec8c34cabc259d3", "fusion_lon": 0.0, "bike_id": "4153041d015d2623cec8c34cabc259d3", "is_disabled": 0, "is_reserved": 0}, {"rental_uris": {"ios": "https://dc.lft.to/lastmile_qr_scan", "android": "https://dc.lft.to/lastmile_qr_scan"}, "lon": -77.04036066666667, "type": "electric_scooter", "fusion_lat": 0.0, "lat": 38.903896333333336, "name": "ae0da542a534bdcc0ba5c091e3396f19", "fusion_lon": 0.0, "bike_id": "ae0da542a534bdcc0ba5c091e3396f19", "is_disabled": 0, "is_reserved": 0}, {"rental_uris": {"ios": "https://dc.lft.to/lastmile_qr_scan", "android": "https://dc.lft.to/lastmile_qr_scan"}, "lon": -77.0331275, "type": "electric_scooter", "fusion_lat": 0.0, "lat": 38.901408833333335, "name": "075460b85aa8160b0b48aca5ae70bbad", "fusion_lon": 0.0, "bike_id": "075460b85aa8160b0b48aca5ae70bbad", "is_disabled": 0, "is_reserved": 0}, {"rental_uris": {"ios": "https://dc.lft.to/lastmile_qr_scan", "android": "https://dc.lft.to/lastmile_qr_scan"}, "lon": -77.01547733333334, "type": "electric_scooter", "fusion_lat": 0.0, "lat": 38.902658333333335, "name": "6e97cb78f625e85b9e5238e8e79b1aa4", "fusion_lon": 0.0, "bike_id": "6e97cb78f625e85b9e5238e8e79b1aa4", "is_disabled": 0, "is_reserved": 0}, {"rental_uris": {"ios": "https://dc.lft.to/lastmile_qr_scan", "android": "https://dc.lft.to/lastmile_qr_scan"}, "lon": -77.01997583333333, "type": "electric_scooter", "fusion_lat": 0.0, "lat": 38.91417383333334, "name": "5c95e5fce9e0583e74e45269d92b9a92", "fusion_lon": 0.0, "bike_id": "5c95e5fce9e0583e74e45269d92b9a92", "is_disabled": 0, "is_reserved": 0}, {"rental_uris": {"ios": "https://dc.lft.to/lastmile_qr_scan", "android": "https://dc.lft.to/lastmile_qr_scan"}, "lon": -77.00333566666667, "type": "electric_scooter", "fusion_lat": 0.0, "lat": 38.8749425, "name": "6857420e66b78eaf11bca91daea8f939", "fusion_lon": 0.0, "bike_id": "6857420e66b78eaf11bca91daea8f939", "is_disabled": 0, "is_reserved": 0}, {"rental_uris": {"ios": "https://dc.lft.to/lastmile_qr_scan", "android": "https://dc.lft.to/lastmile_qr_scan"}, "lon": -77.00597916666666, "type": "electric_bike", "fusion_lat": 0.0, "lat": 38.904195, "name": "0ed39d9c20e0f9415ae501bbc3279edf", "fusion_lon": 0.0, "bike_id": "0ed39d9c20e0f9415ae501bbc3279edf", "is_disabled": 0, "is_reserved": 0}, {"rental_uris": {"ios": "https://dc.lft.to/lastmile_qr_scan", "android": "https://dc.lft.to/lastmile_qr_scan"}, "lon": -77.021568, "type": "electric_scooter", "fusion_lat": 0.0, "lat": 38.926038166666665, "name": "66d013c8870e3f43399f3561382b05e8", "fusion_lon": 0.0, "bike_id": "66d013c8870e3f43399f3561382b05e8", "is_disabled": 0, "is_reserved": 0}, {"rental_uris": {"ios": "https://dc.lft.to/lastmile_qr_scan", "android": "https://dc.lft.to/lastmile_qr_scan"}, "lon": -77.04501733333333, "type": "electric_scooter", "fusion_lat": 0.0, "lat": 38.9110915, "name": "dcaf3c69bfaf7c479e663070aebdd542", "fusion_lon": 0.0, "bike_id": "dcaf3c69bfaf7c479e663070aebdd542", "is_disabled": 0, "is_reserved": 0}, {"rental_uris": {"ios": "https://dc.lft.to/lastmile_qr_scan", "android": "https://dc.lft.to/lastmile_qr_scan"}, "lon": -77.07395616666666, "type": "electric_bike", "fusion_lat": 0.0, "lat": 38.961726, "name": "5a7bef78da34d2a984f4918d3d9fcc9c", "fusion_lon": 0.0, "bike_id": "5a7bef78da34d2a984f4918d3d9fcc9c", "is_disabled": 0, "is_reserved": 0}, {"rental_uris": {"ios": "https://dc.lft.to/lastmile_qr_scan", "android": "https://dc.lft.to/lastmile_qr_scan"}, "lon": -77.04367566666667, "type": "electric_scooter", "fusion_lat": 0.0, "lat": 38.911165, "name": "9bfaba1a38afdaa22cc47b20488eafef", "fusion_lon": 0.0, "bike_id": "9bfaba1a38afdaa22cc47b20488eafef", "is_disabled": 0, "is_reserved": 0}, {"rental_uris": {"ios": "https://dc.lft.to/lastmile_qr_scan", "android": "https://dc.lft.to/lastmile_qr_scan"}, "lon": -76.92372733333333, "type": "electric_bike", "fusion_lat": 0.0, "lat": 38.88374483333333, "name": "fbfc22b2530868647872e9769f4324a4", "fusion_lon": 0.0, "bike_id": "fbfc22b2530868647872e9769f4324a4", "is_disabled": 0, "is_reserved": 0}, {"rental_uris": {"ios": "https://dc.lft.to/lastmile_qr_scan", "android": "https://dc.lft.to/lastmile_qr_scan"}, "lon": -77.021476, "type": "electric_scooter", "fusion_lat": 0.0, "lat": 38.90236766666666, "name": "e9bb7d84780d6e6058ae9e0c31049584", "fusion_lon": 0.0, "bike_id": "e9bb7d84780d6e6058ae9e0c31049584", "is_disabled": 0, "is_reserved": 0}, {"rental_uris": {"ios": "https://dc.lft.to/lastmile_qr_scan", "android": "https://dc.lft.to/lastmile_qr_scan"}, "lon": -77.0237085, "type": "electric_scooter", "fusion_lat": 0.0, "lat": 38.920499, "name": "8da58f9c970a8ebdf3e4800be152c5b9", "fusion_lon": 0.0, "bike_id": "8da58f9c970a8ebdf3e4800be152c5b9", "is_disabled": 0, "is_reserved": 0}, {"rental_uris": {"ios": "https://dc.lft.to/lastmile_qr_scan", "android": "https://dc.lft.to/lastmile_qr_scan"}, "lon": -77.031933, "type": "electric_scooter", "fusion_lat": 0.0, "lat": 38.904798666666665, "name": "92d1a1c9ec6f282e258ca06539c0efd6", "fusion_lon": 0.0, "bike_id": "92d1a1c9ec6f282e258ca06539c0efd6", "is_disabled": 0, "is_reserved": 0}, {"rental_uris": {"ios": "https://dc.lft.to/lastmile_qr_scan", "android": "https://dc.lft.to/lastmile_qr_scan"}, "lon": -77.022387, "type": "electric_scooter", "fusion_lat": 0.0, "lat": 38.90232483333333, "name": "79a166fb0bc1bc503b8ffde6fa1bb8a4", "fusion_lon": 0.0, "bike_id": "79a166fb0bc1bc503b8ffde6fa1bb8a4", "is_disabled": 0, "is_reserved": 0}, {"rental_uris": {"ios": "https://dc.lft.to/lastmile_qr_scan", "android": "https://dc.lft.to/lastmile_qr_scan"}, "lon": -77.03458, "type": "electric_scooter", "fusion_lat": 0.0, "lat": 38.902779333333335, "name": "3d0e0c223ac0c75adf6e5c6babd0e364", "fusion_lon": 0.0, "bike_id": "3d0e0c223ac0c75adf6e5c6babd0e364", "is_disabled": 0, "is_reserved": 0}, {"rental_uris": {"ios": "https://dc.lft.to/lastmile_qr_scan", "android": "https://dc.lft.to/lastmile_qr_scan"}, "lon": -77.0517655, "type": "electric_scooter", "fusion_lat": 0.0, "lat": 38.92374816666667, "name": "166bbd29e88203a0c1633ffdb45e87a3", "fusion_lon": 0.0, "bike_id": "166bbd29e88203a0c1633ffdb45e87a3", "is_disabled": 0, "is_reserved": 0}, {"rental_uris": {"ios": "https://dc.lft.to/lastmile_qr_scan", "android": "https://dc.lft.to/lastmile_qr_scan"}, "lon": -76.93174366666666, "type": "electric_scooter", "fusion_lat": 0.0, "lat": 38.89882933333333, "name": "0cf970237ab1a9d04c03ec17d698777f", "fusion_lon": 0.0, "bike_id": "0cf970237ab1a9d04c03ec17d698777f", "is_disabled": 0, "is_reserved": 0}, {"rental_uris": {"ios": "https://dc.lft.to/lastmile_qr_scan", "android": "https://dc.lft.to/lastmile_qr_scan"}, "lon": -77.00590366666667, "type": "electric_scooter", "fusion_lat": 0.0, "lat": 38.915668333333336, "name": "aaf975527120a78f5002538650a405ea", "fusion_lon": 0.0, "bike_id": "aaf975527120a78f5002538650a405ea", "is_disabled": 0, "is_reserved": 0}, {"rental_uris": {"ios": "https://dc.lft.to/lastmile_qr_scan", "android": "https://dc.lft.to/lastmile_qr_scan"}, "lon": -77.04155583333333, "type": "electric_scooter", "fusion_lat": 0.0, "lat": 38.91917333333333, "name": "8cc84350431ba569f4784718de7c85e6", "fusion_lon": 0.0, "bike_id": "8cc84350431ba569f4784718de7c85e6", "is_disabled": 0, "is_reserved": 0}, {"rental_uris": {"ios": "https://dc.lft.to/lastmile_qr_scan", "android": "https://dc.lft.to/lastmile_qr_scan"}, "lon": -77.04173583333333, "type": "electric_scooter", "fusion_lat": 0.0, "lat": 38.915349166666665, "name": "ce008f233b2dd59dc360f2e8a7d43d62", "fusion_lon": 0.0, "bike_id": "ce008f233b2dd59dc360f2e8a7d43d62", "is_disabled": 0, "is_reserved": 0}, {"rental_uris": {"ios": "https://dc.lft.to/lastmile_qr_scan", "android": "https://dc.lft.to/lastmile_qr_scan"}, "lon": -77.02337333333334, "type": "electric_scooter", "fusion_lat": 0.0, "lat": 38.9620755, "name": "fe573b9586e8e0e0955cd428f4f6216f", "fusion_lon": 0.0, "bike_id": "fe573b9586e8e0e0955cd428f4f6216f", "is_disabled": 0, "is_reserved": 0}, {"rental_uris": {"ios": "https://dc.lft.to/lastmile_qr_scan", "android": "https://dc.lft.to/lastmile_qr_scan"}, "lon": -77.125033, "type": "electric_bike", "fusion_lat": 0.0, "lat": 39.02416183333333, "name": "6994b9ffb68b3adf7e8eed5af8d531a8", "fusion_lon": 0.0, "bike_id": "6994b9ffb68b3adf7e8eed5af8d531a8", "is_disabled": 0, "is_reserved": 0}, {"rental_uris": {"ios": "https://dc.lft.to/lastmile_qr_scan", "android": "https://dc.lft.to/lastmile_qr_scan"}, "lon": -77.0325545, "type": "electric_scooter", "fusion_lat": 0.0, "lat": 38.92907916666667, "name": "8e386609dccbf68d45692667665391ca", "fusion_lon": 0.0, "bike_id": "8e386609dccbf68d45692667665391ca", "is_disabled": 0, "is_reserved": 0}, {"rental_uris": {"ios": "https://dc.lft.to/lastmile_qr_scan", "android": "https://dc.lft.to/lastmile_qr_scan"}, "lon": -77.03471383333333, "type": "electric_scooter", "fusion_lat": 0.0, "lat": 38.917070333333335, "name": "9b411fff7dfc1616745dee16fe1c8fdc", "fusion_lon": 0.0, "bike_id": "9b411fff7dfc1616745dee16fe1c8fdc", "is_disabled": 0, "is_reserved": 0}, {"rental_uris": {"ios": "https://dc.lft.to/lastmile_qr_scan", "android": "https://dc.lft.to/lastmile_qr_scan"}, "lon": -77.057024, "type": "electric_scooter", "fusion_lat": 0.0, "lat": 38.905335, "name": "f4d39f16dcf46235d671946c09152472", "fusion_lon": 0.0, "bike_id": "f4d39f16dcf46235d671946c09152472", "is_disabled": 0, "is_reserved": 0}, {"rental_uris": {"ios": "https://dc.lft.to/lastmile_qr_scan", "android": "https://dc.lft.to/lastmile_qr_scan"}, "lon": -77.04294116666667, "type": "electric_scooter", "fusion_lat": 0.0, "lat": 38.923029666666665, "name": "6bfc8b9c08d87b96298e2e0a8c8f72e9", "fusion_lon": 0.0, "bike_id": "6bfc8b9c08d87b96298e2e0a8c8f72e9", "is_disabled": 0, "is_reserved": 0}, {"rental_uris": {"ios": "https://dc.lft.to/lastmile_qr_scan", "android": "https://dc.lft.to/lastmile_qr_scan"}, "lon": -77.0374795, "type": "electric_scooter", "fusion_lat": 0.0, "lat": 38.92605233333333, "name": "a45760e896d67bf6dc5a6fa10327289a", "fusion_lon": 0.0, "bike_id": "a45760e896d67bf6dc5a6fa10327289a", "is_disabled": 0, "is_reserved": 0}, {"rental_uris": {"ios": "https://dc.lft.to/lastmile_qr_scan", "android": "https://dc.lft.to/lastmile_qr_scan"}, "lon": -77.01135033333334, "type": "electric_scooter", "fusion_lat": 0.0, "lat": 38.9073445, "name": "4ab91c7bc71fba281972b212e7d641d9", "fusion_lon": 0.0, "bike_id": "4ab91c7bc71fba281972b212e7d641d9", "is_disabled": 0, "is_reserved": 0}, {"rental_uris": {"ios": "https://dc.lft.to/lastmile_qr_scan", "android": "https://dc.lft.to/lastmile_qr_scan"}, "lon": -77.056782, "type": "electric_scooter", "fusion_lat": 0.0, "lat": 38.92333216666667, "name": "3a0bc3cccdfc8dd676751a28398de1d8", "fusion_lon": 0.0, "bike_id": "3a0bc3cccdfc8dd676751a28398de1d8", "is_disabled": 0, "is_reserved": 0}, {"rental_uris": {"ios": "https://dc.lft.to/lastmile_qr_scan", "android": "https://dc.lft.to/lastmile_qr_scan"}, "lon": -77.06146033333333, "type": "electric_scooter", "fusion_lat": 0.0, "lat": 38.905279166666666, "name": "0a05b9ee3e63e1cab4bb9d4b7e1a364f", "fusion_lon": 0.0, "bike_id": "0a05b9ee3e63e1cab4bb9d4b7e1a364f", "is_disabled": 0, "is_reserved": 0}, {"rental_uris": {"ios": "https://dc.lft.to/lastmile_qr_scan", "android": "https://dc.lft.to/lastmile_qr_scan"}, "lon": -77.00203966666666, "type": "electric_scooter", "fusion_lat": 0.0, "lat": 38.822493, "name": "cfeed75f566b49053fea861ce6063e38", "fusion_lon": 0.0, "bike_id": "cfeed75f566b49053fea861ce6063e38", "is_disabled": 0, "is_reserved": 0}, {"rental_uris": {"ios": "https://dc.lft.to/lastmile_qr_scan", "android": "https://dc.lft.to/lastmile_qr_scan"}, "lon": -77.02363266666667, "type": "electric_scooter", "fusion_lat": 0.0, "lat": 38.90309233333333, "name": "29429d694d1524d0b871004480a89ad1", "fusion_lon": 0.0, "bike_id": "29429d694d1524d0b871004480a89ad1", "is_disabled": 0, "is_reserved": 0}, {"rental_uris": {"ios": "https://dc.lft.to/lastmile_qr_scan", "android": "https://dc.lft.to/lastmile_qr_scan"}, "lon": -77.01925466666667, "type": "electric_scooter", "fusion_lat": 0.0, "lat": 38.9568565, "name": "146792c2b4d6cb9cc76d59ddea93c379", "fusion_lon": 0.0, "bike_id": "146792c2b4d6cb9cc76d59ddea93c379", "is_disabled": 0, "is_reserved": 0}, {"rental_uris": {"ios": "https://dc.lft.to/lastmile_qr_scan", "android": "https://dc.lft.to/lastmile_qr_scan"}, "lon": -77.05500766666667, "type": "electric_scooter", "fusion_lat": 0.0, "lat": 38.929796, "name": "bc6c6a3f653f259e4fd108b7e5652246", "fusion_lon": 0.0, "bike_id": "bc6c6a3f653f259e4fd108b7e5652246", "is_disabled": 0, "is_reserved": 0}, {"rental_uris": {"ios": "https://dc.lft.to/lastmile_qr_scan", "android": "https://dc.lft.to/lastmile_qr_scan"}, "lon": -77.06296933333333, "type": "electric_scooter", "fusion_lat": 0.0, "lat": 38.90392966666667, "name": "6042e8beec6b2c34f84ba5a652cd7edd", "fusion_lon": 0.0, "bike_id": "6042e8beec6b2c34f84ba5a652cd7edd", "is_disabled": 0, "is_reserved": 0}, {"rental_uris": {"ios": "https://dc.lft.to/lastmile_qr_scan", "android": "https://dc.lft.to/lastmile_qr_scan"}, "lon": -77.04820866666667, "type": "electric_scooter", "fusion_lat": 0.0, "lat": 38.9132995, "name": "c49f964ab27483273599eb9574614c31", "fusion_lon": 0.0, "bike_id": "c49f964ab27483273599eb9574614c31", "is_disabled": 0, "is_reserved": 0}, {"rental_uris": {"ios": "https://dc.lft.to/lastmile_qr_scan", "android": "https://dc.lft.to/lastmile_qr_scan"}, "lon": -76.908154, "type": "electric_bike", "fusion_lat": 0.0, "lat": 38.99454183333334, "name": "8b283e2b5d7cc04984098ef2e2d69410", "fusion_lon": 0.0, "bike_id": "8b283e2b5d7cc04984098ef2e2d69410", "is_disabled": 0, "is_reserved": 0}, {"rental_uris": {"ios": "https://dc.lft.to/lastmile_qr_scan", "android": "https://dc.lft.to/lastmile_qr_scan"}, "lon": -77.03395033333334, "type": "electric_scooter", "fusion_lat": 0.0, "lat": 38.907116, "name": "dd0a0cfb821ef348d5292cf1c2040eed", "fusion_lon": 0.0, "bike_id": "dd0a0cfb821ef348d5292cf1c2040eed", "is_disabled": 0, "is_reserved": 0}, {"rental_uris": {"ios": "https://dc.lft.to/lastmile_qr_scan", "android": "https://dc.lft.to/lastmile_qr_scan"}, "lon": -77.02720816666667, "type": "electric_scooter", "fusion_lat": 0.0, "lat": 38.91815883333334, "name": "9de6c2352be86b4c2306cfc97c2a3970", "fusion_lon": 0.0, "bike_id": "9de6c2352be86b4c2306cfc97c2a3970", "is_disabled": 0, "is_reserved": 0}, {"rental_uris": {"ios": "https://dc.lft.to/lastmile_qr_scan", "android": "https://dc.lft.to/lastmile_qr_scan"}, "lon": -77.0299045, "type": "electric_scooter", "fusion_lat": 0.0, "lat": 38.91547883333333, "name": "6a255616527e5f6efe8f26ff93ff5aa1", "fusion_lon": 0.0, "bike_id": "6a255616527e5f6efe8f26ff93ff5aa1", "is_disabled": 0, "is_reserved": 0}, {"rental_uris": {"ios": "https://dc.lft.to/lastmile_qr_scan", "android": "https://dc.lft.to/lastmile_qr_scan"}, "lon": -77.07235216666666, "type": "electric_scooter", "fusion_lat": 0.0, "lat": 38.93454883333333, "name": "ff6e425cdd9c792c872396153c84dba8", "fusion_lon": 0.0, "bike_id": "ff6e425cdd9c792c872396153c84dba8", "is_disabled": 0, "is_reserved": 0}, {"rental_uris": {"ios": "https://dc.lft.to/lastmile_qr_scan", "android": "https://dc.lft.to/lastmile_qr_scan"}, "lon": -77.0265825, "type": "electric_scooter", "fusion_lat": 0.0, "lat": 38.892219, "name": "d2fe2145302792fcead357b3033eb1e1", "fusion_lon": 0.0, "bike_id": "d2fe2145302792fcead357b3033eb1e1", "is_disabled": 0, "is_reserved": 0}, {"rental_uris": {"ios": "https://dc.lft.to/lastmile_qr_scan", "android": "https://dc.lft.to/lastmile_qr_scan"}, "lon": -76.9541355, "type": "electric_bike", "fusion_lat": 0.0, "lat": 38.864714666666664, "name": "2698b47ab78e7a9b769d5b6aa5921a13", "fusion_lon": 0.0, "bike_id": "2698b47ab78e7a9b769d5b6aa5921a13", "is_disabled": 0, "is_reserved": 0}, {"rental_uris": {"ios": "https://dc.lft.to/lastmile_qr_scan", "android": "https://dc.lft.to/lastmile_qr_scan"}, "lon": -76.99485016666667, "type": "electric_scooter", "fusion_lat": 0.0, "lat": 38.88335333333333, "name": "3e48d2a2481d014423b254b6d55a78d0", "fusion_lon": 0.0, "bike_id": "3e48d2a2481d014423b254b6d55a78d0", "is_disabled": 0, "is_reserved": 0}, {"rental_uris": {"ios": "https://dc.lft.to/lastmile_qr_scan", "android": "https://dc.lft.to/lastmile_qr_scan"}, "lon": -77.040023, "type": "electric_scooter", "fusion_lat": 0.0, "lat": 38.91814383333333, "name": "e36eedebbaa1a8df6d0b07dcb796b1ac", "fusion_lon": 0.0, "bike_id": "e36eedebbaa1a8df6d0b07dcb796b1ac", "is_disabled": 0, "is_reserved": 0}, {"rental_uris": {"ios": "https://dc.lft.to/lastmile_qr_scan", "android": "https://dc.lft.to/lastmile_qr_scan"}, "lon": -77.10898583333334, "type": "electric_bike", "fusion_lat": 0.0, "lat": 38.830401333333334, "name": "4032200682142dbae9331043491a7bec", "fusion_lon": 0.0, "bike_id": "4032200682142dbae9331043491a7bec", "is_disabled": 0, "is_reserved": 0}, {"rental_uris": {"ios": "https://dc.lft.to/lastmile_qr_scan", "android": "https://dc.lft.to/lastmile_qr_scan"}, "lon": -76.973257, "type": "electric_scooter", "fusion_lat": 0.0, "lat": 38.904775, "name": "20929c4f333aea8246535a99ab5b0b5e", "fusion_lon": 0.0, "bike_id": "20929c4f333aea8246535a99ab5b0b5e", "is_disabled": 0, "is_reserved": 0}, {"rental_uris": {"ios": "https://dc.lft.to/lastmile_qr_scan", "android": "https://dc.lft.to/lastmile_qr_scan"}, "lon": -76.99147516666666, "type": "electric_scooter", "fusion_lat": 0.0, "lat": 38.893409, "name": "fb91f4c8630aaf8e07dcf70a953b9868", "fusion_lon": 0.0, "bike_id": "fb91f4c8630aaf8e07dcf70a953b9868", "is_disabled": 0, "is_reserved": 0}, {"rental_uris": {"ios": "https://dc.lft.to/lastmile_qr_scan", "android": "https://dc.lft.to/lastmile_qr_scan"}, "lon": -77.02884133333333, "type": "electric_scooter", "fusion_lat": 0.0, "lat": 38.91683733333333, "name": "93f7c9efc367bd12bb498bfcc5060247", "fusion_lon": 0.0, "bike_id": "93f7c9efc367bd12bb498bfcc5060247", "is_disabled": 0, "is_reserved": 0}, {"rental_uris": {"ios": "https://dc.lft.to/lastmile_qr_scan", "android": "https://dc.lft.to/lastmile_qr_scan"}, "lon": -77.0415915, "type": "electric_scooter", "fusion_lat": 0.0, "lat": 38.91514316666667, "name": "fd64e27b8290d89da1fdcefa20e4f5ae", "fusion_lon": 0.0, "bike_id": "fd64e27b8290d89da1fdcefa20e4f5ae", "is_disabled": 0, "is_reserved": 0}, {"rental_uris": {"ios": "https://dc.lft.to/lastmile_qr_scan", "android": "https://dc.lft.to/lastmile_qr_scan"}, "lon": -76.99948633333334, "type": "electric_bike", "fusion_lat": 0.0, "lat": 38.923400666666666, "name": "ed867ba48719e8be538833a47af28a6e", "fusion_lon": 0.0, "bike_id": "ed867ba48719e8be538833a47af28a6e", "is_disabled": 0, "is_reserved": 0}, {"rental_uris": {"ios": "https://dc.lft.to/lastmile_qr_scan", "android": "https://dc.lft.to/lastmile_qr_scan"}, "lon": -77.02384433333333, "type": "electric_scooter", "fusion_lat": 0.0, "lat": 38.90592383333333, "name": "b3bd4d9bf45654f252de008e7c1cb731", "fusion_lon": 0.0, "bike_id": "b3bd4d9bf45654f252de008e7c1cb731", "is_disabled": 0, "is_reserved": 0}, {"rental_uris": {"ios": "https://dc.lft.to/lastmile_qr_scan", "android": "https://dc.lft.to/lastmile_qr_scan"}, "lon": -77.06595933333334, "type": "electric_scooter", "fusion_lat": 0.0, "lat": 38.90529383333333, "name": "15b5ab8d8930137521734bdba2fecfa5", "fusion_lon": 0.0, "bike_id": "15b5ab8d8930137521734bdba2fecfa5", "is_disabled": 0, "is_reserved": 0}, {"rental_uris": {"ios": "https://dc.lft.to/lastmile_qr_scan", "android": "https://dc.lft.to/lastmile_qr_scan"}, "lon": -77.0236905, "type": "electric_scooter", "fusion_lat": 0.0, "lat": 38.89221366666666, "name": "74e325615f646ebe3dd5c1d1230c1750", "fusion_lon": 0.0, "bike_id": "74e325615f646ebe3dd5c1d1230c1750", "is_disabled": 0, "is_reserved": 0}, {"rental_uris": {"ios": "https://dc.lft.to/lastmile_qr_scan", "android": "https://dc.lft.to/lastmile_qr_scan"}, "lon": -76.9977695, "type": "electric_scooter", "fusion_lat": 0.0, "lat": 38.844247, "name": "1e9a1587253315e985c24c2e72f4de1a", "fusion_lon": 0.0, "bike_id": "1e9a1587253315e985c24c2e72f4de1a", "is_disabled": 0, "is_reserved": 0}, {"rental_uris": {"ios": "https://dc.lft.to/lastmile_qr_scan", "android": "https://dc.lft.to/lastmile_qr_scan"}, "lon": -76.99760833333333, "type": "electric_scooter", "fusion_lat": 0.0, "lat": 38.921831166666664, "name": "eba79167a65545583968622dbe37e1dc", "fusion_lon": 0.0, "bike_id": "eba79167a65545583968622dbe37e1dc", "is_disabled": 0, "is_reserved": 0}, {"rental_uris": {"ios": "https://dc.lft.to/lastmile_qr_scan", "android": "https://dc.lft.to/lastmile_qr_scan"}, "lon": -77.01493133333334, "type": "electric_scooter", "fusion_lat": 0.0, "lat": 38.8726055, "name": "00b7ee803aae5d00eb6eeb0caa425abf", "fusion_lon": 0.0, "bike_id": "00b7ee803aae5d00eb6eeb0caa425abf", "is_disabled": 0, "is_reserved": 0}, {"rental_uris": {"ios": "https://dc.lft.to/lastmile_qr_scan", "android": "https://dc.lft.to/lastmile_qr_scan"}, "lon": -77.03695483333334, "type": "electric_scooter", "fusion_lat": 0.0, "lat": 38.927537, "name": "045686315b2e5bfad828480148b4d239", "fusion_lon": 0.0, "bike_id": "045686315b2e5bfad828480148b4d239", "is_disabled": 0, "is_reserved": 0}, {"rental_uris": {"ios": "https://dc.lft.to/lastmile_qr_scan", "android": "https://dc.lft.to/lastmile_qr_scan"}, "lon": -77.06672566666667, "type": "electric_scooter", "fusion_lat": 0.0, "lat": 38.914063166666665, "name": "15e51c1c0e17fee9e67a0ae7770377b4", "fusion_lon": 0.0, "bike_id": "15e51c1c0e17fee9e67a0ae7770377b4", "is_disabled": 0, "is_reserved": 0}, {"rental_uris": {"ios": "https://dc.lft.to/lastmile_qr_scan", "android": "https://dc.lft.to/lastmile_qr_scan"}, "lon": -77.02692866666666, "type": "electric_scooter", "fusion_lat": 0.0, "lat": 38.906831, "name": "fced62ad3fcca36d62afbaf430c0f27b", "fusion_lon": 0.0, "bike_id": "fced62ad3fcca36d62afbaf430c0f27b", "is_disabled": 0, "is_reserved": 0}, {"rental_uris": {"ios": "https://dc.lft.to/lastmile_qr_scan", "android": "https://dc.lft.to/lastmile_qr_scan"}, "lon": -77.00759883333333, "type": "electric_scooter", "fusion_lat": 0.0, "lat": 38.87668883333333, "name": "7b4464737dd3bf06dade7067fb60089e", "fusion_lon": 0.0, "bike_id": "7b4464737dd3bf06dade7067fb60089e", "is_disabled": 0, "is_reserved": 0}, {"rental_uris": {"ios": "https://dc.lft.to/lastmile_qr_scan", "android": "https://dc.lft.to/lastmile_qr_scan"}, "lon": -77.04175316666667, "type": "electric_scooter", "fusion_lat": 0.0, "lat": 38.919314, "name": "b8938038015d81ac47ac6d2b2ee4106f", "fusion_lon": 0.0, "bike_id": "b8938038015d81ac47ac6d2b2ee4106f", "is_disabled": 0, "is_reserved": 0}, {"rental_uris": {"ios": "https://dc.lft.to/lastmile_qr_scan", "android": "https://dc.lft.to/lastmile_qr_scan"}, "lon": -77.035659, "type": "electric_scooter", "fusion_lat": 0.0, "lat": 38.918168666666666, "name": "4951453cd988cd37d73106b2a8991392", "fusion_lon": 0.0, "bike_id": "4951453cd988cd37d73106b2a8991392", "is_disabled": 0, "is_reserved": 0}, {"rental_uris": {"ios": "https://dc.lft.to/lastmile_qr_scan", "android": "https://dc.lft.to/lastmile_qr_scan"}, "lon": -77.04236433333334, "type": "electric_scooter", "fusion_lat": 0.0, "lat": 38.922195333333335, "name": "8ef163a67da8a887c8198058e7b3ce30", "fusion_lon": 0.0, "bike_id": "8ef163a67da8a887c8198058e7b3ce30", "is_disabled": 0, "is_reserved": 0}, {"rental_uris": {"ios": "https://dc.lft.to/lastmile_qr_scan", "android": "https://dc.lft.to/lastmile_qr_scan"}, "lon": -77.05883633333333, "type": "electric_scooter", "fusion_lat": 0.0, "lat": 38.93634433333333, "name": "933d9fae0f1ea86d22737364a7c72040", "fusion_lon": 0.0, "bike_id": "933d9fae0f1ea86d22737364a7c72040", "is_disabled": 0, "is_reserved": 0}, {"rental_uris": {"ios": "https://dc.lft.to/lastmile_qr_scan", "android": "https://dc.lft.to/lastmile_qr_scan"}, "lon": -77.02696783333333, "type": "electric_scooter", "fusion_lat": 0.0, "lat": 38.906648833333335, "name": "a71475afcfc8fa3ee83879eb909d2a05", "fusion_lon": 0.0, "bike_id": "a71475afcfc8fa3ee83879eb909d2a05", "is_disabled": 0, "is_reserved": 0}, {"rental_uris": {"ios": "https://dc.lft.to/lastmile_qr_scan", "android": "https://dc.lft.to/lastmile_qr_scan"}, "lon": -77.06951816666667, "type": "electric_bike", "fusion_lat": 0.0, "lat": 38.990381666666664, "name": "0abef82850001281ea2fda1b1c7997e2", "fusion_lon": 0.0, "bike_id": "0abef82850001281ea2fda1b1c7997e2", "is_disabled": 0, "is_reserved": 0}, {"rental_uris": {"ios": "https://dc.lft.to/lastmile_qr_scan", "android": "https://dc.lft.to/lastmile_qr_scan"}, "lon": -77.02149983333334, "type": "electric_scooter", "fusion_lat": 0.0, "lat": 38.925992, "name": "be95c988fedcb099f82ed4825485f206", "fusion_lon": 0.0, "bike_id": "be95c988fedcb099f82ed4825485f206", "is_disabled": 0, "is_reserved": 0}, {"rental_uris": {"ios": "https://dc.lft.to/lastmile_qr_scan", "android": "https://dc.lft.to/lastmile_qr_scan"}, "lon": -77.0296455, "type": "electric_scooter", "fusion_lat": 0.0, "lat": 38.92426733333333, "name": "aa6b13dbe7842c8e15cbb304d61cc10a", "fusion_lon": 0.0, "bike_id": "aa6b13dbe7842c8e15cbb304d61cc10a", "is_disabled": 0, "is_reserved": 0}, {"rental_uris": {"ios": "https://dc.lft.to/lastmile_qr_scan", "android": "https://dc.lft.to/lastmile_qr_scan"}, "lon": -77.03504316666667, "type": "electric_scooter", "fusion_lat": 0.0, "lat": 38.907031833333335, "name": "5fb8f164f1b19163fabf995c7769980c", "fusion_lon": 0.0, "bike_id": "5fb8f164f1b19163fabf995c7769980c", "is_disabled": 0, "is_reserved": 0}, {"rental_uris": {"ios": "https://dc.lft.to/lastmile_qr_scan", "android": "https://dc.lft.to/lastmile_qr_scan"}, "lon": -77.02230483333334, "type": "electric_scooter", "fusion_lat": 0.0, "lat": 38.9165515, "name": "3ac9a945de9842aa328bf15ce785a065", "fusion_lon": 0.0, "bike_id": "3ac9a945de9842aa328bf15ce785a065", "is_disabled": 0, "is_reserved": 0}, {"rental_uris": {"ios": "https://dc.lft.to/lastmile_qr_scan", "android": "https://dc.lft.to/lastmile_qr_scan"}, "lon": -77.0165305, "type": "electric_scooter", "fusion_lat": 0.0, "lat": 38.929338333333334, "name": "c162b065c4fa4760b83ec9e230cb50ac", "fusion_lon": 0.0, "bike_id": "c162b065c4fa4760b83ec9e230cb50ac", "is_disabled": 0, "is_reserved": 0}, {"rental_uris": {"ios": "https://dc.lft.to/lastmile_qr_scan", "android": "https://dc.lft.to/lastmile_qr_scan"}, "lon": -77.04265466666666, "type": "electric_scooter", "fusion_lat": 0.0, "lat": 38.9080505, "name": "e575647460074f2b398795ca56799137", "fusion_lon": 0.0, "bike_id": "e575647460074f2b398795ca56799137", "is_disabled": 0, "is_reserved": 0}, {"rental_uris": {"ios": "https://dc.lft.to/lastmile_qr_scan", "android": "https://dc.lft.to/lastmile_qr_scan"}, "lon": -77.02920683333333, "type": "electric_scooter", "fusion_lat": 0.0, "lat": 38.93462566666667, "name": "f6b4c48f007cd955d1cf77e75f96f961", "fusion_lon": 0.0, "bike_id": "f6b4c48f007cd955d1cf77e75f96f961", "is_disabled": 0, "is_reserved": 0}, {"rental_uris": {"ios": "https://dc.lft.to/lastmile_qr_scan", "android": "https://dc.lft.to/lastmile_qr_scan"}, "lon": -77.06328033333334, "type": "electric_scooter", "fusion_lat": 0.0, "lat": 38.9052715, "name": "bccf57739920153eb1f5a3e98938bd8b", "fusion_lon": 0.0, "bike_id": "bccf57739920153eb1f5a3e98938bd8b", "is_disabled": 0, "is_reserved": 0}, {"rental_uris": {"ios": "https://dc.lft.to/lastmile_qr_scan", "android": "https://dc.lft.to/lastmile_qr_scan"}, "lon": -77.00057533333333, "type": "electric_scooter", "fusion_lat": 0.0, "lat": 38.90882216666667, "name": "d5572c72b1f8d53f2767d668be050d18", "fusion_lon": 0.0, "bike_id": "d5572c72b1f8d53f2767d668be050d18", "is_disabled": 0, "is_reserved": 0}, {"rental_uris": {"ios": "https://dc.lft.to/lastmile_qr_scan", "android": "https://dc.lft.to/lastmile_qr_scan"}, "lon": -77.00851783333333, "type": "electric_scooter", "fusion_lat": 0.0, "lat": 38.904866, "name": "00ae8382f2bbd781f87233bdb1f06f70", "fusion_lon": 0.0, "bike_id": "00ae8382f2bbd781f87233bdb1f06f70", "is_disabled": 0, "is_reserved": 0}, {"rental_uris": {"ios": "https://dc.lft.to/lastmile_qr_scan", "android": "https://dc.lft.to/lastmile_qr_scan"}, "lon": -76.9518215, "type": "electric_scooter", "fusion_lat": 0.0, "lat": 38.891328, "name": "9d445f36da65ac562c074ce60a1c3400", "fusion_lon": 0.0, "bike_id": "9d445f36da65ac562c074ce60a1c3400", "is_disabled": 0, "is_reserved": 0}, {"rental_uris": {"ios": "https://dc.lft.to/lastmile_qr_scan", "android": "https://dc.lft.to/lastmile_qr_scan"}, "lon": -77.03435466666667, "type": "electric_scooter", "fusion_lat": 0.0, "lat": 38.918107666666664, "name": "6813f08d1f5ffb152a864cc0d932357d", "fusion_lon": 0.0, "bike_id": "6813f08d1f5ffb152a864cc0d932357d", "is_disabled": 0, "is_reserved": 0}, {"rental_uris": {"ios": "https://dc.lft.to/lastmile_qr_scan", "android": "https://dc.lft.to/lastmile_qr_scan"}, "lon": -77.04309233333333, "type": "electric_scooter", "fusion_lat": 0.0, "lat": 38.923671666666664, "name": "df7e40ad4b8cfcbead4e54b3f051cf26", "fusion_lon": 0.0, "bike_id": "df7e40ad4b8cfcbead4e54b3f051cf26", "is_disabled": 0, "is_reserved": 0}, {"rental_uris": {"ios": "https://dc.lft.to/lastmile_qr_scan", "android": "https://dc.lft.to/lastmile_qr_scan"}, "lon": -77.03227783333334, "type": "electric_scooter", "fusion_lat": 0.0, "lat": 38.914033833333335, "name": "0ac6bcf54aa816fc13d7ce99f685f1af", "fusion_lon": 0.0, "bike_id": "0ac6bcf54aa816fc13d7ce99f685f1af", "is_disabled": 0, "is_reserved": 0}, {"rental_uris": {"ios": "https://dc.lft.to/lastmile_qr_scan", "android": "https://dc.lft.to/lastmile_qr_scan"}, "lon": -77.0543675, "type": "electric_scooter", "fusion_lat": 0.0, "lat": 38.89607783333334, "name": "bf16709d52f5175ceda877433bf658ce", "fusion_lon": 0.0, "bike_id": "bf16709d52f5175ceda877433bf658ce", "is_disabled": 0, "is_reserved": 0}, {"rental_uris": {"ios": "https://dc.lft.to/lastmile_qr_scan", "android": "https://dc.lft.to/lastmile_qr_scan"}, "lon": -77.044107, "type": "electric_scooter", "fusion_lat": 0.0, "lat": 38.905811666666665, "name": "ad94b1479a771eb938b1dc6bade902cd", "fusion_lon": 0.0, "bike_id": "ad94b1479a771eb938b1dc6bade902cd", "is_disabled": 0, "is_reserved": 0}, {"rental_uris": {"ios": "https://dc.lft.to/lastmile_qr_scan", "android": "https://dc.lft.to/lastmile_qr_scan"}, "lon": -77.01128716666666, "type": "electric_scooter", "fusion_lat": 0.0, "lat": 38.90008616666667, "name": "e4ddb8837459834825bacd524864c55a", "fusion_lon": 0.0, "bike_id": "e4ddb8837459834825bacd524864c55a", "is_disabled": 0, "is_reserved": 0}, {"rental_uris": {"ios": "https://dc.lft.to/lastmile_qr_scan", "android": "https://dc.lft.to/lastmile_qr_scan"}, "lon": -76.98262366666667, "type": "electric_scooter", "fusion_lat": 0.0, "lat": 38.863508333333336, "name": "339f7cc6ddb8c15687841f393a723c92", "fusion_lon": 0.0, "bike_id": "339f7cc6ddb8c15687841f393a723c92", "is_disabled": 0, "is_reserved": 0}, {"rental_uris": {"ios": "https://dc.lft.to/lastmile_qr_scan", "android": "https://dc.lft.to/lastmile_qr_scan"}, "lon": -77.047998, "type": "electric_scooter", "fusion_lat": 0.0, "lat": 38.89372183333333, "name": "732e47236d7eddf3e2bdc7e98b481a4e", "fusion_lon": 0.0, "bike_id": "732e47236d7eddf3e2bdc7e98b481a4e", "is_disabled": 0, "is_reserved": 0}, {"rental_uris": {"ios": "https://dc.lft.to/lastmile_qr_scan", "android": "https://dc.lft.to/lastmile_qr_scan"}, "lon": -77.01650416666666, "type": "electric_scooter", "fusion_lat": 0.0, "lat": 38.953344333333334, "name": "6f17e8b260027199c9e4f758610dd892", "fusion_lon": 0.0, "bike_id": "6f17e8b260027199c9e4f758610dd892", "is_disabled": 0, "is_reserved": 0}, {"rental_uris": {"ios": "https://dc.lft.to/lastmile_qr_scan", "android": "https://dc.lft.to/lastmile_qr_scan"}, "lon": -77.02714316666666, "type": "electric_scooter", "fusion_lat": 0.0, "lat": 38.919652166666665, "name": "4d6df98a3379012fb87feb47be3c1a8d", "fusion_lon": 0.0, "bike_id": "4d6df98a3379012fb87feb47be3c1a8d", "is_disabled": 0, "is_reserved": 0}, {"rental_uris": {"ios": "https://dc.lft.to/lastmile_qr_scan", "android": "https://dc.lft.to/lastmile_qr_scan"}, "lon": -77.013395, "type": "electric_scooter", "fusion_lat": 0.0, "lat": 38.927256, "name": "9a4a0788caf73d049e811f9eaa1c8aeb", "fusion_lon": 0.0, "bike_id": "9a4a0788caf73d049e811f9eaa1c8aeb", "is_disabled": 0, "is_reserved": 0}, {"rental_uris": {"ios": "https://dc.lft.to/lastmile_qr_scan", "android": "https://dc.lft.to/lastmile_qr_scan"}, "lon": -76.9937865, "type": "electric_scooter", "fusion_lat": 0.0, "lat": 38.897418, "name": "35ca95e43709b714927e54880c2481fc", "fusion_lon": 0.0, "bike_id": "35ca95e43709b714927e54880c2481fc", "is_disabled": 0, "is_reserved": 0}, {"rental_uris": {"ios": "https://dc.lft.to/lastmile_qr_scan", "android": "https://dc.lft.to/lastmile_qr_scan"}, "lon": -77.03200216666667, "type": "electric_scooter", "fusion_lat": 0.0, "lat": 38.917866333333336, "name": "3ff7002c1fef5dbdb85f2d9ad57245bc", "fusion_lon": 0.0, "bike_id": "3ff7002c1fef5dbdb85f2d9ad57245bc", "is_disabled": 0, "is_reserved": 0}, {"rental_uris": {"ios": "https://dc.lft.to/lastmile_qr_scan", "android": "https://dc.lft.to/lastmile_qr_scan"}, "lon": -77.12503133333334, "type": "electric_bike", "fusion_lat": 0.0, "lat": 39.02423133333333, "name": "6491b967692a29e7d3ce67244b772baf", "fusion_lon": 0.0, "bike_id": "6491b967692a29e7d3ce67244b772baf", "is_disabled": 0, "is_reserved": 0}, {"rental_uris": {"ios": "https://dc.lft.to/lastmile_qr_scan", "android": "https://dc.lft.to/lastmile_qr_scan"}, "lon": -77.02645133333333, "type": "electric_scooter", "fusion_lat": 0.0, "lat": 38.898506166666664, "name": "fbe268b8a8661c543801aa8b2dc1f699", "fusion_lon": 0.0, "bike_id": "fbe268b8a8661c543801aa8b2dc1f699", "is_disabled": 0, "is_reserved": 0}, {"rental_uris": {"ios": "https://dc.lft.to/lastmile_qr_scan", "android": "https://dc.lft.to/lastmile_qr_scan"}, "lon": -77.05502066666666, "type": "electric_scooter", "fusion_lat": 0.0, "lat": 38.929798166666664, "name": "93d5073b275fcfb62262836919e0b267", "fusion_lon": 0.0, "bike_id": "93d5073b275fcfb62262836919e0b267", "is_disabled": 0, "is_reserved": 0}, {"rental_uris": {"ios": "https://dc.lft.to/lastmile_qr_scan", "android": "https://dc.lft.to/lastmile_qr_scan"}, "lon": -77.03078783333333, "type": "electric_scooter", "fusion_lat": 0.0, "lat": 38.907508, "name": "4eed8ee2e2eb583f37ce98a0bf799548", "fusion_lon": 0.0, "bike_id": "4eed8ee2e2eb583f37ce98a0bf799548", "is_disabled": 0, "is_reserved": 0}, {"rental_uris": {"ios": "https://dc.lft.to/lastmile_qr_scan", "android": "https://dc.lft.to/lastmile_qr_scan"}, "lon": -77.0322845, "type": "electric_scooter", "fusion_lat": 0.0, "lat": 38.9140555, "name": "dc45a95b7541aecfa11d347a324cbf07", "fusion_lon": 0.0, "bike_id": "dc45a95b7541aecfa11d347a324cbf07", "is_disabled": 0, "is_reserved": 0}, {"rental_uris": {"ios": "https://dc.lft.to/lastmile_qr_scan", "android": "https://dc.lft.to/lastmile_qr_scan"}, "lon": -76.95752433333334, "type": "electric_scooter", "fusion_lat": 0.0, "lat": 38.8842655, "name": "aabe6637f3de2fe7f033321dfc629d0e", "fusion_lon": 0.0, "bike_id": "aabe6637f3de2fe7f033321dfc629d0e", "is_disabled": 0, "is_reserved": 0}, {"rental_uris": {"ios": "https://dc.lft.to/lastmile_qr_scan", "android": "https://dc.lft.to/lastmile_qr_scan"}, "lon": -77.03087433333333, "type": "electric_scooter", "fusion_lat": 0.0, "lat": 38.917022833333334, "name": "6c0aa5e003c2d662a17dead564a55381", "fusion_lon": 0.0, "bike_id": "6c0aa5e003c2d662a17dead564a55381", "is_disabled": 0, "is_reserved": 0}, {"rental_uris": {"ios": "https://dc.lft.to/lastmile_qr_scan", "android": "https://dc.lft.to/lastmile_qr_scan"}, "lon": -76.96503533333333, "type": "electric_scooter", "fusion_lat": 0.0, "lat": 38.87646816666667, "name": "4d6d8078592b84ef3a9cf244857dac51", "fusion_lon": 0.0, "bike_id": "4d6d8078592b84ef3a9cf244857dac51", "is_disabled": 0, "is_reserved": 0}, {"rental_uris": {"ios": "https://dc.lft.to/lastmile_qr_scan", "android": "https://dc.lft.to/lastmile_qr_scan"}, "lon": -77.15265716666667, "type": "electric_bike", "fusion_lat": 0.0, "lat": 39.105650833333335, "name": "e713cce09aeab07a7a058adc73863f16", "fusion_lon": 0.0, "bike_id": "e713cce09aeab07a7a058adc73863f16", "is_disabled": 0, "is_reserved": 0}, {"rental_uris": {"ios": "https://dc.lft.to/lastmile_qr_scan", "android": "https://dc.lft.to/lastmile_qr_scan"}, "lon": -76.9832865, "type": "electric_scooter", "fusion_lat": 0.0, "lat": 38.86170533333333, "name": "94a0522da88a29328f268fcafbd7fe55", "fusion_lon": 0.0, "bike_id": "94a0522da88a29328f268fcafbd7fe55", "is_disabled": 0, "is_reserved": 0}, {"rental_uris": {"ios": "https://dc.lft.to/lastmile_qr_scan", "android": "https://dc.lft.to/lastmile_qr_scan"}, "lon": -76.99615233333333, "type": "electric_scooter", "fusion_lat": 0.0, "lat": 38.884378, "name": "04394b09688b9d6a54dd38ff4af42936", "fusion_lon": 0.0, "bike_id": "04394b09688b9d6a54dd38ff4af42936", "is_disabled": 0, "is_reserved": 0}, {"rental_uris": {"ios": "https://dc.lft.to/lastmile_qr_scan", "android": "https://dc.lft.to/lastmile_qr_scan"}, "lon": -76.95752316666666, "type": "electric_scooter", "fusion_lat": 0.0, "lat": 38.8842815, "name": "080a2344b69d924e28cc12af5b40e7df", "fusion_lon": 0.0, "bike_id": "080a2344b69d924e28cc12af5b40e7df", "is_disabled": 0, "is_reserved": 0}, {"rental_uris": {"ios": "https://dc.lft.to/lastmile_qr_scan", "android": "https://dc.lft.to/lastmile_qr_scan"}, "lon": -76.93798366666667, "type": "electric_scooter", "fusion_lat": 0.0, "lat": 38.89086, "name": "d84ea8dd63c71c9101d4edd598fe648a", "fusion_lon": 0.0, "bike_id": "d84ea8dd63c71c9101d4edd598fe648a", "is_disabled": 0, "is_reserved": 0}, {"rental_uris": {"ios": "https://dc.lft.to/lastmile_qr_scan", "android": "https://dc.lft.to/lastmile_qr_scan"}, "lon": -77.03532383333334, "type": "electric_scooter", "fusion_lat": 0.0, "lat": 38.914859166666666, "name": "b048ba85c12bb802ce379d19420ae6f3", "fusion_lon": 0.0, "bike_id": "b048ba85c12bb802ce379d19420ae6f3", "is_disabled": 0, "is_reserved": 0}, {"rental_uris": {"ios": "https://dc.lft.to/lastmile_qr_scan", "android": "https://dc.lft.to/lastmile_qr_scan"}, "lon": -77.03194983333333, "type": "electric_scooter", "fusion_lat": 0.0, "lat": 38.9306755, "name": "4efdbeba7e80f8c6e3eccb8e2c0b6c15", "fusion_lon": 0.0, "bike_id": "4efdbeba7e80f8c6e3eccb8e2c0b6c15", "is_disabled": 0, "is_reserved": 0}, {"rental_uris": {"ios": "https://dc.lft.to/lastmile_qr_scan", "android": "https://dc.lft.to/lastmile_qr_scan"}, "lon": -77.02293983333334, "type": "electric_scooter", "fusion_lat": 0.0, "lat": 38.916773166666665, "name": "35de8a59801eee675bc40799b4faf6a0", "fusion_lon": 0.0, "bike_id": "35de8a59801eee675bc40799b4faf6a0", "is_disabled": 0, "is_reserved": 0}, {"rental_uris": {"ios": "https://dc.lft.to/lastmile_qr_scan", "android": "https://dc.lft.to/lastmile_qr_scan"}, "lon": -77.03566733333334, "type": "electric_scooter", "fusion_lat": 0.0, "lat": 38.939758166666664, "name": "600c8731ce3e1f58fcd63465e177bd6e", "fusion_lon": 0.0, "bike_id": "600c8731ce3e1f58fcd63465e177bd6e", "is_disabled": 0, "is_reserved": 0}, {"rental_uris": {"ios": "https://dc.lft.to/lastmile_qr_scan", "android": "https://dc.lft.to/lastmile_qr_scan"}, "lon": -76.99461266666667, "type": "electric_scooter", "fusion_lat": 0.0, "lat": 38.851623000000004, "name": "3d641553da30e225776c66823a9c6514", "fusion_lon": 0.0, "bike_id": "3d641553da30e225776c66823a9c6514", "is_disabled": 0, "is_reserved": 0}, {"rental_uris": {"ios": "https://dc.lft.to/lastmile_qr_scan", "android": "https://dc.lft.to/lastmile_qr_scan"}, "lon": -76.94820133333333, "type": "electric_scooter", "fusion_lat": 0.0, "lat": 38.8840945, "name": "59b662434d6574be06092fe30991e822", "fusion_lon": 0.0, "bike_id": "59b662434d6574be06092fe30991e822", "is_disabled": 0, "is_reserved": 0}, {"rental_uris": {"ios": "https://dc.lft.to/lastmile_qr_scan", "android": "https://dc.lft.to/lastmile_qr_scan"}, "lon": -77.08049633333333, "type": "electric_bike", "fusion_lat": 0.0, "lat": 38.848416, "name": "bfc1466663eb8e6f3bed80319add92d6", "fusion_lon": 0.0, "bike_id": "bfc1466663eb8e6f3bed80319add92d6", "is_disabled": 0, "is_reserved": 0}, {"rental_uris": {"ios": "https://dc.lft.to/lastmile_qr_scan", "android": "https://dc.lft.to/lastmile_qr_scan"}, "lon": -77.0599375, "type": "electric_scooter", "fusion_lat": 0.0, "lat": 38.90514783333333, "name": "93941b37cacb49571234dbc6f8f94457", "fusion_lon": 0.0, "bike_id": "93941b37cacb49571234dbc6f8f94457", "is_disabled": 0, "is_reserved": 0}, {"rental_uris": {"ios": "https://dc.lft.to/lastmile_qr_scan", "android": "https://dc.lft.to/lastmile_qr_scan"}, "lon": -76.98611966666667, "type": "electric_scooter", "fusion_lat": 0.0, "lat": 38.87839433333333, "name": "181c1b7c23337d6a45a47c188216449e", "fusion_lon": 0.0, "bike_id": "181c1b7c23337d6a45a47c188216449e", "is_disabled": 0, "is_reserved": 0}, {"rental_uris": {"ios": "https://dc.lft.to/lastmile_qr_scan", "android": "https://dc.lft.to/lastmile_qr_scan"}, "lon": -76.956771, "type": "electric_bike", "fusion_lat": 0.0, "lat": 38.94729133333333, "name": "1c6c5eb84aa18b27dc224155cbbe8338", "fusion_lon": 0.0, "bike_id": "1c6c5eb84aa18b27dc224155cbbe8338", "is_disabled": 0, "is_reserved": 0}, {"rental_uris": {"ios": "https://dc.lft.to/lastmile_qr_scan", "android": "https://dc.lft.to/lastmile_qr_scan"}, "lon": -76.98748966666666, "type": "electric_scooter", "fusion_lat": 0.0, "lat": 38.91015816666667, "name": "76b959a6396ae0dbb84250413eb68390", "fusion_lon": 0.0, "bike_id": "76b959a6396ae0dbb84250413eb68390", "is_disabled": 0, "is_reserved": 0}, {"rental_uris": {"ios": "https://dc.lft.to/lastmile_qr_scan", "android": "https://dc.lft.to/lastmile_qr_scan"}, "lon": -77.03127183333334, "type": "electric_scooter", "fusion_lat": 0.0, "lat": 38.912767, "name": "00ce1733a30e60df6b7a6bea264903ea", "fusion_lon": 0.0, "bike_id": "00ce1733a30e60df6b7a6bea264903ea", "is_disabled": 0, "is_reserved": 0}, {"rental_uris": {"ios": "https://dc.lft.to/lastmile_qr_scan", "android": "https://dc.lft.to/lastmile_qr_scan"}, "lon": -77.05541816666667, "type": "electric_scooter", "fusion_lat": 0.0, "lat": 38.92527116666667, "name": "f0c9044d761e2b719da9a762eb82f9ee", "fusion_lon": 0.0, "bike_id": "f0c9044d761e2b719da9a762eb82f9ee", "is_disabled": 0, "is_reserved": 0}, {"rental_uris": {"ios": "https://dc.lft.to/lastmile_qr_scan", "android": "https://dc.lft.to/lastmile_qr_scan"}, "lon": -77.029416, "type": "electric_scooter", "fusion_lat": 0.0, "lat": 38.91725116666667, "name": "9bc753f3c392e3a199a22bfe772d9558", "fusion_lon": 0.0, "bike_id": "9bc753f3c392e3a199a22bfe772d9558", "is_disabled": 0, "is_reserved": 0}, {"rental_uris": {"ios": "https://dc.lft.to/lastmile_qr_scan", "android": "https://dc.lft.to/lastmile_qr_scan"}, "lon": -76.93961683333333, "type": "electric_scooter", "fusion_lat": 0.0, "lat": 38.899666333333336, "name": "751fc3a305c7179a94fa0badb31a2cd3", "fusion_lon": 0.0, "bike_id": "751fc3a305c7179a94fa0badb31a2cd3", "is_disabled": 0, "is_reserved": 0}, {"rental_uris": {"ios": "https://dc.lft.to/lastmile_qr_scan", "android": "https://dc.lft.to/lastmile_qr_scan"}, "lon": -76.974092, "type": "electric_scooter", "fusion_lat": 0.0, "lat": 38.90238816666667, "name": "23c3db9d3cc4bf31a6c0b3d88b370375", "fusion_lon": 0.0, "bike_id": "23c3db9d3cc4bf31a6c0b3d88b370375", "is_disabled": 0, "is_reserved": 0}, {"rental_uris": {"ios": "https://dc.lft.to/lastmile_qr_scan", "android": "https://dc.lft.to/lastmile_qr_scan"}, "lon": -77.023741, "type": "electric_scooter", "fusion_lat": 0.0, "lat": 38.899128833333336, "name": "eaa8fe47066d3ad388aa599488ee348c", "fusion_lon": 0.0, "bike_id": "eaa8fe47066d3ad388aa599488ee348c", "is_disabled": 0, "is_reserved": 0}, {"rental_uris": {"ios": "https://dc.lft.to/lastmile_qr_scan", "android": "https://dc.lft.to/lastmile_qr_scan"}, "lon": -77.03410566666666, "type": "electric_scooter", "fusion_lat": 0.0, "lat": 38.924253666666665, "name": "870166fbfc12bd04140c5a928a477bc7", "fusion_lon": 0.0, "bike_id": "870166fbfc12bd04140c5a928a477bc7", "is_disabled": 0, "is_reserved": 0}, {"rental_uris": {"ios": "https://dc.lft.to/lastmile_qr_scan", "android": "https://dc.lft.to/lastmile_qr_scan"}, "lon": -77.0473105, "type": "electric_scooter", "fusion_lat": 0.0, "lat": 38.9028855, "name": "5ca44753b6a2ed89b5e48a9249a329ef", "fusion_lon": 0.0, "bike_id": "5ca44753b6a2ed89b5e48a9249a329ef", "is_disabled": 0, "is_reserved": 0}, {"rental_uris": {"ios": "https://dc.lft.to/lastmile_qr_scan", "android": "https://dc.lft.to/lastmile_qr_scan"}, "lon": -76.99516033333333, "type": "electric_scooter", "fusion_lat": 0.0, "lat": 38.8625235, "name": "458588dc25d6a27614e51a128355c544", "fusion_lon": 0.0, "bike_id": "458588dc25d6a27614e51a128355c544", "is_disabled": 0, "is_reserved": 0}, {"rental_uris": {"ios": "https://dc.lft.to/lastmile_qr_scan", "android": "https://dc.lft.to/lastmile_qr_scan"}, "lon": -76.93877666666667, "type": "electric_scooter", "fusion_lat": 0.0, "lat": 38.89104783333333, "name": "f2ce33a585dd4fb2d3add04fc6225981", "fusion_lon": 0.0, "bike_id": "f2ce33a585dd4fb2d3add04fc6225981", "is_disabled": 0, "is_reserved": 0}, {"rental_uris": {"ios": "https://dc.lft.to/lastmile_qr_scan", "android": "https://dc.lft.to/lastmile_qr_scan"}, "lon": -76.9575805, "type": "electric_scooter", "fusion_lat": 0.0, "lat": 38.884243833333336, "name": "17ca0e81a014bc224f8bfd5e38a77e8b", "fusion_lon": 0.0, "bike_id": "17ca0e81a014bc224f8bfd5e38a77e8b", "is_disabled": 0, "is_reserved": 0}, {"rental_uris": {"ios": "https://dc.lft.to/lastmile_qr_scan", "android": "https://dc.lft.to/lastmile_qr_scan"}, "lon": -76.9287795, "type": "electric_scooter", "fusion_lat": 0.0, "lat": 38.88444716666667, "name": "a3f5d93f3e68b35dab7168cba86fd8c4", "fusion_lon": 0.0, "bike_id": "a3f5d93f3e68b35dab7168cba86fd8c4", "is_disabled": 0, "is_reserved": 0}, {"rental_uris": {"ios": "https://dc.lft.to/lastmile_qr_scan", "android": "https://dc.lft.to/lastmile_qr_scan"}, "lon": -77.00334416666666, "type": "electric_scooter", "fusion_lat": 0.0, "lat": 38.9072015, "name": "5a89f4abb5f4fd1b15658730419c6a57", "fusion_lon": 0.0, "bike_id": "5a89f4abb5f4fd1b15658730419c6a57", "is_disabled": 0, "is_reserved": 0}, {"rental_uris": {"ios": "https://dc.lft.to/lastmile_qr_scan", "android": "https://dc.lft.to/lastmile_qr_scan"}, "lon": -77.04036333333333, "type": "electric_scooter", "fusion_lat": 0.0, "lat": 38.92470566666667, "name": "3cc2a4aa56090a1aaec08d1c9f92b941", "fusion_lon": 0.0, "bike_id": "3cc2a4aa56090a1aaec08d1c9f92b941", "is_disabled": 0, "is_reserved": 0}, {"rental_uris": {"ios": "https://dc.lft.to/lastmile_qr_scan", "android": "https://dc.lft.to/lastmile_qr_scan"}, "lon": -77.04507733333334, "type": "electric_scooter", "fusion_lat": 0.0, "lat": 38.907383, "name": "69530dae0f0f1ae86ea095cf1f18808f", "fusion_lon": 0.0, "bike_id": "69530dae0f0f1ae86ea095cf1f18808f", "is_disabled": 0, "is_reserved": 0}, {"rental_uris": {"ios": "https://dc.lft.to/lastmile_qr_scan", "android": "https://dc.lft.to/lastmile_qr_scan"}, "lon": -76.98022516666667, "type": "electric_scooter", "fusion_lat": 0.0, "lat": 38.887665166666665, "name": "670338bac8fa0f092fa01d4597df6539", "fusion_lon": 0.0, "bike_id": "670338bac8fa0f092fa01d4597df6539", "is_disabled": 0, "is_reserved": 0}, {"rental_uris": {"ios": "https://dc.lft.to/lastmile_qr_scan", "android": "https://dc.lft.to/lastmile_qr_scan"}, "lon": -77.025734, "type": "electric_scooter", "fusion_lat": 0.0, "lat": 38.88747516666667, "name": "4eb9b28e4a297cbdd87a3e50495c0f1d", "fusion_lon": 0.0, "bike_id": "4eb9b28e4a297cbdd87a3e50495c0f1d", "is_disabled": 0, "is_reserved": 0}, {"rental_uris": {"ios": "https://dc.lft.to/lastmile_qr_scan", "android": "https://dc.lft.to/lastmile_qr_scan"}, "lon": -77.07207633333333, "type": "electric_scooter", "fusion_lat": 0.0, "lat": 38.93474916666667, "name": "4a492f7e80371e47950d481a6bb09f86", "fusion_lon": 0.0, "bike_id": "4a492f7e80371e47950d481a6bb09f86", "is_disabled": 0, "is_reserved": 0}, {"rental_uris": {"ios": "https://dc.lft.to/lastmile_qr_scan", "android": "https://dc.lft.to/lastmile_qr_scan"}, "lon": -77.0260705, "type": "electric_scooter", "fusion_lat": 0.0, "lat": 38.916716, "name": "acc2d485033fc3724dedc15adb68e713", "fusion_lon": 0.0, "bike_id": "acc2d485033fc3724dedc15adb68e713", "is_disabled": 0, "is_reserved": 0}, {"rental_uris": {"ios": "https://dc.lft.to/lastmile_qr_scan", "android": "https://dc.lft.to/lastmile_qr_scan"}, "lon": -77.05919283333333, "type": "electric_scooter", "fusion_lat": 0.0, "lat": 38.904480166666666, "name": "35a8e2df902c9985620aa2d6136cc6c0", "fusion_lon": 0.0, "bike_id": "35a8e2df902c9985620aa2d6136cc6c0", "is_disabled": 0, "is_reserved": 0}, {"rental_uris": {"ios": "https://dc.lft.to/lastmile_qr_scan", "android": "https://dc.lft.to/lastmile_qr_scan"}, "lon": -77.04622383333333, "type": "electric_scooter", "fusion_lat": 0.0, "lat": 38.91631866666667, "name": "74050ba07187d5b6f594acb74e11d887", "fusion_lon": 0.0, "bike_id": "74050ba07187d5b6f594acb74e11d887", "is_disabled": 0, "is_reserved": 0}, {"rental_uris": {"ios": "https://dc.lft.to/lastmile_qr_scan", "android": "https://dc.lft.to/lastmile_qr_scan"}, "lon": -77.025259, "type": "electric_scooter", "fusion_lat": 0.0, "lat": 38.9429835, "name": "fedda63179bd895f6567411310e34adb", "fusion_lon": 0.0, "bike_id": "fedda63179bd895f6567411310e34adb", "is_disabled": 0, "is_reserved": 0}, {"rental_uris": {"ios": "https://dc.lft.to/lastmile_qr_scan", "android": "https://dc.lft.to/lastmile_qr_scan"}, "lon": -77.0198835, "type": "electric_scooter", "fusion_lat": 0.0, "lat": 38.877491, "name": "139cbdb8277663d10715fb97b493704e", "fusion_lon": 0.0, "bike_id": "139cbdb8277663d10715fb97b493704e", "is_disabled": 0, "is_reserved": 0}, {"rental_uris": {"ios": "https://dc.lft.to/lastmile_qr_scan", "android": "https://dc.lft.to/lastmile_qr_scan"}, "lon": -77.04302566666667, "type": "electric_bike", "fusion_lat": 0.0, "lat": 39.054432, "name": "773d429be1b4d9edc4ab3336ed33336f", "fusion_lon": 0.0, "bike_id": "773d429be1b4d9edc4ab3336ed33336f", "is_disabled": 0, "is_reserved": 0}, {"rental_uris": {"ios": "https://dc.lft.to/lastmile_qr_scan", "android": "https://dc.lft.to/lastmile_qr_scan"}, "lon": -76.95357216666666, "type": "electric_bike", "fusion_lat": 0.0, "lat": 38.939529666666665, "name": "e0dcc49f8a3b3caf4b75a1c038e88e60", "fusion_lon": 0.0, "bike_id": "e0dcc49f8a3b3caf4b75a1c038e88e60", "is_disabled": 0, "is_reserved": 0}, {"rental_uris": {"ios": "https://dc.lft.to/lastmile_qr_scan", "android": "https://dc.lft.to/lastmile_qr_scan"}, "lon": -76.98900316666666, "type": "electric_scooter", "fusion_lat": 0.0, "lat": 38.86691916666667, "name": "1cc06cabcb8a79a9a2b2fa78bb822482", "fusion_lon": 0.0, "bike_id": "1cc06cabcb8a79a9a2b2fa78bb822482", "is_disabled": 0, "is_reserved": 0}, {"rental_uris": {"ios": "https://dc.lft.to/lastmile_qr_scan", "android": "https://dc.lft.to/lastmile_qr_scan"}, "lon": -77.17845, "type": "electric_bike", "fusion_lat": 0.0, "lat": 39.08857066666667, "name": "b0d91414d7f9a226587003d51a28ccd9", "fusion_lon": 0.0, "bike_id": "b0d91414d7f9a226587003d51a28ccd9", "is_disabled": 0, "is_reserved": 0}, {"rental_uris": {"ios": "https://dc.lft.to/lastmile_qr_scan", "android": "https://dc.lft.to/lastmile_qr_scan"}, "lon": -77.02704833333334, "type": "electric_scooter", "fusion_lat": 0.0, "lat": 38.94999283333333, "name": "b3f15e96753c0f1ad521133bd2d87fb5", "fusion_lon": 0.0, "bike_id": "b3f15e96753c0f1ad521133bd2d87fb5", "is_disabled": 0, "is_reserved": 0}, {"rental_uris": {"ios": "https://dc.lft.to/lastmile_qr_scan", "android": "https://dc.lft.to/lastmile_qr_scan"}, "lon": -77.05147283333334, "type": "electric_scooter", "fusion_lat": 0.0, "lat": 38.92370916666667, "name": "217cd895d641385786fdc7190d7a30fc", "fusion_lon": 0.0, "bike_id": "217cd895d641385786fdc7190d7a30fc", "is_disabled": 0, "is_reserved": 0}, {"rental_uris": {"ios": "https://dc.lft.to/lastmile_qr_scan", "android": "https://dc.lft.to/lastmile_qr_scan"}, "lon": -77.03585483333333, "type": "electric_scooter", "fusion_lat": 0.0, "lat": 38.90772483333333, "name": "e06b8b4a7d5ebe12240085cd450a0871", "fusion_lon": 0.0, "bike_id": "e06b8b4a7d5ebe12240085cd450a0871", "is_disabled": 0, "is_reserved": 0}, {"rental_uris": {"ios": "https://dc.lft.to/lastmile_qr_scan", "android": "https://dc.lft.to/lastmile_qr_scan"}, "lon": -77.0427755, "type": "electric_scooter", "fusion_lat": 0.0, "lat": 38.91785466666666, "name": "e97b4405a531f608da647dd1cf744035", "fusion_lon": 0.0, "bike_id": "e97b4405a531f608da647dd1cf744035", "is_disabled": 0, "is_reserved": 0}, {"rental_uris": {"ios": "https://dc.lft.to/lastmile_qr_scan", "android": "https://dc.lft.to/lastmile_qr_scan"}, "lon": -77.05884933333333, "type": "electric_scooter", "fusion_lat": 0.0, "lat": 38.9363475, "name": "9233f197c0fd83373485da2f507d4607", "fusion_lon": 0.0, "bike_id": "9233f197c0fd83373485da2f507d4607", "is_disabled": 0, "is_reserved": 0}, {"rental_uris": {"ios": "https://dc.lft.to/lastmile_qr_scan", "android": "https://dc.lft.to/lastmile_qr_scan"}, "lon": -77.04737766666666, "type": "electric_scooter", "fusion_lat": 0.0, "lat": 38.912833666666664, "name": "a43871fe3b31fc6ac6e52ae5801d0e55", "fusion_lon": 0.0, "bike_id": "a43871fe3b31fc6ac6e52ae5801d0e55", "is_disabled": 0, "is_reserved": 0}, {"rental_uris": {"ios": "https://dc.lft.to/lastmile_qr_scan", "android": "https://dc.lft.to/lastmile_qr_scan"}, "lon": -76.98686266666667, "type": "electric_scooter", "fusion_lat": 0.0, "lat": 38.88207883333333, "name": "8c449d4e20e1a3507884ad82ccd6db44", "fusion_lon": 0.0, "bike_id": "8c449d4e20e1a3507884ad82ccd6db44", "is_disabled": 0, "is_reserved": 0}, {"rental_uris": {"ios": "https://dc.lft.to/lastmile_qr_scan", "android": "https://dc.lft.to/lastmile_qr_scan"}, "lon": -76.97960716666667, "type": "electric_scooter", "fusion_lat": 0.0, "lat": 38.90380783333333, "name": "ef70aa1c5f73a3bf83d4f689091f29a9", "fusion_lon": 0.0, "bike_id": "ef70aa1c5f73a3bf83d4f689091f29a9", "is_disabled": 0, "is_reserved": 0}, {"rental_uris": {"ios": "https://dc.lft.to/lastmile_qr_scan", "android": "https://dc.lft.to/lastmile_qr_scan"}, "lon": -77.0029465, "type": "electric_scooter", "fusion_lat": 0.0, "lat": 38.89487616666667, "name": "3fa019be08c68bdfbdb341334be8b277", "fusion_lon": 0.0, "bike_id": "3fa019be08c68bdfbdb341334be8b277", "is_disabled": 0, "is_reserved": 0}, {"rental_uris": {"ios": "https://dc.lft.to/lastmile_qr_scan", "android": "https://dc.lft.to/lastmile_qr_scan"}, "lon": -77.02957633333334, "type": "electric_scooter", "fusion_lat": 0.0, "lat": 38.9160245, "name": "4fd7c715353471cfbc443163377d1e00", "fusion_lon": 0.0, "bike_id": "4fd7c715353471cfbc443163377d1e00", "is_disabled": 0, "is_reserved": 0}, {"rental_uris": {"ios": "https://dc.lft.to/lastmile_qr_scan", "android": "https://dc.lft.to/lastmile_qr_scan"}, "lon": -77.03118316666666, "type": "electric_scooter", "fusion_lat": 0.0, "lat": 38.91342, "name": "1157941a00d4e5397bd85b4206ead700", "fusion_lon": 0.0, "bike_id": "1157941a00d4e5397bd85b4206ead700", "is_disabled": 0, "is_reserved": 0}, {"rental_uris": {"ios": "https://dc.lft.to/lastmile_qr_scan", "android": "https://dc.lft.to/lastmile_qr_scan"}, "lon": -77.0326565, "type": "electric_scooter", "fusion_lat": 0.0, "lat": 38.947836, "name": "6dc8decf3a679fbc1b463265255552f6", "fusion_lon": 0.0, "bike_id": "6dc8decf3a679fbc1b463265255552f6", "is_disabled": 0, "is_reserved": 0}, {"rental_uris": {"ios": "https://dc.lft.to/lastmile_qr_scan", "android": "https://dc.lft.to/lastmile_qr_scan"}, "lon": -77.063009, "type": "electric_scooter", "fusion_lat": 0.0, "lat": 38.9133065, "name": "f6087547062d377e1d90c539639d5c38", "fusion_lon": 0.0, "bike_id": "f6087547062d377e1d90c539639d5c38", "is_disabled": 0, "is_reserved": 0}, {"rental_uris": {"ios": "https://dc.lft.to/lastmile_qr_scan", "android": "https://dc.lft.to/lastmile_qr_scan"}, "lon": -77.0213705, "type": "electric_scooter", "fusion_lat": 0.0, "lat": 38.931087166666664, "name": "ce369ab971d424ff6295e676dbc9bbd4", "fusion_lon": 0.0, "bike_id": "ce369ab971d424ff6295e676dbc9bbd4", "is_disabled": 0, "is_reserved": 0}, {"rental_uris": {"ios": "https://dc.lft.to/lastmile_qr_scan", "android": "https://dc.lft.to/lastmile_qr_scan"}, "lon": -77.03333666666667, "type": "electric_scooter", "fusion_lat": 0.0, "lat": 38.91806316666667, "name": "a323bb80dc0e5e5e82e2dd457691ad80", "fusion_lon": 0.0, "bike_id": "a323bb80dc0e5e5e82e2dd457691ad80", "is_disabled": 0, "is_reserved": 0}, {"rental_uris": {"ios": "https://dc.lft.to/lastmile_qr_scan", "android": "https://dc.lft.to/lastmile_qr_scan"}, "lon": -77.00498266666666, "type": "electric_scooter", "fusion_lat": 0.0, "lat": 38.87895666666667, "name": "6375fb36299f57299771b77c46feec78", "fusion_lon": 0.0, "bike_id": "6375fb36299f57299771b77c46feec78", "is_disabled": 0, "is_reserved": 0}, {"rental_uris": {"ios": "https://dc.lft.to/lastmile_qr_scan", "android": "https://dc.lft.to/lastmile_qr_scan"}, "lon": -76.99501933333333, "type": "electric_scooter", "fusion_lat": 0.0, "lat": 38.88625916666667, "name": "98727c5722aa07c29f25c7d00470ff1e", "fusion_lon": 0.0, "bike_id": "98727c5722aa07c29f25c7d00470ff1e", "is_disabled": 0, "is_reserved": 0}, {"rental_uris": {"ios": "https://dc.lft.to/lastmile_qr_scan", "android": "https://dc.lft.to/lastmile_qr_scan"}, "lon": -77.04171783333334, "type": "electric_scooter", "fusion_lat": 0.0, "lat": 38.91897216666667, "name": "09ba57b4ee476bc0858368c7f2fdc7c4", "fusion_lon": 0.0, "bike_id": "09ba57b4ee476bc0858368c7f2fdc7c4", "is_disabled": 0, "is_reserved": 0}, {"rental_uris": {"ios": "https://dc.lft.to/lastmile_qr_scan", "android": "https://dc.lft.to/lastmile_qr_scan"}, "lon": -76.99844566666667, "type": "electric_bike", "fusion_lat": 0.0, "lat": 38.8391465, "name": "37e9671dfee88c731c0501c6b29220ab", "fusion_lon": 0.0, "bike_id": "37e9671dfee88c731c0501c6b29220ab", "is_disabled": 0, "is_reserved": 0}, {"rental_uris": {"ios": "https://dc.lft.to/lastmile_qr_scan", "android": "https://dc.lft.to/lastmile_qr_scan"}, "lon": -76.9588555, "type": "electric_scooter", "fusion_lat": 0.0, "lat": 38.858461166666665, "name": "f64c79b40b8bac21c32af9114b39205b", "fusion_lon": 0.0, "bike_id": "f64c79b40b8bac21c32af9114b39205b", "is_disabled": 0, "is_reserved": 0}, {"rental_uris": {"ios": "https://dc.lft.to/lastmile_qr_scan", "android": "https://dc.lft.to/lastmile_qr_scan"}, "lon": -77.04340166666667, "type": "electric_scooter", "fusion_lat": 0.0, "lat": 38.927882, "name": "492a3bacde0630c330e2a90e5f074ed5", "fusion_lon": 0.0, "bike_id": "492a3bacde0630c330e2a90e5f074ed5", "is_disabled": 0, "is_reserved": 0}, {"rental_uris": {"ios": "https://dc.lft.to/lastmile_qr_scan", "android": "https://dc.lft.to/lastmile_qr_scan"}, "lon": -76.9575965, "type": "electric_scooter", "fusion_lat": 0.0, "lat": 38.886885666666664, "name": "113bf176391cc86925f6767ecce7225c", "fusion_lon": 0.0, "bike_id": "113bf176391cc86925f6767ecce7225c", "is_disabled": 0, "is_reserved": 0}, {"rental_uris": {"ios": "https://dc.lft.to/lastmile_qr_scan", "android": "https://dc.lft.to/lastmile_qr_scan"}, "lon": -76.98018483333334, "type": "electric_scooter", "fusion_lat": 0.0, "lat": 38.90379566666667, "name": "5908073b9b1958fbfa70420f5bc51068", "fusion_lon": 0.0, "bike_id": "5908073b9b1958fbfa70420f5bc51068", "is_disabled": 0, "is_reserved": 0}, {"rental_uris": {"ios": "https://dc.lft.to/lastmile_qr_scan", "android": "https://dc.lft.to/lastmile_qr_scan"}, "lon": -77.01151916666667, "type": "electric_bike", "fusion_lat": 0.0, "lat": 38.91182383333334, "name": "e87c33dfdc994789c0d72ca63ba185aa", "fusion_lon": 0.0, "bike_id": "e87c33dfdc994789c0d72ca63ba185aa", "is_disabled": 0, "is_reserved": 0}, {"rental_uris": {"ios": "https://dc.lft.to/lastmile_qr_scan", "android": "https://dc.lft.to/lastmile_qr_scan"}, "lon": -77.02487116666667, "type": "electric_scooter", "fusion_lat": 0.0, "lat": 38.89726066666667, "name": "a1fd73802e448c5fa0774038c6f4c8f9", "fusion_lon": 0.0, "bike_id": "a1fd73802e448c5fa0774038c6f4c8f9", "is_disabled": 0, "is_reserved": 0}, {"rental_uris": {"ios": "https://dc.lft.to/lastmile_qr_scan", "android": "https://dc.lft.to/lastmile_qr_scan"}, "lon": -77.06534, "type": "electric_scooter", "fusion_lat": 0.0, "lat": 38.90477633333333, "name": "12583ada311ed9ce4318cf2011be44dd", "fusion_lon": 0.0, "bike_id": "12583ada311ed9ce4318cf2011be44dd", "is_disabled": 0, "is_reserved": 0}, {"rental_uris": {"ios": "https://dc.lft.to/lastmile_qr_scan", "android": "https://dc.lft.to/lastmile_qr_scan"}, "lon": -77.01372983333333, "type": "electric_scooter", "fusion_lat": 0.0, "lat": 38.89222783333334, "name": "1d839c0e1e590315405458e835caf809", "fusion_lon": 0.0, "bike_id": "1d839c0e1e590315405458e835caf809", "is_disabled": 0, "is_reserved": 0}, {"rental_uris": {"ios": "https://dc.lft.to/lastmile_qr_scan", "android": "https://dc.lft.to/lastmile_qr_scan"}, "lon": -77.032035, "type": "electric_scooter", "fusion_lat": 0.0, "lat": 38.909476166666664, "name": "bc1c641f92869ec135d9a62ffe3d39a2", "fusion_lon": 0.0, "bike_id": "bc1c641f92869ec135d9a62ffe3d39a2", "is_disabled": 0, "is_reserved": 0}, {"rental_uris": {"ios": "https://dc.lft.to/lastmile_qr_scan", "android": "https://dc.lft.to/lastmile_qr_scan"}, "lon": -77.06462283333333, "type": "electric_scooter", "fusion_lat": 0.0, "lat": 38.9104555, "name": "4179f1cf59e4afa36b91fb326421f35f", "fusion_lon": 0.0, "bike_id": "4179f1cf59e4afa36b91fb326421f35f", "is_disabled": 0, "is_reserved": 0}, {"rental_uris": {"ios": "https://dc.lft.to/lastmile_qr_scan", "android": "https://dc.lft.to/lastmile_qr_scan"}, "lon": -76.97822183333334, "type": "electric_scooter", "fusion_lat": 0.0, "lat": 38.89518266666666, "name": "babaa11dc758994197df0e3c42fa77ad", "fusion_lon": 0.0, "bike_id": "babaa11dc758994197df0e3c42fa77ad", "is_disabled": 0, "is_reserved": 0}, {"rental_uris": {"ios": "https://dc.lft.to/lastmile_qr_scan", "android": "https://dc.lft.to/lastmile_qr_scan"}, "lon": -77.01663516666666, "type": "electric_scooter", "fusion_lat": 0.0, "lat": 38.914006666666666, "name": "7e94e8d56c3538c0f24094c796cf02a7", "fusion_lon": 0.0, "bike_id": "7e94e8d56c3538c0f24094c796cf02a7", "is_disabled": 0, "is_reserved": 0}, {"rental_uris": {"ios": "https://dc.lft.to/lastmile_qr_scan", "android": "https://dc.lft.to/lastmile_qr_scan"}, "lon": -77.04168716666666, "type": "electric_scooter", "fusion_lat": 0.0, "lat": 38.919340166666665, "name": "b439f9e96dde062c101f33c92be42f1f", "fusion_lon": 0.0, "bike_id": "b439f9e96dde062c101f33c92be42f1f", "is_disabled": 0, "is_reserved": 0}, {"rental_uris": {"ios": "https://dc.lft.to/lastmile_qr_scan", "android": "https://dc.lft.to/lastmile_qr_scan"}, "lon": -77.01751716666666, "type": "electric_scooter", "fusion_lat": 0.0, "lat": 38.905607333333336, "name": "c3cfc095ce1b8d7e15e6967418225882", "fusion_lon": 0.0, "bike_id": "c3cfc095ce1b8d7e15e6967418225882", "is_disabled": 0, "is_reserved": 0}, {"rental_uris": {"ios": "https://dc.lft.to/lastmile_qr_scan", "android": "https://dc.lft.to/lastmile_qr_scan"}, "lon": -77.18290766666667, "type": "electric_bike", "fusion_lat": 0.0, "lat": 38.883407, "name": "0571089e8979a04ccf40fa30f960f6e4", "fusion_lon": 0.0, "bike_id": "0571089e8979a04ccf40fa30f960f6e4", "is_disabled": 0, "is_reserved": 0}, {"rental_uris": {"ios": "https://dc.lft.to/lastmile_qr_scan", "android": "https://dc.lft.to/lastmile_qr_scan"}, "lon": -76.99019566666666, "type": "electric_scooter", "fusion_lat": 0.0, "lat": 38.8586905, "name": "1d7f962fe906f2c291e17395fcb07461", "fusion_lon": 0.0, "bike_id": "1d7f962fe906f2c291e17395fcb07461", "is_disabled": 0, "is_reserved": 0}, {"rental_uris": {"ios": "https://dc.lft.to/lastmile_qr_scan", "android": "https://dc.lft.to/lastmile_qr_scan"}, "lon": -76.94999016666667, "type": "electric_scooter", "fusion_lat": 0.0, "lat": 38.893719, "name": "851f00fad16ebc2b044193a6f04b37f5", "fusion_lon": 0.0, "bike_id": "851f00fad16ebc2b044193a6f04b37f5", "is_disabled": 0, "is_reserved": 0}, {"rental_uris": {"ios": "https://dc.lft.to/lastmile_qr_scan", "android": "https://dc.lft.to/lastmile_qr_scan"}, "lon": -77.01857766666667, "type": "electric_scooter", "fusion_lat": 0.0, "lat": 38.892638, "name": "c6601caebe224f89ddd9d7de92a8d016", "fusion_lon": 0.0, "bike_id": "c6601caebe224f89ddd9d7de92a8d016", "is_disabled": 0, "is_reserved": 0}, {"rental_uris": {"ios": "https://dc.lft.to/lastmile_qr_scan", "android": "https://dc.lft.to/lastmile_qr_scan"}, "lon": -77.03175566666667, "type": "electric_scooter", "fusion_lat": 0.0, "lat": 38.917192666666665, "name": "2d42befc227effbffdd866a3fb4514fe", "fusion_lon": 0.0, "bike_id": "2d42befc227effbffdd866a3fb4514fe", "is_disabled": 0, "is_reserved": 0}, {"rental_uris": {"ios": "https://dc.lft.to/lastmile_qr_scan", "android": "https://dc.lft.to/lastmile_qr_scan"}, "lon": -77.0253525, "type": "electric_scooter", "fusion_lat": 0.0, "lat": 38.892254333333334, "name": "0643baac352051e4fd9993dc167c7d69", "fusion_lon": 0.0, "bike_id": "0643baac352051e4fd9993dc167c7d69", "is_disabled": 0, "is_reserved": 0}, {"rental_uris": {"ios": "https://dc.lft.to/lastmile_qr_scan", "android": "https://dc.lft.to/lastmile_qr_scan"}, "lon": -77.06187333333334, "type": "electric_scooter", "fusion_lat": 0.0, "lat": 38.90263216666666, "name": "cfca0f410753f09d2e4fc32784587159", "fusion_lon": 0.0, "bike_id": "cfca0f410753f09d2e4fc32784587159", "is_disabled": 0, "is_reserved": 0}, {"rental_uris": {"ios": "https://dc.lft.to/lastmile_qr_scan", "android": "https://dc.lft.to/lastmile_qr_scan"}, "lon": -77.0590575, "type": "electric_scooter", "fusion_lat": 0.0, "lat": 38.936057, "name": "0be4342154d7a0e99ca5e704e9618207", "fusion_lon": 0.0, "bike_id": "0be4342154d7a0e99ca5e704e9618207", "is_disabled": 0, "is_reserved": 0}, {"rental_uris": {"ios": "https://dc.lft.to/lastmile_qr_scan", "android": "https://dc.lft.to/lastmile_qr_scan"}, "lon": -77.03309066666667, "type": "electric_scooter", "fusion_lat": 0.0, "lat": 38.901613833333336, "name": "2a887abecb04b9c19827abd0942407be", "fusion_lon": 0.0, "bike_id": "2a887abecb04b9c19827abd0942407be", "is_disabled": 0, "is_reserved": 0}, {"rental_uris": {"ios": "https://dc.lft.to/lastmile_qr_scan", "android": "https://dc.lft.to/lastmile_qr_scan"}, "lon": -76.9652725, "type": "electric_scooter", "fusion_lat": 0.0, "lat": 38.876267666666664, "name": "e69d79f8fa859f0e838f7c83e194cb8b", "fusion_lon": 0.0, "bike_id": "e69d79f8fa859f0e838f7c83e194cb8b", "is_disabled": 0, "is_reserved": 0}, {"rental_uris": {"ios": "https://dc.lft.to/lastmile_qr_scan", "android": "https://dc.lft.to/lastmile_qr_scan"}, "lon": -77.00104816666666, "type": "electric_scooter", "fusion_lat": 0.0, "lat": 38.894281166666666, "name": "25d4b32f8af4ddf07e3881049c757f76", "fusion_lon": 0.0, "bike_id": "25d4b32f8af4ddf07e3881049c757f76", "is_disabled": 0, "is_reserved": 0}, {"rental_uris": {"ios": "https://dc.lft.to/lastmile_qr_scan", "android": "https://dc.lft.to/lastmile_qr_scan"}, "lon": -77.07363633333334, "type": "electric_scooter", "fusion_lat": 0.0, "lat": 38.937391833333336, "name": "9ee2b9183f359a68f67dbddc6f6de456", "fusion_lon": 0.0, "bike_id": "9ee2b9183f359a68f67dbddc6f6de456", "is_disabled": 0, "is_reserved": 0}, {"rental_uris": {"ios": "https://dc.lft.to/lastmile_qr_scan", "android": "https://dc.lft.to/lastmile_qr_scan"}, "lon": -77.06606666666667, "type": "electric_scooter", "fusion_lat": 0.0, "lat": 38.90536816666667, "name": "7b93960c3cd017f7ed16de3bae5c65e3", "fusion_lon": 0.0, "bike_id": "7b93960c3cd017f7ed16de3bae5c65e3", "is_disabled": 0, "is_reserved": 0}, {"rental_uris": {"ios": "https://dc.lft.to/lastmile_qr_scan", "android": "https://dc.lft.to/lastmile_qr_scan"}, "lon": -77.05559733333334, "type": "electric_scooter", "fusion_lat": 0.0, "lat": 38.899700833333334, "name": "66535740cbab7457ebd3f2df98511dcc", "fusion_lon": 0.0, "bike_id": "66535740cbab7457ebd3f2df98511dcc", "is_disabled": 0, "is_reserved": 0}, {"rental_uris": {"ios": "https://dc.lft.to/lastmile_qr_scan", "android": "https://dc.lft.to/lastmile_qr_scan"}, "lon": -77.02928483333334, "type": "electric_scooter", "fusion_lat": 0.0, "lat": 38.88218716666667, "name": "9773dd7eb27581591bfae2860b65ac90", "fusion_lon": 0.0, "bike_id": "9773dd7eb27581591bfae2860b65ac90", "is_disabled": 0, "is_reserved": 0}, {"rental_uris": {"ios": "https://dc.lft.to/lastmile_qr_scan", "android": "https://dc.lft.to/lastmile_qr_scan"}, "lon": -77.015907, "type": "electric_bike", "fusion_lat": 0.0, "lat": 38.9014785, "name": "4b0a10b181166b3993bab29d6c4f7ac5", "fusion_lon": 0.0, "bike_id": "4b0a10b181166b3993bab29d6c4f7ac5", "is_disabled": 0, "is_reserved": 0}, {"rental_uris": {"ios": "https://dc.lft.to/lastmile_qr_scan", "android": "https://dc.lft.to/lastmile_qr_scan"}, "lon": -76.99741333333333, "type": "electric_scooter", "fusion_lat": 0.0, "lat": 38.90943433333333, "name": "6c8b5689976e3bd63764553ad5e47a20", "fusion_lon": 0.0, "bike_id": "6c8b5689976e3bd63764553ad5e47a20", "is_disabled": 0, "is_reserved": 0}, {"rental_uris": {"ios": "https://dc.lft.to/lastmile_qr_scan", "android": "https://dc.lft.to/lastmile_qr_scan"}, "lon": -77.02187733333334, "type": "electric_scooter", "fusion_lat": 0.0, "lat": 38.914802333333334, "name": "7d9be18b2aed1fe1ba45525ec6b70d4b", "fusion_lon": 0.0, "bike_id": "7d9be18b2aed1fe1ba45525ec6b70d4b", "is_disabled": 0, "is_reserved": 0}, {"rental_uris": {"ios": "https://dc.lft.to/lastmile_qr_scan", "android": "https://dc.lft.to/lastmile_qr_scan"}, "lon": -77.01870833333334, "type": "electric_scooter", "fusion_lat": 0.0, "lat": 38.948938166666665, "name": "75e21ad6550c30aa465d748340b4095e", "fusion_lon": 0.0, "bike_id": "75e21ad6550c30aa465d748340b4095e", "is_disabled": 0, "is_reserved": 0}, {"rental_uris": {"ios": "https://dc.lft.to/lastmile_qr_scan", "android": "https://dc.lft.to/lastmile_qr_scan"}, "lon": -77.04614283333333, "type": "electric_scooter", "fusion_lat": 0.0, "lat": 38.902680833333335, "name": "d750b6ded4d43d39ef028dac3bef116d", "fusion_lon": 0.0, "bike_id": "d750b6ded4d43d39ef028dac3bef116d", "is_disabled": 0, "is_reserved": 0}, {"rental_uris": {"ios": "https://dc.lft.to/lastmile_qr_scan", "android": "https://dc.lft.to/lastmile_qr_scan"}, "lon": -76.9987735, "type": "electric_scooter", "fusion_lat": 0.0, "lat": 38.907434, "name": "47918dcf2f5d14098fb0bc0791e8c628", "fusion_lon": 0.0, "bike_id": "47918dcf2f5d14098fb0bc0791e8c628", "is_disabled": 0, "is_reserved": 0}, {"rental_uris": {"ios": "https://dc.lft.to/lastmile_qr_scan", "android": "https://dc.lft.to/lastmile_qr_scan"}, "lon": -76.97207716666666, "type": "electric_scooter", "fusion_lat": 0.0, "lat": 38.85504233333333, "name": "b952b801f6deb993012ca1797b97f45c", "fusion_lon": 0.0, "bike_id": "b952b801f6deb993012ca1797b97f45c", "is_disabled": 0, "is_reserved": 0}, {"rental_uris": {"ios": "https://dc.lft.to/lastmile_qr_scan", "android": "https://dc.lft.to/lastmile_qr_scan"}, "lon": -77.0363325, "type": "electric_scooter", "fusion_lat": 0.0, "lat": 38.93717433333333, "name": "378659f91af475b2e40f15233c473819", "fusion_lon": 0.0, "bike_id": "378659f91af475b2e40f15233c473819", "is_disabled": 0, "is_reserved": 0}, {"rental_uris": {"ios": "https://dc.lft.to/lastmile_qr_scan", "android": "https://dc.lft.to/lastmile_qr_scan"}, "lon": -77.07494233333334, "type": "electric_scooter", "fusion_lat": 0.0, "lat": 38.906679833333335, "name": "afed33095a58a56ca18133792466bb10", "fusion_lon": 0.0, "bike_id": "afed33095a58a56ca18133792466bb10", "is_disabled": 0, "is_reserved": 0}, {"rental_uris": {"ios": "https://dc.lft.to/lastmile_qr_scan", "android": "https://dc.lft.to/lastmile_qr_scan"}, "lon": -77.03668133333333, "type": "electric_bike", "fusion_lat": 0.0, "lat": 38.95497566666667, "name": "0b430f063c62dde667085bda0eec37a7", "fusion_lon": 0.0, "bike_id": "0b430f063c62dde667085bda0eec37a7", "is_disabled": 0, "is_reserved": 0}, {"rental_uris": {"ios": "https://dc.lft.to/lastmile_qr_scan", "android": "https://dc.lft.to/lastmile_qr_scan"}, "lon": -77.02014166666666, "type": "electric_scooter", "fusion_lat": 0.0, "lat": 38.892194333333336, "name": "8bc1f566b04bb167da00a8ca411aeb10", "fusion_lon": 0.0, "bike_id": "8bc1f566b04bb167da00a8ca411aeb10", "is_disabled": 0, "is_reserved": 0}, {"rental_uris": {"ios": "https://dc.lft.to/lastmile_qr_scan", "android": "https://dc.lft.to/lastmile_qr_scan"}, "lon": -77.02380666666667, "type": "electric_scooter", "fusion_lat": 0.0, "lat": 38.932253, "name": "97b299a08ec9e90179fae9823db914aa", "fusion_lon": 0.0, "bike_id": "97b299a08ec9e90179fae9823db914aa", "is_disabled": 0, "is_reserved": 0}, {"rental_uris": {"ios": "https://dc.lft.to/lastmile_qr_scan", "android": "https://dc.lft.to/lastmile_qr_scan"}, "lon": -77.04194533333333, "type": "electric_scooter", "fusion_lat": 0.0, "lat": 38.892206, "name": "0d1205c338f1634bf2e1d116394624cd", "fusion_lon": 0.0, "bike_id": "0d1205c338f1634bf2e1d116394624cd", "is_disabled": 0, "is_reserved": 0}, {"rental_uris": {"ios": "https://dc.lft.to/lastmile_qr_scan", "android": "https://dc.lft.to/lastmile_qr_scan"}, "lon": -77.01884016666666, "type": "electric_scooter", "fusion_lat": 0.0, "lat": 38.902842166666666, "name": "2667bcdc8f7fdcf1f41d1295e7c8710b", "fusion_lon": 0.0, "bike_id": "2667bcdc8f7fdcf1f41d1295e7c8710b", "is_disabled": 0, "is_reserved": 0}, {"rental_uris": {"ios": "https://dc.lft.to/lastmile_qr_scan", "android": "https://dc.lft.to/lastmile_qr_scan"}, "lon": -77.05157316666667, "type": "electric_scooter", "fusion_lat": 0.0, "lat": 38.9058245, "name": "8722b77ce0a83daf3fdbc1b29a825239", "fusion_lon": 0.0, "bike_id": "8722b77ce0a83daf3fdbc1b29a825239", "is_disabled": 0, "is_reserved": 0}, {"rental_uris": {"ios": "https://dc.lft.to/lastmile_qr_scan", "android": "https://dc.lft.to/lastmile_qr_scan"}, "lon": -77.03697016666666, "type": "electric_scooter", "fusion_lat": 0.0, "lat": 38.92796216666667, "name": "bdfc9ad0957a805a0b303c4acfb4d267", "fusion_lon": 0.0, "bike_id": "bdfc9ad0957a805a0b303c4acfb4d267", "is_disabled": 0, "is_reserved": 0}, {"rental_uris": {"ios": "https://dc.lft.to/lastmile_qr_scan", "android": "https://dc.lft.to/lastmile_qr_scan"}, "lon": -77.04266633333333, "type": "electric_scooter", "fusion_lat": 0.0, "lat": 38.934084166666665, "name": "ebedcaa47febabc8015378c82f3aa51f", "fusion_lon": 0.0, "bike_id": "ebedcaa47febabc8015378c82f3aa51f", "is_disabled": 0, "is_reserved": 0}, {"rental_uris": {"ios": "https://dc.lft.to/lastmile_qr_scan", "android": "https://dc.lft.to/lastmile_qr_scan"}, "lon": -76.94627566666666, "type": "electric_bike", "fusion_lat": 0.0, "lat": 38.9462455, "name": "d085c575c59a3370ba297fa79ff7c3f2", "fusion_lon": 0.0, "bike_id": "d085c575c59a3370ba297fa79ff7c3f2", "is_disabled": 0, "is_reserved": 0}, {"rental_uris": {"ios": "https://dc.lft.to/lastmile_qr_scan", "android": "https://dc.lft.to/lastmile_qr_scan"}, "lon": -77.0282715, "type": "electric_scooter", "fusion_lat": 0.0, "lat": 38.895133666666666, "name": "dbca61fbb61547b5d3ebfabaffe83c9e", "fusion_lon": 0.0, "bike_id": "dbca61fbb61547b5d3ebfabaffe83c9e", "is_disabled": 0, "is_reserved": 0}, {"rental_uris": {"ios": "https://dc.lft.to/lastmile_qr_scan", "android": "https://dc.lft.to/lastmile_qr_scan"}, "lon": -77.06295766666666, "type": "electric_scooter", "fusion_lat": 0.0, "lat": 38.903937666666664, "name": "8ac42dbb2621998c2b5935eb4cae1db8", "fusion_lon": 0.0, "bike_id": "8ac42dbb2621998c2b5935eb4cae1db8", "is_disabled": 0, "is_reserved": 0}, {"rental_uris": {"ios": "https://dc.lft.to/lastmile_qr_scan", "android": "https://dc.lft.to/lastmile_qr_scan"}, "lon": -77.02419783333333, "type": "electric_scooter", "fusion_lat": 0.0, "lat": 38.892326, "name": "9b8a00a65ce4fb5db7839435c7e11fff", "fusion_lon": 0.0, "bike_id": "9b8a00a65ce4fb5db7839435c7e11fff", "is_disabled": 0, "is_reserved": 0}, {"rental_uris": {"ios": "https://dc.lft.to/lastmile_qr_scan", "android": "https://dc.lft.to/lastmile_qr_scan"}, "lon": -77.00810983333334, "type": "electric_scooter", "fusion_lat": 0.0, "lat": 38.8775315, "name": "6d9778ce1a50e7d3d19a2344f2c4c4b0", "fusion_lon": 0.0, "bike_id": "6d9778ce1a50e7d3d19a2344f2c4c4b0", "is_disabled": 0, "is_reserved": 0}, {"rental_uris": {"ios": "https://dc.lft.to/lastmile_qr_scan", "android": "https://dc.lft.to/lastmile_qr_scan"}, "lon": -77.013885, "type": "electric_scooter", "fusion_lat": 0.0, "lat": 38.91951383333333, "name": "2f7f3af02ddfa4130b5b5adbe62456ff", "fusion_lon": 0.0, "bike_id": "2f7f3af02ddfa4130b5b5adbe62456ff", "is_disabled": 0, "is_reserved": 0}, {"rental_uris": {"ios": "https://dc.lft.to/lastmile_qr_scan", "android": "https://dc.lft.to/lastmile_qr_scan"}, "lon": -77.03191633333333, "type": "electric_scooter", "fusion_lat": 0.0, "lat": 38.919177, "name": "e730c19b02bc14f5d695bcdd3c6fc369", "fusion_lon": 0.0, "bike_id": "e730c19b02bc14f5d695bcdd3c6fc369", "is_disabled": 0, "is_reserved": 0}, {"rental_uris": {"ios": "https://dc.lft.to/lastmile_qr_scan", "android": "https://dc.lft.to/lastmile_qr_scan"}, "lon": -76.97674883333333, "type": "electric_scooter", "fusion_lat": 0.0, "lat": 38.898859, "name": "c518ff3d3bd7041b5a2a0fa5022b9237", "fusion_lon": 0.0, "bike_id": "c518ff3d3bd7041b5a2a0fa5022b9237", "is_disabled": 0, "is_reserved": 0}, {"rental_uris": {"ios": "https://dc.lft.to/lastmile_qr_scan", "android": "https://dc.lft.to/lastmile_qr_scan"}, "lon": -77.02012483333333, "type": "electric_scooter", "fusion_lat": 0.0, "lat": 38.892191833333335, "name": "caf17ce94c3a27085a37d8814963b594", "fusion_lon": 0.0, "bike_id": "caf17ce94c3a27085a37d8814963b594", "is_disabled": 0, "is_reserved": 0}, {"rental_uris": {"ios": "https://dc.lft.to/lastmile_qr_scan", "android": "https://dc.lft.to/lastmile_qr_scan"},