{"data": {"bikes": [{"name": "fe68ae82f16f67cd709eb77ccdb25de0", "fusion_lat": 0.0, "fusion_lon": 0.0, "bike_id": "fe68ae82f16f67cd709eb77ccdb25de0", "rental_uris": {"ios": "https://dc.lft.to/lastmile_qr_scan", "android": "https://dc.lft.to/lastmile_qr_scan"}, "type": "electric_scooter", "lat": 38.86210833333333, "is_disabled": 0, "lon": -76.99471933333334, "is_reserved": 0}, {"name": "11e5300b59f816c211289158a4103592", "fusion_lat": 0.0, "fusion_lon": 0.0, "bike_id": "11e5300b59f816c211289158a4103592", "rental_uris": {"ios": "https://dc.lft.to/lastmile_qr_scan", "android": "https://dc.lft.to/lastmile_qr_scan"}, "type": "electric_bike", "lat": 38.917159, "is_disabled": 0, "lon": -77.22109, "is_reserved": 0}, {"name": "acfd236d07efbd94dd29871493a33b48", "fusion_lat": 0.0, "fusion_lon": 0.0, "bike_id": "acfd236d07efbd94dd29871493a33b48", "rental_uris": {"ios": "https://dc.lft.to/lastmile_qr_scan", "android": "https://dc.lft.to/lastmile_qr_scan"}, "type": "electric_scooter", "lat": 38.86656766666667, "is_disabled": 0, "lon": -76.98889633333333, "is_reserved": 0}, {"name": "804fc6ff3ea332c36a8685d66d65fc77", "fusion_lat": 0.0, "fusion_lon": 0.0, "bike_id": "804fc6ff3ea332c36a8685d66d65fc77", "rental_uris": {"ios": "https://dc.lft.to/lastmile_qr_scan", "android": "https://dc.lft.to/lastmile_qr_scan"}, "type": "electric_scooter", "lat": 38.876614833333335, "is_disabled": 0, "lon": -77.00800366666667, "is_reserved": 0}, {"name": "876004ddc407f5070f925823c751c2a0", "fusion_lat": 0.0, "fusion_lon": 0.0, "bike_id": "876004ddc407f5070f925823c751c2a0", "rental_uris": {"ios": "https://dc.lft.to/lastmile_qr_scan", "android": "https://dc.lft.to/lastmile_qr_scan"}, "type": "electric_scooter", "lat": 38.900298666666664, "is_disabled": 0, "lon": -77.01223683333333, "is_reserved": 0}, {"name": "9051ff42c9743e169142c74f53db8cc9", "fusion_lat": 0.0, "fusion_lon": 0.0, "bike_id": "9051ff42c9743e169142c74f53db8cc9", "rental_uris": {"ios": "https://dc.lft.to/lastmile_qr_scan", "android": "https://dc.lft.to/lastmile_qr_scan"}, "type": "electric_bike", "lat": 39.038801166666666, "is_disabled": 0, "lon": -77.10913266666667, "is_reserved": 0}, {"name": "28d6f982edf87380bd57804c9fb98d57", "fusion_lat": 0.0, "fusion_lon": 0.0, "bike_id": "28d6f982edf87380bd57804c9fb98d57", "rental_uris": {"ios": "https://dc.lft.to/lastmile_qr_scan", "android": "https://dc.lft.to/lastmile_qr_scan"}, "type": "electric_scooter", "lat": 38.95606083333333, "is_disabled": 0, "lon": -77.02797183333334, "is_reserved": 0}, {"name": "a668711aec02c259fbfd04b8583bfca5", "fusion_lat": 0.0, "fusion_lon": 0.0, "bike_id": "a668711aec02c259fbfd04b8583bfca5", "rental_uris": {"ios": "https://dc.lft.to/lastmile_qr_scan", "android": "https://dc.lft.to/lastmile_qr_scan"}, "type": "electric_scooter", "lat": 38.93953033333333, "is_disabled": 0, "lon": -77.02782966666666, "is_reserved": 0}, {"name": "7c6d65a907c92e89e7589f32beea0367", "fusion_lat": 0.0, "fusion_lon": 0.0, "bike_id": "7c6d65a907c92e89e7589f32beea0367", "rental_uris": {"ios": "https://dc.lft.to/lastmile_qr_scan", "android": "https://dc.lft.to/lastmile_qr_scan"}, "type": "electric_scooter", "lat": 38.875779, "is_disabled": 0, "lon": -77.0207465, "is_reserved": 0}, {"name": "98497544c2138d422c12af419b0e60fd", "fusion_lat": 0.0, "fusion_lon": 0.0, "bike_id": "98497544c2138d422c12af419b0e60fd", "rental_uris": {"ios": "https://dc.lft.to/lastmile_qr_scan", "android": "https://dc.lft.to/lastmile_qr_scan"}, "type": "electric_scooter", "lat": 38.90359516666667, "is_disabled": 0, "lon": -77.01120433333334, "is_reserved": 0}, {"name": "36fedd521a6d1fefa4746e9920c8a285", "fusion_lat": 0.0, "fusion_lon": 0.0, "bike_id": "36fedd521a6d1fefa4746e9920c8a285", "rental_uris": {"ios": "https://dc.lft.to/lastmile_qr_scan", "android": "https://dc.lft.to/lastmile_qr_scan"}, "type": "electric_scooter", "lat": 38.90181583333333, "is_disabled": 0, "lon": -77.048259, "is_reserved": 0}, {"name": "3056fed3b13a59c92f116e6d9d13abfb", "fusion_lat": 0.0, "fusion_lon": 0.0, "bike_id": "3056fed3b13a59c92f116e6d9d13abfb", "rental_uris": {"ios": "https://dc.lft.to/lastmile_qr_scan", "android": "https://dc.lft.to/lastmile_qr_scan"}, "type": "electric_scooter", "lat": 38.9125125, "is_disabled": 0, "lon": -77.0243395, "is_reserved": 0}, {"name": "96a8168faa28dce8736eed485db7123e", "fusion_lat": 0.0, "fusion_lon": 0.0, "bike_id": "96a8168faa28dce8736eed485db7123e", "rental_uris": {"ios": "https://dc.lft.to/lastmile_qr_scan", "android": "https://dc.lft.to/lastmile_qr_scan"}, "type": "electric_bike", "lat": 38.996657166666665, "is_disabled": 0, "lon": -76.9914425, "is_reserved": 0}, {"name": "d136fbe69b774faadb79e64a38b17d19", "fusion_lat": 0.0, "fusion_lon": 0.0, "bike_id": "d136fbe69b774faadb79e64a38b17d19", "rental_uris": {"ios": "https://dc.lft.to/lastmile_qr_scan", "android": "https://dc.lft.to/lastmile_qr_scan"}, "type": "electric_scooter", "lat": 38.912143666666665, "is_disabled": 0, "lon": -77.02718416666667, "is_reserved": 0}, {"name": "0c1970e4132d0ce1f4d025c87084ef81", "fusion_lat": 0.0, "fusion_lon": 0.0, "bike_id": "0c1970e4132d0ce1f4d025c87084ef81", "rental_uris": {"ios": "https://dc.lft.to/lastmile_qr_scan", "android": "https://dc.lft.to/lastmile_qr_scan"}, "type": "electric_scooter", "lat": 38.91101883333333, "is_disabled": 0, "lon": -77.0318905, "is_reserved": 0}, {"name": "57fbed71e2ac8f59a3a370927bebbe1e", "fusion_lat": 0.0, "fusion_lon": 0.0, "bike_id": "57fbed71e2ac8f59a3a370927bebbe1e", "rental_uris": {"ios": "https://dc.lft.to/lastmile_qr_scan", "android": "https://dc.lft.to/lastmile_qr_scan"}, "type": "electric_scooter", "lat": 38.91820033333333, "is_disabled": 0, "lon": -77.01215766666667, "is_reserved": 0}, {"name": "f36546a1f92e218f7e272d9c71a368e3", "fusion_lat": 0.0, "fusion_lon": 0.0, "bike_id": "f36546a1f92e218f7e272d9c71a368e3", "rental_uris": {"ios": "https://dc.lft.to/lastmile_qr_scan", "android": "https://dc.lft.to/lastmile_qr_scan"}, "type": "electric_scooter", "lat": 38.921466833333334, "is_disabled": 0, "lon": -77.0296285, "is_reserved": 0}, {"name": "662b704994e0c9fc7fdb41247a52bd43", "fusion_lat": 0.0, "fusion_lon": 0.0, "bike_id": "662b704994e0c9fc7fdb41247a52bd43", "rental_uris": {"ios": "https://dc.lft.to/lastmile_qr_scan", "android": "https://dc.lft.to/lastmile_qr_scan"}, "type": "electric_scooter", "lat": 38.914178666666665, "is_disabled": 0, "lon": -77.03194866666666, "is_reserved": 0}, {"name": "17bdd6c865ec90fce4bbd74b74c72f8b", "fusion_lat": 0.0, "fusion_lon": 0.0, "bike_id": "17bdd6c865ec90fce4bbd74b74c72f8b", "rental_uris": {"ios": "https://dc.lft.to/lastmile_qr_scan", "android": "https://dc.lft.to/lastmile_qr_scan"}, "type": "electric_scooter", "lat": 38.9218075, "is_disabled": 0, "lon": -77.02643133333333, "is_reserved": 0}, {"name": "9094f4cc2208707c71d058fbdfc22b2c", "fusion_lat": 0.0, "fusion_lon": 0.0, "bike_id": "9094f4cc2208707c71d058fbdfc22b2c", "rental_uris": {"ios": "https://dc.lft.to/lastmile_qr_scan", "android": "https://dc.lft.to/lastmile_qr_scan"}, "type": "electric_scooter", "lat": 38.88531833333333, "is_disabled": 0, "lon": -76.9268855, "is_reserved": 0}, {"name": "f7c5657e009b6bc050758366300ee547", "fusion_lat": 0.0, "fusion_lon": 0.0, "bike_id": "f7c5657e009b6bc050758366300ee547", "rental_uris": {"ios": "https://dc.lft.to/lastmile_qr_scan", "android": "https://dc.lft.to/lastmile_qr_scan"}, "type": "electric_scooter", "lat": 38.933378, "is_disabled": 0, "lon": -77.04135616666667, "is_reserved": 0}, {"name": "6c713837e4e865c0d7a114a06771658f", "fusion_lat": 0.0, "fusion_lon": 0.0, "bike_id": "6c713837e4e865c0d7a114a06771658f", "rental_uris": {"ios": "https://dc.lft.to/lastmile_qr_scan", "android": "https://dc.lft.to/lastmile_qr_scan"}, "type": "electric_bike", "lat": 38.90218433333333, "is_disabled": 0, "lon": -77.04350216666667, "is_reserved": 0}, {"name": "932024590692716aec593197311c0863", "fusion_lat": 0.0, "fusion_lon": 0.0, "bike_id": "932024590692716aec593197311c0863", "rental_uris": {"ios": "https://dc.lft.to/lastmile_qr_scan", "android": "https://dc.lft.to/lastmile_qr_scan"}, "type": "electric_scooter", "lat": 38.867284833333336, "is_disabled": 0, "lon": -76.97940733333333, "is_reserved": 0}, {"name": "1140b83f5658a3e1e27427a046e2b19e", "fusion_lat": 0.0, "fusion_lon": 0.0, "bike_id": "1140b83f5658a3e1e27427a046e2b19e", "rental_uris": {"ios": "https://dc.lft.to/lastmile_qr_scan", "android": "https://dc.lft.to/lastmile_qr_scan"}, "type": "electric_scooter", "lat": 38.923232, "is_disabled": 0, "lon": -77.04627433333333, "is_reserved": 0}, {"name": "430f89b949c17db9869e22f8ea8b03d3", "fusion_lat": 0.0, "fusion_lon": 0.0, "bike_id": "430f89b949c17db9869e22f8ea8b03d3", "rental_uris": {"ios": "https://dc.lft.to/lastmile_qr_scan", "android": "https://dc.lft.to/lastmile_qr_scan"}, "type": "electric_scooter", "lat": 38.9083075, "is_disabled": 0, "lon": -76.99694666666667, "is_reserved": 0}, {"name": "652a45636e030aff56b12b7dad90e791", "fusion_lat": 0.0, "fusion_lon": 0.0, "bike_id": "652a45636e030aff56b12b7dad90e791", "rental_uris": {"ios": "https://dc.lft.to/lastmile_qr_scan", "android": "https://dc.lft.to/lastmile_qr_scan"}, "type": "electric_scooter", "lat": 38.90557966666667, "is_disabled": 0, "lon": -77.00547066666667, "is_reserved": 0}, {"name": "acc61b737ce94269d2942d35ead4e2d4", "fusion_lat": 0.0, "fusion_lon": 0.0, "bike_id": "acc61b737ce94269d2942d35ead4e2d4", "rental_uris": {"ios": "https://dc.lft.to/lastmile_qr_scan", "android": "https://dc.lft.to/lastmile_qr_scan"}, "type": "electric_scooter", "lat": 38.90116866666666, "is_disabled": 0, "lon": -77.01764333333334, "is_reserved": 0}, {"name": "1829e0ad3c9cfa6c5363d921cbb93056", "fusion_lat": 0.0, "fusion_lon": 0.0, "bike_id": "1829e0ad3c9cfa6c5363d921cbb93056", "rental_uris": {"ios": "https://dc.lft.to/lastmile_qr_scan", "android": "https://dc.lft.to/lastmile_qr_scan"}, "type": "electric_scooter", "lat": 38.896107666666666, "is_disabled": 0, "lon": -77.02794133333333, "is_reserved": 0}, {"name": "c84fadddf067a0ff25a9146d405556e0", "fusion_lat": 0.0, "fusion_lon": 0.0, "bike_id": "c84fadddf067a0ff25a9146d405556e0", "rental_uris": {"ios": "https://dc.lft.to/lastmile_qr_scan", "android": "https://dc.lft.to/lastmile_qr_scan"}, "type": "electric_scooter", "lat": 38.90145833333333, "is_disabled": 0, "lon": -77.041563, "is_reserved": 0}, {"name": "fba04e47916ee537b476dc8ed0bd427d", "fusion_lat": 0.0, "fusion_lon": 0.0, "bike_id": "fba04e47916ee537b476dc8ed0bd427d", "rental_uris": {"ios": "https://dc.lft.to/lastmile_qr_scan", "android": "https://dc.lft.to/lastmile_qr_scan"}, "type": "electric_scooter", "lat": 38.913638666666664, "is_disabled": 0, "lon": -76.98524333333333, "is_reserved": 0}, {"name": "c9a09de05c27a47cc49c6f1f412f9407", "fusion_lat": 0.0, "fusion_lon": 0.0, "bike_id": "c9a09de05c27a47cc49c6f1f412f9407", "rental_uris": {"ios": "https://dc.lft.to/lastmile_qr_scan", "android": "https://dc.lft.to/lastmile_qr_scan"}, "type": "electric_scooter", "lat": 38.9167835, "is_disabled": 0, "lon": -77.0296965, "is_reserved": 0}, {"name": "716d0ad45aa995e8d9b4e2dcadefb3f3", "fusion_lat": 0.0, "fusion_lon": 0.0, "bike_id": "716d0ad45aa995e8d9b4e2dcadefb3f3", "rental_uris": {"ios": "https://dc.lft.to/lastmile_qr_scan", "android": "https://dc.lft.to/lastmile_qr_scan"}, "type": "electric_scooter", "lat": 38.906197, "is_disabled": 0, "lon": -77.03948883333334, "is_reserved": 0}, {"name": "faf8ce1bc7572035acc46ab57b155200", "fusion_lat": 0.0, "fusion_lon": 0.0, "bike_id": "faf8ce1bc7572035acc46ab57b155200", "rental_uris": {"ios": "https://dc.lft.to/lastmile_qr_scan", "android": "https://dc.lft.to/lastmile_qr_scan"}, "type": "electric_scooter", "lat": 38.86209183333333, "is_disabled": 0, "lon": -76.99473083333334, "is_reserved": 0}, {"name": "485ee2c15a4b7c08bbd704a19652deb1", "fusion_lat": 0.0, "fusion_lon": 0.0, "bike_id": "485ee2c15a4b7c08bbd704a19652deb1", "rental_uris": {"ios": "https://dc.lft.to/lastmile_qr_scan", "android": "https://dc.lft.to/lastmile_qr_scan"}, "type": "electric_scooter", "lat": 38.92467716666667, "is_disabled": 0, "lon": -77.02988666666667, "is_reserved": 0}, {"name": "20721670ba61149f8ea063b97cce5d0f", "fusion_lat": 0.0, "fusion_lon": 0.0, "bike_id": "20721670ba61149f8ea063b97cce5d0f", "rental_uris": {"ios": "https://dc.lft.to/lastmile_qr_scan", "android": "https://dc.lft.to/lastmile_qr_scan"}, "type": "electric_scooter", "lat": 38.91683833333333, "is_disabled": 0, "lon": -77.02802666666666, "is_reserved": 0}, {"name": "3667f6878712b6d50171e727edb4a566", "fusion_lat": 0.0, "fusion_lon": 0.0, "bike_id": "3667f6878712b6d50171e727edb4a566", "rental_uris": {"ios": "https://dc.lft.to/lastmile_qr_scan", "android": "https://dc.lft.to/lastmile_qr_scan"}, "type": "electric_scooter", "lat": 38.920487333333334, "is_disabled": 0, "lon": -77.02612783333333, "is_reserved": 0}, {"name": "576a70f2f404e589c399417aafc44298", "fusion_lat": 0.0, "fusion_lon": 0.0, "bike_id": "576a70f2f404e589c399417aafc44298", "rental_uris": {"ios": "https://dc.lft.to/lastmile_qr_scan", "android": "https://dc.lft.to/lastmile_qr_scan"}, "type": "electric_bike", "lat": 38.84514083333333, "is_disabled": 0, "lon": -77.07800216666666, "is_reserved": 0}, {"name": "7eae0e2473c8463a8048f28af9ba08ef", "fusion_lat": 0.0, "fusion_lon": 0.0, "bike_id": "7eae0e2473c8463a8048f28af9ba08ef", "rental_uris": {"ios": "https://dc.lft.to/lastmile_qr_scan", "android": "https://dc.lft.to/lastmile_qr_scan"}, "type": "electric_scooter", "lat": 38.90361033333333, "is_disabled": 0, "lon": -77.06274683333334, "is_reserved": 0}, {"name": "a6c1973b43aeb49b9b13f4a2952959cf", "fusion_lat": 0.0, "fusion_lon": 0.0, "bike_id": "a6c1973b43aeb49b9b13f4a2952959cf", "rental_uris": {"ios": "https://dc.lft.to/lastmile_qr_scan", "android": "https://dc.lft.to/lastmile_qr_scan"}, "type": "electric_scooter", "lat": 38.875744, "is_disabled": 0, "lon": -77.01992116666666, "is_reserved": 0}, {"name": "3f779f11e14f9fc0008288e51dd427bd", "fusion_lat": 0.0, "fusion_lon": 0.0, "bike_id": "3f779f11e14f9fc0008288e51dd427bd", "rental_uris": {"ios": "https://dc.lft.to/lastmile_qr_scan", "android": "https://dc.lft.to/lastmile_qr_scan"}, "type": "electric_scooter", "lat": 38.9065765, "is_disabled": 0, "lon": -77.04167916666667, "is_reserved": 0}, {"name": "8ccd516ec68799e1198182e24b6d392e", "fusion_lat": 0.0, "fusion_lon": 0.0, "bike_id": "8ccd516ec68799e1198182e24b6d392e", "rental_uris": {"ios": "https://dc.lft.to/lastmile_qr_scan", "android": "https://dc.lft.to/lastmile_qr_scan"}, "type": "electric_scooter", "lat": 38.925466666666665, "is_disabled": 0, "lon": -77.05195666666667, "is_reserved": 0}, {"name": "4572ee9a1a71d125f6273cd685a24ceb", "fusion_lat": 0.0, "fusion_lon": 0.0, "bike_id": "4572ee9a1a71d125f6273cd685a24ceb", "rental_uris": {"ios": "https://dc.lft.to/lastmile_qr_scan", "android": "https://dc.lft.to/lastmile_qr_scan"}, "type": "electric_scooter", "lat": 38.899948, "is_disabled": 0, "lon": -76.998498, "is_reserved": 0}, {"name": "3e66986a48c7b17e10b7cc8eabfb44fb", "fusion_lat": 0.0, "fusion_lon": 0.0, "bike_id": "3e66986a48c7b17e10b7cc8eabfb44fb", "rental_uris": {"ios": "https://dc.lft.to/lastmile_qr_scan", "android": "https://dc.lft.to/lastmile_qr_scan"}, "type": "electric_scooter", "lat": 38.8967595, "is_disabled": 0, "lon": -76.94714183333333, "is_reserved": 0}, {"name": "2df9ba2773cb5469b3d15a04b3313858", "fusion_lat": 0.0, "fusion_lon": 0.0, "bike_id": "2df9ba2773cb5469b3d15a04b3313858", "rental_uris": {"ios": "https://dc.lft.to/lastmile_qr_scan", "android": "https://dc.lft.to/lastmile_qr_scan"}, "type": "electric_scooter", "lat": 38.886566333333334, "is_disabled": 0, "lon": -77.03391383333333, "is_reserved": 0}, {"name": "2f3f0479e4aee7145e3d41c21de9c480", "fusion_lat": 0.0, "fusion_lon": 0.0, "bike_id": "2f3f0479e4aee7145e3d41c21de9c480", "rental_uris": {"ios": "https://dc.lft.to/lastmile_qr_scan", "android": "https://dc.lft.to/lastmile_qr_scan"}, "type": "electric_bike", "lat": 38.958894, "is_disabled": 0, "lon": -76.96684916666666, "is_reserved": 0}, {"name": "f022e5f1dd427b4e129e3b1ce97aef4d", "fusion_lat": 0.0, "fusion_lon": 0.0, "bike_id": "f022e5f1dd427b4e129e3b1ce97aef4d", "rental_uris": {"ios": "https://dc.lft.to/lastmile_qr_scan", "android": "https://dc.lft.to/lastmile_qr_scan"}, "type": "electric_scooter", "lat": 38.89338383333333, "is_disabled": 0, "lon": -77.0465935, "is_reserved": 0}, {"name": "beb68c0944bb097943562611ef568eb9", "fusion_lat": 0.0, "fusion_lon": 0.0, "bike_id": "beb68c0944bb097943562611ef568eb9", "rental_uris": {"ios": "https://dc.lft.to/lastmile_qr_scan", "android": "https://dc.lft.to/lastmile_qr_scan"}, "type": "electric_scooter", "lat": 38.90274633333333, "is_disabled": 0, "lon": -77.03839, "is_reserved": 0}, {"name": "72a72412e4e0217591995ddfa80bed2f", "fusion_lat": 0.0, "fusion_lon": 0.0, "bike_id": "72a72412e4e0217591995ddfa80bed2f", "rental_uris": {"ios": "https://dc.lft.to/lastmile_qr_scan", "android": "https://dc.lft.to/lastmile_qr_scan"}, "type": "electric_scooter", "lat": 38.887436, "is_disabled": 0, "lon": -77.022318, "is_reserved": 0}, {"name": "a19878196cab9a7fdc496f4a489cd54e", "fusion_lat": 0.0, "fusion_lon": 0.0, "bike_id": "a19878196cab9a7fdc496f4a489cd54e", "rental_uris": {"ios": "https://dc.lft.to/lastmile_qr_scan", "android": "https://dc.lft.to/lastmile_qr_scan"}, "type": "electric_scooter", "lat": 38.911183666666666, "is_disabled": 0, "lon": -77.03152583333333, "is_reserved": 0}, {"name": "c7677491d9e53bd52c57c61f0fc631a2", "fusion_lat": 0.0, "fusion_lon": 0.0, "bike_id": "c7677491d9e53bd52c57c61f0fc631a2", "rental_uris": {"ios": "https://dc.lft.to/lastmile_qr_scan", "android": "https://dc.lft.to/lastmile_qr_scan"}, "type": "electric_scooter", "lat": 38.91781233333333, "is_disabled": 0, "lon": -77.02306066666667, "is_reserved": 0}, {"name": "bd4d49db02b53487e26f94709c2658bb", "fusion_lat": 0.0, "fusion_lon": 0.0, "bike_id": "bd4d49db02b53487e26f94709c2658bb", "rental_uris": {"ios": "https://dc.lft.to/lastmile_qr_scan", "android": "https://dc.lft.to/lastmile_qr_scan"}, "type": "electric_scooter", "lat": 38.9038735, "is_disabled": 0, "lon": -77.04672833333333, "is_reserved": 0}, {"name": "591d76671682c6c26e14421ab93611c7", "fusion_lat": 0.0, "fusion_lon": 0.0, "bike_id": "591d76671682c6c26e14421ab93611c7", "rental_uris": {"ios": "https://dc.lft.to/lastmile_qr_scan", "android": "https://dc.lft.to/lastmile_qr_scan"}, "type": "electric_scooter", "lat": 38.904230166666665, "is_disabled": 0, "lon": -77.04890733333333, "is_reserved": 0}, {"name": "b7b5993cff1476be80725930059d4544", "fusion_lat": 0.0, "fusion_lon": 0.0, "bike_id": "b7b5993cff1476be80725930059d4544", "rental_uris": {"ios": "https://dc.lft.to/lastmile_qr_scan", "android": "https://dc.lft.to/lastmile_qr_scan"}, "type": "electric_scooter", "lat": 38.92146483333333, "is_disabled": 0, "lon": -77.0350965, "is_reserved": 0}, {"name": "8a342bb40487f7456ccd0a841be3e356", "fusion_lat": 0.0, "fusion_lon": 0.0, "bike_id": "8a342bb40487f7456ccd0a841be3e356", "rental_uris": {"ios": "https://dc.lft.to/lastmile_qr_scan", "android": "https://dc.lft.to/lastmile_qr_scan"}, "type": "electric_scooter", "lat": 38.914194333333334, "is_disabled": 0, "lon": -77.04160816666666, "is_reserved": 0}, {"name": "16c75b9f887db061b6cb870e9c6ae8e4", "fusion_lat": 0.0, "fusion_lon": 0.0, "bike_id": "16c75b9f887db061b6cb870e9c6ae8e4", "rental_uris": {"ios": "https://dc.lft.to/lastmile_qr_scan", "android": "https://dc.lft.to/lastmile_qr_scan"}, "type": "electric_scooter", "lat": 38.905945, "is_disabled": 0, "lon": -77.04334116666666, "is_reserved": 0}, {"name": "8e3740dbd9d7dc8613fc899705f80fce", "fusion_lat": 0.0, "fusion_lon": 0.0, "bike_id": "8e3740dbd9d7dc8613fc899705f80fce", "rental_uris": {"ios": "https://dc.lft.to/lastmile_qr_scan", "android": "https://dc.lft.to/lastmile_qr_scan"}, "type": "electric_scooter", "lat": 38.905177333333334, "is_disabled": 0, "lon": -77.06522433333333, "is_reserved": 0}, {"name": "c8ed606116de45b4538c88b445b066fa", "fusion_lat": 0.0, "fusion_lon": 0.0, "bike_id": "c8ed606116de45b4538c88b445b066fa", "rental_uris": {"ios": "https://dc.lft.to/lastmile_qr_scan", "android": "https://dc.lft.to/lastmile_qr_scan"}, "type": "electric_scooter", "lat": 38.91838216666667, "is_disabled": 0, "lon": -76.9654725, "is_reserved": 0}, {"name": "ab7d9b1439db5bc95d160b7d900c582a", "fusion_lat": 0.0, "fusion_lon": 0.0, "bike_id": "ab7d9b1439db5bc95d160b7d900c582a", "rental_uris": {"ios": "https://dc.lft.to/lastmile_qr_scan", "android": "https://dc.lft.to/lastmile_qr_scan"}, "type": "electric_bike", "lat": 38.848397, "is_disabled": 0, "lon": -77.08052633333334, "is_reserved": 0}, {"name": "89d7187112853f62fa391abba8c1a475", "fusion_lat": 0.0, "fusion_lon": 0.0, "bike_id": "89d7187112853f62fa391abba8c1a475", "rental_uris": {"ios": "https://dc.lft.to/lastmile_qr_scan", "android": "https://dc.lft.to/lastmile_qr_scan"}, "type": "electric_scooter", "lat": 38.9001545, "is_disabled": 0, "lon": -77.033184, "is_reserved": 0}, {"name": "139284b817959a63af4d7a399c5a8f68", "fusion_lat": 0.0, "fusion_lon": 0.0, "bike_id": "139284b817959a63af4d7a399c5a8f68", "rental_uris": {"ios": "https://dc.lft.to/lastmile_qr_scan", "android": "https://dc.lft.to/lastmile_qr_scan"}, "type": "electric_scooter", "lat": 38.927893, "is_disabled": 0, "lon": -77.02741983333334, "is_reserved": 0}, {"name": "78f5a85e8703f271570b1a457d48be25", "fusion_lat": 0.0, "fusion_lon": 0.0, "bike_id": "78f5a85e8703f271570b1a457d48be25", "rental_uris": {"ios": "https://dc.lft.to/lastmile_qr_scan", "android": "https://dc.lft.to/lastmile_qr_scan"}, "type": "electric_scooter", "lat": 38.87459, "is_disabled": 0, "lon": -77.00508066666667, "is_reserved": 0}, {"name": "6009590807103fc6affbfa0747fdb4d9", "fusion_lat": 0.0, "fusion_lon": 0.0, "bike_id": "6009590807103fc6affbfa0747fdb4d9", "rental_uris": {"ios": "https://dc.lft.to/lastmile_qr_scan", "android": "https://dc.lft.to/lastmile_qr_scan"}, "type": "electric_scooter", "lat": 38.89850333333333, "is_disabled": 0, "lon": -76.99033866666667, "is_reserved": 0}, {"name": "f4807149c4d43a09f98980aabdbec0cf", "fusion_lat": 0.0, "fusion_lon": 0.0, "bike_id": "f4807149c4d43a09f98980aabdbec0cf", "rental_uris": {"ios": "https://dc.lft.to/lastmile_qr_scan", "android": "https://dc.lft.to/lastmile_qr_scan"}, "type": "electric_scooter", "lat": 38.92748133333333, "is_disabled": 0, "lon": -77.053647, "is_reserved": 0}, {"name": "ae2c27a3310c3658068e4d46fcb690f3", "fusion_lat": 0.0, "fusion_lon": 0.0, "bike_id": "ae2c27a3310c3658068e4d46fcb690f3", "rental_uris": {"ios": "https://dc.lft.to/lastmile_qr_scan", "android": "https://dc.lft.to/lastmile_qr_scan"}, "type": "electric_scooter", "lat": 38.913832666666664, "is_disabled": 0, "lon": -77.01705383333334, "is_reserved": 0}, {"name": "8824c9a7549f52b2a9d9dc797d970303", "fusion_lat": 0.0, "fusion_lon": 0.0, "bike_id": "8824c9a7549f52b2a9d9dc797d970303", "rental_uris": {"ios": "https://dc.lft.to/lastmile_qr_scan", "android": "https://dc.lft.to/lastmile_qr_scan"}, "type": "electric_scooter", "lat": 38.90718116666667, "is_disabled": 0, "lon": -77.03864966666667, "is_reserved": 0}, {"name": "ba4868f79fb01d6c378a4125b1933ac3", "fusion_lat": 0.0, "fusion_lon": 0.0, "bike_id": "ba4868f79fb01d6c378a4125b1933ac3", "rental_uris": {"ios": "https://dc.lft.to/lastmile_qr_scan", "android": "https://dc.lft.to/lastmile_qr_scan"}, "type": "electric_scooter", "lat": 38.905723333333334, "is_disabled": 0, "lon": -77.00902766666667, "is_reserved": 0}, {"name": "c16e272dda2e0daa73953b0a912e8cc4", "fusion_lat": 0.0, "fusion_lon": 0.0, "bike_id": "c16e272dda2e0daa73953b0a912e8cc4", "rental_uris": {"ios": "https://dc.lft.to/lastmile_qr_scan", "android": "https://dc.lft.to/lastmile_qr_scan"}, "type": "electric_scooter", "lat": 38.918177166666666, "is_disabled": 0, "lon": -77.02694633333333, "is_reserved": 0}, {"name": "10f85986a86c1155db739877b4f13198", "fusion_lat": 0.0, "fusion_lon": 0.0, "bike_id": "10f85986a86c1155db739877b4f13198", "rental_uris": {"ios": "https://dc.lft.to/lastmile_qr_scan", "android": "https://dc.lft.to/lastmile_qr_scan"}, "type": "electric_scooter", "lat": 38.9278115, "is_disabled": 0, "lon": -77.02729533333333, "is_reserved": 0}, {"name": "8016e0515308763f593720176f6242f9", "fusion_lat": 0.0, "fusion_lon": 0.0, "bike_id": "8016e0515308763f593720176f6242f9", "rental_uris": {"ios": "https://dc.lft.to/lastmile_qr_scan", "android": "https://dc.lft.to/lastmile_qr_scan"}, "type": "electric_scooter", "lat": 38.927167833333336, "is_disabled": 0, "lon": -77.04194516666666, "is_reserved": 0}, {"name": "c4333ec7d9e2a9b65ce584ce34e36670", "fusion_lat": 0.0, "fusion_lon": 0.0, "bike_id": "c4333ec7d9e2a9b65ce584ce34e36670", "rental_uris": {"ios": "https://dc.lft.to/lastmile_qr_scan", "android": "https://dc.lft.to/lastmile_qr_scan"}, "type": "electric_bike", "lat": 38.9551925, "is_disabled": 0, "lon": -76.9998375, "is_reserved": 0}, {"name": "a357fa08e71f3ff0d22823b659507a61", "fusion_lat": 0.0, "fusion_lon": 0.0, "bike_id": "a357fa08e71f3ff0d22823b659507a61", "rental_uris": {"ios": "https://dc.lft.to/lastmile_qr_scan", "android": "https://dc.lft.to/lastmile_qr_scan"}, "type": "electric_bike", "lat": 38.86904916666667, "is_disabled": 0, "lon": -77.1318185, "is_reserved": 0}, {"name": "a67605a57cb46ae312499672c7780309", "fusion_lat": 0.0, "fusion_lon": 0.0, "bike_id": "a67605a57cb46ae312499672c7780309", "rental_uris": {"ios": "https://dc.lft.to/lastmile_qr_scan", "android": "https://dc.lft.to/lastmile_qr_scan"}, "type": "electric_scooter", "lat": 38.924809833333335, "is_disabled": 0, "lon": -77.039433, "is_reserved": 0}, {"name": "67849fdf20b9e33c687abb9c4d31f174", "fusion_lat": 0.0, "fusion_lon": 0.0, "bike_id": "67849fdf20b9e33c687abb9c4d31f174", "rental_uris": {"ios": "https://dc.lft.to/lastmile_qr_scan", "android": "https://dc.lft.to/lastmile_qr_scan"}, "type": "electric_scooter", "lat": 38.90732916666666, "is_disabled": 0, "lon": -77.01135416666666, "is_reserved": 0}, {"name": "94615a4b851e954be6b76bfe5cbcdbba", "fusion_lat": 0.0, "fusion_lon": 0.0, "bike_id": "94615a4b851e954be6b76bfe5cbcdbba", "rental_uris": {"ios": "https://dc.lft.to/lastmile_qr_scan", "android": "https://dc.lft.to/lastmile_qr_scan"}, "type": "electric_scooter", "lat": 38.90399583333333, "is_disabled": 0, "lon": -77.02799316666666, "is_reserved": 0}, {"name": "7cda4d041c603473e73f855f3324a805", "fusion_lat": 0.0, "fusion_lon": 0.0, "bike_id": "7cda4d041c603473e73f855f3324a805", "rental_uris": {"ios": "https://dc.lft.to/lastmile_qr_scan", "android": "https://dc.lft.to/lastmile_qr_scan"}, "type": "electric_scooter", "lat": 38.90564633333334, "is_disabled": 0, "lon": -77.02211516666667, "is_reserved": 0}, {"name": "146de590a46d0f08f87743ad9ab7b93e", "fusion_lat": 0.0, "fusion_lon": 0.0, "bike_id": "146de590a46d0f08f87743ad9ab7b93e", "rental_uris": {"ios": "https://dc.lft.to/lastmile_qr_scan", "android": "https://dc.lft.to/lastmile_qr_scan"}, "type": "electric_bike", "lat": 38.900822166666664, "is_disabled": 0, "lon": -77.02994866666667, "is_reserved": 0}, {"name": "22fd312887a101d7c1db5890d22bd740", "fusion_lat": 0.0, "fusion_lon": 0.0, "bike_id": "22fd312887a101d7c1db5890d22bd740", "rental_uris": {"ios": "https://dc.lft.to/lastmile_qr_scan", "android": "https://dc.lft.to/lastmile_qr_scan"}, "type": "electric_scooter", "lat": 38.88495733333333, "is_disabled": 0, "lon": -77.02080916666667, "is_reserved": 0}, {"name": "8bde7b2b94bdd3ab1d9e84ae8d45220b", "fusion_lat": 0.0, "fusion_lon": 0.0, "bike_id": "8bde7b2b94bdd3ab1d9e84ae8d45220b", "rental_uris": {"ios": "https://dc.lft.to/lastmile_qr_scan", "android": "https://dc.lft.to/lastmile_qr_scan"}, "type": "electric_scooter", "lat": 38.92990283333334, "is_disabled": 0, "lon": -77.0347455, "is_reserved": 0}, {"name": "fbde181b23697ce09bbf6a9688218d21", "fusion_lat": 0.0, "fusion_lon": 0.0, "bike_id": "fbde181b23697ce09bbf6a9688218d21", "rental_uris": {"ios": "https://dc.lft.to/lastmile_qr_scan", "android": "https://dc.lft.to/lastmile_qr_scan"}, "type": "electric_scooter", "lat": 38.9169935, "is_disabled": 0, "lon": -77.02994533333333, "is_reserved": 0}, {"name": "4b1cfc7719a82b8bc6e6465d3794549f", "fusion_lat": 0.0, "fusion_lon": 0.0, "bike_id": "4b1cfc7719a82b8bc6e6465d3794549f", "rental_uris": {"ios": "https://dc.lft.to/lastmile_qr_scan", "android": "https://dc.lft.to/lastmile_qr_scan"}, "type": "electric_bike", "lat": 38.97535666666667, "is_disabled": 0, "lon": -76.99530816666666, "is_reserved": 0}, {"name": "34dd609c89232cddef24af0964e870fb", "fusion_lat": 0.0, "fusion_lon": 0.0, "bike_id": "34dd609c89232cddef24af0964e870fb", "rental_uris": {"ios": "https://dc.lft.to/lastmile_qr_scan", "android": "https://dc.lft.to/lastmile_qr_scan"}, "type": "electric_scooter", "lat": 38.908997, "is_disabled": 0, "lon": -77.03391216666667, "is_reserved": 0}, {"name": "f32ea904826a09f46eaef57cfb84fc6c", "fusion_lat": 0.0, "fusion_lon": 0.0, "bike_id": "f32ea904826a09f46eaef57cfb84fc6c", "rental_uris": {"ios": "https://dc.lft.to/lastmile_qr_scan", "android": "https://dc.lft.to/lastmile_qr_scan"}, "type": "electric_scooter", "lat": 38.88736883333333, "is_disabled": 0, "lon": -77.01540016666667, "is_reserved": 0}, {"name": "8b8ec1c30f65c28e55064a054680f56c", "fusion_lat": 0.0, "fusion_lon": 0.0, "bike_id": "8b8ec1c30f65c28e55064a054680f56c", "rental_uris": {"ios": "https://dc.lft.to/lastmile_qr_scan", "android": "https://dc.lft.to/lastmile_qr_scan"}, "type": "electric_scooter", "lat": 38.9013885, "is_disabled": 0, "lon": -77.041696, "is_reserved": 0}, {"name": "88ea347a061d2449bfd5529c7673a3b0", "fusion_lat": 0.0, "fusion_lon": 0.0, "bike_id": "88ea347a061d2449bfd5529c7673a3b0", "rental_uris": {"ios": "https://dc.lft.to/lastmile_qr_scan", "android": "https://dc.lft.to/lastmile_qr_scan"}, "type": "electric_scooter", "lat": 38.89539366666666, "is_disabled": 0, "lon": -77.016274, "is_reserved": 0}, {"name": "809f9f316228f3f97ab59ff817a859b6", "fusion_lat": 0.0, "fusion_lon": 0.0, "bike_id": "809f9f316228f3f97ab59ff817a859b6", "rental_uris": {"ios": "https://dc.lft.to/lastmile_qr_scan", "android": "https://dc.lft.to/lastmile_qr_scan"}, "type": "electric_scooter", "lat": 38.904622, "is_disabled": 0, "lon": -77.0281025, "is_reserved": 0}, {"name": "2bae4cc41578160e4fe25545c3bb36e7", "fusion_lat": 0.0, "fusion_lon": 0.0, "bike_id": "2bae4cc41578160e4fe25545c3bb36e7", "rental_uris": {"ios": "https://dc.lft.to/lastmile_qr_scan", "android": "https://dc.lft.to/lastmile_qr_scan"}, "type": "electric_scooter", "lat": 38.905783, "is_disabled": 0, "lon": -77.05319383333334, "is_reserved": 0}, {"name": "d0e4ad6c0e46dd1f2fd157fbfcc1521d", "fusion_lat": 0.0, "fusion_lon": 0.0, "bike_id": "d0e4ad6c0e46dd1f2fd157fbfcc1521d", "rental_uris": {"ios": "https://dc.lft.to/lastmile_qr_scan", "android": "https://dc.lft.to/lastmile_qr_scan"}, "type": "electric_scooter", "lat": 38.89834783333333, "is_disabled": 0, "lon": -76.946344, "is_reserved": 0}, {"name": "4e4ee0cbd09f939644d60e4c4dae21c1", "fusion_lat": 0.0, "fusion_lon": 0.0, "bike_id": "4e4ee0cbd09f939644d60e4c4dae21c1", "rental_uris": {"ios": "https://dc.lft.to/lastmile_qr_scan", "android": "https://dc.lft.to/lastmile_qr_scan"}, "type": "electric_scooter", "lat": 38.8993085, "is_disabled": 0, "lon": -77.0293, "is_reserved": 0}, {"name": "6c53413d60d44f16d8ae64fd373472ca", "fusion_lat": 0.0, "fusion_lon": 0.0, "bike_id": "6c53413d60d44f16d8ae64fd373472ca", "rental_uris": {"ios": "https://dc.lft.to/lastmile_qr_scan", "android": "https://dc.lft.to/lastmile_qr_scan"}, "type": "electric_bike", "lat": 38.91591, "is_disabled": 0, "lon": -76.97155916666667, "is_reserved": 0}, {"name": "839b32c50255eecf842b1b9d9f71c492", "fusion_lat": 0.0, "fusion_lon": 0.0, "bike_id": "839b32c50255eecf842b1b9d9f71c492", "rental_uris": {"ios": "https://dc.lft.to/lastmile_qr_scan", "android": "https://dc.lft.to/lastmile_qr_scan"}, "type": "electric_scooter", "lat": 38.938745833333336, "is_disabled": 0, "lon": -77.03227, "is_reserved": 0}, {"name": "a321dfcd649a7538d6091f3614f3262e", "fusion_lat": 0.0, "fusion_lon": 0.0, "bike_id": "a321dfcd649a7538d6091f3614f3262e", "rental_uris": {"ios": "https://dc.lft.to/lastmile_qr_scan", "android": "https://dc.lft.to/lastmile_qr_scan"}, "type": "electric_scooter", "lat": 38.905491833333336, "is_disabled": 0, "lon": -77.0060205, "is_reserved": 0}, {"name": "18f3f1937b47cd8e291965997703451c", "fusion_lat": 0.0, "fusion_lon": 0.0, "bike_id": "18f3f1937b47cd8e291965997703451c", "rental_uris": {"ios": "https://dc.lft.to/lastmile_qr_scan", "android": "https://dc.lft.to/lastmile_qr_scan"}, "type": "electric_scooter", "lat": 38.917578, "is_disabled": 0, "lon": -77.02801966666667, "is_reserved": 0}, {"name": "20995799f8881291650c0f659e1c76dd", "fusion_lat": 0.0, "fusion_lon": 0.0, "bike_id": "20995799f8881291650c0f659e1c76dd", "rental_uris": {"ios": "https://dc.lft.to/lastmile_qr_scan", "android": "https://dc.lft.to/lastmile_qr_scan"}, "type": "electric_scooter", "lat": 38.9199305, "is_disabled": 0, "lon": -77.03307133333334, "is_reserved": 0}, {"name": "43a2a1efdc094eb133dc5d27efb1b275", "fusion_lat": 0.0, "fusion_lon": 0.0, "bike_id": "43a2a1efdc094eb133dc5d27efb1b275", "rental_uris": {"ios": "https://dc.lft.to/lastmile_qr_scan", "android": "https://dc.lft.to/lastmile_qr_scan"}, "type": "electric_scooter", "lat": 38.932239, "is_disabled": 0, "lon": -76.99492083333334, "is_reserved": 0}, {"name": "34560a859f707098e89c19bf8b00db99", "fusion_lat": 0.0, "fusion_lon": 0.0, "bike_id": "34560a859f707098e89c19bf8b00db99", "rental_uris": {"ios": "https://dc.lft.to/lastmile_qr_scan", "android": "https://dc.lft.to/lastmile_qr_scan"}, "type": "electric_bike", "lat": 38.97259716666667, "is_disabled": 0, "lon": -76.99169116666667, "is_reserved": 0}, {"name": "cda4dedf252be61359d4513adac4f49f", "fusion_lat": 0.0, "fusion_lon": 0.0, "bike_id": "cda4dedf252be61359d4513adac4f49f", "rental_uris": {"ios": "https://dc.lft.to/lastmile_qr_scan", "android": "https://dc.lft.to/lastmile_qr_scan"}, "type": "electric_scooter", "lat": 38.89736883333333, "is_disabled": 0, "lon": -77.01011116666666, "is_reserved": 0}, {"name": "12faa9c86e2b13bd6d8f3957029aa73c", "fusion_lat": 0.0, "fusion_lon": 0.0, "bike_id": "12faa9c86e2b13bd6d8f3957029aa73c", "rental_uris": {"ios": "https://dc.lft.to/lastmile_qr_scan", "android": "https://dc.lft.to/lastmile_qr_scan"}, "type": "electric_scooter", "lat": 38.93463883333333, "is_disabled": 0, "lon": -77.0687475, "is_reserved": 0}, {"name": "fada3be898b7f6ab6a137a51929cc0e2", "fusion_lat": 0.0, "fusion_lon": 0.0, "bike_id": "fada3be898b7f6ab6a137a51929cc0e2", "rental_uris": {"ios": "https://dc.lft.to/lastmile_qr_scan", "android": "https://dc.lft.to/lastmile_qr_scan"}, "type": "electric_scooter", "lat": 38.923437, "is_disabled": 0, "lon": -77.03515, "is_reserved": 0}, {"name": "4ee6602130ae2596d50f3527b936a0fd", "fusion_lat": 0.0, "fusion_lon": 0.0, "bike_id": "4ee6602130ae2596d50f3527b936a0fd", "rental_uris": {"ios": "https://dc.lft.to/lastmile_qr_scan", "android": "https://dc.lft.to/lastmile_qr_scan"}, "type": "electric_bike", "lat": 38.839340166666666, "is_disabled": 0, "lon": -77.07906383333334, "is_reserved": 0}, {"name": "6c02a4e48a42e6a636b096eba9f0f944", "fusion_lat": 0.0, "fusion_lon": 0.0, "bike_id": "6c02a4e48a42e6a636b096eba9f0f944", "rental_uris": {"ios": "https://dc.lft.to/lastmile_qr_scan", "android": "https://dc.lft.to/lastmile_qr_scan"}, "type": "electric_scooter", "lat": 38.89867116666667, "is_disabled": 0, "lon": -77.01635033333334, "is_reserved": 0}, {"name": "822cc3a5106f89a3cb6bdc310cb2a231", "fusion_lat": 0.0, "fusion_lon": 0.0, "bike_id": "822cc3a5106f89a3cb6bdc310cb2a231", "rental_uris": {"ios": "https://dc.lft.to/lastmile_qr_scan", "android": "https://dc.lft.to/lastmile_qr_scan"}, "type": "electric_bike", "lat": 38.81268683333333, "is_disabled": 0, "lon": -77.06174183333333, "is_reserved": 0}, {"name": "b2943072b6cdf742e3d3b38ce408f09d", "fusion_lat": 0.0, "fusion_lon": 0.0, "bike_id": "b2943072b6cdf742e3d3b38ce408f09d", "rental_uris": {"ios": "https://dc.lft.to/lastmile_qr_scan", "android": "https://dc.lft.to/lastmile_qr_scan"}, "type": "electric_scooter", "lat": 38.879356666666666, "is_disabled": 0, "lon": -77.01474433333334, "is_reserved": 0}, {"name": "7fa920779b2e7865bee63bdce975dd46", "fusion_lat": 0.0, "fusion_lon": 0.0, "bike_id": "7fa920779b2e7865bee63bdce975dd46", "rental_uris": {"ios": "https://dc.lft.to/lastmile_qr_scan", "android": "https://dc.lft.to/lastmile_qr_scan"}, "type": "electric_scooter", "lat": 38.913518, "is_disabled": 0, "lon": -77.0175695, "is_reserved": 0}, {"name": "016531a1fce99bc857fdc442a481ba8f", "fusion_lat": 0.0, "fusion_lon": 0.0, "bike_id": "016531a1fce99bc857fdc442a481ba8f", "rental_uris": {"ios": "https://dc.lft.to/lastmile_qr_scan", "android": "https://dc.lft.to/lastmile_qr_scan"}, "type": "electric_scooter", "lat": 38.902458333333335, "is_disabled": 0, "lon": -77.0457415, "is_reserved": 0}, {"name": "b04f30dc20d1c2271aa54a291ca596f3", "fusion_lat": 0.0, "fusion_lon": 0.0, "bike_id": "b04f30dc20d1c2271aa54a291ca596f3", "rental_uris": {"ios": "https://dc.lft.to/lastmile_qr_scan", "android": "https://dc.lft.to/lastmile_qr_scan"}, "type": "electric_bike", "lat": 38.9185265, "is_disabled": 0, "lon": -76.96090933333333, "is_reserved": 0}, {"name": "4fe694165abaac2b3fe2569b87ccce9d", "fusion_lat": 0.0, "fusion_lon": 0.0, "bike_id": "4fe694165abaac2b3fe2569b87ccce9d", "rental_uris": {"ios": "https://dc.lft.to/lastmile_qr_scan", "android": "https://dc.lft.to/lastmile_qr_scan"}, "type": "electric_scooter", "lat": 38.928474333333334, "is_disabled": 0, "lon": -77.0562815, "is_reserved": 0}, {"name": "10705d267227ed2d17e8673fd5125598", "fusion_lat": 0.0, "fusion_lon": 0.0, "bike_id": "10705d267227ed2d17e8673fd5125598", "rental_uris": {"ios": "https://dc.lft.to/lastmile_qr_scan", "android": "https://dc.lft.to/lastmile_qr_scan"}, "type": "electric_scooter", "lat": 38.91496933333333, "is_disabled": 0, "lon": -76.98372283333333, "is_reserved": 0}, {"name": "3f1feb269046914fec710557cb077a7d", "fusion_lat": 0.0, "fusion_lon": 0.0, "bike_id": "3f1feb269046914fec710557cb077a7d", "rental_uris": {"ios": "https://dc.lft.to/lastmile_qr_scan", "android": "https://dc.lft.to/lastmile_qr_scan"}, "type": "electric_scooter", "lat": 38.9077565, "is_disabled": 0, "lon": -77.038269, "is_reserved": 0}, {"name": "ec934dd2a02f24407fb09776c2f3212d", "fusion_lat": 0.0, "fusion_lon": 0.0, "bike_id": "ec934dd2a02f24407fb09776c2f3212d", "rental_uris": {"ios": "https://dc.lft.to/lastmile_qr_scan", "android": "https://dc.lft.to/lastmile_qr_scan"}, "type": "electric_scooter", "lat": 38.90494016666667, "is_disabled": 0, "lon": -77.04654266666667, "is_reserved": 0}, {"name": "9a7f58b9d77bad8414d8aa5f138bb970", "fusion_lat": 0.0, "fusion_lon": 0.0, "bike_id": "9a7f58b9d77bad8414d8aa5f138bb970", "rental_uris": {"ios": "https://dc.lft.to/lastmile_qr_scan", "android": "https://dc.lft.to/lastmile_qr_scan"}, "type": "electric_scooter", "lat": 38.898236833333335, "is_disabled": 0, "lon": -77.04356633333333, "is_reserved": 0}, {"name": "712858bbc6bd655c9fa96b89c92d5e65", "fusion_lat": 0.0, "fusion_lon": 0.0, "bike_id": "712858bbc6bd655c9fa96b89c92d5e65", "rental_uris": {"ios": "https://dc.lft.to/lastmile_qr_scan", "android": "https://dc.lft.to/lastmile_qr_scan"}, "type": "electric_scooter", "lat": 38.9193915, "is_disabled": 0, "lon": -77.0708085, "is_reserved": 0}, {"name": "f7e6a120cf4906fc1f58e95089d68d51", "fusion_lat": 0.0, "fusion_lon": 0.0, "bike_id": "f7e6a120cf4906fc1f58e95089d68d51", "rental_uris": {"ios": "https://dc.lft.to/lastmile_qr_scan", "android": "https://dc.lft.to/lastmile_qr_scan"}, "type": "electric_scooter", "lat": 38.910477666666665, "is_disabled": 0, "lon": -77.02180866666667, "is_reserved": 0}, {"name": "508dfaaa60f67dbfbd40c10c73e4c89a", "fusion_lat": 0.0, "fusion_lon": 0.0, "bike_id": "508dfaaa60f67dbfbd40c10c73e4c89a", "rental_uris": {"ios": "https://dc.lft.to/lastmile_qr_scan", "android": "https://dc.lft.to/lastmile_qr_scan"}, "type": "electric_bike", "lat": 38.83940616666667, "is_disabled": 0, "lon": -77.07897433333333, "is_reserved": 0}, {"name": "c68918d18b2092c4f27a36f3c9622d3a", "fusion_lat": 0.0, "fusion_lon": 0.0, "bike_id": "c68918d18b2092c4f27a36f3c9622d3a", "rental_uris": {"ios": "https://dc.lft.to/lastmile_qr_scan", "android": "https://dc.lft.to/lastmile_qr_scan"}, "type": "electric_scooter", "lat": 38.91149633333333, "is_disabled": 0, "lon": -77.04432933333334, "is_reserved": 0}, {"name": "4943c2330cdcfd105c9e72dba705420d", "fusion_lat": 0.0, "fusion_lon": 0.0, "bike_id": "4943c2330cdcfd105c9e72dba705420d", "rental_uris": {"ios": "https://dc.lft.to/lastmile_qr_scan", "android": "https://dc.lft.to/lastmile_qr_scan"}, "type": "electric_scooter", "lat": 38.9262125, "is_disabled": 0, "lon": -77.05709583333334, "is_reserved": 0}, {"name": "991538ba342a56f5adb352c979b6fa27", "fusion_lat": 0.0, "fusion_lon": 0.0, "bike_id": "991538ba342a56f5adb352c979b6fa27", "rental_uris": {"ios": "https://dc.lft.to/lastmile_qr_scan", "android": "https://dc.lft.to/lastmile_qr_scan"}, "type": "electric_scooter", "lat": 38.89972083333333, "is_disabled": 0, "lon": -76.99505383333333, "is_reserved": 0}, {"name": "41f304e6ee2648dc55cd58fcf1f18be1", "fusion_lat": 0.0, "fusion_lon": 0.0, "bike_id": "41f304e6ee2648dc55cd58fcf1f18be1", "rental_uris": {"ios": "https://dc.lft.to/lastmile_qr_scan", "android": "https://dc.lft.to/lastmile_qr_scan"}, "type": "electric_bike", "lat": 38.95958866666667, "is_disabled": 0, "lon": -76.98170066666667, "is_reserved": 0}, {"name": "5f1953bfa00ac15f6ecb766453fde75e", "fusion_lat": 0.0, "fusion_lon": 0.0, "bike_id": "5f1953bfa00ac15f6ecb766453fde75e", "rental_uris": {"ios": "https://dc.lft.to/lastmile_qr_scan", "android": "https://dc.lft.to/lastmile_qr_scan"}, "type": "electric_scooter", "lat": 38.90313866666666, "is_disabled": 0, "lon": -76.9780405, "is_reserved": 0}, {"name": "da764bb687e9f712b9818597695f0ed9", "fusion_lat": 0.0, "fusion_lon": 0.0, "bike_id": "da764bb687e9f712b9818597695f0ed9", "rental_uris": {"ios": "https://dc.lft.to/lastmile_qr_scan", "android": "https://dc.lft.to/lastmile_qr_scan"}, "type": "electric_scooter", "lat": 38.88754333333333, "is_disabled": 0, "lon": -77.00266516666667, "is_reserved": 0}, {"name": "30439fa8175805a6d06b2c6a10a5cc10", "fusion_lat": 0.0, "fusion_lon": 0.0, "bike_id": "30439fa8175805a6d06b2c6a10a5cc10", "rental_uris": {"ios": "https://dc.lft.to/lastmile_qr_scan", "android": "https://dc.lft.to/lastmile_qr_scan"}, "type": "electric_scooter", "lat": 38.90019516666667, "is_disabled": 0, "lon": -77.0116005, "is_reserved": 0}, {"name": "741ca7663a7fda2cf33f9b753cc5c9ff", "fusion_lat": 0.0, "fusion_lon": 0.0, "bike_id": "741ca7663a7fda2cf33f9b753cc5c9ff", "rental_uris": {"ios": "https://dc.lft.to/lastmile_qr_scan", "android": "https://dc.lft.to/lastmile_qr_scan"}, "type": "electric_scooter", "lat": 38.944391, "is_disabled": 0, "lon": -77.064119, "is_reserved": 0}, {"name": "c05c8494ab7f1a8e1c00e22f5b40814d", "fusion_lat": 0.0, "fusion_lon": 0.0, "bike_id": "c05c8494ab7f1a8e1c00e22f5b40814d", "rental_uris": {"ios": "https://dc.lft.to/lastmile_qr_scan", "android": "https://dc.lft.to/lastmile_qr_scan"}, "type": "electric_scooter", "lat": 38.910506166666664, "is_disabled": 0, "lon": -77.04060116666666, "is_reserved": 0}, {"name": "a26d2b8a82e11171279a5740c36a1055", "fusion_lat": 0.0, "fusion_lon": 0.0, "bike_id": "a26d2b8a82e11171279a5740c36a1055", "rental_uris": {"ios": "https://dc.lft.to/lastmile_qr_scan", "android": "https://dc.lft.to/lastmile_qr_scan"}, "type": "electric_scooter", "lat": 38.8876245, "is_disabled": 0, "lon": -76.9567285, "is_reserved": 0}, {"name": "f0d357be46d1699b0f7f22506d6556b8", "fusion_lat": 0.0, "fusion_lon": 0.0, "bike_id": "f0d357be46d1699b0f7f22506d6556b8", "rental_uris": {"ios": "https://dc.lft.to/lastmile_qr_scan", "android": "https://dc.lft.to/lastmile_qr_scan"}, "type": "electric_scooter", "lat": 38.89873133333333, "is_disabled": 0, "lon": -76.93186883333334, "is_reserved": 0}, {"name": "dd8ded0591e17033a7fecb2b36cb1434", "fusion_lat": 0.0, "fusion_lon": 0.0, "bike_id": "dd8ded0591e17033a7fecb2b36cb1434", "rental_uris": {"ios": "https://dc.lft.to/lastmile_qr_scan", "android": "https://dc.lft.to/lastmile_qr_scan"}, "type": "electric_bike", "lat": 38.959453, "is_disabled": 0, "lon": -77.02436683333333, "is_reserved": 0}, {"name": "98a6983de3b44fe7a78347f3099900b0", "fusion_lat": 0.0, "fusion_lon": 0.0, "bike_id": "98a6983de3b44fe7a78347f3099900b0", "rental_uris": {"ios": "https://dc.lft.to/lastmile_qr_scan", "android": "https://dc.lft.to/lastmile_qr_scan"}, "type": "electric_scooter", "lat": 38.887438, "is_disabled": 0, "lon": -77.02127283333333, "is_reserved": 0}, {"name": "82fcedb066028713ef1f73d89915504b", "fusion_lat": 0.0, "fusion_lon": 0.0, "bike_id": "82fcedb066028713ef1f73d89915504b", "rental_uris": {"ios": "https://dc.lft.to/lastmile_qr_scan", "android": "https://dc.lft.to/lastmile_qr_scan"}, "type": "electric_bike", "lat": 39.01016416666667, "is_disabled": 0, "lon": -76.911428, "is_reserved": 0}, {"name": "0e2e507b688ee87101a00868dacd32d3", "fusion_lat": 0.0, "fusion_lon": 0.0, "bike_id": "0e2e507b688ee87101a00868dacd32d3", "rental_uris": {"ios": "https://dc.lft.to/lastmile_qr_scan", "android": "https://dc.lft.to/lastmile_qr_scan"}, "type": "electric_scooter", "lat": 38.90413066666667, "is_disabled": 0, "lon": -76.9907005, "is_reserved": 0}, {"name": "b09584984b4ab745ee2a8c9d04d28d28", "fusion_lat": 0.0, "fusion_lon": 0.0, "bike_id": "b09584984b4ab745ee2a8c9d04d28d28", "rental_uris": {"ios": "https://dc.lft.to/lastmile_qr_scan", "android": "https://dc.lft.to/lastmile_qr_scan"}, "type": "electric_scooter", "lat": 38.92198116666667, "is_disabled": 0, "lon": -76.9969735, "is_reserved": 0}, {"name": "7764c3ed7d67685a56b7dd249663647b", "fusion_lat": 0.0, "fusion_lon": 0.0, "bike_id": "7764c3ed7d67685a56b7dd249663647b", "rental_uris": {"ios": "https://dc.lft.to/lastmile_qr_scan", "android": "https://dc.lft.to/lastmile_qr_scan"}, "type": "electric_scooter", "lat": 38.9147445, "is_disabled": 0, "lon": -77.00349483333333, "is_reserved": 0}, {"name": "5b54644832f074992d6193c3906b3632", "fusion_lat": 0.0, "fusion_lon": 0.0, "bike_id": "5b54644832f074992d6193c3906b3632", "rental_uris": {"ios": "https://dc.lft.to/lastmile_qr_scan", "android": "https://dc.lft.to/lastmile_qr_scan"}, "type": "electric_scooter", "lat": 38.91117466666667, "is_disabled": 0, "lon": -77.02238283333334, "is_reserved": 0}, {"name": "0fe841d734085859247cfc3c3c53f582", "fusion_lat": 0.0, "fusion_lon": 0.0, "bike_id": "0fe841d734085859247cfc3c3c53f582", "rental_uris": {"ios": "https://dc.lft.to/lastmile_qr_scan", "android": "https://dc.lft.to/lastmile_qr_scan"}, "type": "electric_scooter", "lat": 38.87586483333333, "is_disabled": 0, "lon": -77.005995, "is_reserved": 0}, {"name": "51545ed12a7558618959b72846c9d771", "fusion_lat": 0.0, "fusion_lon": 0.0, "bike_id": "51545ed12a7558618959b72846c9d771", "rental_uris": {"ios": "https://dc.lft.to/lastmile_qr_scan", "android": "https://dc.lft.to/lastmile_qr_scan"}, "type": "electric_scooter", "lat": 38.918138166666665, "is_disabled": 0, "lon": -77.02673533333333, "is_reserved": 0}, {"name": "2d64d1b494d341931b11fd74e9071b36", "fusion_lat": 0.0, "fusion_lon": 0.0, "bike_id": "2d64d1b494d341931b11fd74e9071b36", "rental_uris": {"ios": "https://dc.lft.to/lastmile_qr_scan", "android": "https://dc.lft.to/lastmile_qr_scan"}, "type": "electric_scooter", "lat": 38.93126016666667, "is_disabled": 0, "lon": -77.023709, "is_reserved": 0}, {"name": "dccf933e76b4795424ab751217666487", "fusion_lat": 0.0, "fusion_lon": 0.0, "bike_id": "dccf933e76b4795424ab751217666487", "rental_uris": {"ios": "https://dc.lft.to/lastmile_qr_scan", "android": "https://dc.lft.to/lastmile_qr_scan"}, "type": "electric_scooter", "lat": 38.9198815, "is_disabled": 0, "lon": -77.03309616666667, "is_reserved": 0}, {"name": "368e4c83ed2211c96ecaff0b309e751c", "fusion_lat": 0.0, "fusion_lon": 0.0, "bike_id": "368e4c83ed2211c96ecaff0b309e751c", "rental_uris": {"ios": "https://dc.lft.to/lastmile_qr_scan", "android": "https://dc.lft.to/lastmile_qr_scan"}, "type": "electric_scooter", "lat": 38.90504983333334, "is_disabled": 0, "lon": -77.05128333333333, "is_reserved": 0}, {"name": "ed23b09ff372add1a464f6207e75342a", "fusion_lat": 0.0, "fusion_lon": 0.0, "bike_id": "ed23b09ff372add1a464f6207e75342a", "rental_uris": {"ios": "https://dc.lft.to/lastmile_qr_scan", "android": "https://dc.lft.to/lastmile_qr_scan"}, "type": "electric_scooter", "lat": 38.941999, "is_disabled": 0, "lon": -77.02581433333333, "is_reserved": 0}, {"name": "1c17686074407d2a73d49a4324497557", "fusion_lat": 0.0, "fusion_lon": 0.0, "bike_id": "1c17686074407d2a73d49a4324497557", "rental_uris": {"ios": "https://dc.lft.to/lastmile_qr_scan", "android": "https://dc.lft.to/lastmile_qr_scan"}, "type": "electric_scooter", "lat": 38.90132883333333, "is_disabled": 0, "lon": -77.043995, "is_reserved": 0}, {"name": "eea7f04f67a9aa0ba4aad1c4f4e12c8b", "fusion_lat": 0.0, "fusion_lon": 0.0, "bike_id": "eea7f04f67a9aa0ba4aad1c4f4e12c8b", "rental_uris": {"ios": "https://dc.lft.to/lastmile_qr_scan", "android": "https://dc.lft.to/lastmile_qr_scan"}, "type": "electric_bike", "lat": 38.9500405, "is_disabled": 0, "lon": -77.35311016666667, "is_reserved": 0}, {"name": "a6892d3c72990511a35c4196264b03a3", "fusion_lat": 0.0, "fusion_lon": 0.0, "bike_id": "a6892d3c72990511a35c4196264b03a3", "rental_uris": {"ios": "https://dc.lft.to/lastmile_qr_scan", "android": "https://dc.lft.to/lastmile_qr_scan"}, "type": "electric_scooter", "lat": 38.91220416666667, "is_disabled": 0, "lon": -77.03860033333333, "is_reserved": 0}, {"name": "ff51d4d2b94254e93637069af6ebe688", "fusion_lat": 0.0, "fusion_lon": 0.0, "bike_id": "ff51d4d2b94254e93637069af6ebe688", "rental_uris": {"ios": "https://dc.lft.to/lastmile_qr_scan", "android": "https://dc.lft.to/lastmile_qr_scan"}, "type": "electric_scooter", "lat": 38.8920885, "is_disabled": 0, "lon": -77.0260985, "is_reserved": 0}, {"name": "134aff171e7eed39987e55a964701d03", "fusion_lat": 0.0, "fusion_lon": 0.0, "bike_id": "134aff171e7eed39987e55a964701d03", "rental_uris": {"ios": "https://dc.lft.to/lastmile_qr_scan", "android": "https://dc.lft.to/lastmile_qr_scan"}, "type": "electric_scooter", "lat": 38.91571183333333, "is_disabled": 0, "lon": -77.04667066666667, "is_reserved": 0}, {"name": "113cdb93ffe622669e4fe75535517ff1", "fusion_lat": 0.0, "fusion_lon": 0.0, "bike_id": "113cdb93ffe622669e4fe75535517ff1", "rental_uris": {"ios": "https://dc.lft.to/lastmile_qr_scan", "android": "https://dc.lft.to/lastmile_qr_scan"}, "type": "electric_scooter", "lat": 38.898712833333335, "is_disabled": 0, "lon": -77.01627583333334, "is_reserved": 0}, {"name": "f2a393a7e28a31df67f8ccfab6e46bdb", "fusion_lat": 0.0, "fusion_lon": 0.0, "bike_id": "f2a393a7e28a31df67f8ccfab6e46bdb", "rental_uris": {"ios": "https://dc.lft.to/lastmile_qr_scan", "android": "https://dc.lft.to/lastmile_qr_scan"}, "type": "electric_scooter", "lat": 38.92461633333333, "is_disabled": 0, "lon": -76.99738483333333, "is_reserved": 0}, {"name": "0f6ae1eb08f44e887b3558ee2d8e0c4c", "fusion_lat": 0.0, "fusion_lon": 0.0, "bike_id": "0f6ae1eb08f44e887b3558ee2d8e0c4c", "rental_uris": {"ios": "https://dc.lft.to/lastmile_qr_scan", "android": "https://dc.lft.to/lastmile_qr_scan"}, "type": "electric_scooter", "lat": 38.939036, "is_disabled": 0, "lon": -77.02461783333334, "is_reserved": 0}, {"name": "e0418f7652e45f3d4a2d55c50bee0360", "fusion_lat": 0.0, "fusion_lon": 0.0, "bike_id": "e0418f7652e45f3d4a2d55c50bee0360", "rental_uris": {"ios": "https://dc.lft.to/lastmile_qr_scan", "android": "https://dc.lft.to/lastmile_qr_scan"}, "type": "electric_scooter", "lat": 38.92579383333333, "is_disabled": 0, "lon": -77.030611, "is_reserved": 0}, {"name": "a1fc454ae59b89d97e9770c93dc4788c", "fusion_lat": 0.0, "fusion_lon": 0.0, "bike_id": "a1fc454ae59b89d97e9770c93dc4788c", "rental_uris": {"ios": "https://dc.lft.to/lastmile_qr_scan", "android": "https://dc.lft.to/lastmile_qr_scan"}, "type": "electric_bike", "lat": 38.916723, "is_disabled": 0, "lon": -77.09582166666667, "is_reserved": 0}, {"name": "9058daa85b6518c5157606e2dedb7530", "fusion_lat": 0.0, "fusion_lon": 0.0, "bike_id": "9058daa85b6518c5157606e2dedb7530", "rental_uris": {"ios": "https://dc.lft.to/lastmile_qr_scan", "android": "https://dc.lft.to/lastmile_qr_scan"}, "type": "electric_scooter", "lat": 38.922486, "is_disabled": 0, "lon": -77.04213083333333, "is_reserved": 0}, {"name": "6dc05ebc65c2d18a2c5b7f26d69ee64e", "fusion_lat": 0.0, "fusion_lon": 0.0, "bike_id": "6dc05ebc65c2d18a2c5b7f26d69ee64e", "rental_uris": {"ios": "https://dc.lft.to/lastmile_qr_scan", "android": "https://dc.lft.to/lastmile_qr_scan"}, "type": "electric_bike", "lat": 38.865333, "is_disabled": 0, "lon": -77.1282105, "is_reserved": 0}, {"name": "74aa263d5ff1980e1bbb610e8613a7fe", "fusion_lat": 0.0, "fusion_lon": 0.0, "bike_id": "74aa263d5ff1980e1bbb610e8613a7fe", "rental_uris": {"ios": "https://dc.lft.to/lastmile_qr_scan", "android": "https://dc.lft.to/lastmile_qr_scan"}, "type": "electric_scooter", "lat": 38.9084605, "is_disabled": 0, "lon": -77.02388883333333, "is_reserved": 0}, {"name": "a066083079076ce6bb8428d5965ea43d", "fusion_lat": 0.0, "fusion_lon": 0.0, "bike_id": "a066083079076ce6bb8428d5965ea43d", "rental_uris": {"ios": "https://dc.lft.to/lastmile_qr_scan", "android": "https://dc.lft.to/lastmile_qr_scan"}, "type": "electric_scooter", "lat": 38.901957333333335, "is_disabled": 0, "lon": -77.05488066666666, "is_reserved": 0}, {"name": "0c82167511de3c92d0769c2056267118", "fusion_lat": 0.0, "fusion_lon": 0.0, "bike_id": "0c82167511de3c92d0769c2056267118", "rental_uris": {"ios": "https://dc.lft.to/lastmile_qr_scan", "android": "https://dc.lft.to/lastmile_qr_scan"}, "type": "electric_scooter", "lat": 38.86361816666667, "is_disabled": 0, "lon": -76.99058683333334, "is_reserved": 0}, {"name": "3e2e708b90b588cff80259e30bfb5404", "fusion_lat": 0.0, "fusion_lon": 0.0, "bike_id": "3e2e708b90b588cff80259e30bfb5404", "rental_uris": {"ios": "https://dc.lft.to/lastmile_qr_scan", "android": "https://dc.lft.to/lastmile_qr_scan"}, "type": "electric_scooter", "lat": 38.922783833333334, "is_disabled": 0, "lon": -77.0447125, "is_reserved": 0}, {"name": "22136f29de544d0c9243d061ce2e5946", "fusion_lat": 0.0, "fusion_lon": 0.0, "bike_id": "22136f29de544d0c9243d061ce2e5946", "rental_uris": {"ios": "https://dc.lft.to/lastmile_qr_scan", "android": "https://dc.lft.to/lastmile_qr_scan"}, "type": "electric_bike", "lat": 38.8244175, "is_disabled": 0, "lon": -77.07050733333334, "is_reserved": 0}, {"name": "20f837e8f2617f93af33d78fc4421d0d", "fusion_lat": 0.0, "fusion_lon": 0.0, "bike_id": "20f837e8f2617f93af33d78fc4421d0d", "rental_uris": {"ios": "https://dc.lft.to/lastmile_qr_scan", "android": "https://dc.lft.to/lastmile_qr_scan"}, "type": "electric_scooter", "lat": 38.914053333333335, "is_disabled": 0, "lon": -77.03220233333333, "is_reserved": 0}, {"name": "783ab8c1156953b2ba47b341a7c6c13f", "fusion_lat": 0.0, "fusion_lon": 0.0, "bike_id": "783ab8c1156953b2ba47b341a7c6c13f", "rental_uris": {"ios": "https://dc.lft.to/lastmile_qr_scan", "android": "https://dc.lft.to/lastmile_qr_scan"}, "type": "electric_scooter", "lat": 38.9216275, "is_disabled": 0, "lon": -77.0468785, "is_reserved": 0}, {"name": "d01d9928002bc3b9705da52351f23971", "fusion_lat": 0.0, "fusion_lon": 0.0, "bike_id": "d01d9928002bc3b9705da52351f23971", "rental_uris": {"ios": "https://dc.lft.to/lastmile_qr_scan", "android": "https://dc.lft.to/lastmile_qr_scan"}, "type": "electric_scooter", "lat": 38.90485416666667, "is_disabled": 0, "lon": -77.03569416666667, "is_reserved": 0}, {"name": "12508455139a9e318fc5eb49ab7ffc61", "fusion_lat": 0.0, "fusion_lon": 0.0, "bike_id": "12508455139a9e318fc5eb49ab7ffc61", "rental_uris": {"ios": "https://dc.lft.to/lastmile_qr_scan", "android": "https://dc.lft.to/lastmile_qr_scan"}, "type": "electric_scooter", "lat": 38.88014666666667, "is_disabled": 0, "lon": -77.00547133333333, "is_reserved": 0}, {"name": "38b07d7c9c1533eb0dc997f1b3b1c750", "fusion_lat": 0.0, "fusion_lon": 0.0, "bike_id": "38b07d7c9c1533eb0dc997f1b3b1c750", "rental_uris": {"ios": "https://dc.lft.to/lastmile_qr_scan", "android": "https://dc.lft.to/lastmile_qr_scan"}, "type": "electric_scooter", "lat": 38.90064433333333, "is_disabled": 0, "lon": -77.04888783333334, "is_reserved": 0}, {"name": "a9e910cef58d71c0fc0323bea2ac0784", "fusion_lat": 0.0, "fusion_lon": 0.0, "bike_id": "a9e910cef58d71c0fc0323bea2ac0784", "rental_uris": {"ios": "https://dc.lft.to/lastmile_qr_scan", "android": "https://dc.lft.to/lastmile_qr_scan"}, "type": "electric_scooter", "lat": 38.93179133333334, "is_disabled": 0, "lon": -77.03636266666666, "is_reserved": 0}, {"name": "18a4001284f825a98f80bb0c542484cb", "fusion_lat": 0.0, "fusion_lon": 0.0, "bike_id": "18a4001284f825a98f80bb0c542484cb", "rental_uris": {"ios": "https://dc.lft.to/lastmile_qr_scan", "android": "https://dc.lft.to/lastmile_qr_scan"}, "type": "electric_bike", "lat": 38.945763, "is_disabled": 0, "lon": -76.98777083333333, "is_reserved": 0}, {"name": "4b5dffcfc90e01586fa31e8d8e34e327", "fusion_lat": 0.0, "fusion_lon": 0.0, "bike_id": "4b5dffcfc90e01586fa31e8d8e34e327", "rental_uris": {"ios": "https://dc.lft.to/lastmile_qr_scan", "android": "https://dc.lft.to/lastmile_qr_scan"}, "type": "electric_scooter", "lat": 38.846212666666666, "is_disabled": 0, "lon": -76.99631733333334, "is_reserved": 0}, {"name": "531273ce4b0250393868a7d20002da2d", "fusion_lat": 0.0, "fusion_lon": 0.0, "bike_id": "531273ce4b0250393868a7d20002da2d", "rental_uris": {"ios": "https://dc.lft.to/lastmile_qr_scan", "android": "https://dc.lft.to/lastmile_qr_scan"}, "type": "electric_scooter", "lat": 38.8879375, "is_disabled": 0, "lon": -76.9335675, "is_reserved": 0}, {"name": "5cfbc0434a8a028c31d7f44751f2e496", "fusion_lat": 0.0, "fusion_lon": 0.0, "bike_id": "5cfbc0434a8a028c31d7f44751f2e496", "rental_uris": {"ios": "https://dc.lft.to/lastmile_qr_scan", "android": "https://dc.lft.to/lastmile_qr_scan"}, "type": "electric_scooter", "lat": 38.91582983333333, "is_disabled": 0, "lon": -77.05001233333333, "is_reserved": 0}, {"name": "aa54cc251f93d0a6c2418d5044d66f95", "fusion_lat": 0.0, "fusion_lon": 0.0, "bike_id": "aa54cc251f93d0a6c2418d5044d66f95", "rental_uris": {"ios": "https://dc.lft.to/lastmile_qr_scan", "android": "https://dc.lft.to/lastmile_qr_scan"}, "type": "electric_scooter", "lat": 38.87563766666667, "is_disabled": 0, "lon": -77.00668883333333, "is_reserved": 0}, {"name": "8c3120d011e02be18987bf83bcf4ee30", "fusion_lat": 0.0, "fusion_lon": 0.0, "bike_id": "8c3120d011e02be18987bf83bcf4ee30", "rental_uris": {"ios": "https://dc.lft.to/lastmile_qr_scan", "android": "https://dc.lft.to/lastmile_qr_scan"}, "type": "electric_bike", "lat": 38.93662466666667, "is_disabled": 0, "lon": -76.954994, "is_reserved": 0}, {"name": "72e5e5519878d570d94649549d74571e", "fusion_lat": 0.0, "fusion_lon": 0.0, "bike_id": "72e5e5519878d570d94649549d74571e", "rental_uris": {"ios": "https://dc.lft.to/lastmile_qr_scan", "android": "https://dc.lft.to/lastmile_qr_scan"}, "type": "electric_scooter", "lat": 38.92612066666667, "is_disabled": 0, "lon": -77.0216305, "is_reserved": 0}, {"name": "f363148795c4bc27f68ce8dcf0b76330", "fusion_lat": 0.0, "fusion_lon": 0.0, "bike_id": "f363148795c4bc27f68ce8dcf0b76330", "rental_uris": {"ios": "https://dc.lft.to/lastmile_qr_scan", "android": "https://dc.lft.to/lastmile_qr_scan"}, "type": "electric_scooter", "lat": 38.902394, "is_disabled": 0, "lon": -77.01930083333333, "is_reserved": 0}, {"name": "53d7e6be85ecc70fbdb019823aef66fc", "fusion_lat": 0.0, "fusion_lon": 0.0, "bike_id": "53d7e6be85ecc70fbdb019823aef66fc", "rental_uris": {"ios": "https://dc.lft.to/lastmile_qr_scan", "android": "https://dc.lft.to/lastmile_qr_scan"}, "type": "electric_scooter", "lat": 38.91692116666667, "is_disabled": 0, "lon": -77.03571616666666, "is_reserved": 0}, {"name": "a4a5bd76127d9bcb712ea2a2e06bde46", "fusion_lat": 0.0, "fusion_lon": 0.0, "bike_id": "a4a5bd76127d9bcb712ea2a2e06bde46", "rental_uris": {"ios": "https://dc.lft.to/lastmile_qr_scan", "android": "https://dc.lft.to/lastmile_qr_scan"}, "type": "electric_scooter", "lat": 38.907338333333335, "is_disabled": 0, "lon": -76.93549566666667, "is_reserved": 0}, {"name": "cb47c01765582e5244a32a89e6230e7c", "fusion_lat": 0.0, "fusion_lon": 0.0, "bike_id": "cb47c01765582e5244a32a89e6230e7c", "rental_uris": {"ios": "https://dc.lft.to/lastmile_qr_scan", "android": "https://dc.lft.to/lastmile_qr_scan"}, "type": "electric_scooter", "lat": 38.9111335, "is_disabled": 0, "lon": -77.0434955, "is_reserved": 0}, {"name": "098ca2ca3485667cbdce2dddebb8fe41", "fusion_lat": 0.0, "fusion_lon": 0.0, "bike_id": "098ca2ca3485667cbdce2dddebb8fe41", "rental_uris": {"ios": "https://dc.lft.to/lastmile_qr_scan", "android": "https://dc.lft.to/lastmile_qr_scan"}, "type": "electric_scooter", "lat": 38.897291, "is_disabled": 0, "lon": -77.04649783333333, "is_reserved": 0}, {"name": "8b5903a0695bd88f36c2f6173ba1ae03", "fusion_lat": 0.0, "fusion_lon": 0.0, "bike_id": "8b5903a0695bd88f36c2f6173ba1ae03", "rental_uris": {"ios": "https://dc.lft.to/lastmile_qr_scan", "android": "https://dc.lft.to/lastmile_qr_scan"}, "type": "electric_scooter", "lat": 38.9084265, "is_disabled": 0, "lon": -77.02392466666667, "is_reserved": 0}, {"name": "a414cd9d6f5cbed2cfc193430babbe37", "fusion_lat": 0.0, "fusion_lon": 0.0, "bike_id": "a414cd9d6f5cbed2cfc193430babbe37", "rental_uris": {"ios": "https://dc.lft.to/lastmile_qr_scan", "android": "https://dc.lft.to/lastmile_qr_scan"}, "type": "electric_scooter", "lat": 38.9100675, "is_disabled": 0, "lon": -77.0318565, "is_reserved": 0}, {"name": "d5a7141dd1e9bae5222e9454a314732a", "fusion_lat": 0.0, "fusion_lon": 0.0, "bike_id": "d5a7141dd1e9bae5222e9454a314732a", "rental_uris": {"ios": "https://dc.lft.to/lastmile_qr_scan", "android": "https://dc.lft.to/lastmile_qr_scan"}, "type": "electric_scooter", "lat": 38.90771133333333, "is_disabled": 0, "lon": -77.02714566666667, "is_reserved": 0}, {"name": "ca3f3d002be0bd6d7eda6d04158f44a1", "fusion_lat": 0.0, "fusion_lon": 0.0, "bike_id": "ca3f3d002be0bd6d7eda6d04158f44a1", "rental_uris": {"ios": "https://dc.lft.to/lastmile_qr_scan", "android": "https://dc.lft.to/lastmile_qr_scan"}, "type": "electric_scooter", "lat": 38.92232383333333, "is_disabled": 0, "lon": -77.038994, "is_reserved": 0}, {"name": "23bf530038afcf2d3d02a55e61a0e0d7", "fusion_lat": 0.0, "fusion_lon": 0.0, "bike_id": "23bf530038afcf2d3d02a55e61a0e0d7", "rental_uris": {"ios": "https://dc.lft.to/lastmile_qr_scan", "android": "https://dc.lft.to/lastmile_qr_scan"}, "type": "electric_scooter", "lat": 38.909520666666666, "is_disabled": 0, "lon": -77.044546, "is_reserved": 0}, {"name": "6d783ae4e6b05b4aef1c11b03c36d632", "fusion_lat": 0.0, "fusion_lon": 0.0, "bike_id": "6d783ae4e6b05b4aef1c11b03c36d632", "rental_uris": {"ios": "https://dc.lft.to/lastmile_qr_scan", "android": "https://dc.lft.to/lastmile_qr_scan"}, "type": "electric_scooter", "lat": 38.902379333333336, "is_disabled": 0, "lon": -77.00201483333333, "is_reserved": 0}, {"name": "aaf7322f4cf0e074e2af608bb4c37476", "fusion_lat": 0.0, "fusion_lon": 0.0, "bike_id": "aaf7322f4cf0e074e2af608bb4c37476", "rental_uris": {"ios": "https://dc.lft.to/lastmile_qr_scan", "android": "https://dc.lft.to/lastmile_qr_scan"}, "type": "electric_bike", "lat": 38.973988, "is_disabled": 0, "lon": -77.02502033333333, "is_reserved": 0}, {"name": "d9a4690e75d09a34d5e976feb62a99ec", "fusion_lat": 0.0, "fusion_lon": 0.0, "bike_id": "d9a4690e75d09a34d5e976feb62a99ec", "rental_uris": {"ios": "https://dc.lft.to/lastmile_qr_scan", "android": "https://dc.lft.to/lastmile_qr_scan"}, "type": "electric_scooter", "lat": 38.87898333333333, "is_disabled": 0, "lon": -76.93523766666667, "is_reserved": 0}, {"name": "f358c9bb0e158efb438efdacbda74119", "fusion_lat": 0.0, "fusion_lon": 0.0, "bike_id": "f358c9bb0e158efb438efdacbda74119", "rental_uris": {"ios": "https://dc.lft.to/lastmile_qr_scan", "android": "https://dc.lft.to/lastmile_qr_scan"}, "type": "electric_scooter", "lat": 38.90562233333333, "is_disabled": 0, "lon": -77.04332033333333, "is_reserved": 0}, {"name": "2d01bf0275f5e186ad2013e5f66f7409", "fusion_lat": 0.0, "fusion_lon": 0.0, "bike_id": "2d01bf0275f5e186ad2013e5f66f7409", "rental_uris": {"ios": "https://dc.lft.to/lastmile_qr_scan", "android": "https://dc.lft.to/lastmile_qr_scan"}, "type": "electric_scooter", "lat": 38.92571266666667, "is_disabled": 0, "lon": -76.99501533333333, "is_reserved": 0}, {"name": "ade8d88d8fec2a915befec1de90681ec", "fusion_lat": 0.0, "fusion_lon": 0.0, "bike_id": "ade8d88d8fec2a915befec1de90681ec", "rental_uris": {"ios": "https://dc.lft.to/lastmile_qr_scan", "android": "https://dc.lft.to/lastmile_qr_scan"}, "type": "electric_scooter", "lat": 38.892307833333334, "is_disabled": 0, "lon": -77.04374433333334, "is_reserved": 0}, {"name": "6af835b79910abe255ae78f86507f4ce", "fusion_lat": 0.0, "fusion_lon": 0.0, "bike_id": "6af835b79910abe255ae78f86507f4ce", "rental_uris": {"ios": "https://dc.lft.to/lastmile_qr_scan", "android": "https://dc.lft.to/lastmile_qr_scan"}, "type": "electric_scooter", "lat": 38.9185785, "is_disabled": 0, "lon": -77.0445675, "is_reserved": 0}, {"name": "2e6587fe2e24ea490129b68a6e84bba3", "fusion_lat": 0.0, "fusion_lon": 0.0, "bike_id": "2e6587fe2e24ea490129b68a6e84bba3", "rental_uris": {"ios": "https://dc.lft.to/lastmile_qr_scan", "android": "https://dc.lft.to/lastmile_qr_scan"}, "type": "electric_bike", "lat": 38.899364166666665, "is_disabled": 0, "lon": -77.03386316666666, "is_reserved": 0}, {"name": "6749838de93f6feb933383ace842934f", "fusion_lat": 0.0, "fusion_lon": 0.0, "bike_id": "6749838de93f6feb933383ace842934f", "rental_uris": {"ios": "https://dc.lft.to/lastmile_qr_scan", "android": "https://dc.lft.to/lastmile_qr_scan"}, "type": "electric_scooter", "lat": 38.90764433333333, "is_disabled": 0, "lon": -77.028073, "is_reserved": 0}, {"name": "010d149c295fc6b240c0d4e5873b15ea", "fusion_lat": 0.0, "fusion_lon": 0.0, "bike_id": "010d149c295fc6b240c0d4e5873b15ea", "rental_uris": {"ios": "https://dc.lft.to/lastmile_qr_scan", "android": "https://dc.lft.to/lastmile_qr_scan"}, "type": "electric_bike", "lat": 38.90998716666667, "is_disabled": 0, "lon": -76.997278, "is_reserved": 0}, {"name": "0312970de21ace7db4d46944f2b0f470", "fusion_lat": 0.0, "fusion_lon": 0.0, "bike_id": "0312970de21ace7db4d46944f2b0f470", "rental_uris": {"ios": "https://dc.lft.to/lastmile_qr_scan", "android": "https://dc.lft.to/lastmile_qr_scan"}, "type": "electric_scooter", "lat": 38.8947415, "is_disabled": 0, "lon": -77.00137833333334, "is_reserved": 0}, {"name": "2d4ebdf16a56aaa46cd8be5861f16b90", "fusion_lat": 0.0, "fusion_lon": 0.0, "bike_id": "2d4ebdf16a56aaa46cd8be5861f16b90", "rental_uris": {"ios": "https://dc.lft.to/lastmile_qr_scan", "android": "https://dc.lft.to/lastmile_qr_scan"}, "type": "electric_scooter", "lat": 38.91724466666667, "is_disabled": 0, "lon": -77.03623566666667, "is_reserved": 0}, {"name": "0ba3b467e2b5e5396e2d4078ab893f00", "fusion_lat": 0.0, "fusion_lon": 0.0, "bike_id": "0ba3b467e2b5e5396e2d4078ab893f00", "rental_uris": {"ios": "https://dc.lft.to/lastmile_qr_scan", "android": "https://dc.lft.to/lastmile_qr_scan"}, "type": "electric_scooter", "lat": 38.9324775, "is_disabled": 0, "lon": -77.03855533333333, "is_reserved": 0}, {"name": "169d67199931e5408391b5a5ae4cbbe4", "fusion_lat": 0.0, "fusion_lon": 0.0, "bike_id": "169d67199931e5408391b5a5ae4cbbe4", "rental_uris": {"ios": "https://dc.lft.to/lastmile_qr_scan", "android": "https://dc.lft.to/lastmile_qr_scan"}, "type": "electric_scooter", "lat": 38.9199755, "is_disabled": 0, "lon": -77.02522933333333, "is_reserved": 0}, {"name": "fa863aa19b2cd26156b940fe68ef1e12", "fusion_lat": 0.0, "fusion_lon": 0.0, "bike_id": "fa863aa19b2cd26156b940fe68ef1e12", "rental_uris": {"ios": "https://dc.lft.to/lastmile_qr_scan", "android": "https://dc.lft.to/lastmile_qr_scan"}, "type": "electric_scooter", "lat": 38.8762695, "is_disabled": 0, "lon": -76.96530166666666, "is_reserved": 0}, {"name": "cf8553ce60cbcb2c757aae188f7f5700", "fusion_lat": 0.0, "fusion_lon": 0.0, "bike_id": "cf8553ce60cbcb2c757aae188f7f5700", "rental_uris": {"ios": "https://dc.lft.to/lastmile_qr_scan", "android": "https://dc.lft.to/lastmile_qr_scan"}, "type": "electric_scooter", "lat": 38.909532, "is_disabled": 0, "lon": -77.02283616666666, "is_reserved": 0}, {"name": "b522fcd4e78795defc7e27c2f1bab5b3", "fusion_lat": 0.0, "fusion_lon": 0.0, "bike_id": "b522fcd4e78795defc7e27c2f1bab5b3", "rental_uris": {"ios": "https://dc.lft.to/lastmile_qr_scan", "android": "https://dc.lft.to/lastmile_qr_scan"}, "type": "electric_scooter", "lat": 38.90652, "is_disabled": 0, "lon": -77.03831416666667, "is_reserved": 0}, {"name": "c8ea738c1b5385679a078f1cd012f556", "fusion_lat": 0.0, "fusion_lon": 0.0, "bike_id": "c8ea738c1b5385679a078f1cd012f556", "rental_uris": {"ios": "https://dc.lft.to/lastmile_qr_scan", "android": "https://dc.lft.to/lastmile_qr_scan"}, "type": "electric_scooter", "lat": 38.91971516666667, "is_disabled": 0, "lon": -77.03190183333334, "is_reserved": 0}, {"name": "30a752a090d563d933073372d982e90f", "fusion_lat": 0.0, "fusion_lon": 0.0, "bike_id": "30a752a090d563d933073372d982e90f", "rental_uris": {"ios": "https://dc.lft.to/lastmile_qr_scan", "android": "https://dc.lft.to/lastmile_qr_scan"}, "type": "electric_scooter", "lat": 38.9258595, "is_disabled": 0, "lon": -77.03210633333333, "is_reserved": 0}, {"name": "e08194bb0d98aa52b59efdab097e7be2", "fusion_lat": 0.0, "fusion_lon": 0.0, "bike_id": "e08194bb0d98aa52b59efdab097e7be2", "rental_uris": {"ios": "https://dc.lft.to/lastmile_qr_scan", "android": "https://dc.lft.to/lastmile_qr_scan"}, "type": "electric_scooter", "lat": 38.9260255, "is_disabled": 0, "lon": -77.02161666666667, "is_reserved": 0}, {"name": "f6954ede8412e9810eb22cf5424085e2", "fusion_lat": 0.0, "fusion_lon": 0.0, "bike_id": "f6954ede8412e9810eb22cf5424085e2", "rental_uris": {"ios": "https://dc.lft.to/lastmile_qr_scan", "android": "https://dc.lft.to/lastmile_qr_scan"}, "type": "electric_bike", "lat": 39.007919666666666, "is_disabled": 0, "lon": -76.99570616666666, "is_reserved": 0}, {"name": "4f8e996108d501f013c7481a7ecf44d2", "fusion_lat": 0.0, "fusion_lon": 0.0, "bike_id": "4f8e996108d501f013c7481a7ecf44d2", "rental_uris": {"ios": "https://dc.lft.to/lastmile_qr_scan", "android": "https://dc.lft.to/lastmile_qr_scan"}, "type": "electric_bike", "lat": 38.9354715, "is_disabled": 0, "lon": -77.08197383333334, "is_reserved": 0}, {"name": "30dbca8ec947d7a8b1fb1755d5eb565f", "fusion_lat": 0.0, "fusion_lon": 0.0, "bike_id": "30dbca8ec947d7a8b1fb1755d5eb565f", "rental_uris": {"ios": "https://dc.lft.to/lastmile_qr_scan", "android": "https://dc.lft.to/lastmile_qr_scan"}, "type": "electric_scooter", "lat": 38.906556333333334, "is_disabled": 0, "lon": -77.04525766666667, "is_reserved": 0}, {"name": "de9cad14b7a511fc88a9e6122362d430", "fusion_lat": 0.0, "fusion_lon": 0.0, "bike_id": "de9cad14b7a511fc88a9e6122362d430", "rental_uris": {"ios": "https://dc.lft.to/lastmile_qr_scan", "android": "https://dc.lft.to/lastmile_qr_scan"}, "type": "electric_scooter", "lat": 38.86698483333333, "is_disabled": 0, "lon": -76.98715566666667, "is_reserved": 0}, {"name": "07819b6265ef68cff3b78f3f5c04fd81", "fusion_lat": 0.0, "fusion_lon": 0.0, "bike_id": "07819b6265ef68cff3b78f3f5c04fd81", "rental_uris": {"ios": "https://dc.lft.to/lastmile_qr_scan", "android": "https://dc.lft.to/lastmile_qr_scan"}, "type": "electric_scooter", "lat": 38.917717833333334, "is_disabled": 0, "lon": -77.02952933333333, "is_reserved": 0}, {"name": "0992aade18c65b65560bbdd17b665ccc", "fusion_lat": 0.0, "fusion_lon": 0.0, "bike_id": "0992aade18c65b65560bbdd17b665ccc", "rental_uris": {"ios": "https://dc.lft.to/lastmile_qr_scan", "android": "https://dc.lft.to/lastmile_qr_scan"}, "type": "electric_scooter", "lat": 38.8960455, "is_disabled": 0, "lon": -77.0268885, "is_reserved": 0}, {"name": "6ad15f025bcfaa1468be3dc70031b91f", "fusion_lat": 0.0, "fusion_lon": 0.0, "bike_id": "6ad15f025bcfaa1468be3dc70031b91f", "rental_uris": {"ios": "https://dc.lft.to/lastmile_qr_scan", "android": "https://dc.lft.to/lastmile_qr_scan"}, "type": "electric_scooter", "lat": 38.917028333333334, "is_disabled": 0, "lon": -77.04027733333334, "is_reserved": 0}, {"name": "0db7f384358071a43de48e38c4dfcb09", "fusion_lat": 0.0, "fusion_lon": 0.0, "bike_id": "0db7f384358071a43de48e38c4dfcb09", "rental_uris": {"ios": "https://dc.lft.to/lastmile_qr_scan", "android": "https://dc.lft.to/lastmile_qr_scan"}, "type": "electric_scooter", "lat": 38.9056305, "is_disabled": 0, "lon": -77.00483716666666, "is_reserved": 0}, {"name": "dd23b96fe578de89f179c654e61e41f1", "fusion_lat": 0.0, "fusion_lon": 0.0, "bike_id": "dd23b96fe578de89f179c654e61e41f1", "rental_uris": {"ios": "https://dc.lft.to/lastmile_qr_scan", "android": "https://dc.lft.to/lastmile_qr_scan"}, "type": "electric_scooter", "lat": 38.9111935, "is_disabled": 0, "lon": -77.03199766666667, "is_reserved": 0}, {"name": "cdb6254397261c9f9a8364da12742883", "fusion_lat": 0.0, "fusion_lon": 0.0, "bike_id": "cdb6254397261c9f9a8364da12742883", "rental_uris": {"ios": "https://dc.lft.to/lastmile_qr_scan", "android": "https://dc.lft.to/lastmile_qr_scan"}, "type": "electric_scooter", "lat": 38.8602705, "is_disabled": 0, "lon": -76.99694316666667, "is_reserved": 0}, {"name": "539fd6429e32d74dac15b536d9b0085f", "fusion_lat": 0.0, "fusion_lon": 0.0, "bike_id": "539fd6429e32d74dac15b536d9b0085f", "rental_uris": {"ios": "https://dc.lft.to/lastmile_qr_scan", "android": "https://dc.lft.to/lastmile_qr_scan"}, "type": "electric_bike", "lat": 39.09590816666667, "is_disabled": 0, "lon": -77.14780083333333, "is_reserved": 0}, {"name": "1868b81c3607dee8da7bb4f5c2fa96c1", "fusion_lat": 0.0, "fusion_lon": 0.0, "bike_id": "1868b81c3607dee8da7bb4f5c2fa96c1", "rental_uris": {"ios": "https://dc.lft.to/lastmile_qr_scan", "android": "https://dc.lft.to/lastmile_qr_scan"}, "type": "electric_scooter", "lat": 38.956063, "is_disabled": 0, "lon": -77.0363005, "is_reserved": 0}, {"name": "bcb83751d6cb360b580074b9f2fb1a9f", "fusion_lat": 0.0, "fusion_lon": 0.0, "bike_id": "bcb83751d6cb360b580074b9f2fb1a9f", "rental_uris": {"ios": "https://dc.lft.to/lastmile_qr_scan", "android": "https://dc.lft.to/lastmile_qr_scan"}, "type": "electric_bike", "lat": 38.9993365, "is_disabled": 0, "lon": -77.00123966666666, "is_reserved": 0}, {"name": "924cf93a75a16609731e3f170b576bd1", "fusion_lat": 0.0, "fusion_lon": 0.0, "bike_id": "924cf93a75a16609731e3f170b576bd1", "rental_uris": {"ios": "https://dc.lft.to/lastmile_qr_scan", "android": "https://dc.lft.to/lastmile_qr_scan"}, "type": "electric_scooter", "lat": 38.89726916666667, "is_disabled": 0, "lon": -76.94703283333334, "is_reserved": 0}, {"name": "d0b6314be404229dc87432c6fc97345d", "fusion_lat": 0.0, "fusion_lon": 0.0, "bike_id": "d0b6314be404229dc87432c6fc97345d", "rental_uris": {"ios": "https://dc.lft.to/lastmile_qr_scan", "android": "https://dc.lft.to/lastmile_qr_scan"}, "type": "electric_bike", "lat": 38.85528133333333, "is_disabled": 0, "lon": -77.10733116666667, "is_reserved": 0}, {"name": "7cd462a5e65d8e15bb1ed5f9e72ec2d9", "fusion_lat": 0.0, "fusion_lon": 0.0, "bike_id": "7cd462a5e65d8e15bb1ed5f9e72ec2d9", "rental_uris": {"ios": "https://dc.lft.to/lastmile_qr_scan", "android": "https://dc.lft.to/lastmile_qr_scan"}, "type": "electric_bike", "lat": 38.84191083333333, "is_disabled": 0, "lon": -77.07750566666667, "is_reserved": 0}, {"name": "18593853f12ec76baa35a37d9be97199", "fusion_lat": 0.0, "fusion_lon": 0.0, "bike_id": "18593853f12ec76baa35a37d9be97199", "rental_uris": {"ios": "https://dc.lft.to/lastmile_qr_scan", "android": "https://dc.lft.to/lastmile_qr_scan"}, "type": "electric_scooter", "lat": 38.931429666666666, "is_disabled": 0, "lon": -77.03606116666667, "is_reserved": 0}, {"name": "9963c7f60f911deebdc92387071ab134", "fusion_lat": 0.0, "fusion_lon": 0.0, "bike_id": "9963c7f60f911deebdc92387071ab134", "rental_uris": {"ios": "https://dc.lft.to/lastmile_qr_scan", "android": "https://dc.lft.to/lastmile_qr_scan"}, "type": "electric_scooter", "lat": 38.90011283333333, "is_disabled": 0, "lon": -76.99602383333334, "is_reserved": 0}, {"name": "26a8347832df0d8983daa97fb47190ed", "fusion_lat": 0.0, "fusion_lon": 0.0, "bike_id": "26a8347832df0d8983daa97fb47190ed", "rental_uris": {"ios": "https://dc.lft.to/lastmile_qr_scan", "android": "https://dc.lft.to/lastmile_qr_scan"}, "type": "electric_scooter", "lat": 38.898385833333336, "is_disabled": 0, "lon": -77.0195605, "is_reserved": 0}, {"name": "5ca852ba72457228d54680939faa39a7", "fusion_lat": 0.0, "fusion_lon": 0.0, "bike_id": "5ca852ba72457228d54680939faa39a7", "rental_uris": {"ios": "https://dc.lft.to/lastmile_qr_scan", "android": "https://dc.lft.to/lastmile_qr_scan"}, "type": "electric_scooter", "lat": 38.905748833333334, "is_disabled": 0, "lon": -77.00557116666667, "is_reserved": 0}, {"name": "3735ca0a6d1f324fe0ea9f197afbf375", "fusion_lat": 0.0, "fusion_lon": 0.0, "bike_id": "3735ca0a6d1f324fe0ea9f197afbf375", "rental_uris": {"ios": "https://dc.lft.to/lastmile_qr_scan", "android": "https://dc.lft.to/lastmile_qr_scan"}, "type": "electric_scooter", "lat": 38.8951035, "is_disabled": 0, "lon": -76.94887, "is_reserved": 0}, {"name": "515623e6e049917220ca1fd4a006711d", "fusion_lat": 0.0, "fusion_lon": 0.0, "bike_id": "515623e6e049917220ca1fd4a006711d", "rental_uris": {"ios": "https://dc.lft.to/lastmile_qr_scan", "android": "https://dc.lft.to/lastmile_qr_scan"}, "type": "electric_scooter", "lat": 38.89949166666667, "is_disabled": 0, "lon": -77.02564316666667, "is_reserved": 0}, {"name": "6257c79c05f8ca20e2a5fd5349160b73", "fusion_lat": 0.0, "fusion_lon": 0.0, "bike_id": "6257c79c05f8ca20e2a5fd5349160b73", "rental_uris": {"ios": "https://dc.lft.to/lastmile_qr_scan", "android": "https://dc.lft.to/lastmile_qr_scan"}, "type": "electric_scooter", "lat": 38.899463, "is_disabled": 0, "lon": -77.00357683333333, "is_reserved": 0}, {"name": "e75f475072845ec36d90ca0497b88fe5", "fusion_lat": 0.0, "fusion_lon": 0.0, "bike_id": "e75f475072845ec36d90ca0497b88fe5", "rental_uris": {"ios": "https://dc.lft.to/lastmile_qr_scan", "android": "https://dc.lft.to/lastmile_qr_scan"}, "type": "electric_scooter", "lat": 38.92329683333333, "is_disabled": 0, "lon": -76.9990905, "is_reserved": 0}, {"name": "fc5e854f63e9d866eac0169932af3e49", "fusion_lat": 0.0, "fusion_lon": 0.0, "bike_id": "fc5e854f63e9d866eac0169932af3e49", "rental_uris": {"ios": "https://dc.lft.to/lastmile_qr_scan", "android": "https://dc.lft.to/lastmile_qr_scan"}, "type": "electric_scooter", "lat": 38.9153625, "is_disabled": 0, "lon": -77.02204783333333, "is_reserved": 0}, {"name": "a71ef9aa1f009cee1d6be3b8465d4cb8", "fusion_lat": 0.0, "fusion_lon": 0.0, "bike_id": "a71ef9aa1f009cee1d6be3b8465d4cb8", "rental_uris": {"ios": "https://dc.lft.to/lastmile_qr_scan", "android": "https://dc.lft.to/lastmile_qr_scan"}, "type": "electric_scooter", "lat": 38.86346016666667, "is_disabled": 0, "lon": -76.99054583333333, "is_reserved": 0}, {"name": "65440fea7e30f53d2dbb532d18d83519", "fusion_lat": 0.0, "fusion_lon": 0.0, "bike_id": "65440fea7e30f53d2dbb532d18d83519", "rental_uris": {"ios": "https://dc.lft.to/lastmile_qr_scan", "android": "https://dc.lft.to/lastmile_qr_scan"}, "type": "electric_scooter", "lat": 38.84618566666666, "is_disabled": 0, "lon": -76.99631016666666, "is_reserved": 0}, {"name": "70619163e1ed0a25c1be794f49db1f1c", "fusion_lat": 0.0, "fusion_lon": 0.0, "bike_id": "70619163e1ed0a25c1be794f49db1f1c", "rental_uris": {"ios": "https://dc.lft.to/lastmile_qr_scan", "android": "https://dc.lft.to/lastmile_qr_scan"}, "type": "electric_scooter", "lat": 38.90719633333333, "is_disabled": 0, "lon": -77.045429, "is_reserved": 0}, {"name": "6c04fba2185328aa7fe6b8be9e2072c0", "fusion_lat": 0.0, "fusion_lon": 0.0, "bike_id": "6c04fba2185328aa7fe6b8be9e2072c0", "rental_uris": {"ios": "https://dc.lft.to/lastmile_qr_scan", "android": "https://dc.lft.to/lastmile_qr_scan"}, "type": "electric_scooter", "lat": 38.90141666666667, "is_disabled": 0, "lon": -77.0417185, "is_reserved": 0}, {"name": "a7fd2c39f19e07dfcab425eeca590575", "fusion_lat": 0.0, "fusion_lon": 0.0, "bike_id": "a7fd2c39f19e07dfcab425eeca590575", "rental_uris": {"ios": "https://dc.lft.to/lastmile_qr_scan", "android": "https://dc.lft.to/lastmile_qr_scan"}, "type": "electric_scooter", "lat": 38.898410166666665, "is_disabled": 0, "lon": -77.03131716666667, "is_reserved": 0}, {"name": "24239d11de77a34af1c15a2d866e7930", "fusion_lat": 0.0, "fusion_lon": 0.0, "bike_id": "24239d11de77a34af1c15a2d866e7930", "rental_uris": {"ios": "https://dc.lft.to/lastmile_qr_scan", "android": "https://dc.lft.to/lastmile_qr_scan"}, "type": "electric_scooter", "lat": 38.945186666666665, "is_disabled": 0, "lon": -77.029893, "is_reserved": 0}, {"name": "9754bf73d97ac24465d72606c05754de", "fusion_lat": 0.0, "fusion_lon": 0.0, "bike_id": "9754bf73d97ac24465d72606c05754de", "rental_uris": {"ios": "https://dc.lft.to/lastmile_qr_scan", "android": "https://dc.lft.to/lastmile_qr_scan"}, "type": "electric_bike", "lat": 38.8309495, "is_disabled": 0, "lon": -77.0429715, "is_reserved": 0}, {"name": "717e02d1bd10ca71d1ee4bc2e9310907", "fusion_lat": 0.0, "fusion_lon": 0.0, "bike_id": "717e02d1bd10ca71d1ee4bc2e9310907", "rental_uris": {"ios": "https://dc.lft.to/lastmile_qr_scan", "android": "https://dc.lft.to/lastmile_qr_scan"}, "type": "electric_scooter", "lat": 38.89731066666667, "is_disabled": 0, "lon": -77.03001816666666, "is_reserved": 0}, {"name": "8a9a014d420733b583c840434cb83365", "fusion_lat": 0.0, "fusion_lon": 0.0, "bike_id": "8a9a014d420733b583c840434cb83365", "rental_uris": {"ios": "https://dc.lft.to/lastmile_qr_scan", "android": "https://dc.lft.to/lastmile_qr_scan"}, "type": "electric_scooter", "lat": 38.926329, "is_disabled": 0, "lon": -77.03793566666667, "is_reserved": 0}, {"name": "67b2ccb80a6914fe7b0a6e28fe2a7dcf", "fusion_lat": 0.0, "fusion_lon": 0.0, "bike_id": "67b2ccb80a6914fe7b0a6e28fe2a7dcf", "rental_uris": {"ios": "https://dc.lft.to/lastmile_qr_scan", "android": "https://dc.lft.to/lastmile_qr_scan"}, "type": "electric_scooter", "lat": 38.8859235, "is_disabled": 0, "lon": -77.01767416666667, "is_reserved": 0}, {"name": "315f0ecc801e14d682238694070772f9", "fusion_lat": 0.0, "fusion_lon": 0.0, "bike_id": "315f0ecc801e14d682238694070772f9", "rental_uris": {"ios": "https://dc.lft.to/lastmile_qr_scan", "android": "https://dc.lft.to/lastmile_qr_scan"}, "type": "electric_scooter", "lat": 38.90543233333333, "is_disabled": 0, "lon": -77.02207733333333, "is_reserved": 0}, {"name": "c6873e269cdc725162e68f907ca18108", "fusion_lat": 0.0, "fusion_lon": 0.0, "bike_id": "c6873e269cdc725162e68f907ca18108", "rental_uris": {"ios": "https://dc.lft.to/lastmile_qr_scan", "android": "https://dc.lft.to/lastmile_qr_scan"}, "type": "electric_scooter", "lat": 38.92190333333333, "is_disabled": 0, "lon": -77.07261883333334, "is_reserved": 0}, {"name": "a7bfb9cddc54584a73d2856c99a6d850", "fusion_lat": 0.0, "fusion_lon": 0.0, "bike_id": "a7bfb9cddc54584a73d2856c99a6d850", "rental_uris": {"ios": "https://dc.lft.to/lastmile_qr_scan", "android": "https://dc.lft.to/lastmile_qr_scan"}, "type": "electric_scooter", "lat": 38.920823, "is_disabled": 0, "lon": -77.02511533333333, "is_reserved": 0}, {"name": "ef4a03ce208a3417a758338fc8931747", "fusion_lat": 0.0, "fusion_lon": 0.0, "bike_id": "ef4a03ce208a3417a758338fc8931747", "rental_uris": {"ios": "https://dc.lft.to/lastmile_qr_scan", "android": "https://dc.lft.to/lastmile_qr_scan"}, "type": "electric_scooter", "lat": 38.9079595, "is_disabled": 0, "lon": -76.98537016666667, "is_reserved": 0}, {"name": "0164f788fefb013f38964a4a05f2376d", "fusion_lat": 0.0, "fusion_lon": 0.0, "bike_id": "0164f788fefb013f38964a4a05f2376d", "rental_uris": {"ios": "https://dc.lft.to/lastmile_qr_scan", "android": "https://dc.lft.to/lastmile_qr_scan"}, "type": "electric_bike", "lat": 38.8775895, "is_disabled": 0, "lon": -76.979957, "is_reserved": 0}, {"name": "6b7c93d9b7eb02baa38cb494075f776f", "fusion_lat": 0.0, "fusion_lon": 0.0, "bike_id": "6b7c93d9b7eb02baa38cb494075f776f", "rental_uris": {"ios": "https://dc.lft.to/lastmile_qr_scan", "android": "https://dc.lft.to/lastmile_qr_scan"}, "type": "electric_scooter", "lat": 38.930236666666666, "is_disabled": 0, "lon": -77.01365683333333, "is_reserved": 0}, {"name": "b4d9148f0d33f6b19cc5ddce866d6959", "fusion_lat": 0.0, "fusion_lon": 0.0, "bike_id": "b4d9148f0d33f6b19cc5ddce866d6959", "rental_uris": {"ios": "https://dc.lft.to/lastmile_qr_scan", "android": "https://dc.lft.to/lastmile_qr_scan"}, "type": "electric_bike", "lat": 38.939606833333336, "is_disabled": 0, "lon": -77.360896, "is_reserved": 0}, {"name": "551b4595520c71d264b5abf5d47e418c", "fusion_lat": 0.0, "fusion_lon": 0.0, "bike_id": "551b4595520c71d264b5abf5d47e418c", "rental_uris": {"ios": "https://dc.lft.to/lastmile_qr_scan", "android": "https://dc.lft.to/lastmile_qr_scan"}, "type": "electric_scooter", "lat": 38.925665333333335, "is_disabled": 0, "lon": -77.0805915, "is_reserved": 0}, {"name": "bd4c04c80a376b7b2d76336e76a5c62d", "fusion_lat": 0.0, "fusion_lon": 0.0, "bike_id": "bd4c04c80a376b7b2d76336e76a5c62d", "rental_uris": {"ios": "https://dc.lft.to/lastmile_qr_scan", "android": "https://dc.lft.to/lastmile_qr_scan"}, "type": "electric_scooter", "lat": 38.91467516666667, "is_disabled": 0, "lon": -76.98448266666666, "is_reserved": 0}, {"name": "4ca45090f046e63890ba00ba58c828b0", "fusion_lat": 0.0, "fusion_lon": 0.0, "bike_id": "4ca45090f046e63890ba00ba58c828b0", "rental_uris": {"ios": "https://dc.lft.to/lastmile_qr_scan", "android": "https://dc.lft.to/lastmile_qr_scan"}, "type": "electric_bike", "lat": 39.024906333333334, "is_disabled": 0, "lon": -77.12568733333333, "is_reserved": 0}, {"name": "6277099dd1965be0302c03c1402ed101", "fusion_lat": 0.0, "fusion_lon": 0.0, "bike_id": "6277099dd1965be0302c03c1402ed101", "rental_uris": {"ios": "https://dc.lft.to/lastmile_qr_scan", "android": "https://dc.lft.to/lastmile_qr_scan"}, "type": "electric_scooter", "lat": 38.89742316666667, "is_disabled": 0, "lon": -77.003187, "is_reserved": 0}, {"name": "eb34a58201f992f42a2d7c844021b558", "fusion_lat": 0.0, "fusion_lon": 0.0, "bike_id": "eb34a58201f992f42a2d7c844021b558", "rental_uris": {"ios": "https://dc.lft.to/lastmile_qr_scan", "android": "https://dc.lft.to/lastmile_qr_scan"}, "type": "electric_scooter", "lat": 38.896072, "is_disabled": 0, "lon": -77.04645333333333, "is_reserved": 0}, {"name": "85710b72e9d47d0840cc78a763cb7e33", "fusion_lat": 0.0, "fusion_lon": 0.0, "bike_id": "85710b72e9d47d0840cc78a763cb7e33", "rental_uris": {"ios": "https://dc.lft.to/lastmile_qr_scan", "android": "https://dc.lft.to/lastmile_qr_scan"}, "type": "electric_scooter", "lat": 38.930855666666666, "is_disabled": 0, "lon": -77.03621616666666, "is_reserved": 0}, {"name": "bdbf37607ca6c2612e171b379ca559bf", "fusion_lat": 0.0, "fusion_lon": 0.0, "bike_id": "bdbf37607ca6c2612e171b379ca559bf", "rental_uris": {"ios": "https://dc.lft.to/lastmile_qr_scan", "android": "https://dc.lft.to/lastmile_qr_scan"}, "type": "electric_scooter", "lat": 38.89006883333333, "is_disabled": 0, "lon": -76.93845133333333, "is_reserved": 0}, {"name": "be9f50f11e26e1f567fe00cd6f098992", "fusion_lat": 0.0, "fusion_lon": 0.0, "bike_id": "be9f50f11e26e1f567fe00cd6f098992", "rental_uris": {"ios": "https://dc.lft.to/lastmile_qr_scan", "android": "https://dc.lft.to/lastmile_qr_scan"}, "type": "electric_scooter", "lat": 38.918293166666665, "is_disabled": 0, "lon": -77.03221816666667, "is_reserved": 0}, {"name": "087d8cad63eb8c7f6a369d641eb368d6", "fusion_lat": 0.0, "fusion_lon": 0.0, "bike_id": "087d8cad63eb8c7f6a369d641eb368d6", "rental_uris": {"ios": "https://dc.lft.to/lastmile_qr_scan", "android": "https://dc.lft.to/lastmile_qr_scan"}, "type": "electric_scooter", "lat": 38.905736, "is_disabled": 0, "lon": -77.0486575, "is_reserved": 0}, {"name": "d37c300ed69a6acb447899189a00cfa8", "fusion_lat": 0.0, "fusion_lon": 0.0, "bike_id": "d37c300ed69a6acb447899189a00cfa8", "rental_uris": {"ios": "https://dc.lft.to/lastmile_qr_scan", "android": "https://dc.lft.to/lastmile_qr_scan"}, "type": "electric_scooter", "lat": 38.9305205, "is_disabled": 0, "lon": -77.029679, "is_reserved": 0}, {"name": "458bfc45206aa63bcc001c2c76d83ad9", "fusion_lat": 0.0, "fusion_lon": 0.0, "bike_id": "458bfc45206aa63bcc001c2c76d83ad9", "rental_uris": {"ios": "https://dc.lft.to/lastmile_qr_scan", "android": "https://dc.lft.to/lastmile_qr_scan"}, "type": "electric_scooter", "lat": 38.91687983333333, "is_disabled": 0, "lon": -77.0290905, "is_reserved": 0}, {"name": "21b148affa3732b7621edffc17e5c684", "fusion_lat": 0.0, "fusion_lon": 0.0, "bike_id": "21b148affa3732b7621edffc17e5c684", "rental_uris": {"ios": "https://dc.lft.to/lastmile_qr_scan", "android": "https://dc.lft.to/lastmile_qr_scan"}, "type": "electric_scooter", "lat": 38.943158, "is_disabled": 0, "lon": -77.06174866666667, "is_reserved": 0}, {"name": "f08e7e9ee0d11d36db7539a4cffdb3a8", "fusion_lat": 0.0, "fusion_lon": 0.0, "bike_id": "f08e7e9ee0d11d36db7539a4cffdb3a8", "rental_uris": {"ios": "https://dc.lft.to/lastmile_qr_scan", "android": "https://dc.lft.to/lastmile_qr_scan"}, "type": "electric_scooter", "lat": 38.92384416666667, "is_disabled": 0, "lon": -77.05164966666666, "is_reserved": 0}, {"name": "1fb82af2ee2448bdce12a6668064a545", "fusion_lat": 0.0, "fusion_lon": 0.0, "bike_id": "1fb82af2ee2448bdce12a6668064a545", "rental_uris": {"ios": "https://dc.lft.to/lastmile_qr_scan", "android": "https://dc.lft.to/lastmile_qr_scan"}, "type": "electric_scooter", "lat": 38.908016333333336, "is_disabled": 0, "lon": -77.04097916666667, "is_reserved": 0}, {"name": "500e0daae9d7de7af36311bffe2f53a1", "fusion_lat": 0.0, "fusion_lon": 0.0, "bike_id": "500e0daae9d7de7af36311bffe2f53a1", "rental_uris": {"ios": "https://dc.lft.to/lastmile_qr_scan", "android": "https://dc.lft.to/lastmile_qr_scan"}, "type": "electric_scooter", "lat": 38.916622833333335, "is_disabled": 0, "lon": -77.03855316666667, "is_reserved": 0}, {"name": "f512f50d3e8b695eac3631fc8a353dc6", "fusion_lat": 0.0, "fusion_lon": 0.0, "bike_id": "f512f50d3e8b695eac3631fc8a353dc6", "rental_uris": {"ios": "https://dc.lft.to/lastmile_qr_scan", "android": "https://dc.lft.to/lastmile_qr_scan"}, "type": "electric_bike", "lat": 38.9508365, "is_disabled": 0, "lon": -76.96563166666667, "is_reserved": 0}, {"name": "e92ae624439b33781b5a15a72a1304cf", "fusion_lat": 0.0, "fusion_lon": 0.0, "bike_id": "e92ae624439b33781b5a15a72a1304cf", "rental_uris": {"ios": "https://dc.lft.to/lastmile_qr_scan", "android": "https://dc.lft.to/lastmile_qr_scan"}, "type": "electric_scooter", "lat": 38.906428, "is_disabled": 0, "lon": -77.031483, "is_reserved": 0}, {"name": "2777480c5142be006c656913796d66cb", "fusion_lat": 0.0, "fusion_lon": 0.0, "bike_id": "2777480c5142be006c656913796d66cb", "rental_uris": {"ios": "https://dc.lft.to/lastmile_qr_scan", "android": "https://dc.lft.to/lastmile_qr_scan"}, "type": "electric_scooter", "lat": 38.876275166666666, "is_disabled": 0, "lon": -76.96529916666667, "is_reserved": 0}, {"name": "416a7be7cf1b9d04129b30889cbe6bb2", "fusion_lat": 0.0, "fusion_lon": 0.0, "bike_id": "416a7be7cf1b9d04129b30889cbe6bb2", "rental_uris": {"ios": "https://dc.lft.to/lastmile_qr_scan", "android": "https://dc.lft.to/lastmile_qr_scan"}, "type": "electric_scooter", "lat": 38.92061533333333, "is_disabled": 0, "lon": -76.97800066666667, "is_reserved": 0}, {"name": "063a8cb5bce819915e85de05692c2545", "fusion_lat": 0.0, "fusion_lon": 0.0, "bike_id": "063a8cb5bce819915e85de05692c2545", "rental_uris": {"ios": "https://dc.lft.to/lastmile_qr_scan", "android": "https://dc.lft.to/lastmile_qr_scan"}, "type": "electric_scooter", "lat": 38.91776683333333, "is_disabled": 0, "lon": -77.02321016666667, "is_reserved": 0}, {"name": "dbce4fb5f59e681b0aeeaa458cbd3e54", "fusion_lat": 0.0, "fusion_lon": 0.0, "bike_id": "dbce4fb5f59e681b0aeeaa458cbd3e54", "rental_uris": {"ios": "https://dc.lft.to/lastmile_qr_scan", "android": "https://dc.lft.to/lastmile_qr_scan"}, "type": "electric_bike", "lat": 38.84603583333333, "is_disabled": 0, "lon": -76.96884733333333, "is_reserved": 0}, {"name": "8733570152cf84cd3813bd17e5f53122", "fusion_lat": 0.0, "fusion_lon": 0.0, "bike_id": "8733570152cf84cd3813bd17e5f53122", "rental_uris": {"ios": "https://dc.lft.to/lastmile_qr_scan", "android": "https://dc.lft.to/lastmile_qr_scan"}, "type": "electric_scooter", "lat": 38.9280975, "is_disabled": 0, "lon": -77.01405383333334, "is_reserved": 0}, {"name": "f7dc819db777779a814b307f9c9a3a0f", "fusion_lat": 0.0, "fusion_lon": 0.0, "bike_id": "f7dc819db777779a814b307f9c9a3a0f", "rental_uris": {"ios": "https://dc.lft.to/lastmile_qr_scan", "android": "https://dc.lft.to/lastmile_qr_scan"}, "type": "electric_scooter", "lat": 38.9182735, "is_disabled": 0, "lon": -76.96547016666666, "is_reserved": 0}, {"name": "d47c8db31efaca767d624f22de2d8c5e", "fusion_lat": 0.0, "fusion_lon": 0.0, "bike_id": "d47c8db31efaca767d624f22de2d8c5e", "rental_uris": {"ios": "https://dc.lft.to/lastmile_qr_scan", "android": "https://dc.lft.to/lastmile_qr_scan"}, "type": "electric_scooter", "lat": 38.886098833333335, "is_disabled": 0, "lon": -76.996552, "is_reserved": 0}, {"name": "38a531c869f3803e27287c122d2268ff", "fusion_lat": 0.0, "fusion_lon": 0.0, "bike_id": "38a531c869f3803e27287c122d2268ff", "rental_uris": {"ios": "https://dc.lft.to/lastmile_qr_scan", "android": "https://dc.lft.to/lastmile_qr_scan"}, "type": "electric_bike", "lat": 38.883841833333335, "is_disabled": 0, "lon": -77.030485, "is_reserved": 0}, {"name": "9e0a0033555268414d0a5bf233b5e6e4", "fusion_lat": 0.0, "fusion_lon": 0.0, "bike_id": "9e0a0033555268414d0a5bf233b5e6e4", "rental_uris": {"ios": "https://dc.lft.to/lastmile_qr_scan", "android": "https://dc.lft.to/lastmile_qr_scan"}, "type": "electric_scooter", "lat": 38.904675833333336, "is_disabled": 0, "lon": -77.02806016666666, "is_reserved": 0}, {"name": "c6f6624b6abe22e04f73718c252dc7be", "fusion_lat": 0.0, "fusion_lon": 0.0, "bike_id": "c6f6624b6abe22e04f73718c252dc7be", "rental_uris": {"ios": "https://dc.lft.to/lastmile_qr_scan", "android": "https://dc.lft.to/lastmile_qr_scan"}, "type": "electric_scooter", "lat": 38.89527266666666, "is_disabled": 0, "lon": -76.94892566666667, "is_reserved": 0}, {"name": "3588f7c6cf6161aac76a6c818cc021a8", "fusion_lat": 0.0, "fusion_lon": 0.0, "bike_id": "3588f7c6cf6161aac76a6c818cc021a8", "rental_uris": {"ios": "https://dc.lft.to/lastmile_qr_scan", "android": "https://dc.lft.to/lastmile_qr_scan"}, "type": "electric_scooter", "lat": 38.863555833333336, "is_disabled": 0, "lon": -76.99067466666666, "is_reserved": 0}, {"name": "2c979e721d8bc50d9185860483a372fc", "fusion_lat": 0.0, "fusion_lon": 0.0, "bike_id": "2c979e721d8bc50d9185860483a372fc", "rental_uris": {"ios": "https://dc.lft.to/lastmile_qr_scan", "android": "https://dc.lft.to/lastmile_qr_scan"}, "type": "electric_scooter", "lat": 38.84288383333333, "is_disabled": 0, "lon": -76.99949966666667, "is_reserved": 0}, {"name": "dc727d5e2b54c590845d81807a222dfd", "fusion_lat": 0.0, "fusion_lon": 0.0, "bike_id": "dc727d5e2b54c590845d81807a222dfd", "rental_uris": {"ios": "https://dc.lft.to/lastmile_qr_scan", "android": "https://dc.lft.to/lastmile_qr_scan"}, "type": "electric_scooter", "lat": 38.90011783333333, "is_disabled": 0, "lon": -77.0069535, "is_reserved": 0}, {"name": "8c32a6c40fd39622e7ae9cf07f11a9d3", "fusion_lat": 0.0, "fusion_lon": 0.0, "bike_id": "8c32a6c40fd39622e7ae9cf07f11a9d3", "rental_uris": {"ios": "https://dc.lft.to/lastmile_qr_scan", "android": "https://dc.lft.to/lastmile_qr_scan"}, "type": "electric_scooter", "lat": 38.919304833333335, "is_disabled": 0, "lon": -77.03175216666666, "is_reserved": 0}, {"name": "892c13aa457d4ffc605d999994172aa7", "fusion_lat": 0.0, "fusion_lon": 0.0, "bike_id": "892c13aa457d4ffc605d999994172aa7", "rental_uris": {"ios": "https://dc.lft.to/lastmile_qr_scan", "android": "https://dc.lft.to/lastmile_qr_scan"}, "type": "electric_scooter", "lat": 38.87174433333333, "is_disabled": 0, "lon": -77.00628733333333, "is_reserved": 0}, {"name": "710682cd5bcd85fbab14dfb8b454344d", "fusion_lat": 0.0, "fusion_lon": 0.0, "bike_id": "710682cd5bcd85fbab14dfb8b454344d", "rental_uris": {"ios": "https://dc.lft.to/lastmile_qr_scan", "android": "https://dc.lft.to/lastmile_qr_scan"}, "type": "electric_scooter", "lat": 38.886983, "is_disabled": 0, "lon": -76.9536845, "is_reserved": 0}, {"name": "1bf0614681dccf7d3b7677fba9427d9e", "fusion_lat": 0.0, "fusion_lon": 0.0, "bike_id": "1bf0614681dccf7d3b7677fba9427d9e", "rental_uris": {"ios": "https://dc.lft.to/lastmile_qr_scan", "android": "https://dc.lft.to/lastmile_qr_scan"}, "type": "electric_scooter", "lat": 38.904257666666666, "is_disabled": 0, "lon": -77.02601766666666, "is_reserved": 0}, {"name": "c439c97b7faa11a42a3f990b1cd8a2bc", "fusion_lat": 0.0, "fusion_lon": 0.0, "bike_id": "c439c97b7faa11a42a3f990b1cd8a2bc", "rental_uris": {"ios": "https://dc.lft.to/lastmile_qr_scan", "android": "https://dc.lft.to/lastmile_qr_scan"}, "type": "electric_scooter", "lat": 38.9053605, "is_disabled": 0, "lon": -77.05009266666667, "is_reserved": 0}, {"name": "256ef25f46305fe89d6aed5af45dc471", "fusion_lat": 0.0, "fusion_lon": 0.0, "bike_id": "256ef25f46305fe89d6aed5af45dc471", "rental_uris": {"ios": "https://dc.lft.to/lastmile_qr_scan", "android": "https://dc.lft.to/lastmile_qr_scan"}, "type": "electric_bike", "lat": 38.91088033333333, "is_disabled": 0, "lon": -76.98487116666666, "is_reserved": 0}, {"name": "e1fc8d38a34584b15874bcfabcbdeaf3", "fusion_lat": 0.0, "fusion_lon": 0.0, "bike_id": "e1fc8d38a34584b15874bcfabcbdeaf3", "rental_uris": {"ios": "https://dc.lft.to/lastmile_qr_scan", "android": "https://dc.lft.to/lastmile_qr_scan"}, "type": "electric_scooter", "lat": 38.916184333333334, "is_disabled": 0, "lon": -77.02485483333334, "is_reserved": 0}, {"name": "78364710bd93dfac2b41b11e91e6e7b0", "fusion_lat": 0.0, "fusion_lon": 0.0, "bike_id": "78364710bd93dfac2b41b11e91e6e7b0", "rental_uris": {"ios": "https://dc.lft.to/lastmile_qr_scan", "android": "https://dc.lft.to/lastmile_qr_scan"}, "type": "electric_scooter", "lat": 38.932488, "is_disabled": 0, "lon": -77.02735916666667, "is_reserved": 0}, {"name": "b28c6564c70ad0a6835c4720c2925625", "fusion_lat": 0.0, "fusion_lon": 0.0, "bike_id": "b28c6564c70ad0a6835c4720c2925625", "rental_uris": {"ios": "https://dc.lft.to/lastmile_qr_scan", "android": "https://dc.lft.to/lastmile_qr_scan"}, "type": "electric_scooter", "lat": 38.93063566666667, "is_disabled": 0, "lon": -77.038206, "is_reserved": 0}, {"name": "95d0d02b7b3ded08fa47d276186c88b1", "fusion_lat": 0.0, "fusion_lon": 0.0, "bike_id": "95d0d02b7b3ded08fa47d276186c88b1", "rental_uris": {"ios": "https://dc.lft.to/lastmile_qr_scan", "android": "https://dc.lft.to/lastmile_qr_scan"}, "type": "electric_scooter", "lat": 38.88501983333333, "is_disabled": 0, "lon": -76.9965305, "is_reserved": 0}, {"name": "81d340709694d334c8ad334a64d5947d", "fusion_lat": 0.0, "fusion_lon": 0.0, "bike_id": "81d340709694d334c8ad334a64d5947d", "rental_uris": {"ios": "https://dc.lft.to/lastmile_qr_scan", "android": "https://dc.lft.to/lastmile_qr_scan"}, "type": "electric_scooter", "lat": 38.922571833333336, "is_disabled": 0, "lon": -77.03521016666667, "is_reserved": 0}, {"name": "938b84a55e35f19b7f8c50f2de68b0fb", "fusion_lat": 0.0, "fusion_lon": 0.0, "bike_id": "938b84a55e35f19b7f8c50f2de68b0fb", "rental_uris": {"ios": "https://dc.lft.to/lastmile_qr_scan", "android": "https://dc.lft.to/lastmile_qr_scan"}, "type": "electric_bike", "lat": 38.85063316666667, "is_disabled": 0, "lon": -76.97331816666667, "is_reserved": 0}, {"name": "eeab7f132e2770a34f4959af31f73f3b", "fusion_lat": 0.0, "fusion_lon": 0.0, "bike_id": "eeab7f132e2770a34f4959af31f73f3b", "rental_uris": {"ios": "https://dc.lft.to/lastmile_qr_scan", "android": "https://dc.lft.to/lastmile_qr_scan"}, "type": "electric_scooter", "lat": 38.9027795, "is_disabled": 0, "lon": -77.03834883333333, "is_reserved": 0},