{"data": {"bikes": [{"lat": 38.91016783333333, "is_disabled": 0, "type": "electric_scooter", "lon": -77.08898333333333, "bike_id": "82c2c9af9864cca4e39bd177e7224b3f", "fusion_lat": 0.0, "name": "82c2c9af9864cca4e39bd177e7224b3f", "is_reserved": 0, "rental_uris": {"android": "https://dc.lft.to/lastmile_qr_scan", "ios": "https://dc.lft.to/lastmile_qr_scan"}, "fusion_lon": 0.0}, {"lat": 38.896352, "is_disabled": 0, "type": "electric_scooter", "lon": -77.04503166666667, "bike_id": "05d113a8d419816fef5a892093c88efc", "fusion_lat": 0.0, "name": "05d113a8d419816fef5a892093c88efc", "is_reserved": 0, "rental_uris": {"android": "https://dc.lft.to/lastmile_qr_scan", "ios": "https://dc.lft.to/lastmile_qr_scan"}, "fusion_lon": 0.0}, {"lat": 38.89702333333334, "is_disabled": 0, "type": "electric_scooter", "lon": -77.02397366666666, "bike_id": "101a50675669166123913616a9c5dac4", "fusion_lat": 0.0, "name": "101a50675669166123913616a9c5dac4", "is_reserved": 0, "rental_uris": {"android": "https://dc.lft.to/lastmile_qr_scan", "ios": "https://dc.lft.to/lastmile_qr_scan"}, "fusion_lon": 0.0}, {"lat": 38.92461983333333, "is_disabled": 0, "type": "electric_bike", "lon": -76.97560216666666, "bike_id": "c0416460aaa572f4730dfeeb125ae8cf", "fusion_lat": 0.0, "name": "c0416460aaa572f4730dfeeb125ae8cf", "is_reserved": 0, "rental_uris": {"android": "https://dc.lft.to/lastmile_qr_scan", "ios": "https://dc.lft.to/lastmile_qr_scan"}, "fusion_lon": 0.0}, {"lat": 38.87229516666667, "is_disabled": 0, "type": "electric_bike", "lon": -77.01184133333334, "bike_id": "931a929ee1ff5347764294d5bfb14d79", "fusion_lat": 0.0, "name": "931a929ee1ff5347764294d5bfb14d79", "is_reserved": 0, "rental_uris": {"android": "https://dc.lft.to/lastmile_qr_scan", "ios": "https://dc.lft.to/lastmile_qr_scan"}, "fusion_lon": 0.0}, {"lat": 38.861725166666666, "is_disabled": 0, "type": "electric_bike", "lon": -77.13144, "bike_id": "e22e38bc504da8fffe0517a559cb20da", "fusion_lat": 0.0, "name": "e22e38bc504da8fffe0517a559cb20da", "is_reserved": 0, "rental_uris": {"android": "https://dc.lft.to/lastmile_qr_scan", "ios": "https://dc.lft.to/lastmile_qr_scan"}, "fusion_lon": 0.0}, {"lat": 38.92157566666667, "is_disabled": 0, "type": "electric_scooter", "lon": -77.03385583333333, "bike_id": "d29a472a3ef0f9124a9059c8342044d8", "fusion_lat": 0.0, "name": "d29a472a3ef0f9124a9059c8342044d8", "is_reserved": 0, "rental_uris": {"android": "https://dc.lft.to/lastmile_qr_scan", "ios": "https://dc.lft.to/lastmile_qr_scan"}, "fusion_lon": 0.0}, {"lat": 38.950990166666664, "is_disabled": 0, "type": "electric_scooter", "lon": -77.02337816666666, "bike_id": "a6cfb99ea87f2427376a728e3c207a84", "fusion_lat": 0.0, "name": "a6cfb99ea87f2427376a728e3c207a84", "is_reserved": 0, "rental_uris": {"android": "https://dc.lft.to/lastmile_qr_scan", "ios": "https://dc.lft.to/lastmile_qr_scan"}, "fusion_lon": 0.0}, {"lat": 38.90103716666667, "is_disabled": 0, "type": "electric_scooter", "lon": -77.00330433333333, "bike_id": "ed995a858e1eca8fc1119fc0a7d85a71", "fusion_lat": 0.0, "name": "ed995a858e1eca8fc1119fc0a7d85a71", "is_reserved": 0, "rental_uris": {"android": "https://dc.lft.to/lastmile_qr_scan", "ios": "https://dc.lft.to/lastmile_qr_scan"}, "fusion_lon": 0.0}, {"lat": 38.89991916666666, "is_disabled": 0, "type": "electric_scooter", "lon": -77.02941916666667, "bike_id": "1f87fb48463ca158bdce4f21821c3f91", "fusion_lat": 0.0, "name": "1f87fb48463ca158bdce4f21821c3f91", "is_reserved": 0, "rental_uris": {"android": "https://dc.lft.to/lastmile_qr_scan", "ios": "https://dc.lft.to/lastmile_qr_scan"}, "fusion_lon": 0.0}, {"lat": 38.90316633333333, "is_disabled": 0, "type": "electric_scooter", "lon": -76.97801966666667, "bike_id": "4ca45ad65982e145c72033852d6ef217", "fusion_lat": 0.0, "name": "4ca45ad65982e145c72033852d6ef217", "is_reserved": 0, "rental_uris": {"android": "https://dc.lft.to/lastmile_qr_scan", "ios": "https://dc.lft.to/lastmile_qr_scan"}, "fusion_lon": 0.0}, {"lat": 38.8922465, "is_disabled": 0, "type": "electric_scooter", "lon": -77.048729, "bike_id": "e13435e635f8c455fe8e81ee7d8cabad", "fusion_lat": 0.0, "name": "e13435e635f8c455fe8e81ee7d8cabad", "is_reserved": 0, "rental_uris": {"android": "https://dc.lft.to/lastmile_qr_scan", "ios": "https://dc.lft.to/lastmile_qr_scan"}, "fusion_lon": 0.0}, {"lat": 38.9119525, "is_disabled": 0, "type": "electric_scooter", "lon": -77.00441133333334, "bike_id": "3753ef59fe6e57700c0c14f4501510b4", "fusion_lat": 0.0, "name": "3753ef59fe6e57700c0c14f4501510b4", "is_reserved": 0, "rental_uris": {"android": "https://dc.lft.to/lastmile_qr_scan", "ios": "https://dc.lft.to/lastmile_qr_scan"}, "fusion_lon": 0.0}, {"lat": 38.902559333333336, "is_disabled": 0, "type": "electric_scooter", "lon": -77.017333, "bike_id": "5b213d13ed0495f565df6d465f43dbe3", "fusion_lat": 0.0, "name": "5b213d13ed0495f565df6d465f43dbe3", "is_reserved": 0, "rental_uris": {"android": "https://dc.lft.to/lastmile_qr_scan", "ios": "https://dc.lft.to/lastmile_qr_scan"}, "fusion_lon": 0.0}, {"lat": 38.8969655, "is_disabled": 0, "type": "electric_scooter", "lon": -77.024167, "bike_id": "34c51b5c2cb4ff8ef77f835ff335e1f5", "fusion_lat": 0.0, "name": "34c51b5c2cb4ff8ef77f835ff335e1f5", "is_reserved": 0, "rental_uris": {"android": "https://dc.lft.to/lastmile_qr_scan", "ios": "https://dc.lft.to/lastmile_qr_scan"}, "fusion_lon": 0.0}, {"lat": 38.90524766666667, "is_disabled": 0, "type": "electric_scooter", "lon": -77.0593475, "bike_id": "52c9066df35a49c35fbda6b604b0e340", "fusion_lat": 0.0, "name": "52c9066df35a49c35fbda6b604b0e340", "is_reserved": 0, "rental_uris": {"android": "https://dc.lft.to/lastmile_qr_scan", "ios": "https://dc.lft.to/lastmile_qr_scan"}, "fusion_lon": 0.0}, {"lat": 38.907277, "is_disabled": 0, "type": "electric_scooter", "lon": -77.02369766666666, "bike_id": "6408ca7f90d78384c7367837a4198e2d", "fusion_lat": 0.0, "name": "6408ca7f90d78384c7367837a4198e2d", "is_reserved": 0, "rental_uris": {"android": "https://dc.lft.to/lastmile_qr_scan", "ios": "https://dc.lft.to/lastmile_qr_scan"}, "fusion_lon": 0.0}, {"lat": 38.90493883333333, "is_disabled": 0, "type": "electric_scooter", "lon": -77.0013795, "bike_id": "78143913a245bd5440fa77c26c2141d2", "fusion_lat": 0.0, "name": "78143913a245bd5440fa77c26c2141d2", "is_reserved": 0, "rental_uris": {"android": "https://dc.lft.to/lastmile_qr_scan", "ios": "https://dc.lft.to/lastmile_qr_scan"}, "fusion_lon": 0.0}, {"lat": 38.8876605, "is_disabled": 0, "type": "electric_scooter", "lon": -76.95602266666667, "bike_id": "cb4ee05a1ee19b07931adc5f4e41f939", "fusion_lat": 0.0, "name": "cb4ee05a1ee19b07931adc5f4e41f939", "is_reserved": 0, "rental_uris": {"android": "https://dc.lft.to/lastmile_qr_scan", "ios": "https://dc.lft.to/lastmile_qr_scan"}, "fusion_lon": 0.0}, {"lat": 38.917699166666665, "is_disabled": 0, "type": "electric_scooter", "lon": -77.0149565, "bike_id": "cf761948ab60f2081d58fdf0784026de", "fusion_lat": 0.0, "name": "cf761948ab60f2081d58fdf0784026de", "is_reserved": 0, "rental_uris": {"android": "https://dc.lft.to/lastmile_qr_scan", "ios": "https://dc.lft.to/lastmile_qr_scan"}, "fusion_lon": 0.0}, {"lat": 38.92060516666667, "is_disabled": 0, "type": "electric_scooter", "lon": -77.02372433333333, "bike_id": "76dfa1fb8bc260533cb25620bedce0d2", "fusion_lat": 0.0, "name": "76dfa1fb8bc260533cb25620bedce0d2", "is_reserved": 0, "rental_uris": {"android": "https://dc.lft.to/lastmile_qr_scan", "ios": "https://dc.lft.to/lastmile_qr_scan"}, "fusion_lon": 0.0}, {"lat": 38.906713833333335, "is_disabled": 0, "type": "electric_scooter", "lon": -77.038658, "bike_id": "26f5fe6907a2bf55cf7d266fe3287c3a", "fusion_lat": 0.0, "name": "26f5fe6907a2bf55cf7d266fe3287c3a", "is_reserved": 0, "rental_uris": {"android": "https://dc.lft.to/lastmile_qr_scan", "ios": "https://dc.lft.to/lastmile_qr_scan"}, "fusion_lon": 0.0}, {"lat": 38.85322383333333, "is_disabled": 0, "type": "electric_bike", "lon": -76.97995883333333, "bike_id": "edb5b5c2688b948bc513819f804f2e07", "fusion_lat": 0.0, "name": "edb5b5c2688b948bc513819f804f2e07", "is_reserved": 0, "rental_uris": {"android": "https://dc.lft.to/lastmile_qr_scan", "ios": "https://dc.lft.to/lastmile_qr_scan"}, "fusion_lon": 0.0}, {"lat": 38.95194266666667, "is_disabled": 0, "type": "electric_bike", "lon": -76.96724483333334, "bike_id": "24bd41cf24cab6a69ad7c2157f510bc4", "fusion_lat": 0.0, "name": "24bd41cf24cab6a69ad7c2157f510bc4", "is_reserved": 0, "rental_uris": {"android": "https://dc.lft.to/lastmile_qr_scan", "ios": "https://dc.lft.to/lastmile_qr_scan"}, "fusion_lon": 0.0}, {"lat": 38.8638735, "is_disabled": 0, "type": "electric_bike", "lon": -76.98994883333333, "bike_id": "7fd3ef078b76415243b7541bffb8210a", "fusion_lat": 0.0, "name": "7fd3ef078b76415243b7541bffb8210a", "is_reserved": 0, "rental_uris": {"android": "https://dc.lft.to/lastmile_qr_scan", "ios": "https://dc.lft.to/lastmile_qr_scan"}, "fusion_lon": 0.0}, {"lat": 39.0001085, "is_disabled": 0, "type": "electric_bike", "lon": -76.910791, "bike_id": "962205366ff5c703efa2db3617dec40e", "fusion_lat": 0.0, "name": "962205366ff5c703efa2db3617dec40e", "is_reserved": 0, "rental_uris": {"android": "https://dc.lft.to/lastmile_qr_scan", "ios": "https://dc.lft.to/lastmile_qr_scan"}, "fusion_lon": 0.0}, {"lat": 38.933204, "is_disabled": 0, "type": "electric_scooter", "lon": -77.0327505, "bike_id": "e332cc93ef7549c5ca6817e18e3e5ff4", "fusion_lat": 0.0, "name": "e332cc93ef7549c5ca6817e18e3e5ff4", "is_reserved": 0, "rental_uris": {"android": "https://dc.lft.to/lastmile_qr_scan", "ios": "https://dc.lft.to/lastmile_qr_scan"}, "fusion_lon": 0.0}, {"lat": 38.90104683333333, "is_disabled": 0, "type": "electric_scooter", "lon": -76.98483583333334, "bike_id": "937a340e2a1d73a9bb8c65ca4c912e7d", "fusion_lat": 0.0, "name": "937a340e2a1d73a9bb8c65ca4c912e7d", "is_reserved": 0, "rental_uris": {"android": "https://dc.lft.to/lastmile_qr_scan", "ios": "https://dc.lft.to/lastmile_qr_scan"}, "fusion_lon": 0.0}, {"lat": 38.903572833333335, "is_disabled": 0, "type": "electric_scooter", "lon": -77.01097983333334, "bike_id": "186e5a6b25ac825600f5254d3af74cf2", "fusion_lat": 0.0, "name": "186e5a6b25ac825600f5254d3af74cf2", "is_reserved": 0, "rental_uris": {"android": "https://dc.lft.to/lastmile_qr_scan", "ios": "https://dc.lft.to/lastmile_qr_scan"}, "fusion_lon": 0.0}, {"lat": 38.90156283333334, "is_disabled": 0, "type": "electric_scooter", "lon": -77.04164033333333, "bike_id": "8a05bc784c2d0e3a9ac338f33e1bd52f", "fusion_lat": 0.0, "name": "8a05bc784c2d0e3a9ac338f33e1bd52f", "is_reserved": 0, "rental_uris": {"android": "https://dc.lft.to/lastmile_qr_scan", "ios": "https://dc.lft.to/lastmile_qr_scan"}, "fusion_lon": 0.0}, {"lat": 38.90695483333333, "is_disabled": 0, "type": "electric_scooter", "lon": -77.06355183333334, "bike_id": "7021ed81e3b1e503b59c686e95e7ad08", "fusion_lat": 0.0, "name": "7021ed81e3b1e503b59c686e95e7ad08", "is_reserved": 0, "rental_uris": {"android": "https://dc.lft.to/lastmile_qr_scan", "ios": "https://dc.lft.to/lastmile_qr_scan"}, "fusion_lon": 0.0}, {"lat": 38.92801466666667, "is_disabled": 0, "type": "electric_scooter", "lon": -77.05525916666667, "bike_id": "3066bb41a546be0e3986ca793d98992a", "fusion_lat": 0.0, "name": "3066bb41a546be0e3986ca793d98992a", "is_reserved": 0, "rental_uris": {"android": "https://dc.lft.to/lastmile_qr_scan", "ios": "https://dc.lft.to/lastmile_qr_scan"}, "fusion_lon": 0.0}, {"lat": 38.91750433333333, "is_disabled": 0, "type": "electric_scooter", "lon": -77.0366135, "bike_id": "7513f14afa7be9b459f7f513abd86c92", "fusion_lat": 0.0, "name": "7513f14afa7be9b459f7f513abd86c92", "is_reserved": 0, "rental_uris": {"android": "https://dc.lft.to/lastmile_qr_scan", "ios": "https://dc.lft.to/lastmile_qr_scan"}, "fusion_lon": 0.0}, {"lat": 38.9463755, "is_disabled": 0, "type": "electric_scooter", "lon": -77.01947733333333, "bike_id": "937d04886e1bd3ca8979c26d241e8b20", "fusion_lat": 0.0, "name": "937d04886e1bd3ca8979c26d241e8b20", "is_reserved": 0, "rental_uris": {"android": "https://dc.lft.to/lastmile_qr_scan", "ios": "https://dc.lft.to/lastmile_qr_scan"}, "fusion_lon": 0.0}, {"lat": 38.92289, "is_disabled": 0, "type": "electric_scooter", "lon": -77.03668516666667, "bike_id": "502485b60233cfe43fc2555865c02674", "fusion_lat": 0.0, "name": "502485b60233cfe43fc2555865c02674", "is_reserved": 0, "rental_uris": {"android": "https://dc.lft.to/lastmile_qr_scan", "ios": "https://dc.lft.to/lastmile_qr_scan"}, "fusion_lon": 0.0}, {"lat": 38.89224633333333, "is_disabled": 0, "type": "electric_scooter", "lon": -77.04364466666667, "bike_id": "df15d320aab8128b712370f6fced7807", "fusion_lat": 0.0, "name": "df15d320aab8128b712370f6fced7807", "is_reserved": 0, "rental_uris": {"android": "https://dc.lft.to/lastmile_qr_scan", "ios": "https://dc.lft.to/lastmile_qr_scan"}, "fusion_lon": 0.0}, {"lat": 39.03381016666667, "is_disabled": 0, "type": "electric_bike", "lon": -77.041927, "bike_id": "d610211d8424a182729abc77aa71d4d9", "fusion_lat": 0.0, "name": "d610211d8424a182729abc77aa71d4d9", "is_reserved": 0, "rental_uris": {"android": "https://dc.lft.to/lastmile_qr_scan", "ios": "https://dc.lft.to/lastmile_qr_scan"}, "fusion_lon": 0.0}, {"lat": 38.90300883333333, "is_disabled": 0, "type": "electric_scooter", "lon": -77.0205825, "bike_id": "8826a7a10402ac9ca829321b370c8a5a", "fusion_lat": 0.0, "name": "8826a7a10402ac9ca829321b370c8a5a", "is_reserved": 0, "rental_uris": {"android": "https://dc.lft.to/lastmile_qr_scan", "ios": "https://dc.lft.to/lastmile_qr_scan"}, "fusion_lon": 0.0}, {"lat": 38.89622283333333, "is_disabled": 0, "type": "electric_scooter", "lon": -76.99846166666667, "bike_id": "14adfed8b157ab0f7f714ed0047eab53", "fusion_lat": 0.0, "name": "14adfed8b157ab0f7f714ed0047eab53", "is_reserved": 0, "rental_uris": {"android": "https://dc.lft.to/lastmile_qr_scan", "ios": "https://dc.lft.to/lastmile_qr_scan"}, "fusion_lon": 0.0}, {"lat": 38.9172985, "is_disabled": 0, "type": "electric_bike", "lon": -77.00799783333333, "bike_id": "33a3ac361d1e08eb3a746a608b28939e", "fusion_lat": 0.0, "name": "33a3ac361d1e08eb3a746a608b28939e", "is_reserved": 0, "rental_uris": {"android": "https://dc.lft.to/lastmile_qr_scan", "ios": "https://dc.lft.to/lastmile_qr_scan"}, "fusion_lon": 0.0}, {"lat": 38.87632266666667, "is_disabled": 0, "type": "electric_scooter", "lon": -76.96525816666667, "bike_id": "cb1516e34790d9c896962b9ced85863b", "fusion_lat": 0.0, "name": "cb1516e34790d9c896962b9ced85863b", "is_reserved": 0, "rental_uris": {"android": "https://dc.lft.to/lastmile_qr_scan", "ios": "https://dc.lft.to/lastmile_qr_scan"}, "fusion_lon": 0.0}, {"lat": 38.902241833333335, "is_disabled": 0, "type": "electric_scooter", "lon": -77.02374666666667, "bike_id": "56e209158426e5b7dae5b9944da5b48f", "fusion_lat": 0.0, "name": "56e209158426e5b7dae5b9944da5b48f", "is_reserved": 0, "rental_uris": {"android": "https://dc.lft.to/lastmile_qr_scan", "ios": "https://dc.lft.to/lastmile_qr_scan"}, "fusion_lon": 0.0}, {"lat": 38.90098183333333, "is_disabled": 0, "type": "electric_scooter", "lon": -77.01356333333334, "bike_id": "ebe18e71984e8e0bc57b7cc6f7a14376", "fusion_lat": 0.0, "name": "ebe18e71984e8e0bc57b7cc6f7a14376", "is_reserved": 0, "rental_uris": {"android": "https://dc.lft.to/lastmile_qr_scan", "ios": "https://dc.lft.to/lastmile_qr_scan"}, "fusion_lon": 0.0}, {"lat": 38.8892755, "is_disabled": 0, "type": "electric_scooter", "lon": -77.02166, "bike_id": "0cd991f787d6d57defa0ee74eb6ea0af", "fusion_lat": 0.0, "name": "0cd991f787d6d57defa0ee74eb6ea0af", "is_reserved": 0, "rental_uris": {"android": "https://dc.lft.to/lastmile_qr_scan", "ios": "https://dc.lft.to/lastmile_qr_scan"}, "fusion_lon": 0.0}, {"lat": 38.8932535, "is_disabled": 0, "type": "electric_scooter", "lon": -76.92998316666667, "bike_id": "c08dbe9e8381ff46f909b36054a4ccd2", "fusion_lat": 0.0, "name": "c08dbe9e8381ff46f909b36054a4ccd2", "is_reserved": 0, "rental_uris": {"android": "https://dc.lft.to/lastmile_qr_scan", "ios": "https://dc.lft.to/lastmile_qr_scan"}, "fusion_lon": 0.0}, {"lat": 38.90963516666667, "is_disabled": 0, "type": "electric_scooter", "lon": -76.98467133333334, "bike_id": "09761577a00728c281cf6c2e18729d39", "fusion_lat": 0.0, "name": "09761577a00728c281cf6c2e18729d39", "is_reserved": 0, "rental_uris": {"android": "https://dc.lft.to/lastmile_qr_scan", "ios": "https://dc.lft.to/lastmile_qr_scan"}, "fusion_lon": 0.0}, {"lat": 38.92242, "is_disabled": 0, "type": "electric_scooter", "lon": -77.02910983333334, "bike_id": "e37183d267db7b84f9481245889c0b7f", "fusion_lat": 0.0, "name": "e37183d267db7b84f9481245889c0b7f", "is_reserved": 0, "rental_uris": {"android": "https://dc.lft.to/lastmile_qr_scan", "ios": "https://dc.lft.to/lastmile_qr_scan"}, "fusion_lon": 0.0}, {"lat": 38.915697, "is_disabled": 0, "type": "electric_scooter", "lon": -77.00978583333334, "bike_id": "b6c0443ac07d742c787fbeb36cd3abdc", "fusion_lat": 0.0, "name": "b6c0443ac07d742c787fbeb36cd3abdc", "is_reserved": 0, "rental_uris": {"android": "https://dc.lft.to/lastmile_qr_scan", "ios": "https://dc.lft.to/lastmile_qr_scan"}, "fusion_lon": 0.0}, {"lat": 38.90565633333333, "is_disabled": 0, "type": "electric_scooter", "lon": -77.0569505, "bike_id": "9d70f6097c9874e73b7a7e1ef05b4e02", "fusion_lat": 0.0, "name": "9d70f6097c9874e73b7a7e1ef05b4e02", "is_reserved": 0, "rental_uris": {"android": "https://dc.lft.to/lastmile_qr_scan", "ios": "https://dc.lft.to/lastmile_qr_scan"}, "fusion_lon": 0.0}, {"lat": 38.894847166666665, "is_disabled": 0, "type": "electric_scooter", "lon": -76.94955083333333, "bike_id": "0730d21cf74c5280e8ea46c12fb6207c", "fusion_lat": 0.0, "name": "0730d21cf74c5280e8ea46c12fb6207c", "is_reserved": 0, "rental_uris": {"android": "https://dc.lft.to/lastmile_qr_scan", "ios": "https://dc.lft.to/lastmile_qr_scan"}, "fusion_lon": 0.0}, {"lat": 38.935725, "is_disabled": 0, "type": "electric_scooter", "lon": -77.037304, "bike_id": "9599e4b83a76cf5354a162e76b9d03ff", "fusion_lat": 0.0, "name": "9599e4b83a76cf5354a162e76b9d03ff", "is_reserved": 0, "rental_uris": {"android": "https://dc.lft.to/lastmile_qr_scan", "ios": "https://dc.lft.to/lastmile_qr_scan"}, "fusion_lon": 0.0}, {"lat": 38.917063166666665, "is_disabled": 0, "type": "electric_scooter", "lon": -77.02980466666666, "bike_id": "8cb54bd1f1b98f9e9cc019eb55e3187c", "fusion_lat": 0.0, "name": "8cb54bd1f1b98f9e9cc019eb55e3187c", "is_reserved": 0, "rental_uris": {"android": "https://dc.lft.to/lastmile_qr_scan", "ios": "https://dc.lft.to/lastmile_qr_scan"}, "fusion_lon": 0.0}, {"lat": 38.862216, "is_disabled": 0, "type": "electric_scooter", "lon": -76.98366883333334, "bike_id": "a9076b6b6ac91c7d30eb041a73f6017c", "fusion_lat": 0.0, "name": "a9076b6b6ac91c7d30eb041a73f6017c", "is_reserved": 0, "rental_uris": {"android": "https://dc.lft.to/lastmile_qr_scan", "ios": "https://dc.lft.to/lastmile_qr_scan"}, "fusion_lon": 0.0}, {"lat": 38.961695166666665, "is_disabled": 0, "type": "electric_scooter", "lon": -77.02794283333333, "bike_id": "b5b833f6de0c737b0269cbd37402caba", "fusion_lat": 0.0, "name": "b5b833f6de0c737b0269cbd37402caba", "is_reserved": 0, "rental_uris": {"android": "https://dc.lft.to/lastmile_qr_scan", "ios": "https://dc.lft.to/lastmile_qr_scan"}, "fusion_lon": 0.0}, {"lat": 38.90336633333333, "is_disabled": 0, "type": "electric_scooter", "lon": -76.9705335, "bike_id": "b381e93dc437afa608329ee944801d8e", "fusion_lat": 0.0, "name": "b381e93dc437afa608329ee944801d8e", "is_reserved": 0, "rental_uris": {"android": "https://dc.lft.to/lastmile_qr_scan", "ios": "https://dc.lft.to/lastmile_qr_scan"}, "fusion_lon": 0.0}, {"lat": 38.919977333333335, "is_disabled": 0, "type": "electric_scooter", "lon": -77.02361016666667, "bike_id": "2f1c75def881e143f0ac158d580fa453", "fusion_lat": 0.0, "name": "2f1c75def881e143f0ac158d580fa453", "is_reserved": 0, "rental_uris": {"android": "https://dc.lft.to/lastmile_qr_scan", "ios": "https://dc.lft.to/lastmile_qr_scan"}, "fusion_lon": 0.0}, {"lat": 38.88273066666667, "is_disabled": 0, "type": "electric_bike", "lon": -76.93239216666667, "bike_id": "7249fe1505a5bc32a43100f75d0e2749", "fusion_lat": 0.0, "name": "7249fe1505a5bc32a43100f75d0e2749", "is_reserved": 0, "rental_uris": {"android": "https://dc.lft.to/lastmile_qr_scan", "ios": "https://dc.lft.to/lastmile_qr_scan"}, "fusion_lon": 0.0}, {"lat": 38.87916283333333, "is_disabled": 0, "type": "electric_scooter", "lon": -77.00712933333334, "bike_id": "ba831eea49c4f19dc02485c8c24629f3", "fusion_lat": 0.0, "name": "ba831eea49c4f19dc02485c8c24629f3", "is_reserved": 0, "rental_uris": {"android": "https://dc.lft.to/lastmile_qr_scan", "ios": "https://dc.lft.to/lastmile_qr_scan"}, "fusion_lon": 0.0}, {"lat": 38.892259833333334, "is_disabled": 0, "type": "electric_scooter", "lon": -77.0487095, "bike_id": "e4dc894e6d5d49bdd0a33c9cab31ce0a", "fusion_lat": 0.0, "name": "e4dc894e6d5d49bdd0a33c9cab31ce0a", "is_reserved": 0, "rental_uris": {"android": "https://dc.lft.to/lastmile_qr_scan", "ios": "https://dc.lft.to/lastmile_qr_scan"}, "fusion_lon": 0.0}, {"lat": 38.898677166666666, "is_disabled": 0, "type": "electric_scooter", "lon": -77.029549, "bike_id": "81227165799b919f49a76329718bd656", "fusion_lat": 0.0, "name": "81227165799b919f49a76329718bd656", "is_reserved": 0, "rental_uris": {"android": "https://dc.lft.to/lastmile_qr_scan", "ios": "https://dc.lft.to/lastmile_qr_scan"}, "fusion_lon": 0.0}, {"lat": 38.90888433333333, "is_disabled": 0, "type": "electric_scooter", "lon": -77.036542, "bike_id": "86deeb775521cd107d73abbf7c87c548", "fusion_lat": 0.0, "name": "86deeb775521cd107d73abbf7c87c548", "is_reserved": 0, "rental_uris": {"android": "https://dc.lft.to/lastmile_qr_scan", "ios": "https://dc.lft.to/lastmile_qr_scan"}, "fusion_lon": 0.0}, {"lat": 38.949237333333336, "is_disabled": 0, "type": "electric_bike", "lon": -77.00798716666667, "bike_id": "61456377b8057651a0d2ba7062b229f6", "fusion_lat": 0.0, "name": "61456377b8057651a0d2ba7062b229f6", "is_reserved": 0, "rental_uris": {"android": "https://dc.lft.to/lastmile_qr_scan", "ios": "https://dc.lft.to/lastmile_qr_scan"}, "fusion_lon": 0.0}, {"lat": 38.866196333333335, "is_disabled": 0, "type": "electric_scooter", "lon": -76.98665383333334, "bike_id": "25ecd66494f8b9dc0c280b5b9f9ffe7e", "fusion_lat": 0.0, "name": "25ecd66494f8b9dc0c280b5b9f9ffe7e", "is_reserved": 0, "rental_uris": {"android": "https://dc.lft.to/lastmile_qr_scan", "ios": "https://dc.lft.to/lastmile_qr_scan"}, "fusion_lon": 0.0}, {"lat": 38.916876, "is_disabled": 0, "type": "electric_scooter", "lon": -77.0294605, "bike_id": "d69a89e564c562b1733eef25da55504b", "fusion_lat": 0.0, "name": "d69a89e564c562b1733eef25da55504b", "is_reserved": 0, "rental_uris": {"android": "https://dc.lft.to/lastmile_qr_scan", "ios": "https://dc.lft.to/lastmile_qr_scan"}, "fusion_lon": 0.0}, {"lat": 38.96142416666667, "is_disabled": 0, "type": "electric_bike", "lon": -77.0324395, "bike_id": "e5b11a7208c3ce4d7eb9cdbc35b277ec", "fusion_lat": 0.0, "name": "e5b11a7208c3ce4d7eb9cdbc35b277ec", "is_reserved": 0, "rental_uris": {"android": "https://dc.lft.to/lastmile_qr_scan", "ios": "https://dc.lft.to/lastmile_qr_scan"}, "fusion_lon": 0.0}, {"lat": 38.897316833333335, "is_disabled": 0, "type": "electric_scooter", "lon": -77.0476885, "bike_id": "cb3d87b0c346e3a06a77f7fda276963d", "fusion_lat": 0.0, "name": "cb3d87b0c346e3a06a77f7fda276963d", "is_reserved": 0, "rental_uris": {"android": "https://dc.lft.to/lastmile_qr_scan", "ios": "https://dc.lft.to/lastmile_qr_scan"}, "fusion_lon": 0.0}, {"lat": 38.9182, "is_disabled": 0, "type": "electric_scooter", "lon": -77.034516, "bike_id": "ff18ab624dee3cb9746250b3c7fcf244", "fusion_lat": 0.0, "name": "ff18ab624dee3cb9746250b3c7fcf244", "is_reserved": 0, "rental_uris": {"android": "https://dc.lft.to/lastmile_qr_scan", "ios": "https://dc.lft.to/lastmile_qr_scan"}, "fusion_lon": 0.0}, {"lat": 38.90065166666667, "is_disabled": 0, "type": "electric_scooter", "lon": -77.05085766666667, "bike_id": "4590a37eb83352824ba335811805edc1", "fusion_lat": 0.0, "name": "4590a37eb83352824ba335811805edc1", "is_reserved": 0, "rental_uris": {"android": "https://dc.lft.to/lastmile_qr_scan", "ios": "https://dc.lft.to/lastmile_qr_scan"}, "fusion_lon": 0.0}, {"lat": 38.9224195, "is_disabled": 0, "type": "electric_scooter", "lon": -77.04574316666667, "bike_id": "9236a3eceade8a75907de21e059d6938", "fusion_lat": 0.0, "name": "9236a3eceade8a75907de21e059d6938", "is_reserved": 0, "rental_uris": {"android": "https://dc.lft.to/lastmile_qr_scan", "ios": "https://dc.lft.to/lastmile_qr_scan"}, "fusion_lon": 0.0}, {"lat": 38.93987833333333, "is_disabled": 0, "type": "electric_scooter", "lon": -77.071719, "bike_id": "381f270fa4c61351c5f3fd1cba78544c", "fusion_lat": 0.0, "name": "381f270fa4c61351c5f3fd1cba78544c", "is_reserved": 0, "rental_uris": {"android": "https://dc.lft.to/lastmile_qr_scan", "ios": "https://dc.lft.to/lastmile_qr_scan"}, "fusion_lon": 0.0}, {"lat": 38.89752566666667, "is_disabled": 0, "type": "electric_scooter", "lon": -77.0296015, "bike_id": "88696076650aac02815ef8369a3428ea", "fusion_lat": 0.0, "name": "88696076650aac02815ef8369a3428ea", "is_reserved": 0, "rental_uris": {"android": "https://dc.lft.to/lastmile_qr_scan", "ios": "https://dc.lft.to/lastmile_qr_scan"}, "fusion_lon": 0.0}, {"lat": 38.850593833333335, "is_disabled": 0, "type": "electric_bike", "lon": -76.97314016666667, "bike_id": "41c1b7ee79ed779188b1eb98df4d2280", "fusion_lat": 0.0, "name": "41c1b7ee79ed779188b1eb98df4d2280", "is_reserved": 0, "rental_uris": {"android": "https://dc.lft.to/lastmile_qr_scan", "ios": "https://dc.lft.to/lastmile_qr_scan"}, "fusion_lon": 0.0}, {"lat": 38.89885666666667, "is_disabled": 0, "type": "electric_scooter", "lon": -76.93173816666666, "bike_id": "91364f0fc81417b806e4fd31563a4f5f", "fusion_lat": 0.0, "name": "91364f0fc81417b806e4fd31563a4f5f", "is_reserved": 0, "rental_uris": {"android": "https://dc.lft.to/lastmile_qr_scan", "ios": "https://dc.lft.to/lastmile_qr_scan"}, "fusion_lon": 0.0}, {"lat": 38.926258833333335, "is_disabled": 0, "type": "electric_scooter", "lon": -77.03705716666667, "bike_id": "8b6bee682a8522df16817316f7b3b90e", "fusion_lat": 0.0, "name": "8b6bee682a8522df16817316f7b3b90e", "is_reserved": 0, "rental_uris": {"android": "https://dc.lft.to/lastmile_qr_scan", "ios": "https://dc.lft.to/lastmile_qr_scan"}, "fusion_lon": 0.0}, {"lat": 38.9051615, "is_disabled": 0, "type": "electric_scooter", "lon": -77.06201983333334, "bike_id": "7dd300974b96f1589d480617fbb6ee0a", "fusion_lat": 0.0, "name": "7dd300974b96f1589d480617fbb6ee0a", "is_reserved": 0, "rental_uris": {"android": "https://dc.lft.to/lastmile_qr_scan", "ios": "https://dc.lft.to/lastmile_qr_scan"}, "fusion_lon": 0.0}, {"lat": 38.89970533333333, "is_disabled": 0, "type": "electric_scooter", "lon": -77.05711466666666, "bike_id": "89dcc782edb59a640d5621e866ef837f", "fusion_lat": 0.0, "name": "89dcc782edb59a640d5621e866ef837f", "is_reserved": 0, "rental_uris": {"android": "https://dc.lft.to/lastmile_qr_scan", "ios": "https://dc.lft.to/lastmile_qr_scan"}, "fusion_lon": 0.0}, {"lat": 38.914163, "is_disabled": 0, "type": "electric_scooter", "lon": -77.03174616666666, "bike_id": "399594cea7823062a9775d286d2a5da6", "fusion_lat": 0.0, "name": "399594cea7823062a9775d286d2a5da6", "is_reserved": 0, "rental_uris": {"android": "https://dc.lft.to/lastmile_qr_scan", "ios": "https://dc.lft.to/lastmile_qr_scan"}, "fusion_lon": 0.0}, {"lat": 38.89510333333333, "is_disabled": 0, "type": "electric_scooter", "lon": -77.02274183333333, "bike_id": "03af85eb67d5a342c46e3d8000923983", "fusion_lat": 0.0, "name": "03af85eb67d5a342c46e3d8000923983", "is_reserved": 0, "rental_uris": {"android": "https://dc.lft.to/lastmile_qr_scan", "ios": "https://dc.lft.to/lastmile_qr_scan"}, "fusion_lon": 0.0}, {"lat": 38.905486333333336, "is_disabled": 0, "type": "electric_scooter", "lon": -77.03389766666666, "bike_id": "7ea14dbefc6c956c992c8ae873153c7b", "fusion_lat": 0.0, "name": "7ea14dbefc6c956c992c8ae873153c7b", "is_reserved": 0, "rental_uris": {"android": "https://dc.lft.to/lastmile_qr_scan", "ios": "https://dc.lft.to/lastmile_qr_scan"}, "fusion_lon": 0.0}, {"lat": 38.9030875, "is_disabled": 0, "type": "electric_scooter", "lon": -77.0262885, "bike_id": "d764bdf31e28f40bb92db52f684eaf3e", "fusion_lat": 0.0, "name": "d764bdf31e28f40bb92db52f684eaf3e", "is_reserved": 0, "rental_uris": {"android": "https://dc.lft.to/lastmile_qr_scan", "ios": "https://dc.lft.to/lastmile_qr_scan"}, "fusion_lon": 0.0}, {"lat": 38.94169483333334, "is_disabled": 0, "type": "electric_scooter", "lon": -77.023415, "bike_id": "d61c8322dc54c584f96a226a38366acd", "fusion_lat": 0.0, "name": "d61c8322dc54c584f96a226a38366acd", "is_reserved": 0, "rental_uris": {"android": "https://dc.lft.to/lastmile_qr_scan", "ios": "https://dc.lft.to/lastmile_qr_scan"}, "fusion_lon": 0.0}, {"lat": 38.8948315, "is_disabled": 0, "type": "electric_scooter", "lon": -77.02142016666667, "bike_id": "7372a4f90abde68ebe9a84e8054635da", "fusion_lat": 0.0, "name": "7372a4f90abde68ebe9a84e8054635da", "is_reserved": 0, "rental_uris": {"android": "https://dc.lft.to/lastmile_qr_scan", "ios": "https://dc.lft.to/lastmile_qr_scan"}, "fusion_lon": 0.0}, {"lat": 38.90536933333333, "is_disabled": 0, "type": "electric_scooter", "lon": -77.033919, "bike_id": "ec00d1daf6e7095db6f11a1ed33466b0", "fusion_lat": 0.0, "name": "ec00d1daf6e7095db6f11a1ed33466b0", "is_reserved": 0, "rental_uris": {"android": "https://dc.lft.to/lastmile_qr_scan", "ios": "https://dc.lft.to/lastmile_qr_scan"}, "fusion_lon": 0.0}, {"lat": 38.910453833333335, "is_disabled": 0, "type": "electric_scooter", "lon": -77.015163, "bike_id": "fdda0b0a0a52fefa5e3fa20b7347cc96", "fusion_lat": 0.0, "name": "fdda0b0a0a52fefa5e3fa20b7347cc96", "is_reserved": 0, "rental_uris": {"android": "https://dc.lft.to/lastmile_qr_scan", "ios": "https://dc.lft.to/lastmile_qr_scan"}, "fusion_lon": 0.0}, {"lat": 38.869089833333334, "is_disabled": 0, "type": "electric_bike", "lon": -77.131814, "bike_id": "a41e9b33fa4c4e52417c77679bb65555", "fusion_lat": 0.0, "name": "a41e9b33fa4c4e52417c77679bb65555", "is_reserved": 0, "rental_uris": {"android": "https://dc.lft.to/lastmile_qr_scan", "ios": "https://dc.lft.to/lastmile_qr_scan"}, "fusion_lon": 0.0}, {"lat": 38.920081333333336, "is_disabled": 0, "type": "electric_scooter", "lon": -77.03231466666666, "bike_id": "25019919012379edbb0a2fe1ebf45625", "fusion_lat": 0.0, "name": "25019919012379edbb0a2fe1ebf45625", "is_reserved": 0, "rental_uris": {"android": "https://dc.lft.to/lastmile_qr_scan", "ios": "https://dc.lft.to/lastmile_qr_scan"}, "fusion_lon": 0.0}, {"lat": 38.93281133333333, "is_disabled": 0, "type": "electric_scooter", "lon": -77.03626316666667, "bike_id": "052da83025f499752ad07cacac122ca6", "fusion_lat": 0.0, "name": "052da83025f499752ad07cacac122ca6", "is_reserved": 0, "rental_uris": {"android": "https://dc.lft.to/lastmile_qr_scan", "ios": "https://dc.lft.to/lastmile_qr_scan"}, "fusion_lon": 0.0}, {"lat": 38.93285133333333, "is_disabled": 0, "type": "electric_scooter", "lon": -77.03974333333333, "bike_id": "a37b4f26ac2f9de15aed9e5e2c01e0ae", "fusion_lat": 0.0, "name": "a37b4f26ac2f9de15aed9e5e2c01e0ae", "is_reserved": 0, "rental_uris": {"android": "https://dc.lft.to/lastmile_qr_scan", "ios": "https://dc.lft.to/lastmile_qr_scan"}, "fusion_lon": 0.0}, {"lat": 38.90722866666667, "is_disabled": 0, "type": "electric_scooter", "lon": -77.02372616666666, "bike_id": "b8431d3f932f0abd2583c2f2be1f5c63", "fusion_lat": 0.0, "name": "b8431d3f932f0abd2583c2f2be1f5c63", "is_reserved": 0, "rental_uris": {"android": "https://dc.lft.to/lastmile_qr_scan", "ios": "https://dc.lft.to/lastmile_qr_scan"}, "fusion_lon": 0.0}, {"lat": 38.84657516666667, "is_disabled": 0, "type": "electric_bike", "lon": -76.97929566666667, "bike_id": "e89843ebada363e3119c987ae92376c6", "fusion_lat": 0.0, "name": "e89843ebada363e3119c987ae92376c6", "is_reserved": 0, "rental_uris": {"android": "https://dc.lft.to/lastmile_qr_scan", "ios": "https://dc.lft.to/lastmile_qr_scan"}, "fusion_lon": 0.0}, {"lat": 38.9248415, "is_disabled": 0, "type": "electric_scooter", "lon": -77.05213466666666, "bike_id": "03ad8f004cea8a8521ad26dc0bbe33c4", "fusion_lat": 0.0, "name": "03ad8f004cea8a8521ad26dc0bbe33c4", "is_reserved": 0, "rental_uris": {"android": "https://dc.lft.to/lastmile_qr_scan", "ios": "https://dc.lft.to/lastmile_qr_scan"}, "fusion_lon": 0.0}, {"lat": 38.931715833333335, "is_disabled": 0, "type": "electric_scooter", "lon": -77.02814466666666, "bike_id": "3454887b4c6f27f6ccdb00dcd9eff519", "fusion_lat": 0.0, "name": "3454887b4c6f27f6ccdb00dcd9eff519", "is_reserved": 0, "rental_uris": {"android": "https://dc.lft.to/lastmile_qr_scan", "ios": "https://dc.lft.to/lastmile_qr_scan"}, "fusion_lon": 0.0}, {"lat": 38.8904415, "is_disabled": 0, "type": "electric_scooter", "lon": -76.9513885, "bike_id": "3126d13f807221aadcf89d972800786b", "fusion_lat": 0.0, "name": "3126d13f807221aadcf89d972800786b", "is_reserved": 0, "rental_uris": {"android": "https://dc.lft.to/lastmile_qr_scan", "ios": "https://dc.lft.to/lastmile_qr_scan"}, "fusion_lon": 0.0}, {"lat": 38.899748833333334, "is_disabled": 0, "type": "electric_scooter", "lon": -77.05511933333334, "bike_id": "93010d4eacc8bc36a20e29f85ef61870", "fusion_lat": 0.0, "name": "93010d4eacc8bc36a20e29f85ef61870", "is_reserved": 0, "rental_uris": {"android": "https://dc.lft.to/lastmile_qr_scan", "ios": "https://dc.lft.to/lastmile_qr_scan"}, "fusion_lon": 0.0}, {"lat": 38.90377266666667, "is_disabled": 0, "type": "electric_scooter", "lon": -77.043759, "bike_id": "8627896f5452af9072c42aeb46135c84", "fusion_lat": 0.0, "name": "8627896f5452af9072c42aeb46135c84", "is_reserved": 0, "rental_uris": {"android": "https://dc.lft.to/lastmile_qr_scan", "ios": "https://dc.lft.to/lastmile_qr_scan"}, "fusion_lon": 0.0}, {"lat": 38.93222133333333, "is_disabled": 0, "type": "electric_scooter", "lon": -77.02733933333333, "bike_id": "1cbaac39c19ac266a56fe089b1d82a70", "fusion_lat": 0.0, "name": "1cbaac39c19ac266a56fe089b1d82a70", "is_reserved": 0, "rental_uris": {"android": "https://dc.lft.to/lastmile_qr_scan", "ios": "https://dc.lft.to/lastmile_qr_scan"}, "fusion_lon": 0.0}, {"lat": 38.94094583333333, "is_disabled": 0, "type": "electric_scooter", "lon": -77.023064, "bike_id": "74d492f6b0ccc279a398e511c4ae94bb", "fusion_lat": 0.0, "name": "74d492f6b0ccc279a398e511c4ae94bb", "is_reserved": 0, "rental_uris": {"android": "https://dc.lft.to/lastmile_qr_scan", "ios": "https://dc.lft.to/lastmile_qr_scan"}, "fusion_lon": 0.0}, {"lat": 38.96497866666667, "is_disabled": 0, "type": "electric_bike", "lon": -77.06494983333333, "bike_id": "40fe67b08f045b26a1e6b67b294a9a1d", "fusion_lat": 0.0, "name": "40fe67b08f045b26a1e6b67b294a9a1d", "is_reserved": 0, "rental_uris": {"android": "https://dc.lft.to/lastmile_qr_scan", "ios": "https://dc.lft.to/lastmile_qr_scan"}, "fusion_lon": 0.0}, {"lat": 38.907280666666665, "is_disabled": 0, "type": "electric_scooter", "lon": -77.025336, "bike_id": "906238c9d23db2df4fd98b71a0489373", "fusion_lat": 0.0, "name": "906238c9d23db2df4fd98b71a0489373", "is_reserved": 0, "rental_uris": {"android": "https://dc.lft.to/lastmile_qr_scan", "ios": "https://dc.lft.to/lastmile_qr_scan"}, "fusion_lon": 0.0}, {"lat": 38.90972883333333, "is_disabled": 0, "type": "electric_scooter", "lon": -77.03211183333333, "bike_id": "e5798d88f3bfb4af1142a1c0978feda1", "fusion_lat": 0.0, "name": "e5798d88f3bfb4af1142a1c0978feda1", "is_reserved": 0, "rental_uris": {"android": "https://dc.lft.to/lastmile_qr_scan", "ios": "https://dc.lft.to/lastmile_qr_scan"}, "fusion_lon": 0.0}, {"lat": 38.86663933333333, "is_disabled": 0, "type": "electric_scooter", "lon": -76.98906816666667, "bike_id": "abc63e278685b650bb94bfe6ff974332", "fusion_lat": 0.0, "name": "abc63e278685b650bb94bfe6ff974332", "is_reserved": 0, "rental_uris": {"android": "https://dc.lft.to/lastmile_qr_scan", "ios": "https://dc.lft.to/lastmile_qr_scan"}, "fusion_lon": 0.0}, {"lat": 38.915700666666666, "is_disabled": 0, "type": "electric_scooter", "lon": -77.0119845, "bike_id": "a7507ccda71b907b148fad6648411daa", "fusion_lat": 0.0, "name": "a7507ccda71b907b148fad6648411daa", "is_reserved": 0, "rental_uris": {"android": "https://dc.lft.to/lastmile_qr_scan", "ios": "https://dc.lft.to/lastmile_qr_scan"}, "fusion_lon": 0.0}, {"lat": 38.89223633333334, "is_disabled": 0, "type": "electric_scooter", "lon": -76.93294066666667, "bike_id": "949c4abd8b68e79423ba8b336aeb24cf", "fusion_lat": 0.0, "name": "949c4abd8b68e79423ba8b336aeb24cf", "is_reserved": 0, "rental_uris": {"android": "https://dc.lft.to/lastmile_qr_scan", "ios": "https://dc.lft.to/lastmile_qr_scan"}, "fusion_lon": 0.0}, {"lat": 38.88971983333333, "is_disabled": 0, "type": "electric_scooter", "lon": -76.9373525, "bike_id": "b291270fbfc2ede2509b939fdd04b6fa", "fusion_lat": 0.0, "name": "b291270fbfc2ede2509b939fdd04b6fa", "is_reserved": 0, "rental_uris": {"android": "https://dc.lft.to/lastmile_qr_scan", "ios": "https://dc.lft.to/lastmile_qr_scan"}, "fusion_lon": 0.0}, {"lat": 38.88435716666667, "is_disabled": 0, "type": "electric_scooter", "lon": -76.95757033333334, "bike_id": "911da802f3691d01657f9905660d4701", "fusion_lat": 0.0, "name": "911da802f3691d01657f9905660d4701", "is_reserved": 0, "rental_uris": {"android": "https://dc.lft.to/lastmile_qr_scan", "ios": "https://dc.lft.to/lastmile_qr_scan"}, "fusion_lon": 0.0}, {"lat": 38.87460016666667, "is_disabled": 0, "type": "electric_scooter", "lon": -77.00491133333334, "bike_id": "c5cb812470dd7765048841e1934a5e3c", "fusion_lat": 0.0, "name": "c5cb812470dd7765048841e1934a5e3c", "is_reserved": 0, "rental_uris": {"android": "https://dc.lft.to/lastmile_qr_scan", "ios": "https://dc.lft.to/lastmile_qr_scan"}, "fusion_lon": 0.0}, {"lat": 38.86615183333333, "is_disabled": 0, "type": "electric_bike", "lon": -76.945724, "bike_id": "40b1f4486bb999564cd1f089ed6d321d", "fusion_lat": 0.0, "name": "40b1f4486bb999564cd1f089ed6d321d", "is_reserved": 0, "rental_uris": {"android": "https://dc.lft.to/lastmile_qr_scan", "ios": "https://dc.lft.to/lastmile_qr_scan"}, "fusion_lon": 0.0}, {"lat": 38.89280733333333, "is_disabled": 0, "type": "electric_scooter", "lon": -77.05034083333334, "bike_id": "52149ddf331822fae1ac4b572e06bb39", "fusion_lat": 0.0, "name": "52149ddf331822fae1ac4b572e06bb39", "is_reserved": 0, "rental_uris": {"android": "https://dc.lft.to/lastmile_qr_scan", "ios": "https://dc.lft.to/lastmile_qr_scan"}, "fusion_lon": 0.0}, {"lat": 38.900037166666664, "is_disabled": 0, "type": "electric_scooter", "lon": -77.05238883333334, "bike_id": "73c7f803f9e38835880e32adb4d191a5", "fusion_lat": 0.0, "name": "73c7f803f9e38835880e32adb4d191a5", "is_reserved": 0, "rental_uris": {"android": "https://dc.lft.to/lastmile_qr_scan", "ios": "https://dc.lft.to/lastmile_qr_scan"}, "fusion_lon": 0.0}, {"lat": 38.85850933333333, "is_disabled": 0, "type": "electric_bike", "lon": -77.09760033333333, "bike_id": "43e431abfa44c129136a23a72c3d14cb", "fusion_lat": 0.0, "name": "43e431abfa44c129136a23a72c3d14cb", "is_reserved": 0, "rental_uris": {"android": "https://dc.lft.to/lastmile_qr_scan", "ios": "https://dc.lft.to/lastmile_qr_scan"}, "fusion_lon": 0.0}, {"lat": 38.9590105, "is_disabled": 0, "type": "electric_bike", "lon": -76.92486916666667, "bike_id": "e3071a9d9d501c52059cd60099fbbc0b", "fusion_lat": 0.0, "name": "e3071a9d9d501c52059cd60099fbbc0b", "is_reserved": 0, "rental_uris": {"android": "https://dc.lft.to/lastmile_qr_scan", "ios": "https://dc.lft.to/lastmile_qr_scan"}, "fusion_lon": 0.0}, {"lat": 38.914150666666664, "is_disabled": 0, "type": "electric_scooter", "lon": -77.02234066666666, "bike_id": "4224d156be3061abb1ba51786e824e77", "fusion_lat": 0.0, "name": "4224d156be3061abb1ba51786e824e77", "is_reserved": 0, "rental_uris": {"android": "https://dc.lft.to/lastmile_qr_scan", "ios": "https://dc.lft.to/lastmile_qr_scan"}, "fusion_lon": 0.0}, {"lat": 38.897375333333336, "is_disabled": 0, "type": "electric_scooter", "lon": -77.03186316666667, "bike_id": "4fa645412be2d3040d08f84b69c9b21a", "fusion_lat": 0.0, "name": "4fa645412be2d3040d08f84b69c9b21a", "is_reserved": 0, "rental_uris": {"android": "https://dc.lft.to/lastmile_qr_scan", "ios": "https://dc.lft.to/lastmile_qr_scan"}, "fusion_lon": 0.0}, {"lat": 38.93656583333333, "is_disabled": 0, "type": "electric_scooter", "lon": -77.036898, "bike_id": "a9f3414f84ef5476bb7dd7c72b3ebea3", "fusion_lat": 0.0, "name": "a9f3414f84ef5476bb7dd7c72b3ebea3", "is_reserved": 0, "rental_uris": {"android": "https://dc.lft.to/lastmile_qr_scan", "ios": "https://dc.lft.to/lastmile_qr_scan"}, "fusion_lon": 0.0}, {"lat": 38.91416433333333, "is_disabled": 0, "type": "electric_scooter", "lon": -77.03172966666666, "bike_id": "2bacf5e89c49d6b71d66bc421b9ec064", "fusion_lat": 0.0, "name": "2bacf5e89c49d6b71d66bc421b9ec064", "is_reserved": 0, "rental_uris": {"android": "https://dc.lft.to/lastmile_qr_scan", "ios": "https://dc.lft.to/lastmile_qr_scan"}, "fusion_lon": 0.0}, {"lat": 38.89042516666667, "is_disabled": 0, "type": "electric_scooter", "lon": -76.940797, "bike_id": "723c910dbb62f3e42581a76b035b4a1f", "fusion_lat": 0.0, "name": "723c910dbb62f3e42581a76b035b4a1f", "is_reserved": 0, "rental_uris": {"android": "https://dc.lft.to/lastmile_qr_scan", "ios": "https://dc.lft.to/lastmile_qr_scan"}, "fusion_lon": 0.0}, {"lat": 38.9291445, "is_disabled": 0, "type": "electric_scooter", "lon": -77.03179266666666, "bike_id": "6e9381c56711c84c3ba278282ea5b164", "fusion_lat": 0.0, "name": "6e9381c56711c84c3ba278282ea5b164", "is_reserved": 0, "rental_uris": {"android": "https://dc.lft.to/lastmile_qr_scan", "ios": "https://dc.lft.to/lastmile_qr_scan"}, "fusion_lon": 0.0}, {"lat": 38.91262583333334, "is_disabled": 0, "type": "electric_scooter", "lon": -77.03855333333334, "bike_id": "cc487c8e6b03b02997330bed1c77d375", "fusion_lat": 0.0, "name": "cc487c8e6b03b02997330bed1c77d375", "is_reserved": 0, "rental_uris": {"android": "https://dc.lft.to/lastmile_qr_scan", "ios": "https://dc.lft.to/lastmile_qr_scan"}, "fusion_lon": 0.0}, {"lat": 38.8922065, "is_disabled": 0, "type": "electric_scooter", "lon": -77.0264295, "bike_id": "e9032a09c6df3eaf4c0c294458a9b492", "fusion_lat": 0.0, "name": "e9032a09c6df3eaf4c0c294458a9b492", "is_reserved": 0, "rental_uris": {"android": "https://dc.lft.to/lastmile_qr_scan", "ios": "https://dc.lft.to/lastmile_qr_scan"}, "fusion_lon": 0.0}, {"lat": 38.8768055, "is_disabled": 0, "type": "electric_scooter", "lon": -77.01787066666667, "bike_id": "585cb0212c52227939fcf44010971a60", "fusion_lat": 0.0, "name": "585cb0212c52227939fcf44010971a60", "is_reserved": 0, "rental_uris": {"android": "https://dc.lft.to/lastmile_qr_scan", "ios": "https://dc.lft.to/lastmile_qr_scan"}, "fusion_lon": 0.0}, {"lat": 38.906963833333336, "is_disabled": 0, "type": "electric_scooter", "lon": -76.99960716666666, "bike_id": "e280221c1f66232d9626a5c5945941f0", "fusion_lat": 0.0, "name": "e280221c1f66232d9626a5c5945941f0", "is_reserved": 0, "rental_uris": {"android": "https://dc.lft.to/lastmile_qr_scan", "ios": "https://dc.lft.to/lastmile_qr_scan"}, "fusion_lon": 0.0}, {"lat": 38.92638083333333, "is_disabled": 0, "type": "electric_scooter", "lon": -77.03794566666667, "bike_id": "0827bc5b0f9725ad2a31dbbc05d8e752", "fusion_lat": 0.0, "name": "0827bc5b0f9725ad2a31dbbc05d8e752", "is_reserved": 0, "rental_uris": {"android": "https://dc.lft.to/lastmile_qr_scan", "ios": "https://dc.lft.to/lastmile_qr_scan"}, "fusion_lon": 0.0}, {"lat": 38.919157, "is_disabled": 0, "type": "electric_scooter", "lon": -77.03392816666667, "bike_id": "1d864f4b2ee0856f02cf46e08163d6ee", "fusion_lat": 0.0, "name": "1d864f4b2ee0856f02cf46e08163d6ee", "is_reserved": 0, "rental_uris": {"android": "https://dc.lft.to/lastmile_qr_scan", "ios": "https://dc.lft.to/lastmile_qr_scan"}, "fusion_lon": 0.0}, {"lat": 38.9030015, "is_disabled": 0, "type": "electric_scooter", "lon": -77.053199, "bike_id": "3a6e5b4fdeaed9d020671543681a0a0d", "fusion_lat": 0.0, "name": "3a6e5b4fdeaed9d020671543681a0a0d", "is_reserved": 0, "rental_uris": {"android": "https://dc.lft.to/lastmile_qr_scan", "ios": "https://dc.lft.to/lastmile_qr_scan"}, "fusion_lon": 0.0}, {"lat": 38.94603816666667, "is_disabled": 0, "type": "electric_scooter", "lon": -77.02977283333334, "bike_id": "22efcd9629eaf968b81765f3c669ba75", "fusion_lat": 0.0, "name": "22efcd9629eaf968b81765f3c669ba75", "is_reserved": 0, "rental_uris": {"android": "https://dc.lft.to/lastmile_qr_scan", "ios": "https://dc.lft.to/lastmile_qr_scan"}, "fusion_lon": 0.0}, {"lat": 38.910569333333335, "is_disabled": 0, "type": "electric_scooter", "lon": -77.015283, "bike_id": "cd5296b2d3ce9ffd6361f6a908ac52f9", "fusion_lat": 0.0, "name": "cd5296b2d3ce9ffd6361f6a908ac52f9", "is_reserved": 0, "rental_uris": {"android": "https://dc.lft.to/lastmile_qr_scan", "ios": "https://dc.lft.to/lastmile_qr_scan"}, "fusion_lon": 0.0}, {"lat": 38.899507166666666, "is_disabled": 0, "type": "electric_scooter", "lon": -77.05180183333333, "bike_id": "9d3dd4f68476bb4ab4b63fbb12130aaa", "fusion_lat": 0.0, "name": "9d3dd4f68476bb4ab4b63fbb12130aaa", "is_reserved": 0, "rental_uris": {"android": "https://dc.lft.to/lastmile_qr_scan", "ios": "https://dc.lft.to/lastmile_qr_scan"}, "fusion_lon": 0.0}, {"lat": 38.92415333333334, "is_disabled": 0, "type": "electric_scooter", "lon": -77.04446866666666, "bike_id": "bc6e19cf3fda5cfd7ded742948c0e37e", "fusion_lat": 0.0, "name": "bc6e19cf3fda5cfd7ded742948c0e37e", "is_reserved": 0, "rental_uris": {"android": "https://dc.lft.to/lastmile_qr_scan", "ios": "https://dc.lft.to/lastmile_qr_scan"}, "fusion_lon": 0.0}, {"lat": 38.865018166666665, "is_disabled": 0, "type": "electric_scooter", "lon": -76.97451, "bike_id": "758821c5fe53c59151c55d83255168ed", "fusion_lat": 0.0, "name": "758821c5fe53c59151c55d83255168ed", "is_reserved": 0, "rental_uris": {"android": "https://dc.lft.to/lastmile_qr_scan", "ios": "https://dc.lft.to/lastmile_qr_scan"}, "fusion_lon": 0.0}, {"lat": 38.874804833333336, "is_disabled": 0, "type": "electric_scooter", "lon": -77.01073766666667, "bike_id": "e5368588d94a366b897220f04d7393a1", "fusion_lat": 0.0, "name": "e5368588d94a366b897220f04d7393a1", "is_reserved": 0, "rental_uris": {"android": "https://dc.lft.to/lastmile_qr_scan", "ios": "https://dc.lft.to/lastmile_qr_scan"}, "fusion_lon": 0.0}, {"lat": 38.902202833333334, "is_disabled": 0, "type": "electric_scooter", "lon": -77.02811716666666, "bike_id": "fd6083a16fb96ececcd9a58b61767045", "fusion_lat": 0.0, "name": "fd6083a16fb96ececcd9a58b61767045", "is_reserved": 0, "rental_uris": {"android": "https://dc.lft.to/lastmile_qr_scan", "ios": "https://dc.lft.to/lastmile_qr_scan"}, "fusion_lon": 0.0}, {"lat": 38.89972, "is_disabled": 0, "type": "electric_scooter", "lon": -77.05088816666667, "bike_id": "a11ff90d65631efc92e1cfdcec945131", "fusion_lat": 0.0, "name": "a11ff90d65631efc92e1cfdcec945131", "is_reserved": 0, "rental_uris": {"android": "https://dc.lft.to/lastmile_qr_scan", "ios": "https://dc.lft.to/lastmile_qr_scan"}, "fusion_lon": 0.0}, {"lat": 38.89740116666667, "is_disabled": 0, "type": "electric_scooter", "lon": -77.04684316666666, "bike_id": "0148c46d347c72fbbb6c7308482f4836", "fusion_lat": 0.0, "name": "0148c46d347c72fbbb6c7308482f4836", "is_reserved": 0, "rental_uris": {"android": "https://dc.lft.to/lastmile_qr_scan", "ios": "https://dc.lft.to/lastmile_qr_scan"}, "fusion_lon": 0.0}, {"lat": 38.8925525, "is_disabled": 0, "type": "electric_scooter", "lon": -77.04893, "bike_id": "1df9fc2adc027dbfd7721b3c0a799c39", "fusion_lat": 0.0, "name": "1df9fc2adc027dbfd7721b3c0a799c39", "is_reserved": 0, "rental_uris": {"android": "https://dc.lft.to/lastmile_qr_scan", "ios": "https://dc.lft.to/lastmile_qr_scan"}, "fusion_lon": 0.0}, {"lat": 38.9417635, "is_disabled": 0, "type": "electric_scooter", "lon": -77.03651266666667, "bike_id": "7c9213c8fe29bc6f0704e9d2f0035a56", "fusion_lat": 0.0, "name": "7c9213c8fe29bc6f0704e9d2f0035a56", "is_reserved": 0, "rental_uris": {"android": "https://dc.lft.to/lastmile_qr_scan", "ios": "https://dc.lft.to/lastmile_qr_scan"}, "fusion_lon": 0.0}, {"lat": 38.8963705, "is_disabled": 0, "type": "electric_scooter", "lon": -77.03222616666666, "bike_id": "ec3fcd240b9f820cc47e34cc91ff6044", "fusion_lat": 0.0, "name": "ec3fcd240b9f820cc47e34cc91ff6044", "is_reserved": 0, "rental_uris": {"android": "https://dc.lft.to/lastmile_qr_scan", "ios": "https://dc.lft.to/lastmile_qr_scan"}, "fusion_lon": 0.0}, {"lat": 38.93116666666667, "is_disabled": 0, "type": "electric_scooter", "lon": -77.0380695, "bike_id": "ca1ea052ff37e570ad9f91f7c8da62c5", "fusion_lat": 0.0, "name": "ca1ea052ff37e570ad9f91f7c8da62c5", "is_reserved": 0, "rental_uris": {"android": "https://dc.lft.to/lastmile_qr_scan", "ios": "https://dc.lft.to/lastmile_qr_scan"}, "fusion_lon": 0.0}, {"lat": 38.8708525, "is_disabled": 0, "type": "electric_bike", "lon": -77.0120795, "bike_id": "71d0d921540ffa0fb95d141b6c109006", "fusion_lat": 0.0, "name": "71d0d921540ffa0fb95d141b6c109006", "is_reserved": 0, "rental_uris": {"android": "https://dc.lft.to/lastmile_qr_scan", "ios": "https://dc.lft.to/lastmile_qr_scan"}, "fusion_lon": 0.0}, {"lat": 38.862118333333335, "is_disabled": 0, "type": "electric_bike", "lon": -76.997781, "bike_id": "8e566747841ca67680a2daaace5f1733", "fusion_lat": 0.0, "name": "8e566747841ca67680a2daaace5f1733", "is_reserved": 0, "rental_uris": {"android": "https://dc.lft.to/lastmile_qr_scan", "ios": "https://dc.lft.to/lastmile_qr_scan"}, "fusion_lon": 0.0}, {"lat": 38.8923045, "is_disabled": 0, "type": "electric_scooter", "lon": -77.050009, "bike_id": "ab8d9797b49fecf8da8d6a1a0d6b88cb", "fusion_lat": 0.0, "name": "ab8d9797b49fecf8da8d6a1a0d6b88cb", "is_reserved": 0, "rental_uris": {"android": "https://dc.lft.to/lastmile_qr_scan", "ios": "https://dc.lft.to/lastmile_qr_scan"}, "fusion_lon": 0.0}, {"lat": 38.90205566666667, "is_disabled": 0, "type": "electric_scooter", "lon": -77.0483305, "bike_id": "61f57194bfc2b3dc52097e13793f6a96", "fusion_lat": 0.0, "name": "61f57194bfc2b3dc52097e13793f6a96", "is_reserved": 0, "rental_uris": {"android": "https://dc.lft.to/lastmile_qr_scan", "ios": "https://dc.lft.to/lastmile_qr_scan"}, "fusion_lon": 0.0}, {"lat": 38.870635166666666, "is_disabled": 0, "type": "electric_scooter", "lon": -77.0083945, "bike_id": "265d725bcb79359c0f80084a1e01575e", "fusion_lat": 0.0, "name": "265d725bcb79359c0f80084a1e01575e", "is_reserved": 0, "rental_uris": {"android": "https://dc.lft.to/lastmile_qr_scan", "ios": "https://dc.lft.to/lastmile_qr_scan"}, "fusion_lon": 0.0}, {"lat": 38.9561695, "is_disabled": 0, "type": "electric_scooter", "lon": -77.02782066666667, "bike_id": "58e031b77e7b3bb51a6e642e0b62e0de", "fusion_lat": 0.0, "name": "58e031b77e7b3bb51a6e642e0b62e0de", "is_reserved": 0, "rental_uris": {"android": "https://dc.lft.to/lastmile_qr_scan", "ios": "https://dc.lft.to/lastmile_qr_scan"}, "fusion_lon": 0.0}, {"lat": 38.89788683333333, "is_disabled": 0, "type": "electric_scooter", "lon": -77.04372516666666, "bike_id": "a3e133402f2a4728fd1cc627d86dbd94", "fusion_lat": 0.0, "name": "a3e133402f2a4728fd1cc627d86dbd94", "is_reserved": 0, "rental_uris": {"android": "https://dc.lft.to/lastmile_qr_scan", "ios": "https://dc.lft.to/lastmile_qr_scan"}, "fusion_lon": 0.0}, {"lat": 38.96279533333333, "is_disabled": 0, "type": "electric_bike", "lon": -77.03243216666667, "bike_id": "1406429ad10abff95dfc277524e83b7b", "fusion_lat": 0.0, "name": "1406429ad10abff95dfc277524e83b7b", "is_reserved": 0, "rental_uris": {"android": "https://dc.lft.to/lastmile_qr_scan", "ios": "https://dc.lft.to/lastmile_qr_scan"}, "fusion_lon": 0.0}, {"lat": 38.917727, "is_disabled": 0, "type": "electric_scooter", "lon": -77.02312116666667, "bike_id": "a0fb9cf04e4715d66a776ed3e5040f0d", "fusion_lat": 0.0, "name": "a0fb9cf04e4715d66a776ed3e5040f0d", "is_reserved": 0, "rental_uris": {"android": "https://dc.lft.to/lastmile_qr_scan", "ios": "https://dc.lft.to/lastmile_qr_scan"}, "fusion_lon": 0.0}, {"lat": 38.91566183333333, "is_disabled": 0, "type": "electric_scooter", "lon": -77.04666033333334, "bike_id": "6f0d3740df8145857ce8bb533c3946c6", "fusion_lat": 0.0, "name": "6f0d3740df8145857ce8bb533c3946c6", "is_reserved": 0, "rental_uris": {"android": "https://dc.lft.to/lastmile_qr_scan", "ios": "https://dc.lft.to/lastmile_qr_scan"}, "fusion_lon": 0.0}, {"lat": 38.94952816666667, "is_disabled": 0, "type": "electric_scooter", "lon": -77.01610983333333, "bike_id": "08a4ab482b6db8d9b998193966a9f4fa", "fusion_lat": 0.0, "name": "08a4ab482b6db8d9b998193966a9f4fa", "is_reserved": 0, "rental_uris": {"android": "https://dc.lft.to/lastmile_qr_scan", "ios": "https://dc.lft.to/lastmile_qr_scan"}, "fusion_lon": 0.0}, {"lat": 38.913101, "is_disabled": 0, "type": "electric_scooter", "lon": -77.036557, "bike_id": "77433f601c93b4c3a3f1e4fcda7acef9", "fusion_lat": 0.0, "name": "77433f601c93b4c3a3f1e4fcda7acef9", "is_reserved": 0, "rental_uris": {"android": "https://dc.lft.to/lastmile_qr_scan", "ios": "https://dc.lft.to/lastmile_qr_scan"}, "fusion_lon": 0.0}, {"lat": 38.91115, "is_disabled": 0, "type": "electric_scooter", "lon": -77.035523, "bike_id": "d25002606ec089c53146e693437cdbcf", "fusion_lat": 0.0, "name": "d25002606ec089c53146e693437cdbcf", "is_reserved": 0, "rental_uris": {"android": "https://dc.lft.to/lastmile_qr_scan", "ios": "https://dc.lft.to/lastmile_qr_scan"}, "fusion_lon": 0.0}, {"lat": 38.955416166666666, "is_disabled": 0, "type": "electric_bike", "lon": -77.01787416666667, "bike_id": "1b5208cc249a08d388745c5b0b272b51", "fusion_lat": 0.0, "name": "1b5208cc249a08d388745c5b0b272b51", "is_reserved": 0, "rental_uris": {"android": "https://dc.lft.to/lastmile_qr_scan", "ios": "https://dc.lft.to/lastmile_qr_scan"}, "fusion_lon": 0.0}, {"lat": 38.89852316666666, "is_disabled": 0, "type": "electric_scooter", "lon": -76.99036966666667, "bike_id": "9d293c5ace7bf611af4d65eda28c6c6a", "fusion_lat": 0.0, "name": "9d293c5ace7bf611af4d65eda28c6c6a", "is_reserved": 0, "rental_uris": {"android": "https://dc.lft.to/lastmile_qr_scan", "ios": "https://dc.lft.to/lastmile_qr_scan"}, "fusion_lon": 0.0}, {"lat": 38.92334983333333, "is_disabled": 0, "type": "electric_bike", "lon": -77.0568665, "bike_id": "b9cdc50f3315d01b8edecd15a10caa2f", "fusion_lat": 0.0, "name": "b9cdc50f3315d01b8edecd15a10caa2f", "is_reserved": 0, "rental_uris": {"android": "https://dc.lft.to/lastmile_qr_scan", "ios": "https://dc.lft.to/lastmile_qr_scan"}, "fusion_lon": 0.0}, {"lat": 38.930108833333335, "is_disabled": 0, "type": "electric_bike", "lon": -77.2164895, "bike_id": "ebd4fb4156e782681ca4eedcd5d3faa8", "fusion_lat": 0.0, "name": "ebd4fb4156e782681ca4eedcd5d3faa8", "is_reserved": 0, "rental_uris": {"android": "https://dc.lft.to/lastmile_qr_scan", "ios": "https://dc.lft.to/lastmile_qr_scan"}, "fusion_lon": 0.0}, {"lat": 38.90219666666667, "is_disabled": 0, "type": "electric_scooter", "lon": -76.9458835, "bike_id": "e4e42d3c9696e809cf600b56e756d497", "fusion_lat": 0.0, "name": "e4e42d3c9696e809cf600b56e756d497", "is_reserved": 0, "rental_uris": {"android": "https://dc.lft.to/lastmile_qr_scan", "ios": "https://dc.lft.to/lastmile_qr_scan"}, "fusion_lon": 0.0}, {"lat": 38.91967366666667, "is_disabled": 0, "type": "electric_bike", "lon": -76.97268983333333, "bike_id": "911989ab9be158ae286eb470bcd4acb4", "fusion_lat": 0.0, "name": "911989ab9be158ae286eb470bcd4acb4", "is_reserved": 0, "rental_uris": {"android": "https://dc.lft.to/lastmile_qr_scan", "ios": "https://dc.lft.to/lastmile_qr_scan"}, "fusion_lon": 0.0}, {"lat": 38.924391, "is_disabled": 0, "type": "electric_scooter", "lon": -77.03404316666666, "bike_id": "59f6629c22d1dc7c0c31c64c98659c0e", "fusion_lat": 0.0, "name": "59f6629c22d1dc7c0c31c64c98659c0e", "is_reserved": 0, "rental_uris": {"android": "https://dc.lft.to/lastmile_qr_scan", "ios": "https://dc.lft.to/lastmile_qr_scan"}, "fusion_lon": 0.0}, {"lat": 38.902763, "is_disabled": 0, "type": "electric_scooter", "lon": -77.03377333333333, "bike_id": "0c071a525c5b76615cdeab20462956e4", "fusion_lat": 0.0, "name": "0c071a525c5b76615cdeab20462956e4", "is_reserved": 0, "rental_uris": {"android": "https://dc.lft.to/lastmile_qr_scan", "ios": "https://dc.lft.to/lastmile_qr_scan"}, "fusion_lon": 0.0}, {"lat": 38.91185983333333, "is_disabled": 0, "type": "electric_scooter", "lon": -77.0382985, "bike_id": "5ed5ee5da258f81ebd6c6a8a130eb428", "fusion_lat": 0.0, "name": "5ed5ee5da258f81ebd6c6a8a130eb428", "is_reserved": 0, "rental_uris": {"android": "https://dc.lft.to/lastmile_qr_scan", "ios": "https://dc.lft.to/lastmile_qr_scan"}, "fusion_lon": 0.0}, {"lat": 38.897833, "is_disabled": 0, "type": "electric_scooter", "lon": -77.03214166666666, "bike_id": "52a148ca338ed255ea883bd9916c2652", "fusion_lat": 0.0, "name": "52a148ca338ed255ea883bd9916c2652", "is_reserved": 0, "rental_uris": {"android": "https://dc.lft.to/lastmile_qr_scan", "ios": "https://dc.lft.to/lastmile_qr_scan"}, "fusion_lon": 0.0}, {"lat": 38.844255833333335, "is_disabled": 0, "type": "electric_scooter", "lon": -76.9977775, "bike_id": "e823391167635a399a771c3c5b680f32", "fusion_lat": 0.0, "name": "e823391167635a399a771c3c5b680f32", "is_reserved": 0, "rental_uris": {"android": "https://dc.lft.to/lastmile_qr_scan", "ios": "https://dc.lft.to/lastmile_qr_scan"}, "fusion_lon": 0.0}, {"lat": 38.93662916666667, "is_disabled": 0, "type": "electric_bike", "lon": -76.952158, "bike_id": "add5ad70817cb95819a0950567e55369", "fusion_lat": 0.0, "name": "add5ad70817cb95819a0950567e55369", "is_reserved": 0, "rental_uris": {"android": "https://dc.lft.to/lastmile_qr_scan", "ios": "https://dc.lft.to/lastmile_qr_scan"}, "fusion_lon": 0.0}, {"lat": 38.9347815, "is_disabled": 0, "type": "electric_scooter", "lon": -77.0361455, "bike_id": "53e06f53fa8c17915f2692a32f70eca7", "fusion_lat": 0.0, "name": "53e06f53fa8c17915f2692a32f70eca7", "is_reserved": 0, "rental_uris": {"android": "https://dc.lft.to/lastmile_qr_scan", "ios": "https://dc.lft.to/lastmile_qr_scan"}, "fusion_lon": 0.0}, {"lat": 39.034215833333334, "is_disabled": 0, "type": "electric_bike", "lon": -77.04313733333333, "bike_id": "b223d20662646924c58efa9dfb7a024e", "fusion_lat": 0.0, "name": "b223d20662646924c58efa9dfb7a024e", "is_reserved": 0, "rental_uris": {"android": "https://dc.lft.to/lastmile_qr_scan", "ios": "https://dc.lft.to/lastmile_qr_scan"}, "fusion_lon": 0.0}, {"lat": 38.904015333333334, "is_disabled": 0, "type": "electric_scooter", "lon": -77.04867883333333, "bike_id": "8d3232d998ed731cd49ec8eea210416f", "fusion_lat": 0.0, "name": "8d3232d998ed731cd49ec8eea210416f", "is_reserved": 0, "rental_uris": {"android": "https://dc.lft.to/lastmile_qr_scan", "ios": "https://dc.lft.to/lastmile_qr_scan"}, "fusion_lon": 0.0}, {"lat": 38.88092283333334, "is_disabled": 0, "type": "electric_scooter", "lon": -76.99242466666666, "bike_id": "3c4499ebf3698d59a56ca6185a0dbe86", "fusion_lat": 0.0, "name": "3c4499ebf3698d59a56ca6185a0dbe86", "is_reserved": 0, "rental_uris": {"android": "https://dc.lft.to/lastmile_qr_scan", "ios": "https://dc.lft.to/lastmile_qr_scan"}, "fusion_lon": 0.0}, {"lat": 38.88743816666667, "is_disabled": 0, "type": "electric_scooter", "lon": -77.028305, "bike_id": "66d0a3fe18260ab1d1f9b22cce253945", "fusion_lat": 0.0, "name": "66d0a3fe18260ab1d1f9b22cce253945", "is_reserved": 0, "rental_uris": {"android": "https://dc.lft.to/lastmile_qr_scan", "ios": "https://dc.lft.to/lastmile_qr_scan"}, "fusion_lon": 0.0}, {"lat": 38.906592, "is_disabled": 0, "type": "electric_scooter", "lon": -77.0344355, "bike_id": "87643bbfa41faeff2d88f48149a6979a", "fusion_lat": 0.0, "name": "87643bbfa41faeff2d88f48149a6979a", "is_reserved": 0, "rental_uris": {"android": "https://dc.lft.to/lastmile_qr_scan", "ios": "https://dc.lft.to/lastmile_qr_scan"}, "fusion_lon": 0.0}, {"lat": 38.906921833333335, "is_disabled": 0, "type": "electric_scooter", "lon": -76.99948783333333, "bike_id": "e7aefdbb9d333b33ec0304db1b7a6f09", "fusion_lat": 0.0, "name": "e7aefdbb9d333b33ec0304db1b7a6f09", "is_reserved": 0, "rental_uris": {"android": "https://dc.lft.to/lastmile_qr_scan", "ios": "https://dc.lft.to/lastmile_qr_scan"}, "fusion_lon": 0.0}, {"lat": 38.914270333333334, "is_disabled": 0, "type": "electric_scooter", "lon": -77.01703566666667, "bike_id": "393987a66ac2aa52c4bedaa2a14bdd07", "fusion_lat": 0.0, "name": "393987a66ac2aa52c4bedaa2a14bdd07", "is_reserved": 0, "rental_uris": {"android": "https://dc.lft.to/lastmile_qr_scan", "ios": "https://dc.lft.to/lastmile_qr_scan"}, "fusion_lon": 0.0}, {"lat": 38.881293666666664, "is_disabled": 0, "type": "electric_scooter", "lon": -77.00108566666667, "bike_id": "dfff97b9cc59505328f9a4c4cd0f171c", "fusion_lat": 0.0, "name": "dfff97b9cc59505328f9a4c4cd0f171c", "is_reserved": 0, "rental_uris": {"android": "https://dc.lft.to/lastmile_qr_scan", "ios": "https://dc.lft.to/lastmile_qr_scan"}, "fusion_lon": 0.0}, {"lat": 38.97330983333333, "is_disabled": 0, "type": "electric_bike", "lon": -77.02150733333333, "bike_id": "ed908df6875cf27e93c913942a51d0fe", "fusion_lat": 0.0, "name": "ed908df6875cf27e93c913942a51d0fe", "is_reserved": 0, "rental_uris": {"android": "https://dc.lft.to/lastmile_qr_scan", "ios": "https://dc.lft.to/lastmile_qr_scan"}, "fusion_lon": 0.0}, {"lat": 38.92795683333333, "is_disabled": 0, "type": "electric_scooter", "lon": -77.02604, "bike_id": "14654c67fee7665a630aa1b0679e54fa", "fusion_lat": 0.0, "name": "14654c67fee7665a630aa1b0679e54fa", "is_reserved": 0, "rental_uris": {"android": "https://dc.lft.to/lastmile_qr_scan", "ios": "https://dc.lft.to/lastmile_qr_scan"}, "fusion_lon": 0.0}, {"lat": 38.93839966666667, "is_disabled": 0, "type": "electric_scooter", "lon": -77.02573816666667, "bike_id": "7f9a998e3c831228a0a0c25b9357f312", "fusion_lat": 0.0, "name": "7f9a998e3c831228a0a0c25b9357f312", "is_reserved": 0, "rental_uris": {"android": "https://dc.lft.to/lastmile_qr_scan", "ios": "https://dc.lft.to/lastmile_qr_scan"}, "fusion_lon": 0.0}, {"lat": 38.91617633333333, "is_disabled": 0, "type": "electric_scooter", "lon": -77.02546633333333, "bike_id": "5dce05d138d656f44765ec5fd85f3b8b", "fusion_lat": 0.0, "name": "5dce05d138d656f44765ec5fd85f3b8b", "is_reserved": 0, "rental_uris": {"android": "https://dc.lft.to/lastmile_qr_scan", "ios": "https://dc.lft.to/lastmile_qr_scan"}, "fusion_lon": 0.0}, {"lat": 38.85679566666666, "is_disabled": 0, "type": "electric_scooter", "lon": -76.98174266666666, "bike_id": "504d7ad5b531352f0bcc4440a215d403", "fusion_lat": 0.0, "name": "504d7ad5b531352f0bcc4440a215d403", "is_reserved": 0, "rental_uris": {"android": "https://dc.lft.to/lastmile_qr_scan", "ios": "https://dc.lft.to/lastmile_qr_scan"}, "fusion_lon": 0.0}, {"lat": 38.93419316666667, "is_disabled": 0, "type": "electric_scooter", "lon": -77.04138383333333, "bike_id": "4228378770a351c1e2a4d80180f4791b", "fusion_lat": 0.0, "name": "4228378770a351c1e2a4d80180f4791b", "is_reserved": 0, "rental_uris": {"android": "https://dc.lft.to/lastmile_qr_scan", "ios": "https://dc.lft.to/lastmile_qr_scan"}, "fusion_lon": 0.0}, {"lat": 38.905733166666664, "is_disabled": 0, "type": "electric_scooter", "lon": -77.06278516666667, "bike_id": "41133338f910736e4a0137e9d11fa84d", "fusion_lat": 0.0, "name": "41133338f910736e4a0137e9d11fa84d", "is_reserved": 0, "rental_uris": {"android": "https://dc.lft.to/lastmile_qr_scan", "ios": "https://dc.lft.to/lastmile_qr_scan"}, "fusion_lon": 0.0}, {"lat": 38.88995583333333, "is_disabled": 0, "type": "electric_scooter", "lon": -76.95562233333334, "bike_id": "7b2ca404231e79974aecccef1baabffa", "fusion_lat": 0.0, "name": "7b2ca404231e79974aecccef1baabffa", "is_reserved": 0, "rental_uris": {"android": "https://dc.lft.to/lastmile_qr_scan", "ios": "https://dc.lft.to/lastmile_qr_scan"}, "fusion_lon": 0.0}, {"lat": 38.9056805, "is_disabled": 0, "type": "electric_scooter", "lon": -77.00589066666667, "bike_id": "b221a637643c32dbc8f0c8d0baaedf0b", "fusion_lat": 0.0, "name": "b221a637643c32dbc8f0c8d0baaedf0b", "is_reserved": 0, "rental_uris": {"android": "https://dc.lft.to/lastmile_qr_scan", "ios": "https://dc.lft.to/lastmile_qr_scan"}, "fusion_lon": 0.0}, {"lat": 38.90691016666667, "is_disabled": 0, "type": "electric_scooter", "lon": -77.07196066666667, "bike_id": "50e286b161390b571e95ebc977f93966", "fusion_lat": 0.0, "name": "50e286b161390b571e95ebc977f93966", "is_reserved": 0, "rental_uris": {"android": "https://dc.lft.to/lastmile_qr_scan", "ios": "https://dc.lft.to/lastmile_qr_scan"}, "fusion_lon": 0.0}, {"lat": 38.886145166666665, "is_disabled": 0, "type": "electric_scooter", "lon": -77.00373466666667, "bike_id": "72d12d6a27865e5f6f7c77266867242f", "fusion_lat": 0.0, "name": "72d12d6a27865e5f6f7c77266867242f", "is_reserved": 0, "rental_uris": {"android": "https://dc.lft.to/lastmile_qr_scan", "ios": "https://dc.lft.to/lastmile_qr_scan"}, "fusion_lon": 0.0}, {"lat": 38.90785016666667, "is_disabled": 0, "type": "electric_scooter", "lon": -77.03868383333334, "bike_id": "3c2cbb5e3f846d630950b13f6a02345b", "fusion_lat": 0.0, "name": "3c2cbb5e3f846d630950b13f6a02345b", "is_reserved": 0, "rental_uris": {"android": "https://dc.lft.to/lastmile_qr_scan", "ios": "https://dc.lft.to/lastmile_qr_scan"}, "fusion_lon": 0.0}, {"lat": 38.837273333333336, "is_disabled": 0, "type": "electric_bike", "lon": -76.99759766666666, "bike_id": "0236398d1fed0af6dc9adf985d936771", "fusion_lat": 0.0, "name": "0236398d1fed0af6dc9adf985d936771", "is_reserved": 0, "rental_uris": {"android": "https://dc.lft.to/lastmile_qr_scan", "ios": "https://dc.lft.to/lastmile_qr_scan"}, "fusion_lon": 0.0}, {"lat": 38.8551575, "is_disabled": 0, "type": "electric_bike", "lon": -76.98431183333334, "bike_id": "a526de4669fd29df2fd21e4cfb71c6dd", "fusion_lat": 0.0, "name": "a526de4669fd29df2fd21e4cfb71c6dd", "is_reserved": 0, "rental_uris": {"android": "https://dc.lft.to/lastmile_qr_scan", "ios": "https://dc.lft.to/lastmile_qr_scan"}, "fusion_lon": 0.0}, {"lat": 38.938166, "is_disabled": 0, "type": "electric_bike", "lon": -77.0264375, "bike_id": "a1f5d40f46914635245be53679e32266", "fusion_lat": 0.0, "name": "a1f5d40f46914635245be53679e32266", "is_reserved": 0, "rental_uris": {"android": "https://dc.lft.to/lastmile_qr_scan", "ios": "https://dc.lft.to/lastmile_qr_scan"}, "fusion_lon": 0.0}, {"lat": 38.90552816666667, "is_disabled": 0, "type": "electric_scooter", "lon": -77.00552766666667, "bike_id": "f8e76f2f6d113a2f9f9037bcab81bffd", "fusion_lat": 0.0, "name": "f8e76f2f6d113a2f9f9037bcab81bffd", "is_reserved": 0, "rental_uris": {"android": "https://dc.lft.to/lastmile_qr_scan", "ios": "https://dc.lft.to/lastmile_qr_scan"}, "fusion_lon": 0.0}, {"lat": 38.90814866666667, "is_disabled": 0, "type": "electric_scooter", "lon": -76.98295166666666, "bike_id": "c22c355fedc4c4a93bf6d0c0eeb8ae38", "fusion_lat": 0.0, "name": "c22c355fedc4c4a93bf6d0c0eeb8ae38", "is_reserved": 0, "rental_uris": {"android": "https://dc.lft.to/lastmile_qr_scan", "ios": "https://dc.lft.to/lastmile_qr_scan"}, "fusion_lon": 0.0}, {"lat": 38.8959995, "is_disabled": 0, "type": "electric_scooter", "lon": -76.9552145, "bike_id": "06d03f1bf33c751ac0f8cf349a34f97b", "fusion_lat": 0.0, "name": "06d03f1bf33c751ac0f8cf349a34f97b", "is_reserved": 0, "rental_uris": {"android": "https://dc.lft.to/lastmile_qr_scan", "ios": "https://dc.lft.to/lastmile_qr_scan"}, "fusion_lon": 0.0}, {"lat": 38.933493666666664, "is_disabled": 0, "type": "electric_scooter", "lon": -77.03729933333334, "bike_id": "1ace92024cdf8b64479ea7d4183d1a88", "fusion_lat": 0.0, "name": "1ace92024cdf8b64479ea7d4183d1a88", "is_reserved": 0, "rental_uris": {"android": "https://dc.lft.to/lastmile_qr_scan", "ios": "https://dc.lft.to/lastmile_qr_scan"}, "fusion_lon": 0.0}, {"lat": 38.884826333333336, "is_disabled": 0, "type": "electric_scooter", "lon": -76.94526516666667, "bike_id": "f390ae1970e024744311d6632ead2325", "fusion_lat": 0.0, "name": "f390ae1970e024744311d6632ead2325", "is_reserved": 0, "rental_uris": {"android": "https://dc.lft.to/lastmile_qr_scan", "ios": "https://dc.lft.to/lastmile_qr_scan"}, "fusion_lon": 0.0}, {"lat": 38.899644, "is_disabled": 0, "type": "electric_scooter", "lon": -77.01609383333333, "bike_id": "54b3e967548a7e850265299cfc3568c5", "fusion_lat": 0.0, "name": "54b3e967548a7e850265299cfc3568c5", "is_reserved": 0, "rental_uris": {"android": "https://dc.lft.to/lastmile_qr_scan", "ios": "https://dc.lft.to/lastmile_qr_scan"}, "fusion_lon": 0.0}, {"lat": 38.924771666666665, "is_disabled": 0, "type": "electric_scooter", "lon": -77.0337315, "bike_id": "dc58fe8b7e6e60c5f9b1705234557c87", "fusion_lat": 0.0, "name": "dc58fe8b7e6e60c5f9b1705234557c87", "is_reserved": 0, "rental_uris": {"android": "https://dc.lft.to/lastmile_qr_scan", "ios": "https://dc.lft.to/lastmile_qr_scan"}, "fusion_lon": 0.0}, {"lat": 38.909135, "is_disabled": 0, "type": "electric_scooter", "lon": -77.03643383333333, "bike_id": "9f9dfefe4fe68c805d2edebc79407728", "fusion_lat": 0.0, "name": "9f9dfefe4fe68c805d2edebc79407728", "is_reserved": 0, "rental_uris": {"android": "https://dc.lft.to/lastmile_qr_scan", "ios": "https://dc.lft.to/lastmile_qr_scan"}, "fusion_lon": 0.0}, {"lat": 38.8905025, "is_disabled": 0, "type": "electric_scooter", "lon": -76.98986983333333, "bike_id": "3585654e0b9d9e53a5c537980afd282a", "fusion_lat": 0.0, "name": "3585654e0b9d9e53a5c537980afd282a", "is_reserved": 0, "rental_uris": {"android": "https://dc.lft.to/lastmile_qr_scan", "ios": "https://dc.lft.to/lastmile_qr_scan"}, "fusion_lon": 0.0}, {"lat": 38.88741316666667, "is_disabled": 0, "type": "electric_scooter", "lon": -77.0319745, "bike_id": "2e287e1775616fffad8a1013e2466a21", "fusion_lat": 0.0, "name": "2e287e1775616fffad8a1013e2466a21", "is_reserved": 0, "rental_uris": {"android": "https://dc.lft.to/lastmile_qr_scan", "ios": "https://dc.lft.to/lastmile_qr_scan"}, "fusion_lon": 0.0}, {"lat": 38.865593833333335, "is_disabled": 0, "type": "electric_scooter", "lon": -76.98948, "bike_id": "658e1d26c686fca1239b43f9e96c342c", "fusion_lat": 0.0, "name": "658e1d26c686fca1239b43f9e96c342c", "is_reserved": 0, "rental_uris": {"android": "https://dc.lft.to/lastmile_qr_scan", "ios": "https://dc.lft.to/lastmile_qr_scan"}, "fusion_lon": 0.0}, {"lat": 38.9556865, "is_disabled": 0, "type": "electric_scooter", "lon": -77.022337, "bike_id": "efceb1e4fe3e36f5e11a7ad85d2f6e6f", "fusion_lat": 0.0, "name": "efceb1e4fe3e36f5e11a7ad85d2f6e6f", "is_reserved": 0, "rental_uris": {"android": "https://dc.lft.to/lastmile_qr_scan", "ios": "https://dc.lft.to/lastmile_qr_scan"}, "fusion_lon": 0.0}, {"lat": 38.938747666666664, "is_disabled": 0, "type": "electric_scooter", "lon": -77.02447333333333, "bike_id": "398c5dfae1024e2ceadf305b28e0e50e", "fusion_lat": 0.0, "name": "398c5dfae1024e2ceadf305b28e0e50e", "is_reserved": 0, "rental_uris": {"android": "https://dc.lft.to/lastmile_qr_scan", "ios": "https://dc.lft.to/lastmile_qr_scan"}, "fusion_lon": 0.0}, {"lat": 38.93775466666666, "is_disabled": 0, "type": "electric_scooter", "lon": -77.02374016666667, "bike_id": "43002ca0095092e94715a514b4dfad1b", "fusion_lat": 0.0, "name": "43002ca0095092e94715a514b4dfad1b", "is_reserved": 0, "rental_uris": {"android": "https://dc.lft.to/lastmile_qr_scan", "ios": "https://dc.lft.to/lastmile_qr_scan"}, "fusion_lon": 0.0}, {"lat": 38.90731733333333, "is_disabled": 0, "type": "electric_scooter", "lon": -77.047812, "bike_id": "3ebe39935cbc0c2e94966ff62d6bad78", "fusion_lat": 0.0, "name": "3ebe39935cbc0c2e94966ff62d6bad78", "is_reserved": 0, "rental_uris": {"android": "https://dc.lft.to/lastmile_qr_scan", "ios": "https://dc.lft.to/lastmile_qr_scan"}, "fusion_lon": 0.0}, {"lat": 38.90792016666666, "is_disabled": 0, "type": "electric_scooter", "lon": -77.034732, "bike_id": "9feb0e26b06295a3994711aa2da24deb", "fusion_lat": 0.0, "name": "9feb0e26b06295a3994711aa2da24deb", "is_reserved": 0, "rental_uris": {"android": "https://dc.lft.to/lastmile_qr_scan", "ios": "https://dc.lft.to/lastmile_qr_scan"}, "fusion_lon": 0.0}, {"lat": 38.8964325, "is_disabled": 0, "type": "electric_scooter", "lon": -77.04494866666667, "bike_id": "5063ede45df8fa7578e7f57748332728", "fusion_lat": 0.0, "name": "5063ede45df8fa7578e7f57748332728", "is_reserved": 0, "rental_uris": {"android": "https://dc.lft.to/lastmile_qr_scan", "ios": "https://dc.lft.to/lastmile_qr_scan"}, "fusion_lon": 0.0}, {"lat": 38.84294633333333, "is_disabled": 0, "type": "electric_scooter", "lon": -76.99944366666666, "bike_id": "93a0f446a7f7d52cefb6a469cd92c80b", "fusion_lat": 0.0, "name": "93a0f446a7f7d52cefb6a469cd92c80b", "is_reserved": 0, "rental_uris": {"android": "https://dc.lft.to/lastmile_qr_scan", "ios": "https://dc.lft.to/lastmile_qr_scan"}, "fusion_lon": 0.0}, {"lat": 38.94101033333333, "is_disabled": 0, "type": "electric_scooter", "lon": -77.032771, "bike_id": "034fbd7c4d1fb83eb4e6690a6b12566b", "fusion_lat": 0.0, "name": "034fbd7c4d1fb83eb4e6690a6b12566b", "is_reserved": 0, "rental_uris": {"android": "https://dc.lft.to/lastmile_qr_scan", "ios": "https://dc.lft.to/lastmile_qr_scan"}, "fusion_lon": 0.0}, {"lat": 38.8984225, "is_disabled": 0, "type": "electric_scooter", "lon": -77.0243215, "bike_id": "ebb473ee6a6cc1e0e982bed5499090a1", "fusion_lat": 0.0, "name": "ebb473ee6a6cc1e0e982bed5499090a1", "is_reserved": 0, "rental_uris": {"android": "https://dc.lft.to/lastmile_qr_scan", "ios": "https://dc.lft.to/lastmile_qr_scan"}, "fusion_lon": 0.0}, {"lat": 38.912214, "is_disabled": 0, "type": "electric_scooter", "lon": -77.03441183333334, "bike_id": "ed71fc21fc978c3da33c06d695663366", "fusion_lat": 0.0, "name": "ed71fc21fc978c3da33c06d695663366", "is_reserved": 0, "rental_uris": {"android": "https://dc.lft.to/lastmile_qr_scan", "ios": "https://dc.lft.to/lastmile_qr_scan"}, "fusion_lon": 0.0}, {"lat": 38.8599705, "is_disabled": 0, "type": "electric_scooter", "lon": -76.985496, "bike_id": "b80f0854ee5df2803bb36c02ff55a2de", "fusion_lat": 0.0, "name": "b80f0854ee5df2803bb36c02ff55a2de", "is_reserved": 0, "rental_uris": {"android": "https://dc.lft.to/lastmile_qr_scan", "ios": "https://dc.lft.to/lastmile_qr_scan"}, "fusion_lon": 0.0}, {"lat": 38.900344, "is_disabled": 0, "type": "electric_scooter", "lon": -77.00195366666667, "bike_id": "25e6e8e8e1ff5adb5bc4af9191a42ac7", "fusion_lat": 0.0, "name": "25e6e8e8e1ff5adb5bc4af9191a42ac7", "is_reserved": 0, "rental_uris": {"android": "https://dc.lft.to/lastmile_qr_scan", "ios": "https://dc.lft.to/lastmile_qr_scan"}, "fusion_lon": 0.0}, {"lat": 38.950848, "is_disabled": 0, "type": "electric_scooter", "lon": -77.06649183333333, "bike_id": "18ac84cc4360f044bd7acb3aa07942b8", "fusion_lat": 0.0, "name": "18ac84cc4360f044bd7acb3aa07942b8", "is_reserved": 0, "rental_uris": {"android": "https://dc.lft.to/lastmile_qr_scan", "ios": "https://dc.lft.to/lastmile_qr_scan"}, "fusion_lon": 0.0}, {"lat": 38.90503416666667, "is_disabled": 0, "type": "electric_scooter", "lon": -77.07053433333333, "bike_id": "4267225d62348326869b9d447b154126", "fusion_lat": 0.0, "name": "4267225d62348326869b9d447b154126", "is_reserved": 0, "rental_uris": {"android": "https://dc.lft.to/lastmile_qr_scan", "ios": "https://dc.lft.to/lastmile_qr_scan"}, "fusion_lon": 0.0}, {"lat": 38.901432166666666, "is_disabled": 0, "type": "electric_scooter", "lon": -77.018142, "bike_id": "2ff63f8eebfda17b3e505d7b96257111", "fusion_lat": 0.0, "name": "2ff63f8eebfda17b3e505d7b96257111", "is_reserved": 0, "rental_uris": {"android": "https://dc.lft.to/lastmile_qr_scan", "ios": "https://dc.lft.to/lastmile_qr_scan"}, "fusion_lon": 0.0}, {"lat": 38.905742333333336, "is_disabled": 0, "type": "electric_scooter", "lon": -77.02208433333334, "bike_id": "b70a4dc5db14d26619d2ca3b6683a8fc", "fusion_lat": 0.0, "name": "b70a4dc5db14d26619d2ca3b6683a8fc", "is_reserved": 0, "rental_uris": {"android": "https://dc.lft.to/lastmile_qr_scan", "ios": "https://dc.lft.to/lastmile_qr_scan"}, "fusion_lon": 0.0}, {"lat": 38.8763005, "is_disabled": 0, "type": "electric_scooter", "lon": -76.96523716666667, "bike_id": "1cf8a61677706dad61aff416e106be7b", "fusion_lat": 0.0, "name": "1cf8a61677706dad61aff416e106be7b", "is_reserved": 0, "rental_uris": {"android": "https://dc.lft.to/lastmile_qr_scan", "ios": "https://dc.lft.to/lastmile_qr_scan"}, "fusion_lon": 0.0}, {"lat": 38.91271716666667, "is_disabled": 0, "type": "electric_scooter", "lon": -77.03871983333333, "bike_id": "d7eaafd9c80ab9f3ef0da135e6783e94", "fusion_lat": 0.0, "name": "d7eaafd9c80ab9f3ef0da135e6783e94", "is_reserved": 0, "rental_uris": {"android": "https://dc.lft.to/lastmile_qr_scan", "ios": "https://dc.lft.to/lastmile_qr_scan"}, "fusion_lon": 0.0}, {"lat": 38.895102666666666, "is_disabled": 0, "type": "electric_scooter", "lon": -77.02282866666667, "bike_id": "943cf5428bd296b5e7a2946409f04ea9", "fusion_lat": 0.0, "name": "943cf5428bd296b5e7a2946409f04ea9", "is_reserved": 0, "rental_uris": {"android": "https://dc.lft.to/lastmile_qr_scan", "ios": "https://dc.lft.to/lastmile_qr_scan"}, "fusion_lon": 0.0}, {"lat": 38.92585166666667, "is_disabled": 0, "type": "electric_scooter", "lon": -77.02763483333334, "bike_id": "e887fec170424d5f6b9390ce2f3baee3", "fusion_lat": 0.0, "name": "e887fec170424d5f6b9390ce2f3baee3", "is_reserved": 0, "rental_uris": {"android": "https://dc.lft.to/lastmile_qr_scan", "ios": "https://dc.lft.to/lastmile_qr_scan"}, "fusion_lon": 0.0}, {"lat": 38.907235, "is_disabled": 0, "type": "electric_bike", "lon": -77.00108116666667, "bike_id": "239a99cdcf782ea4252cd56effb1d80e", "fusion_lat": 0.0, "name": "239a99cdcf782ea4252cd56effb1d80e", "is_reserved": 0, "rental_uris": {"android": "https://dc.lft.to/lastmile_qr_scan", "ios": "https://dc.lft.to/lastmile_qr_scan"}, "fusion_lon": 0.0}, {"lat": 38.930804333333334, "is_disabled": 0, "type": "electric_scooter", "lon": -77.01660666666666, "bike_id": "6ea4160913e62a422ee0d142631af2d0", "fusion_lat": 0.0, "name": "6ea4160913e62a422ee0d142631af2d0", "is_reserved": 0, "rental_uris": {"android": "https://dc.lft.to/lastmile_qr_scan", "ios": "https://dc.lft.to/lastmile_qr_scan"}, "fusion_lon": 0.0}, {"lat": 38.89686966666667, "is_disabled": 0, "type": "electric_scooter", "lon": -76.93606816666667, "bike_id": "5a6d957bd834188d4ac076111448ac25", "fusion_lat": 0.0, "name": "5a6d957bd834188d4ac076111448ac25", "is_reserved": 0, "rental_uris": {"android": "https://dc.lft.to/lastmile_qr_scan", "ios": "https://dc.lft.to/lastmile_qr_scan"}, "fusion_lon": 0.0}, {"lat": 38.91609733333333, "is_disabled": 0, "type": "electric_scooter", "lon": -77.03195483333333, "bike_id": "76a425819c5984fb745e83c780ee2587", "fusion_lat": 0.0, "name": "76a425819c5984fb745e83c780ee2587", "is_reserved": 0, "rental_uris": {"android": "https://dc.lft.to/lastmile_qr_scan", "ios": "https://dc.lft.to/lastmile_qr_scan"}, "fusion_lon": 0.0}, {"lat": 38.887245, "is_disabled": 0, "type": "electric_scooter", "lon": -76.95477783333334, "bike_id": "e8c4aceb58586931b37ef3f7ebbd5069", "fusion_lat": 0.0, "name": "e8c4aceb58586931b37ef3f7ebbd5069", "is_reserved": 0, "rental_uris": {"android": "https://dc.lft.to/lastmile_qr_scan", "ios": "https://dc.lft.to/lastmile_qr_scan"}, "fusion_lon": 0.0}, {"lat": 38.907175, "is_disabled": 0, "type": "electric_scooter", "lon": -77.02544666666667, "bike_id": "b50523041dd8ccaef77b398fabe72bea", "fusion_lat": 0.0, "name": "b50523041dd8ccaef77b398fabe72bea", "is_reserved": 0, "rental_uris": {"android": "https://dc.lft.to/lastmile_qr_scan", "ios": "https://dc.lft.to/lastmile_qr_scan"}, "fusion_lon": 0.0}, {"lat": 38.918217166666665, "is_disabled": 0, "type": "electric_scooter", "lon": -77.03454133333334, "bike_id": "e5380c383259f663f3b446bd9325f45a", "fusion_lat": 0.0, "name": "e5380c383259f663f3b446bd9325f45a", "is_reserved": 0, "rental_uris": {"android": "https://dc.lft.to/lastmile_qr_scan", "ios": "https://dc.lft.to/lastmile_qr_scan"}, "fusion_lon": 0.0}, {"lat": 38.8744845, "is_disabled": 0, "type": "electric_bike", "lon": -77.10816133333333, "bike_id": "b68eed8582caec815c45dfb4e34428ba", "fusion_lat": 0.0, "name": "b68eed8582caec815c45dfb4e34428ba", "is_reserved": 0, "rental_uris": {"android": "https://dc.lft.to/lastmile_qr_scan", "ios": "https://dc.lft.to/lastmile_qr_scan"}, "fusion_lon": 0.0}, {"lat": 38.96394033333333, "is_disabled": 0, "type": "electric_scooter", "lon": -77.025906, "bike_id": "24204ebd338aab23c08c6c82abf7865a", "fusion_lat": 0.0, "name": "24204ebd338aab23c08c6c82abf7865a", "is_reserved": 0, "rental_uris": {"android": "https://dc.lft.to/lastmile_qr_scan", "ios": "https://dc.lft.to/lastmile_qr_scan"}, "fusion_lon": 0.0}, {"lat": 38.907966, "is_disabled": 0, "type": "electric_scooter", "lon": -77.03477833333334, "bike_id": "8f9ebd7bbd6445b294510f47cebc2184", "fusion_lat": 0.0, "name": "8f9ebd7bbd6445b294510f47cebc2184", "is_reserved": 0, "rental_uris": {"android": "https://dc.lft.to/lastmile_qr_scan", "ios": "https://dc.lft.to/lastmile_qr_scan"}, "fusion_lon": 0.0}, {"lat": 38.902116, "is_disabled": 0, "type": "electric_scooter", "lon": -77.005487, "bike_id": "06f73331e20eb4cc37ca06c2c2ab7c31", "fusion_lat": 0.0, "name": "06f73331e20eb4cc37ca06c2c2ab7c31", "is_reserved": 0, "rental_uris": {"android": "https://dc.lft.to/lastmile_qr_scan", "ios": "https://dc.lft.to/lastmile_qr_scan"}, "fusion_lon": 0.0}, {"lat": 38.92723616666667, "is_disabled": 0, "type": "electric_scooter", "lon": -77.02061983333333, "bike_id": "5ef869586595f2392eb9455f01ce2d86", "fusion_lat": 0.0, "name": "5ef869586595f2392eb9455f01ce2d86", "is_reserved": 0, "rental_uris": {"android": "https://dc.lft.to/lastmile_qr_scan", "ios": "https://dc.lft.to/lastmile_qr_scan"}, "fusion_lon": 0.0}, {"lat": 38.936310166666665, "is_disabled": 0, "type": "electric_scooter", "lon": -77.03654533333334, "bike_id": "cb23d580612ec1967ab3105274a7a511", "fusion_lat": 0.0, "name": "cb23d580612ec1967ab3105274a7a511", "is_reserved": 0, "rental_uris": {"android": "https://dc.lft.to/lastmile_qr_scan", "ios": "https://dc.lft.to/lastmile_qr_scan"}, "fusion_lon": 0.0}, {"lat": 38.90036216666667, "is_disabled": 0, "type": "electric_scooter", "lon": -77.00577966666667, "bike_id": "fb4e20a0fa0d13709bc3d25d07cff88a", "fusion_lat": 0.0, "name": "fb4e20a0fa0d13709bc3d25d07cff88a", "is_reserved": 0, "rental_uris": {"android": "https://dc.lft.to/lastmile_qr_scan", "ios": "https://dc.lft.to/lastmile_qr_scan"}, "fusion_lon": 0.0}, {"lat": 38.95279133333333, "is_disabled": 0, "type": "electric_scooter", "lon": -77.03656083333334, "bike_id": "44779b5b1150b5ff4e5749c3957bf7b6", "fusion_lat": 0.0, "name": "44779b5b1150b5ff4e5749c3957bf7b6", "is_reserved": 0, "rental_uris": {"android": "https://dc.lft.to/lastmile_qr_scan", "ios": "https://dc.lft.to/lastmile_qr_scan"}, "fusion_lon": 0.0}, {"lat": 38.91896033333333, "is_disabled": 0, "type": "electric_scooter", "lon": -77.03456066666666, "bike_id": "064f05721e8fc10559b7aacb01f8ba16", "fusion_lat": 0.0, "name": "064f05721e8fc10559b7aacb01f8ba16", "is_reserved": 0, "rental_uris": {"android": "https://dc.lft.to/lastmile_qr_scan", "ios": "https://dc.lft.to/lastmile_qr_scan"}, "fusion_lon": 0.0}, {"lat": 38.94450416666667, "is_disabled": 0, "type": "electric_scooter", "lon": -77.03283733333333, "bike_id": "cf619f59699b71c56fad6b90afe992e4", "fusion_lat": 0.0, "name": "cf619f59699b71c56fad6b90afe992e4", "is_reserved": 0, "rental_uris": {"android": "https://dc.lft.to/lastmile_qr_scan", "ios": "https://dc.lft.to/lastmile_qr_scan"}, "fusion_lon": 0.0}, {"lat": 38.85806083333333, "is_disabled": 0, "type": "electric_scooter", "lon": -76.98653983333334, "bike_id": "ecdce2a15ad520cad6326ad892a0d2a0", "fusion_lat": 0.0, "name": "ecdce2a15ad520cad6326ad892a0d2a0", "is_reserved": 0, "rental_uris": {"android": "https://dc.lft.to/lastmile_qr_scan", "ios": "https://dc.lft.to/lastmile_qr_scan"}, "fusion_lon": 0.0}, {"lat": 38.89369133333334, "is_disabled": 0, "type": "electric_scooter", "lon": -77.04785816666667, "bike_id": "1ad22026009ef5e884a074e3a875e6fe", "fusion_lat": 0.0, "name": "1ad22026009ef5e884a074e3a875e6fe", "is_reserved": 0, "rental_uris": {"android": "https://dc.lft.to/lastmile_qr_scan", "ios": "https://dc.lft.to/lastmile_qr_scan"}, "fusion_lon": 0.0}, {"lat": 38.94453733333334, "is_disabled": 0, "type": "electric_scooter", "lon": -77.06034216666667, "bike_id": "85f86590ffa51a9538f009b2748fd316", "fusion_lat": 0.0, "name": "85f86590ffa51a9538f009b2748fd316", "is_reserved": 0, "rental_uris": {"android": "https://dc.lft.to/lastmile_qr_scan", "ios": "https://dc.lft.to/lastmile_qr_scan"}, "fusion_lon": 0.0}, {"lat": 38.91698783333333, "is_disabled": 0, "type": "electric_scooter", "lon": -77.04335733333333, "bike_id": "a9b46e7b1873c8f210af07f3a9ecf484", "fusion_lat": 0.0, "name": "a9b46e7b1873c8f210af07f3a9ecf484", "is_reserved": 0, "rental_uris": {"android": "https://dc.lft.to/lastmile_qr_scan", "ios": "https://dc.lft.to/lastmile_qr_scan"}, "fusion_lon": 0.0}, {"lat": 38.924621333333334, "is_disabled": 0, "type": "electric_bike", "lon": -77.20836483333333, "bike_id": "0f76cf83f5d1c7daba5f37b7b47cf718", "fusion_lat": 0.0, "name": "0f76cf83f5d1c7daba5f37b7b47cf718", "is_reserved": 0, "rental_uris": {"android": "https://dc.lft.to/lastmile_qr_scan", "ios": "https://dc.lft.to/lastmile_qr_scan"}, "fusion_lon": 0.0}, {"lat": 38.91603283333333, "is_disabled": 0, "type": "electric_scooter", "lon": -77.0756205, "bike_id": "0e27259a6f2e00c370033a9a297883af", "fusion_lat": 0.0, "name": "0e27259a6f2e00c370033a9a297883af", "is_reserved": 0, "rental_uris": {"android": "https://dc.lft.to/lastmile_qr_scan", "ios": "https://dc.lft.to/lastmile_qr_scan"}, "fusion_lon": 0.0}, {"lat": 38.890952166666665, "is_disabled": 0, "type": "electric_scooter", "lon": -76.94307316666666, "bike_id": "6ea3ed2b3d727376e9a51d48ce240d2b", "fusion_lat": 0.0, "name": "6ea3ed2b3d727376e9a51d48ce240d2b", "is_reserved": 0, "rental_uris": {"android": "https://dc.lft.to/lastmile_qr_scan", "ios": "https://dc.lft.to/lastmile_qr_scan"}, "fusion_lon": 0.0}, {"lat": 38.88749716666667, "is_disabled": 0, "type": "electric_scooter", "lon": -77.02068966666667, "bike_id": "4f479a45c6f88036d72a56fb48ecd556", "fusion_lat": 0.0, "name": "4f479a45c6f88036d72a56fb48ecd556", "is_reserved": 0, "rental_uris": {"android": "https://dc.lft.to/lastmile_qr_scan", "ios": "https://dc.lft.to/lastmile_qr_scan"}, "fusion_lon": 0.0}, {"lat": 38.90275066666667, "is_disabled": 0, "type": "electric_scooter", "lon": -77.033839, "bike_id": "ca2dfcc14ce3c686212ca654c7702445", "fusion_lat": 0.0, "name": "ca2dfcc14ce3c686212ca654c7702445", "is_reserved": 0, "rental_uris": {"android": "https://dc.lft.to/lastmile_qr_scan", "ios": "https://dc.lft.to/lastmile_qr_scan"}, "fusion_lon": 0.0}, {"lat": 38.86713866666667, "is_disabled": 0, "type": "electric_scooter", "lon": -76.98724016666667, "bike_id": "a512d35b70052738a4e86725f2696f04", "fusion_lat": 0.0, "name": "a512d35b70052738a4e86725f2696f04", "is_reserved": 0, "rental_uris": {"android": "https://dc.lft.to/lastmile_qr_scan", "ios": "https://dc.lft.to/lastmile_qr_scan"}, "fusion_lon": 0.0}, {"lat": 38.90572133333333, "is_disabled": 0, "type": "electric_scooter", "lon": -77.02208366666666, "bike_id": "003e0208623a4247d0862a83faf5919e", "fusion_lat": 0.0, "name": "003e0208623a4247d0862a83faf5919e", "is_reserved": 0, "rental_uris": {"android": "https://dc.lft.to/lastmile_qr_scan", "ios": "https://dc.lft.to/lastmile_qr_scan"}, "fusion_lon": 0.0}, {"lat": 38.920349, "is_disabled": 0, "type": "electric_scooter", "lon": -76.97802933333334, "bike_id": "00e52d62f55c77d2371edf623404a83b", "fusion_lat": 0.0, "name": "00e52d62f55c77d2371edf623404a83b", "is_reserved": 0, "rental_uris": {"android": "https://dc.lft.to/lastmile_qr_scan", "ios": "https://dc.lft.to/lastmile_qr_scan"}, "fusion_lon": 0.0}, {"lat": 38.94448033333333, "is_disabled": 0, "type": "electric_scooter", "lon": -77.06410583333333, "bike_id": "c55c76086bc889eb751c6833bb080df6", "fusion_lat": 0.0, "name": "c55c76086bc889eb751c6833bb080df6", "is_reserved": 0, "rental_uris": {"android": "https://dc.lft.to/lastmile_qr_scan", "ios": "https://dc.lft.to/lastmile_qr_scan"}, "fusion_lon": 0.0}, {"lat": 38.92797516666667, "is_disabled": 0, "type": "electric_scooter", "lon": -76.98496516666667, "bike_id": "cad426ef923830e38ff293ab4ea08dff", "fusion_lat": 0.0, "name": "cad426ef923830e38ff293ab4ea08dff", "is_reserved": 0, "rental_uris": {"android": "https://dc.lft.to/lastmile_qr_scan", "ios": "https://dc.lft.to/lastmile_qr_scan"}, "fusion_lon": 0.0}, {"lat": 38.8922065, "is_disabled": 0, "type": "electric_scooter", "lon": -77.03974533333333, "bike_id": "c9313476ddfce74c1c62a2d2ab5e4990", "fusion_lat": 0.0, "name": "c9313476ddfce74c1c62a2d2ab5e4990", "is_reserved": 0, "rental_uris": {"android": "https://dc.lft.to/lastmile_qr_scan", "ios": "https://dc.lft.to/lastmile_qr_scan"}, "fusion_lon": 0.0}, {"lat": 38.917011, "is_disabled": 0, "type": "electric_scooter", "lon": -77.03084783333334, "bike_id": "a185337a264656dddd3076a69aa59af3", "fusion_lat": 0.0, "name": "a185337a264656dddd3076a69aa59af3", "is_reserved": 0, "rental_uris": {"android": "https://dc.lft.to/lastmile_qr_scan", "ios": "https://dc.lft.to/lastmile_qr_scan"}, "fusion_lon": 0.0}, {"lat": 38.91833033333333, "is_disabled": 0, "type": "electric_scooter", "lon": -77.04544366666667, "bike_id": "444889b8bcde2a3a60d7b89dde1b07dc", "fusion_lat": 0.0, "name": "444889b8bcde2a3a60d7b89dde1b07dc", "is_reserved": 0, "rental_uris": {"android": "https://dc.lft.to/lastmile_qr_scan", "ios": "https://dc.lft.to/lastmile_qr_scan"}, "fusion_lon": 0.0}, {"lat": 38.90963933333333, "is_disabled": 0, "type": "electric_scooter", "lon": -77.040492, "bike_id": "377aff4d2588d6fe94c07ee0f82b1f06", "fusion_lat": 0.0, "name": "377aff4d2588d6fe94c07ee0f82b1f06", "is_reserved": 0, "rental_uris": {"android": "https://dc.lft.to/lastmile_qr_scan", "ios": "https://dc.lft.to/lastmile_qr_scan"}, "fusion_lon": 0.0}, {"lat": 38.95408783333333, "is_disabled": 0, "type": "electric_scooter", "lon": -77.02750483333334, "bike_id": "2a71318434e7a74242ad8fcb68d12d5a", "fusion_lat": 0.0, "name": "2a71318434e7a74242ad8fcb68d12d5a", "is_reserved": 0, "rental_uris": {"android": "https://dc.lft.to/lastmile_qr_scan", "ios": "https://dc.lft.to/lastmile_qr_scan"}, "fusion_lon": 0.0}, {"lat": 38.905575, "is_disabled": 0, "type": "electric_scooter", "lon": -77.05695033333333, "bike_id": "64490cc2c7648b17923901261d6712e2", "fusion_lat": 0.0, "name": "64490cc2c7648b17923901261d6712e2", "is_reserved": 0, "rental_uris": {"android": "https://dc.lft.to/lastmile_qr_scan", "ios": "https://dc.lft.to/lastmile_qr_scan"}, "fusion_lon": 0.0}, {"lat": 38.802706, "is_disabled": 0, "type": "electric_bike", "lon": -77.0811625, "bike_id": "3f7f42a1c634a4283077d0959713abcf", "fusion_lat": 0.0, "name": "3f7f42a1c634a4283077d0959713abcf", "is_reserved": 0, "rental_uris": {"android": "https://dc.lft.to/lastmile_qr_scan", "ios": "https://dc.lft.to/lastmile_qr_scan"}, "fusion_lon": 0.0}, {"lat": 38.918224333333335, "is_disabled": 0, "type": "electric_scooter", "lon": -77.02612, "bike_id": "c5782ab88c4ee8383d3ad05e659bd8be", "fusion_lat": 0.0, "name": "c5782ab88c4ee8383d3ad05e659bd8be", "is_reserved": 0, "rental_uris": {"android": "https://dc.lft.to/lastmile_qr_scan", "ios": "https://dc.lft.to/lastmile_qr_scan"}, "fusion_lon": 0.0}, {"lat": 38.914160833333334, "is_disabled": 0, "type": "electric_scooter", "lon": -77.02232083333334, "bike_id": "1b4a7487e7247d5cf2fb16cd9dece1eb", "fusion_lat": 0.0, "name": "1b4a7487e7247d5cf2fb16cd9dece1eb", "is_reserved": 0, "rental_uris": {"android": "https://dc.lft.to/lastmile_qr_scan", "ios": "https://dc.lft.to/lastmile_qr_scan"}, "fusion_lon": 0.0}, {"lat": 38.93338766666667, "is_disabled": 0, "type": "electric_scooter", "lon": -77.02411933333333, "bike_id": "ecf08c50aeee2b50ad48c0260f1158fa", "fusion_lat": 0.0, "name": "ecf08c50aeee2b50ad48c0260f1158fa", "is_reserved": 0, "rental_uris": {"android": "https://dc.lft.to/lastmile_qr_scan", "ios": "https://dc.lft.to/lastmile_qr_scan"}, "fusion_lon": 0.0}, {"lat": 38.86117266666667, "is_disabled": 0, "type": "electric_scooter", "lon": -76.98387816666667, "bike_id": "b8b1efe0401ec59532880e0a576c0d94", "fusion_lat": 0.0, "name": "b8b1efe0401ec59532880e0a576c0d94", "is_reserved": 0, "rental_uris": {"android": "https://dc.lft.to/lastmile_qr_scan", "ios": "https://dc.lft.to/lastmile_qr_scan"}, "fusion_lon": 0.0}, {"lat": 38.8961495, "is_disabled": 0, "type": "electric_scooter", "lon": -76.99294116666667, "bike_id": "4d1dd195e12c7411f24a79ed3c9d755e", "fusion_lat": 0.0, "name": "4d1dd195e12c7411f24a79ed3c9d755e", "is_reserved": 0, "rental_uris": {"android": "https://dc.lft.to/lastmile_qr_scan", "ios": "https://dc.lft.to/lastmile_qr_scan"}, "fusion_lon": 0.0}, {"lat": 38.9353445, "is_disabled": 0, "type": "electric_scooter", "lon": -77.0340825, "bike_id": "0267249b85b9d80c96ff209c12a43024", "fusion_lat": 0.0, "name": "0267249b85b9d80c96ff209c12a43024", "is_reserved": 0, "rental_uris": {"android": "https://dc.lft.to/lastmile_qr_scan", "ios": "https://dc.lft.to/lastmile_qr_scan"}, "fusion_lon": 0.0}, {"lat": 38.92540566666667, "is_disabled": 0, "type": "electric_scooter", "lon": -77.03440633333334, "bike_id": "a2a33f818947ff4149aaccda9faa278f", "fusion_lat": 0.0, "name": "a2a33f818947ff4149aaccda9faa278f", "is_reserved": 0, "rental_uris": {"android": "https://dc.lft.to/lastmile_qr_scan", "ios": "https://dc.lft.to/lastmile_qr_scan"}, "fusion_lon": 0.0}, {"lat": 38.9001255, "is_disabled": 0, "type": "electric_scooter", "lon": -77.0403675, "bike_id": "781f9da406123188b72623f6f62c800e", "fusion_lat": 0.0, "name": "781f9da406123188b72623f6f62c800e", "is_reserved": 0, "rental_uris": {"android": "https://dc.lft.to/lastmile_qr_scan", "ios": "https://dc.lft.to/lastmile_qr_scan"}, "fusion_lon": 0.0}, {"lat": 38.891990166666666, "is_disabled": 0, "type": "electric_scooter", "lon": -76.996245, "bike_id": "bd0cca5d00f5ffb5f603776da2cb55a0", "fusion_lat": 0.0, "name": "bd0cca5d00f5ffb5f603776da2cb55a0", "is_reserved": 0, "rental_uris": {"android": "https://dc.lft.to/lastmile_qr_scan", "ios": "https://dc.lft.to/lastmile_qr_scan"}, "fusion_lon": 0.0}, {"lat": 38.930913333333336, "is_disabled": 0, "type": "electric_scooter", "lon": -77.07751183333333, "bike_id": "2b5b606ae0398aaa35645f5d8fbf2d19", "fusion_lat": 0.0, "name": "2b5b606ae0398aaa35645f5d8fbf2d19", "is_reserved": 0, "rental_uris": {"android": "https://dc.lft.to/lastmile_qr_scan", "ios": "https://dc.lft.to/lastmile_qr_scan"}, "fusion_lon": 0.0}, {"lat": 38.902675333333335, "is_disabled": 0, "type": "electric_scooter", "lon": -77.0289395, "bike_id": "07bc6d42ea00ebaba8fabc4951f57001", "fusion_lat": 0.0, "name": "07bc6d42ea00ebaba8fabc4951f57001", "is_reserved": 0, "rental_uris": {"android": "https://dc.lft.to/lastmile_qr_scan", "ios": "https://dc.lft.to/lastmile_qr_scan"}, "fusion_lon": 0.0}, {"lat": 39.0581565, "is_disabled": 0, "type": "electric_bike", "lon": -77.126249, "bike_id": "96edd9b57f455a8ed6cd0ab70e7ec6cf", "fusion_lat": 0.0, "name": "96edd9b57f455a8ed6cd0ab70e7ec6cf", "is_reserved": 0, "rental_uris": {"android": "https://dc.lft.to/lastmile_qr_scan", "ios": "https://dc.lft.to/lastmile_qr_scan"}, "fusion_lon": 0.0}, {"lat": 38.907244, "is_disabled": 0, "type": "electric_scooter", "lon": -76.98928166666667, "bike_id": "9fdd3bd7a8668435c56e66f1fa5ecc74", "fusion_lat": 0.0, "name": "9fdd3bd7a8668435c56e66f1fa5ecc74", "is_reserved": 0, "rental_uris": {"android": "https://dc.lft.to/lastmile_qr_scan", "ios": "https://dc.lft.to/lastmile_qr_scan"}, "fusion_lon": 0.0}, {"lat": 38.84030416666667, "is_disabled": 0, "type": "electric_bike", "lon": -76.97585283333333, "bike_id": "4346dad0b0daba04dce7f302fdaf243c", "fusion_lat": 0.0, "name": "4346dad0b0daba04dce7f302fdaf243c", "is_reserved": 0, "rental_uris": {"android": "https://dc.lft.to/lastmile_qr_scan", "ios": "https://dc.lft.to/lastmile_qr_scan"}, "fusion_lon": 0.0}, {"lat": 38.8973795, "is_disabled": 0, "type": "electric_scooter", "lon": -76.9472515, "bike_id": "2b800b0d5c7bee47ac20b132235e3e71", "fusion_lat": 0.0, "name": "2b800b0d5c7bee47ac20b132235e3e71", "is_reserved": 0, "rental_uris": {"android": "https://dc.lft.to/lastmile_qr_scan", "ios": "https://dc.lft.to/lastmile_qr_scan"}, "fusion_lon": 0.0}, {"lat": 38.898985833333334, "is_disabled": 0, "type": "electric_scooter", "lon": -76.984275, "bike_id": "7a093372b141a7c4f3cf4e9abf674d55", "fusion_lat": 0.0, "name": "7a093372b141a7c4f3cf4e9abf674d55", "is_reserved": 0, "rental_uris": {"android": "https://dc.lft.to/lastmile_qr_scan", "ios": "https://dc.lft.to/lastmile_qr_scan"}, "fusion_lon": 0.0}, {"lat": 38.9270945, "is_disabled": 0, "type": "electric_scooter", "lon": -77.02410083333334, "bike_id": "3a9dae51f06fa04b443aa28ae3465ac0", "fusion_lat": 0.0, "name": "3a9dae51f06fa04b443aa28ae3465ac0", "is_reserved": 0, "rental_uris": {"android": "https://dc.lft.to/lastmile_qr_scan", "ios": "https://dc.lft.to/lastmile_qr_scan"}, "fusion_lon": 0.0}, {"lat": 38.903075666666666, "is_disabled": 0, "type": "electric_scooter", "lon": -77.05142566666666, "bike_id": "26b3c180e54a635d7811780675082e26", "fusion_lat": 0.0, "name": "26b3c180e54a635d7811780675082e26", "is_reserved": 0, "rental_uris": {"android": "https://dc.lft.to/lastmile_qr_scan", "ios": "https://dc.lft.to/lastmile_qr_scan"}, "fusion_lon": 0.0}, {"lat": 38.9038395, "is_disabled": 0, "type": "electric_scooter", "lon": -77.05802233333333, "bike_id": "c29b62d4e6751d06c3237d5cc78c0d8f", "fusion_lat": 0.0, "name": "c29b62d4e6751d06c3237d5cc78c0d8f", "is_reserved": 0, "rental_uris": {"android": "https://dc.lft.to/lastmile_qr_scan", "ios": "https://dc.lft.to/lastmile_qr_scan"}, "fusion_lon": 0.0}, {"lat": 38.917440666666664, "is_disabled": 0, "type": "electric_scooter", "lon": -77.03666466666667, "bike_id": "766468a78a87d4028eda3f44aed14204", "fusion_lat": 0.0, "name": "766468a78a87d4028eda3f44aed14204", "is_reserved": 0, "rental_uris": {"android": "https://dc.lft.to/lastmile_qr_scan", "ios": "https://dc.lft.to/lastmile_qr_scan"}, "fusion_lon": 0.0}, {"lat": 38.9140295, "is_disabled": 0, "type": "electric_scooter", "lon": -77.03524966666667, "bike_id": "3a1992fe32e4756f3c59d0d673537d30", "fusion_lat": 0.0, "name": "3a1992fe32e4756f3c59d0d673537d30", "is_reserved": 0, "rental_uris": {"android": "https://dc.lft.to/lastmile_qr_scan", "ios": "https://dc.lft.to/lastmile_qr_scan"}, "fusion_lon": 0.0}, {"lat": 38.90600533333333, "is_disabled": 0, "type": "electric_scooter", "lon": -76.9863435, "bike_id": "2fa0936c5111d1e564c55d3ad8776765", "fusion_lat": 0.0, "name": "2fa0936c5111d1e564c55d3ad8776765", "is_reserved": 0, "rental_uris": {"android": "https://dc.lft.to/lastmile_qr_scan", "ios": "https://dc.lft.to/lastmile_qr_scan"}, "fusion_lon": 0.0}, {"lat": 38.9217885, "is_disabled": 0, "type": "electric_scooter", "lon": -77.03809183333334, "bike_id": "e8560ecb67c90c6b5686427ebe4d1bea", "fusion_lat": 0.0, "name": "e8560ecb67c90c6b5686427ebe4d1bea", "is_reserved": 0, "rental_uris": {"android": "https://dc.lft.to/lastmile_qr_scan", "ios": "https://dc.lft.to/lastmile_qr_scan"}, "fusion_lon": 0.0}, {"lat": 38.921246333333336, "is_disabled": 0, "type": "electric_scooter", "lon": -77.03668533333334, "bike_id": "6ff4e42e13547c894adea0007b62dbb4", "fusion_lat": 0.0, "name": "6ff4e42e13547c894adea0007b62dbb4", "is_reserved": 0, "rental_uris": {"android": "https://dc.lft.to/lastmile_qr_scan", "ios": "https://dc.lft.to/lastmile_qr_scan"}, "fusion_lon": 0.0}, {"lat": 38.91561216666667, "is_disabled": 0, "type": "electric_scooter", "lon": -77.031587, "bike_id": "33836a96f5015df528d3ba37d58f354f", "fusion_lat": 0.0, "name": "33836a96f5015df528d3ba37d58f354f", "is_reserved": 0, "rental_uris": {"android": "https://dc.lft.to/lastmile_qr_scan", "ios": "https://dc.lft.to/lastmile_qr_scan"}, "fusion_lon": 0.0}, {"lat": 38.95359333333333, "is_disabled": 0, "type": "electric_bike", "lon": -76.98088666666666, "bike_id": "46294eb336e83d593bff0bafd074285a", "fusion_lat": 0.0, "name": "46294eb336e83d593bff0bafd074285a", "is_reserved": 0, "rental_uris": {"android": "https://dc.lft.to/lastmile_qr_scan", "ios": "https://dc.lft.to/lastmile_qr_scan"}, "fusion_lon": 0.0}, {"lat": 38.9204225, "is_disabled": 0, "type": "electric_scooter", "lon": -77.033945, "bike_id": "d33778d0e133901512f48f1c8c3cf23c", "fusion_lat": 0.0, "name": "d33778d0e133901512f48f1c8c3cf23c", "is_reserved": 0, "rental_uris": {"android": "https://dc.lft.to/lastmile_qr_scan", "ios": "https://dc.lft.to/lastmile_qr_scan"}, "fusion_lon": 0.0},