{"data": {"bikes": [{"rental_uris": {"android": "https://dc.lft.to/lastmile_qr_scan", "ios": "https://dc.lft.to/lastmile_qr_scan"}, "fusion_lat": 0.0, "is_reserved": 0, "lat": 38.90334883333333, "name": "2d3dc6bceaca018ad74ce19beaedc16a", "bike_id": "2d3dc6bceaca018ad74ce19beaedc16a", "is_disabled": 0, "fusion_lon": 0.0, "type": "electric_bike", "lon": -76.93369233333334}, {"rental_uris": {"android": "https://dc.lft.to/lastmile_qr_scan", "ios": "https://dc.lft.to/lastmile_qr_scan"}, "fusion_lat": 0.0, "is_reserved": 0, "lat": 38.892154166666664, "name": "1bff3e3200afe5d0cfd0b605c2682a1d", "bike_id": "1bff3e3200afe5d0cfd0b605c2682a1d", "is_disabled": 0, "fusion_lon": 0.0, "type": "electric_scooter", "lon": -76.92154466666666}, {"rental_uris": {"android": "https://dc.lft.to/lastmile_qr_scan", "ios": "https://dc.lft.to/lastmile_qr_scan"}, "fusion_lat": 0.0, "is_reserved": 0, "lat": 38.90535333333333, "name": "5875f0551c4361c72f8085febc904018", "bike_id": "5875f0551c4361c72f8085febc904018", "is_disabled": 0, "fusion_lon": 0.0, "type": "electric_scooter", "lon": -77.02212016666667}, {"rental_uris": {"android": "https://dc.lft.to/lastmile_qr_scan", "ios": "https://dc.lft.to/lastmile_qr_scan"}, "fusion_lat": 0.0, "is_reserved": 0, "lat": 38.911904166666666, "name": "4080d7d9376c1860569bbca54b8a2378", "bike_id": "4080d7d9376c1860569bbca54b8a2378", "is_disabled": 0, "fusion_lon": 0.0, "type": "electric_scooter", "lon": -77.00456266666667}, {"rental_uris": {"android": "https://dc.lft.to/lastmile_qr_scan", "ios": "https://dc.lft.to/lastmile_qr_scan"}, "fusion_lat": 0.0, "is_reserved": 0, "lat": 38.79335966666667, "name": "989e781a649846d8c1a30445708eb217", "bike_id": "989e781a649846d8c1a30445708eb217", "is_disabled": 0, "fusion_lon": 0.0, "type": "electric_bike", "lon": -77.00052116666667}, {"rental_uris": {"android": "https://dc.lft.to/lastmile_qr_scan", "ios": "https://dc.lft.to/lastmile_qr_scan"}, "fusion_lat": 0.0, "is_reserved": 0, "lat": 38.915553333333335, "name": "786d4b2eaaeb043816a769530f8490df", "bike_id": "786d4b2eaaeb043816a769530f8490df", "is_disabled": 0, "fusion_lon": 0.0, "type": "electric_scooter", "lon": -77.01410683333333}, {"rental_uris": {"android": "https://dc.lft.to/lastmile_qr_scan", "ios": "https://dc.lft.to/lastmile_qr_scan"}, "fusion_lat": 0.0, "is_reserved": 0, "lat": 38.93978883333333, "name": "304cff99bbabb1a26a92746c28ebfa03", "bike_id": "304cff99bbabb1a26a92746c28ebfa03", "is_disabled": 0, "fusion_lon": 0.0, "type": "electric_scooter", "lon": -77.03564}, {"rental_uris": {"android": "https://dc.lft.to/lastmile_qr_scan", "ios": "https://dc.lft.to/lastmile_qr_scan"}, "fusion_lat": 0.0, "is_reserved": 0, "lat": 38.902144, "name": "c831c9ed8be393330f89368e4c797488", "bike_id": "c831c9ed8be393330f89368e4c797488", "is_disabled": 0, "fusion_lon": 0.0, "type": "electric_scooter", "lon": -77.02436016666667}, {"rental_uris": {"android": "https://dc.lft.to/lastmile_qr_scan", "ios": "https://dc.lft.to/lastmile_qr_scan"}, "fusion_lat": 0.0, "is_reserved": 0, "lat": 38.898246, "name": "6a939d628ecd7866c35785f436915b2c", "bike_id": "6a939d628ecd7866c35785f436915b2c", "is_disabled": 0, "fusion_lon": 0.0, "type": "electric_scooter", "lon": -76.930069}, {"rental_uris": {"android": "https://dc.lft.to/lastmile_qr_scan", "ios": "https://dc.lft.to/lastmile_qr_scan"}, "fusion_lat": 0.0, "is_reserved": 0, "lat": 38.91533166666667, "name": "0a8eda72dba865df539b698cde69d9e7", "bike_id": "0a8eda72dba865df539b698cde69d9e7", "is_disabled": 0, "fusion_lon": 0.0, "type": "electric_scooter", "lon": -77.03199333333333}, {"rental_uris": {"android": "https://dc.lft.to/lastmile_qr_scan", "ios": "https://dc.lft.to/lastmile_qr_scan"}, "fusion_lat": 0.0, "is_reserved": 0, "lat": 38.907208, "name": "1f60936599dd93aae632c9e4baf06ada", "bike_id": "1f60936599dd93aae632c9e4baf06ada", "is_disabled": 0, "fusion_lon": 0.0, "type": "electric_scooter", "lon": -77.02799466666667}, {"rental_uris": {"android": "https://dc.lft.to/lastmile_qr_scan", "ios": "https://dc.lft.to/lastmile_qr_scan"}, "fusion_lat": 0.0, "is_reserved": 0, "lat": 38.935521333333334, "name": "940e0233241f559ee58eaab7bfa025d6", "bike_id": "940e0233241f559ee58eaab7bfa025d6", "is_disabled": 0, "fusion_lon": 0.0, "type": "electric_scooter", "lon": -77.0746795}, {"rental_uris": {"android": "https://dc.lft.to/lastmile_qr_scan", "ios": "https://dc.lft.to/lastmile_qr_scan"}, "fusion_lat": 0.0, "is_reserved": 0, "lat": 38.924678166666666, "name": "d6025dd844e8005a10ccce87145fbb97", "bike_id": "d6025dd844e8005a10ccce87145fbb97", "is_disabled": 0, "fusion_lon": 0.0, "type": "electric_scooter", "lon": -77.02220783333334}, {"rental_uris": {"android": "https://dc.lft.to/lastmile_qr_scan", "ios": "https://dc.lft.to/lastmile_qr_scan"}, "fusion_lat": 0.0, "is_reserved": 0, "lat": 38.893351333333335, "name": "fdd95dc3ee94d697b66f65ade36b73f7", "bike_id": "fdd95dc3ee94d697b66f65ade36b73f7", "is_disabled": 0, "fusion_lon": 0.0, "type": "electric_scooter", "lon": -77.04872916666666}, {"rental_uris": {"android": "https://dc.lft.to/lastmile_qr_scan", "ios": "https://dc.lft.to/lastmile_qr_scan"}, "fusion_lat": 0.0, "is_reserved": 0, "lat": 38.882031833333336, "name": "683529b7a3e092111751601a560d2313", "bike_id": "683529b7a3e092111751601a560d2313", "is_disabled": 0, "fusion_lon": 0.0, "type": "electric_scooter", "lon": -76.98913983333334}, {"rental_uris": {"android": "https://dc.lft.to/lastmile_qr_scan", "ios": "https://dc.lft.to/lastmile_qr_scan"}, "fusion_lat": 0.0, "is_reserved": 0, "lat": 38.897165666666666, "name": "21215a78307c8a35a7594990e4c9768b", "bike_id": "21215a78307c8a35a7594990e4c9768b", "is_disabled": 0, "fusion_lon": 0.0, "type": "electric_scooter", "lon": -77.02603683333334}, {"rental_uris": {"android": "https://dc.lft.to/lastmile_qr_scan", "ios": "https://dc.lft.to/lastmile_qr_scan"}, "fusion_lat": 0.0, "is_reserved": 0, "lat": 38.899967, "name": "e9ca632fc91c4facb9600f72c909505c", "bike_id": "e9ca632fc91c4facb9600f72c909505c", "is_disabled": 0, "fusion_lon": 0.0, "type": "electric_scooter", "lon": -77.026092}, {"rental_uris": {"android": "https://dc.lft.to/lastmile_qr_scan", "ios": "https://dc.lft.to/lastmile_qr_scan"}, "fusion_lat": 0.0, "is_reserved": 0, "lat": 38.835876999999996, "name": "0beb34604083abad3a081025fb4cf3c6", "bike_id": "0beb34604083abad3a081025fb4cf3c6", "is_disabled": 0, "fusion_lon": 0.0, "type": "electric_bike", "lon": -76.99027566666666}, {"rental_uris": {"android": "https://dc.lft.to/lastmile_qr_scan", "ios": "https://dc.lft.to/lastmile_qr_scan"}, "fusion_lat": 0.0, "is_reserved": 0, "lat": 38.92368333333334, "name": "1ef934d16fe0823d62bff7f3a8badc23", "bike_id": "1ef934d16fe0823d62bff7f3a8badc23", "is_disabled": 0, "fusion_lon": 0.0, "type": "electric_scooter", "lon": -77.05030483333333}, {"rental_uris": {"android": "https://dc.lft.to/lastmile_qr_scan", "ios": "https://dc.lft.to/lastmile_qr_scan"}, "fusion_lat": 0.0, "is_reserved": 0, "lat": 38.89533816666667, "name": "0c80a5bf691c14dd69ff2ab4fe5d9eec", "bike_id": "0c80a5bf691c14dd69ff2ab4fe5d9eec", "is_disabled": 0, "fusion_lon": 0.0, "type": "electric_scooter", "lon": -76.94888183333333}, {"rental_uris": {"android": "https://dc.lft.to/lastmile_qr_scan", "ios": "https://dc.lft.to/lastmile_qr_scan"}, "fusion_lat": 0.0, "is_reserved": 0, "lat": 38.8844135, "name": "c3b5494835ecea1e0ab98af55022294c", "bike_id": "c3b5494835ecea1e0ab98af55022294c", "is_disabled": 0, "fusion_lon": 0.0, "type": "electric_scooter", "lon": -77.0254785}, {"rental_uris": {"android": "https://dc.lft.to/lastmile_qr_scan", "ios": "https://dc.lft.to/lastmile_qr_scan"}, "fusion_lat": 0.0, "is_reserved": 0, "lat": 38.9118985, "name": "1fc9365b59da076725a156905be9e925", "bike_id": "1fc9365b59da076725a156905be9e925", "is_disabled": 0, "fusion_lon": 0.0, "type": "electric_scooter", "lon": -77.03835783333334}, {"rental_uris": {"android": "https://dc.lft.to/lastmile_qr_scan", "ios": "https://dc.lft.to/lastmile_qr_scan"}, "fusion_lat": 0.0, "is_reserved": 0, "lat": 38.918147833333336, "name": "efdf09fee3dc2d104b9f5db6a3861270", "bike_id": "efdf09fee3dc2d104b9f5db6a3861270", "is_disabled": 0, "fusion_lon": 0.0, "type": "electric_scooter", "lon": -77.024825}, {"rental_uris": {"android": "https://dc.lft.to/lastmile_qr_scan", "ios": "https://dc.lft.to/lastmile_qr_scan"}, "fusion_lat": 0.0, "is_reserved": 0, "lat": 38.905726, "name": "e1ee9a9304826b69f5a672a260373a94", "bike_id": "e1ee9a9304826b69f5a672a260373a94", "is_disabled": 0, "fusion_lon": 0.0, "type": "electric_scooter", "lon": -77.024235}, {"rental_uris": {"android": "https://dc.lft.to/lastmile_qr_scan", "ios": "https://dc.lft.to/lastmile_qr_scan"}, "fusion_lat": 0.0, "is_reserved": 0, "lat": 38.87071566666667, "name": "d09130705e60fe874e92e7ef5c64d2c3", "bike_id": "d09130705e60fe874e92e7ef5c64d2c3", "is_disabled": 0, "fusion_lon": 0.0, "type": "electric_bike", "lon": -77.11054133333333}, {"rental_uris": {"android": "https://dc.lft.to/lastmile_qr_scan", "ios": "https://dc.lft.to/lastmile_qr_scan"}, "fusion_lat": 0.0, "is_reserved": 0, "lat": 38.883405, "name": "6b460d90915f7f652343614325f4df04", "bike_id": "6b460d90915f7f652343614325f4df04", "is_disabled": 0, "fusion_lon": 0.0, "type": "electric_scooter", "lon": -76.94287616666666}, {"rental_uris": {"android": "https://dc.lft.to/lastmile_qr_scan", "ios": "https://dc.lft.to/lastmile_qr_scan"}, "fusion_lat": 0.0, "is_reserved": 0, "lat": 38.879368666666664, "name": "d68a176c89144c554cabf0de1a576f44", "bike_id": "d68a176c89144c554cabf0de1a576f44", "is_disabled": 0, "fusion_lon": 0.0, "type": "electric_scooter", "lon": -77.00379316666667}, {"rental_uris": {"android": "https://dc.lft.to/lastmile_qr_scan", "ios": "https://dc.lft.to/lastmile_qr_scan"}, "fusion_lat": 0.0, "is_reserved": 0, "lat": 38.91712883333334, "name": "95571aaf861039b0c52464a3c8680f1d", "bike_id": "95571aaf861039b0c52464a3c8680f1d", "is_disabled": 0, "fusion_lon": 0.0, "type": "electric_scooter", "lon": -77.03457}, {"rental_uris": {"android": "https://dc.lft.to/lastmile_qr_scan", "ios": "https://dc.lft.to/lastmile_qr_scan"}, "fusion_lat": 0.0, "is_reserved": 0, "lat": 38.92345066666667, "name": "b19649a82ad9fe710240f05da35e7f9f", "bike_id": "b19649a82ad9fe710240f05da35e7f9f", "is_disabled": 0, "fusion_lon": 0.0, "type": "electric_scooter", "lon": -77.02450216666666}, {"rental_uris": {"android": "https://dc.lft.to/lastmile_qr_scan", "ios": "https://dc.lft.to/lastmile_qr_scan"}, "fusion_lat": 0.0, "is_reserved": 0, "lat": 38.916239, "name": "f6877d7dc7fb924e79b7088c2d949f07", "bike_id": "f6877d7dc7fb924e79b7088c2d949f07", "is_disabled": 0, "fusion_lon": 0.0, "type": "electric_scooter", "lon": -77.03217183333334}, {"rental_uris": {"android": "https://dc.lft.to/lastmile_qr_scan", "ios": "https://dc.lft.to/lastmile_qr_scan"}, "fusion_lat": 0.0, "is_reserved": 0, "lat": 38.943111333333334, "name": "5d6f816e89123b2c89595a5adced0680", "bike_id": "5d6f816e89123b2c89595a5adced0680", "is_disabled": 0, "fusion_lon": 0.0, "type": "electric_scooter", "lon": -77.02181966666667}, {"rental_uris": {"android": "https://dc.lft.to/lastmile_qr_scan", "ios": "https://dc.lft.to/lastmile_qr_scan"}, "fusion_lat": 0.0, "is_reserved": 0, "lat": 38.907067166666664, "name": "39bb927a086b82d8291bd82534749c1c", "bike_id": "39bb927a086b82d8291bd82534749c1c", "is_disabled": 0, "fusion_lon": 0.0, "type": "electric_scooter", "lon": -77.02394516666666}, {"rental_uris": {"android": "https://dc.lft.to/lastmile_qr_scan", "ios": "https://dc.lft.to/lastmile_qr_scan"}, "fusion_lat": 0.0, "is_reserved": 0, "lat": 38.923132333333335, "name": "2d6f744fc7b179d9f6a0b9cd9285cadb", "bike_id": "2d6f744fc7b179d9f6a0b9cd9285cadb", "is_disabled": 0, "fusion_lon": 0.0, "type": "electric_scooter", "lon": -77.02901866666667}, {"rental_uris": {"android": "https://dc.lft.to/lastmile_qr_scan", "ios": "https://dc.lft.to/lastmile_qr_scan"}, "fusion_lat": 0.0, "is_reserved": 0, "lat": 38.90719766666667, "name": "5a73841b4d39b24f5e1f86ed53fb5b04", "bike_id": "5a73841b4d39b24f5e1f86ed53fb5b04", "is_disabled": 0, "fusion_lon": 0.0, "type": "electric_scooter", "lon": -77.0279635}, {"rental_uris": {"android": "https://dc.lft.to/lastmile_qr_scan", "ios": "https://dc.lft.to/lastmile_qr_scan"}, "fusion_lat": 0.0, "is_reserved": 0, "lat": 38.90258383333333, "name": "682e702fb77710725247005829e73f37", "bike_id": "682e702fb77710725247005829e73f37", "is_disabled": 0, "fusion_lon": 0.0, "type": "electric_scooter", "lon": -77.026493}, {"rental_uris": {"android": "https://dc.lft.to/lastmile_qr_scan", "ios": "https://dc.lft.to/lastmile_qr_scan"}, "fusion_lat": 0.0, "is_reserved": 0, "lat": 38.90073, "name": "88b8223ea3e0092ae8481d9fcfd1e41b", "bike_id": "88b8223ea3e0092ae8481d9fcfd1e41b", "is_disabled": 0, "fusion_lon": 0.0, "type": "electric_scooter", "lon": -77.02715016666667}, {"rental_uris": {"android": "https://dc.lft.to/lastmile_qr_scan", "ios": "https://dc.lft.to/lastmile_qr_scan"}, "fusion_lat": 0.0, "is_reserved": 0, "lat": 38.9496875, "name": "190fca591cc358a9b4c812119f9d8d7a", "bike_id": "190fca591cc358a9b4c812119f9d8d7a", "is_disabled": 0, "fusion_lon": 0.0, "type": "electric_scooter", "lon": -77.02344783333334}, {"rental_uris": {"android": "https://dc.lft.to/lastmile_qr_scan", "ios": "https://dc.lft.to/lastmile_qr_scan"}, "fusion_lat": 0.0, "is_reserved": 0, "lat": 38.9078315, "name": "14cb3a1e41b639b29e51bbee2e2981de", "bike_id": "14cb3a1e41b639b29e51bbee2e2981de", "is_disabled": 0, "fusion_lon": 0.0, "type": "electric_scooter", "lon": -77.0725465}, {"rental_uris": {"android": "https://dc.lft.to/lastmile_qr_scan", "ios": "https://dc.lft.to/lastmile_qr_scan"}, "fusion_lat": 0.0, "is_reserved": 0, "lat": 38.905584833333336, "name": "ea4cebbc2d7e79b7272e65d77eea2702", "bike_id": "ea4cebbc2d7e79b7272e65d77eea2702", "is_disabled": 0, "fusion_lon": 0.0, "type": "electric_scooter", "lon": -77.04198616666666}, {"rental_uris": {"android": "https://dc.lft.to/lastmile_qr_scan", "ios": "https://dc.lft.to/lastmile_qr_scan"}, "fusion_lat": 0.0, "is_reserved": 0, "lat": 38.90462616666667, "name": "6c073a5bbe2f3dabff01543014ed8f38", "bike_id": "6c073a5bbe2f3dabff01543014ed8f38", "is_disabled": 0, "fusion_lon": 0.0, "type": "electric_scooter", "lon": -77.0486325}, {"rental_uris": {"android": "https://dc.lft.to/lastmile_qr_scan", "ios": "https://dc.lft.to/lastmile_qr_scan"}, "fusion_lat": 0.0, "is_reserved": 0, "lat": 38.927942, "name": "9f86f8b33918c2eff139b04b7b7909d8", "bike_id": "9f86f8b33918c2eff139b04b7b7909d8", "is_disabled": 0, "fusion_lon": 0.0, "type": "electric_scooter", "lon": -77.03086883333333}, {"rental_uris": {"android": "https://dc.lft.to/lastmile_qr_scan", "ios": "https://dc.lft.to/lastmile_qr_scan"}, "fusion_lat": 0.0, "is_reserved": 0, "lat": 38.924394166666666, "name": "20d8c6592366f92a4fe1b3d9e303999d", "bike_id": "20d8c6592366f92a4fe1b3d9e303999d", "is_disabled": 0, "fusion_lon": 0.0, "type": "electric_scooter", "lon": -77.00067816666666}, {"rental_uris": {"android": "https://dc.lft.to/lastmile_qr_scan", "ios": "https://dc.lft.to/lastmile_qr_scan"}, "fusion_lat": 0.0, "is_reserved": 0, "lat": 38.90892383333333, "name": "33aeff8b83c2db3f6c94282722af426a", "bike_id": "33aeff8b83c2db3f6c94282722af426a", "is_disabled": 0, "fusion_lon": 0.0, "type": "electric_scooter", "lon": -77.07278566666666}, {"rental_uris": {"android": "https://dc.lft.to/lastmile_qr_scan", "ios": "https://dc.lft.to/lastmile_qr_scan"}, "fusion_lat": 0.0, "is_reserved": 0, "lat": 38.919847833333336, "name": "676d9cb12e28093467b3a0d9aae7c814", "bike_id": "676d9cb12e28093467b3a0d9aae7c814", "is_disabled": 0, "fusion_lon": 0.0, "type": "electric_scooter", "lon": -77.03307566666666}, {"rental_uris": {"android": "https://dc.lft.to/lastmile_qr_scan", "ios": "https://dc.lft.to/lastmile_qr_scan"}, "fusion_lat": 0.0, "is_reserved": 0, "lat": 38.9065255, "name": "5a063a93a5978d54785700b2086b106c", "bike_id": "5a063a93a5978d54785700b2086b106c", "is_disabled": 0, "fusion_lon": 0.0, "type": "electric_scooter", "lon": -77.05333183333333}, {"rental_uris": {"android": "https://dc.lft.to/lastmile_qr_scan", "ios": "https://dc.lft.to/lastmile_qr_scan"}, "fusion_lat": 0.0, "is_reserved": 0, "lat": 38.83542583333333, "name": "2603d8cddd204bc3e33dd6388ae8e25b", "bike_id": "2603d8cddd204bc3e33dd6388ae8e25b", "is_disabled": 0, "fusion_lon": 0.0, "type": "electric_bike", "lon": -77.00753483333334}, {"rental_uris": {"android": "https://dc.lft.to/lastmile_qr_scan", "ios": "https://dc.lft.to/lastmile_qr_scan"}, "fusion_lat": 0.0, "is_reserved": 0, "lat": 38.90133633333333, "name": "1166d61d4cb638d6c2a1a22df774bef8", "bike_id": "1166d61d4cb638d6c2a1a22df774bef8", "is_disabled": 0, "fusion_lon": 0.0, "type": "electric_scooter", "lon": -76.98969133333334}, {"rental_uris": {"android": "https://dc.lft.to/lastmile_qr_scan", "ios": "https://dc.lft.to/lastmile_qr_scan"}, "fusion_lat": 0.0, "is_reserved": 0, "lat": 38.9122075, "name": "afbb40956a6cebebfd2f452346c6cf8c", "bike_id": "afbb40956a6cebebfd2f452346c6cf8c", "is_disabled": 0, "fusion_lon": 0.0, "type": "electric_scooter", "lon": -77.0639945}, {"rental_uris": {"android": "https://dc.lft.to/lastmile_qr_scan", "ios": "https://dc.lft.to/lastmile_qr_scan"}, "fusion_lat": 0.0, "is_reserved": 0, "lat": 38.905614, "name": "a8cd07ccf688cab5f95c4b2efca4264b", "bike_id": "a8cd07ccf688cab5f95c4b2efca4264b", "is_disabled": 0, "fusion_lon": 0.0, "type": "electric_scooter", "lon": -77.007865}, {"rental_uris": {"android": "https://dc.lft.to/lastmile_qr_scan", "ios": "https://dc.lft.to/lastmile_qr_scan"}, "fusion_lat": 0.0, "is_reserved": 0, "lat": 38.933760666666664, "name": "a53e29b7412390049def999a7885555f", "bike_id": "a53e29b7412390049def999a7885555f", "is_disabled": 0, "fusion_lon": 0.0, "type": "electric_scooter", "lon": -77.02399683333333}, {"rental_uris": {"android": "https://dc.lft.to/lastmile_qr_scan", "ios": "https://dc.lft.to/lastmile_qr_scan"}, "fusion_lat": 0.0, "is_reserved": 0, "lat": 38.91309066666667, "name": "4a1472902a86095cf3374391c34ded45", "bike_id": "4a1472902a86095cf3374391c34ded45", "is_disabled": 0, "fusion_lon": 0.0, "type": "electric_scooter", "lon": -77.0433565}, {"rental_uris": {"android": "https://dc.lft.to/lastmile_qr_scan", "ios": "https://dc.lft.to/lastmile_qr_scan"}, "fusion_lat": 0.0, "is_reserved": 0, "lat": 38.903630666666665, "name": "1e70989cf443c6c015d8722523abab59", "bike_id": "1e70989cf443c6c015d8722523abab59", "is_disabled": 0, "fusion_lon": 0.0, "type": "electric_scooter", "lon": -76.98491483333333}, {"rental_uris": {"android": "https://dc.lft.to/lastmile_qr_scan", "ios": "https://dc.lft.to/lastmile_qr_scan"}, "fusion_lat": 0.0, "is_reserved": 0, "lat": 38.91989083333333, "name": "46c54a193c369164ed3fe3f33856ee6a", "bike_id": "46c54a193c369164ed3fe3f33856ee6a", "is_disabled": 0, "fusion_lon": 0.0, "type": "electric_scooter", "lon": -77.033123}, {"rental_uris": {"android": "https://dc.lft.to/lastmile_qr_scan", "ios": "https://dc.lft.to/lastmile_qr_scan"}, "fusion_lat": 0.0, "is_reserved": 0, "lat": 38.88365966666667, "name": "49bf084341f8544e06eeb16e4e95a5fc", "bike_id": "49bf084341f8544e06eeb16e4e95a5fc", "is_disabled": 0, "fusion_lon": 0.0, "type": "electric_scooter", "lon": -76.98826733333334}, {"rental_uris": {"android": "https://dc.lft.to/lastmile_qr_scan", "ios": "https://dc.lft.to/lastmile_qr_scan"}, "fusion_lat": 0.0, "is_reserved": 0, "lat": 38.9509575, "name": "5fe0c35d2ff5b27e40d290ae984f1c81", "bike_id": "5fe0c35d2ff5b27e40d290ae984f1c81", "is_disabled": 0, "fusion_lon": 0.0, "type": "electric_scooter", "lon": -77.02962383333333}, {"rental_uris": {"android": "https://dc.lft.to/lastmile_qr_scan", "ios": "https://dc.lft.to/lastmile_qr_scan"}, "fusion_lat": 0.0, "is_reserved": 0, "lat": 38.937782166666665, "name": "a1ec78c2e230dc3a64185b0bf1f30948", "bike_id": "a1ec78c2e230dc3a64185b0bf1f30948", "is_disabled": 0, "fusion_lon": 0.0, "type": "electric_scooter", "lon": -77.02465216666667}, {"rental_uris": {"android": "https://dc.lft.to/lastmile_qr_scan", "ios": "https://dc.lft.to/lastmile_qr_scan"}, "fusion_lat": 0.0, "is_reserved": 0, "lat": 38.92870666666666, "name": "fb2d2c05532fb6429dfaf3cf0b387149", "bike_id": "fb2d2c05532fb6429dfaf3cf0b387149", "is_disabled": 0, "fusion_lon": 0.0, "type": "electric_scooter", "lon": -77.02182833333333}, {"rental_uris": {"android": "https://dc.lft.to/lastmile_qr_scan", "ios": "https://dc.lft.to/lastmile_qr_scan"}, "fusion_lat": 0.0, "is_reserved": 0, "lat": 38.933217666666664, "name": "2cebd83db8dbec0add2248fcfe60ff02", "bike_id": "2cebd83db8dbec0add2248fcfe60ff02", "is_disabled": 0, "fusion_lon": 0.0, "type": "electric_scooter", "lon": -77.03798383333333}, {"rental_uris": {"android": "https://dc.lft.to/lastmile_qr_scan", "ios": "https://dc.lft.to/lastmile_qr_scan"}, "fusion_lat": 0.0, "is_reserved": 0, "lat": 38.934978666666666, "name": "a41a49dc2268fae66625fb6b512736cc", "bike_id": "a41a49dc2268fae66625fb6b512736cc", "is_disabled": 0, "fusion_lon": 0.0, "type": "electric_scooter", "lon": -77.04455016666667}, {"rental_uris": {"android": "https://dc.lft.to/lastmile_qr_scan", "ios": "https://dc.lft.to/lastmile_qr_scan"}, "fusion_lat": 0.0, "is_reserved": 0, "lat": 38.86270783333333, "name": "2de9dd41368db7036639a003e23ce252", "bike_id": "2de9dd41368db7036639a003e23ce252", "is_disabled": 0, "fusion_lon": 0.0, "type": "electric_scooter", "lon": -76.981934}, {"rental_uris": {"android": "https://dc.lft.to/lastmile_qr_scan", "ios": "https://dc.lft.to/lastmile_qr_scan"}, "fusion_lat": 0.0, "is_reserved": 0, "lat": 38.92139683333333, "name": "215eab435e2e1fa24f7ef368928af86e", "bike_id": "215eab435e2e1fa24f7ef368928af86e", "is_disabled": 0, "fusion_lon": 0.0, "type": "electric_scooter", "lon": -77.04133183333333}, {"rental_uris": {"android": "https://dc.lft.to/lastmile_qr_scan", "ios": "https://dc.lft.to/lastmile_qr_scan"}, "fusion_lat": 0.0, "is_reserved": 0, "lat": 38.9012005, "name": "9755f7640c8eae0f5974a1a513fdb041", "bike_id": "9755f7640c8eae0f5974a1a513fdb041", "is_disabled": 0, "fusion_lon": 0.0, "type": "electric_scooter", "lon": -77.04487533333334}, {"rental_uris": {"android": "https://dc.lft.to/lastmile_qr_scan", "ios": "https://dc.lft.to/lastmile_qr_scan"}, "fusion_lat": 0.0, "is_reserved": 0, "lat": 38.898845333333334, "name": "e781484b8ac66757d93ea0dd8137b70d", "bike_id": "e781484b8ac66757d93ea0dd8137b70d", "is_disabled": 0, "fusion_lon": 0.0, "type": "electric_scooter", "lon": -76.98837716666667}, {"rental_uris": {"android": "https://dc.lft.to/lastmile_qr_scan", "ios": "https://dc.lft.to/lastmile_qr_scan"}, "fusion_lat": 0.0, "is_reserved": 0, "lat": 38.926465666666665, "name": "15ba346dacd61d19c5c3f2a0b50feeeb", "bike_id": "15ba346dacd61d19c5c3f2a0b50feeeb", "is_disabled": 0, "fusion_lon": 0.0, "type": "electric_scooter", "lon": -77.02507716666666}, {"rental_uris": {"android": "https://dc.lft.to/lastmile_qr_scan", "ios": "https://dc.lft.to/lastmile_qr_scan"}, "fusion_lat": 0.0, "is_reserved": 0, "lat": 38.92846483333334, "name": "c0bfe5ad18a7982d7e3203f8bf7a2e22", "bike_id": "c0bfe5ad18a7982d7e3203f8bf7a2e22", "is_disabled": 0, "fusion_lon": 0.0, "type": "electric_scooter", "lon": -77.02490366666666}, {"rental_uris": {"android": "https://dc.lft.to/lastmile_qr_scan", "ios": "https://dc.lft.to/lastmile_qr_scan"}, "fusion_lat": 0.0, "is_reserved": 0, "lat": 38.896092333333335, "name": "fc4af6f3fd1e56209b38c0345ecd9c1e", "bike_id": "fc4af6f3fd1e56209b38c0345ecd9c1e", "is_disabled": 0, "fusion_lon": 0.0, "type": "electric_scooter", "lon": -76.9728845}, {"rental_uris": {"android": "https://dc.lft.to/lastmile_qr_scan", "ios": "https://dc.lft.to/lastmile_qr_scan"}, "fusion_lat": 0.0, "is_reserved": 0, "lat": 38.989912333333336, "name": "011adbb6d95e5e7f2dc1a8480645fce6", "bike_id": "011adbb6d95e5e7f2dc1a8480645fce6", "is_disabled": 0, "fusion_lon": 0.0, "type": "electric_scooter", "lon": -77.03360366666666}, {"rental_uris": {"android": "https://dc.lft.to/lastmile_qr_scan", "ios": "https://dc.lft.to/lastmile_qr_scan"}, "fusion_lat": 0.0, "is_reserved": 0, "lat": 38.923658, "name": "c39cfedeb30293d5bbaa51925fd60f57", "bike_id": "c39cfedeb30293d5bbaa51925fd60f57", "is_disabled": 0, "fusion_lon": 0.0, "type": "electric_scooter", "lon": -77.01954416666666}, {"rental_uris": {"android": "https://dc.lft.to/lastmile_qr_scan", "ios": "https://dc.lft.to/lastmile_qr_scan"}, "fusion_lat": 0.0, "is_reserved": 0, "lat": 38.924708, "name": "35faaadc1743cf6ef7d90a2f2a1155aa", "bike_id": "35faaadc1743cf6ef7d90a2f2a1155aa", "is_disabled": 0, "fusion_lon": 0.0, "type": "electric_scooter", "lon": -77.0269925}, {"rental_uris": {"android": "https://dc.lft.to/lastmile_qr_scan", "ios": "https://dc.lft.to/lastmile_qr_scan"}, "fusion_lat": 0.0, "is_reserved": 0, "lat": 38.89778533333333, "name": "f5b701fcd3d446b91fcc945aa1f754ac", "bike_id": "f5b701fcd3d446b91fcc945aa1f754ac", "is_disabled": 0, "fusion_lon": 0.0, "type": "electric_scooter", "lon": -76.99274566666666}, {"rental_uris": {"android": "https://dc.lft.to/lastmile_qr_scan", "ios": "https://dc.lft.to/lastmile_qr_scan"}, "fusion_lat": 0.0, "is_reserved": 0, "lat": 38.92714183333333, "name": "8ac84a01f3a2c91f3d41a737fc6ae0fe", "bike_id": "8ac84a01f3a2c91f3d41a737fc6ae0fe", "is_disabled": 0, "fusion_lon": 0.0, "type": "electric_scooter", "lon": -77.05992483333333}, {"rental_uris": {"android": "https://dc.lft.to/lastmile_qr_scan", "ios": "https://dc.lft.to/lastmile_qr_scan"}, "fusion_lat": 0.0, "is_reserved": 0, "lat": 38.915392833333335, "name": "e6997913391dbf56a868c88dfcdd820b", "bike_id": "e6997913391dbf56a868c88dfcdd820b", "is_disabled": 0, "fusion_lon": 0.0, "type": "electric_scooter", "lon": -77.020016}, {"rental_uris": {"android": "https://dc.lft.to/lastmile_qr_scan", "ios": "https://dc.lft.to/lastmile_qr_scan"}, "fusion_lat": 0.0, "is_reserved": 0, "lat": 38.94331483333333, "name": "d6dadd8f744affc013c2fc27a102afc3", "bike_id": "d6dadd8f744affc013c2fc27a102afc3", "is_disabled": 0, "fusion_lon": 0.0, "type": "electric_scooter", "lon": -77.01549633333333}, {"rental_uris": {"android": "https://dc.lft.to/lastmile_qr_scan", "ios": "https://dc.lft.to/lastmile_qr_scan"}, "fusion_lat": 0.0, "is_reserved": 0, "lat": 38.887218833333336, "name": "c9b50dae09466e5c2dd83b9f3ec40e92", "bike_id": "c9b50dae09466e5c2dd83b9f3ec40e92", "is_disabled": 0, "fusion_lon": 0.0, "type": "electric_scooter", "lon": -76.99682416666667}, {"rental_uris": {"android": "https://dc.lft.to/lastmile_qr_scan", "ios": "https://dc.lft.to/lastmile_qr_scan"}, "fusion_lat": 0.0, "is_reserved": 0, "lat": 38.894815666666666, "name": "4e012b63a9eaf35cca321ff1c1833ee0", "bike_id": "4e012b63a9eaf35cca321ff1c1833ee0", "is_disabled": 0, "fusion_lon": 0.0, "type": "electric_scooter", "lon": -77.02657383333333}, {"rental_uris": {"android": "https://dc.lft.to/lastmile_qr_scan", "ios": "https://dc.lft.to/lastmile_qr_scan"}, "fusion_lat": 0.0, "is_reserved": 0, "lat": 38.9335185, "name": "064f8cd80a3944e4a561d885dac62a19", "bike_id": "064f8cd80a3944e4a561d885dac62a19", "is_disabled": 0, "fusion_lon": 0.0, "type": "electric_scooter", "lon": -77.025625}, {"rental_uris": {"android": "https://dc.lft.to/lastmile_qr_scan", "ios": "https://dc.lft.to/lastmile_qr_scan"}, "fusion_lat": 0.0, "is_reserved": 0, "lat": 38.912888, "name": "27a6fb69c2f64c16410e5523115ae5e3", "bike_id": "27a6fb69c2f64c16410e5523115ae5e3", "is_disabled": 0, "fusion_lon": 0.0, "type": "electric_scooter", "lon": -77.02302066666667}, {"rental_uris": {"android": "https://dc.lft.to/lastmile_qr_scan", "ios": "https://dc.lft.to/lastmile_qr_scan"}, "fusion_lat": 0.0, "is_reserved": 0, "lat": 38.838107666666666, "name": "51d2924046e35d390d15d022f8bcf220", "bike_id": "51d2924046e35d390d15d022f8bcf220", "is_disabled": 0, "fusion_lon": 0.0, "type": "electric_bike", "lon": -77.09524216666667}, {"rental_uris": {"android": "https://dc.lft.to/lastmile_qr_scan", "ios": "https://dc.lft.to/lastmile_qr_scan"}, "fusion_lat": 0.0, "is_reserved": 0, "lat": 38.93352266666667, "name": "f7023763a15e44f277faaa008468eabe", "bike_id": "f7023763a15e44f277faaa008468eabe", "is_disabled": 0, "fusion_lon": 0.0, "type": "electric_scooter", "lon": -77.05700583333333}, {"rental_uris": {"android": "https://dc.lft.to/lastmile_qr_scan", "ios": "https://dc.lft.to/lastmile_qr_scan"}, "fusion_lat": 0.0, "is_reserved": 0, "lat": 38.926871166666665, "name": "96dbe83bee8a47eecef199eb16ae76ca", "bike_id": "96dbe83bee8a47eecef199eb16ae76ca", "is_disabled": 0, "fusion_lon": 0.0, "type": "electric_scooter", "lon": -77.02257216666666}, {"rental_uris": {"android": "https://dc.lft.to/lastmile_qr_scan", "ios": "https://dc.lft.to/lastmile_qr_scan"}, "fusion_lat": 0.0, "is_reserved": 0, "lat": 38.915943166666665, "name": "58a13bdca07f3eafac8944f0424f89f4", "bike_id": "58a13bdca07f3eafac8944f0424f89f4", "is_disabled": 0, "fusion_lon": 0.0, "type": "electric_scooter", "lon": -77.0453645}, {"rental_uris": {"android": "https://dc.lft.to/lastmile_qr_scan", "ios": "https://dc.lft.to/lastmile_qr_scan"}, "fusion_lat": 0.0, "is_reserved": 0, "lat": 38.92087433333333, "name": "99ed44cb5c42f74203552bfd2c1ee5c1", "bike_id": "99ed44cb5c42f74203552bfd2c1ee5c1", "is_disabled": 0, "fusion_lon": 0.0, "type": "electric_scooter", "lon": -77.02211133333333}, {"rental_uris": {"android": "https://dc.lft.to/lastmile_qr_scan", "ios": "https://dc.lft.to/lastmile_qr_scan"}, "fusion_lat": 0.0, "is_reserved": 0, "lat": 38.84032766666667, "name": "32c3f484d3b26fe66b9bea9c7d94eee9", "bike_id": "32c3f484d3b26fe66b9bea9c7d94eee9", "is_disabled": 0, "fusion_lon": 0.0, "type": "electric_bike", "lon": -76.9761735}, {"rental_uris": {"android": "https://dc.lft.to/lastmile_qr_scan", "ios": "https://dc.lft.to/lastmile_qr_scan"}, "fusion_lat": 0.0, "is_reserved": 0, "lat": 38.91788533333333, "name": "21c587d0abf0672e5cdd668550cae735", "bike_id": "21c587d0abf0672e5cdd668550cae735", "is_disabled": 0, "fusion_lon": 0.0, "type": "electric_scooter", "lon": -77.0441055}, {"rental_uris": {"android": "https://dc.lft.to/lastmile_qr_scan", "ios": "https://dc.lft.to/lastmile_qr_scan"}, "fusion_lat": 0.0, "is_reserved": 0, "lat": 38.9147505, "name": "35503c835483bb1e832495de5d5a551e", "bike_id": "35503c835483bb1e832495de5d5a551e", "is_disabled": 0, "fusion_lon": 0.0, "type": "electric_scooter", "lon": -77.03191616666666}, {"rental_uris": {"android": "https://dc.lft.to/lastmile_qr_scan", "ios": "https://dc.lft.to/lastmile_qr_scan"}, "fusion_lat": 0.0, "is_reserved": 0, "lat": 38.89602283333333, "name": "d4293b52fc4cf6f6829dea6a573960d8", "bike_id": "d4293b52fc4cf6f6829dea6a573960d8", "is_disabled": 0, "fusion_lon": 0.0, "type": "electric_scooter", "lon": -77.02792}, {"rental_uris": {"android": "https://dc.lft.to/lastmile_qr_scan", "ios": "https://dc.lft.to/lastmile_qr_scan"}, "fusion_lat": 0.0, "is_reserved": 0, "lat": 38.9350585, "name": "e711611443b64f70c4cbd58991d38ea9", "bike_id": "e711611443b64f70c4cbd58991d38ea9", "is_disabled": 0, "fusion_lon": 0.0, "type": "electric_scooter", "lon": -77.02007083333334}, {"rental_uris": {"android": "https://dc.lft.to/lastmile_qr_scan", "ios": "https://dc.lft.to/lastmile_qr_scan"}, "fusion_lat": 0.0, "is_reserved": 0, "lat": 38.93694283333333, "name": "4b09fda9fdbb2970a6e5d5d61b1d9c9d", "bike_id": "4b09fda9fdbb2970a6e5d5d61b1d9c9d", "is_disabled": 0, "fusion_lon": 0.0, "type": "electric_scooter", "lon": -77.060214}, {"rental_uris": {"android": "https://dc.lft.to/lastmile_qr_scan", "ios": "https://dc.lft.to/lastmile_qr_scan"}, "fusion_lat": 0.0, "is_reserved": 0, "lat": 38.918888, "name": "959bce32752972a2e4f0813176874ef3", "bike_id": "959bce32752972a2e4f0813176874ef3", "is_disabled": 0, "fusion_lon": 0.0, "type": "electric_scooter", "lon": -77.02184233333334}, {"rental_uris": {"android": "https://dc.lft.to/lastmile_qr_scan", "ios": "https://dc.lft.to/lastmile_qr_scan"}, "fusion_lat": 0.0, "is_reserved": 0, "lat": 38.91694483333333, "name": "d3749ded5123da33eb93840f9c8a4396", "bike_id": "d3749ded5123da33eb93840f9c8a4396", "is_disabled": 0, "fusion_lon": 0.0, "type": "electric_scooter", "lon": -77.05300566666666}, {"rental_uris": {"android": "https://dc.lft.to/lastmile_qr_scan", "ios": "https://dc.lft.to/lastmile_qr_scan"}, "fusion_lat": 0.0, "is_reserved": 0, "lat": 38.899089333333336, "name": "493dc02286a27e4ce5ad93b126a4909b", "bike_id": "493dc02286a27e4ce5ad93b126a4909b", "is_disabled": 0, "fusion_lon": 0.0, "type": "electric_scooter", "lon": -76.988253}, {"rental_uris": {"android": "https://dc.lft.to/lastmile_qr_scan", "ios": "https://dc.lft.to/lastmile_qr_scan"}, "fusion_lat": 0.0, "is_reserved": 0, "lat": 38.828508, "name": "cd57822d192199321987293c0f9e1f3f", "bike_id": "cd57822d192199321987293c0f9e1f3f", "is_disabled": 0, "fusion_lon": 0.0, "type": "electric_bike", "lon": -77.059026}, {"rental_uris": {"android": "https://dc.lft.to/lastmile_qr_scan", "ios": "https://dc.lft.to/lastmile_qr_scan"}, "fusion_lat": 0.0, "is_reserved": 0, "lat": 38.905606166666665, "name": "94f9e0ab6565affb79d08c9a6bc7e9d0", "bike_id": "94f9e0ab6565affb79d08c9a6bc7e9d0", "is_disabled": 0, "fusion_lon": 0.0, "type": "electric_scooter", "lon": -77.00602633333334}, {"rental_uris": {"android": "https://dc.lft.to/lastmile_qr_scan", "ios": "https://dc.lft.to/lastmile_qr_scan"}, "fusion_lat": 0.0, "is_reserved": 0, "lat": 38.87181966666667, "name": "02ed6a428eff291d81cbfce3079859fe", "bike_id": "02ed6a428eff291d81cbfce3079859fe", "is_disabled": 0, "fusion_lon": 0.0, "type": "electric_scooter", "lon": -77.00610316666666}, {"rental_uris": {"android": "https://dc.lft.to/lastmile_qr_scan", "ios": "https://dc.lft.to/lastmile_qr_scan"}, "fusion_lat": 0.0, "is_reserved": 0, "lat": 38.927928, "name": "6475ac333cd283e4ba541852ca7e274c", "bike_id": "6475ac333cd283e4ba541852ca7e274c", "is_disabled": 0, "fusion_lon": 0.0, "type": "electric_scooter", "lon": -77.03087933333333}, {"rental_uris": {"android": "https://dc.lft.to/lastmile_qr_scan", "ios": "https://dc.lft.to/lastmile_qr_scan"}, "fusion_lat": 0.0, "is_reserved": 0, "lat": 38.872893, "name": "be60615ec612c86340723625fa2adaba", "bike_id": "be60615ec612c86340723625fa2adaba", "is_disabled": 0, "fusion_lon": 0.0, "type": "electric_scooter", "lon": -77.00988633333333}, {"rental_uris": {"android": "https://dc.lft.to/lastmile_qr_scan", "ios": "https://dc.lft.to/lastmile_qr_scan"}, "fusion_lat": 0.0, "is_reserved": 0, "lat": 38.918169166666665, "name": "ecf50181f80be888db786a23e67baa3a", "bike_id": "ecf50181f80be888db786a23e67baa3a", "is_disabled": 0, "fusion_lon": 0.0, "type": "electric_scooter", "lon": -77.02474916666667}, {"rental_uris": {"android": "https://dc.lft.to/lastmile_qr_scan", "ios": "https://dc.lft.to/lastmile_qr_scan"}, "fusion_lat": 0.0, "is_reserved": 0, "lat": 38.91806966666667, "name": "a8b01ded60dbd9b012907cc1e7778047", "bike_id": "a8b01ded60dbd9b012907cc1e7778047", "is_disabled": 0, "fusion_lon": 0.0, "type": "electric_scooter", "lon": -77.00925433333333}, {"rental_uris": {"android": "https://dc.lft.to/lastmile_qr_scan", "ios": "https://dc.lft.to/lastmile_qr_scan"}, "fusion_lat": 0.0, "is_reserved": 0, "lat": 38.9238755, "name": "03c1113f894ed6c523d4f3fefbf397cf", "bike_id": "03c1113f894ed6c523d4f3fefbf397cf", "is_disabled": 0, "fusion_lon": 0.0, "type": "electric_scooter", "lon": -77.03415033333333}, {"rental_uris": {"android": "https://dc.lft.to/lastmile_qr_scan", "ios": "https://dc.lft.to/lastmile_qr_scan"}, "fusion_lat": 0.0, "is_reserved": 0, "lat": 38.872924833333336, "name": "ad3b808f3bddd730f8a8fb89f4febdca", "bike_id": "ad3b808f3bddd730f8a8fb89f4febdca", "is_disabled": 0, "fusion_lon": 0.0, "type": "electric_scooter", "lon": -77.0156025}, {"rental_uris": {"android": "https://dc.lft.to/lastmile_qr_scan", "ios": "https://dc.lft.to/lastmile_qr_scan"}, "fusion_lat": 0.0, "is_reserved": 0, "lat": 38.9345925, "name": "4da6cfff9fd168752283d0ece26db0ee", "bike_id": "4da6cfff9fd168752283d0ece26db0ee", "is_disabled": 0, "fusion_lon": 0.0, "type": "electric_scooter", "lon": -77.072395}, {"rental_uris": {"android": "https://dc.lft.to/lastmile_qr_scan", "ios": "https://dc.lft.to/lastmile_qr_scan"}, "fusion_lat": 0.0, "is_reserved": 0, "lat": 38.92419816666666, "name": "2be5301f98197440b8fed0c9f7d32ce9", "bike_id": "2be5301f98197440b8fed0c9f7d32ce9", "is_disabled": 0, "fusion_lon": 0.0, "type": "electric_scooter", "lon": -77.01949833333333}, {"rental_uris": {"android": "https://dc.lft.to/lastmile_qr_scan", "ios": "https://dc.lft.to/lastmile_qr_scan"}, "fusion_lat": 0.0, "is_reserved": 0, "lat": 38.90587216666667, "name": "a0b07d14f9558dd45623cfe33b0500c9", "bike_id": "a0b07d14f9558dd45623cfe33b0500c9", "is_disabled": 0, "fusion_lon": 0.0, "type": "electric_scooter", "lon": -77.01615783333334}, {"rental_uris": {"android": "https://dc.lft.to/lastmile_qr_scan", "ios": "https://dc.lft.to/lastmile_qr_scan"}, "fusion_lat": 0.0, "is_reserved": 0, "lat": 38.926896666666664, "name": "6a5678cf5ee2077d29758f05d607a75a", "bike_id": "6a5678cf5ee2077d29758f05d607a75a", "is_disabled": 0, "fusion_lon": 0.0, "type": "electric_scooter", "lon": -77.02964483333334}, {"rental_uris": {"android": "https://dc.lft.to/lastmile_qr_scan", "ios": "https://dc.lft.to/lastmile_qr_scan"}, "fusion_lat": 0.0, "is_reserved": 0, "lat": 38.88291683333333, "name": "24a99d37c6e965bec2e71af51d6e036c", "bike_id": "24a99d37c6e965bec2e71af51d6e036c", "is_disabled": 0, "fusion_lon": 0.0, "type": "electric_bike", "lon": -77.11169966666667}, {"rental_uris": {"android": "https://dc.lft.to/lastmile_qr_scan", "ios": "https://dc.lft.to/lastmile_qr_scan"}, "fusion_lat": 0.0, "is_reserved": 0, "lat": 38.9071535, "name": "4b0492e81b31e9b7ef6e743f77a64c89", "bike_id": "4b0492e81b31e9b7ef6e743f77a64c89", "is_disabled": 0, "fusion_lon": 0.0, "type": "electric_scooter", "lon": -77.0297875}, {"rental_uris": {"android": "https://dc.lft.to/lastmile_qr_scan", "ios": "https://dc.lft.to/lastmile_qr_scan"}, "fusion_lat": 0.0, "is_reserved": 0, "lat": 38.89728266666667, "name": "f77463161b3cb83048b2adc181084605", "bike_id": "f77463161b3cb83048b2adc181084605", "is_disabled": 0, "fusion_lon": 0.0, "type": "electric_scooter", "lon": -77.055249}, {"rental_uris": {"android": "https://dc.lft.to/lastmile_qr_scan", "ios": "https://dc.lft.to/lastmile_qr_scan"}, "fusion_lat": 0.0, "is_reserved": 0, "lat": 38.92067933333333, "name": "8dc62db98ced0b9b2b07a503a44bfbca", "bike_id": "8dc62db98ced0b9b2b07a503a44bfbca", "is_disabled": 0, "fusion_lon": 0.0, "type": "electric_scooter", "lon": -77.034666}, {"rental_uris": {"android": "https://dc.lft.to/lastmile_qr_scan", "ios": "https://dc.lft.to/lastmile_qr_scan"}, "fusion_lat": 0.0, "is_reserved": 0, "lat": 38.88794266666667, "name": "27df0dfa14120061b50be875019ce70c", "bike_id": "27df0dfa14120061b50be875019ce70c", "is_disabled": 0, "fusion_lon": 0.0, "type": "electric_scooter", "lon": -76.97711116666666}, {"rental_uris": {"android": "https://dc.lft.to/lastmile_qr_scan", "ios": "https://dc.lft.to/lastmile_qr_scan"}, "fusion_lat": 0.0, "is_reserved": 0, "lat": 38.90467483333333, "name": "57796ef7a6f14c1030755c2559c59d2a", "bike_id": "57796ef7a6f14c1030755c2559c59d2a", "is_disabled": 0, "fusion_lon": 0.0, "type": "electric_scooter", "lon": -77.04169833333333}, {"rental_uris": {"android": "https://dc.lft.to/lastmile_qr_scan", "ios": "https://dc.lft.to/lastmile_qr_scan"}, "fusion_lat": 0.0, "is_reserved": 0, "lat": 38.906112, "name": "8359e753ab9c6c066215b5da504f7416", "bike_id": "8359e753ab9c6c066215b5da504f7416", "is_disabled": 0, "fusion_lon": 0.0, "type": "electric_scooter", "lon": -77.05027566666666}, {"rental_uris": {"android": "https://dc.lft.to/lastmile_qr_scan", "ios": "https://dc.lft.to/lastmile_qr_scan"}, "fusion_lat": 0.0, "is_reserved": 0, "lat": 38.90292566666667, "name": "be0028abd49108a5c54e9bb85de02503", "bike_id": "be0028abd49108a5c54e9bb85de02503", "is_disabled": 0, "fusion_lon": 0.0, "type": "electric_scooter", "lon": -77.05798966666667}, {"rental_uris": {"android": "https://dc.lft.to/lastmile_qr_scan", "ios": "https://dc.lft.to/lastmile_qr_scan"}, "fusion_lat": 0.0, "is_reserved": 0, "lat": 38.91126916666666, "name": "222ce579c12a1271addf85c0c97e115b", "bike_id": "222ce579c12a1271addf85c0c97e115b", "is_disabled": 0, "fusion_lon": 0.0, "type": "electric_scooter", "lon": -77.022015}, {"rental_uris": {"android": "https://dc.lft.to/lastmile_qr_scan", "ios": "https://dc.lft.to/lastmile_qr_scan"}, "fusion_lat": 0.0, "is_reserved": 0, "lat": 38.8571045, "name": "ca972e49b032f7edc97c8e1bbb67ebe7", "bike_id": "ca972e49b032f7edc97c8e1bbb67ebe7", "is_disabled": 0, "fusion_lon": 0.0, "type": "electric_scooter", "lon": -76.982164}, {"rental_uris": {"android": "https://dc.lft.to/lastmile_qr_scan", "ios": "https://dc.lft.to/lastmile_qr_scan"}, "fusion_lat": 0.0, "is_reserved": 0, "lat": 38.870737, "name": "3bfccd736c84ae8e3d53821f862c1951", "bike_id": "3bfccd736c84ae8e3d53821f862c1951", "is_disabled": 0, "fusion_lon": 0.0, "type": "electric_scooter", "lon": -76.97909316666667}, {"rental_uris": {"android": "https://dc.lft.to/lastmile_qr_scan", "ios": "https://dc.lft.to/lastmile_qr_scan"}, "fusion_lat": 0.0, "is_reserved": 0, "lat": 38.898666166666665, "name": "b56aa4e297632fb07aac39f21eeafd78", "bike_id": "b56aa4e297632fb07aac39f21eeafd78", "is_disabled": 0, "fusion_lon": 0.0, "type": "electric_scooter", "lon": -76.9467715}, {"rental_uris": {"android": "https://dc.lft.to/lastmile_qr_scan", "ios": "https://dc.lft.to/lastmile_qr_scan"}, "fusion_lat": 0.0, "is_reserved": 0, "lat": 38.90115766666667, "name": "cb7295723ea73157f8932885ba51a039", "bike_id": "cb7295723ea73157f8932885ba51a039", "is_disabled": 0, "fusion_lon": 0.0, "type": "electric_scooter", "lon": -77.04992466666667}, {"rental_uris": {"android": "https://dc.lft.to/lastmile_qr_scan", "ios": "https://dc.lft.to/lastmile_qr_scan"}, "fusion_lat": 0.0, "is_reserved": 0, "lat": 38.895166333333336, "name": "4c6713881f772febc8c923f21291298b", "bike_id": "4c6713881f772febc8c923f21291298b", "is_disabled": 0, "fusion_lon": 0.0, "type": "electric_scooter", "lon": -77.02207083333333}, {"rental_uris": {"android": "https://dc.lft.to/lastmile_qr_scan", "ios": "https://dc.lft.to/lastmile_qr_scan"}, "fusion_lat": 0.0, "is_reserved": 0, "lat": 38.91684933333333, "name": "87edc997750b75c4077db670ac31fcd9", "bike_id": "87edc997750b75c4077db670ac31fcd9", "is_disabled": 0, "fusion_lon": 0.0, "type": "electric_scooter", "lon": -77.04140133333334}, {"rental_uris": {"android": "https://dc.lft.to/lastmile_qr_scan", "ios": "https://dc.lft.to/lastmile_qr_scan"}, "fusion_lat": 0.0, "is_reserved": 0, "lat": 38.897459833333336, "name": "a25d7b83cf910629a290d274235f9724", "bike_id": "a25d7b83cf910629a290d274235f9724", "is_disabled": 0, "fusion_lon": 0.0, "type": "electric_scooter", "lon": -77.02497316666667}, {"rental_uris": {"android": "https://dc.lft.to/lastmile_qr_scan", "ios": "https://dc.lft.to/lastmile_qr_scan"}, "fusion_lat": 0.0, "is_reserved": 0, "lat": 38.92046283333333, "name": "b15441ebdcc7e0f086159c00be2e6823", "bike_id": "b15441ebdcc7e0f086159c00be2e6823", "is_disabled": 0, "fusion_lon": 0.0, "type": "electric_scooter", "lon": -77.04825666666666}, {"rental_uris": {"android": "https://dc.lft.to/lastmile_qr_scan", "ios": "https://dc.lft.to/lastmile_qr_scan"}, "fusion_lat": 0.0, "is_reserved": 0, "lat": 38.9442005, "name": "4db7bea803a5060b5606708eadf7ebcf", "bike_id": "4db7bea803a5060b5606708eadf7ebcf", "is_disabled": 0, "fusion_lon": 0.0, "type": "electric_scooter", "lon": -77.063275}, {"rental_uris": {"android": "https://dc.lft.to/lastmile_qr_scan", "ios": "https://dc.lft.to/lastmile_qr_scan"}, "fusion_lat": 0.0, "is_reserved": 0, "lat": 38.8835095, "name": "e9dd3f6f01e0584447fafcde368afa26", "bike_id": "e9dd3f6f01e0584447fafcde368afa26", "is_disabled": 0, "fusion_lon": 0.0, "type": "electric_scooter", "lon": -76.9926585}, {"rental_uris": {"android": "https://dc.lft.to/lastmile_qr_scan", "ios": "https://dc.lft.to/lastmile_qr_scan"}, "fusion_lat": 0.0, "is_reserved": 0, "lat": 38.957666333333336, "name": "e3310665b74a4c714b105f350136f3ba", "bike_id": "e3310665b74a4c714b105f350136f3ba", "is_disabled": 0, "fusion_lon": 0.0, "type": "electric_scooter", "lon": -77.014939}, {"rental_uris": {"android": "https://dc.lft.to/lastmile_qr_scan", "ios": "https://dc.lft.to/lastmile_qr_scan"}, "fusion_lat": 0.0, "is_reserved": 0, "lat": 38.893929666666665, "name": "4d934459566f1040e6b26901128868f6", "bike_id": "4d934459566f1040e6b26901128868f6", "is_disabled": 0, "fusion_lon": 0.0, "type": "electric_bike", "lon": -76.868477}, {"rental_uris": {"android": "https://dc.lft.to/lastmile_qr_scan", "ios": "https://dc.lft.to/lastmile_qr_scan"}, "fusion_lat": 0.0, "is_reserved": 0, "lat": 38.9058275, "name": "190471846c03fe21ef55e8a62a3f1cea", "bike_id": "190471846c03fe21ef55e8a62a3f1cea", "is_disabled": 0, "fusion_lon": 0.0, "type": "electric_scooter", "lon": -76.984131}, {"rental_uris": {"android": "https://dc.lft.to/lastmile_qr_scan", "ios": "https://dc.lft.to/lastmile_qr_scan"}, "fusion_lat": 0.0, "is_reserved": 0, "lat": 38.92761516666667, "name": "86fa9bda4009e2887ada82def12b7b62", "bike_id": "86fa9bda4009e2887ada82def12b7b62", "is_disabled": 0, "fusion_lon": 0.0, "type": "electric_scooter", "lon": -77.068851}, {"rental_uris": {"android": "https://dc.lft.to/lastmile_qr_scan", "ios": "https://dc.lft.to/lastmile_qr_scan"}, "fusion_lat": 0.0, "is_reserved": 0, "lat": 38.92481866666667, "name": "8a33ac91347153d0c386a28436c5074a", "bike_id": "8a33ac91347153d0c386a28436c5074a", "is_disabled": 0, "fusion_lon": 0.0, "type": "electric_scooter", "lon": -77.0304925}, {"rental_uris": {"android": "https://dc.lft.to/lastmile_qr_scan", "ios": "https://dc.lft.to/lastmile_qr_scan"}, "fusion_lat": 0.0, "is_reserved": 0, "lat": 38.89223666666667, "name": "5add188148327a381e3f391b915ad2bb", "bike_id": "5add188148327a381e3f391b915ad2bb", "is_disabled": 0, "fusion_lon": 0.0, "type": "electric_scooter", "lon": -77.03984083333333}, {"rental_uris": {"android": "https://dc.lft.to/lastmile_qr_scan", "ios": "https://dc.lft.to/lastmile_qr_scan"}, "fusion_lat": 0.0, "is_reserved": 0, "lat": 38.8950335, "name": "8e21062c8511dbfd57d6a2a0cfa2dc46", "bike_id": "8e21062c8511dbfd57d6a2a0cfa2dc46", "is_disabled": 0, "fusion_lon": 0.0, "type": "electric_scooter", "lon": -76.93479933333333}, {"rental_uris": {"android": "https://dc.lft.to/lastmile_qr_scan", "ios": "https://dc.lft.to/lastmile_qr_scan"}, "fusion_lat": 0.0, "is_reserved": 0, "lat": 38.89365883333333, "name": "6721ca6c4c8395e2dde554561bed8532", "bike_id": "6721ca6c4c8395e2dde554561bed8532", "is_disabled": 0, "fusion_lon": 0.0, "type": "electric_scooter", "lon": -76.9359515}, {"rental_uris": {"android": "https://dc.lft.to/lastmile_qr_scan", "ios": "https://dc.lft.to/lastmile_qr_scan"}, "fusion_lat": 0.0, "is_reserved": 0, "lat": 38.89224316666667, "name": "6f6def37d1167a86c5701be4b42f4378", "bike_id": "6f6def37d1167a86c5701be4b42f4378", "is_disabled": 0, "fusion_lon": 0.0, "type": "electric_scooter", "lon": -77.04085766666667}, {"rental_uris": {"android": "https://dc.lft.to/lastmile_qr_scan", "ios": "https://dc.lft.to/lastmile_qr_scan"}, "fusion_lat": 0.0, "is_reserved": 0, "lat": 38.8666265, "name": "0a75bcb1931b7ff18246d49a4c4daa06", "bike_id": "0a75bcb1931b7ff18246d49a4c4daa06", "is_disabled": 0, "fusion_lon": 0.0, "type": "electric_scooter", "lon": -76.97910583333334}, {"rental_uris": {"android": "https://dc.lft.to/lastmile_qr_scan", "ios": "https://dc.lft.to/lastmile_qr_scan"}, "fusion_lat": 0.0, "is_reserved": 0, "lat": 38.913316, "name": "e468239ca0aff4b07a24ab13716d1ab1", "bike_id": "e468239ca0aff4b07a24ab13716d1ab1", "is_disabled": 0, "fusion_lon": 0.0, "type": "electric_scooter", "lon": -77.01661433333334}, {"rental_uris": {"android": "https://dc.lft.to/lastmile_qr_scan", "ios": "https://dc.lft.to/lastmile_qr_scan"}, "fusion_lat": 0.0, "is_reserved": 0, "lat": 38.90642416666667, "name": "c452b8fbd99dceea67af1b912e7e869c", "bike_id": "c452b8fbd99dceea67af1b912e7e869c", "is_disabled": 0, "fusion_lon": 0.0, "type": "electric_scooter", "lon": -77.05335883333333}, {"rental_uris": {"android": "https://dc.lft.to/lastmile_qr_scan", "ios": "https://dc.lft.to/lastmile_qr_scan"}, "fusion_lat": 0.0, "is_reserved": 0, "lat": 38.92237983333333, "name": "58b57208a2df3871e534ecd123dde6a7", "bike_id": "58b57208a2df3871e534ecd123dde6a7", "is_disabled": 0, "fusion_lon": 0.0, "type": "electric_scooter", "lon": -77.035195}, {"rental_uris": {"android": "https://dc.lft.to/lastmile_qr_scan", "ios": "https://dc.lft.to/lastmile_qr_scan"}, "fusion_lat": 0.0, "is_reserved": 0, "lat": 38.922407666666665, "name": "f2920a640a1414dba78be750e2724875", "bike_id": "f2920a640a1414dba78be750e2724875", "is_disabled": 0, "fusion_lon": 0.0, "type": "electric_scooter", "lon": -77.0366385}, {"rental_uris": {"android": "https://dc.lft.to/lastmile_qr_scan", "ios": "https://dc.lft.to/lastmile_qr_scan"}, "fusion_lat": 0.0, "is_reserved": 0, "lat": 38.918098666666666, "name": "7f341775aa979900b455f593277ec48f", "bike_id": "7f341775aa979900b455f593277ec48f", "is_disabled": 0, "fusion_lon": 0.0, "type": "electric_scooter", "lon": -77.03193066666667}, {"rental_uris": {"android": "https://dc.lft.to/lastmile_qr_scan", "ios": "https://dc.lft.to/lastmile_qr_scan"}, "fusion_lat": 0.0, "is_reserved": 0, "lat": 38.895352333333335, "name": "1d26cdec54c8556636ca7c2e96e15e3f", "bike_id": "1d26cdec54c8556636ca7c2e96e15e3f", "is_disabled": 0, "fusion_lon": 0.0, "type": "electric_scooter", "lon": -76.9488865}, {"rental_uris": {"android": "https://dc.lft.to/lastmile_qr_scan", "ios": "https://dc.lft.to/lastmile_qr_scan"}, "fusion_lat": 0.0, "is_reserved": 0, "lat": 38.8038505, "name": "6c682731d2d196279a2708e10952c3d7", "bike_id": "6c682731d2d196279a2708e10952c3d7", "is_disabled": 0, "fusion_lon": 0.0, "type": "electric_bike", "lon": -76.98820966666666}, {"rental_uris": {"android": "https://dc.lft.to/lastmile_qr_scan", "ios": "https://dc.lft.to/lastmile_qr_scan"}, "fusion_lat": 0.0, "is_reserved": 0, "lat": 38.88729883333333, "name": "17f985363230fc1951d29a6daf4bac82", "bike_id": "17f985363230fc1951d29a6daf4bac82", "is_disabled": 0, "fusion_lon": 0.0, "type": "electric_scooter", "lon": -76.983791}, {"rental_uris": {"android": "https://dc.lft.to/lastmile_qr_scan", "ios": "https://dc.lft.to/lastmile_qr_scan"}, "fusion_lat": 0.0, "is_reserved": 0, "lat": 38.92750983333333, "name": "00d3d1ba8ab98b617b28a03252e7b13a", "bike_id": "00d3d1ba8ab98b617b28a03252e7b13a", "is_disabled": 0, "fusion_lon": 0.0, "type": "electric_scooter", "lon": -77.02112666666666}, {"rental_uris": {"android": "https://dc.lft.to/lastmile_qr_scan", "ios": "https://dc.lft.to/lastmile_qr_scan"}, "fusion_lat": 0.0, "is_reserved": 0, "lat": 38.91511283333333, "name": "d6aa7cabbe1a49c95aeba590fa9a0456", "bike_id": "d6aa7cabbe1a49c95aeba590fa9a0456", "is_disabled": 0, "fusion_lon": 0.0, "type": "electric_scooter", "lon": -77.03216183333333}, {"rental_uris": {"android": "https://dc.lft.to/lastmile_qr_scan", "ios": "https://dc.lft.to/lastmile_qr_scan"}, "fusion_lat": 0.0, "is_reserved": 0, "lat": 38.91896966666667, "name": "e3985fd02e6196b69a39a5eb53361ba8", "bike_id": "e3985fd02e6196b69a39a5eb53361ba8", "is_disabled": 0, "fusion_lon": 0.0, "type": "electric_scooter", "lon": -77.03506583333333}, {"rental_uris": {"android": "https://dc.lft.to/lastmile_qr_scan", "ios": "https://dc.lft.to/lastmile_qr_scan"}, "fusion_lat": 0.0, "is_reserved": 0, "lat": 38.894444166666666, "name": "627bed1eb5ba68c06e5d754a11226c84", "bike_id": "627bed1eb5ba68c06e5d754a11226c84", "is_disabled": 0, "fusion_lon": 0.0, "type": "electric_scooter", "lon": -77.04533766666667}, {"rental_uris": {"android": "https://dc.lft.to/lastmile_qr_scan", "ios": "https://dc.lft.to/lastmile_qr_scan"}, "fusion_lat": 0.0, "is_reserved": 0, "lat": 38.92126283333333, "name": "7d4ff35d18a994bd2b4accb9c6aa46e7", "bike_id": "7d4ff35d18a994bd2b4accb9c6aa46e7", "is_disabled": 0, "fusion_lon": 0.0, "type": "electric_scooter", "lon": -77.04430766666667}, {"rental_uris": {"android": "https://dc.lft.to/lastmile_qr_scan", "ios": "https://dc.lft.to/lastmile_qr_scan"}, "fusion_lat": 0.0, "is_reserved": 0, "lat": 38.895721, "name": "1793da828cffbbe1644ef1db5fc122d0", "bike_id": "1793da828cffbbe1644ef1db5fc122d0", "is_disabled": 0, "fusion_lon": 0.0, "type": "electric_scooter", "lon": -77.04139966666666}, {"rental_uris": {"android": "https://dc.lft.to/lastmile_qr_scan", "ios": "https://dc.lft.to/lastmile_qr_scan"}, "fusion_lat": 0.0, "is_reserved": 0, "lat": 38.88865783333333, "name": "646f49984b8a3ade494a6707a56dc3e4", "bike_id": "646f49984b8a3ade494a6707a56dc3e4", "is_disabled": 0, "fusion_lon": 0.0, "type": "electric_scooter", "lon": -77.04011666666666}, {"rental_uris": {"android": "https://dc.lft.to/lastmile_qr_scan", "ios": "https://dc.lft.to/lastmile_qr_scan"}, "fusion_lat": 0.0, "is_reserved": 0, "lat": 38.899749666666665, "name": "520bd4f2547a4d9d3c2d0d1563b98d97", "bike_id": "520bd4f2547a4d9d3c2d0d1563b98d97", "is_disabled": 0, "fusion_lon": 0.0, "type": "electric_scooter", "lon": -77.04847033333333}, {"rental_uris": {"android": "https://dc.lft.to/lastmile_qr_scan", "ios": "https://dc.lft.to/lastmile_qr_scan"}, "fusion_lat": 0.0, "is_reserved": 0, "lat": 38.91418766666666, "name": "5343691db283c84c75de81af651d0407", "bike_id": "5343691db283c84c75de81af651d0407", "is_disabled": 0, "fusion_lon": 0.0, "type": "electric_scooter", "lon": -77.03175816666666}, {"rental_uris": {"android": "https://dc.lft.to/lastmile_qr_scan", "ios": "https://dc.lft.to/lastmile_qr_scan"}, "fusion_lat": 0.0, "is_reserved": 0, "lat": 38.91561433333333, "name": "b071c762192dda64b08bfc2f2ea6be22", "bike_id": "b071c762192dda64b08bfc2f2ea6be22", "is_disabled": 0, "fusion_lon": 0.0, "type": "electric_scooter", "lon": -77.02352983333333}, {"rental_uris": {"android": "https://dc.lft.to/lastmile_qr_scan", "ios": "https://dc.lft.to/lastmile_qr_scan"}, "fusion_lat": 0.0, "is_reserved": 0, "lat": 38.895382, "name": "5ab3b01d09abc2c4a73cef16da097aaf", "bike_id": "5ab3b01d09abc2c4a73cef16da097aaf", "is_disabled": 0, "fusion_lon": 0.0, "type": "electric_scooter", "lon": -76.92776616666667}, {"rental_uris": {"android": "https://dc.lft.to/lastmile_qr_scan", "ios": "https://dc.lft.to/lastmile_qr_scan"}, "fusion_lat": 0.0, "is_reserved": 0, "lat": 38.924733, "name": "9a159f5667d54e9ddeb21f51337f6495", "bike_id": "9a159f5667d54e9ddeb21f51337f6495", "is_disabled": 0, "fusion_lon": 0.0, "type": "electric_scooter", "lon": -77.037292}, {"rental_uris": {"android": "https://dc.lft.to/lastmile_qr_scan", "ios": "https://dc.lft.to/lastmile_qr_scan"}, "fusion_lat": 0.0, "is_reserved": 0, "lat": 38.9472335, "name": "8d34b76a1c2993ef92f911012d42d416", "bike_id": "8d34b76a1c2993ef92f911012d42d416", "is_disabled": 0, "fusion_lon": 0.0, "type": "electric_scooter", "lon": -77.033033}, {"rental_uris": {"android": "https://dc.lft.to/lastmile_qr_scan", "ios": "https://dc.lft.to/lastmile_qr_scan"}, "fusion_lat": 0.0, "is_reserved": 0, "lat": 38.86018716666667, "name": "f961c37f2b6142efa2726d9ded2578bc", "bike_id": "f961c37f2b6142efa2726d9ded2578bc", "is_disabled": 0, "fusion_lon": 0.0, "type": "electric_scooter", "lon": -76.97000866666667}, {"rental_uris": {"android": "https://dc.lft.to/lastmile_qr_scan", "ios": "https://dc.lft.to/lastmile_qr_scan"}, "fusion_lat": 0.0, "is_reserved": 0, "lat": 38.917871, "name": "c9b68949fa4fa079d3f2d6226ba1d2f7", "bike_id": "c9b68949fa4fa079d3f2d6226ba1d2f7", "is_disabled": 0, "fusion_lon": 0.0, "type": "electric_scooter", "lon": -77.03214166666666}, {"rental_uris": {"android": "https://dc.lft.to/lastmile_qr_scan", "ios": "https://dc.lft.to/lastmile_qr_scan"}, "fusion_lat": 0.0, "is_reserved": 0, "lat": 38.895468, "name": "11c0996fb267e2d4d4f44f587546ef14", "bike_id": "11c0996fb267e2d4d4f44f587546ef14", "is_disabled": 0, "fusion_lon": 0.0, "type": "electric_scooter", "lon": -76.983375}, {"rental_uris": {"android": "https://dc.lft.to/lastmile_qr_scan", "ios": "https://dc.lft.to/lastmile_qr_scan"}, "fusion_lat": 0.0, "is_reserved": 0, "lat": 38.9146195, "name": "0717a4c2f164c82e1c875937d5dc449c", "bike_id": "0717a4c2f164c82e1c875937d5dc449c", "is_disabled": 0, "fusion_lon": 0.0, "type": "electric_scooter", "lon": -77.04176916666667}, {"rental_uris": {"android": "https://dc.lft.to/lastmile_qr_scan", "ios": "https://dc.lft.to/lastmile_qr_scan"}, "fusion_lat": 0.0, "is_reserved": 0, "lat": 38.91420133333333, "name": "f78ffd4a4a3ebc60a39d94996c2cfb14", "bike_id": "f78ffd4a4a3ebc60a39d94996c2cfb14", "is_disabled": 0, "fusion_lon": 0.0, "type": "electric_scooter", "lon": -77.0309475}, {"rental_uris": {"android": "https://dc.lft.to/lastmile_qr_scan", "ios": "https://dc.lft.to/lastmile_qr_scan"}, "fusion_lat": 0.0, "is_reserved": 0, "lat": 38.96677183333333, "name": "27892bb766ad65f65a3a10a36ac087bb", "bike_id": "27892bb766ad65f65a3a10a36ac087bb", "is_disabled": 0, "fusion_lon": 0.0, "type": "electric_scooter", "lon": -77.03612016666666}, {"rental_uris": {"android": "https://dc.lft.to/lastmile_qr_scan", "ios": "https://dc.lft.to/lastmile_qr_scan"}, "fusion_lat": 0.0, "is_reserved": 0, "lat": 38.92016266666667, "name": "26d35bcaf09e11132204431b446fb168", "bike_id": "26d35bcaf09e11132204431b446fb168", "is_disabled": 0, "fusion_lon": 0.0, "type": "electric_scooter", "lon": -77.03159666666667}, {"rental_uris": {"android": "https://dc.lft.to/lastmile_qr_scan", "ios": "https://dc.lft.to/lastmile_qr_scan"}, "fusion_lat": 0.0, "is_reserved": 0, "lat": 38.9518505, "name": "5dce0f3f845bf5d25e915cc1044d1c7e", "bike_id": "5dce0f3f845bf5d25e915cc1044d1c7e", "is_disabled": 0, "fusion_lon": 0.0, "type": "electric_scooter", "lon": -77.01267933333334}, {"rental_uris": {"android": "https://dc.lft.to/lastmile_qr_scan", "ios": "https://dc.lft.to/lastmile_qr_scan"}, "fusion_lat": 0.0, "is_reserved": 0, "lat": 38.904058166666665, "name": "1da8140e6863568872f677b17b9260d3", "bike_id": "1da8140e6863568872f677b17b9260d3", "is_disabled": 0, "fusion_lon": 0.0, "type": "electric_scooter", "lon": -76.9735355}, {"rental_uris": {"android": "https://dc.lft.to/lastmile_qr_scan", "ios": "https://dc.lft.to/lastmile_qr_scan"}, "fusion_lat": 0.0, "is_reserved": 0, "lat": 38.857097333333336, "name": "0a23e064023d736feb3ae7e32b7ce373", "bike_id": "0a23e064023d736feb3ae7e32b7ce373", "is_disabled": 0, "fusion_lon": 0.0, "type": "electric_scooter", "lon": -76.9821455}, {"rental_uris": {"android": "https://dc.lft.to/lastmile_qr_scan", "ios": "https://dc.lft.to/lastmile_qr_scan"}, "fusion_lat": 0.0, "is_reserved": 0, "lat": 38.91499783333333, "name": "f615b90774610a999402608670a68b60", "bike_id": "f615b90774610a999402608670a68b60", "is_disabled": 0, "fusion_lon": 0.0, "type": "electric_scooter", "lon": -77.03209}, {"rental_uris": {"android": "https://dc.lft.to/lastmile_qr_scan", "ios": "https://dc.lft.to/lastmile_qr_scan"}, "fusion_lat": 0.0, "is_reserved": 0, "lat": 38.922987666666664, "name": "fb8e317f382ea44a3fd6bdc26648b224", "bike_id": "fb8e317f382ea44a3fd6bdc26648b224", "is_disabled": 0, "fusion_lon": 0.0, "type": "electric_scooter", "lon": -77.04145516666667}, {"rental_uris": {"android": "https://dc.lft.to/lastmile_qr_scan", "ios": "https://dc.lft.to/lastmile_qr_scan"}, "fusion_lat": 0.0, "is_reserved": 0, "lat": 38.941975666666664, "name": "155e81c88ee8c91acab28768e0f10064", "bike_id": "155e81c88ee8c91acab28768e0f10064", "is_disabled": 0, "fusion_lon": 0.0, "type": "electric_scooter", "lon": -77.02478683333334}, {"rental_uris": {"android": "https://dc.lft.to/lastmile_qr_scan", "ios": "https://dc.lft.to/lastmile_qr_scan"}, "fusion_lat": 0.0, "is_reserved": 0, "lat": 38.91227033333333, "name": "9d305c4cb3602a158cd578e31e175fdc", "bike_id": "9d305c4cb3602a158cd578e31e175fdc", "is_disabled": 0, "fusion_lon": 0.0, "type": "electric_scooter", "lon": -77.03190866666667}, {"rental_uris": {"android": "https://dc.lft.to/lastmile_qr_scan", "ios": "https://dc.lft.to/lastmile_qr_scan"}, "fusion_lat": 0.0, "is_reserved": 0, "lat": 38.914949166666666, "name": "95e29061a14c1f9b4924fb8096cec717", "bike_id": "95e29061a14c1f9b4924fb8096cec717", "is_disabled": 0, "fusion_lon": 0.0, "type": "electric_scooter", "lon": -77.02285316666666}, {"rental_uris": {"android": "https://dc.lft.to/lastmile_qr_scan", "ios": "https://dc.lft.to/lastmile_qr_scan"}, "fusion_lat": 0.0, "is_reserved": 0, "lat": 38.88074066666667, "name": "5c49ccd2a1eb32fc4466856b5a33ae1a", "bike_id": "5c49ccd2a1eb32fc4466856b5a33ae1a", "is_disabled": 0, "fusion_lon": 0.0, "type": "electric_scooter", "lon": -76.9915875}, {"rental_uris": {"android": "https://dc.lft.to/lastmile_qr_scan", "ios": "https://dc.lft.to/lastmile_qr_scan"}, "fusion_lat": 0.0, "is_reserved": 0, "lat": 38.93535716666667, "name": "1e71139e602d1990621fc45306c0259e", "bike_id": "1e71139e602d1990621fc45306c0259e", "is_disabled": 0, "fusion_lon": 0.0, "type": "electric_scooter", "lon": -77.0235155}, {"rental_uris": {"android": "https://dc.lft.to/lastmile_qr_scan", "ios": "https://dc.lft.to/lastmile_qr_scan"}, "fusion_lat": 0.0, "is_reserved": 0, "lat": 38.927245666666664, "name": "aa5e9432770e2e4fb0a8afc566d3c7e2", "bike_id": "aa5e9432770e2e4fb0a8afc566d3c7e2", "is_disabled": 0, "fusion_lon": 0.0, "type": "electric_scooter", "lon": -77.022795}, {"rental_uris": {"android": "https://dc.lft.to/lastmile_qr_scan", "ios": "https://dc.lft.to/lastmile_qr_scan"}, "fusion_lat": 0.0, "is_reserved": 0, "lat": 38.94154016666667, "name": "3e13a98b06b1e6d26bb7dd0d9f4a150f", "bike_id": "3e13a98b06b1e6d26bb7dd0d9f4a150f", "is_disabled": 0, "fusion_lon": 0.0, "type": "electric_scooter", "lon": -77.03280683333334}, {"rental_uris": {"android": "https://dc.lft.to/lastmile_qr_scan", "ios": "https://dc.lft.to/lastmile_qr_scan"}, "fusion_lat": 0.0, "is_reserved": 0, "lat": 38.8650705, "name": "fa5f66fcfef81d877c7a4cd8611ecb7f", "bike_id": "fa5f66fcfef81d877c7a4cd8611ecb7f", "is_disabled": 0, "fusion_lon": 0.0, "type": "electric_scooter", "lon": -76.96901966666667}, {"rental_uris": {"android": "https://dc.lft.to/lastmile_qr_scan", "ios": "https://dc.lft.to/lastmile_qr_scan"}, "fusion_lat": 0.0, "is_reserved": 0, "lat": 38.86247266666667, "name": "6755045a4ae14291f93dbba50ad6dd56", "bike_id": "6755045a4ae14291f93dbba50ad6dd56", "is_disabled": 0, "fusion_lon": 0.0, "type": "electric_scooter", "lon": -76.99503966666667}, {"rental_uris": {"android": "https://dc.lft.to/lastmile_qr_scan", "ios": "https://dc.lft.to/lastmile_qr_scan"}, "fusion_lat": 0.0, "is_reserved": 0, "lat": 38.91667233333333, "name": "7f38578f66889db17e5e15d536b1dd78", "bike_id": "7f38578f66889db17e5e15d536b1dd78", "is_disabled": 0, "fusion_lon": 0.0, "type": "electric_scooter", "lon": -77.02385516666666}, {"rental_uris": {"android": "https://dc.lft.to/lastmile_qr_scan", "ios": "https://dc.lft.to/lastmile_qr_scan"}, "fusion_lat": 0.0, "is_reserved": 0, "lat": 38.898394833333334, "name": "60b77aa754a03a5a261ae285b2806602", "bike_id": "60b77aa754a03a5a261ae285b2806602", "is_disabled": 0, "fusion_lon": 0.0, "type": "electric_scooter", "lon": -77.02820766666666}, {"rental_uris": {"android": "https://dc.lft.to/lastmile_qr_scan", "ios": "https://dc.lft.to/lastmile_qr_scan"}, "fusion_lat": 0.0, "is_reserved": 0, "lat": 38.875592, "name": "549a761952c1da5a1a931d8594fad164", "bike_id": "549a761952c1da5a1a931d8594fad164", "is_disabled": 0, "fusion_lon": 0.0, "type": "electric_scooter", "lon": -77.00590266666667}, {"rental_uris": {"android": "https://dc.lft.to/lastmile_qr_scan", "ios": "https://dc.lft.to/lastmile_qr_scan"}, "fusion_lat": 0.0, "is_reserved": 0, "lat": 38.897746, "name": "285be448f857988737dd9479795f53ec", "bike_id": "285be448f857988737dd9479795f53ec", "is_disabled": 0, "fusion_lon": 0.0, "type": "electric_scooter", "lon": -77.01590183333333}, {"rental_uris": {"android": "https://dc.lft.to/lastmile_qr_scan", "ios": "https://dc.lft.to/lastmile_qr_scan"}, "fusion_lat": 0.0, "is_reserved": 0, "lat": 38.8808525, "name": "3138306cd58eb5bbf5d5d60cd8c2053e", "bike_id": "3138306cd58eb5bbf5d5d60cd8c2053e", "is_disabled": 0, "fusion_lon": 0.0, "type": "electric_scooter", "lon": -76.9851515}, {"rental_uris": {"android": "https://dc.lft.to/lastmile_qr_scan", "ios": "https://dc.lft.to/lastmile_qr_scan"}, "fusion_lat": 0.0, "is_reserved": 0, "lat": 38.950311166666665, "name": "ed4f489f4b8a9b0f748052dd81cc503f", "bike_id": "ed4f489f4b8a9b0f748052dd81cc503f", "is_disabled": 0, "fusion_lon": 0.0, "type": "electric_bike", "lon": -76.97100466666667}, {"rental_uris": {"android": "https://dc.lft.to/lastmile_qr_scan", "ios": "https://dc.lft.to/lastmile_qr_scan"}, "fusion_lat": 0.0, "is_reserved": 0, "lat": 38.919064666666664, "name": "851df055250eb7df13c446c49473a20c", "bike_id": "851df055250eb7df13c446c49473a20c", "is_disabled": 0, "fusion_lon": 0.0, "type": "electric_scooter", "lon": -77.02053266666667}, {"rental_uris": {"android": "https://dc.lft.to/lastmile_qr_scan", "ios": "https://dc.lft.to/lastmile_qr_scan"}, "fusion_lat": 0.0, "is_reserved": 0, "lat": 38.9278035, "name": "dd6dfe6d908de9382708b2d543a33451", "bike_id": "dd6dfe6d908de9382708b2d543a33451", "is_disabled": 0, "fusion_lon": 0.0, "type": "electric_scooter", "lon": -77.02711083333334}, {"rental_uris": {"android": "https://dc.lft.to/lastmile_qr_scan", "ios": "https://dc.lft.to/lastmile_qr_scan"}, "fusion_lat": 0.0, "is_reserved": 0, "lat": 38.933330166666664, "name": "cff1dee527bb8040b2060361cd925212", "bike_id": "cff1dee527bb8040b2060361cd925212", "is_disabled": 0, "fusion_lon": 0.0, "type": "electric_scooter", "lon": -77.03635033333333}, {"rental_uris": {"android": "https://dc.lft.to/lastmile_qr_scan", "ios": "https://dc.lft.to/lastmile_qr_scan"}, "fusion_lat": 0.0, "is_reserved": 0, "lat": 38.92277433333334, "name": "56e90d533c1c3937287fe7c2a445a837", "bike_id": "56e90d533c1c3937287fe7c2a445a837", "is_disabled": 0, "fusion_lon": 0.0, "type": "electric_scooter", "lon": -77.0212555}, {"rental_uris": {"android": "https://dc.lft.to/lastmile_qr_scan", "ios": "https://dc.lft.to/lastmile_qr_scan"}, "fusion_lat": 0.0, "is_reserved": 0, "lat": 38.8992, "name": "ed833c4b034da85f3bf7c47530688db8", "bike_id": "ed833c4b034da85f3bf7c47530688db8", "is_disabled": 0, "fusion_lon": 0.0, "type": "electric_scooter", "lon": -76.9336505}, {"rental_uris": {"android": "https://dc.lft.to/lastmile_qr_scan", "ios": "https://dc.lft.to/lastmile_qr_scan"}, "fusion_lat": 0.0, "is_reserved": 0, "lat": 38.90729616666667, "name": "55b671cd014f2b7414004409fdcfbfd1", "bike_id": "55b671cd014f2b7414004409fdcfbfd1", "is_disabled": 0, "fusion_lon": 0.0, "type": "electric_scooter", "lon": -77.032017}, {"rental_uris": {"android": "https://dc.lft.to/lastmile_qr_scan", "ios": "https://dc.lft.to/lastmile_qr_scan"}, "fusion_lat": 0.0, "is_reserved": 0, "lat": 38.865350166666666, "name": "af62357cd10ee4d08a08cc69ad757613", "bike_id": "af62357cd10ee4d08a08cc69ad757613", "is_disabled": 0, "fusion_lon": 0.0, "type": "electric_scooter", "lon": -76.97459783333333}, {"rental_uris": {"android": "https://dc.lft.to/lastmile_qr_scan", "ios": "https://dc.lft.to/lastmile_qr_scan"}, "fusion_lat": 0.0, "is_reserved": 0, "lat": 38.93147666666667, "name": "c0f0833e13a12b28cf0b31143e5118b3", "bike_id": "c0f0833e13a12b28cf0b31143e5118b3", "is_disabled": 0, "fusion_lon": 0.0, "type": "electric_bike", "lon": -77.02819033333333}, {"rental_uris": {"android": "https://dc.lft.to/lastmile_qr_scan", "ios": "https://dc.lft.to/lastmile_qr_scan"}, "fusion_lat": 0.0, "is_reserved": 0, "lat": 38.901863166666665, "name": "bda61b4b6b12af41e87793dfe81eb439", "bike_id": "bda61b4b6b12af41e87793dfe81eb439", "is_disabled": 0, "fusion_lon": 0.0, "type": "electric_scooter", "lon": -76.93002566666667}, {"rental_uris": {"android": "https://dc.lft.to/lastmile_qr_scan", "ios": "https://dc.lft.to/lastmile_qr_scan"}, "fusion_lat": 0.0, "is_reserved": 0, "lat": 38.894816, "name": "c880acdec9b75fe05928449b93a2efaa", "bike_id": "c880acdec9b75fe05928449b93a2efaa", "is_disabled": 0, "fusion_lon": 0.0, "type": "electric_scooter", "lon": -76.9957315}, {"rental_uris": {"android": "https://dc.lft.to/lastmile_qr_scan", "ios": "https://dc.lft.to/lastmile_qr_scan"}, "fusion_lat": 0.0, "is_reserved": 0, "lat": 38.91924616666667, "name": "a04740636812ae00dfe87346376aae96", "bike_id": "a04740636812ae00dfe87346376aae96", "is_disabled": 0, "fusion_lon": 0.0, "type": "electric_scooter", "lon": -77.03420133333333}, {"rental_uris": {"android": "https://dc.lft.to/lastmile_qr_scan", "ios": "https://dc.lft.to/lastmile_qr_scan"}, "fusion_lat": 0.0, "is_reserved": 0, "lat": 38.94656916666667, "name": "443bf321efce68d6132091db06a34bd5", "bike_id": "443bf321efce68d6132091db06a34bd5", "is_disabled": 0, "fusion_lon": 0.0, "type": "electric_scooter", "lon": -77.06470366666667}, {"rental_uris": {"android": "https://dc.lft.to/lastmile_qr_scan", "ios": "https://dc.lft.to/lastmile_qr_scan"}, "fusion_lat": 0.0, "is_reserved": 0, "lat": 38.819143833333335, "name": "31f2d6ffc04105c8ed4d0969e93e2985", "bike_id": "31f2d6ffc04105c8ed4d0969e93e2985", "is_disabled": 0, "fusion_lon": 0.0, "type": "electric_bike", "lon": -77.12659233333333}, {"rental_uris": {"android": "https://dc.lft.to/lastmile_qr_scan", "ios": "https://dc.lft.to/lastmile_qr_scan"}, "fusion_lat": 0.0, "is_reserved": 0, "lat": 38.91839616666667, "name": "4ae707adec44689c12bd9c8bbd388d65", "bike_id": "4ae707adec44689c12bd9c8bbd388d65", "is_disabled": 0, "fusion_lon": 0.0, "type": "electric_scooter", "lon": -77.03514083333333}, {"rental_uris": {"android": "https://dc.lft.to/lastmile_qr_scan", "ios": "https://dc.lft.to/lastmile_qr_scan"}, "fusion_lat": 0.0, "is_reserved": 0, "lat": 38.94217916666667, "name": "0671aa1ef52f57b9836b9fd2c9562393", "bike_id": "0671aa1ef52f57b9836b9fd2c9562393", "is_disabled": 0, "fusion_lon": 0.0, "type": "electric_bike", "lon": -76.96129616666667}, {"rental_uris": {"android": "https://dc.lft.to/lastmile_qr_scan", "ios": "https://dc.lft.to/lastmile_qr_scan"}, "fusion_lat": 0.0, "is_reserved": 0, "lat": 38.89619916666667, "name": "191d0d968deb47f87d795dbc3d247ae6", "bike_id": "191d0d968deb47f87d795dbc3d247ae6", "is_disabled": 0, "fusion_lon": 0.0, "type": "electric_scooter", "lon": -76.929743}, {"rental_uris": {"android": "https://dc.lft.to/lastmile_qr_scan", "ios": "https://dc.lft.to/lastmile_qr_scan"}, "fusion_lat": 0.0, "is_reserved": 0, "lat": 38.917019333333336, "name": "ce1cbf696a8e1ec02e56c15b9ed1d3d5", "bike_id": "ce1cbf696a8e1ec02e56c15b9ed1d3d5", "is_disabled": 0, "fusion_lon": 0.0, "type": "electric_scooter", "lon": -77.03506083333333}, {"rental_uris": {"android": "https://dc.lft.to/lastmile_qr_scan", "ios": "https://dc.lft.to/lastmile_qr_scan"}, "fusion_lat": 0.0, "is_reserved": 0, "lat": 38.90383883333333, "name": "aefb43d8d22cae69c85809c26650fe95", "bike_id": "aefb43d8d22cae69c85809c26650fe95", "is_disabled": 0, "fusion_lon": 0.0, "type": "electric_scooter", "lon": -77.01735966666666}, {"rental_uris": {"android": "https://dc.lft.to/lastmile_qr_scan", "ios": "https://dc.lft.to/lastmile_qr_scan"}, "fusion_lat": 0.0, "is_reserved": 0, "lat": 38.915724833333336, "name": "6bddf493e641842008731feb89520eca", "bike_id": "6bddf493e641842008731feb89520eca", "is_disabled": 0, "fusion_lon": 0.0, "type": "electric_scooter", "lon": -77.01890033333333}, {"rental_uris": {"android": "https://dc.lft.to/lastmile_qr_scan", "ios": "https://dc.lft.to/lastmile_qr_scan"}, "fusion_lat": 0.0, "is_reserved": 0, "lat": 38.903256166666665, "name": "5eaf75f19f1170b7e4822f23cf82faef", "bike_id": "5eaf75f19f1170b7e4822f23cf82faef", "is_disabled": 0, "fusion_lon": 0.0, "type": "electric_scooter", "lon": -77.02540983333333}, {"rental_uris": {"android": "https://dc.lft.to/lastmile_qr_scan", "ios": "https://dc.lft.to/lastmile_qr_scan"}, "fusion_lat": 0.0, "is_reserved": 0, "lat": 38.88141383333333, "name": "90cbc2ee0b14cc57fd17d449370fdfe4", "bike_id": "90cbc2ee0b14cc57fd17d449370fdfe4", "is_disabled": 0, "fusion_lon": 0.0, "type": "electric_scooter", "lon": -77.01764133333333}, {"rental_uris": {"android": "https://dc.lft.to/lastmile_qr_scan", "ios": "https://dc.lft.to/lastmile_qr_scan"}, "fusion_lat": 0.0, "is_reserved": 0, "lat": 38.880767166666665, "name": "4fcff892937daea22771349ea6f241e6", "bike_id": "4fcff892937daea22771349ea6f241e6", "is_disabled": 0, "fusion_lon": 0.0, "type": "electric_scooter", "lon": -77.037222}, {"rental_uris": {"android": "https://dc.lft.to/lastmile_qr_scan", "ios": "https://dc.lft.to/lastmile_qr_scan"}, "fusion_lat": 0.0, "is_reserved": 0, "lat": 38.92481383333333, "name": "ba75ccfe606fb119224fedd3031fe26b", "bike_id": "ba75ccfe606fb119224fedd3031fe26b", "is_disabled": 0, "fusion_lon": 0.0, "type": "electric_scooter", "lon": -77.0521385}, {"rental_uris": {"android": "https://dc.lft.to/lastmile_qr_scan", "ios": "https://dc.lft.to/lastmile_qr_scan"}, "fusion_lat": 0.0, "is_reserved": 0, "lat": 38.92142916666667, "name": "351f86eecfff5e42f8389f29ff111fdc", "bike_id": "351f86eecfff5e42f8389f29ff111fdc", "is_disabled": 0, "fusion_lon": 0.0, "type": "electric_scooter", "lon": -77.03384233333334}, {"rental_uris": {"android": "https://dc.lft.to/lastmile_qr_scan", "ios": "https://dc.lft.to/lastmile_qr_scan"}, "fusion_lat": 0.0, "is_reserved": 0, "lat": 38.8936685, "name": "2f4f2cb1df95f22097bff07e01defce1", "bike_id": "2f4f2cb1df95f22097bff07e01defce1", "is_disabled": 0, "fusion_lon": 0.0, "type": "electric_scooter", "lon": -76.98463483333333}, {"rental_uris": {"android": "https://dc.lft.to/lastmile_qr_scan", "ios": "https://dc.lft.to/lastmile_qr_scan"}, "fusion_lat": 0.0, "is_reserved": 0, "lat": 38.957446833333336, "name": "9b98c73e670dcd3998c7b2d210ac24bd", "bike_id": "9b98c73e670dcd3998c7b2d210ac24bd", "is_disabled": 0, "fusion_lon": 0.0, "type": "electric_scooter", "lon": -77.02067833333334}, {"rental_uris": {"android": "https://dc.lft.to/lastmile_qr_scan", "ios": "https://dc.lft.to/lastmile_qr_scan"}, "fusion_lat": 0.0, "is_reserved": 0, "lat": 38.9072175, "name": "9ecd721077242312d7c6a7a95b712035", "bike_id": "9ecd721077242312d7c6a7a95b712035", "is_disabled": 0, "fusion_lon": 0.0, "type": "electric_scooter", "lon": -77.02676933333333}, {"rental_uris": {"android": "https://dc.lft.to/lastmile_qr_scan", "ios": "https://dc.lft.to/lastmile_qr_scan"}, "fusion_lat": 0.0, "is_reserved": 0, "lat": 38.9360535, "name": "f18f3b89ab179087799d5eeaa1f8d517", "bike_id": "f18f3b89ab179087799d5eeaa1f8d517", "is_disabled": 0, "fusion_lon": 0.0, "type": "electric_scooter", "lon": -77.05872283333333}, {"rental_uris": {"android": "https://dc.lft.to/lastmile_qr_scan", "ios": "https://dc.lft.to/lastmile_qr_scan"}, "fusion_lat": 0.0, "is_reserved": 0, "lat": 38.9012705, "name": "53757a38d0726bfc90d0a816350cc937", "bike_id": "53757a38d0726bfc90d0a816350cc937", "is_disabled": 0, "fusion_lon": 0.0, "type": "electric_scooter", "lon": -77.03047283333333}, {"rental_uris": {"android": "https://dc.lft.to/lastmile_qr_scan", "ios": "https://dc.lft.to/lastmile_qr_scan"}, "fusion_lat": 0.0, "is_reserved": 0, "lat": 38.926975666666664, "name": "4e1af7760425c2fb0086bff40b4e7de9", "bike_id": "4e1af7760425c2fb0086bff40b4e7de9", "is_disabled": 0, "fusion_lon": 0.0, "type": "electric_scooter", "lon": -77.014937}, {"rental_uris": {"android": "https://dc.lft.to/lastmile_qr_scan", "ios": "https://dc.lft.to/lastmile_qr_scan"}, "fusion_lat": 0.0, "is_reserved": 0, "lat": 38.88081183333333, "name": "adc572d1e7c5efe33fd53f1aec5e8d22", "bike_id": "adc572d1e7c5efe33fd53f1aec5e8d22", "is_disabled": 0, "fusion_lon": 0.0, "type": "electric_scooter", "lon": -76.9853205}, {"rental_uris": {"android": "https://dc.lft.to/lastmile_qr_scan", "ios": "https://dc.lft.to/lastmile_qr_scan"}, "fusion_lat": 0.0, "is_reserved": 0, "lat": 38.90183666666667, "name": "97d574d0954bd9941cef9a143bd97937", "bike_id": "97d574d0954bd9941cef9a143bd97937", "is_disabled": 0, "fusion_lon": 0.0, "type": "electric_scooter", "lon": -77.021071}, {"rental_uris": {"android": "https://dc.lft.to/lastmile_qr_scan", "ios": "https://dc.lft.to/lastmile_qr_scan"}, "fusion_lat": 0.0, "is_reserved": 0, "lat": 38.90824, "name": "d6a884b3e035a00c8d9e630fb4b793a1", "bike_id": "d6a884b3e035a00c8d9e630fb4b793a1", "is_disabled": 0, "fusion_lon": 0.0, "type": "electric_scooter", "lon": -77.00346933333333}, {"rental_uris": {"android": "https://dc.lft.to/lastmile_qr_scan", "ios": "https://dc.lft.to/lastmile_qr_scan"}, "fusion_lat": 0.0, "is_reserved": 0, "lat": 38.901136666666666, "name": "01290d6d5cb9087f6cf75a9b6c314ef0", "bike_id": "01290d6d5cb9087f6cf75a9b6c314ef0", "is_disabled": 0, "fusion_lon": 0.0, "type": "electric_scooter", "lon": -77.049918}, {"rental_uris": {"android": "https://dc.lft.to/lastmile_qr_scan", "ios": "https://dc.lft.to/lastmile_qr_scan"}, "fusion_lat": 0.0, "is_reserved": 0, "lat": 38.90560516666667, "name": "41c947f415a99d12ad043d9ce112d878", "bike_id": "41c947f415a99d12ad043d9ce112d878", "is_disabled": 0, "fusion_lon": 0.0, "type": "electric_scooter", "lon": -77.0345005}, {"rental_uris": {"android": "https://dc.lft.to/lastmile_qr_scan", "ios": "https://dc.lft.to/lastmile_qr_scan"}, "fusion_lat": 0.0, "is_reserved": 0, "lat": 38.94912983333333, "name": "a65f9301c84a9f4a280693d18a44f262", "bike_id": "a65f9301c84a9f4a280693d18a44f262", "is_disabled": 0, "fusion_lon": 0.0, "type": "electric_scooter", "lon": -77.020714}, {"rental_uris": {"android": "https://dc.lft.to/lastmile_qr_scan", "ios": "https://dc.lft.to/lastmile_qr_scan"}, "fusion_lat": 0.0, "is_reserved": 0, "lat": 38.91994666666667, "name": "59a988abde5b04044f0093a801949304", "bike_id": "59a988abde5b04044f0093a801949304", "is_disabled": 0, "fusion_lon": 0.0, "type": "electric_scooter", "lon": -77.03219333333334}, {"rental_uris": {"android": "https://dc.lft.to/lastmile_qr_scan", "ios": "https://dc.lft.to/lastmile_qr_scan"}, "fusion_lat": 0.0, "is_reserved": 0, "lat": 38.906778333333335, "name": "85ba18f06f18b7c70987a07eac517b00", "bike_id": "85ba18f06f18b7c70987a07eac517b00", "is_disabled": 0, "fusion_lon": 0.0, "type": "electric_scooter", "lon": -77.02693}, {"rental_uris": {"android": "https://dc.lft.to/lastmile_qr_scan", "ios": "https://dc.lft.to/lastmile_qr_scan"}, "fusion_lat": 0.0, "is_reserved": 0, "lat": 38.90693783333333, "name": "bd43a8e4531f5373360c721f0502f5b1", "bike_id": "bd43a8e4531f5373360c721f0502f5b1", "is_disabled": 0, "fusion_lon": 0.0, "type": "electric_scooter", "lon": -77.03587933333333}, {"rental_uris": {"android": "https://dc.lft.to/lastmile_qr_scan", "ios": "https://dc.lft.to/lastmile_qr_scan"}, "fusion_lat": 0.0, "is_reserved": 0, "lat": 38.90144133333333, "name": "db46dd0dcaea006dd02bc00cc78469a2", "bike_id": "db46dd0dcaea006dd02bc00cc78469a2", "is_disabled": 0, "fusion_lon": 0.0, "type": "electric_scooter", "lon": -77.0243465}, {"rental_uris": {"android": "https://dc.lft.to/lastmile_qr_scan", "ios": "https://dc.lft.to/lastmile_qr_scan"}, "fusion_lat": 0.0, "is_reserved": 0, "lat": 38.8826765, "name": "7e46f6762343924515116acdf25f9f48", "bike_id": "7e46f6762343924515116acdf25f9f48", "is_disabled": 0, "fusion_lon": 0.0, "type": "electric_scooter", "lon": -76.99472333333334}, {"rental_uris": {"android": "https://dc.lft.to/lastmile_qr_scan", "ios": "https://dc.lft.to/lastmile_qr_scan"}, "fusion_lat": 0.0, "is_reserved": 0, "lat": 38.912608666666664, "name": "c5eb1e62fcd6598d1c603e5587c06658", "bike_id": "c5eb1e62fcd6598d1c603e5587c06658", "is_disabled": 0, "fusion_lon": 0.0, "type": "electric_scooter", "lon": -77.039333}, {"rental_uris": {"android": "https://dc.lft.to/lastmile_qr_scan", "ios": "https://dc.lft.to/lastmile_qr_scan"}, "fusion_lat": 0.0, "is_reserved": 0, "lat": 38.910705, "name": "56aa6ced43f435b1122dd1f780984b33", "bike_id": "56aa6ced43f435b1122dd1f780984b33", "is_disabled": 0, "fusion_lon": 0.0, "type": "electric_scooter", "lon": -77.0460855}, {"rental_uris": {"android": "https://dc.lft.to/lastmile_qr_scan", "ios": "https://dc.lft.to/lastmile_qr_scan"}, "fusion_lat": 0.0, "is_reserved": 0, "lat": 38.89719, "name": "f74cd2e883e7eb0d065db561a9796246", "bike_id": "f74cd2e883e7eb0d065db561a9796246", "is_disabled": 0, "fusion_lon": 0.0, "type": "electric_scooter", "lon": -77.0218595}, {"rental_uris": {"android": "https://dc.lft.to/lastmile_qr_scan", "ios": "https://dc.lft.to/lastmile_qr_scan"}, "fusion_lat": 0.0, "is_reserved": 0, "lat": 38.9176185, "name": "c4b17bc2f72d4bcfb161f93e8cce2962", "bike_id": "c4b17bc2f72d4bcfb161f93e8cce2962", "is_disabled": 0, "fusion_lon": 0.0, "type": "electric_scooter", "lon": -77.01912383333334}, {"rental_uris": {"android": "https://dc.lft.to/lastmile_qr_scan", "ios": "https://dc.lft.to/lastmile_qr_scan"}, "fusion_lat": 0.0, "is_reserved": 0, "lat": 38.905764833333336, "name": "374cbe5ec770640d5309b151ca588ac5", "bike_id": "374cbe5ec770640d5309b151ca588ac5", "is_disabled": 0, "fusion_lon": 0.0, "type": "electric_scooter", "lon": -77.022157}, {"rental_uris": {"android": "https://dc.lft.to/lastmile_qr_scan", "ios": "https://dc.lft.to/lastmile_qr_scan"}, "fusion_lat": 0.0, "is_reserved": 0, "lat": 38.898245333333335, "name": "3e13a62127bd37c25e18fcbd973c2188", "bike_id": "3e13a62127bd37c25e18fcbd973c2188", "is_disabled": 0, "fusion_lon": 0.0, "type": "electric_scooter", "lon": -77.04902}, {"rental_uris": {"android": "https://dc.lft.to/lastmile_qr_scan", "ios": "https://dc.lft.to/lastmile_qr_scan"}, "fusion_lat": 0.0, "is_reserved": 0, "lat": 38.920831, "name": "97afda6026fd4ea21d8015f8751dd4ab", "bike_id": "97afda6026fd4ea21d8015f8751dd4ab", "is_disabled": 0, "fusion_lon": 0.0, "type": "electric_scooter", "lon": -77.03562933333333}, {"rental_uris": {"android": "https://dc.lft.to/lastmile_qr_scan", "ios": "https://dc.lft.to/lastmile_qr_scan"}, "fusion_lat": 0.0, "is_reserved": 0, "lat": 38.9126225, "name": "8cac2213e7f095dd2e4513b23cc01e03", "bike_id": "8cac2213e7f095dd2e4513b23cc01e03", "is_disabled": 0, "fusion_lon": 0.0, "type": "electric_scooter", "lon": -77.04552333333334}, {"rental_uris": {"android": "https://dc.lft.to/lastmile_qr_scan", "ios": "https://dc.lft.to/lastmile_qr_scan"}, "fusion_lat": 0.0, "is_reserved": 0, "lat": 38.8765795, "name": "d0e660bf64a23ac79d655097ef8f3e2b", "bike_id": "d0e660bf64a23ac79d655097ef8f3e2b", "is_disabled": 0, "fusion_lon": 0.0, "type": "electric_scooter", "lon": -76.99325583333334}, {"rental_uris": {"android": "https://dc.lft.to/lastmile_qr_scan", "ios": "https://dc.lft.to/lastmile_qr_scan"}, "fusion_lat": 0.0, "is_reserved": 0, "lat": 38.846709833333335, "name": "aa974c86706f3a98426b0004e63e7404", "bike_id": "aa974c86706f3a98426b0004e63e7404", "is_disabled": 0, "fusion_lon": 0.0, "type": "electric_bike", "lon": -77.13924133333333}, {"rental_uris": {"android": "https://dc.lft.to/lastmile_qr_scan", "ios": "https://dc.lft.to/lastmile_qr_scan"}, "fusion_lat": 0.0, "is_reserved": 0, "lat": 38.9304555, "name": "cbe754851a4dd5a9749efb21a0a845e5", "bike_id": "cbe754851a4dd5a9749efb21a0a845e5", "is_disabled": 0, "fusion_lon": 0.0, "type": "electric_scooter", "lon": -76.9583525}, {"rental_uris": {"android": "https://dc.lft.to/lastmile_qr_scan", "ios": "https://dc.lft.to/lastmile_qr_scan"}, "fusion_lat": 0.0, "is_reserved": 0, "lat": 38.921420166666664, "name": "6d240ddcb548e3c3ddd94b67bed18e08", "bike_id": "6d240ddcb548e3c3ddd94b67bed18e08", "is_disabled": 0, "fusion_lon": 0.0, "type": "electric_scooter", "lon": -77.03658416666667}, {"rental_uris": {"android": "https://dc.lft.to/lastmile_qr_scan", "ios": "https://dc.lft.to/lastmile_qr_scan"}, "fusion_lat": 0.0, "is_reserved": 0, "lat": 38.91106, "name": "acd7744c64ccd71680120ef8d7a41735", "bike_id": "acd7744c64ccd71680120ef8d7a41735", "is_disabled": 0, "fusion_lon": 0.0, "type": "electric_scooter", "lon": -77.04452283333333}, {"rental_uris": {"android": "https://dc.lft.to/lastmile_qr_scan", "ios": "https://dc.lft.to/lastmile_qr_scan"}, "fusion_lat": 0.0, "is_reserved": 0, "lat": 38.905959833333334, "name": "6ab8c3beb930a12e5e2b9a258cc0ce70", "bike_id": "6ab8c3beb930a12e5e2b9a258cc0ce70", "is_disabled": 0, "fusion_lon": 0.0, "type": "electric_scooter", "lon": -77.01618566666667}, {"rental_uris": {"android": "https://dc.lft.to/lastmile_qr_scan", "ios": "https://dc.lft.to/lastmile_qr_scan"}, "fusion_lat": 0.0, "is_reserved": 0, "lat": 38.994114333333336, "name": "36237ec99602de497ae3d00c62280d4c", "bike_id": "36237ec99602de497ae3d00c62280d4c", "is_disabled": 0, "fusion_lon": 0.0, "type": "electric_bike", "lon": -77.01798933333333}, {"rental_uris": {"android": "https://dc.lft.to/lastmile_qr_scan", "ios": "https://dc.lft.to/lastmile_qr_scan"}, "fusion_lat": 0.0, "is_reserved": 0, "lat": 38.9250505, "name": "3e7155334a8d10309c325a872d7f2749", "bike_id": "3e7155334a8d10309c325a872d7f2749", "is_disabled": 0, "fusion_lon": 0.0, "type": "electric_scooter", "lon": -77.02405133333333}, {"rental_uris": {"android": "https://dc.lft.to/lastmile_qr_scan", "ios": "https://dc.lft.to/lastmile_qr_scan"}, "fusion_lat": 0.0, "is_reserved": 0, "lat": 38.940401666666666, "name": "217d55cddf32bace2b018c741b7bb24c", "bike_id": "217d55cddf32bace2b018c741b7bb24c", "is_disabled": 0, "fusion_lon": 0.0, "type": "electric_scooter", "lon": -77.029136}, {"rental_uris": {"android": "https://dc.lft.to/lastmile_qr_scan", "ios": "https://dc.lft.to/lastmile_qr_scan"}, "fusion_lat": 0.0, "is_reserved": 0, "lat": 38.918408666666664, "name": "15f321a1b1d64b3b9b619765b5cf244d", "bike_id": "15f321a1b1d64b3b9b619765b5cf244d", "is_disabled": 0, "fusion_lon": 0.0, "type": "electric_scooter", "lon": -77.02436633333333}, {"rental_uris": {"android": "https://dc.lft.to/lastmile_qr_scan", "ios": "https://dc.lft.to/lastmile_qr_scan"}, "fusion_lat": 0.0, "is_reserved": 0, "lat": 38.946501166666664, "name": "4be1a21d7ddb79aef4ae25751f7aca43", "bike_id": "4be1a21d7ddb79aef4ae25751f7aca43", "is_disabled": 0, "fusion_lon": 0.0, "type": "electric_scooter", "lon": -77.06480283333333}, {"rental_uris": {"android": "https://dc.lft.to/lastmile_qr_scan", "ios": "https://dc.lft.to/lastmile_qr_scan"}, "fusion_lat": 0.0, "is_reserved": 0, "lat": 38.89472383333333, "name": "a6c6e005dfa3557e1b25fcc8a1989bfd", "bike_id": "a6c6e005dfa3557e1b25fcc8a1989bfd", "is_disabled": 0, "fusion_lon": 0.0, "type": "electric_scooter", "lon": -76.99485833333334}, {"rental_uris": {"android": "https://dc.lft.to/lastmile_qr_scan", "ios": "https://dc.lft.to/lastmile_qr_scan"}, "fusion_lat": 0.0, "is_reserved": 0, "lat": 38.89985166666666, "name": "922e6ef31b8b104f5a3184a9a311b424", "bike_id": "922e6ef31b8b104f5a3184a9a311b424", "is_disabled": 0, "fusion_lon": 0.0, "type": "electric_scooter", "lon": -77.02244383333333}, {"rental_uris": {"android": "https://dc.lft.to/lastmile_qr_scan", "ios": "https://dc.lft.to/lastmile_qr_scan"}, "fusion_lat": 0.0, "is_reserved": 0, "lat": 38.897123666666666, "name": "82883b598af26a4323eb119bd0ef3927", "bike_id": "82883b598af26a4323eb119bd0ef3927", "is_disabled": 0, "fusion_lon": 0.0, "type": "electric_scooter", "lon": -77.01286033333334}, {"rental_uris": {"android": "https://dc.lft.to/lastmile_qr_scan", "ios": "https://dc.lft.to/lastmile_qr_scan"}, "fusion_lat": 0.0, "is_reserved": 0, "lat": 38.83868666666667, "name": "3ecf10b01b39e6f97767ccc93b420445", "bike_id": "3ecf10b01b39e6f97767ccc93b420445", "is_disabled": 0, "fusion_lon": 0.0, "type": "electric_bike", "lon": -76.99699783333334}, {"rental_uris": {"android": "https://dc.lft.to/lastmile_qr_scan", "ios": "https://dc.lft.to/lastmile_qr_scan"}, "fusion_lat": 0.0, "is_reserved": 0, "lat": 38.9141845, "name": "ba0573aa07a06051bb7d55f65b2bda7d", "bike_id": "ba0573aa07a06051bb7d55f65b2bda7d", "is_disabled": 0, "fusion_lon": 0.0, "type": "electric_scooter", "lon": -77.03171}, {"rental_uris": {"android": "https://dc.lft.to/lastmile_qr_scan", "ios": "https://dc.lft.to/lastmile_qr_scan"}, "fusion_lat": 0.0, "is_reserved": 0, "lat": 38.94471433333333, "name": "070d1a95066aa6a9fd1e5fb486f5e27b", "bike_id": "070d1a95066aa6a9fd1e5fb486f5e27b", "is_disabled": 0, "fusion_lon": 0.0, "type": "electric_bike", "lon": -76.9869105}, {"rental_uris": {"android": "https://dc.lft.to/lastmile_qr_scan", "ios": "https://dc.lft.to/lastmile_qr_scan"}, "fusion_lat": 0.0, "is_reserved": 0, "lat": 38.8770985, "name": "1e62751ffbf66335c9946c25827af270", "bike_id": "1e62751ffbf66335c9946c25827af270", "is_disabled": 0, "fusion_lon": 0.0, "type": "electric_scooter", "lon": -77.017547}, {"rental_uris": {"android": "https://dc.lft.to/lastmile_qr_scan", "ios": "https://dc.lft.to/lastmile_qr_scan"}, "fusion_lat": 0.0, "is_reserved": 0, "lat": 39.084315, "name": "70ae5d20651018017fe6025a280ce572", "bike_id": "70ae5d20651018017fe6025a280ce572", "is_disabled": 0, "fusion_lon": 0.0, "type": "electric_bike", "lon": -76.9515155}, {"rental_uris": {"android": "https://dc.lft.to/lastmile_qr_scan", "ios": "https://dc.lft.to/lastmile_qr_scan"}, "fusion_lat": 0.0, "is_reserved": 0, "lat": 38.865085666666666, "name": "700d1070c33308d1f1623908cb670b81", "bike_id": "700d1070c33308d1f1623908cb670b81", "is_disabled": 0, "fusion_lon": 0.0, "type": "electric_scooter", "lon": -76.980653}, {"rental_uris": {"android": "https://dc.lft.to/lastmile_qr_scan", "ios": "https://dc.lft.to/lastmile_qr_scan"}, "fusion_lat": 0.0, "is_reserved": 0, "lat": 38.9042005, "name": "9ff2d3af29d2de11885c2b2292ef2d7e", "bike_id": "9ff2d3af29d2de11885c2b2292ef2d7e", "is_disabled": 0, "fusion_lon": 0.0, "type": "electric_scooter", "lon": -77.00578883333333}, {"rental_uris": {"android": "https://dc.lft.to/lastmile_qr_scan", "ios": "https://dc.lft.to/lastmile_qr_scan"}, "fusion_lat": 0.0, "is_reserved": 0, "lat": 38.908450333333334, "name": "5d09e926b1c37480d42150f5bc7e5be5", "bike_id": "5d09e926b1c37480d42150f5bc7e5be5", "is_disabled": 0, "fusion_lon": 0.0, "type": "electric_scooter", "lon": -77.0448145}, {"rental_uris": {"android": "https://dc.lft.to/lastmile_qr_scan", "ios": "https://dc.lft.to/lastmile_qr_scan"}, "fusion_lat": 0.0, "is_reserved": 0, "lat": 38.88660483333334, "name": "b949bb9b01bd335c0db72c06e0e52fa7", "bike_id": "b949bb9b01bd335c0db72c06e0e52fa7", "is_disabled": 0, "fusion_lon": 0.0, "type": "electric_scooter", "lon": -76.93676633333334}, {"rental_uris": {"android": "https://dc.lft.to/lastmile_qr_scan", "ios": "https://dc.lft.to/lastmile_qr_scan"}, "fusion_lat": 0.0, "is_reserved": 0, "lat": 38.919249, "name": "279398242aed119b66a3b96b00a23a2c", "bike_id": "279398242aed119b66a3b96b00a23a2c", "is_disabled": 0, "fusion_lon": 0.0, "type": "electric_scooter", "lon": -77.009937}, {"rental_uris": {"android": "https://dc.lft.to/lastmile_qr_scan", "ios": "https://dc.lft.to/lastmile_qr_scan"}, "fusion_lat": 0.0, "is_reserved": 0, "lat": 38.90989416666667, "name": "44a4a615e2e3acfe0d051b82e41aab39", "bike_id": "44a4a615e2e3acfe0d051b82e41aab39", "is_disabled": 0, "fusion_lon": 0.0, "type": "electric_scooter", "lon": -77.02408233333334}, {"rental_uris": {"android": "https://dc.lft.to/lastmile_qr_scan", "ios": "https://dc.lft.to/lastmile_qr_scan"}, "fusion_lat": 0.0, "is_reserved": 0, "lat": 38.92453, "name": "592544f1b18805c7cceb44a6d54c12c5", "bike_id": "592544f1b18805c7cceb44a6d54c12c5", "is_disabled": 0, "fusion_lon": 0.0, "type": "electric_scooter", "lon": -77.02156366666667}, {"rental_uris": {"android": "https://dc.lft.to/lastmile_qr_scan", "ios": "https://dc.lft.to/lastmile_qr_scan"}, "fusion_lat": 0.0, "is_reserved": 0, "lat": 38.929736166666665, "name": "e04934107ae219629e210852138958f2", "bike_id": "e04934107ae219629e210852138958f2", "is_disabled": 0, "fusion_lon": 0.0, "type": "electric_scooter", "lon": -77.02794083333333}, {"rental_uris": {"android": "https://dc.lft.to/lastmile_qr_scan", "ios": "https://dc.lft.to/lastmile_qr_scan"}, "fusion_lat": 0.0, "is_reserved": 0, "lat": 38.94565133333333, "name": "96214033c00cb8b13f7cad3dae60ed9d", "bike_id": "96214033c00cb8b13f7cad3dae60ed9d", "is_disabled": 0, "fusion_lon": 0.0, "type": "electric_bike", "lon": -76.9584505}, {"rental_uris": {"android": "https://dc.lft.to/lastmile_qr_scan", "ios": "https://dc.lft.to/lastmile_qr_scan"}, "fusion_lat": 0.0, "is_reserved": 0, "lat": 38.887268, "name": "14681c5da67ba1b6ed8cffcb42dd400a", "bike_id": "14681c5da67ba1b6ed8cffcb42dd400a", "is_disabled": 0, "fusion_lon": 0.0, "type": "electric_scooter", "lon": -77.0318875}, {"rental_uris": {"android": "https://dc.lft.to/lastmile_qr_scan", "ios": "https://dc.lft.to/lastmile_qr_scan"}, "fusion_lat": 0.0, "is_reserved": 0, "lat": 38.945394, "name": "5e681be5feefc3213cbf0269904f5352", "bike_id": "5e681be5feefc3213cbf0269904f5352", "is_disabled": 0, "fusion_lon": 0.0, "type": "electric_bike", "lon": -77.34461166666667}, {"rental_uris": {"android": "https://dc.lft.to/lastmile_qr_scan", "ios": "https://dc.lft.to/lastmile_qr_scan"}, "fusion_lat": 0.0, "is_reserved": 0, "lat": 38.92601066666667, "name": "2ca86b5078ae47f76965c39a7efa2641", "bike_id": "2ca86b5078ae47f76965c39a7efa2641", "is_disabled": 0, "fusion_lon": 0.0, "type": "electric_scooter", "lon": -77.02157166666667}, {"rental_uris": {"android": "https://dc.lft.to/lastmile_qr_scan", "ios": "https://dc.lft.to/lastmile_qr_scan"}, "fusion_lat": 0.0, "is_reserved": 0, "lat": 38.9052155, "name": "7a705cdc5d11b052bc52095718e3c427", "bike_id": "7a705cdc5d11b052bc52095718e3c427", "is_disabled": 0, "fusion_lon": 0.0, "type": "electric_scooter", "lon": -77.04020533333333}, {"rental_uris": {"android": "https://dc.lft.to/lastmile_qr_scan", "ios": "https://dc.lft.to/lastmile_qr_scan"}, "fusion_lat": 0.0, "is_reserved": 0, "lat": 38.9086665, "name": "d56e835afcffacf75bcb294929d893a5", "bike_id": "d56e835afcffacf75bcb294929d893a5", "is_disabled": 0, "fusion_lon": 0.0, "type": "electric_scooter", "lon": -77.00362583333333}, {"rental_uris": {"android": "https://dc.lft.to/lastmile_qr_scan", "ios": "https://dc.lft.to/lastmile_qr_scan"}, "fusion_lat": 0.0, "is_reserved": 0, "lat": 38.915884, "name": "c7d62b3083637201eba6dd3fca76a196", "bike_id": "c7d62b3083637201eba6dd3fca76a196", "is_disabled": 0, "fusion_lon": 0.0, "type": "electric_scooter", "lon": -77.01242416666666}, {"rental_uris": {"android": "https://dc.lft.to/lastmile_qr_scan", "ios": "https://dc.lft.to/lastmile_qr_scan"}, "fusion_lat": 0.0, "is_reserved": 0, "lat": 38.98433033333333, "name": "4de30c2b135c2ef0d58795bb47d23812", "bike_id": "4de30c2b135c2ef0d58795bb47d23812", "is_disabled": 0, "fusion_lon": 0.0, "type": "electric_scooter", "lon": -77.0267465}, {"rental_uris": {"android": "https://dc.lft.to/lastmile_qr_scan", "ios": "https://dc.lft.to/lastmile_qr_scan"}, "fusion_lat": 0.0, "is_reserved": 0, "lat": 38.935130666666666, "name": "dd0b9a24d45bfab0644fd8f911b96622", "bike_id": "dd0b9a24d45bfab0644fd8f911b96622", "is_disabled": 0, "fusion_lon": 0.0, "type": "electric_scooter", "lon": -77.03288466666666}, {"rental_uris": {"android": "https://dc.lft.to/lastmile_qr_scan", "ios": "https://dc.lft.to/lastmile_qr_scan"}, "fusion_lat": 0.0, "is_reserved": 0, "lat": 38.884403, "name": "b9b81131b4d77420ab8a1c0ee77061d2", "bike_id": "b9b81131b4d77420ab8a1c0ee77061d2", "is_disabled": 0, "fusion_lon": 0.0, "type": "electric_scooter", "lon": -77.00347433333333}, {"rental_uris": {"android": "https://dc.lft.to/lastmile_qr_scan", "ios": "https://dc.lft.to/lastmile_qr_scan"}, "fusion_lat": 0.0, "is_reserved": 0, "lat": 38.8981395, "name": "192080cb11f932632ecb77e93f537df1", "bike_id": "192080cb11f932632ecb77e93f537df1", "is_disabled": 0, "fusion_lon": 0.0, "type": "electric_bike", "lon": -76.99063}, {"rental_uris": {"android": "https://dc.lft.to/lastmile_qr_scan", "ios": "https://dc.lft.to/lastmile_qr_scan"}, "fusion_lat": 0.0, "is_reserved": 0, "lat": 38.919705, "name": "70dc14c868c53e0d0af6b548dcdfabe4", "bike_id": "70dc14c868c53e0d0af6b548dcdfabe4", "is_disabled": 0, "fusion_lon": 0.0, "type": "electric_scooter", "lon": -77.04212516666666}, {"rental_uris": {"android": "https://dc.lft.to/lastmile_qr_scan", "ios": "https://dc.lft.to/lastmile_qr_scan"}, "fusion_lat": 0.0, "is_reserved": 0, "lat": 38.913915333333335, "name": "6c715106798335897c960320a1d95a4a", "bike_id": "6c715106798335897c960320a1d95a4a", "is_disabled": 0, "fusion_lon": 0.0, "type": "electric_scooter", "lon": -76.984163}, {"rental_uris": {"android": "https://dc.lft.to/lastmile_qr_scan", "ios": "https://dc.lft.to/lastmile_qr_scan"}, "fusion_lat": 0.0, "is_reserved": 0, "lat": 38.888779666666665, "name": "7cdbf791b8064213eaf53ed477997167", "bike_id": "7cdbf791b8064213eaf53ed477997167", "is_disabled": 0, "fusion_lon": 0.0, "type": "electric_scooter", "lon": -76.99027433333333}, {"rental_uris": {"android": "https://dc.lft.to/lastmile_qr_scan", "ios": "https://dc.lft.to/lastmile_qr_scan"}, "fusion_lat": 0.0, "is_reserved": 0, "lat": 38.94976966666667, "name": "05f8a50d9b4fd664fd1da3978534caf8", "bike_id": "05f8a50d9b4fd664fd1da3978534caf8", "is_disabled": 0, "fusion_lon": 0.0, "type": "electric_bike", "lon": -77.06642916666667}, {"rental_uris": {"android": "https://dc.lft.to/lastmile_qr_scan", "ios": "https://dc.lft.to/lastmile_qr_scan"}, "fusion_lat": 0.0, "is_reserved": 0, "lat": 38.8988405, "name": "f791998566e8a544cf28a72e03dc21fa", "bike_id": "f791998566e8a544cf28a72e03dc21fa", "is_disabled": 0, "fusion_lon": 0.0, "type": "electric_scooter", "lon": -77.04547466666666}, {"rental_uris": {"android": "https://dc.lft.to/lastmile_qr_scan", "ios": "https://dc.lft.to/lastmile_qr_scan"}, "fusion_lat": 0.0, "is_reserved": 0, "lat": 38.938540833333334, "name": "045e54e4571f02e0342665a19ac19f37", "bike_id": "045e54e4571f02e0342665a19ac19f37", "is_disabled": 0, "fusion_lon": 0.0, "type": "electric_scooter", "lon": -77.02471266666667}, {"rental_uris": {"android": "https://dc.lft.to/lastmile_qr_scan", "ios": "https://dc.lft.to/lastmile_qr_scan"}, "fusion_lat": 0.0, "is_reserved": 0, "lat": 38.88534083333333, "name": "7922fa8f3b884ecef76b31273258b0df", "bike_id": "7922fa8f3b884ecef76b31273258b0df", "is_disabled": 0, "fusion_lon": 0.0, "type": "electric_scooter", "lon": -76.980613}, {"rental_uris": {"android": "https://dc.lft.to/lastmile_qr_scan", "ios": "https://dc.lft.to/lastmile_qr_scan"}, "fusion_lat": 0.0, "is_reserved": 0, "lat": 38.8637465, "name": "83666a47f7dff3b4673a288b0f2c3a2e", "bike_id": "83666a47f7dff3b4673a288b0f2c3a2e", "is_disabled": 0, "fusion_lon": 0.0, "type": "electric_scooter", "lon": -76.99060066666667}, {"rental_uris": {"android": "https://dc.lft.to/lastmile_qr_scan", "ios": "https://dc.lft.to/lastmile_qr_scan"}, "fusion_lat": 0.0, "is_reserved": 0, "lat": 38.87633, "name": "0209165762c95c90da1ad7d27c9771a1", "bike_id": "0209165762c95c90da1ad7d27c9771a1", "is_disabled": 0, "fusion_lon": 0.0, "type": "electric_scooter", "lon": -77.00270616666667}, {"rental_uris": {"android": "https://dc.lft.to/lastmile_qr_scan", "ios": "https://dc.lft.to/lastmile_qr_scan"}, "fusion_lat": 0.0, "is_reserved": 0, "lat": 38.9018625, "name": "01b952dfd82e9c1096c93aed8cb872de", "bike_id": "01b952dfd82e9c1096c93aed8cb872de", "is_disabled": 0, "fusion_lon": 0.0, "type": "electric_scooter", "lon": -77.02094866666667}, {"rental_uris": {"android": "https://dc.lft.to/lastmile_qr_scan", "ios": "https://dc.lft.to/lastmile_qr_scan"}, "fusion_lat": 0.0, "is_reserved": 0, "lat": 38.90042916666667, "name": "cf7970235292038a0c46f34bc224738c", "bike_id": "cf7970235292038a0c46f34bc224738c", "is_disabled": 0, "fusion_lon": 0.0, "type": "electric_scooter", "lon": -76.98835266666667}, {"rental_uris": {"android": "https://dc.lft.to/lastmile_qr_scan", "ios": "https://dc.lft.to/lastmile_qr_scan"}, "fusion_lat": 0.0, "is_reserved": 0, "lat": 38.919572, "name": "6c8fd5b88f6512a293d2687b11bd5493", "bike_id": "6c8fd5b88f6512a293d2687b11bd5493", "is_disabled": 0, "fusion_lon": 0.0, "type": "electric_scooter", "lon": -77.0436005}, {"rental_uris": {"android": "https://dc.lft.to/lastmile_qr_scan", "ios": "https://dc.lft.to/lastmile_qr_scan"}, "fusion_lat": 0.0, "is_reserved": 0, "lat": 38.916564, "name": "0906c0d5e839cd66849cf5a21703f334", "bike_id": "0906c0d5e839cd66849cf5a21703f334", "is_disabled": 0, "fusion_lon": 0.0, "type": "electric_scooter", "lon": -77.02468133333333}, {"rental_uris": {"android": "https://dc.lft.to/lastmile_qr_scan", "ios": "https://dc.lft.to/lastmile_qr_scan"}, "fusion_lat": 0.0, "is_reserved": 0, "lat": 38.92477266666667, "name": "419a58328fd469c1b9cae02d6fff32f3", "bike_id": "419a58328fd469c1b9cae02d6fff32f3", "is_disabled": 0, "fusion_lon": 0.0, "type": "electric_scooter", "lon": -77.03501766666666}, {"rental_uris": {"android": "https://dc.lft.to/lastmile_qr_scan", "ios": "https://dc.lft.to/lastmile_qr_scan"},