{"data": {"bikes": [{"is_reserved": 0, "bike_id": "8c3a8b6dcda0f660da06e79e26cab5a3", "type": "electric_scooter", "name": "8c3a8b6dcda0f660da06e79e26cab5a3", "is_disabled": 0, "fusion_lon": 0.0, "rental_uris": {"android": "https://dc.lft.to/lastmile_qr_scan", "ios": "https://dc.lft.to/lastmile_qr_scan"}, "lat": 38.9130065, "lon": -77.0426355, "fusion_lat": 0.0}, {"is_reserved": 0, "bike_id": "6ba4feb14ad2d7bdc20cd1e4255c8cbe", "type": "electric_scooter", "name": "6ba4feb14ad2d7bdc20cd1e4255c8cbe", "is_disabled": 0, "fusion_lon": 0.0, "rental_uris": {"android": "https://dc.lft.to/lastmile_qr_scan", "ios": "https://dc.lft.to/lastmile_qr_scan"}, "lat": 38.89629766666667, "lon": -77.03324216666667, "fusion_lat": 0.0}, {"is_reserved": 0, "bike_id": "902f6da3b25509d485a1f1fdcf38dd73", "type": "electric_scooter", "name": "902f6da3b25509d485a1f1fdcf38dd73", "is_disabled": 0, "fusion_lon": 0.0, "rental_uris": {"android": "https://dc.lft.to/lastmile_qr_scan", "ios": "https://dc.lft.to/lastmile_qr_scan"}, "lat": 38.9064485, "lon": -77.0169255, "fusion_lat": 0.0}, {"is_reserved": 0, "bike_id": "e45731ee630d704dd30b63a4f88f24e9", "type": "electric_scooter", "name": "e45731ee630d704dd30b63a4f88f24e9", "is_disabled": 0, "fusion_lon": 0.0, "rental_uris": {"android": "https://dc.lft.to/lastmile_qr_scan", "ios": "https://dc.lft.to/lastmile_qr_scan"}, "lat": 38.91096266666667, "lon": -77.025485, "fusion_lat": 0.0}, {"is_reserved": 0, "bike_id": "35da7889cc8ba5ec1e6996d5f9ad3acd", "type": "electric_scooter", "name": "35da7889cc8ba5ec1e6996d5f9ad3acd", "is_disabled": 0, "fusion_lon": 0.0, "rental_uris": {"android": "https://dc.lft.to/lastmile_qr_scan", "ios": "https://dc.lft.to/lastmile_qr_scan"}, "lat": 38.911402833333334, "lon": -77.02194516666667, "fusion_lat": 0.0}, {"is_reserved": 0, "bike_id": "b6763ba8ed2ec0035b471544bcc92d2c", "type": "electric_scooter", "name": "b6763ba8ed2ec0035b471544bcc92d2c", "is_disabled": 0, "fusion_lon": 0.0, "rental_uris": {"android": "https://dc.lft.to/lastmile_qr_scan", "ios": "https://dc.lft.to/lastmile_qr_scan"}, "lat": 38.9489515, "lon": -77.06464683333333, "fusion_lat": 0.0}, {"is_reserved": 0, "bike_id": "444489465d5066539ca07f0ce11aec78", "type": "electric_scooter", "name": "444489465d5066539ca07f0ce11aec78", "is_disabled": 0, "fusion_lon": 0.0, "rental_uris": {"android": "https://dc.lft.to/lastmile_qr_scan", "ios": "https://dc.lft.to/lastmile_qr_scan"}, "lat": 38.886029666666666, "lon": -76.92500033333333, "fusion_lat": 0.0}, {"is_reserved": 0, "bike_id": "5d00a13f1ad982ec4f44a0a2045d7fa3", "type": "electric_scooter", "name": "5d00a13f1ad982ec4f44a0a2045d7fa3", "is_disabled": 0, "fusion_lon": 0.0, "rental_uris": {"android": "https://dc.lft.to/lastmile_qr_scan", "ios": "https://dc.lft.to/lastmile_qr_scan"}, "lat": 38.8972385, "lon": -76.9835975, "fusion_lat": 0.0}, {"is_reserved": 0, "bike_id": "3e6e80c061ec0433456992e2f9fc75d8", "type": "electric_scooter", "name": "3e6e80c061ec0433456992e2f9fc75d8", "is_disabled": 0, "fusion_lon": 0.0, "rental_uris": {"android": "https://dc.lft.to/lastmile_qr_scan", "ios": "https://dc.lft.to/lastmile_qr_scan"}, "lat": 38.87632683333333, "lon": -77.00956416666666, "fusion_lat": 0.0}, {"is_reserved": 0, "bike_id": "f05614000286f6a95144ae5c638c0494", "type": "electric_scooter", "name": "f05614000286f6a95144ae5c638c0494", "is_disabled": 0, "fusion_lon": 0.0, "rental_uris": {"android": "https://dc.lft.to/lastmile_qr_scan", "ios": "https://dc.lft.to/lastmile_qr_scan"}, "lat": 38.90143166666667, "lon": -77.05915333333333, "fusion_lat": 0.0}, {"is_reserved": 0, "bike_id": "67b782b0d0b38c271851e1ba9d2c0914", "type": "electric_scooter", "name": "67b782b0d0b38c271851e1ba9d2c0914", "is_disabled": 0, "fusion_lon": 0.0, "rental_uris": {"android": "https://dc.lft.to/lastmile_qr_scan", "ios": "https://dc.lft.to/lastmile_qr_scan"}, "lat": 38.88129983333333, "lon": -76.993432, "fusion_lat": 0.0}, {"is_reserved": 0, "bike_id": "49ac84d7b5691bde5f5d7e1fe32944b0", "type": "electric_scooter", "name": "49ac84d7b5691bde5f5d7e1fe32944b0", "is_disabled": 0, "fusion_lon": 0.0, "rental_uris": {"android": "https://dc.lft.to/lastmile_qr_scan", "ios": "https://dc.lft.to/lastmile_qr_scan"}, "lat": 38.898491, "lon": -77.0138155, "fusion_lat": 0.0}, {"is_reserved": 0, "bike_id": "12aaf6a60bf91d91429134ea4ff53216", "type": "electric_scooter", "name": "12aaf6a60bf91d91429134ea4ff53216", "is_disabled": 0, "fusion_lon": 0.0, "rental_uris": {"android": "https://dc.lft.to/lastmile_qr_scan", "ios": "https://dc.lft.to/lastmile_qr_scan"}, "lat": 38.914710166666666, "lon": -77.0454415, "fusion_lat": 0.0}, {"is_reserved": 0, "bike_id": "543da078c2ba266ea24466b7a6e4be33", "type": "electric_scooter", "name": "543da078c2ba266ea24466b7a6e4be33", "is_disabled": 0, "fusion_lon": 0.0, "rental_uris": {"android": "https://dc.lft.to/lastmile_qr_scan", "ios": "https://dc.lft.to/lastmile_qr_scan"}, "lat": 38.91197366666667, "lon": -77.00728416666666, "fusion_lat": 0.0}, {"is_reserved": 0, "bike_id": "6b2f01e32f6c4fe073906f387086a210", "type": "electric_scooter", "name": "6b2f01e32f6c4fe073906f387086a210", "is_disabled": 0, "fusion_lon": 0.0, "rental_uris": {"android": "https://dc.lft.to/lastmile_qr_scan", "ios": "https://dc.lft.to/lastmile_qr_scan"}, "lat": 38.92663133333333, "lon": -76.99550083333334, "fusion_lat": 0.0}, {"is_reserved": 0, "bike_id": "0afece850147ba98e83b6d7207e8dc1c", "type": "electric_bike", "name": "0afece850147ba98e83b6d7207e8dc1c", "is_disabled": 0, "fusion_lon": 0.0, "rental_uris": {"android": "https://dc.lft.to/lastmile_qr_scan", "ios": "https://dc.lft.to/lastmile_qr_scan"}, "lat": 38.906948666666665, "lon": -76.95254016666667, "fusion_lat": 0.0}, {"is_reserved": 0, "bike_id": "793ca84f203e643832f0d4fd0a3300bb", "type": "electric_scooter", "name": "793ca84f203e643832f0d4fd0a3300bb", "is_disabled": 0, "fusion_lon": 0.0, "rental_uris": {"android": "https://dc.lft.to/lastmile_qr_scan", "ios": "https://dc.lft.to/lastmile_qr_scan"}, "lat": 38.893574, "lon": -77.00339283333334, "fusion_lat": 0.0}, {"is_reserved": 0, "bike_id": "16185ac8ecaef2a5a727379363634481", "type": "electric_scooter", "name": "16185ac8ecaef2a5a727379363634481", "is_disabled": 0, "fusion_lon": 0.0, "rental_uris": {"android": "https://dc.lft.to/lastmile_qr_scan", "ios": "https://dc.lft.to/lastmile_qr_scan"}, "lat": 38.923636, "lon": -77.0340175, "fusion_lat": 0.0}, {"is_reserved": 0, "bike_id": "71c186e85698ed30621af7b43cabbbb6", "type": "electric_scooter", "name": "71c186e85698ed30621af7b43cabbbb6", "is_disabled": 0, "fusion_lon": 0.0, "rental_uris": {"android": "https://dc.lft.to/lastmile_qr_scan", "ios": "https://dc.lft.to/lastmile_qr_scan"}, "lat": 38.89551566666667, "lon": -77.00920233333333, "fusion_lat": 0.0}, {"is_reserved": 0, "bike_id": "9ff91c5c4e2780e679a2cb8a61d974d7", "type": "electric_scooter", "name": "9ff91c5c4e2780e679a2cb8a61d974d7", "is_disabled": 0, "fusion_lon": 0.0, "rental_uris": {"android": "https://dc.lft.to/lastmile_qr_scan", "ios": "https://dc.lft.to/lastmile_qr_scan"}, "lat": 38.922500666666664, "lon": -77.0337205, "fusion_lat": 0.0}, {"is_reserved": 0, "bike_id": "9fb543d1e50808b061a0a549ae9bffe1", "type": "electric_scooter", "name": "9fb543d1e50808b061a0a549ae9bffe1", "is_disabled": 0, "fusion_lon": 0.0, "rental_uris": {"android": "https://dc.lft.to/lastmile_qr_scan", "ios": "https://dc.lft.to/lastmile_qr_scan"}, "lat": 38.93621016666667, "lon": -77.032817, "fusion_lat": 0.0}, {"is_reserved": 0, "bike_id": "58ee65d069a457ad13c158d8dccb3e45", "type": "electric_scooter", "name": "58ee65d069a457ad13c158d8dccb3e45", "is_disabled": 0, "fusion_lon": 0.0, "rental_uris": {"android": "https://dc.lft.to/lastmile_qr_scan", "ios": "https://dc.lft.to/lastmile_qr_scan"}, "lat": 38.931937833333336, "lon": -77.037497, "fusion_lat": 0.0}, {"is_reserved": 0, "bike_id": "ccad1878b07585e49c170e432e96d122", "type": "electric_scooter", "name": "ccad1878b07585e49c170e432e96d122", "is_disabled": 0, "fusion_lon": 0.0, "rental_uris": {"android": "https://dc.lft.to/lastmile_qr_scan", "ios": "https://dc.lft.to/lastmile_qr_scan"}, "lat": 38.909646333333335, "lon": -77.04017233333333, "fusion_lat": 0.0}, {"is_reserved": 0, "bike_id": "a2459926ba32b8e78c7a2cd2f497be4d", "type": "electric_scooter", "name": "a2459926ba32b8e78c7a2cd2f497be4d", "is_disabled": 0, "fusion_lon": 0.0, "rental_uris": {"android": "https://dc.lft.to/lastmile_qr_scan", "ios": "https://dc.lft.to/lastmile_qr_scan"}, "lat": 38.90254316666667, "lon": -77.06152616666667, "fusion_lat": 0.0}, {"is_reserved": 0, "bike_id": "9a91027e9cf87b8090336c1c92b7c9f7", "type": "electric_scooter", "name": "9a91027e9cf87b8090336c1c92b7c9f7", "is_disabled": 0, "fusion_lon": 0.0, "rental_uris": {"android": "https://dc.lft.to/lastmile_qr_scan", "ios": "https://dc.lft.to/lastmile_qr_scan"}, "lat": 38.9178005, "lon": -77.04770933333333, "fusion_lat": 0.0}, {"is_reserved": 0, "bike_id": "96098133bebc232e8607e33ed1a276a4", "type": "electric_scooter", "name": "96098133bebc232e8607e33ed1a276a4", "is_disabled": 0, "fusion_lon": 0.0, "rental_uris": {"android": "https://dc.lft.to/lastmile_qr_scan", "ios": "https://dc.lft.to/lastmile_qr_scan"}, "lat": 38.90433016666667, "lon": -77.02841566666666, "fusion_lat": 0.0}, {"is_reserved": 0, "bike_id": "bf04b66af853b6175b28a6b3abdb22de", "type": "electric_scooter", "name": "bf04b66af853b6175b28a6b3abdb22de", "is_disabled": 0, "fusion_lon": 0.0, "rental_uris": {"android": "https://dc.lft.to/lastmile_qr_scan", "ios": "https://dc.lft.to/lastmile_qr_scan"}, "lat": 38.90362316666667, "lon": -77.01880133333333, "fusion_lat": 0.0}, {"is_reserved": 0, "bike_id": "ccbdfbfa71a4e89e1b53526cba1c598f", "type": "electric_scooter", "name": "ccbdfbfa71a4e89e1b53526cba1c598f", "is_disabled": 0, "fusion_lon": 0.0, "rental_uris": {"android": "https://dc.lft.to/lastmile_qr_scan", "ios": "https://dc.lft.to/lastmile_qr_scan"}, "lat": 38.920977666666666, "lon": -77.03165283333334, "fusion_lat": 0.0}, {"is_reserved": 0, "bike_id": "1d16d5fe5a7ca125f695f696a0e70068", "type": "electric_scooter", "name": "1d16d5fe5a7ca125f695f696a0e70068", "is_disabled": 0, "fusion_lon": 0.0, "rental_uris": {"android": "https://dc.lft.to/lastmile_qr_scan", "ios": "https://dc.lft.to/lastmile_qr_scan"}, "lat": 38.92290233333333, "lon": -77.04272983333334, "fusion_lat": 0.0}, {"is_reserved": 0, "bike_id": "62790dfe47078665fe26a69121219e6d", "type": "electric_scooter", "name": "62790dfe47078665fe26a69121219e6d", "is_disabled": 0, "fusion_lon": 0.0, "rental_uris": {"android": "https://dc.lft.to/lastmile_qr_scan", "ios": "https://dc.lft.to/lastmile_qr_scan"}, "lat": 38.935264833333335, "lon": -77.03681416666667, "fusion_lat": 0.0}, {"is_reserved": 0, "bike_id": "69c4777db72b7da656e5d4a6e406d863", "type": "electric_scooter", "name": "69c4777db72b7da656e5d4a6e406d863", "is_disabled": 0, "fusion_lon": 0.0, "rental_uris": {"android": "https://dc.lft.to/lastmile_qr_scan", "ios": "https://dc.lft.to/lastmile_qr_scan"}, "lat": 38.90305716666667, "lon": -77.03061633333333, "fusion_lat": 0.0}, {"is_reserved": 0, "bike_id": "6ffe4cebe295fa98f4b2e54937e89ed8", "type": "electric_scooter", "name": "6ffe4cebe295fa98f4b2e54937e89ed8", "is_disabled": 0, "fusion_lon": 0.0, "rental_uris": {"android": "https://dc.lft.to/lastmile_qr_scan", "ios": "https://dc.lft.to/lastmile_qr_scan"}, "lat": 38.937298, "lon": -77.01910583333333, "fusion_lat": 0.0}, {"is_reserved": 0, "bike_id": "72f3441e7b7c423861b335e578051a17", "type": "electric_scooter", "name": "72f3441e7b7c423861b335e578051a17", "is_disabled": 0, "fusion_lon": 0.0, "rental_uris": {"android": "https://dc.lft.to/lastmile_qr_scan", "ios": "https://dc.lft.to/lastmile_qr_scan"}, "lat": 38.895299, "lon": -77.03350933333333, "fusion_lat": 0.0}, {"is_reserved": 0, "bike_id": "3eeab6a6146084478e68e8791e09d4bc", "type": "electric_scooter", "name": "3eeab6a6146084478e68e8791e09d4bc", "is_disabled": 0, "fusion_lon": 0.0, "rental_uris": {"android": "https://dc.lft.to/lastmile_qr_scan", "ios": "https://dc.lft.to/lastmile_qr_scan"}, "lat": 38.916314, "lon": -77.02235483333334, "fusion_lat": 0.0}, {"is_reserved": 0, "bike_id": "6baf3104cbc1fb159e019f896e80588c", "type": "electric_scooter", "name": "6baf3104cbc1fb159e019f896e80588c", "is_disabled": 0, "fusion_lon": 0.0, "rental_uris": {"android": "https://dc.lft.to/lastmile_qr_scan", "ios": "https://dc.lft.to/lastmile_qr_scan"}, "lat": 38.90716333333334, "lon": -76.93009933333333, "fusion_lat": 0.0}, {"is_reserved": 0, "bike_id": "e878e0a808de5eca9a040c0d85291d6e", "type": "electric_scooter", "name": "e878e0a808de5eca9a040c0d85291d6e", "is_disabled": 0, "fusion_lon": 0.0, "rental_uris": {"android": "https://dc.lft.to/lastmile_qr_scan", "ios": "https://dc.lft.to/lastmile_qr_scan"}, "lat": 38.9347335, "lon": -77.072728, "fusion_lat": 0.0}, {"is_reserved": 0, "bike_id": "9634a3e91aa392d3f6172b1581ee57ea", "type": "electric_scooter", "name": "9634a3e91aa392d3f6172b1581ee57ea", "is_disabled": 0, "fusion_lon": 0.0, "rental_uris": {"android": "https://dc.lft.to/lastmile_qr_scan", "ios": "https://dc.lft.to/lastmile_qr_scan"}, "lat": 38.89114383333333, "lon": -76.9438185, "fusion_lat": 0.0}, {"is_reserved": 0, "bike_id": "45abdcfac58722eac66fbeea5610ba81", "type": "electric_scooter", "name": "45abdcfac58722eac66fbeea5610ba81", "is_disabled": 0, "fusion_lon": 0.0, "rental_uris": {"android": "https://dc.lft.to/lastmile_qr_scan", "ios": "https://dc.lft.to/lastmile_qr_scan"}, "lat": 38.920620666666665, "lon": -77.03191516666666, "fusion_lat": 0.0}, {"is_reserved": 0, "bike_id": "2dd3e736264b17fd3d311819e41f51e3", "type": "electric_scooter", "name": "2dd3e736264b17fd3d311819e41f51e3", "is_disabled": 0, "fusion_lon": 0.0, "rental_uris": {"android": "https://dc.lft.to/lastmile_qr_scan", "ios": "https://dc.lft.to/lastmile_qr_scan"}, "lat": 38.89903266666666, "lon": -77.03912566666666, "fusion_lat": 0.0}, {"is_reserved": 0, "bike_id": "0646d841323e790c2a5a7759fff4951b", "type": "electric_scooter", "name": "0646d841323e790c2a5a7759fff4951b", "is_disabled": 0, "fusion_lon": 0.0, "rental_uris": {"android": "https://dc.lft.to/lastmile_qr_scan", "ios": "https://dc.lft.to/lastmile_qr_scan"}, "lat": 38.914116166666666, "lon": -77.0128705, "fusion_lat": 0.0}, {"is_reserved": 0, "bike_id": "3c4808698dd4ac1029f3adffb0cec334", "type": "electric_bike", "name": "3c4808698dd4ac1029f3adffb0cec334", "is_disabled": 0, "fusion_lon": 0.0, "rental_uris": {"android": "https://dc.lft.to/lastmile_qr_scan", "ios": "https://dc.lft.to/lastmile_qr_scan"}, "lat": 38.838113166666666, "lon": -77.0951815, "fusion_lat": 0.0}, {"is_reserved": 0, "bike_id": "3484482c7e716b35844c9692913390e1", "type": "electric_scooter", "name": "3484482c7e716b35844c9692913390e1", "is_disabled": 0, "fusion_lon": 0.0, "rental_uris": {"android": "https://dc.lft.to/lastmile_qr_scan", "ios": "https://dc.lft.to/lastmile_qr_scan"}, "lat": 38.914088666666665, "lon": -77.01807166666667, "fusion_lat": 0.0}, {"is_reserved": 0, "bike_id": "b54e9dfcb9bc92d5d93ca71a544e8320", "type": "electric_scooter", "name": "b54e9dfcb9bc92d5d93ca71a544e8320", "is_disabled": 0, "fusion_lon": 0.0, "rental_uris": {"android": "https://dc.lft.to/lastmile_qr_scan", "ios": "https://dc.lft.to/lastmile_qr_scan"}, "lat": 38.892729833333334, "lon": -77.048719, "fusion_lat": 0.0}, {"is_reserved": 0, "bike_id": "a73e9c208e82d9567600e564841efcc5", "type": "electric_scooter", "name": "a73e9c208e82d9567600e564841efcc5", "is_disabled": 0, "fusion_lon": 0.0, "rental_uris": {"android": "https://dc.lft.to/lastmile_qr_scan", "ios": "https://dc.lft.to/lastmile_qr_scan"}, "lat": 38.88506366666667, "lon": -77.005687, "fusion_lat": 0.0}, {"is_reserved": 0, "bike_id": "236ab7bf361b6b2e78eeebeab6ac239a", "type": "electric_bike", "name": "236ab7bf361b6b2e78eeebeab6ac239a", "is_disabled": 0, "fusion_lon": 0.0, "rental_uris": {"android": "https://dc.lft.to/lastmile_qr_scan", "ios": "https://dc.lft.to/lastmile_qr_scan"}, "lat": 38.836105, "lon": -77.00378916666666, "fusion_lat": 0.0}, {"is_reserved": 0, "bike_id": "3351d56451d6da22e83b815c230e7ba2", "type": "electric_scooter", "name": "3351d56451d6da22e83b815c230e7ba2", "is_disabled": 0, "fusion_lon": 0.0, "rental_uris": {"android": "https://dc.lft.to/lastmile_qr_scan", "ios": "https://dc.lft.to/lastmile_qr_scan"}, "lat": 38.94739666666667, "lon": -77.02366583333334, "fusion_lat": 0.0}, {"is_reserved": 0, "bike_id": "c50ec3722dc70e129473a6aaa4e28177", "type": "electric_scooter", "name": "c50ec3722dc70e129473a6aaa4e28177", "is_disabled": 0, "fusion_lon": 0.0, "rental_uris": {"android": "https://dc.lft.to/lastmile_qr_scan", "ios": "https://dc.lft.to/lastmile_qr_scan"}, "lat": 38.904677166666666, "lon": -77.01634266666667, "fusion_lat": 0.0}, {"is_reserved": 0, "bike_id": "495e48cb804f65c34e2808651bb110f4", "type": "electric_scooter", "name": "495e48cb804f65c34e2808651bb110f4", "is_disabled": 0, "fusion_lon": 0.0, "rental_uris": {"android": "https://dc.lft.to/lastmile_qr_scan", "ios": "https://dc.lft.to/lastmile_qr_scan"}, "lat": 38.897415, "lon": -77.00780266666666, "fusion_lat": 0.0}, {"is_reserved": 0, "bike_id": "122ef4b8186ab5603ebddf1b20787ec6", "type": "electric_scooter", "name": "122ef4b8186ab5603ebddf1b20787ec6", "is_disabled": 0, "fusion_lon": 0.0, "rental_uris": {"android": "https://dc.lft.to/lastmile_qr_scan", "ios": "https://dc.lft.to/lastmile_qr_scan"}, "lat": 38.89926083333334, "lon": -77.027839, "fusion_lat": 0.0}, {"is_reserved": 0, "bike_id": "76d9dd903dafceaccc09245008906230", "type": "electric_scooter", "name": "76d9dd903dafceaccc09245008906230", "is_disabled": 0, "fusion_lon": 0.0, "rental_uris": {"android": "https://dc.lft.to/lastmile_qr_scan", "ios": "https://dc.lft.to/lastmile_qr_scan"}, "lat": 38.8972735, "lon": -77.0268155, "fusion_lat": 0.0}, {"is_reserved": 0, "bike_id": "fdcd5ade289b1333f47b9e83d1429d12", "type": "electric_scooter", "name": "fdcd5ade289b1333f47b9e83d1429d12", "is_disabled": 0, "fusion_lon": 0.0, "rental_uris": {"android": "https://dc.lft.to/lastmile_qr_scan", "ios": "https://dc.lft.to/lastmile_qr_scan"}, "lat": 38.931868333333334, "lon": -77.03866783333334, "fusion_lat": 0.0}, {"is_reserved": 0, "bike_id": "36221ba5bf25015b6054458a8db3fd7c", "type": "electric_bike", "name": "36221ba5bf25015b6054458a8db3fd7c", "is_disabled": 0, "fusion_lon": 0.0, "rental_uris": {"android": "https://dc.lft.to/lastmile_qr_scan", "ios": "https://dc.lft.to/lastmile_qr_scan"}, "lat": 38.838119, "lon": -77.00272433333333, "fusion_lat": 0.0}, {"is_reserved": 0, "bike_id": "9cfd654cc84814c97566e021d7fa7b62", "type": "electric_scooter", "name": "9cfd654cc84814c97566e021d7fa7b62", "is_disabled": 0, "fusion_lon": 0.0, "rental_uris": {"android": "https://dc.lft.to/lastmile_qr_scan", "ios": "https://dc.lft.to/lastmile_qr_scan"}, "lat": 38.915898, "lon": -77.01454266666667, "fusion_lat": 0.0}, {"is_reserved": 0, "bike_id": "e16226b3f4b2f486446cd42d103f7957", "type": "electric_scooter", "name": "e16226b3f4b2f486446cd42d103f7957", "is_disabled": 0, "fusion_lon": 0.0, "rental_uris": {"android": "https://dc.lft.to/lastmile_qr_scan", "ios": "https://dc.lft.to/lastmile_qr_scan"}, "lat": 38.9193605, "lon": -77.03431583333334, "fusion_lat": 0.0}, {"is_reserved": 0, "bike_id": "6de2dfff4a17738047fe41dbfbe230fb", "type": "electric_scooter", "name": "6de2dfff4a17738047fe41dbfbe230fb", "is_disabled": 0, "fusion_lon": 0.0, "rental_uris": {"android": "https://dc.lft.to/lastmile_qr_scan", "ios": "https://dc.lft.to/lastmile_qr_scan"}, "lat": 38.96650916666667, "lon": -77.02747583333333, "fusion_lat": 0.0}, {"is_reserved": 0, "bike_id": "50171348d410af65be1c74ee375e64dd", "type": "electric_scooter", "name": "50171348d410af65be1c74ee375e64dd", "is_disabled": 0, "fusion_lon": 0.0, "rental_uris": {"android": "https://dc.lft.to/lastmile_qr_scan", "ios": "https://dc.lft.to/lastmile_qr_scan"}, "lat": 38.92100416666667, "lon": -77.02502333333334, "fusion_lat": 0.0}, {"is_reserved": 0, "bike_id": "5df897880598796d82a85a460de8bba1", "type": "electric_scooter", "name": "5df897880598796d82a85a460de8bba1", "is_disabled": 0, "fusion_lon": 0.0, "rental_uris": {"android": "https://dc.lft.to/lastmile_qr_scan", "ios": "https://dc.lft.to/lastmile_qr_scan"}, "lat": 38.908969166666665, "lon": -76.998967, "fusion_lat": 0.0}, {"is_reserved": 0, "bike_id": "4b667fc326c7494e0f1c51024178ad57", "type": "electric_bike", "name": "4b667fc326c7494e0f1c51024178ad57", "is_disabled": 0, "fusion_lon": 0.0, "rental_uris": {"android": "https://dc.lft.to/lastmile_qr_scan", "ios": "https://dc.lft.to/lastmile_qr_scan"}, "lat": 38.99227316666666, "lon": -77.03583266666666, "fusion_lat": 0.0}, {"is_reserved": 0, "bike_id": "10336b61df35c38ab24bcb9c13f4fc3c", "type": "electric_scooter", "name": "10336b61df35c38ab24bcb9c13f4fc3c", "is_disabled": 0, "fusion_lon": 0.0, "rental_uris": {"android": "https://dc.lft.to/lastmile_qr_scan", "ios": "https://dc.lft.to/lastmile_qr_scan"}, "lat": 38.89143333333333, "lon": -76.99030016666667, "fusion_lat": 0.0}, {"is_reserved": 0, "bike_id": "9b7cb4d1d1e8c2b550a2d45d87c095ef", "type": "electric_scooter", "name": "9b7cb4d1d1e8c2b550a2d45d87c095ef", "is_disabled": 0, "fusion_lon": 0.0, "rental_uris": {"android": "https://dc.lft.to/lastmile_qr_scan", "ios": "https://dc.lft.to/lastmile_qr_scan"}, "lat": 38.9353275, "lon": -77.02347533333334, "fusion_lat": 0.0}, {"is_reserved": 0, "bike_id": "8ec191c7941eed6271a8b2ed35278fec", "type": "electric_scooter", "name": "8ec191c7941eed6271a8b2ed35278fec", "is_disabled": 0, "fusion_lon": 0.0, "rental_uris": {"android": "https://dc.lft.to/lastmile_qr_scan", "ios": "https://dc.lft.to/lastmile_qr_scan"}, "lat": 38.9185475, "lon": -77.012932, "fusion_lat": 0.0}, {"is_reserved": 0, "bike_id": "20bde2c9cf3526127ade53da92a1b050", "type": "electric_scooter", "name": "20bde2c9cf3526127ade53da92a1b050", "is_disabled": 0, "fusion_lon": 0.0, "rental_uris": {"android": "https://dc.lft.to/lastmile_qr_scan", "ios": "https://dc.lft.to/lastmile_qr_scan"}, "lat": 38.9192675, "lon": -77.07992566666667, "fusion_lat": 0.0}, {"is_reserved": 0, "bike_id": "55182e09bbfd0793716eb8153ff6a999", "type": "electric_scooter", "name": "55182e09bbfd0793716eb8153ff6a999", "is_disabled": 0, "fusion_lon": 0.0, "rental_uris": {"android": "https://dc.lft.to/lastmile_qr_scan", "ios": "https://dc.lft.to/lastmile_qr_scan"}, "lat": 38.91186733333333, "lon": -77.03264883333334, "fusion_lat": 0.0}, {"is_reserved": 0, "bike_id": "a1ab5010f99e09d60e76e27574de773c", "type": "electric_scooter", "name": "a1ab5010f99e09d60e76e27574de773c", "is_disabled": 0, "fusion_lon": 0.0, "rental_uris": {"android": "https://dc.lft.to/lastmile_qr_scan", "ios": "https://dc.lft.to/lastmile_qr_scan"}, "lat": 38.900907, "lon": -76.98337666666667, "fusion_lat": 0.0}, {"is_reserved": 0, "bike_id": "39a6e1f1e50fef2b3853a7cebcc9b407", "type": "electric_scooter", "name": "39a6e1f1e50fef2b3853a7cebcc9b407", "is_disabled": 0, "fusion_lon": 0.0, "rental_uris": {"android": "https://dc.lft.to/lastmile_qr_scan", "ios": "https://dc.lft.to/lastmile_qr_scan"}, "lat": 38.90414, "lon": -76.97329066666667, "fusion_lat": 0.0}, {"is_reserved": 0, "bike_id": "defe6e67356eab7d757d406f22b14ebb", "type": "electric_scooter", "name": "defe6e67356eab7d757d406f22b14ebb", "is_disabled": 0, "fusion_lon": 0.0, "rental_uris": {"android": "https://dc.lft.to/lastmile_qr_scan", "ios": "https://dc.lft.to/lastmile_qr_scan"}, "lat": 38.912355833333336, "lon": -77.0188665, "fusion_lat": 0.0}, {"is_reserved": 0, "bike_id": "e33a6679c0604a733e1bf57dd15f0350", "type": "electric_bike", "name": "e33a6679c0604a733e1bf57dd15f0350", "is_disabled": 0, "fusion_lon": 0.0, "rental_uris": {"android": "https://dc.lft.to/lastmile_qr_scan", "ios": "https://dc.lft.to/lastmile_qr_scan"}, "lat": 38.9472515, "lon": -77.02582983333333, "fusion_lat": 0.0}, {"is_reserved": 0, "bike_id": "c35dca36e5abb5fcafd72fec6825ffd9", "type": "electric_scooter", "name": "c35dca36e5abb5fcafd72fec6825ffd9", "is_disabled": 0, "fusion_lon": 0.0, "rental_uris": {"android": "https://dc.lft.to/lastmile_qr_scan", "ios": "https://dc.lft.to/lastmile_qr_scan"}, "lat": 38.9027465, "lon": -77.001743, "fusion_lat": 0.0}, {"is_reserved": 0, "bike_id": "37d7bf6e5e2d075ea7a6878bb0f8e636", "type": "electric_scooter", "name": "37d7bf6e5e2d075ea7a6878bb0f8e636", "is_disabled": 0, "fusion_lon": 0.0, "rental_uris": {"android": "https://dc.lft.to/lastmile_qr_scan", "ios": "https://dc.lft.to/lastmile_qr_scan"}, "lat": 38.928472666666664, "lon": -77.03297066666667, "fusion_lat": 0.0}, {"is_reserved": 0, "bike_id": "e411b01864305ccd5ae398c643cdbabc", "type": "electric_scooter", "name": "e411b01864305ccd5ae398c643cdbabc", "is_disabled": 0, "fusion_lon": 0.0, "rental_uris": {"android": "https://dc.lft.to/lastmile_qr_scan", "ios": "https://dc.lft.to/lastmile_qr_scan"}, "lat": 38.91536283333333, "lon": -77.04469983333334, "fusion_lat": 0.0}, {"is_reserved": 0, "bike_id": "8e9ef8252ba341ca5ce0797e76c83a3d", "type": "electric_scooter", "name": "8e9ef8252ba341ca5ce0797e76c83a3d", "is_disabled": 0, "fusion_lon": 0.0, "rental_uris": {"android": "https://dc.lft.to/lastmile_qr_scan", "ios": "https://dc.lft.to/lastmile_qr_scan"}, "lat": 38.94420133333333, "lon": -77.06338466666666, "fusion_lat": 0.0}, {"is_reserved": 0, "bike_id": "9549a2f17f28af373b9758f4613eaa9a", "type": "electric_scooter", "name": "9549a2f17f28af373b9758f4613eaa9a", "is_disabled": 0, "fusion_lon": 0.0, "rental_uris": {"android": "https://dc.lft.to/lastmile_qr_scan", "ios": "https://dc.lft.to/lastmile_qr_scan"}, "lat": 38.899857833333336, "lon": -76.99486416666667, "fusion_lat": 0.0}, {"is_reserved": 0, "bike_id": "e4c6f013312325426e52249a9e80ece6", "type": "electric_scooter", "name": "e4c6f013312325426e52249a9e80ece6", "is_disabled": 0, "fusion_lon": 0.0, "rental_uris": {"android": "https://dc.lft.to/lastmile_qr_scan", "ios": "https://dc.lft.to/lastmile_qr_scan"}, "lat": 38.94453983333333, "lon": -77.06346616666667, "fusion_lat": 0.0}, {"is_reserved": 0, "bike_id": "3ef3592d1f07348d9f6167a775b08d31", "type": "electric_scooter", "name": "3ef3592d1f07348d9f6167a775b08d31", "is_disabled": 0, "fusion_lon": 0.0, "rental_uris": {"android": "https://dc.lft.to/lastmile_qr_scan", "ios": "https://dc.lft.to/lastmile_qr_scan"}, "lat": 38.91807583333333, "lon": -77.0682515, "fusion_lat": 0.0}, {"is_reserved": 0, "bike_id": "264df4e54a601a0a4d51695f9ceb4447", "type": "electric_scooter", "name": "264df4e54a601a0a4d51695f9ceb4447", "is_disabled": 0, "fusion_lon": 0.0, "rental_uris": {"android": "https://dc.lft.to/lastmile_qr_scan", "ios": "https://dc.lft.to/lastmile_qr_scan"}, "lat": 38.965055, "lon": -77.06283666666667, "fusion_lat": 0.0}, {"is_reserved": 0, "bike_id": "5abe739ff435fd8c18e5dce8c6d00ed5", "type": "electric_scooter", "name": "5abe739ff435fd8c18e5dce8c6d00ed5", "is_disabled": 0, "fusion_lon": 0.0, "rental_uris": {"android": "https://dc.lft.to/lastmile_qr_scan", "ios": "https://dc.lft.to/lastmile_qr_scan"}, "lat": 38.905933, "lon": -76.9862345, "fusion_lat": 0.0}, {"is_reserved": 0, "bike_id": "6e5c9a6ebad92daf10906d77c3a6e7f4", "type": "electric_scooter", "name": "6e5c9a6ebad92daf10906d77c3a6e7f4", "is_disabled": 0, "fusion_lon": 0.0, "rental_uris": {"android": "https://dc.lft.to/lastmile_qr_scan", "ios": "https://dc.lft.to/lastmile_qr_scan"}, "lat": 38.932219833333335, "lon": -77.04120816666666, "fusion_lat": 0.0}, {"is_reserved": 0, "bike_id": "de843bd96bcb23952a24d08aca76e102", "type": "electric_scooter", "name": "de843bd96bcb23952a24d08aca76e102", "is_disabled": 0, "fusion_lon": 0.0, "rental_uris": {"android": "https://dc.lft.to/lastmile_qr_scan", "ios": "https://dc.lft.to/lastmile_qr_scan"}, "lat": 38.906377666666664, "lon": -77.02604566666666, "fusion_lat": 0.0}, {"is_reserved": 0, "bike_id": "2e66f487a8fe9e7d011242932b6df1d5", "type": "electric_scooter", "name": "2e66f487a8fe9e7d011242932b6df1d5", "is_disabled": 0, "fusion_lon": 0.0, "rental_uris": {"android": "https://dc.lft.to/lastmile_qr_scan", "ios": "https://dc.lft.to/lastmile_qr_scan"}, "lat": 38.94304566666667, "lon": -77.05922466666667, "fusion_lat": 0.0}, {"is_reserved": 0, "bike_id": "4cb0df4b9088d4f35faa11e07023f2c6", "type": "electric_scooter", "name": "4cb0df4b9088d4f35faa11e07023f2c6", "is_disabled": 0, "fusion_lon": 0.0, "rental_uris": {"android": "https://dc.lft.to/lastmile_qr_scan", "ios": "https://dc.lft.to/lastmile_qr_scan"}, "lat": 38.900341833333336, "lon": -77.04405566666667, "fusion_lat": 0.0}, {"is_reserved": 0, "bike_id": "2426ba8604f85ee96f98155b8558fd29", "type": "electric_scooter", "name": "2426ba8604f85ee96f98155b8558fd29", "is_disabled": 0, "fusion_lon": 0.0, "rental_uris": {"android": "https://dc.lft.to/lastmile_qr_scan", "ios": "https://dc.lft.to/lastmile_qr_scan"}, "lat": 38.898532833333334, "lon": -76.9318825, "fusion_lat": 0.0}, {"is_reserved": 0, "bike_id": "cd0b7ad3c7438db71b967b00fd22b2e8", "type": "electric_scooter", "name": "cd0b7ad3c7438db71b967b00fd22b2e8", "is_disabled": 0, "fusion_lon": 0.0, "rental_uris": {"android": "https://dc.lft.to/lastmile_qr_scan", "ios": "https://dc.lft.to/lastmile_qr_scan"}, "lat": 38.898453333333336, "lon": -77.04982633333333, "fusion_lat": 0.0}, {"is_reserved": 0, "bike_id": "d71c94381081780dc2b938b2699cc8f1", "type": "electric_scooter", "name": "d71c94381081780dc2b938b2699cc8f1", "is_disabled": 0, "fusion_lon": 0.0, "rental_uris": {"android": "https://dc.lft.to/lastmile_qr_scan", "ios": "https://dc.lft.to/lastmile_qr_scan"}, "lat": 38.90515516666667, "lon": -77.06034, "fusion_lat": 0.0}, {"is_reserved": 0, "bike_id": "06cf8919b8fb7495c94c2f8716657bad", "type": "electric_scooter", "name": "06cf8919b8fb7495c94c2f8716657bad", "is_disabled": 0, "fusion_lon": 0.0, "rental_uris": {"android": "https://dc.lft.to/lastmile_qr_scan", "ios": "https://dc.lft.to/lastmile_qr_scan"}, "lat": 38.92374183333333, "lon": -77.020383, "fusion_lat": 0.0}, {"is_reserved": 0, "bike_id": "86159731ec71734272d0d767d1b6180d", "type": "electric_scooter", "name": "86159731ec71734272d0d767d1b6180d", "is_disabled": 0, "fusion_lon": 0.0, "rental_uris": {"android": "https://dc.lft.to/lastmile_qr_scan", "ios": "https://dc.lft.to/lastmile_qr_scan"}, "lat": 38.9136555, "lon": -77.07225, "fusion_lat": 0.0}, {"is_reserved": 0, "bike_id": "437b720d039fbd626417d7df7768ffca", "type": "electric_scooter", "name": "437b720d039fbd626417d7df7768ffca", "is_disabled": 0, "fusion_lon": 0.0, "rental_uris": {"android": "https://dc.lft.to/lastmile_qr_scan", "ios": "https://dc.lft.to/lastmile_qr_scan"}, "lat": 38.922227, "lon": -76.98369766666667, "fusion_lat": 0.0}, {"is_reserved": 0, "bike_id": "7ede12cba3b1f8da88a8963199337e92", "type": "electric_scooter", "name": "7ede12cba3b1f8da88a8963199337e92", "is_disabled": 0, "fusion_lon": 0.0, "rental_uris": {"android": "https://dc.lft.to/lastmile_qr_scan", "ios": "https://dc.lft.to/lastmile_qr_scan"}, "lat": 38.921528, "lon": -77.03459433333333, "fusion_lat": 0.0}, {"is_reserved": 0, "bike_id": "decca949bc063ee53e8224f684446abe", "type": "electric_scooter", "name": "decca949bc063ee53e8224f684446abe", "is_disabled": 0, "fusion_lon": 0.0, "rental_uris": {"android": "https://dc.lft.to/lastmile_qr_scan", "ios": "https://dc.lft.to/lastmile_qr_scan"}, "lat": 38.913347, "lon": -77.01982883333334, "fusion_lat": 0.0}, {"is_reserved": 0, "bike_id": "3caea343b01ccb602edcd2d088ed4e99", "type": "electric_scooter", "name": "3caea343b01ccb602edcd2d088ed4e99", "is_disabled": 0, "fusion_lon": 0.0, "rental_uris": {"android": "https://dc.lft.to/lastmile_qr_scan", "ios": "https://dc.lft.to/lastmile_qr_scan"}, "lat": 38.95545466666667, "lon": -77.027814, "fusion_lat": 0.0}, {"is_reserved": 0, "bike_id": "a89eb556251157a60ba777a82621422a", "type": "electric_bike", "name": "a89eb556251157a60ba777a82621422a", "is_disabled": 0, "fusion_lon": 0.0, "rental_uris": {"android": "https://dc.lft.to/lastmile_qr_scan", "ios": "https://dc.lft.to/lastmile_qr_scan"}, "lat": 38.8383305, "lon": -77.07911166666666, "fusion_lat": 0.0}, {"is_reserved": 0, "bike_id": "7645404ba0c408ce9f6af7c9d970a40b", "type": "electric_scooter", "name": "7645404ba0c408ce9f6af7c9d970a40b", "is_disabled": 0, "fusion_lon": 0.0, "rental_uris": {"android": "https://dc.lft.to/lastmile_qr_scan", "ios": "https://dc.lft.to/lastmile_qr_scan"}, "lat": 38.922541333333335, "lon": -77.0307135, "fusion_lat": 0.0}, {"is_reserved": 0, "bike_id": "8f3c61593b4e7c0b361ab0268c69b081", "type": "electric_scooter", "name": "8f3c61593b4e7c0b361ab0268c69b081", "is_disabled": 0, "fusion_lon": 0.0, "rental_uris": {"android": "https://dc.lft.to/lastmile_qr_scan", "ios": "https://dc.lft.to/lastmile_qr_scan"}, "lat": 38.910462833333334, "lon": -77.034386, "fusion_lat": 0.0}, {"is_reserved": 0, "bike_id": "837ef25ffab3b58a87b31bfa477d6e09", "type": "electric_scooter", "name": "837ef25ffab3b58a87b31bfa477d6e09", "is_disabled": 0, "fusion_lon": 0.0, "rental_uris": {"android": "https://dc.lft.to/lastmile_qr_scan", "ios": "https://dc.lft.to/lastmile_qr_scan"}, "lat": 38.9264985, "lon": -77.0370985, "fusion_lat": 0.0}, {"is_reserved": 0, "bike_id": "8926174afbd2e8f4991e26562b8743f8", "type": "electric_bike", "name": "8926174afbd2e8f4991e26562b8743f8", "is_disabled": 0, "fusion_lon": 0.0, "rental_uris": {"android": "https://dc.lft.to/lastmile_qr_scan", "ios": "https://dc.lft.to/lastmile_qr_scan"}, "lat": 38.9097275, "lon": -77.08828133333333, "fusion_lat": 0.0}, {"is_reserved": 0, "bike_id": "8c889f136ba119c342ae95823a5dcb30", "type": "electric_scooter", "name": "8c889f136ba119c342ae95823a5dcb30", "is_disabled": 0, "fusion_lon": 0.0, "rental_uris": {"android": "https://dc.lft.to/lastmile_qr_scan", "ios": "https://dc.lft.to/lastmile_qr_scan"}, "lat": 38.938126833333335, "lon": -77.02665883333333, "fusion_lat": 0.0}, {"is_reserved": 0, "bike_id": "f7ac1b270f3703e143b3709971c73826", "type": "electric_scooter", "name": "f7ac1b270f3703e143b3709971c73826", "is_disabled": 0, "fusion_lon": 0.0, "rental_uris": {"android": "https://dc.lft.to/lastmile_qr_scan", "ios": "https://dc.lft.to/lastmile_qr_scan"}, "lat": 38.8986275, "lon": -77.03931233333333, "fusion_lat": 0.0}, {"is_reserved": 0, "bike_id": "b634668a331ac1982957486c33d5f234", "type": "electric_scooter", "name": "b634668a331ac1982957486c33d5f234", "is_disabled": 0, "fusion_lon": 0.0, "rental_uris": {"android": "https://dc.lft.to/lastmile_qr_scan", "ios": "https://dc.lft.to/lastmile_qr_scan"}, "lat": 38.921596666666666, "lon": -77.03383616666666, "fusion_lat": 0.0}, {"is_reserved": 0, "bike_id": "b427fb0833762db6765e1bc598e462b4", "type": "electric_scooter", "name": "b427fb0833762db6765e1bc598e462b4", "is_disabled": 0, "fusion_lon": 0.0, "rental_uris": {"android": "https://dc.lft.to/lastmile_qr_scan", "ios": "https://dc.lft.to/lastmile_qr_scan"}, "lat": 38.8864615, "lon": -77.0010045, "fusion_lat": 0.0}, {"is_reserved": 0, "bike_id": "6b08de8a5eb9166aec0c80e38e7d3085", "type": "electric_scooter", "name": "6b08de8a5eb9166aec0c80e38e7d3085", "is_disabled": 0, "fusion_lon": 0.0, "rental_uris": {"android": "https://dc.lft.to/lastmile_qr_scan", "ios": "https://dc.lft.to/lastmile_qr_scan"}, "lat": 38.922009333333335, "lon": -77.03516616666667, "fusion_lat": 0.0}, {"is_reserved": 0, "bike_id": "691ccabeaa052b0684d959e44b214d95", "type": "electric_bike", "name": "691ccabeaa052b0684d959e44b214d95", "is_disabled": 0, "fusion_lon": 0.0, "rental_uris": {"android": "https://dc.lft.to/lastmile_qr_scan", "ios": "https://dc.lft.to/lastmile_qr_scan"}, "lat": 38.831211333333336, "lon": -77.113208, "fusion_lat": 0.0}, {"is_reserved": 0, "bike_id": "54819e85284465f137dd8e4beb5cc5e3", "type": "electric_scooter", "name": "54819e85284465f137dd8e4beb5cc5e3", "is_disabled": 0, "fusion_lon": 0.0, "rental_uris": {"android": "https://dc.lft.to/lastmile_qr_scan", "ios": "https://dc.lft.to/lastmile_qr_scan"}, "lat": 38.95815616666667, "lon": -77.0145045, "fusion_lat": 0.0}, {"is_reserved": 0, "bike_id": "b30dc7b354a15a0a46322c313fce4402", "type": "electric_scooter", "name": "b30dc7b354a15a0a46322c313fce4402", "is_disabled": 0, "fusion_lon": 0.0, "rental_uris": {"android": "https://dc.lft.to/lastmile_qr_scan", "ios": "https://dc.lft.to/lastmile_qr_scan"}, "lat": 38.921005, "lon": -77.022403, "fusion_lat": 0.0}, {"is_reserved": 0, "bike_id": "74902a7c9891e0391b77090a2c80ca21", "type": "electric_scooter", "name": "74902a7c9891e0391b77090a2c80ca21", "is_disabled": 0, "fusion_lon": 0.0, "rental_uris": {"android": "https://dc.lft.to/lastmile_qr_scan", "ios": "https://dc.lft.to/lastmile_qr_scan"}, "lat": 38.90115483333334, "lon": -77.04350083333334, "fusion_lat": 0.0}, {"is_reserved": 0, "bike_id": "5f4ddbd2213b7f2a580fa2741b9f1827", "type": "electric_scooter", "name": "5f4ddbd2213b7f2a580fa2741b9f1827", "is_disabled": 0, "fusion_lon": 0.0, "rental_uris": {"android": "https://dc.lft.to/lastmile_qr_scan", "ios": "https://dc.lft.to/lastmile_qr_scan"}, "lat": 38.900134, "lon": -77.022865, "fusion_lat": 0.0}, {"is_reserved": 0, "bike_id": "8f0a61cb9b7460dc493056c887c0da37", "type": "electric_scooter", "name": "8f0a61cb9b7460dc493056c887c0da37", "is_disabled": 0, "fusion_lon": 0.0, "rental_uris": {"android": "https://dc.lft.to/lastmile_qr_scan", "ios": "https://dc.lft.to/lastmile_qr_scan"}, "lat": 38.935338333333334, "lon": -77.02344516666666, "fusion_lat": 0.0}, {"is_reserved": 0, "bike_id": "2ffd42d119c7c501d279093ce71bc2bd", "type": "electric_bike", "name": "2ffd42d119c7c501d279093ce71bc2bd", "is_disabled": 0, "fusion_lon": 0.0, "rental_uris": {"android": "https://dc.lft.to/lastmile_qr_scan", "ios": "https://dc.lft.to/lastmile_qr_scan"}, "lat": 38.9289685, "lon": -77.23175833333333, "fusion_lat": 0.0}, {"is_reserved": 0, "bike_id": "86eaa1129f3b879a3aed25ca6131c706", "type": "electric_scooter", "name": "86eaa1129f3b879a3aed25ca6131c706", "is_disabled": 0, "fusion_lon": 0.0, "rental_uris": {"android": "https://dc.lft.to/lastmile_qr_scan", "ios": "https://dc.lft.to/lastmile_qr_scan"}, "lat": 38.909887166666664, "lon": -77.00912066666666, "fusion_lat": 0.0}, {"is_reserved": 0, "bike_id": "944bd3e0bd1b0f61a460aab6a7c07a96", "type": "electric_scooter", "name": "944bd3e0bd1b0f61a460aab6a7c07a96", "is_disabled": 0, "fusion_lon": 0.0, "rental_uris": {"android": "https://dc.lft.to/lastmile_qr_scan", "ios": "https://dc.lft.to/lastmile_qr_scan"}, "lat": 38.935385833333335, "lon": -77.02355066666667, "fusion_lat": 0.0}, {"is_reserved": 0, "bike_id": "d143d0690f50034f8733bf97c70342d3", "type": "electric_scooter", "name": "d143d0690f50034f8733bf97c70342d3", "is_disabled": 0, "fusion_lon": 0.0, "rental_uris": {"android": "https://dc.lft.to/lastmile_qr_scan", "ios": "https://dc.lft.to/lastmile_qr_scan"}, "lat": 38.90207983333333, "lon": -77.02165533333333, "fusion_lat": 0.0}, {"is_reserved": 0, "bike_id": "19759815debfcbd2b32a02617ec33992", "type": "electric_scooter", "name": "19759815debfcbd2b32a02617ec33992", "is_disabled": 0, "fusion_lon": 0.0, "rental_uris": {"android": "https://dc.lft.to/lastmile_qr_scan", "ios": "https://dc.lft.to/lastmile_qr_scan"}, "lat": 38.91883933333333, "lon": -77.04471983333333, "fusion_lat": 0.0}, {"is_reserved": 0, "bike_id": "c7a6a1afffbe48a31678ebdd6fa14c07", "type": "electric_scooter", "name": "c7a6a1afffbe48a31678ebdd6fa14c07", "is_disabled": 0, "fusion_lon": 0.0, "rental_uris": {"android": "https://dc.lft.to/lastmile_qr_scan", "ios": "https://dc.lft.to/lastmile_qr_scan"}, "lat": 38.916342, "lon": -77.0320475, "fusion_lat": 0.0}, {"is_reserved": 0, "bike_id": "695ac72816b46968776cd8e9167d06e9", "type": "electric_scooter", "name": "695ac72816b46968776cd8e9167d06e9", "is_disabled": 0, "fusion_lon": 0.0, "rental_uris": {"android": "https://dc.lft.to/lastmile_qr_scan", "ios": "https://dc.lft.to/lastmile_qr_scan"}, "lat": 38.914081833333334, "lon": -77.02207016666667, "fusion_lat": 0.0}, {"is_reserved": 0, "bike_id": "c36092e50fdd884033f11f2fcc00d387", "type": "electric_scooter", "name": "c36092e50fdd884033f11f2fcc00d387", "is_disabled": 0, "fusion_lon": 0.0, "rental_uris": {"android": "https://dc.lft.to/lastmile_qr_scan", "ios": "https://dc.lft.to/lastmile_qr_scan"}, "lat": 38.9152925, "lon": -77.04458, "fusion_lat": 0.0}, {"is_reserved": 0, "bike_id": "42254e854469195d39509535da960757", "type": "electric_scooter", "name": "42254e854469195d39509535da960757", "is_disabled": 0, "fusion_lon": 0.0, "rental_uris": {"android": "https://dc.lft.to/lastmile_qr_scan", "ios": "https://dc.lft.to/lastmile_qr_scan"}, "lat": 38.920442, "lon": -77.0313275, "fusion_lat": 0.0}, {"is_reserved": 0, "bike_id": "5c03a124e30a3341cfe96c4bc7703828", "type": "electric_scooter", "name": "5c03a124e30a3341cfe96c4bc7703828", "is_disabled": 0, "fusion_lon": 0.0, "rental_uris": {"android": "https://dc.lft.to/lastmile_qr_scan", "ios": "https://dc.lft.to/lastmile_qr_scan"}, "lat": 38.94616583333333, "lon": -77.03063566666667, "fusion_lat": 0.0}, {"is_reserved": 0, "bike_id": "ca1a374d3698ce233c013bb01520d69c", "type": "electric_scooter", "name": "ca1a374d3698ce233c013bb01520d69c", "is_disabled": 0, "fusion_lon": 0.0, "rental_uris": {"android": "https://dc.lft.to/lastmile_qr_scan", "ios": "https://dc.lft.to/lastmile_qr_scan"}, "lat": 38.91198133333333, "lon": -77.03758533333334, "fusion_lat": 0.0}, {"is_reserved": 0, "bike_id": "44b32ebd9098547e941b0da95c7e2b9c", "type": "electric_scooter", "name": "44b32ebd9098547e941b0da95c7e2b9c", "is_disabled": 0, "fusion_lon": 0.0, "rental_uris": {"android": "https://dc.lft.to/lastmile_qr_scan", "ios": "https://dc.lft.to/lastmile_qr_scan"}, "lat": 38.92689683333333, "lon": -77.02570366666667, "fusion_lat": 0.0}, {"is_reserved": 0, "bike_id": "1b5023ca3470937da857d70185d275dc", "type": "electric_scooter", "name": "1b5023ca3470937da857d70185d275dc", "is_disabled": 0, "fusion_lon": 0.0, "rental_uris": {"android": "https://dc.lft.to/lastmile_qr_scan", "ios": "https://dc.lft.to/lastmile_qr_scan"}, "lat": 38.926648, "lon": -77.03728, "fusion_lat": 0.0}, {"is_reserved": 0, "bike_id": "2f4fc15dbef68f8c260031ef7ea9a187", "type": "electric_scooter", "name": "2f4fc15dbef68f8c260031ef7ea9a187", "is_disabled": 0, "fusion_lon": 0.0, "rental_uris": {"android": "https://dc.lft.to/lastmile_qr_scan", "ios": "https://dc.lft.to/lastmile_qr_scan"}, "lat": 38.91998383333333, "lon": -77.01779816666667, "fusion_lat": 0.0}, {"is_reserved": 0, "bike_id": "d8dcf6289336b618dfbe14747b48f428", "type": "electric_scooter", "name": "d8dcf6289336b618dfbe14747b48f428", "is_disabled": 0, "fusion_lon": 0.0, "rental_uris": {"android": "https://dc.lft.to/lastmile_qr_scan", "ios": "https://dc.lft.to/lastmile_qr_scan"}, "lat": 38.910553, "lon": -77.04111066666667, "fusion_lat": 0.0}, {"is_reserved": 0, "bike_id": "0a39fb8a1dc44b35e2e72584e764a64b", "type": "electric_scooter", "name": "0a39fb8a1dc44b35e2e72584e764a64b", "is_disabled": 0, "fusion_lon": 0.0, "rental_uris": {"android": "https://dc.lft.to/lastmile_qr_scan", "ios": "https://dc.lft.to/lastmile_qr_scan"}, "lat": 38.91709433333333, "lon": -77.01178466666667, "fusion_lat": 0.0}, {"is_reserved": 0, "bike_id": "e2dfa5e5f0a53e9fc9e2780bb74462aa", "type": "electric_scooter", "name": "e2dfa5e5f0a53e9fc9e2780bb74462aa", "is_disabled": 0, "fusion_lon": 0.0, "rental_uris": {"android": "https://dc.lft.to/lastmile_qr_scan", "ios": "https://dc.lft.to/lastmile_qr_scan"}, "lat": 38.892298833333335, "lon": -77.0499915, "fusion_lat": 0.0}, {"is_reserved": 0, "bike_id": "d3baae350bc92e2c6a7e3ef4f81ad45d", "type": "electric_bike", "name": "d3baae350bc92e2c6a7e3ef4f81ad45d", "is_disabled": 0, "fusion_lon": 0.0, "rental_uris": {"android": "https://dc.lft.to/lastmile_qr_scan", "ios": "https://dc.lft.to/lastmile_qr_scan"}, "lat": 38.9204485, "lon": -77.00359683333333, "fusion_lat": 0.0}, {"is_reserved": 0, "bike_id": "433b13027f5ba62457ff72ca24ae4172", "type": "electric_bike", "name": "433b13027f5ba62457ff72ca24ae4172", "is_disabled": 0, "fusion_lon": 0.0, "rental_uris": {"android": "https://dc.lft.to/lastmile_qr_scan", "ios": "https://dc.lft.to/lastmile_qr_scan"}, "lat": 38.8732015, "lon": -77.11411083333333, "fusion_lat": 0.0}, {"is_reserved": 0, "bike_id": "a68bc417be3c75b6bcfcc17c656134c7", "type": "electric_scooter", "name": "a68bc417be3c75b6bcfcc17c656134c7", "is_disabled": 0, "fusion_lon": 0.0, "rental_uris": {"android": "https://dc.lft.to/lastmile_qr_scan", "ios": "https://dc.lft.to/lastmile_qr_scan"}, "lat": 38.900996166666665, "lon": -77.050021, "fusion_lat": 0.0}, {"is_reserved": 0, "bike_id": "fe0e3fb340fcacdd98c5eee7112e4924", "type": "electric_scooter", "name": "fe0e3fb340fcacdd98c5eee7112e4924", "is_disabled": 0, "fusion_lon": 0.0, "rental_uris": {"android": "https://dc.lft.to/lastmile_qr_scan", "ios": "https://dc.lft.to/lastmile_qr_scan"}, "lat": 38.9236785, "lon": -77.04316066666667, "fusion_lat": 0.0}, {"is_reserved": 0, "bike_id": "992e0df7cfef9b9663c24134c2515cf7", "type": "electric_bike", "name": "992e0df7cfef9b9663c24134c2515cf7", "is_disabled": 0, "fusion_lon": 0.0, "rental_uris": {"android": "https://dc.lft.to/lastmile_qr_scan", "ios": "https://dc.lft.to/lastmile_qr_scan"}, "lat": 39.001916, "lon": -76.9017935, "fusion_lat": 0.0}, {"is_reserved": 0, "bike_id": "ed75f78d81325233032c6887483d4ed7", "type": "electric_scooter", "name": "ed75f78d81325233032c6887483d4ed7", "is_disabled": 0, "fusion_lon": 0.0, "rental_uris": {"android": "https://dc.lft.to/lastmile_qr_scan", "ios": "https://dc.lft.to/lastmile_qr_scan"}, "lat": 38.9498055, "lon": -77.02450433333334, "fusion_lat": 0.0}, {"is_reserved": 0, "bike_id": "373cdc0a843eb92c72830f9de34e1bac", "type": "electric_scooter", "name": "373cdc0a843eb92c72830f9de34e1bac", "is_disabled": 0, "fusion_lon": 0.0, "rental_uris": {"android": "https://dc.lft.to/lastmile_qr_scan", "ios": "https://dc.lft.to/lastmile_qr_scan"}, "lat": 38.949519, "lon": -77.066549, "fusion_lat": 0.0}, {"is_reserved": 0, "bike_id": "ee2e1487e6384a75c7caff78d5e1db8e", "type": "electric_scooter", "name": "ee2e1487e6384a75c7caff78d5e1db8e", "is_disabled": 0, "fusion_lon": 0.0, "rental_uris": {"android": "https://dc.lft.to/lastmile_qr_scan", "ios": "https://dc.lft.to/lastmile_qr_scan"}, "lat": 38.8974555, "lon": -77.04159783333333, "fusion_lat": 0.0}, {"is_reserved": 0, "bike_id": "47ae33c3d96ed425bdf48cfc4a5326e5", "type": "electric_scooter", "name": "47ae33c3d96ed425bdf48cfc4a5326e5", "is_disabled": 0, "fusion_lon": 0.0, "rental_uris": {"android": "https://dc.lft.to/lastmile_qr_scan", "ios": "https://dc.lft.to/lastmile_qr_scan"}, "lat": 38.87921166666667, "lon": -77.02151066666667, "fusion_lat": 0.0}, {"is_reserved": 0, "bike_id": "688849b891d75c8c5e5b846cf21ce6d3", "type": "electric_scooter", "name": "688849b891d75c8c5e5b846cf21ce6d3", "is_disabled": 0, "fusion_lon": 0.0, "rental_uris": {"android": "https://dc.lft.to/lastmile_qr_scan", "ios": "https://dc.lft.to/lastmile_qr_scan"}, "lat": 38.898909833333335, "lon": -77.00448883333334, "fusion_lat": 0.0}, {"is_reserved": 0, "bike_id": "5c72a01fe7f1243e581641bd32528644", "type": "electric_scooter", "name": "5c72a01fe7f1243e581641bd32528644", "is_disabled": 0, "fusion_lon": 0.0, "rental_uris": {"android": "https://dc.lft.to/lastmile_qr_scan", "ios": "https://dc.lft.to/lastmile_qr_scan"}, "lat": 38.92263416666667, "lon": -77.00342266666667, "fusion_lat": 0.0}, {"is_reserved": 0, "bike_id": "955083dd2251594f3accf363b228ee83", "type": "electric_scooter", "name": "955083dd2251594f3accf363b228ee83", "is_disabled": 0, "fusion_lon": 0.0, "rental_uris": {"android": "https://dc.lft.to/lastmile_qr_scan", "ios": "https://dc.lft.to/lastmile_qr_scan"}, "lat": 38.91124716666667, "lon": -77.0374225, "fusion_lat": 0.0}, {"is_reserved": 0, "bike_id": "9a7a3ca1cfae90901525d04c97784f88", "type": "electric_scooter", "name": "9a7a3ca1cfae90901525d04c97784f88", "is_disabled": 0, "fusion_lon": 0.0, "rental_uris": {"android": "https://dc.lft.to/lastmile_qr_scan", "ios": "https://dc.lft.to/lastmile_qr_scan"}, "lat": 38.90429983333333, "lon": -77.0263965, "fusion_lat": 0.0}, {"is_reserved": 0, "bike_id": "d25ce1966b575b72097f08d2b936f20a", "type": "electric_scooter", "name": "d25ce1966b575b72097f08d2b936f20a", "is_disabled": 0, "fusion_lon": 0.0, "rental_uris": {"android": "https://dc.lft.to/lastmile_qr_scan", "ios": "https://dc.lft.to/lastmile_qr_scan"}, "lat": 38.89548216666667, "lon": -76.98338116666666, "fusion_lat": 0.0}, {"is_reserved": 0, "bike_id": "cc0edce1af9bf681c35844d9b23a94be", "type": "electric_scooter", "name": "cc0edce1af9bf681c35844d9b23a94be", "is_disabled": 0, "fusion_lon": 0.0, "rental_uris": {"android": "https://dc.lft.to/lastmile_qr_scan", "ios": "https://dc.lft.to/lastmile_qr_scan"}, "lat": 38.913448333333335, "lon": -77.009248, "fusion_lat": 0.0}, {"is_reserved": 0, "bike_id": "a76bb7ad26f90b42743f0171631e18bf", "type": "electric_scooter", "name": "a76bb7ad26f90b42743f0171631e18bf", "is_disabled": 0, "fusion_lon": 0.0, "rental_uris": {"android": "https://dc.lft.to/lastmile_qr_scan", "ios": "https://dc.lft.to/lastmile_qr_scan"}, "lat": 38.924465833333336, "lon": -77.02033133333333, "fusion_lat": 0.0}, {"is_reserved": 0, "bike_id": "ad4705b7e34776649cd7a105e98e01f8", "type": "electric_scooter", "name": "ad4705b7e34776649cd7a105e98e01f8", "is_disabled": 0, "fusion_lon": 0.0, "rental_uris": {"android": "https://dc.lft.to/lastmile_qr_scan", "ios": "https://dc.lft.to/lastmile_qr_scan"}, "lat": 38.89853383333333, "lon": -76.9903515, "fusion_lat": 0.0}, {"is_reserved": 0, "bike_id": "d903a984e637655a0d932e505a75528f", "type": "electric_scooter", "name": "d903a984e637655a0d932e505a75528f", "is_disabled": 0, "fusion_lon": 0.0, "rental_uris": {"android": "https://dc.lft.to/lastmile_qr_scan", "ios": "https://dc.lft.to/lastmile_qr_scan"}, "lat": 38.915436166666666, "lon": -77.0385145, "fusion_lat": 0.0}, {"is_reserved": 0, "bike_id": "b3e9b39692a013edc923caf30752482f", "type": "electric_scooter", "name": "b3e9b39692a013edc923caf30752482f", "is_disabled": 0, "fusion_lon": 0.0, "rental_uris": {"android": "https://dc.lft.to/lastmile_qr_scan", "ios": "https://dc.lft.to/lastmile_qr_scan"}, "lat": 38.905141, "lon": -77.051271, "fusion_lat": 0.0}, {"is_reserved": 0, "bike_id": "fa824c29adc76b15e637108bfcc3b6ef", "type": "electric_scooter", "name": "fa824c29adc76b15e637108bfcc3b6ef", "is_disabled": 0, "fusion_lon": 0.0, "rental_uris": {"android": "https://dc.lft.to/lastmile_qr_scan", "ios": "https://dc.lft.to/lastmile_qr_scan"}, "lat": 38.9231935, "lon": -77.04333616666666, "fusion_lat": 0.0}, {"is_reserved": 0, "bike_id": "04646d5a8938ce8f1ce5bbf635ac3c0b", "type": "electric_scooter", "name": "04646d5a8938ce8f1ce5bbf635ac3c0b", "is_disabled": 0, "fusion_lon": 0.0, "rental_uris": {"android": "https://dc.lft.to/lastmile_qr_scan", "ios": "https://dc.lft.to/lastmile_qr_scan"}, "lat": 38.894011, "lon": -77.022096, "fusion_lat": 0.0}, {"is_reserved": 0, "bike_id": "7b8fb76187a548e49f4c77d733b07931", "type": "electric_scooter", "name": "7b8fb76187a548e49f4c77d733b07931", "is_disabled": 0, "fusion_lon": 0.0, "rental_uris": {"android": "https://dc.lft.to/lastmile_qr_scan", "ios": "https://dc.lft.to/lastmile_qr_scan"}, "lat": 38.900364, "lon": -76.98796433333334, "fusion_lat": 0.0}, {"is_reserved": 0, "bike_id": "7be4a2f7caf693ac80b4456a23e17260", "type": "electric_scooter", "name": "7be4a2f7caf693ac80b4456a23e17260", "is_disabled": 0, "fusion_lon": 0.0, "rental_uris": {"android": "https://dc.lft.to/lastmile_qr_scan", "ios": "https://dc.lft.to/lastmile_qr_scan"}, "lat": 38.9039245, "lon": -77.0356055, "fusion_lat": 0.0}, {"is_reserved": 0, "bike_id": "a95b8da41944533d467c689b882eff10", "type": "electric_scooter", "name": "a95b8da41944533d467c689b882eff10", "is_disabled": 0, "fusion_lon": 0.0, "rental_uris": {"android": "https://dc.lft.to/lastmile_qr_scan", "ios": "https://dc.lft.to/lastmile_qr_scan"}, "lat": 38.884538, "lon": -76.929548, "fusion_lat": 0.0}, {"is_reserved": 0, "bike_id": "61b8ed07490ce771bfbbc4fb077601b8", "type": "electric_scooter", "name": "61b8ed07490ce771bfbbc4fb077601b8", "is_disabled": 0, "fusion_lon": 0.0, "rental_uris": {"android": "https://dc.lft.to/lastmile_qr_scan", "ios": "https://dc.lft.to/lastmile_qr_scan"}, "lat": 38.88713466666667, "lon": -76.98365333333334, "fusion_lat": 0.0}, {"is_reserved": 0, "bike_id": "a3eba0ee965d7e4eb6e5dea0be0b3916", "type": "electric_scooter", "name": "a3eba0ee965d7e4eb6e5dea0be0b3916", "is_disabled": 0, "fusion_lon": 0.0, "rental_uris": {"android": "https://dc.lft.to/lastmile_qr_scan", "ios": "https://dc.lft.to/lastmile_qr_scan"}, "lat": 38.92626383333333, "lon": -77.04330866666666, "fusion_lat": 0.0}, {"is_reserved": 0, "bike_id": "225db48ad95ec3dbaa73e4d2993bed69", "type": "electric_scooter", "name": "225db48ad95ec3dbaa73e4d2993bed69", "is_disabled": 0, "fusion_lon": 0.0, "rental_uris": {"android": "https://dc.lft.to/lastmile_qr_scan", "ios": "https://dc.lft.to/lastmile_qr_scan"}, "lat": 38.87399333333333, "lon": -77.00055466666667, "fusion_lat": 0.0}, {"is_reserved": 0, "bike_id": "8d0f48e13b4c7e4619d1cbf96a25ff55", "type": "electric_scooter", "name": "8d0f48e13b4c7e4619d1cbf96a25ff55", "is_disabled": 0, "fusion_lon": 0.0, "rental_uris": {"android": "https://dc.lft.to/lastmile_qr_scan", "ios": "https://dc.lft.to/lastmile_qr_scan"}, "lat": 38.9027065, "lon": -77.06012466666667, "fusion_lat": 0.0}, {"is_reserved": 0, "bike_id": "0bcae37882375e8c883b08070d673037", "type": "electric_scooter", "name": "0bcae37882375e8c883b08070d673037", "is_disabled": 0, "fusion_lon": 0.0, "rental_uris": {"android": "https://dc.lft.to/lastmile_qr_scan", "ios": "https://dc.lft.to/lastmile_qr_scan"}, "lat": 38.906598333333335, "lon": -77.0352025, "fusion_lat": 0.0}, {"is_reserved": 0, "bike_id": "d2b6a5be810c087fca087df398f5bf7e", "type": "electric_scooter", "name": "d2b6a5be810c087fca087df398f5bf7e", "is_disabled": 0, "fusion_lon": 0.0, "rental_uris": {"android": "https://dc.lft.to/lastmile_qr_scan", "ios": "https://dc.lft.to/lastmile_qr_scan"}, "lat": 38.935354333333336, "lon": -77.02351816666666, "fusion_lat": 0.0}, {"is_reserved": 0, "bike_id": "67078be18b3f515425b8f51eae53d29e", "type": "electric_bike", "name": "67078be18b3f515425b8f51eae53d29e", "is_disabled": 0, "fusion_lon": 0.0, "rental_uris": {"android": "https://dc.lft.to/lastmile_qr_scan", "ios": "https://dc.lft.to/lastmile_qr_scan"}, "lat": 38.92483766666667, "lon": -77.03199616666667, "fusion_lat": 0.0}, {"is_reserved": 0, "bike_id": "bba52d55ca56ee1a4231cd823330bdf0", "type": "electric_scooter", "name": "bba52d55ca56ee1a4231cd823330bdf0", "is_disabled": 0, "fusion_lon": 0.0, "rental_uris": {"android": "https://dc.lft.to/lastmile_qr_scan", "ios": "https://dc.lft.to/lastmile_qr_scan"}, "lat": 38.9215525, "lon": -77.033214, "fusion_lat": 0.0}, {"is_reserved": 0, "bike_id": "29e6736479f8fecf0bae0675d44090b9", "type": "electric_scooter", "name": "29e6736479f8fecf0bae0675d44090b9", "is_disabled": 0, "fusion_lon": 0.0, "rental_uris": {"android": "https://dc.lft.to/lastmile_qr_scan", "ios": "https://dc.lft.to/lastmile_qr_scan"}, "lat": 38.89623266666667, "lon": -76.98572733333333, "fusion_lat": 0.0}, {"is_reserved": 0, "bike_id": "20b1cd35ead8d3a887ae25339ccf67c3", "type": "electric_scooter", "name": "20b1cd35ead8d3a887ae25339ccf67c3", "is_disabled": 0, "fusion_lon": 0.0, "rental_uris": {"android": "https://dc.lft.to/lastmile_qr_scan", "ios": "https://dc.lft.to/lastmile_qr_scan"}, "lat": 38.88750266666667, "lon": -77.03147483333333, "fusion_lat": 0.0}, {"is_reserved": 0, "bike_id": "e4b2c9c6934cc0446488029318699030", "type": "electric_scooter", "name": "e4b2c9c6934cc0446488029318699030", "is_disabled": 0, "fusion_lon": 0.0, "rental_uris": {"android": "https://dc.lft.to/lastmile_qr_scan", "ios": "https://dc.lft.to/lastmile_qr_scan"}, "lat": 38.96797883333333, "lon": -77.0241805, "fusion_lat": 0.0}, {"is_reserved": 0, "bike_id": "10888e5822edce6fbc21f220b5949a5c", "type": "electric_scooter", "name": "10888e5822edce6fbc21f220b5949a5c", "is_disabled": 0, "fusion_lon": 0.0, "rental_uris": {"android": "https://dc.lft.to/lastmile_qr_scan", "ios": "https://dc.lft.to/lastmile_qr_scan"}, "lat": 38.90599566666667, "lon": -77.0210985, "fusion_lat": 0.0}, {"is_reserved": 0, "bike_id": "2f19cf5ebbd931c35302eb51a5f486f0", "type": "electric_scooter", "name": "2f19cf5ebbd931c35302eb51a5f486f0", "is_disabled": 0, "fusion_lon": 0.0, "rental_uris": {"android": "https://dc.lft.to/lastmile_qr_scan", "ios": "https://dc.lft.to/lastmile_qr_scan"}, "lat": 38.932659666666666, "lon": -77.03264316666667, "fusion_lat": 0.0}, {"is_reserved": 0, "bike_id": "7bc8c64c7d97f299a4ca3afcafdae92d", "type": "electric_scooter", "name": "7bc8c64c7d97f299a4ca3afcafdae92d", "is_disabled": 0, "fusion_lon": 0.0, "rental_uris": {"android": "https://dc.lft.to/lastmile_qr_scan", "ios": "https://dc.lft.to/lastmile_qr_scan"}, "lat": 38.88484966666667, "lon": -77.03346716666667, "fusion_lat": 0.0}, {"is_reserved": 0, "bike_id": "3f25fa0f7496a8e18757ca36210d9f61", "type": "electric_scooter", "name": "3f25fa0f7496a8e18757ca36210d9f61", "is_disabled": 0, "fusion_lon": 0.0, "rental_uris": {"android": "https://dc.lft.to/lastmile_qr_scan", "ios": "https://dc.lft.to/lastmile_qr_scan"}, "lat": 38.9362395, "lon": -77.03279066666667, "fusion_lat": 0.0}, {"is_reserved": 0, "bike_id": "ae80e83240a8328cace8264f3bbafa95", "type": "electric_scooter", "name": "ae80e83240a8328cace8264f3bbafa95", "is_disabled": 0, "fusion_lon": 0.0, "rental_uris": {"android": "https://dc.lft.to/lastmile_qr_scan", "ios": "https://dc.lft.to/lastmile_qr_scan"}, "lat": 38.9014335, "lon": -77.04391166666667, "fusion_lat": 0.0}, {"is_reserved": 0, "bike_id": "f936be3111d99fecb7cad501a4a9d723", "type": "electric_scooter", "name": "f936be3111d99fecb7cad501a4a9d723", "is_disabled": 0, "fusion_lon": 0.0, "rental_uris": {"android": "https://dc.lft.to/lastmile_qr_scan", "ios": "https://dc.lft.to/lastmile_qr_scan"}, "lat": 38.936356333333336, "lon": -77.03659666666667, "fusion_lat": 0.0}, {"is_reserved": 0, "bike_id": "0f527adbb0791f3217830349f313a6df", "type": "electric_scooter", "name": "0f527adbb0791f3217830349f313a6df", "is_disabled": 0, "fusion_lon": 0.0, "rental_uris": {"android": "https://dc.lft.to/lastmile_qr_scan", "ios": "https://dc.lft.to/lastmile_qr_scan"}, "lat": 38.902738, "lon": -77.01746, "fusion_lat": 0.0}, {"is_reserved": 0, "bike_id": "6e3bb273bced1d732143e8f688c421d3", "type": "electric_scooter", "name": "6e3bb273bced1d732143e8f688c421d3", "is_disabled": 0, "fusion_lon": 0.0, "rental_uris": {"android": "https://dc.lft.to/lastmile_qr_scan", "ios": "https://dc.lft.to/lastmile_qr_scan"}, "lat": 38.88745266666667, "lon": -77.02133216666667, "fusion_lat": 0.0}, {"is_reserved": 0, "bike_id": "7ca88a09c85f91675478c44537bfa9b9", "type": "electric_scooter", "name": "7ca88a09c85f91675478c44537bfa9b9", "is_disabled": 0, "fusion_lon": 0.0, "rental_uris": {"android": "https://dc.lft.to/lastmile_qr_scan", "ios": "https://dc.lft.to/lastmile_qr_scan"}, "lat": 38.899939833333335, "lon": -77.01122, "fusion_lat": 0.0}, {"is_reserved": 0, "bike_id": "a0b62a6703c0713d366e348a08260b03", "type": "electric_scooter", "name": "a0b62a6703c0713d366e348a08260b03", "is_disabled": 0, "fusion_lon": 0.0, "rental_uris": {"android": "https://dc.lft.to/lastmile_qr_scan", "ios": "https://dc.lft.to/lastmile_qr_scan"}, "lat": 38.87238983333334, "lon": -76.96815616666666, "fusion_lat": 0.0}, {"is_reserved": 0, "bike_id": "e036a50064651bdb96f730232b2370ab", "type": "electric_scooter", "name": "e036a50064651bdb96f730232b2370ab", "is_disabled": 0, "fusion_lon": 0.0, "rental_uris": {"android": "https://dc.lft.to/lastmile_qr_scan", "ios": "https://dc.lft.to/lastmile_qr_scan"}, "lat": 38.902695, "lon": -77.01755983333334, "fusion_lat": 0.0}, {"is_reserved": 0, "bike_id": "c588cce892eb95da0dcafa27e87bf69c", "type": "electric_scooter", "name": "c588cce892eb95da0dcafa27e87bf69c", "is_disabled": 0, "fusion_lon": 0.0, "rental_uris": {"android": "https://dc.lft.to/lastmile_qr_scan", "ios": "https://dc.lft.to/lastmile_qr_scan"}, "lat": 38.9144495, "lon": -77.0228855, "fusion_lat": 0.0}, {"is_reserved": 0, "bike_id": "472eb24988aafd33472e6aac53a1a5f7", "type": "electric_scooter", "name": "472eb24988aafd33472e6aac53a1a5f7", "is_disabled": 0, "fusion_lon": 0.0, "rental_uris": {"android": "https://dc.lft.to/lastmile_qr_scan", "ios": "https://dc.lft.to/lastmile_qr_scan"}, "lat": 38.91070833333333, "lon": -77.0538845, "fusion_lat": 0.0}, {"is_reserved": 0, "bike_id": "07fe7e7bb6e2aad73a14ce9e37d771b0", "type": "electric_scooter", "name": "07fe7e7bb6e2aad73a14ce9e37d771b0", "is_disabled": 0, "fusion_lon": 0.0, "rental_uris": {"android": "https://dc.lft.to/lastmile_qr_scan", "ios": "https://dc.lft.to/lastmile_qr_scan"}, "lat": 38.91712, "lon": -77.03878533333334, "fusion_lat": 0.0}, {"is_reserved": 0, "bike_id": "63007e3ce1574f554da7c5cd5d23ea44", "type": "electric_scooter", "name": "63007e3ce1574f554da7c5cd5d23ea44", "is_disabled": 0, "fusion_lon": 0.0, "rental_uris": {"android": "https://dc.lft.to/lastmile_qr_scan", "ios": "https://dc.lft.to/lastmile_qr_scan"}, "lat": 38.89894866666667, "lon": -77.03894766666667, "fusion_lat": 0.0}, {"is_reserved": 0, "bike_id": "3a9d366da17b9bee0509eda0bd4d79ab", "type": "electric_scooter", "name": "3a9d366da17b9bee0509eda0bd4d79ab", "is_disabled": 0, "fusion_lon": 0.0, "rental_uris": {"android": "https://dc.lft.to/lastmile_qr_scan", "ios": "https://dc.lft.to/lastmile_qr_scan"}, "lat": 38.893615, "lon": -77.00287866666666, "fusion_lat": 0.0}, {"is_reserved": 0, "bike_id": "96707a533552566ee4ad8bde5fda15b4", "type": "electric_scooter", "name": "96707a533552566ee4ad8bde5fda15b4", "is_disabled": 0, "fusion_lon": 0.0, "rental_uris": {"android": "https://dc.lft.to/lastmile_qr_scan", "ios": "https://dc.lft.to/lastmile_qr_scan"}, "lat": 38.92336933333333, "lon": -77.05404716666666, "fusion_lat": 0.0}, {"is_reserved": 0, "bike_id": "38990929787eaf8ea82795ae327331c9", "type": "electric_scooter", "name": "38990929787eaf8ea82795ae327331c9", "is_disabled": 0, "fusion_lon": 0.0, "rental_uris": {"android": "https://dc.lft.to/lastmile_qr_scan", "ios": "https://dc.lft.to/lastmile_qr_scan"}, "lat": 38.90073116666667, "lon": -77.01281166666666, "fusion_lat": 0.0}, {"is_reserved": 0, "bike_id": "6e6458cde662cc64efa44dfd7463ef00", "type": "electric_scooter", "name": "6e6458cde662cc64efa44dfd7463ef00", "is_disabled": 0, "fusion_lon": 0.0, "rental_uris": {"android": "https://dc.lft.to/lastmile_qr_scan", "ios": "https://dc.lft.to/lastmile_qr_scan"}, "lat": 38.92096033333333, "lon": -77.03150283333333, "fusion_lat": 0.0}, {"is_reserved": 0, "bike_id": "c267f4a88674fa2ab2450dc68b4649e1", "type": "electric_bike", "name": "c267f4a88674fa2ab2450dc68b4649e1", "is_disabled": 0, "fusion_lon": 0.0, "rental_uris": {"android": "https://dc.lft.to/lastmile_qr_scan", "ios": "https://dc.lft.to/lastmile_qr_scan"}, "lat": 38.8676135, "lon": -76.94535233333333, "fusion_lat": 0.0}, {"is_reserved": 0, "bike_id": "0f187e7e72b8516b0fcf55ff6077cc37", "type": "electric_scooter", "name": "0f187e7e72b8516b0fcf55ff6077cc37", "is_disabled": 0, "fusion_lon": 0.0, "rental_uris": {"android": "https://dc.lft.to/lastmile_qr_scan", "ios": "https://dc.lft.to/lastmile_qr_scan"}, "lat": 38.90304016666666, "lon": -77.0414235, "fusion_lat": 0.0}, {"is_reserved": 0, "bike_id": "e62f67710c2c9640b715cfb0825419fc", "type": "electric_scooter", "name": "e62f67710c2c9640b715cfb0825419fc", "is_disabled": 0, "fusion_lon": 0.0, "rental_uris": {"android": "https://dc.lft.to/lastmile_qr_scan", "ios": "https://dc.lft.to/lastmile_qr_scan"}, "lat": 38.93508516666667, "lon": -77.02852283333333, "fusion_lat": 0.0}, {"is_reserved": 0, "bike_id": "ff2fe315749deb2f7b6a03ec1881ad34", "type": "electric_scooter", "name": "ff2fe315749deb2f7b6a03ec1881ad34", "is_disabled": 0, "fusion_lon": 0.0, "rental_uris": {"android": "https://dc.lft.to/lastmile_qr_scan", "ios": "https://dc.lft.to/lastmile_qr_scan"}, "lat": 38.93085633333333, "lon": -77.002052, "fusion_lat": 0.0}, {"is_reserved": 0, "bike_id": "5f0c9da32defecb920d16fcc14076170", "type": "electric_scooter", "name": "5f0c9da32defecb920d16fcc14076170", "is_disabled": 0, "fusion_lon": 0.0, "rental_uris": {"android": "https://dc.lft.to/lastmile_qr_scan", "ios": "https://dc.lft.to/lastmile_qr_scan"}, "lat": 38.94421, "lon": -77.06339783333334, "fusion_lat": 0.0}, {"is_reserved": 0, "bike_id": "d3e6b9665a3a9a719786653546a77c5e", "type": "electric_scooter", "name": "d3e6b9665a3a9a719786653546a77c5e", "is_disabled": 0, "fusion_lon": 0.0, "rental_uris": {"android": "https://dc.lft.to/lastmile_qr_scan", "ios": "https://dc.lft.to/lastmile_qr_scan"}, "lat": 38.970034166666665, "lon": -77.02552033333333, "fusion_lat": 0.0}, {"is_reserved": 0, "bike_id": "44519961203c898483d60f3e16cb1586", "type": "electric_scooter", "name": "44519961203c898483d60f3e16cb1586", "is_disabled": 0, "fusion_lon": 0.0, "rental_uris": {"android": "https://dc.lft.to/lastmile_qr_scan", "ios": "https://dc.lft.to/lastmile_qr_scan"}, "lat": 38.93088016666667, "lon": -77.03475316666666, "fusion_lat": 0.0}, {"is_reserved": 0, "bike_id": "fa5de308d8891a48cb8bbbd6ceda3f6b", "type": "electric_scooter", "name": "fa5de308d8891a48cb8bbbd6ceda3f6b", "is_disabled": 0, "fusion_lon": 0.0, "rental_uris": {"android": "https://dc.lft.to/lastmile_qr_scan", "ios": "https://dc.lft.to/lastmile_qr_scan"}, "lat": 38.902897, "lon": -77.01649183333333, "fusion_lat": 0.0}, {"is_reserved": 0, "bike_id": "124483db9e5957c90cebb1fa9b1bfe34", "type": "electric_scooter", "name": "124483db9e5957c90cebb1fa9b1bfe34", "is_disabled": 0, "fusion_lon": 0.0, "rental_uris": {"android": "https://dc.lft.to/lastmile_qr_scan", "ios": "https://dc.lft.to/lastmile_qr_scan"}, "lat": 38.902726666666666, "lon": -77.01819383333333, "fusion_lat": 0.0}, {"is_reserved": 0, "bike_id": "136e6bd4ead306b17bf8f3653617dfab", "type": "electric_bike", "name": "136e6bd4ead306b17bf8f3653617dfab", "is_disabled": 0, "fusion_lon": 0.0, "rental_uris": {"android": "https://dc.lft.to/lastmile_qr_scan", "ios": "https://dc.lft.to/lastmile_qr_scan"}, "lat": 38.89620133333333, "lon": -76.90745033333333, "fusion_lat": 0.0}, {"is_reserved": 0, "bike_id": "331e70604011d5ec01939ad222e851f1", "type": "electric_scooter", "name": "331e70604011d5ec01939ad222e851f1", "is_disabled": 0, "fusion_lon": 0.0, "rental_uris": {"android": "https://dc.lft.to/lastmile_qr_scan", "ios": "https://dc.lft.to/lastmile_qr_scan"}, "lat": 38.887172166666666, "lon": -77.02185, "fusion_lat": 0.0}, {"is_reserved": 0, "bike_id": "525111e504caf8190757f7726aea01cc", "type": "electric_scooter", "name": "525111e504caf8190757f7726aea01cc", "is_disabled": 0, "fusion_lon": 0.0, "rental_uris": {"android": "https://dc.lft.to/lastmile_qr_scan", "ios": "https://dc.lft.to/lastmile_qr_scan"}, "lat": 38.915683666666666, "lon": -77.032027, "fusion_lat": 0.0}, {"is_reserved": 0, "bike_id": "ae12ad8b914368d573bada4c6b415e05", "type": "electric_scooter", "name": "ae12ad8b914368d573bada4c6b415e05", "is_disabled": 0, "fusion_lon": 0.0, "rental_uris": {"android": "https://dc.lft.to/lastmile_qr_scan", "ios": "https://dc.lft.to/lastmile_qr_scan"}, "lat": 38.922307, "lon": -77.0233415, "fusion_lat": 0.0}, {"is_reserved": 0, "bike_id": "b60166c56c5001638c179867ff1fec96", "type": "electric_scooter", "name": "b60166c56c5001638c179867ff1fec96", "is_disabled": 0, "fusion_lon": 0.0, "rental_uris": {"android": "https://dc.lft.to/lastmile_qr_scan", "ios": "https://dc.lft.to/lastmile_qr_scan"}, "lat": 38.8981685, "lon": -77.0315205, "fusion_lat": 0.0}, {"is_reserved": 0, "bike_id": "1c289e436ab567ffdf550aa8334bf062", "type": "electric_scooter", "name": "1c289e436ab567ffdf550aa8334bf062", "is_disabled": 0, "fusion_lon": 0.0, "rental_uris": {"android": "https://dc.lft.to/lastmile_qr_scan", "ios": "https://dc.lft.to/lastmile_qr_scan"}, "lat": 38.92680716666667, "lon": -77.07841683333334, "fusion_lat": 0.0}, {"is_reserved": 0, "bike_id": "74443e0380a14ca3e8861f4c90539bb3", "type": "electric_scooter", "name": "74443e0380a14ca3e8861f4c90539bb3", "is_disabled": 0, "fusion_lon": 0.0, "rental_uris": {"android": "https://dc.lft.to/lastmile_qr_scan", "ios": "https://dc.lft.to/lastmile_qr_scan"}, "lat": 38.913321333333336, "lon": -77.01205, "fusion_lat": 0.0}, {"is_reserved": 0, "bike_id": "bc2fd76e220d8e92585f8bb7255d2585", "type": "electric_bike", "name": "bc2fd76e220d8e92585f8bb7255d2585", "is_disabled": 0, "fusion_lon": 0.0, "rental_uris": {"android": "https://dc.lft.to/lastmile_qr_scan", "ios": "https://dc.lft.to/lastmile_qr_scan"}, "lat": 38.900282833333335, "lon": -76.97227466666666, "fusion_lat": 0.0}, {"is_reserved": 0, "bike_id": "151f3124308d43b48cbdcfe921ec2e80", "type": "electric_scooter", "name": "151f3124308d43b48cbdcfe921ec2e80", "is_disabled": 0, "fusion_lon": 0.0, "rental_uris": {"android": "https://dc.lft.to/lastmile_qr_scan", "ios": "https://dc.lft.to/lastmile_qr_scan"}, "lat": 38.88512716666666, "lon": -76.92442733333333, "fusion_lat": 0.0}, {"is_reserved": 0, "bike_id": "14cf2bf2c1b3cd0a1f79a7ab7f286074", "type": "electric_scooter", "name": "14cf2bf2c1b3cd0a1f79a7ab7f286074", "is_disabled": 0, "fusion_lon": 0.0, "rental_uris": {"android": "https://dc.lft.to/lastmile_qr_scan", "ios": "https://dc.lft.to/lastmile_qr_scan"}, "lat": 38.90561016666667, "lon": -77.005846, "fusion_lat": 0.0}, {"is_reserved": 0, "bike_id": "9c97be66f104b1577d85507e3dd9e8f9", "type": "electric_bike", "name": "9c97be66f104b1577d85507e3dd9e8f9", "is_disabled": 0, "fusion_lon": 0.0, "rental_uris": {"android": "https://dc.lft.to/lastmile_qr_scan", "ios": "https://dc.lft.to/lastmile_qr_scan"}, "lat": 38.888731, "lon": -76.97841666666666, "fusion_lat": 0.0}, {"is_reserved": 0, "bike_id": "823e6d0f861570823e6c4e2326869439", "type": "electric_scooter", "name": "823e6d0f861570823e6c4e2326869439", "is_disabled": 0, "fusion_lon": 0.0, "rental_uris": {"android": "https://dc.lft.to/lastmile_qr_scan", "ios": "https://dc.lft.to/lastmile_qr_scan"}, "lat": 38.93129483333333, "lon": -77.05599116666667, "fusion_lat": 0.0}, {"is_reserved": 0, "bike_id": "1fe30d68089da78d9ef55d6cb9d12f05", "type": "electric_scooter", "name": "1fe30d68089da78d9ef55d6cb9d12f05", "is_disabled": 0, "fusion_lon": 0.0, "rental_uris": {"android": "https://dc.lft.to/lastmile_qr_scan", "ios": "https://dc.lft.to/lastmile_qr_scan"}, "lat": 38.904996833333335, "lon": -77.02959883333334, "fusion_lat": 0.0}, {"is_reserved": 0, "bike_id": "ca79a4c8d4cea555ef892a999b8236f4", "type": "electric_scooter", "name": "ca79a4c8d4cea555ef892a999b8236f4", "is_disabled": 0, "fusion_lon": 0.0, "rental_uris": {"android": "https://dc.lft.to/lastmile_qr_scan", "ios": "https://dc.lft.to/lastmile_qr_scan"}, "lat": 38.923905166666664, "lon": -77.04061783333333, "fusion_lat": 0.0}, {"is_reserved": 0, "bike_id": "c29ebf082158b164476ef79797721e42", "type": "electric_scooter", "name": "c29ebf082158b164476ef79797721e42", "is_disabled": 0, "fusion_lon": 0.0, "rental_uris": {"android": "https://dc.lft.to/lastmile_qr_scan", "ios": "https://dc.lft.to/lastmile_qr_scan"}, "lat": 38.911902, "lon": -77.03502616666667, "fusion_lat": 0.0}, {"is_reserved": 0, "bike_id": "a640473a8661cfa1dc899002495634b1", "type": "electric_scooter", "name": "a640473a8661cfa1dc899002495634b1", "is_disabled": 0, "fusion_lon": 0.0, "rental_uris": {"android": "https://dc.lft.to/lastmile_qr_scan", "ios": "https://dc.lft.to/lastmile_qr_scan"}, "lat": 38.905522166666664, "lon": -77.05006783333333, "fusion_lat": 0.0}, {"is_reserved": 0, "bike_id": "c0add16643b947e0d745466f3645bf0f", "type": "electric_scooter", "name": "c0add16643b947e0d745466f3645bf0f", "is_disabled": 0, "fusion_lon": 0.0, "rental_uris": {"android": "https://dc.lft.to/lastmile_qr_scan", "ios": "https://dc.lft.to/lastmile_qr_scan"}, "lat": 38.911203, "lon": -77.03835383333333, "fusion_lat": 0.0}, {"is_reserved": 0, "bike_id": "d2cd2db8dc4c87f1ca61cf4801617127", "type": "electric_scooter", "name": "d2cd2db8dc4c87f1ca61cf4801617127", "is_disabled": 0, "fusion_lon": 0.0, "rental_uris": {"android": "https://dc.lft.to/lastmile_qr_scan", "ios": "https://dc.lft.to/lastmile_qr_scan"}, "lat": 38.906693, "lon": -77.07321883333333, "fusion_lat": 0.0}, {"is_reserved": 0, "bike_id": "2cb3e1c21e0ea1754d7cef23c9eeb39f", "type": "electric_scooter", "name": "2cb3e1c21e0ea1754d7cef23c9eeb39f", "is_disabled": 0, "fusion_lon": 0.0, "rental_uris": {"android": "https://dc.lft.to/lastmile_qr_scan", "ios": "https://dc.lft.to/lastmile_qr_scan"}, "lat": 38.9025735, "lon": -77.03975183333333, "fusion_lat": 0.0}, {"is_reserved": 0, "bike_id": "70884dc3c2581445477823fcf2de09fd", "type": "electric_scooter", "name": "70884dc3c2581445477823fcf2de09fd", "is_disabled": 0, "fusion_lon": 0.0, "rental_uris": {"android": "https://dc.lft.to/lastmile_qr_scan", "ios": "https://dc.lft.to/lastmile_qr_scan"}, "lat": 38.89226516666667, "lon": -77.04499816666667, "fusion_lat": 0.0}, {"is_reserved": 0, "bike_id": "154aa0906fca11c23ca8750fc3597603", "type": "electric_scooter", "name": "154aa0906fca11c23ca8750fc3597603", "is_disabled": 0, "fusion_lon": 0.0, "rental_uris": {"android": "https://dc.lft.to/lastmile_qr_scan", "ios": "https://dc.lft.to/lastmile_qr_scan"}, "lat": 38.90895416666667, "lon": -77.03184316666666, "fusion_lat": 0.0}, {"is_reserved": 0, "bike_id": "7b191ec3c8c8278821e93835a1e188e5", "type": "electric_scooter", "name": "7b191ec3c8c8278821e93835a1e188e5", "is_disabled": 0, "fusion_lon": 0.0, "rental_uris": {"android": "https://dc.lft.to/lastmile_qr_scan", "ios": "https://dc.lft.to/lastmile_qr_scan"}, "lat": 38.91417966666667, "lon": -77.03171316666666, "fusion_lat": 0.0}, {"is_reserved": 0, "bike_id": "8456f75732ed420f57bf3d4c17e15a80", "type": "electric_scooter", "name": "8456f75732ed420f57bf3d4c17e15a80", "is_disabled": 0, "fusion_lon": 0.0, "rental_uris": {"android": "https://dc.lft.to/lastmile_qr_scan", "ios": "https://dc.lft.to/lastmile_qr_scan"}, "lat": 38.9237275, "lon": -77.050318, "fusion_lat": 0.0}, {"is_reserved": 0, "bike_id": "38db6eaa2de1bb7a9ca96145289ddad0", "type": "electric_scooter", "name": "38db6eaa2de1bb7a9ca96145289ddad0", "is_disabled": 0, "fusion_lon": 0.0, "rental_uris": {"android": "https://dc.lft.to/lastmile_qr_scan", "ios": "https://dc.lft.to/lastmile_qr_scan"}, "lat": 38.8936265, "lon": -77.04780933333333, "fusion_lat": 0.0}, {"is_reserved": 0, "bike_id": "42dc676acbe3d79fa715576f7fa860fc", "type": "electric_scooter", "name": "42dc676acbe3d79fa715576f7fa860fc", "is_disabled": 0, "fusion_lon": 0.0, "rental_uris": {"android": "https://dc.lft.to/lastmile_qr_scan", "ios": "https://dc.lft.to/lastmile_qr_scan"}, "lat": 38.923340333333336, "lon": -77.02287766666667, "fusion_lat": 0.0}, {"is_reserved": 0, "bike_id": "93ac05d2d1fb96c297afd0fa01c7f824", "type": "electric_scooter", "name": "93ac05d2d1fb96c297afd0fa01c7f824", "is_disabled": 0, "fusion_lon": 0.0, "rental_uris": {"android": "https://dc.lft.to/lastmile_qr_scan", "ios": "https://dc.lft.to/lastmile_qr_scan"}, "lat": 38.921183666666664, "lon": -77.03173083333333, "fusion_lat": 0.0}, {"is_reserved": 0, "bike_id": "200575f8527392a904acfdc81879117d", "type": "electric_scooter", "name": "200575f8527392a904acfdc81879117d", "is_disabled": 0, "fusion_lon": 0.0, "rental_uris": {"android": "https://dc.lft.to/lastmile_qr_scan", "ios": "https://dc.lft.to/lastmile_qr_scan"}, "lat": 38.89572066666667, "lon": -77.02690516666667, "fusion_lat": 0.0}, {"is_reserved": 0, "bike_id": "4935cdb1b95f1f5a5a7f7a04030c1b5a", "type": "electric_scooter", "name": "4935cdb1b95f1f5a5a7f7a04030c1b5a", "is_disabled": 0, "fusion_lon": 0.0, "rental_uris": {"android": "https://dc.lft.to/lastmile_qr_scan", "ios": "https://dc.lft.to/lastmile_qr_scan"}, "lat": 38.89868216666667, "lon": -76.94665616666667, "fusion_lat": 0.0}, {"is_reserved": 0, "bike_id": "abcd32cd4f3bcb4d5e36fbb552a8df34", "type": "electric_scooter", "name": "abcd32cd4f3bcb4d5e36fbb552a8df34", "is_disabled": 0, "fusion_lon": 0.0, "rental_uris": {"android": "https://dc.lft.to/lastmile_qr_scan", "ios": "https://dc.lft.to/lastmile_qr_scan"}, "lat": 38.868932, "lon": -76.98232133333333, "fusion_lat": 0.0}, {"is_reserved": 0, "bike_id": "dcf8f042bfbd51a2a281f3a85c5531b5", "type": "electric_scooter", "name": "dcf8f042bfbd51a2a281f3a85c5531b5", "is_disabled": 0, "fusion_lon": 0.0, "rental_uris": {"android": "https://dc.lft.to/lastmile_qr_scan", "ios": "https://dc.lft.to/lastmile_qr_scan"}, "lat": 38.9361175, "lon": -77.05888883333333, "fusion_lat": 0.0}, {"is_reserved": 0, "bike_id": "6b1e085a9d55332169f54eb069875524", "type": "electric_scooter", "name": "6b1e085a9d55332169f54eb069875524", "is_disabled": 0, "fusion_lon": 0.0, "rental_uris": {"android": "https://dc.lft.to/lastmile_qr_scan", "ios": "https://dc.lft.to/lastmile_qr_scan"}, "lat": 38.92764283333333, "lon": -77.0278205, "fusion_lat": 0.0}, {"is_reserved": 0, "bike_id": "274a57788eda4fc232446f364ccb81e2", "type": "electric_scooter", "name": "274a57788eda4fc232446f364ccb81e2", "is_disabled": 0, "fusion_lon": 0.0, "rental_uris": {"android": "https://dc.lft.to/lastmile_qr_scan", "ios": "https://dc.lft.to/lastmile_qr_scan"}, "lat": 38.911145833333336, "lon": -77.03831016666666, "fusion_lat": 0.0}, {"is_reserved": 0, "bike_id": "0465d8e5a564913f262249e135125f89", "type": "electric_scooter", "name": "0465d8e5a564913f262249e135125f89", "is_disabled": 0, "fusion_lon": 0.0, "rental_uris": {"android": "https://dc.lft.to/lastmile_qr_scan", "ios": "https://dc.lft.to/lastmile_qr_scan"}, "lat": 38.916133333333335, "lon": -77.022042, "fusion_lat": 0.0}, {"is_reserved": 0, "bike_id": "78e4b8594cce2b4fe165abe800d70159", "type": "electric_scooter", "name": "78e4b8594cce2b4fe165abe800d70159", "is_disabled": 0, "fusion_lon": 0.0, "rental_uris": {"android": "https://dc.lft.to/lastmile_qr_scan", "ios": "https://dc.lft.to/lastmile_qr_scan"}, "lat": 38.905083166666664, "lon": -77.02595966666667, "fusion_lat": 0.0}, {"is_reserved": 0, "bike_id": "fea6e3713ea0b195b81579c8ec67573b", "type": "electric_scooter", "name": "fea6e3713ea0b195b81579c8ec67573b", "is_disabled": 0, "fusion_lon": 0.0, "rental_uris": {"android": "https://dc.lft.to/lastmile_qr_scan", "ios": "https://dc.lft.to/lastmile_qr_scan"}, "lat": 38.90741716666667, "lon": -77.0295815, "fusion_lat": 0.0}, {"is_reserved": 0, "bike_id": "2872d7af533ccfab87d2c8bd878e167c", "type": "electric_scooter", "name": "2872d7af533ccfab87d2c8bd878e167c", "is_disabled": 0, "fusion_lon": 0.0, "rental_uris": {"android": "https://dc.lft.to/lastmile_qr_scan", "ios": "https://dc.lft.to/lastmile_qr_scan"}, "lat": 38.92032616666667, "lon": -76.99576266666666, "fusion_lat": 0.0}, {"is_reserved": 0, "bike_id": "5589a68889faef464797f076638a164b", "type": "electric_scooter", "name": "5589a68889faef464797f076638a164b", "is_disabled": 0, "fusion_lon": 0.0, "rental_uris": {"android": "https://dc.lft.to/lastmile_qr_scan", "ios": "https://dc.lft.to/lastmile_qr_scan"}, "lat": 38.899524666666665, "lon": -77.04866133333333, "fusion_lat": 0.0}, {"is_reserved": 0, "bike_id": "bd8a023a76bbecbb23b1c1a458edf751", "type": "electric_bike", "name": "bd8a023a76bbecbb23b1c1a458edf751", "is_disabled": 0, "fusion_lon": 0.0, "rental_uris": {"android": "https://dc.lft.to/lastmile_qr_scan", "ios": "https://dc.lft.to/lastmile_qr_scan"}, "lat": 38.857708, "lon": -76.987679, "fusion_lat": 0.0}, {"is_reserved": 0, "bike_id": "84b1be3af99b534d88e22d0643472176", "type": "electric_scooter", "name": "84b1be3af99b534d88e22d0643472176", "is_disabled": 0, "fusion_lon": 0.0, "rental_uris": {"android": "https://dc.lft.to/lastmile_qr_scan", "ios": "https://dc.lft.to/lastmile_qr_scan"}, "lat": 38.92306083333333, "lon": -77.03797333333333, "fusion_lat": 0.0}, {"is_reserved": 0, "bike_id": "e987a5d6a80eb06144b94e0605b93582", "type": "electric_scooter", "name": "e987a5d6a80eb06144b94e0605b93582", "is_disabled": 0, "fusion_lon": 0.0, "rental_uris": {"android": "https://dc.lft.to/lastmile_qr_scan", "ios": "https://dc.lft.to/lastmile_qr_scan"}, "lat": 38.93307433333333, "lon": -77.02142666666667, "fusion_lat": 0.0}, {"is_reserved": 0, "bike_id": "aff960ba9bddb4d0fd353bacc66080c8", "type": "electric_scooter", "name": "aff960ba9bddb4d0fd353bacc66080c8", "is_disabled": 0, "fusion_lon": 0.0, "rental_uris": {"android": "https://dc.lft.to/lastmile_qr_scan", "ios": "https://dc.lft.to/lastmile_qr_scan"}, "lat": 38.9368735, "lon": -77.0359645, "fusion_lat": 0.0}, {"is_reserved": 0, "bike_id": "5d6dd6a29501cd72ebeff4c44417357c", "type": "electric_scooter", "name": "5d6dd6a29501cd72ebeff4c44417357c", "is_disabled": 0, "fusion_lon": 0.0, "rental_uris": {"android": "https://dc.lft.to/lastmile_qr_scan", "ios": "https://dc.lft.to/lastmile_qr_scan"}, "lat": 38.8788165, "lon": -77.000557, "fusion_lat": 0.0}, {"is_reserved": 0, "bike_id": "993f7a89212e7c3415203b4d5e77c19a", "type": "electric_scooter", "name": "993f7a89212e7c3415203b4d5e77c19a", "is_disabled": 0, "fusion_lon": 0.0, "rental_uris": {"android": "https://dc.lft.to/lastmile_qr_scan", "ios": "https://dc.lft.to/lastmile_qr_scan"}, "lat": 38.904112833333336, "lon": -76.97336466666667, "fusion_lat": 0.0}, {"is_reserved": 0, "bike_id": "09bad31fa8e64e5b553b9a61834961e8", "type": "electric_scooter", "name": "09bad31fa8e64e5b553b9a61834961e8", "is_disabled": 0, "fusion_lon": 0.0, "rental_uris": {"android": "https://dc.lft.to/lastmile_qr_scan", "ios": "https://dc.lft.to/lastmile_qr_scan"}, "lat": 38.901053166666664, "lon": -77.04977416666667, "fusion_lat": 0.0}, {"is_reserved": 0, "bike_id": "0149931bba1ae11420e65b2f410cb6d3", "type": "electric_scooter", "name": "0149931bba1ae11420e65b2f410cb6d3", "is_disabled": 0, "fusion_lon": 0.0, "rental_uris": {"android": "https://dc.lft.to/lastmile_qr_scan", "ios": "https://dc.lft.to/lastmile_qr_scan"}, "lat": 38.920599333333335, "lon": -77.02509233333333, "fusion_lat": 0.0}, {"is_reserved": 0, "bike_id": "3dca4f4c2763c1f574ac0b311e2cf8e4", "type": "electric_scooter", "name": "3dca4f4c2763c1f574ac0b311e2cf8e4", "is_disabled": 0, "fusion_lon": 0.0, "rental_uris": {"android": "https://dc.lft.to/lastmile_qr_scan", "ios": "https://dc.lft.to/lastmile_qr_scan"}, "lat": 38.917034, "lon": -77.039116, "fusion_lat": 0.0}, {"is_reserved": 0, "bike_id": "78d69e4cd8923f1a646930b60125cf47", "type": "electric_scooter", "name": "78d69e4cd8923f1a646930b60125cf47", "is_disabled": 0, "fusion_lon": 0.0, "rental_uris": {"android": "https://dc.lft.to/lastmile_qr_scan", "ios": "https://dc.lft.to/lastmile_qr_scan"}, "lat": 38.9261305, "lon": -77.02160316666667, "fusion_lat": 0.0}, {"is_reserved": 0, "bike_id": "6b39932645ba0f3d328742d8164233cf", "type": "electric_scooter", "name": "6b39932645ba0f3d328742d8164233cf", "is_disabled": 0, "fusion_lon": 0.0, "rental_uris": {"android": "https://dc.lft.to/lastmile_qr_scan", "ios": "https://dc.lft.to/lastmile_qr_scan"}, "lat": 38.921553333333335, "lon": -77.033754, "fusion_lat": 0.0}, {"is_reserved": 0, "bike_id": "b59577eb14592edcc962b91003b6e1f2", "type": "electric_bike", "name": "b59577eb14592edcc962b91003b6e1f2", "is_disabled": 0, "fusion_lon": 0.0, "rental_uris": {"android": "https://dc.lft.to/lastmile_qr_scan", "ios": "https://dc.lft.to/lastmile_qr_scan"}, "lat": 38.7999115, "lon": -77.12977283333333, "fusion_lat": 0.0}, {"is_reserved": 0, "bike_id": "d1c1c7f9046f928bd26cb718b9dd49bb", "type": "electric_scooter", "name": "d1c1c7f9046f928bd26cb718b9dd49bb", "is_disabled": 0, "fusion_lon": 0.0, "rental_uris": {"android": "https://dc.lft.to/lastmile_qr_scan", "ios": "https://dc.lft.to/lastmile_qr_scan"}, "lat": 38.90029116666667, "lon": -76.99876616666667, "fusion_lat": 0.0}, {"is_reserved": 0, "bike_id": "73db794888f09883cb655ec2c34cca03", "type": "electric_scooter", "name": "73db794888f09883cb655ec2c34cca03", "is_disabled": 0, "fusion_lon": 0.0, "rental_uris": {"android": "https://dc.lft.to/lastmile_qr_scan", "ios": "https://dc.lft.to/lastmile_qr_scan"}, "lat": 38.9217485, "lon": -77.02078866666666, "fusion_lat": 0.0}, {"is_reserved": 0, "bike_id": "d2a95feccfa3b4f2dc5272c167c7f2dd", "type": "electric_scooter", "name": "d2a95feccfa3b4f2dc5272c167c7f2dd", "is_disabled": 0, "fusion_lon": 0.0, "rental_uris": {"android": "https://dc.lft.to/lastmile_qr_scan", "ios": "https://dc.lft.to/lastmile_qr_scan"}, "lat": 38.92454133333333, "lon": -77.02030733333334, "fusion_lat": 0.0}, {"is_reserved": 0, "bike_id": "9be2e8d6d3ebbcc536f3f255fe80acd5", "type": "electric_scooter", "name": "9be2e8d6d3ebbcc536f3f255fe80acd5", "is_disabled": 0, "fusion_lon": 0.0, "rental_uris": {"android": "https://dc.lft.to/lastmile_qr_scan", "ios": "https://dc.lft.to/lastmile_qr_scan"}, "lat": 38.9354845, "lon": -77.0820225, "fusion_lat": 0.0}, {"is_reserved": 0, "bike_id": "54fa5f71e713ed98717e3826c3999ee2", "type": "electric_scooter", "name": "54fa5f71e713ed98717e3826c3999ee2", "is_disabled": 0, "fusion_lon": 0.0, "rental_uris": {"android": "https://dc.lft.to/lastmile_qr_scan", "ios": "https://dc.lft.to/lastmile_qr_scan"}, "lat": 38.8842045, "lon": -77.02785683333333, "fusion_lat": 0.0}, {"is_reserved": 0, "bike_id": "bebbe51d3aeef0f8fe8cf990af7cfda2", "type": "electric_scooter", "name": "bebbe51d3aeef0f8fe8cf990af7cfda2", "is_disabled": 0, "fusion_lon": 0.0, "rental_uris": {"android": "https://dc.lft.to/lastmile_qr_scan", "ios": "https://dc.lft.to/lastmile_qr_scan"}, "lat": 38.9303135, "lon": -77.026363, "fusion_lat": 0.0}, {"is_reserved": 0, "bike_id": "e7a2722be49a63d7a5dd4f71b68ef714", "type": "electric_bike", "name": "e7a2722be49a63d7a5dd4f71b68ef714", "is_disabled": 0, "fusion_lon": 0.0, "rental_uris": {"android": "https://dc.lft.to/lastmile_qr_scan", "ios": "https://dc.lft.to/lastmile_qr_scan"}, "lat": 38.88136633333333, "lon": -76.98114016666666, "fusion_lat": 0.0}, {"is_reserved": 0, "bike_id": "fa543a86c446952c01fa529598670527", "type": "electric_scooter", "name": "fa543a86c446952c01fa529598670527", "is_disabled": 0, "fusion_lon": 0.0, "rental_uris": {"android": "https://dc.lft.to/lastmile_qr_scan", "ios": "https://dc.lft.to/lastmile_qr_scan"}, "lat": 38.92318266666667, "lon": -77.05562233333333, "fusion_lat": 0.0}, {"is_reserved": 0, "bike_id": "3b24e35fa12f6e87aeae049fbbfc8acb", "type": "electric_scooter", "name": "3b24e35fa12f6e87aeae049fbbfc8acb", "is_disabled": 0, "fusion_lon": 0.0, "rental_uris": {"android": "https://dc.lft.to/lastmile_qr_scan", "ios": "https://dc.lft.to/lastmile_qr_scan"}, "lat": 38.907867833333334, "lon": -77.072335, "fusion_lat": 0.0}, {"is_reserved": 0, "bike_id": "045fe7fc94c1d16abe96779b79bd5419", "type": "electric_scooter", "name": "045fe7fc94c1d16abe96779b79bd5419", "is_disabled": 0, "fusion_lon": 0.0, "rental_uris": {"android": "https://dc.lft.to/lastmile_qr_scan", "ios": "https://dc.lft.to/lastmile_qr_scan"}, "lat": 38.890456, "lon": -76.9900815, "fusion_lat": 0.0}, {"is_reserved": 0, "bike_id": "4e7335f3f44dcc7410b60ebb4d4368e5", "type": "electric_scooter", "name": "4e7335f3f44dcc7410b60ebb4d4368e5", "is_disabled": 0, "fusion_lon": 0.0, "rental_uris": {"android": "https://dc.lft.to/lastmile_qr_scan", "ios": "https://dc.lft.to/lastmile_qr_scan"}, "lat": 38.898489166666664, "lon": -77.04366783333333, "fusion_lat": 0.0}, {"is_reserved": 0, "bike_id": "e1ea115273af3e7c065663956dd1afd5", "type": "electric_bike", "name": "e1ea115273af3e7c065663956dd1afd5", "is_disabled": 0, "fusion_lon": 0.0, "rental_uris": {"android": "https://dc.lft.to/lastmile_qr_scan", "ios": "https://dc.lft.to/lastmile_qr_scan"}, "lat": 38.932752666666666, "lon": -77.06567483333333, "fusion_lat": 0.0}, {"is_reserved": 0, "bike_id": "fcd041d4c5dc4635088696aa7ebd0c28", "type": "electric_scooter", "name": "fcd041d4c5dc4635088696aa7ebd0c28", "is_disabled": 0, "fusion_lon": 0.0, "rental_uris": {"android": "https://dc.lft.to/lastmile_qr_scan", "ios": "https://dc.lft.to/lastmile_qr_scan"}, "lat": 38.90082616666667, "lon": -77.05015083333333, "fusion_lat": 0.0}, {"is_reserved": 0, "bike_id": "a9922412ccdebcf970d08a827984ecb6", "type": "electric_scooter", "name": "a9922412ccdebcf970d08a827984ecb6", "is_disabled": 0, "fusion_lon": 0.0, "rental_uris": {"android": "https://dc.lft.to/lastmile_qr_scan", "ios": "https://dc.lft.to/lastmile_qr_scan"}, "lat": 38.9070305, "lon": -76.98699416666666, "fusion_lat": 0.0}, {"is_reserved": 0, "bike_id": "f53456332fc89b4f087077883f324f36", "type": "electric_scooter", "name": "f53456332fc89b4f087077883f324f36", "is_disabled": 0, "fusion_lon": 0.0, "rental_uris": {"android": "https://dc.lft.to/lastmile_qr_scan", "ios": "https://dc.lft.to/lastmile_qr_scan"}, "lat": 38.91048266666667, "lon": -77.0646195, "fusion_lat": 0.0}, {"is_reserved": 0, "bike_id": "a228d838a327e2d80aab3dfadf5ef096", "type": "electric_scooter", "name": "a228d838a327e2d80aab3dfadf5ef096", "is_disabled": 0, "fusion_lon": 0.0, "rental_uris": {"android": "https://dc.lft.to/lastmile_qr_scan", "ios": "https://dc.lft.to/lastmile_qr_scan"}, "lat": 38.9244545, "lon": -77.036584, "fusion_lat": 0.0}, {"is_reserved": 0, "bike_id": "dd2710f17368d26f246bc2a04c4d2953", "type": "electric_scooter", "name": "dd2710f17368d26f246bc2a04c4d2953", "is_disabled": 0, "fusion_lon": 0.0, "rental_uris": {"android": "https://dc.lft.to/lastmile_qr_scan", "ios": "https://dc.lft.to/lastmile_qr_scan"}, "lat": 38.92764783333333, "lon": -77.036612, "fusion_lat": 0.0}, {"is_reserved": 0, "bike_id": "2971decf1c5a16595836b29b57b76189", "type": "electric_scooter", "name": "2971decf1c5a16595836b29b57b76189", "is_disabled": 0, "fusion_lon": 0.0, "rental_uris": {"android": "https://dc.lft.to/lastmile_qr_scan", "ios": "https://dc.lft.to/lastmile_qr_scan"}, "lat": 38.922485333333334, "lon": -77.03896016666667, "fusion_lat": 0.0}, {"is_reserved": 0, "bike_id": "53031d5b2caaf836910c1c809b9beb04", "type": "electric_scooter", "name": "53031d5b2caaf836910c1c809b9beb04", "is_disabled": 0, "fusion_lon": 0.0, "rental_uris": {"android": "https://dc.lft.to/lastmile_qr_scan", "ios": "https://dc.lft.to/lastmile_qr_scan"}, "lat": 38.91964216666667, "lon": -77.03850233333333, "fusion_lat": 0.0}, {"is_reserved": 0, "bike_id": "8decf09a9d6daca1f254fbe6016cd0c4", "type": "electric_scooter", "name": "8decf09a9d6daca1f254fbe6016cd0c4", "is_disabled": 0, "fusion_lon": 0.0, "rental_uris": {"android": "https://dc.lft.to/lastmile_qr_scan", "ios": "https://dc.lft.to/lastmile_qr_scan"}, "lat": 38.91013916666667, "lon": -76.99390616666666, "fusion_lat": 0.0}, {"is_reserved": 0, "bike_id": "fc529214811a91dcc79ae715cff29650", "type": "electric_bike", "name": "fc529214811a91dcc79ae715cff29650", "is_disabled": 0, "fusion_lon": 0.0, "rental_uris": {"android": "https://dc.lft.to/lastmile_qr_scan", "ios": "https://dc.lft.to/lastmile_qr_scan"}, "lat": 38.89957483333333, "lon": -77.04971566666667, "fusion_lat": 0.0}, {"is_reserved": 0, "bike_id": "075eb54e7ba3ab8cc48dfb4afb503218", "type": "electric_scooter", "name": "075eb54e7ba3ab8cc48dfb4afb503218", "is_disabled": 0, "fusion_lon": 0.0, "rental_uris": {"android": "https://dc.lft.to/lastmile_qr_scan", "ios": "https://dc.lft.to/lastmile_qr_scan"}, "lat": 38.96214716666667, "lon": -77.02788983333333, "fusion_lat": 0.0}, {"is_reserved": 0, "bike_id": "28da0ae52586bcebbffc5e92b4a49d0d", "type": "electric_scooter", "name": "28da0ae52586bcebbffc5e92b4a49d0d", "is_disabled": 0, "fusion_lon": 0.0, "rental_uris": {"android": "https://dc.lft.to/lastmile_qr_scan", "ios": "https://dc.lft.to/lastmile_qr_scan"}, "lat": 38.9202015, "lon": -77.071309, "fusion_lat": 0.0}, {"is_reserved": 0, "bike_id": "b02bf25ca0f3bb11df2234897244e6e4", "type": "electric_scooter", "name": "b02bf25ca0f3bb11df2234897244e6e4", "is_disabled": 0, "fusion_lon": 0.0, "rental_uris": {"android": "https://dc.lft.to/lastmile_qr_scan", "ios": "https://dc.lft.to/lastmile_qr_scan"}, "lat": 38.903108833333334, "lon": -77.0366695, "fusion_lat": 0.0}, {"is_reserved": 0, "bike_id": "49ae2b33d383ef8383547b04641c5e86", "type": "electric_scooter", "name": "49ae2b33d383ef8383547b04641c5e86", "is_disabled": 0, "fusion_lon": 0.0, "rental_uris": {"android": "https://dc.lft.to/lastmile_qr_scan", "ios": "https://dc.lft.to/lastmile_qr_scan"}, "lat": 38.922289, "lon": -77.04430716666667, "fusion_lat": 0.0}, {"is_reserved": 0, "bike_id": "c936fd04eeaa866e2418b8b5b893456b", "type": "electric_scooter", "name": "c936fd04eeaa866e2418b8b5b893456b", "is_disabled": 0, "fusion_lon": 0.0, "rental_uris": {"android": "https://dc.lft.to/lastmile_qr_scan", "ios": "https://dc.lft.to/lastmile_qr_scan"}, "lat": 38.898718333333335, "lon": -76.9466795, "fusion_lat": 0.0}, {"is_reserved": 0, "bike_id": "1c5a298f1a3cad5eca4efd6c376ed507", "type": "electric_bike", "name": "1c5a298f1a3cad5eca4efd6c376ed507", "is_disabled": 0, "fusion_lon": 0.0, "rental_uris": {"android": "https://dc.lft.to/lastmile_qr_scan", "ios": "https://dc.lft.to/lastmile_qr_scan"}, "lat": 38.9090985, "lon": -77.08997333333333, "fusion_lat": 0.0}, {"is_reserved": 0, "bike_id": "0a2497b61a4fff4a0ce9093dc959cec6", "type": "electric_bike", "name": "0a2497b61a4fff4a0ce9093dc959cec6", "is_disabled": 0, "fusion_lon": 0.0, "rental_uris": {"android": "https://dc.lft.to/lastmile_qr_scan", "ios": "https://dc.lft.to/lastmile_qr_scan"}, "lat": 38.87661633333333, "lon": -77.00013, "fusion_lat": 0.0}, {"is_reserved": 0, "bike_id": "31a3c6e44d6fef69467697b7430ae22f", "type": "electric_scooter", "name": "31a3c6e44d6fef69467697b7430ae22f", "is_disabled": 0, "fusion_lon": 0.0, "rental_uris": {"android": "https://dc.lft.to/lastmile_qr_scan", "ios": "https://dc.lft.to/lastmile_qr_scan"}, "lat": 38.91050283333333, "lon": -77.03272416666667, "fusion_lat": 0.0}, {"is_reserved": 0, "bike_id": "b850550ffe4da5cc79d88759862dc352", "type": "electric_scooter", "name": "b850550ffe4da5cc79d88759862dc352", "is_disabled": 0, "fusion_lon": 0.0, "rental_uris": {"android": "https://dc.lft.to/lastmile_qr_scan", "ios": "https://dc.lft.to/lastmile_qr_scan"}, "lat": 38.8836955, "lon": -77.0311725, "fusion_lat": 0.0}, {"is_reserved": 0, "bike_id": "8ae759514f3f440a47224244ef9f0575", "type": "electric_scooter", "name": "8ae759514f3f440a47224244ef9f0575", "is_disabled": 0, "fusion_lon": 0.0, "rental_uris": {"android": "https://dc.lft.to/lastmile_qr_scan", "ios": "https://dc.lft.to/lastmile_qr_scan"}, "lat": 38.9111705, "lon": -77.03831383333333, "fusion_lat": 0.0}, {"is_reserved": 0, "bike_id": "ae6bb496998163056d417515eb665ae5", "type": "electric_bike", "name": "ae6bb496998163056d417515eb665ae5", "is_disabled": 0, "fusion_lon": 0.0, "rental_uris": {"android": "https://dc.lft.to/lastmile_qr_scan", "ios": "https://dc.lft.to/lastmile_qr_scan"}, "lat": 39.021143, "lon": -77.04493483333333, "fusion_lat": 0.0}, {"is_reserved": 0, "bike_id": "eab81840476ae93b9aaf2c2f2db2bd4f", "type": "electric_scooter", "name": "eab81840476ae93b9aaf2c2f2db2bd4f", "is_disabled": 0, "fusion_lon": 0.0, "rental_uris": {"android": "https://dc.lft.to/lastmile_qr_scan", "ios": "https://dc.lft.to/lastmile_qr_scan"}, "lat": 38.87682866666667, "lon": -77.0034715, "fusion_lat": 0.0}, {"is_reserved": 0, "bike_id": "22282a2b26fe40b31c1363fffd189f62", "type": "electric_scooter", "name": "22282a2b26fe40b31c1363fffd189f62", "is_disabled": 0, "fusion_lon": 0.0, "rental_uris": {"android": "https://dc.lft.to/lastmile_qr_scan", "ios": "https://dc.lft.to/lastmile_qr_scan"}, "lat": 38.920640666666664, "lon": -77.03252933333333, "fusion_lat": 0.0}, {"is_reserved": 0, "bike_id": "d4edaa18fb96283f76240b5cac360fe9", "type": "electric_scooter", "name": "d4edaa18fb96283f76240b5cac360fe9", "is_disabled": 0, "fusion_lon": 0.0, "rental_uris": {"android": "https://dc.lft.to/lastmile_qr_scan", "ios": "https://dc.lft.to/lastmile_qr_scan"}, "lat": 38.924819166666666, "lon": -77.0222375, "fusion_lat": 0.0}, {"is_reserved": 0, "bike_id": "0f3fb9540e05776a636cb6b0ed1e6bbd", "type": "electric_scooter", "name": "0f3fb9540e05776a636cb6b0ed1e6bbd", "is_disabled": 0, "fusion_lon": 0.0, "rental_uris": {"android": "https://dc.lft.to/lastmile_qr_scan", "ios": "https://dc.lft.to/lastmile_qr_scan"}, "lat": 38.9498095, "lon": -77.02447933333333, "fusion_lat": 0.0}, {"is_reserved": 0, "bike_id": "ad6791db1971d08977438459f5027ad3", "type": "electric_scooter", "name": "ad6791db1971d08977438459f5027ad3", "is_disabled": 0, "fusion_lon": 0.0, "rental_uris": {"android": "https://dc.lft.to/lastmile_qr_scan", "ios": "https://dc.lft.to/lastmile_qr_scan"}, "lat": 38.899791, "lon": -77.00667366666667, "fusion_lat": 0.0}, {"is_reserved": 0, "bike_id": "b478281d5092723efd24cf4074df91df", "type": "electric_scooter", "name": "b478281d5092723efd24cf4074df91df", "is_disabled": 0, "fusion_lon": 0.0, "rental_uris": {"android": "https://dc.lft.to/lastmile_qr_scan", "ios": "https://dc.lft.to/lastmile_qr_scan"}, "lat": 38.924875666666665, "lon": -77.03638516666666, "fusion_lat": 0.0}, {"is_reserved": 0, "bike_id": "7a9faf3f2d92b838459b8c2104d2e51f", "type": "electric_scooter", "name": "7a9faf3f2d92b838459b8c2104d2e51f", "is_disabled": 0, "fusion_lon": 0.0, "rental_uris": {"android": "https://dc.lft.to/lastmile_qr_scan", "ios": "https://dc.lft.to/lastmile_qr_scan"}, "lat": 38.920097166666665, "lon": -76.98506016666667, "fusion_lat": 0.0}, {"is_reserved": 0, "bike_id": "00c0bd6e1546d1ed4735f20965362a58", "type": "electric_scooter", "name": "00c0bd6e1546d1ed4735f20965362a58", "is_disabled": 0, "fusion_lon": 0.0, "rental_uris": {"android": "https://dc.lft.to/lastmile_qr_scan", "ios": "https://dc.lft.to/lastmile_qr_scan"}, "lat": 38.941853, "lon": -77.0335145, "fusion_lat": 0.0}, {"is_reserved": 0, "bike_id": "54588c4c758eca83e81837a38e18e123", "type": "electric_scooter", "name": "54588c4c758eca83e81837a38e18e123", "is_disabled": 0, "fusion_lon": 0.0, "rental_uris": {"android": "https://dc.lft.to/lastmile_qr_scan", "ios": "https://dc.lft.to/lastmile_qr_scan"}, "lat": 38.90084933333333, "lon": -77.0487205, "fusion_lat": 0.0}, {"is_reserved": 0, "bike_id": "457a47a3458a6bc9aedfbc69e8dd017b", "type": "electric_scooter", "name": "457a47a3458a6bc9aedfbc69e8dd017b", "is_disabled": 0, "fusion_lon": 0.0, "rental_uris": {"android": "https://dc.lft.to/lastmile_qr_scan", "ios": "https://dc.lft.to/lastmile_qr_scan"}, "lat": 38.9166165, "lon": -77.025677, "fusion_lat": 0.0}, {"is_reserved": 0, "bike_id": "f2111589d20ef0136267119b6cc5519b", "type": "electric_scooter", "name": "f2111589d20ef0136267119b6cc5519b", "is_disabled": 0, "fusion_lon": 0.0, "rental_uris": {"android": "https://dc.lft.to/lastmile_qr_scan", "ios": "https://dc.lft.to/lastmile_qr_scan"}, "lat": 38.92703433333333, "lon": -77.02081033333333, "fusion_lat": 0.0}, {"is_reserved": 0, "bike_id": "d267ed855c85055a233aa2449e5c07dd", "type": "electric_scooter", "name": "d267ed855c85055a233aa2449e5c07dd", "is_disabled": 0, "fusion_lon": 0.0, "rental_uris": {"android": "https://dc.lft.to/lastmile_qr_scan", "ios": "https://dc.lft.to/lastmile_qr_scan"}, "lat": 38.912059166666666, "lon": -77.032104, "fusion_lat": 0.0}, {"is_reserved": 0, "bike_id": "a2fce69c9b026c3b921c8e5f396d78f1", "type": "electric_scooter", "name": "a2fce69c9b026c3b921c8e5f396d78f1", "is_disabled": 0, "fusion_lon": 0.0, "rental_uris": {"android": "https://dc.lft.to/lastmile_qr_scan", "ios": "https://dc.lft.to/lastmile_qr_scan"}, "lat": 38.92292416666667, "lon": -77.022421, "fusion_lat": 0.0}, {"is_reserved": 0, "bike_id": "6f1bb72905e2f79a8fb6bc7a5af7c419", "type": "electric_scooter", "name": "6f1bb72905e2f79a8fb6bc7a5af7c419", "is_disabled": 0, "fusion_lon": 0.0, "rental_uris": {"android": "https://dc.lft.to/lastmile_qr_scan", "ios": "https://dc.lft.to/lastmile_qr_scan"}, "lat": 38.9089255, "lon": -76.98236916666667, "fusion_lat": 0.0}, {"is_reserved": 0, "bike_id": "1f3d5b1afcc1207dd00e5d9caac781df", "type": "electric_scooter", "name": "1f3d5b1afcc1207dd00e5d9caac781df", "is_disabled": 0, "fusion_lon": 0.0, "rental_uris": {"android": "https://dc.lft.to/lastmile_qr_scan", "ios": "https://dc.lft.to/lastmile_qr_scan"}, "lat": 38.8805755, "lon": -76.93222366666667, "fusion_lat": 0.0}, {"is_reserved": 0, "bike_id": "74987d98d99d61dd2a11be9d579af77c", "type": "electric_scooter", "name": "74987d98d99d61dd2a11be9d579af77c", "is_disabled": 0, "fusion_lon": 0.0, "rental_uris": {"android": "https://dc.lft.to/lastmile_qr_scan", "ios": "https://dc.lft.to/lastmile_qr_scan"}, "lat": 38.9256355, "lon": -77.05300733333333, "fusion_lat": 0.0}, {"is_reserved": 0, "bike_id": "82c4aedb10a388854b156d2fd37171d8", "type": "electric_scooter", "name": "82c4aedb10a388854b156d2fd37171d8", "is_disabled": 0, "fusion_lon": 0.0, "rental_uris": {"android": "https://dc.lft.to/lastmile_qr_scan", "ios": "https://dc.lft.to/lastmile_qr_scan"},