{"data": {"bikes": [{"lat": 38.871738666666666, "is_reserved": 0, "lon": -77.00679833333334, "fusion_lon": 0.0, "fusion_lat": 0.0, "is_disabled": 0, "type": "electric_scooter", "bike_id": "a2b14fb55cbab7db9ef93edf68318441", "rental_uris": {"android": "https://dc.lft.to/lastmile_qr_scan", "ios": "https://dc.lft.to/lastmile_qr_scan"}, "name": "a2b14fb55cbab7db9ef93edf68318441"}, {"lat": 38.90381033333333, "is_reserved": 0, "lon": -77.036295, "fusion_lon": 0.0, "fusion_lat": 0.0, "is_disabled": 0, "type": "electric_scooter", "bike_id": "a3fc9bbec235158999ab964509cb3a43", "rental_uris": {"android": "https://dc.lft.to/lastmile_qr_scan", "ios": "https://dc.lft.to/lastmile_qr_scan"}, "name": "a3fc9bbec235158999ab964509cb3a43"}, {"lat": 38.926562833333335, "is_reserved": 0, "lon": -77.03722433333333, "fusion_lon": 0.0, "fusion_lat": 0.0, "is_disabled": 0, "type": "electric_scooter", "bike_id": "076aac1b333265a0fd00c7fe3562f289", "rental_uris": {"android": "https://dc.lft.to/lastmile_qr_scan", "ios": "https://dc.lft.to/lastmile_qr_scan"}, "name": "076aac1b333265a0fd00c7fe3562f289"}, {"lat": 38.922702666666666, "is_reserved": 0, "lon": -77.03408116666667, "fusion_lon": 0.0, "fusion_lat": 0.0, "is_disabled": 0, "type": "electric_scooter", "bike_id": "eedc704cbf273be32e167d252afbbe64", "rental_uris": {"android": "https://dc.lft.to/lastmile_qr_scan", "ios": "https://dc.lft.to/lastmile_qr_scan"}, "name": "eedc704cbf273be32e167d252afbbe64"}, {"lat": 38.921564333333336, "is_reserved": 0, "lon": -77.03663783333333, "fusion_lon": 0.0, "fusion_lat": 0.0, "is_disabled": 0, "type": "electric_scooter", "bike_id": "a7740708ae3df05bbd9a40c5d6e8d599", "rental_uris": {"android": "https://dc.lft.to/lastmile_qr_scan", "ios": "https://dc.lft.to/lastmile_qr_scan"}, "name": "a7740708ae3df05bbd9a40c5d6e8d599"}, {"lat": 38.8999805, "is_reserved": 0, "lon": -77.0557305, "fusion_lon": 0.0, "fusion_lat": 0.0, "is_disabled": 0, "type": "electric_scooter", "bike_id": "d2da3fae08cd1dfe84c4477ac3da5bf7", "rental_uris": {"android": "https://dc.lft.to/lastmile_qr_scan", "ios": "https://dc.lft.to/lastmile_qr_scan"}, "name": "d2da3fae08cd1dfe84c4477ac3da5bf7"}, {"lat": 38.895321333333335, "is_reserved": 0, "lon": -76.94892266666666, "fusion_lon": 0.0, "fusion_lat": 0.0, "is_disabled": 0, "type": "electric_scooter", "bike_id": "58c2dd44bf531cb714d24be387579c84", "rental_uris": {"android": "https://dc.lft.to/lastmile_qr_scan", "ios": "https://dc.lft.to/lastmile_qr_scan"}, "name": "58c2dd44bf531cb714d24be387579c84"}, {"lat": 38.915469, "is_reserved": 0, "lon": -77.02406766666667, "fusion_lon": 0.0, "fusion_lat": 0.0, "is_disabled": 0, "type": "electric_scooter", "bike_id": "76be08cbe4be06d0fa23f475f4720d87", "rental_uris": {"android": "https://dc.lft.to/lastmile_qr_scan", "ios": "https://dc.lft.to/lastmile_qr_scan"}, "name": "76be08cbe4be06d0fa23f475f4720d87"}, {"lat": 38.91494433333333, "is_reserved": 0, "lon": -76.98366666666666, "fusion_lon": 0.0, "fusion_lat": 0.0, "is_disabled": 0, "type": "electric_scooter", "bike_id": "d74c4333e73bfcb4578fe77c10f0e2ec", "rental_uris": {"android": "https://dc.lft.to/lastmile_qr_scan", "ios": "https://dc.lft.to/lastmile_qr_scan"}, "name": "d74c4333e73bfcb4578fe77c10f0e2ec"}, {"lat": 38.94440183333333, "is_reserved": 0, "lon": -77.0640555, "fusion_lon": 0.0, "fusion_lat": 0.0, "is_disabled": 0, "type": "electric_scooter", "bike_id": "0778d78b99f49a952f4c8aafaa0a18ce", "rental_uris": {"android": "https://dc.lft.to/lastmile_qr_scan", "ios": "https://dc.lft.to/lastmile_qr_scan"}, "name": "0778d78b99f49a952f4c8aafaa0a18ce"}, {"lat": 38.918003, "is_reserved": 0, "lon": -77.03652633333333, "fusion_lon": 0.0, "fusion_lat": 0.0, "is_disabled": 0, "type": "electric_scooter", "bike_id": "ce2929f24814e21a6fb3278b52d841ad", "rental_uris": {"android": "https://dc.lft.to/lastmile_qr_scan", "ios": "https://dc.lft.to/lastmile_qr_scan"}, "name": "ce2929f24814e21a6fb3278b52d841ad"}, {"lat": 38.93189533333333, "is_reserved": 0, "lon": -77.08430666666666, "fusion_lon": 0.0, "fusion_lat": 0.0, "is_disabled": 0, "type": "electric_scooter", "bike_id": "c70e436f0a80d2d16e40de5066528f27", "rental_uris": {"android": "https://dc.lft.to/lastmile_qr_scan", "ios": "https://dc.lft.to/lastmile_qr_scan"}, "name": "c70e436f0a80d2d16e40de5066528f27"}, {"lat": 38.90345766666667, "is_reserved": 0, "lon": -77.04659066666666, "fusion_lon": 0.0, "fusion_lat": 0.0, "is_disabled": 0, "type": "electric_scooter", "bike_id": "f768685780aa98520ee398dc227e1821", "rental_uris": {"android": "https://dc.lft.to/lastmile_qr_scan", "ios": "https://dc.lft.to/lastmile_qr_scan"}, "name": "f768685780aa98520ee398dc227e1821"}, {"lat": 38.867519333333334, "is_reserved": 0, "lon": -76.94539883333333, "fusion_lon": 0.0, "fusion_lat": 0.0, "is_disabled": 0, "type": "electric_bike", "bike_id": "df4028a1e7d1d7d9a37d69520611136e", "rental_uris": {"android": "https://dc.lft.to/lastmile_qr_scan", "ios": "https://dc.lft.to/lastmile_qr_scan"}, "name": "df4028a1e7d1d7d9a37d69520611136e"}, {"lat": 38.938591833333334, "is_reserved": 0, "lon": -77.02628716666666, "fusion_lon": 0.0, "fusion_lat": 0.0, "is_disabled": 0, "type": "electric_bike", "bike_id": "55897391f3af4fa516af132f00fdbbc5", "rental_uris": {"android": "https://dc.lft.to/lastmile_qr_scan", "ios": "https://dc.lft.to/lastmile_qr_scan"}, "name": "55897391f3af4fa516af132f00fdbbc5"}, {"lat": 38.91330583333333, "is_reserved": 0, "lon": -77.045488, "fusion_lon": 0.0, "fusion_lat": 0.0, "is_disabled": 0, "type": "electric_scooter", "bike_id": "023b2b24196db6ce36a7e6bc2b59e7c6", "rental_uris": {"android": "https://dc.lft.to/lastmile_qr_scan", "ios": "https://dc.lft.to/lastmile_qr_scan"}, "name": "023b2b24196db6ce36a7e6bc2b59e7c6"}, {"lat": 38.87627333333333, "is_reserved": 0, "lon": -76.96525366666667, "fusion_lon": 0.0, "fusion_lat": 0.0, "is_disabled": 0, "type": "electric_scooter", "bike_id": "4c44563aa67169d4d85007c7df97c5a3", "rental_uris": {"android": "https://dc.lft.to/lastmile_qr_scan", "ios": "https://dc.lft.to/lastmile_qr_scan"}, "name": "4c44563aa67169d4d85007c7df97c5a3"}, {"lat": 38.9189775, "is_reserved": 0, "lon": -77.02491716666667, "fusion_lon": 0.0, "fusion_lat": 0.0, "is_disabled": 0, "type": "electric_scooter", "bike_id": "bf7f4eb5857fa1a44578775e3888b0a7", "rental_uris": {"android": "https://dc.lft.to/lastmile_qr_scan", "ios": "https://dc.lft.to/lastmile_qr_scan"}, "name": "bf7f4eb5857fa1a44578775e3888b0a7"}, {"lat": 38.89538316666667, "is_reserved": 0, "lon": -77.0219615, "fusion_lon": 0.0, "fusion_lat": 0.0, "is_disabled": 0, "type": "electric_scooter", "bike_id": "950b4605653f7699d9e897b7209f7f3f", "rental_uris": {"android": "https://dc.lft.to/lastmile_qr_scan", "ios": "https://dc.lft.to/lastmile_qr_scan"}, "name": "950b4605653f7699d9e897b7209f7f3f"}, {"lat": 38.92119133333333, "is_reserved": 0, "lon": -77.0442855, "fusion_lon": 0.0, "fusion_lat": 0.0, "is_disabled": 0, "type": "electric_scooter", "bike_id": "277ce53a7eee6fdb672cf2ff97bae6f7", "rental_uris": {"android": "https://dc.lft.to/lastmile_qr_scan", "ios": "https://dc.lft.to/lastmile_qr_scan"}, "name": "277ce53a7eee6fdb672cf2ff97bae6f7"}, {"lat": 38.9218055, "is_reserved": 0, "lon": -77.04224033333334, "fusion_lon": 0.0, "fusion_lat": 0.0, "is_disabled": 0, "type": "electric_scooter", "bike_id": "08605175c1668e9823aa99aa0250bf1c", "rental_uris": {"android": "https://dc.lft.to/lastmile_qr_scan", "ios": "https://dc.lft.to/lastmile_qr_scan"}, "name": "08605175c1668e9823aa99aa0250bf1c"}, {"lat": 38.876539333333334, "is_reserved": 0, "lon": -77.00830416666666, "fusion_lon": 0.0, "fusion_lat": 0.0, "is_disabled": 0, "type": "electric_scooter", "bike_id": "3b1112847a82c4a578121c1c82e89e2e", "rental_uris": {"android": "https://dc.lft.to/lastmile_qr_scan", "ios": "https://dc.lft.to/lastmile_qr_scan"}, "name": "3b1112847a82c4a578121c1c82e89e2e"}, {"lat": 38.917243666666664, "is_reserved": 0, "lon": -77.019152, "fusion_lon": 0.0, "fusion_lat": 0.0, "is_disabled": 0, "type": "electric_scooter", "bike_id": "ec361d79760182a65d6bf6770b8755af", "rental_uris": {"android": "https://dc.lft.to/lastmile_qr_scan", "ios": "https://dc.lft.to/lastmile_qr_scan"}, "name": "ec361d79760182a65d6bf6770b8755af"}, {"lat": 38.92547883333334, "is_reserved": 0, "lon": -77.0426965, "fusion_lon": 0.0, "fusion_lat": 0.0, "is_disabled": 0, "type": "electric_scooter", "bike_id": "81ee0b064f984d24e8bdaecc028ffabf", "rental_uris": {"android": "https://dc.lft.to/lastmile_qr_scan", "ios": "https://dc.lft.to/lastmile_qr_scan"}, "name": "81ee0b064f984d24e8bdaecc028ffabf"}, {"lat": 38.87472066666667, "is_reserved": 0, "lon": -77.01209516666667, "fusion_lon": 0.0, "fusion_lat": 0.0, "is_disabled": 0, "type": "electric_scooter", "bike_id": "efdaeca96aacdf83bb415a6858a0e76a", "rental_uris": {"android": "https://dc.lft.to/lastmile_qr_scan", "ios": "https://dc.lft.to/lastmile_qr_scan"}, "name": "efdaeca96aacdf83bb415a6858a0e76a"}, {"lat": 38.9288175, "is_reserved": 0, "lon": -77.03747883333334, "fusion_lon": 0.0, "fusion_lat": 0.0, "is_disabled": 0, "type": "electric_scooter", "bike_id": "96b4683735b7f2d530d7cab53366ab6b", "rental_uris": {"android": "https://dc.lft.to/lastmile_qr_scan", "ios": "https://dc.lft.to/lastmile_qr_scan"}, "name": "96b4683735b7f2d530d7cab53366ab6b"}, {"lat": 38.921079, "is_reserved": 0, "lon": -77.0632785, "fusion_lon": 0.0, "fusion_lat": 0.0, "is_disabled": 0, "type": "electric_scooter", "bike_id": "6f6d718309dd00add65bf2bf64b131df", "rental_uris": {"android": "https://dc.lft.to/lastmile_qr_scan", "ios": "https://dc.lft.to/lastmile_qr_scan"}, "name": "6f6d718309dd00add65bf2bf64b131df"}, {"lat": 38.92417366666667, "is_reserved": 0, "lon": -77.01949666666667, "fusion_lon": 0.0, "fusion_lat": 0.0, "is_disabled": 0, "type": "electric_scooter", "bike_id": "2c95657b18066f2dfdd4339de10e2f56", "rental_uris": {"android": "https://dc.lft.to/lastmile_qr_scan", "ios": "https://dc.lft.to/lastmile_qr_scan"}, "name": "2c95657b18066f2dfdd4339de10e2f56"}, {"lat": 38.911067833333334, "is_reserved": 0, "lon": -77.03313766666666, "fusion_lon": 0.0, "fusion_lat": 0.0, "is_disabled": 0, "type": "electric_scooter", "bike_id": "957d04f5efcbe0e1967fa76f9d62856d", "rental_uris": {"android": "https://dc.lft.to/lastmile_qr_scan", "ios": "https://dc.lft.to/lastmile_qr_scan"}, "name": "957d04f5efcbe0e1967fa76f9d62856d"}, {"lat": 38.899869833333334, "is_reserved": 0, "lon": -77.0279445, "fusion_lon": 0.0, "fusion_lat": 0.0, "is_disabled": 0, "type": "electric_scooter", "bike_id": "f7ab37301f860ebdb376829992616420", "rental_uris": {"android": "https://dc.lft.to/lastmile_qr_scan", "ios": "https://dc.lft.to/lastmile_qr_scan"}, "name": "f7ab37301f860ebdb376829992616420"}, {"lat": 38.927231166666665, "is_reserved": 0, "lon": -77.022754, "fusion_lon": 0.0, "fusion_lat": 0.0, "is_disabled": 0, "type": "electric_scooter", "bike_id": "b7cccfd03c8f757cb2c5cee8487cf6b2", "rental_uris": {"android": "https://dc.lft.to/lastmile_qr_scan", "ios": "https://dc.lft.to/lastmile_qr_scan"}, "name": "b7cccfd03c8f757cb2c5cee8487cf6b2"}, {"lat": 38.909356833333334, "is_reserved": 0, "lon": -77.02275216666666, "fusion_lon": 0.0, "fusion_lat": 0.0, "is_disabled": 0, "type": "electric_scooter", "bike_id": "8de638c347c7f2f82a955a6d6b60667e", "rental_uris": {"android": "https://dc.lft.to/lastmile_qr_scan", "ios": "https://dc.lft.to/lastmile_qr_scan"}, "name": "8de638c347c7f2f82a955a6d6b60667e"}, {"lat": 38.91106683333334, "is_reserved": 0, "lon": -77.04335683333333, "fusion_lon": 0.0, "fusion_lat": 0.0, "is_disabled": 0, "type": "electric_scooter", "bike_id": "38cd74fb512506b03d7be3af3deb07a9", "rental_uris": {"android": "https://dc.lft.to/lastmile_qr_scan", "ios": "https://dc.lft.to/lastmile_qr_scan"}, "name": "38cd74fb512506b03d7be3af3deb07a9"}, {"lat": 38.91055866666667, "is_reserved": 0, "lon": -77.03087116666667, "fusion_lon": 0.0, "fusion_lat": 0.0, "is_disabled": 0, "type": "electric_scooter", "bike_id": "a7bb82952139aa54696f87a5587be8c4", "rental_uris": {"android": "https://dc.lft.to/lastmile_qr_scan", "ios": "https://dc.lft.to/lastmile_qr_scan"}, "name": "a7bb82952139aa54696f87a5587be8c4"}, {"lat": 38.9116315, "is_reserved": 0, "lon": -77.07755833333333, "fusion_lon": 0.0, "fusion_lat": 0.0, "is_disabled": 0, "type": "electric_scooter", "bike_id": "6b74e87815cb964eb5df17a9b87a475e", "rental_uris": {"android": "https://dc.lft.to/lastmile_qr_scan", "ios": "https://dc.lft.to/lastmile_qr_scan"}, "name": "6b74e87815cb964eb5df17a9b87a475e"}, {"lat": 38.940174, "is_reserved": 0, "lon": -76.97612516666666, "fusion_lon": 0.0, "fusion_lat": 0.0, "is_disabled": 0, "type": "electric_scooter", "bike_id": "071bf07b88ccb032a1d9dea2526693f3", "rental_uris": {"android": "https://dc.lft.to/lastmile_qr_scan", "ios": "https://dc.lft.to/lastmile_qr_scan"}, "name": "071bf07b88ccb032a1d9dea2526693f3"}, {"lat": 38.89836783333333, "is_reserved": 0, "lon": -77.00748133333333, "fusion_lon": 0.0, "fusion_lat": 0.0, "is_disabled": 0, "type": "electric_scooter", "bike_id": "4a6d1bafba12064cad4b1c775f7e872c", "rental_uris": {"android": "https://dc.lft.to/lastmile_qr_scan", "ios": "https://dc.lft.to/lastmile_qr_scan"}, "name": "4a6d1bafba12064cad4b1c775f7e872c"}, {"lat": 38.89477766666667, "is_reserved": 0, "lon": -76.948582, "fusion_lon": 0.0, "fusion_lat": 0.0, "is_disabled": 0, "type": "electric_scooter", "bike_id": "7e18e2ed81d171fe306e43e8b88101fd", "rental_uris": {"android": "https://dc.lft.to/lastmile_qr_scan", "ios": "https://dc.lft.to/lastmile_qr_scan"}, "name": "7e18e2ed81d171fe306e43e8b88101fd"}, {"lat": 38.877050833333335, "is_reserved": 0, "lon": -77.00534816666666, "fusion_lon": 0.0, "fusion_lat": 0.0, "is_disabled": 0, "type": "electric_scooter", "bike_id": "aab2fd38c5a31d9da83608b885f56d09", "rental_uris": {"android": "https://dc.lft.to/lastmile_qr_scan", "ios": "https://dc.lft.to/lastmile_qr_scan"}, "name": "aab2fd38c5a31d9da83608b885f56d09"}, {"lat": 38.90970266666667, "is_reserved": 0, "lon": -77.0217585, "fusion_lon": 0.0, "fusion_lat": 0.0, "is_disabled": 0, "type": "electric_scooter", "bike_id": "6872dd13426d39d25a1147148c621f51", "rental_uris": {"android": "https://dc.lft.to/lastmile_qr_scan", "ios": "https://dc.lft.to/lastmile_qr_scan"}, "name": "6872dd13426d39d25a1147148c621f51"}, {"lat": 38.91007783333333, "is_reserved": 0, "lon": -77.03447066666666, "fusion_lon": 0.0, "fusion_lat": 0.0, "is_disabled": 0, "type": "electric_scooter", "bike_id": "4496c585caf9b145572211a1d28367bf", "rental_uris": {"android": "https://dc.lft.to/lastmile_qr_scan", "ios": "https://dc.lft.to/lastmile_qr_scan"}, "name": "4496c585caf9b145572211a1d28367bf"}, {"lat": 38.900335, "is_reserved": 0, "lon": -76.987397, "fusion_lon": 0.0, "fusion_lat": 0.0, "is_disabled": 0, "type": "electric_scooter", "bike_id": "f9c604e1a3304d89a0908ff3ee6f5b39", "rental_uris": {"android": "https://dc.lft.to/lastmile_qr_scan", "ios": "https://dc.lft.to/lastmile_qr_scan"}, "name": "f9c604e1a3304d89a0908ff3ee6f5b39"}, {"lat": 38.91289116666667, "is_reserved": 0, "lon": -77.02383083333334, "fusion_lon": 0.0, "fusion_lat": 0.0, "is_disabled": 0, "type": "electric_scooter", "bike_id": "4f1ff0ce3228727018c1cf29bf4d2f90", "rental_uris": {"android": "https://dc.lft.to/lastmile_qr_scan", "ios": "https://dc.lft.to/lastmile_qr_scan"}, "name": "4f1ff0ce3228727018c1cf29bf4d2f90"}, {"lat": 38.91832333333333, "is_reserved": 0, "lon": -77.03221, "fusion_lon": 0.0, "fusion_lat": 0.0, "is_disabled": 0, "type": "electric_scooter", "bike_id": "11eefb34b43742834a4dcbfac18c2f28", "rental_uris": {"android": "https://dc.lft.to/lastmile_qr_scan", "ios": "https://dc.lft.to/lastmile_qr_scan"}, "name": "11eefb34b43742834a4dcbfac18c2f28"}, {"lat": 38.90368566666667, "is_reserved": 0, "lon": -77.040219, "fusion_lon": 0.0, "fusion_lat": 0.0, "is_disabled": 0, "type": "electric_scooter", "bike_id": "251f9f64c147de774f47a78d24914b6e", "rental_uris": {"android": "https://dc.lft.to/lastmile_qr_scan", "ios": "https://dc.lft.to/lastmile_qr_scan"}, "name": "251f9f64c147de774f47a78d24914b6e"}, {"lat": 38.89669216666667, "is_reserved": 0, "lon": -76.9320575, "fusion_lon": 0.0, "fusion_lat": 0.0, "is_disabled": 0, "type": "electric_scooter", "bike_id": "4c535d74b70a19127bda3c64ba1b0dad", "rental_uris": {"android": "https://dc.lft.to/lastmile_qr_scan", "ios": "https://dc.lft.to/lastmile_qr_scan"}, "name": "4c535d74b70a19127bda3c64ba1b0dad"}, {"lat": 38.91891666666667, "is_reserved": 0, "lon": -77.03644216666666, "fusion_lon": 0.0, "fusion_lat": 0.0, "is_disabled": 0, "type": "electric_scooter", "bike_id": "06ced89319977c7dd924f491ac8d0655", "rental_uris": {"android": "https://dc.lft.to/lastmile_qr_scan", "ios": "https://dc.lft.to/lastmile_qr_scan"}, "name": "06ced89319977c7dd924f491ac8d0655"}, {"lat": 38.905723333333334, "is_reserved": 0, "lon": -77.04341866666667, "fusion_lon": 0.0, "fusion_lat": 0.0, "is_disabled": 0, "type": "electric_scooter", "bike_id": "209b807a20792f97851964911b7434fe", "rental_uris": {"android": "https://dc.lft.to/lastmile_qr_scan", "ios": "https://dc.lft.to/lastmile_qr_scan"}, "name": "209b807a20792f97851964911b7434fe"}, {"lat": 38.9001975, "is_reserved": 0, "lon": -77.02704316666667, "fusion_lon": 0.0, "fusion_lat": 0.0, "is_disabled": 0, "type": "electric_scooter", "bike_id": "3907c2e620b52fac826f990f6f279aae", "rental_uris": {"android": "https://dc.lft.to/lastmile_qr_scan", "ios": "https://dc.lft.to/lastmile_qr_scan"}, "name": "3907c2e620b52fac826f990f6f279aae"}, {"lat": 38.90642666666667, "is_reserved": 0, "lon": -77.04158183333334, "fusion_lon": 0.0, "fusion_lat": 0.0, "is_disabled": 0, "type": "electric_scooter", "bike_id": "75ae7579d3c3b368a443a45d1e204041", "rental_uris": {"android": "https://dc.lft.to/lastmile_qr_scan", "ios": "https://dc.lft.to/lastmile_qr_scan"}, "name": "75ae7579d3c3b368a443a45d1e204041"}, {"lat": 38.90146266666667, "is_reserved": 0, "lon": -77.0474265, "fusion_lon": 0.0, "fusion_lat": 0.0, "is_disabled": 0, "type": "electric_scooter", "bike_id": "1c11c3f85af97e358d2af2a23fb385e4", "rental_uris": {"android": "https://dc.lft.to/lastmile_qr_scan", "ios": "https://dc.lft.to/lastmile_qr_scan"}, "name": "1c11c3f85af97e358d2af2a23fb385e4"}, {"lat": 38.9006285, "is_reserved": 0, "lon": -76.99626166666667, "fusion_lon": 0.0, "fusion_lat": 0.0, "is_disabled": 0, "type": "electric_scooter", "bike_id": "9bd1bb04916ae15c7b649d9dab82b626", "rental_uris": {"android": "https://dc.lft.to/lastmile_qr_scan", "ios": "https://dc.lft.to/lastmile_qr_scan"}, "name": "9bd1bb04916ae15c7b649d9dab82b626"}, {"lat": 38.913813833333336, "is_reserved": 0, "lon": -77.01703, "fusion_lon": 0.0, "fusion_lat": 0.0, "is_disabled": 0, "type": "electric_scooter", "bike_id": "be31f1c73be5b34c0651d3722e1b4bc0", "rental_uris": {"android": "https://dc.lft.to/lastmile_qr_scan", "ios": "https://dc.lft.to/lastmile_qr_scan"}, "name": "be31f1c73be5b34c0651d3722e1b4bc0"}, {"lat": 38.915729666666664, "is_reserved": 0, "lon": -77.01587666666667, "fusion_lon": 0.0, "fusion_lat": 0.0, "is_disabled": 0, "type": "electric_scooter", "bike_id": "dfc4d6130d7b9e5a30b632c243ba56ce", "rental_uris": {"android": "https://dc.lft.to/lastmile_qr_scan", "ios": "https://dc.lft.to/lastmile_qr_scan"}, "name": "dfc4d6130d7b9e5a30b632c243ba56ce"}, {"lat": 38.918162333333335, "is_reserved": 0, "lon": -77.03976833333333, "fusion_lon": 0.0, "fusion_lat": 0.0, "is_disabled": 0, "type": "electric_scooter", "bike_id": "3db3d7d7d5bf5fe240acd9078ea9f44d", "rental_uris": {"android": "https://dc.lft.to/lastmile_qr_scan", "ios": "https://dc.lft.to/lastmile_qr_scan"}, "name": "3db3d7d7d5bf5fe240acd9078ea9f44d"}, {"lat": 38.90136833333333, "is_reserved": 0, "lon": -77.03248516666666, "fusion_lon": 0.0, "fusion_lat": 0.0, "is_disabled": 0, "type": "electric_scooter", "bike_id": "7cda5d276f0782fd33e9690052526502", "rental_uris": {"android": "https://dc.lft.to/lastmile_qr_scan", "ios": "https://dc.lft.to/lastmile_qr_scan"}, "name": "7cda5d276f0782fd33e9690052526502"}, {"lat": 39.05100383333333, "is_reserved": 0, "lon": -77.1173625, "fusion_lon": 0.0, "fusion_lat": 0.0, "is_disabled": 0, "type": "electric_bike", "bike_id": "454f4f062aa473194f98df990671298e", "rental_uris": {"android": "https://dc.lft.to/lastmile_qr_scan", "ios": "https://dc.lft.to/lastmile_qr_scan"}, "name": "454f4f062aa473194f98df990671298e"}, {"lat": 38.890980666666664, "is_reserved": 0, "lon": -77.001986, "fusion_lon": 0.0, "fusion_lat": 0.0, "is_disabled": 0, "type": "electric_scooter", "bike_id": "756eeb43b4e6e1562d6d677a5ed238a5", "rental_uris": {"android": "https://dc.lft.to/lastmile_qr_scan", "ios": "https://dc.lft.to/lastmile_qr_scan"}, "name": "756eeb43b4e6e1562d6d677a5ed238a5"}, {"lat": 38.92797616666667, "is_reserved": 0, "lon": -77.04281533333334, "fusion_lon": 0.0, "fusion_lat": 0.0, "is_disabled": 0, "type": "electric_scooter", "bike_id": "aeb9d52a2d2cff458621b9112b70e082", "rental_uris": {"android": "https://dc.lft.to/lastmile_qr_scan", "ios": "https://dc.lft.to/lastmile_qr_scan"}, "name": "aeb9d52a2d2cff458621b9112b70e082"}, {"lat": 38.99225216666667, "is_reserved": 0, "lon": -77.0358745, "fusion_lon": 0.0, "fusion_lat": 0.0, "is_disabled": 0, "type": "electric_scooter", "bike_id": "93f44d0864ca4c47f9640099ce8382dd", "rental_uris": {"android": "https://dc.lft.to/lastmile_qr_scan", "ios": "https://dc.lft.to/lastmile_qr_scan"}, "name": "93f44d0864ca4c47f9640099ce8382dd"}, {"lat": 38.90907816666667, "is_reserved": 0, "lon": -77.03203783333333, "fusion_lon": 0.0, "fusion_lat": 0.0, "is_disabled": 0, "type": "electric_scooter", "bike_id": "a80acfdfca27415438c3cc31e371bed5", "rental_uris": {"android": "https://dc.lft.to/lastmile_qr_scan", "ios": "https://dc.lft.to/lastmile_qr_scan"}, "name": "a80acfdfca27415438c3cc31e371bed5"}, {"lat": 38.909559333333334, "is_reserved": 0, "lon": -77.054735, "fusion_lon": 0.0, "fusion_lat": 0.0, "is_disabled": 0, "type": "electric_scooter", "bike_id": "ab6e3a36c02a7f04a55523541724e653", "rental_uris": {"android": "https://dc.lft.to/lastmile_qr_scan", "ios": "https://dc.lft.to/lastmile_qr_scan"}, "name": "ab6e3a36c02a7f04a55523541724e653"}, {"lat": 38.883980333333334, "is_reserved": 0, "lon": -76.9605125, "fusion_lon": 0.0, "fusion_lat": 0.0, "is_disabled": 0, "type": "electric_bike", "bike_id": "802bf6fea9e066e088512c06fcc48439", "rental_uris": {"android": "https://dc.lft.to/lastmile_qr_scan", "ios": "https://dc.lft.to/lastmile_qr_scan"}, "name": "802bf6fea9e066e088512c06fcc48439"}, {"lat": 38.902654, "is_reserved": 0, "lon": -77.03848, "fusion_lon": 0.0, "fusion_lat": 0.0, "is_disabled": 0, "type": "electric_scooter", "bike_id": "c2c14706e84cfc3a2000c26b96c1f785", "rental_uris": {"android": "https://dc.lft.to/lastmile_qr_scan", "ios": "https://dc.lft.to/lastmile_qr_scan"}, "name": "c2c14706e84cfc3a2000c26b96c1f785"}, {"lat": 38.875662, "is_reserved": 0, "lon": -77.005802, "fusion_lon": 0.0, "fusion_lat": 0.0, "is_disabled": 0, "type": "electric_scooter", "bike_id": "d7a433ab6f2f3a3353860b35b75252b7", "rental_uris": {"android": "https://dc.lft.to/lastmile_qr_scan", "ios": "https://dc.lft.to/lastmile_qr_scan"}, "name": "d7a433ab6f2f3a3353860b35b75252b7"}, {"lat": 38.897328, "is_reserved": 0, "lon": -77.027219, "fusion_lon": 0.0, "fusion_lat": 0.0, "is_disabled": 0, "type": "electric_scooter", "bike_id": "6acec4e9d35d422d3912035cace3eee7", "rental_uris": {"android": "https://dc.lft.to/lastmile_qr_scan", "ios": "https://dc.lft.to/lastmile_qr_scan"}, "name": "6acec4e9d35d422d3912035cace3eee7"}, {"lat": 38.903759666666666, "is_reserved": 0, "lon": -77.02551516666666, "fusion_lon": 0.0, "fusion_lat": 0.0, "is_disabled": 0, "type": "electric_scooter", "bike_id": "37fef90806c5165f0f01466e4ca5f511", "rental_uris": {"android": "https://dc.lft.to/lastmile_qr_scan", "ios": "https://dc.lft.to/lastmile_qr_scan"}, "name": "37fef90806c5165f0f01466e4ca5f511"}, {"lat": 38.996982, "is_reserved": 0, "lon": -77.02556666666666, "fusion_lon": 0.0, "fusion_lat": 0.0, "is_disabled": 0, "type": "electric_bike", "bike_id": "8c49d8bdf5f1f5c6f25dc03d3f2dddc5", "rental_uris": {"android": "https://dc.lft.to/lastmile_qr_scan", "ios": "https://dc.lft.to/lastmile_qr_scan"}, "name": "8c49d8bdf5f1f5c6f25dc03d3f2dddc5"}, {"lat": 38.917141666666666, "is_reserved": 0, "lon": -77.0386015, "fusion_lon": 0.0, "fusion_lat": 0.0, "is_disabled": 0, "type": "electric_scooter", "bike_id": "48f9607149843bc5375efb7f823dfb7c", "rental_uris": {"android": "https://dc.lft.to/lastmile_qr_scan", "ios": "https://dc.lft.to/lastmile_qr_scan"}, "name": "48f9607149843bc5375efb7f823dfb7c"}, {"lat": 38.905993333333335, "is_reserved": 0, "lon": -77.013281, "fusion_lon": 0.0, "fusion_lat": 0.0, "is_disabled": 0, "type": "electric_scooter", "bike_id": "86ef35a6ff3a7f68f741c9a6ab5b694e", "rental_uris": {"android": "https://dc.lft.to/lastmile_qr_scan", "ios": "https://dc.lft.to/lastmile_qr_scan"}, "name": "86ef35a6ff3a7f68f741c9a6ab5b694e"}, {"lat": 38.92059716666667, "is_reserved": 0, "lon": -77.04198083333333, "fusion_lon": 0.0, "fusion_lat": 0.0, "is_disabled": 0, "type": "electric_scooter", "bike_id": "25fc103e72bb28e3afe9f4b1faaddfd5", "rental_uris": {"android": "https://dc.lft.to/lastmile_qr_scan", "ios": "https://dc.lft.to/lastmile_qr_scan"}, "name": "25fc103e72bb28e3afe9f4b1faaddfd5"}, {"lat": 38.86625816666667, "is_reserved": 0, "lon": -76.98711983333334, "fusion_lon": 0.0, "fusion_lat": 0.0, "is_disabled": 0, "type": "electric_scooter", "bike_id": "d72fe46e586c15eb4b97ded3727242e0", "rental_uris": {"android": "https://dc.lft.to/lastmile_qr_scan", "ios": "https://dc.lft.to/lastmile_qr_scan"}, "name": "d72fe46e586c15eb4b97ded3727242e0"}, {"lat": 38.911701666666666, "is_reserved": 0, "lon": -77.01130033333334, "fusion_lon": 0.0, "fusion_lat": 0.0, "is_disabled": 0, "type": "electric_scooter", "bike_id": "7d2633201fb77ee9f2d6359e7eb025b0", "rental_uris": {"android": "https://dc.lft.to/lastmile_qr_scan", "ios": "https://dc.lft.to/lastmile_qr_scan"}, "name": "7d2633201fb77ee9f2d6359e7eb025b0"}, {"lat": 38.9174695, "is_reserved": 0, "lon": -77.03642066666667, "fusion_lon": 0.0, "fusion_lat": 0.0, "is_disabled": 0, "type": "electric_scooter", "bike_id": "5bb9ba26481a30bfe448e5d3080e8524", "rental_uris": {"android": "https://dc.lft.to/lastmile_qr_scan", "ios": "https://dc.lft.to/lastmile_qr_scan"}, "name": "5bb9ba26481a30bfe448e5d3080e8524"}, {"lat": 38.91567366666666, "is_reserved": 0, "lon": -77.03196016666666, "fusion_lon": 0.0, "fusion_lat": 0.0, "is_disabled": 0, "type": "electric_scooter", "bike_id": "0b909ee057c0049d88093cb657e275bb", "rental_uris": {"android": "https://dc.lft.to/lastmile_qr_scan", "ios": "https://dc.lft.to/lastmile_qr_scan"}, "name": "0b909ee057c0049d88093cb657e275bb"}, {"lat": 38.9272815, "is_reserved": 0, "lon": -77.02312633333334, "fusion_lon": 0.0, "fusion_lat": 0.0, "is_disabled": 0, "type": "electric_scooter", "bike_id": "c728550c8ea0d0cfd09a21e49038f1a2", "rental_uris": {"android": "https://dc.lft.to/lastmile_qr_scan", "ios": "https://dc.lft.to/lastmile_qr_scan"}, "name": "c728550c8ea0d0cfd09a21e49038f1a2"}, {"lat": 38.900186, "is_reserved": 0, "lon": -77.01139783333333, "fusion_lon": 0.0, "fusion_lat": 0.0, "is_disabled": 0, "type": "electric_scooter", "bike_id": "f899a4792d7f933a560721cfd9e89437", "rental_uris": {"android": "https://dc.lft.to/lastmile_qr_scan", "ios": "https://dc.lft.to/lastmile_qr_scan"}, "name": "f899a4792d7f933a560721cfd9e89437"}, {"lat": 38.887617, "is_reserved": 0, "lon": -76.9559095, "fusion_lon": 0.0, "fusion_lat": 0.0, "is_disabled": 0, "type": "electric_scooter", "bike_id": "767ff57c0fc2e8d1454e22a952e62995", "rental_uris": {"android": "https://dc.lft.to/lastmile_qr_scan", "ios": "https://dc.lft.to/lastmile_qr_scan"}, "name": "767ff57c0fc2e8d1454e22a952e62995"}, {"lat": 38.924749, "is_reserved": 0, "lon": -77.052196, "fusion_lon": 0.0, "fusion_lat": 0.0, "is_disabled": 0, "type": "electric_scooter", "bike_id": "006fd96b7dc2a98694e34aeebf50df3d", "rental_uris": {"android": "https://dc.lft.to/lastmile_qr_scan", "ios": "https://dc.lft.to/lastmile_qr_scan"}, "name": "006fd96b7dc2a98694e34aeebf50df3d"}, {"lat": 38.89650983333333, "is_reserved": 0, "lon": -77.07071316666666, "fusion_lon": 0.0, "fusion_lat": 0.0, "is_disabled": 0, "type": "electric_scooter", "bike_id": "6933b27ac6b15c4d2f5c2a63084deab5", "rental_uris": {"android": "https://dc.lft.to/lastmile_qr_scan", "ios": "https://dc.lft.to/lastmile_qr_scan"}, "name": "6933b27ac6b15c4d2f5c2a63084deab5"}, {"lat": 38.93098783333333, "is_reserved": 0, "lon": -77.02459166666667, "fusion_lon": 0.0, "fusion_lat": 0.0, "is_disabled": 0, "type": "electric_scooter", "bike_id": "234c47bd1a297eb32d9ff7e4e3490dd4", "rental_uris": {"android": "https://dc.lft.to/lastmile_qr_scan", "ios": "https://dc.lft.to/lastmile_qr_scan"}, "name": "234c47bd1a297eb32d9ff7e4e3490dd4"}, {"lat": 38.91456016666667, "is_reserved": 0, "lon": -77.00211916666666, "fusion_lon": 0.0, "fusion_lat": 0.0, "is_disabled": 0, "type": "electric_scooter", "bike_id": "9ad77cb1eccbfafb2930b4a501440073", "rental_uris": {"android": "https://dc.lft.to/lastmile_qr_scan", "ios": "https://dc.lft.to/lastmile_qr_scan"}, "name": "9ad77cb1eccbfafb2930b4a501440073"}, {"lat": 38.89994766666667, "is_reserved": 0, "lon": -76.985548, "fusion_lon": 0.0, "fusion_lat": 0.0, "is_disabled": 0, "type": "electric_scooter", "bike_id": "889d4c4d31e3c40fe1c3881b75a7d7b3", "rental_uris": {"android": "https://dc.lft.to/lastmile_qr_scan", "ios": "https://dc.lft.to/lastmile_qr_scan"}, "name": "889d4c4d31e3c40fe1c3881b75a7d7b3"}, {"lat": 38.90678, "is_reserved": 0, "lon": -76.97996733333333, "fusion_lon": 0.0, "fusion_lat": 0.0, "is_disabled": 0, "type": "electric_scooter", "bike_id": "89f51d90bc91e67373fbba28f915b07f", "rental_uris": {"android": "https://dc.lft.to/lastmile_qr_scan", "ios": "https://dc.lft.to/lastmile_qr_scan"}, "name": "89f51d90bc91e67373fbba28f915b07f"}, {"lat": 38.87373516666667, "is_reserved": 0, "lon": -77.001111, "fusion_lon": 0.0, "fusion_lat": 0.0, "is_disabled": 0, "type": "electric_scooter", "bike_id": "8e5fbe7177fb157766d9e747a16610c1", "rental_uris": {"android": "https://dc.lft.to/lastmile_qr_scan", "ios": "https://dc.lft.to/lastmile_qr_scan"}, "name": "8e5fbe7177fb157766d9e747a16610c1"}, {"lat": 38.93225183333333, "is_reserved": 0, "lon": -77.181206, "fusion_lon": 0.0, "fusion_lat": 0.0, "is_disabled": 0, "type": "electric_bike", "bike_id": "12bddcdd465e29fe625f94da4c6813c7", "rental_uris": {"android": "https://dc.lft.to/lastmile_qr_scan", "ios": "https://dc.lft.to/lastmile_qr_scan"}, "name": "12bddcdd465e29fe625f94da4c6813c7"}, {"lat": 38.905142, "is_reserved": 0, "lon": -77.00118183333333, "fusion_lon": 0.0, "fusion_lat": 0.0, "is_disabled": 0, "type": "electric_scooter", "bike_id": "ad7013611d4c63aac4dc55f9877d6c8c", "rental_uris": {"android": "https://dc.lft.to/lastmile_qr_scan", "ios": "https://dc.lft.to/lastmile_qr_scan"}, "name": "ad7013611d4c63aac4dc55f9877d6c8c"}, {"lat": 38.885263, "is_reserved": 0, "lon": -76.95622116666667, "fusion_lon": 0.0, "fusion_lat": 0.0, "is_disabled": 0, "type": "electric_bike", "bike_id": "583ed1d461e739f4781266bdffdc725c", "rental_uris": {"android": "https://dc.lft.to/lastmile_qr_scan", "ios": "https://dc.lft.to/lastmile_qr_scan"}, "name": "583ed1d461e739f4781266bdffdc725c"}, {"lat": 38.929040666666666, "is_reserved": 0, "lon": -77.02365216666666, "fusion_lon": 0.0, "fusion_lat": 0.0, "is_disabled": 0, "type": "electric_scooter", "bike_id": "ed5befc0e7c1936357665949f802d997", "rental_uris": {"android": "https://dc.lft.to/lastmile_qr_scan", "ios": "https://dc.lft.to/lastmile_qr_scan"}, "name": "ed5befc0e7c1936357665949f802d997"}, {"lat": 38.90630483333333, "is_reserved": 0, "lon": -77.03449016666667, "fusion_lon": 0.0, "fusion_lat": 0.0, "is_disabled": 0, "type": "electric_scooter", "bike_id": "22f2be1c91a30e01173ce8c13a29c347", "rental_uris": {"android": "https://dc.lft.to/lastmile_qr_scan", "ios": "https://dc.lft.to/lastmile_qr_scan"}, "name": "22f2be1c91a30e01173ce8c13a29c347"}, {"lat": 38.88125433333333, "is_reserved": 0, "lon": -77.01647933333334, "fusion_lon": 0.0, "fusion_lat": 0.0, "is_disabled": 0, "type": "electric_scooter", "bike_id": "7ec45b130de976cec7234b8a82f963ca", "rental_uris": {"android": "https://dc.lft.to/lastmile_qr_scan", "ios": "https://dc.lft.to/lastmile_qr_scan"}, "name": "7ec45b130de976cec7234b8a82f963ca"}, {"lat": 38.91037033333333, "is_reserved": 0, "lon": -77.03298, "fusion_lon": 0.0, "fusion_lat": 0.0, "is_disabled": 0, "type": "electric_scooter", "bike_id": "a19e688356f67d2576e0650d446d95d7", "rental_uris": {"android": "https://dc.lft.to/lastmile_qr_scan", "ios": "https://dc.lft.to/lastmile_qr_scan"}, "name": "a19e688356f67d2576e0650d446d95d7"}, {"lat": 38.900303666666666, "is_reserved": 0, "lon": -77.04349933333333, "fusion_lon": 0.0, "fusion_lat": 0.0, "is_disabled": 0, "type": "electric_scooter", "bike_id": "387056b739520135bd4ee050bbfe4273", "rental_uris": {"android": "https://dc.lft.to/lastmile_qr_scan", "ios": "https://dc.lft.to/lastmile_qr_scan"}, "name": "387056b739520135bd4ee050bbfe4273"}, {"lat": 38.92469583333333, "is_reserved": 0, "lon": -77.0220245, "fusion_lon": 0.0, "fusion_lat": 0.0, "is_disabled": 0, "type": "electric_scooter", "bike_id": "ef3e85371e73ca01bc286d1a41fef8d1", "rental_uris": {"android": "https://dc.lft.to/lastmile_qr_scan", "ios": "https://dc.lft.to/lastmile_qr_scan"}, "name": "ef3e85371e73ca01bc286d1a41fef8d1"}, {"lat": 38.908669, "is_reserved": 0, "lon": -77.046773, "fusion_lon": 0.0, "fusion_lat": 0.0, "is_disabled": 0, "type": "electric_scooter", "bike_id": "be687987b7dd29f9d12fc99aaacee136", "rental_uris": {"android": "https://dc.lft.to/lastmile_qr_scan", "ios": "https://dc.lft.to/lastmile_qr_scan"}, "name": "be687987b7dd29f9d12fc99aaacee136"}, {"lat": 38.89396216666667, "is_reserved": 0, "lon": -77.04428566666667, "fusion_lon": 0.0, "fusion_lat": 0.0, "is_disabled": 0, "type": "electric_scooter", "bike_id": "8dbad4cb0401c6c8a97ba01b0bca902d", "rental_uris": {"android": "https://dc.lft.to/lastmile_qr_scan", "ios": "https://dc.lft.to/lastmile_qr_scan"}, "name": "8dbad4cb0401c6c8a97ba01b0bca902d"}, {"lat": 38.93991183333333, "is_reserved": 0, "lon": -77.01693016666667, "fusion_lon": 0.0, "fusion_lat": 0.0, "is_disabled": 0, "type": "electric_scooter", "bike_id": "f12b931a9ada7fbf157bf31e0a573dd8", "rental_uris": {"android": "https://dc.lft.to/lastmile_qr_scan", "ios": "https://dc.lft.to/lastmile_qr_scan"}, "name": "f12b931a9ada7fbf157bf31e0a573dd8"}, {"lat": 38.892187166666666, "is_reserved": 0, "lon": -77.01384616666667, "fusion_lon": 0.0, "fusion_lat": 0.0, "is_disabled": 0, "type": "electric_scooter", "bike_id": "36da846678381fc4798aad911c5fc1c7", "rental_uris": {"android": "https://dc.lft.to/lastmile_qr_scan", "ios": "https://dc.lft.to/lastmile_qr_scan"}, "name": "36da846678381fc4798aad911c5fc1c7"}, {"lat": 38.80446666666667, "is_reserved": 0, "lon": -77.05386783333333, "fusion_lon": 0.0, "fusion_lat": 0.0, "is_disabled": 0, "type": "electric_bike", "bike_id": "97bf86a0bfb6756ea827cc8a5f65e392", "rental_uris": {"android": "https://dc.lft.to/lastmile_qr_scan", "ios": "https://dc.lft.to/lastmile_qr_scan"}, "name": "97bf86a0bfb6756ea827cc8a5f65e392"}, {"lat": 38.911150666666664, "is_reserved": 0, "lon": -77.04093216666666, "fusion_lon": 0.0, "fusion_lat": 0.0, "is_disabled": 0, "type": "electric_scooter", "bike_id": "568e68de4e8d71d7af5691226853fd4f", "rental_uris": {"android": "https://dc.lft.to/lastmile_qr_scan", "ios": "https://dc.lft.to/lastmile_qr_scan"}, "name": "568e68de4e8d71d7af5691226853fd4f"}, {"lat": 38.894174666666665, "is_reserved": 0, "lon": -77.00038316666667, "fusion_lon": 0.0, "fusion_lat": 0.0, "is_disabled": 0, "type": "electric_scooter", "bike_id": "9711d62a7b954cc055eac212b05d4210", "rental_uris": {"android": "https://dc.lft.to/lastmile_qr_scan", "ios": "https://dc.lft.to/lastmile_qr_scan"}, "name": "9711d62a7b954cc055eac212b05d4210"}, {"lat": 38.91419716666667, "is_reserved": 0, "lon": -77.024069, "fusion_lon": 0.0, "fusion_lat": 0.0, "is_disabled": 0, "type": "electric_scooter", "bike_id": "9a83d3879211f890568b533920c9d92a", "rental_uris": {"android": "https://dc.lft.to/lastmile_qr_scan", "ios": "https://dc.lft.to/lastmile_qr_scan"}, "name": "9a83d3879211f890568b533920c9d92a"}, {"lat": 38.89980833333333, "is_reserved": 0, "lon": -76.980866, "fusion_lon": 0.0, "fusion_lat": 0.0, "is_disabled": 0, "type": "electric_scooter", "bike_id": "44fb202cc6af7919bc85271f106a9a7f", "rental_uris": {"android": "https://dc.lft.to/lastmile_qr_scan", "ios": "https://dc.lft.to/lastmile_qr_scan"}, "name": "44fb202cc6af7919bc85271f106a9a7f"}, {"lat": 38.8973875, "is_reserved": 0, "lon": -77.04867466666667, "fusion_lon": 0.0, "fusion_lat": 0.0, "is_disabled": 0, "type": "electric_scooter", "bike_id": "5be77e6b75a8d127b0c50ee934572758", "rental_uris": {"android": "https://dc.lft.to/lastmile_qr_scan", "ios": "https://dc.lft.to/lastmile_qr_scan"}, "name": "5be77e6b75a8d127b0c50ee934572758"}, {"lat": 38.935908, "is_reserved": 0, "lon": -77.02445416666667, "fusion_lon": 0.0, "fusion_lat": 0.0, "is_disabled": 0, "type": "electric_scooter", "bike_id": "e078aecf2307c17b2750d4c1333f4bc5", "rental_uris": {"android": "https://dc.lft.to/lastmile_qr_scan", "ios": "https://dc.lft.to/lastmile_qr_scan"}, "name": "e078aecf2307c17b2750d4c1333f4bc5"}, {"lat": 38.904706, "is_reserved": 0, "lon": -77.04622266666667, "fusion_lon": 0.0, "fusion_lat": 0.0, "is_disabled": 0, "type": "electric_scooter", "bike_id": "e123423b1e36e976a732d8d6e359a1d9", "rental_uris": {"android": "https://dc.lft.to/lastmile_qr_scan", "ios": "https://dc.lft.to/lastmile_qr_scan"}, "name": "e123423b1e36e976a732d8d6e359a1d9"}, {"lat": 38.899173166666664, "is_reserved": 0, "lon": -77.033014, "fusion_lon": 0.0, "fusion_lat": 0.0, "is_disabled": 0, "type": "electric_scooter", "bike_id": "448215f3d49af8fab73d66367a342187", "rental_uris": {"android": "https://dc.lft.to/lastmile_qr_scan", "ios": "https://dc.lft.to/lastmile_qr_scan"}, "name": "448215f3d49af8fab73d66367a342187"}, {"lat": 38.89764433333333, "is_reserved": 0, "lon": -77.02956016666667, "fusion_lon": 0.0, "fusion_lat": 0.0, "is_disabled": 0, "type": "electric_scooter", "bike_id": "f67724c4da379ffbf8c2f52fb7d8403e", "rental_uris": {"android": "https://dc.lft.to/lastmile_qr_scan", "ios": "https://dc.lft.to/lastmile_qr_scan"}, "name": "f67724c4da379ffbf8c2f52fb7d8403e"}, {"lat": 38.92053166666667, "is_reserved": 0, "lon": -77.0420265, "fusion_lon": 0.0, "fusion_lat": 0.0, "is_disabled": 0, "type": "electric_scooter", "bike_id": "7b36cbf861dca1344d5592abcceecb79", "rental_uris": {"android": "https://dc.lft.to/lastmile_qr_scan", "ios": "https://dc.lft.to/lastmile_qr_scan"}, "name": "7b36cbf861dca1344d5592abcceecb79"}, {"lat": 38.92244066666667, "is_reserved": 0, "lon": -77.04194133333333, "fusion_lon": 0.0, "fusion_lat": 0.0, "is_disabled": 0, "type": "electric_scooter", "bike_id": "2ecb886b864ba9a00e299dccc26f5922", "rental_uris": {"android": "https://dc.lft.to/lastmile_qr_scan", "ios": "https://dc.lft.to/lastmile_qr_scan"}, "name": "2ecb886b864ba9a00e299dccc26f5922"}, {"lat": 38.90693533333334, "is_reserved": 0, "lon": -77.02394366666667, "fusion_lon": 0.0, "fusion_lat": 0.0, "is_disabled": 0, "type": "electric_scooter", "bike_id": "5b001c011977f725ed43b77a7e41fe2b", "rental_uris": {"android": "https://dc.lft.to/lastmile_qr_scan", "ios": "https://dc.lft.to/lastmile_qr_scan"}, "name": "5b001c011977f725ed43b77a7e41fe2b"}, {"lat": 38.9346615, "is_reserved": 0, "lon": -77.04539416666667, "fusion_lon": 0.0, "fusion_lat": 0.0, "is_disabled": 0, "type": "electric_scooter", "bike_id": "fdad592213f92c22dd8d21abcb05ca59", "rental_uris": {"android": "https://dc.lft.to/lastmile_qr_scan", "ios": "https://dc.lft.to/lastmile_qr_scan"}, "name": "fdad592213f92c22dd8d21abcb05ca59"}, {"lat": 38.938519666666664, "is_reserved": 0, "lon": -77.03371516666667, "fusion_lon": 0.0, "fusion_lat": 0.0, "is_disabled": 0, "type": "electric_scooter", "bike_id": "bbfbfc3a5f892e697f59bceeebc3242d", "rental_uris": {"android": "https://dc.lft.to/lastmile_qr_scan", "ios": "https://dc.lft.to/lastmile_qr_scan"}, "name": "bbfbfc3a5f892e697f59bceeebc3242d"}, {"lat": 38.918180666666665, "is_reserved": 0, "lon": -77.031637, "fusion_lon": 0.0, "fusion_lat": 0.0, "is_disabled": 0, "type": "electric_scooter", "bike_id": "3057283d5dace5e5be8135996a8df233", "rental_uris": {"android": "https://dc.lft.to/lastmile_qr_scan", "ios": "https://dc.lft.to/lastmile_qr_scan"}, "name": "3057283d5dace5e5be8135996a8df233"}, {"lat": 38.8962255, "is_reserved": 0, "lon": -76.94765183333334, "fusion_lon": 0.0, "fusion_lat": 0.0, "is_disabled": 0, "type": "electric_scooter", "bike_id": "95b5de2980d306dce1c18b2df06d848f", "rental_uris": {"android": "https://dc.lft.to/lastmile_qr_scan", "ios": "https://dc.lft.to/lastmile_qr_scan"}, "name": "95b5de2980d306dce1c18b2df06d848f"}, {"lat": 38.9003445, "is_reserved": 0, "lon": -76.97222816666667, "fusion_lon": 0.0, "fusion_lat": 0.0, "is_disabled": 0, "type": "electric_bike", "bike_id": "ef355514f7672974b71f7eb17dba5de2", "rental_uris": {"android": "https://dc.lft.to/lastmile_qr_scan", "ios": "https://dc.lft.to/lastmile_qr_scan"}, "name": "ef355514f7672974b71f7eb17dba5de2"}, {"lat": 38.9107095, "is_reserved": 0, "lon": -77.03851666666667, "fusion_lon": 0.0, "fusion_lat": 0.0, "is_disabled": 0, "type": "electric_scooter", "bike_id": "382b63792a5641915b8e2d461e8fcf85", "rental_uris": {"android": "https://dc.lft.to/lastmile_qr_scan", "ios": "https://dc.lft.to/lastmile_qr_scan"}, "name": "382b63792a5641915b8e2d461e8fcf85"}, {"lat": 38.89612566666667, "is_reserved": 0, "lon": -77.02766433333333, "fusion_lon": 0.0, "fusion_lat": 0.0, "is_disabled": 0, "type": "electric_scooter", "bike_id": "332c22079ed427ae32c2260e95fd1a88", "rental_uris": {"android": "https://dc.lft.to/lastmile_qr_scan", "ios": "https://dc.lft.to/lastmile_qr_scan"}, "name": "332c22079ed427ae32c2260e95fd1a88"}, {"lat": 38.95331933333333, "is_reserved": 0, "lon": -76.98255533333334, "fusion_lon": 0.0, "fusion_lat": 0.0, "is_disabled": 0, "type": "electric_bike", "bike_id": "ca9858ba94680094ced36b4a7bed87cf", "rental_uris": {"android": "https://dc.lft.to/lastmile_qr_scan", "ios": "https://dc.lft.to/lastmile_qr_scan"}, "name": "ca9858ba94680094ced36b4a7bed87cf"}, {"lat": 38.88597816666667, "is_reserved": 0, "lon": -76.99793833333334, "fusion_lon": 0.0, "fusion_lat": 0.0, "is_disabled": 0, "type": "electric_scooter", "bike_id": "7bd0fc1810d08c6798696beccb6966d2", "rental_uris": {"android": "https://dc.lft.to/lastmile_qr_scan", "ios": "https://dc.lft.to/lastmile_qr_scan"}, "name": "7bd0fc1810d08c6798696beccb6966d2"}, {"lat": 38.903666, "is_reserved": 0, "lon": -77.0419075, "fusion_lon": 0.0, "fusion_lat": 0.0, "is_disabled": 0, "type": "electric_scooter", "bike_id": "39e4e5a163d36b88f31fcffa79512483", "rental_uris": {"android": "https://dc.lft.to/lastmile_qr_scan", "ios": "https://dc.lft.to/lastmile_qr_scan"}, "name": "39e4e5a163d36b88f31fcffa79512483"}, {"lat": 38.911867666666666, "is_reserved": 0, "lon": -77.0383255, "fusion_lon": 0.0, "fusion_lat": 0.0, "is_disabled": 0, "type": "electric_scooter", "bike_id": "2ebf1089ce9396961f94ba127cc5659f", "rental_uris": {"android": "https://dc.lft.to/lastmile_qr_scan", "ios": "https://dc.lft.to/lastmile_qr_scan"}, "name": "2ebf1089ce9396961f94ba127cc5659f"}, {"lat": 38.91683666666667, "is_reserved": 0, "lon": -77.016042, "fusion_lon": 0.0, "fusion_lat": 0.0, "is_disabled": 0, "type": "electric_scooter", "bike_id": "c142619390a6d39cc033da1334fd1f2a", "rental_uris": {"android": "https://dc.lft.to/lastmile_qr_scan", "ios": "https://dc.lft.to/lastmile_qr_scan"}, "name": "c142619390a6d39cc033da1334fd1f2a"}, {"lat": 38.925291666666666, "is_reserved": 0, "lon": -77.050696, "fusion_lon": 0.0, "fusion_lat": 0.0, "is_disabled": 0, "type": "electric_scooter", "bike_id": "8523afc0726b66bd794b7dbe249a1c66", "rental_uris": {"android": "https://dc.lft.to/lastmile_qr_scan", "ios": "https://dc.lft.to/lastmile_qr_scan"}, "name": "8523afc0726b66bd794b7dbe249a1c66"}, {"lat": 38.91557933333333, "is_reserved": 0, "lon": -77.0212995, "fusion_lon": 0.0, "fusion_lat": 0.0, "is_disabled": 0, "type": "electric_scooter", "bike_id": "fc41b7b2f1315c3287b2fb1e8964b5a2", "rental_uris": {"android": "https://dc.lft.to/lastmile_qr_scan", "ios": "https://dc.lft.to/lastmile_qr_scan"}, "name": "fc41b7b2f1315c3287b2fb1e8964b5a2"}, {"lat": 38.90242516666667, "is_reserved": 0, "lon": -77.038374, "fusion_lon": 0.0, "fusion_lat": 0.0, "is_disabled": 0, "type": "electric_scooter", "bike_id": "5b2a71d1d9414017bdf0882934d7f426", "rental_uris": {"android": "https://dc.lft.to/lastmile_qr_scan", "ios": "https://dc.lft.to/lastmile_qr_scan"}, "name": "5b2a71d1d9414017bdf0882934d7f426"}, {"lat": 38.905985666666666, "is_reserved": 0, "lon": -77.04335466666667, "fusion_lon": 0.0, "fusion_lat": 0.0, "is_disabled": 0, "type": "electric_scooter", "bike_id": "3be5e3ce9e9792a899e9a3720bbbb9bb", "rental_uris": {"android": "https://dc.lft.to/lastmile_qr_scan", "ios": "https://dc.lft.to/lastmile_qr_scan"}, "name": "3be5e3ce9e9792a899e9a3720bbbb9bb"}, {"lat": 38.905430333333335, "is_reserved": 0, "lon": -77.021991, "fusion_lon": 0.0, "fusion_lat": 0.0, "is_disabled": 0, "type": "electric_scooter", "bike_id": "21a0045fa6cf4e3d07893bced6bbd4e1", "rental_uris": {"android": "https://dc.lft.to/lastmile_qr_scan", "ios": "https://dc.lft.to/lastmile_qr_scan"}, "name": "21a0045fa6cf4e3d07893bced6bbd4e1"}, {"lat": 38.866819166666666, "is_reserved": 0, "lon": -76.98568583333333, "fusion_lon": 0.0, "fusion_lat": 0.0, "is_disabled": 0, "type": "electric_scooter", "bike_id": "f0ffbf8b6a0001a2005e78a7b7e4b8c4", "rental_uris": {"android": "https://dc.lft.to/lastmile_qr_scan", "ios": "https://dc.lft.to/lastmile_qr_scan"}, "name": "f0ffbf8b6a0001a2005e78a7b7e4b8c4"}, {"lat": 38.8534815, "is_reserved": 0, "lon": -77.1347045, "fusion_lon": 0.0, "fusion_lat": 0.0, "is_disabled": 0, "type": "electric_bike", "bike_id": "75e695c5fa34c2f01e1fb3e101f5dae4", "rental_uris": {"android": "https://dc.lft.to/lastmile_qr_scan", "ios": "https://dc.lft.to/lastmile_qr_scan"}, "name": "75e695c5fa34c2f01e1fb3e101f5dae4"}, {"lat": 38.909794166666664, "is_reserved": 0, "lon": -77.0218455, "fusion_lon": 0.0, "fusion_lat": 0.0, "is_disabled": 0, "type": "electric_scooter", "bike_id": "bd1a28f7ac0468819118a0fbcda302e9", "rental_uris": {"android": "https://dc.lft.to/lastmile_qr_scan", "ios": "https://dc.lft.to/lastmile_qr_scan"}, "name": "bd1a28f7ac0468819118a0fbcda302e9"}, {"lat": 38.91859816666667, "is_reserved": 0, "lon": -77.04169016666667, "fusion_lon": 0.0, "fusion_lat": 0.0, "is_disabled": 0, "type": "electric_scooter", "bike_id": "0d34886e8e4b8343796bb1e9c53d3590", "rental_uris": {"android": "https://dc.lft.to/lastmile_qr_scan", "ios": "https://dc.lft.to/lastmile_qr_scan"}, "name": "0d34886e8e4b8343796bb1e9c53d3590"}, {"lat": 38.897402666666665, "is_reserved": 0, "lon": -76.97976766666666, "fusion_lon": 0.0, "fusion_lat": 0.0, "is_disabled": 0, "type": "electric_scooter", "bike_id": "87a94f5233e0553504798e07eb829823", "rental_uris": {"android": "https://dc.lft.to/lastmile_qr_scan", "ios": "https://dc.lft.to/lastmile_qr_scan"}, "name": "87a94f5233e0553504798e07eb829823"}, {"lat": 38.93478866666667, "is_reserved": 0, "lon": -77.0727255, "fusion_lon": 0.0, "fusion_lat": 0.0, "is_disabled": 0, "type": "electric_scooter", "bike_id": "dc3973ac91941fb8aae23b25c7a24220", "rental_uris": {"android": "https://dc.lft.to/lastmile_qr_scan", "ios": "https://dc.lft.to/lastmile_qr_scan"}, "name": "dc3973ac91941fb8aae23b25c7a24220"}, {"lat": 38.90134116666667, "is_reserved": 0, "lon": -77.01308083333333, "fusion_lon": 0.0, "fusion_lat": 0.0, "is_disabled": 0, "type": "electric_scooter", "bike_id": "3b94a592330e3cfbc0ece4a0dbf13693", "rental_uris": {"android": "https://dc.lft.to/lastmile_qr_scan", "ios": "https://dc.lft.to/lastmile_qr_scan"}, "name": "3b94a592330e3cfbc0ece4a0dbf13693"}, {"lat": 38.9896965, "is_reserved": 0, "lon": -77.02385716666667, "fusion_lon": 0.0, "fusion_lat": 0.0, "is_disabled": 0, "type": "electric_bike", "bike_id": "c07bee476d957d4fc19fc183a72799ca", "rental_uris": {"android": "https://dc.lft.to/lastmile_qr_scan", "ios": "https://dc.lft.to/lastmile_qr_scan"}, "name": "c07bee476d957d4fc19fc183a72799ca"}, {"lat": 38.917222333333335, "is_reserved": 0, "lon": -77.027096, "fusion_lon": 0.0, "fusion_lat": 0.0, "is_disabled": 0, "type": "electric_scooter", "bike_id": "264c0fdf4215cef1d5118f661c8e1261", "rental_uris": {"android": "https://dc.lft.to/lastmile_qr_scan", "ios": "https://dc.lft.to/lastmile_qr_scan"}, "name": "264c0fdf4215cef1d5118f661c8e1261"}, {"lat": 38.905142833333336, "is_reserved": 0, "lon": -77.04183516666667, "fusion_lon": 0.0, "fusion_lat": 0.0, "is_disabled": 0, "type": "electric_scooter", "bike_id": "29bdff36725881ef0dbc15d63a8b36b4", "rental_uris": {"android": "https://dc.lft.to/lastmile_qr_scan", "ios": "https://dc.lft.to/lastmile_qr_scan"}, "name": "29bdff36725881ef0dbc15d63a8b36b4"}, {"lat": 38.90133333333333, "is_reserved": 0, "lon": -77.046638, "fusion_lon": 0.0, "fusion_lat": 0.0, "is_disabled": 0, "type": "electric_scooter", "bike_id": "3c67000e4c639d35db0930328b82a7d3", "rental_uris": {"android": "https://dc.lft.to/lastmile_qr_scan", "ios": "https://dc.lft.to/lastmile_qr_scan"}, "name": "3c67000e4c639d35db0930328b82a7d3"}, {"lat": 38.90371116666667, "is_reserved": 0, "lon": -76.986038, "fusion_lon": 0.0, "fusion_lat": 0.0, "is_disabled": 0, "type": "electric_scooter", "bike_id": "43f5e96b58768073624322862289dcaa", "rental_uris": {"android": "https://dc.lft.to/lastmile_qr_scan", "ios": "https://dc.lft.to/lastmile_qr_scan"}, "name": "43f5e96b58768073624322862289dcaa"}, {"lat": 38.8950405, "is_reserved": 0, "lon": -77.02295733333334, "fusion_lon": 0.0, "fusion_lat": 0.0, "is_disabled": 0, "type": "electric_scooter", "bike_id": "b5cf96bf8c41163e0b0d77790c1f7cfc", "rental_uris": {"android": "https://dc.lft.to/lastmile_qr_scan", "ios": "https://dc.lft.to/lastmile_qr_scan"}, "name": "b5cf96bf8c41163e0b0d77790c1f7cfc"}, {"lat": 38.91538083333333, "is_reserved": 0, "lon": -77.01976416666666, "fusion_lon": 0.0, "fusion_lat": 0.0, "is_disabled": 0, "type": "electric_scooter", "bike_id": "d08efb0cfaeb2dfa5818a0a661d3a71a", "rental_uris": {"android": "https://dc.lft.to/lastmile_qr_scan", "ios": "https://dc.lft.to/lastmile_qr_scan"}, "name": "d08efb0cfaeb2dfa5818a0a661d3a71a"}, {"lat": 38.919778666666666, "is_reserved": 0, "lon": -77.02197783333334, "fusion_lon": 0.0, "fusion_lat": 0.0, "is_disabled": 0, "type": "electric_scooter", "bike_id": "7536f3f04b1743f5ab7995d3b98843e2", "rental_uris": {"android": "https://dc.lft.to/lastmile_qr_scan", "ios": "https://dc.lft.to/lastmile_qr_scan"}, "name": "7536f3f04b1743f5ab7995d3b98843e2"}, {"lat": 38.912717666666666, "is_reserved": 0, "lon": -77.02218433333333, "fusion_lon": 0.0, "fusion_lat": 0.0, "is_disabled": 0, "type": "electric_scooter", "bike_id": "c16b5506194e8ef175a3bba2c5b8c045", "rental_uris": {"android": "https://dc.lft.to/lastmile_qr_scan", "ios": "https://dc.lft.to/lastmile_qr_scan"}, "name": "c16b5506194e8ef175a3bba2c5b8c045"}, {"lat": 38.910624166666665, "is_reserved": 0, "lon": -77.02629033333334, "fusion_lon": 0.0, "fusion_lat": 0.0, "is_disabled": 0, "type": "electric_scooter", "bike_id": "14465a95345aa8bc62795eb9a5bddda1", "rental_uris": {"android": "https://dc.lft.to/lastmile_qr_scan", "ios": "https://dc.lft.to/lastmile_qr_scan"}, "name": "14465a95345aa8bc62795eb9a5bddda1"}, {"lat": 38.94921033333333, "is_reserved": 0, "lon": -77.0076355, "fusion_lon": 0.0, "fusion_lat": 0.0, "is_disabled": 0, "type": "electric_scooter", "bike_id": "e81cd8aaaaf00a84c747b33ccc85af41", "rental_uris": {"android": "https://dc.lft.to/lastmile_qr_scan", "ios": "https://dc.lft.to/lastmile_qr_scan"}, "name": "e81cd8aaaaf00a84c747b33ccc85af41"}, {"lat": 38.923841, "is_reserved": 0, "lon": -77.03653533333333, "fusion_lon": 0.0, "fusion_lat": 0.0, "is_disabled": 0, "type": "electric_scooter", "bike_id": "53ec7871032b054d1e7bc8e3341efb0f", "rental_uris": {"android": "https://dc.lft.to/lastmile_qr_scan", "ios": "https://dc.lft.to/lastmile_qr_scan"}, "name": "53ec7871032b054d1e7bc8e3341efb0f"}, {"lat": 38.865102666666665, "is_reserved": 0, "lon": -77.12941166666667, "fusion_lon": 0.0, "fusion_lat": 0.0, "is_disabled": 0, "type": "electric_bike", "bike_id": "c8afdf92a48dcd2e0594c651b40947f0", "rental_uris": {"android": "https://dc.lft.to/lastmile_qr_scan", "ios": "https://dc.lft.to/lastmile_qr_scan"}, "name": "c8afdf92a48dcd2e0594c651b40947f0"}, {"lat": 38.89814483333333, "is_reserved": 0, "lon": -77.02442283333333, "fusion_lon": 0.0, "fusion_lat": 0.0, "is_disabled": 0, "type": "electric_scooter", "bike_id": "c5f11521fbc252bc67096abfceff3d4f", "rental_uris": {"android": "https://dc.lft.to/lastmile_qr_scan", "ios": "https://dc.lft.to/lastmile_qr_scan"}, "name": "c5f11521fbc252bc67096abfceff3d4f"}, {"lat": 38.89525833333333, "is_reserved": 0, "lon": -77.0033805, "fusion_lon": 0.0, "fusion_lat": 0.0, "is_disabled": 0, "type": "electric_scooter", "bike_id": "f1e57e6d06b9238457134bf66a4c1973", "rental_uris": {"android": "https://dc.lft.to/lastmile_qr_scan", "ios": "https://dc.lft.to/lastmile_qr_scan"}, "name": "f1e57e6d06b9238457134bf66a4c1973"}, {"lat": 38.8750555, "is_reserved": 0, "lon": -77.00120583333333, "fusion_lon": 0.0, "fusion_lat": 0.0, "is_disabled": 0, "type": "electric_scooter", "bike_id": "bef14215b36d126f600673ee04c0f8d7", "rental_uris": {"android": "https://dc.lft.to/lastmile_qr_scan", "ios": "https://dc.lft.to/lastmile_qr_scan"}, "name": "bef14215b36d126f600673ee04c0f8d7"}, {"lat": 38.8039235, "is_reserved": 0, "lon": -77.05561266666666, "fusion_lon": 0.0, "fusion_lat": 0.0, "is_disabled": 0, "type": "electric_bike", "bike_id": "1e640fa2d46667aceb4175acb2d66aa8", "rental_uris": {"android": "https://dc.lft.to/lastmile_qr_scan", "ios": "https://dc.lft.to/lastmile_qr_scan"}, "name": "1e640fa2d46667aceb4175acb2d66aa8"}, {"lat": 38.8936005, "is_reserved": 0, "lon": -76.949395, "fusion_lon": 0.0, "fusion_lat": 0.0, "is_disabled": 0, "type": "electric_scooter", "bike_id": "a71d8e1d35a6d92853afe0fbac827b57", "rental_uris": {"android": "https://dc.lft.to/lastmile_qr_scan", "ios": "https://dc.lft.to/lastmile_qr_scan"}, "name": "a71d8e1d35a6d92853afe0fbac827b57"}, {"lat": 38.919020333333336, "is_reserved": 0, "lon": -77.024856, "fusion_lon": 0.0, "fusion_lat": 0.0, "is_disabled": 0, "type": "electric_scooter", "bike_id": "607de6e53079baf655f79bfaff5cc1fd", "rental_uris": {"android": "https://dc.lft.to/lastmile_qr_scan", "ios": "https://dc.lft.to/lastmile_qr_scan"}, "name": "607de6e53079baf655f79bfaff5cc1fd"}, {"lat": 38.90990566666667, "is_reserved": 0, "lon": -77.03180816666666, "fusion_lon": 0.0, "fusion_lat": 0.0, "is_disabled": 0, "type": "electric_scooter", "bike_id": "df4a674cb3de59471c708f71b1475754", "rental_uris": {"android": "https://dc.lft.to/lastmile_qr_scan", "ios": "https://dc.lft.to/lastmile_qr_scan"}, "name": "df4a674cb3de59471c708f71b1475754"}, {"lat": 38.92362466666667, "is_reserved": 0, "lon": -77.01947316666667, "fusion_lon": 0.0, "fusion_lat": 0.0, "is_disabled": 0, "type": "electric_scooter", "bike_id": "73bd5cd35d7a44e740cb8a4b2f183a37", "rental_uris": {"android": "https://dc.lft.to/lastmile_qr_scan", "ios": "https://dc.lft.to/lastmile_qr_scan"}, "name": "73bd5cd35d7a44e740cb8a4b2f183a37"}, {"lat": 38.9013475, "is_reserved": 0, "lon": -76.99804033333334, "fusion_lon": 0.0, "fusion_lat": 0.0, "is_disabled": 0, "type": "electric_scooter", "bike_id": "415be6e1cc6fd28d0fd42b7a55a271d4", "rental_uris": {"android": "https://dc.lft.to/lastmile_qr_scan", "ios": "https://dc.lft.to/lastmile_qr_scan"}, "name": "415be6e1cc6fd28d0fd42b7a55a271d4"}, {"lat": 38.9183425, "is_reserved": 0, "lon": -77.041672, "fusion_lon": 0.0, "fusion_lat": 0.0, "is_disabled": 0, "type": "electric_scooter", "bike_id": "8ba49ea2bbc6f4b5ea8d2fcf47cc48bf", "rental_uris": {"android": "https://dc.lft.to/lastmile_qr_scan", "ios": "https://dc.lft.to/lastmile_qr_scan"}, "name": "8ba49ea2bbc6f4b5ea8d2fcf47cc48bf"}, {"lat": 38.94995983333333, "is_reserved": 0, "lon": -77.02189316666667, "fusion_lon": 0.0, "fusion_lat": 0.0, "is_disabled": 0, "type": "electric_scooter", "bike_id": "6ef1da65cea4f706cbbcdc1bb5670fc8", "rental_uris": {"android": "https://dc.lft.to/lastmile_qr_scan", "ios": "https://dc.lft.to/lastmile_qr_scan"}, "name": "6ef1da65cea4f706cbbcdc1bb5670fc8"}, {"lat": 38.892223, "is_reserved": 0, "lon": -77.04368383333333, "fusion_lon": 0.0, "fusion_lat": 0.0, "is_disabled": 0, "type": "electric_scooter", "bike_id": "fec68a49e0cd8801f05b73b75ecc24c7", "rental_uris": {"android": "https://dc.lft.to/lastmile_qr_scan", "ios": "https://dc.lft.to/lastmile_qr_scan"}, "name": "fec68a49e0cd8801f05b73b75ecc24c7"}, {"lat": 38.88614916666667, "is_reserved": 0, "lon": -76.9558625, "fusion_lon": 0.0, "fusion_lat": 0.0, "is_disabled": 0, "type": "electric_scooter", "bike_id": "309cc5cd080c0a5188b0ddaf46fbfef6", "rental_uris": {"android": "https://dc.lft.to/lastmile_qr_scan", "ios": "https://dc.lft.to/lastmile_qr_scan"}, "name": "309cc5cd080c0a5188b0ddaf46fbfef6"}, {"lat": 38.904275, "is_reserved": 0, "lon": -77.043583, "fusion_lon": 0.0, "fusion_lat": 0.0, "is_disabled": 0, "type": "electric_scooter", "bike_id": "f68a9b87411b00425bf1914daa56445a", "rental_uris": {"android": "https://dc.lft.to/lastmile_qr_scan", "ios": "https://dc.lft.to/lastmile_qr_scan"}, "name": "f68a9b87411b00425bf1914daa56445a"}, {"lat": 38.92263033333333, "is_reserved": 0, "lon": -77.0388675, "fusion_lon": 0.0, "fusion_lat": 0.0, "is_disabled": 0, "type": "electric_scooter", "bike_id": "3df0f569f8087e3ee24f27fcad55db15", "rental_uris": {"android": "https://dc.lft.to/lastmile_qr_scan", "ios": "https://dc.lft.to/lastmile_qr_scan"}, "name": "3df0f569f8087e3ee24f27fcad55db15"}, {"lat": 38.935577333333335, "is_reserved": 0, "lon": -77.029718, "fusion_lon": 0.0, "fusion_lat": 0.0, "is_disabled": 0, "type": "electric_scooter", "bike_id": "25a71f57c1552803aa496e22eb49834c", "rental_uris": {"android": "https://dc.lft.to/lastmile_qr_scan", "ios": "https://dc.lft.to/lastmile_qr_scan"}, "name": "25a71f57c1552803aa496e22eb49834c"}, {"lat": 38.9273745, "is_reserved": 0, "lon": -76.9955875, "fusion_lon": 0.0, "fusion_lat": 0.0, "is_disabled": 0, "type": "electric_scooter", "bike_id": "c9f7799da196c94f8141654017baca78", "rental_uris": {"android": "https://dc.lft.to/lastmile_qr_scan", "ios": "https://dc.lft.to/lastmile_qr_scan"}, "name": "c9f7799da196c94f8141654017baca78"}, {"lat": 38.926886833333334, "is_reserved": 0, "lon": -77.03640066666667, "fusion_lon": 0.0, "fusion_lat": 0.0, "is_disabled": 0, "type": "electric_scooter", "bike_id": "2931b8f0e656ce59aa17299573fd93bf", "rental_uris": {"android": "https://dc.lft.to/lastmile_qr_scan", "ios": "https://dc.lft.to/lastmile_qr_scan"}, "name": "2931b8f0e656ce59aa17299573fd93bf"}, {"lat": 38.901052166666666, "is_reserved": 0, "lon": -77.07058916666666, "fusion_lon": 0.0, "fusion_lat": 0.0, "is_disabled": 0, "type": "electric_scooter", "bike_id": "ca8366a171c911deecc8a5680eec98df", "rental_uris": {"android": "https://dc.lft.to/lastmile_qr_scan", "ios": "https://dc.lft.to/lastmile_qr_scan"}, "name": "ca8366a171c911deecc8a5680eec98df"}, {"lat": 38.906767, "is_reserved": 0, "lon": -76.98670266666667, "fusion_lon": 0.0, "fusion_lat": 0.0, "is_disabled": 0, "type": "electric_scooter", "bike_id": "9102834c52dc636a34c275045933145f", "rental_uris": {"android": "https://dc.lft.to/lastmile_qr_scan", "ios": "https://dc.lft.to/lastmile_qr_scan"}, "name": "9102834c52dc636a34c275045933145f"}, {"lat": 38.892487333333335, "is_reserved": 0, "lon": -77.05024083333333, "fusion_lon": 0.0, "fusion_lat": 0.0, "is_disabled": 0, "type": "electric_scooter", "bike_id": "52d9be4d2cdd3667ec09ceeb5da0515f", "rental_uris": {"android": "https://dc.lft.to/lastmile_qr_scan", "ios": "https://dc.lft.to/lastmile_qr_scan"}, "name": "52d9be4d2cdd3667ec09ceeb5da0515f"}, {"lat": 38.895326, "is_reserved": 0, "lon": -77.02001666666666, "fusion_lon": 0.0, "fusion_lat": 0.0, "is_disabled": 0, "type": "electric_scooter", "bike_id": "19723114ebb304a5d470be3844ddc8a5", "rental_uris": {"android": "https://dc.lft.to/lastmile_qr_scan", "ios": "https://dc.lft.to/lastmile_qr_scan"}, "name": "19723114ebb304a5d470be3844ddc8a5"}, {"lat": 38.89522683333333, "is_reserved": 0, "lon": -77.0447285, "fusion_lon": 0.0, "fusion_lat": 0.0, "is_disabled": 0, "type": "electric_scooter", "bike_id": "8489aa3f76fb31b6864edd184c7a1cec", "rental_uris": {"android": "https://dc.lft.to/lastmile_qr_scan", "ios": "https://dc.lft.to/lastmile_qr_scan"}, "name": "8489aa3f76fb31b6864edd184c7a1cec"}, {"lat": 38.919228833333335, "is_reserved": 0, "lon": -77.0250545, "fusion_lon": 0.0, "fusion_lat": 0.0, "is_disabled": 0, "type": "electric_scooter", "bike_id": "9b2f3349c2a29e2e823117af9ba5d941", "rental_uris": {"android": "https://dc.lft.to/lastmile_qr_scan", "ios": "https://dc.lft.to/lastmile_qr_scan"}, "name": "9b2f3349c2a29e2e823117af9ba5d941"}, {"lat": 38.902700333333335, "is_reserved": 0, "lon": -77.03841966666667, "fusion_lon": 0.0, "fusion_lat": 0.0, "is_disabled": 0, "type": "electric_scooter", "bike_id": "525152705ce4e81c88336082dfb29936", "rental_uris": {"android": "https://dc.lft.to/lastmile_qr_scan", "ios": "https://dc.lft.to/lastmile_qr_scan"}, "name": "525152705ce4e81c88336082dfb29936"}, {"lat": 38.924880333333334, "is_reserved": 0, "lon": -77.0318325, "fusion_lon": 0.0, "fusion_lat": 0.0, "is_disabled": 0, "type": "electric_scooter", "bike_id": "9a4e665c35de3f788c33c1d7e62823b7", "rental_uris": {"android": "https://dc.lft.to/lastmile_qr_scan", "ios": "https://dc.lft.to/lastmile_qr_scan"}, "name": "9a4e665c35de3f788c33c1d7e62823b7"}, {"lat": 38.864286666666665, "is_reserved": 0, "lon": -76.98006416666666, "fusion_lon": 0.0, "fusion_lat": 0.0, "is_disabled": 0, "type": "electric_scooter", "bike_id": "b3206e9c7b6d84f7a01b78bcdaf305ac", "rental_uris": {"android": "https://dc.lft.to/lastmile_qr_scan", "ios": "https://dc.lft.to/lastmile_qr_scan"}, "name": "b3206e9c7b6d84f7a01b78bcdaf305ac"}, {"lat": 38.923609166666665, "is_reserved": 0, "lon": -77.000447, "fusion_lon": 0.0, "fusion_lat": 0.0, "is_disabled": 0, "type": "electric_scooter", "bike_id": "78d9984bd75e772dfe9653a374864037", "rental_uris": {"android": "https://dc.lft.to/lastmile_qr_scan", "ios": "https://dc.lft.to/lastmile_qr_scan"}, "name": "78d9984bd75e772dfe9653a374864037"}, {"lat": 38.900183166666665, "is_reserved": 0, "lon": -77.0068265, "fusion_lon": 0.0, "fusion_lat": 0.0, "is_disabled": 0, "type": "electric_scooter", "bike_id": "db4245ddcaa811437c80994af2a93502", "rental_uris": {"android": "https://dc.lft.to/lastmile_qr_scan", "ios": "https://dc.lft.to/lastmile_qr_scan"}, "name": "db4245ddcaa811437c80994af2a93502"}, {"lat": 38.900894, "is_reserved": 0, "lon": -77.01228933333333, "fusion_lon": 0.0, "fusion_lat": 0.0, "is_disabled": 0, "type": "electric_scooter", "bike_id": "7b3ccacd8b91e4bfab8e08fe50ad2f1f", "rental_uris": {"android": "https://dc.lft.to/lastmile_qr_scan", "ios": "https://dc.lft.to/lastmile_qr_scan"}, "name": "7b3ccacd8b91e4bfab8e08fe50ad2f1f"}, {"lat": 38.8749535, "is_reserved": 0, "lon": -76.99980966666666, "fusion_lon": 0.0, "fusion_lat": 0.0, "is_disabled": 0, "type": "electric_scooter", "bike_id": "aa63834666954bd669bd24cf4d2a7f93", "rental_uris": {"android": "https://dc.lft.to/lastmile_qr_scan", "ios": "https://dc.lft.to/lastmile_qr_scan"}, "name": "aa63834666954bd669bd24cf4d2a7f93"}, {"lat": 38.89269566666667, "is_reserved": 0, "lon": -77.00129566666666, "fusion_lon": 0.0, "fusion_lat": 0.0, "is_disabled": 0, "type": "electric_scooter", "bike_id": "757f1cf1e8406d9be0598f53a6c3b0fe", "rental_uris": {"android": "https://dc.lft.to/lastmile_qr_scan", "ios": "https://dc.lft.to/lastmile_qr_scan"}, "name": "757f1cf1e8406d9be0598f53a6c3b0fe"}, {"lat": 38.9127225, "is_reserved": 0, "lon": -77.0314205, "fusion_lon": 0.0, "fusion_lat": 0.0, "is_disabled": 0, "type": "electric_scooter", "bike_id": "458f2d0c0490414c10bbe263fc0b5d7a", "rental_uris": {"android": "https://dc.lft.to/lastmile_qr_scan", "ios": "https://dc.lft.to/lastmile_qr_scan"}, "name": "458f2d0c0490414c10bbe263fc0b5d7a"}, {"lat": 38.917055500000004, "is_reserved": 0, "lon": -77.0230695, "fusion_lon": 0.0, "fusion_lat": 0.0, "is_disabled": 0, "type": "electric_scooter", "bike_id": "799c9b37c6a459e1c9c21484d5dd4c33", "rental_uris": {"android": "https://dc.lft.to/lastmile_qr_scan", "ios": "https://dc.lft.to/lastmile_qr_scan"}, "name": "799c9b37c6a459e1c9c21484d5dd4c33"}, {"lat": 38.914033833333335, "is_reserved": 0, "lon": -77.0148235, "fusion_lon": 0.0, "fusion_lat": 0.0, "is_disabled": 0, "type": "electric_scooter", "bike_id": "6834f55d0a7a02fc4f0fe52f3af141ce", "rental_uris": {"android": "https://dc.lft.to/lastmile_qr_scan", "ios": "https://dc.lft.to/lastmile_qr_scan"}, "name": "6834f55d0a7a02fc4f0fe52f3af141ce"}, {"lat": 38.901853, "is_reserved": 0, "lon": -77.01610633333334, "fusion_lon": 0.0, "fusion_lat": 0.0, "is_disabled": 0, "type": "electric_scooter", "bike_id": "cc65a4830d1590c314c679fd571f6a6a", "rental_uris": {"android": "https://dc.lft.to/lastmile_qr_scan", "ios": "https://dc.lft.to/lastmile_qr_scan"}, "name": "cc65a4830d1590c314c679fd571f6a6a"}, {"lat": 38.902335, "is_reserved": 0, "lon": -77.0455915, "fusion_lon": 0.0, "fusion_lat": 0.0, "is_disabled": 0, "type": "electric_scooter", "bike_id": "f5efa578997b6ebb9dc195121c370473", "rental_uris": {"android": "https://dc.lft.to/lastmile_qr_scan", "ios": "https://dc.lft.to/lastmile_qr_scan"}, "name": "f5efa578997b6ebb9dc195121c370473"}, {"lat": 38.900732833333336, "is_reserved": 0, "lon": -77.04831416666667, "fusion_lon": 0.0, "fusion_lat": 0.0, "is_disabled": 0, "type": "electric_scooter", "bike_id": "9ec92d9b80484fe381bdbefd4fe57f03", "rental_uris": {"android": "https://dc.lft.to/lastmile_qr_scan", "ios": "https://dc.lft.to/lastmile_qr_scan"}, "name": "9ec92d9b80484fe381bdbefd4fe57f03"}, {"lat": 38.922501, "is_reserved": 0, "lon": -77.03893033333334, "fusion_lon": 0.0, "fusion_lat": 0.0, "is_disabled": 0, "type": "electric_scooter", "bike_id": "3c96e977b5afb45d5bbe6ea745efc585", "rental_uris": {"android": "https://dc.lft.to/lastmile_qr_scan", "ios": "https://dc.lft.to/lastmile_qr_scan"}, "name": "3c96e977b5afb45d5bbe6ea745efc585"}, {"lat": 38.91565633333333, "is_reserved": 0, "lon": -77.02291433333333, "fusion_lon": 0.0, "fusion_lat": 0.0, "is_disabled": 0, "type": "electric_scooter", "bike_id": "773936a6f5d23d0865a4aadac38a20ab", "rental_uris": {"android": "https://dc.lft.to/lastmile_qr_scan", "ios": "https://dc.lft.to/lastmile_qr_scan"}, "name": "773936a6f5d23d0865a4aadac38a20ab"}, {"lat": 38.90282233333333, "is_reserved": 0, "lon": -77.03354783333333, "fusion_lon": 0.0, "fusion_lat": 0.0, "is_disabled": 0, "type": "electric_scooter", "bike_id": "20da9740893b14643db437874802a7c4", "rental_uris": {"android": "https://dc.lft.to/lastmile_qr_scan", "ios": "https://dc.lft.to/lastmile_qr_scan"}, "name": "20da9740893b14643db437874802a7c4"}, {"lat": 38.9110565, "is_reserved": 0, "lon": -77.00214366666667, "fusion_lon": 0.0, "fusion_lat": 0.0, "is_disabled": 0, "type": "electric_scooter", "bike_id": "7531788074b50250fbc6cbb49cc9a3f0", "rental_uris": {"android": "https://dc.lft.to/lastmile_qr_scan", "ios": "https://dc.lft.to/lastmile_qr_scan"}, "name": "7531788074b50250fbc6cbb49cc9a3f0"}, {"lat": 38.95710016666666, "is_reserved": 0, "lon": -77.002803, "fusion_lon": 0.0, "fusion_lat": 0.0, "is_disabled": 0, "type": "electric_bike", "bike_id": "b41f9a781c99c17476fa820dd28c54c8", "rental_uris": {"android": "https://dc.lft.to/lastmile_qr_scan", "ios": "https://dc.lft.to/lastmile_qr_scan"}, "name": "b41f9a781c99c17476fa820dd28c54c8"}, {"lat": 38.919894666666664, "is_reserved": 0, "lon": -77.02388933333333, "fusion_lon": 0.0, "fusion_lat": 0.0, "is_disabled": 0, "type": "electric_scooter", "bike_id": "c986f3801cfceb016c74070f5eb5b773", "rental_uris": {"android": "https://dc.lft.to/lastmile_qr_scan", "ios": "https://dc.lft.to/lastmile_qr_scan"}, "name": "c986f3801cfceb016c74070f5eb5b773"}, {"lat": 38.886662333333334, "is_reserved": 0, "lon": -77.16234, "fusion_lon": 0.0, "fusion_lat": 0.0, "is_disabled": 0, "type": "electric_bike", "bike_id": "dc335f6157220fad5eb75bb1b67943d9", "rental_uris": {"android": "https://dc.lft.to/lastmile_qr_scan", "ios": "https://dc.lft.to/lastmile_qr_scan"}, "name": "dc335f6157220fad5eb75bb1b67943d9"}, {"lat": 38.904106666666664, "is_reserved": 0, "lon": -76.9733235, "fusion_lon": 0.0, "fusion_lat": 0.0, "is_disabled": 0, "type": "electric_scooter", "bike_id": "043e5ab764561a45671d0dc2fd1f61d5", "rental_uris": {"android": "https://dc.lft.to/lastmile_qr_scan", "ios": "https://dc.lft.to/lastmile_qr_scan"}, "name": "043e5ab764561a45671d0dc2fd1f61d5"}, {"lat": 38.924159, "is_reserved": 0, "lon": -77.0297505, "fusion_lon": 0.0, "fusion_lat": 0.0, "is_disabled": 0, "type": "electric_bike", "bike_id": "e4562a4d02523d0f1cf02224537dc829", "rental_uris": {"android": "https://dc.lft.to/lastmile_qr_scan", "ios": "https://dc.lft.to/lastmile_qr_scan"}, "name": "e4562a4d02523d0f1cf02224537dc829"}, {"lat": 38.90098283333333, "is_reserved": 0, "lon": -77.0133655, "fusion_lon": 0.0, "fusion_lat": 0.0, "is_disabled": 0, "type": "electric_scooter", "bike_id": "8cec111f51258eb390fb022a0a2119f8", "rental_uris": {"android": "https://dc.lft.to/lastmile_qr_scan", "ios": "https://dc.lft.to/lastmile_qr_scan"}, "name": "8cec111f51258eb390fb022a0a2119f8"}, {"lat": 38.9139965, "is_reserved": 0, "lon": -77.02407833333334, "fusion_lon": 0.0, "fusion_lat": 0.0, "is_disabled": 0, "type": "electric_scooter", "bike_id": "5d01b36336745c325b2b290c9a7dc5e0", "rental_uris": {"android": "https://dc.lft.to/lastmile_qr_scan", "ios": "https://dc.lft.to/lastmile_qr_scan"}, "name": "5d01b36336745c325b2b290c9a7dc5e0"}, {"lat": 38.90105916666667, "is_reserved": 0, "lon": -77.05973233333333, "fusion_lon": 0.0, "fusion_lat": 0.0, "is_disabled": 0, "type": "electric_scooter", "bike_id": "30c417d3b52835896d88c15b5300cfe6", "rental_uris": {"android": "https://dc.lft.to/lastmile_qr_scan", "ios": "https://dc.lft.to/lastmile_qr_scan"}, "name": "30c417d3b52835896d88c15b5300cfe6"}, {"lat": 38.906828833333336, "is_reserved": 0, "lon": -77.06337816666667, "fusion_lon": 0.0, "fusion_lat": 0.0, "is_disabled": 0, "type": "electric_scooter", "bike_id": "d870eb66ab8f59a130e3b99c992bf344", "rental_uris": {"android": "https://dc.lft.to/lastmile_qr_scan", "ios": "https://dc.lft.to/lastmile_qr_scan"}, "name": "d870eb66ab8f59a130e3b99c992bf344"}, {"lat": 38.9092235, "is_reserved": 0, "lon": -77.01898366666667, "fusion_lon": 0.0, "fusion_lat": 0.0, "is_disabled": 0, "type": "electric_scooter", "bike_id": "e970d94d6ff027c596356a4476d1f88e", "rental_uris": {"android": "https://dc.lft.to/lastmile_qr_scan", "ios": "https://dc.lft.to/lastmile_qr_scan"}, "name": "e970d94d6ff027c596356a4476d1f88e"}, {"lat": 38.90830966666667, "is_reserved": 0, "lon": -77.03677966666666, "fusion_lon": 0.0, "fusion_lat": 0.0, "is_disabled": 0, "type": "electric_scooter", "bike_id": "dcffd8995bb2ac95d69cd7cbe902e23e", "rental_uris": {"android": "https://dc.lft.to/lastmile_qr_scan", "ios": "https://dc.lft.to/lastmile_qr_scan"}, "name": "dcffd8995bb2ac95d69cd7cbe902e23e"}, {"lat": 38.884173, "is_reserved": 0, "lon": -76.99696966666667, "fusion_lon": 0.0, "fusion_lat": 0.0, "is_disabled": 0, "type": "electric_scooter", "bike_id": "3ff1683c02a019ba2443d10298edb7e6", "rental_uris": {"android": "https://dc.lft.to/lastmile_qr_scan", "ios": "https://dc.lft.to/lastmile_qr_scan"}, "name": "3ff1683c02a019ba2443d10298edb7e6"}, {"lat": 38.9264725, "is_reserved": 0, "lon": -77.038518, "fusion_lon": 0.0, "fusion_lat": 0.0, "is_disabled": 0, "type": "electric_scooter", "bike_id": "df192ddcab98d648a02609ca83ad755c", "rental_uris": {"android": "https://dc.lft.to/lastmile_qr_scan", "ios": "https://dc.lft.to/lastmile_qr_scan"}, "name": "df192ddcab98d648a02609ca83ad755c"}, {"lat": 38.89612366666667, "is_reserved": 0, "lon": -77.022499, "fusion_lon": 0.0, "fusion_lat": 0.0, "is_disabled": 0, "type": "electric_scooter", "bike_id": "7c5a743cd607233a960a823fe51d03d9", "rental_uris": {"android": "https://dc.lft.to/lastmile_qr_scan", "ios": "https://dc.lft.to/lastmile_qr_scan"}, "name": "7c5a743cd607233a960a823fe51d03d9"}, {"lat": 38.93883666666667, "is_reserved": 0, "lon": -77.03392066666666, "fusion_lon": 0.0, "fusion_lat": 0.0, "is_disabled": 0, "type": "electric_scooter", "bike_id": "1f0f283a8ed504935f5fc459117398ba", "rental_uris": {"android": "https://dc.lft.to/lastmile_qr_scan", "ios": "https://dc.lft.to/lastmile_qr_scan"}, "name": "1f0f283a8ed504935f5fc459117398ba"}, {"lat": 38.90726766666667, "is_reserved": 0, "lon": -77.02371333333333, "fusion_lon": 0.0, "fusion_lat": 0.0, "is_disabled": 0, "type": "electric_scooter", "bike_id": "45920a171d34aef0f0b28136c1c61f2f", "rental_uris": {"android": "https://dc.lft.to/lastmile_qr_scan", "ios": "https://dc.lft.to/lastmile_qr_scan"}, "name": "45920a171d34aef0f0b28136c1c61f2f"}, {"lat": 38.882562, "is_reserved": 0, "lon": -76.93554216666666, "fusion_lon": 0.0, "fusion_lat": 0.0, "is_disabled": 0, "type": "electric_scooter", "bike_id": "f6912fafd7760c06449b42ebd70d40ba", "rental_uris": {"android": "https://dc.lft.to/lastmile_qr_scan", "ios": "https://dc.lft.to/lastmile_qr_scan"}, "name": "f6912fafd7760c06449b42ebd70d40ba"}, {"lat": 38.91462533333333, "is_reserved": 0, "lon": -77.02170233333334, "fusion_lon": 0.0, "fusion_lat": 0.0, "is_disabled": 0, "type": "electric_scooter", "bike_id": "a325a83e831b707dc3248d91280dcce2", "rental_uris": {"android": "https://dc.lft.to/lastmile_qr_scan", "ios": "https://dc.lft.to/lastmile_qr_scan"}, "name": "a325a83e831b707dc3248d91280dcce2"}, {"lat": 38.9213605, "is_reserved": 0, "lon": -77.01804116666666, "fusion_lon": 0.0, "fusion_lat": 0.0, "is_disabled": 0, "type": "electric_scooter", "bike_id": "212d7ac19f2ec6c3f36768cf46bfa6fb", "rental_uris": {"android": "https://dc.lft.to/lastmile_qr_scan", "ios": "https://dc.lft.to/lastmile_qr_scan"}, "name": "212d7ac19f2ec6c3f36768cf46bfa6fb"}, {"lat": 38.90851383333333, "is_reserved": 0, "lon": -76.9980925, "fusion_lon": 0.0, "fusion_lat": 0.0, "is_disabled": 0, "type": "electric_scooter", "bike_id": "4c6f5020ba981806dac41cf31622db30", "rental_uris": {"android": "https://dc.lft.to/lastmile_qr_scan", "ios": "https://dc.lft.to/lastmile_qr_scan"}, "name": "4c6f5020ba981806dac41cf31622db30"}, {"lat": 38.90585383333333, "is_reserved": 0, "lon": -77.05704066666667, "fusion_lon": 0.0, "fusion_lat": 0.0, "is_disabled": 0, "type": "electric_scooter", "bike_id": "df56b4ca8cbe37b64a4d06dc9c20e276", "rental_uris": {"android": "https://dc.lft.to/lastmile_qr_scan", "ios": "https://dc.lft.to/lastmile_qr_scan"}, "name": "df56b4ca8cbe37b64a4d06dc9c20e276"}, {"lat": 38.87662133333333, "is_reserved": 0, "lon": -77.00459133333334, "fusion_lon": 0.0, "fusion_lat": 0.0, "is_disabled": 0, "type": "electric_scooter", "bike_id": "47918c438adc3a8cd1c0131d2a01fb30", "rental_uris": {"android": "https://dc.lft.to/lastmile_qr_scan", "ios": "https://dc.lft.to/lastmile_qr_scan"}, "name": "47918c438adc3a8cd1c0131d2a01fb30"}, {"lat": 38.86007216666667, "is_reserved": 0, "lon": -76.99659266666667, "fusion_lon": 0.0, "fusion_lat": 0.0, "is_disabled": 0, "type": "electric_scooter", "bike_id": "804b2836513bda91be471103aaeb1b4b", "rental_uris": {"android": "https://dc.lft.to/lastmile_qr_scan", "ios": "https://dc.lft.to/lastmile_qr_scan"}, "name": "804b2836513bda91be471103aaeb1b4b"}, {"lat": 38.875365, "is_reserved": 0, "lon": -77.00074966666666, "fusion_lon": 0.0, "fusion_lat": 0.0, "is_disabled": 0, "type": "electric_scooter", "bike_id": "8b2d7a3f14737c152faf87db7d382be9", "rental_uris": {"android": "https://dc.lft.to/lastmile_qr_scan", "ios": "https://dc.lft.to/lastmile_qr_scan"}, "name": "8b2d7a3f14737c152faf87db7d382be9"}, {"lat": 38.91566133333333, "is_reserved": 0, "lon": -77.03188616666667, "fusion_lon": 0.0, "fusion_lat": 0.0, "is_disabled": 0, "type": "electric_scooter", "bike_id": "157dd8b4081bafb15182a59e741a7cd3", "rental_uris": {"android": "https://dc.lft.to/lastmile_qr_scan", "ios": "https://dc.lft.to/lastmile_qr_scan"}, "name": "157dd8b4081bafb15182a59e741a7cd3"}, {"lat": 38.908665166666665, "is_reserved": 0, "lon": -76.93339716666667, "fusion_lon": 0.0, "fusion_lat": 0.0, "is_disabled": 0, "type": "electric_scooter", "bike_id": "9b54b02e7195fae47392ef21eb9a724f", "rental_uris": {"android": "https://dc.lft.to/lastmile_qr_scan", "ios": "https://dc.lft.to/lastmile_qr_scan"}, "name": "9b54b02e7195fae47392ef21eb9a724f"}, {"lat": 38.922951166666664, "is_reserved": 0, "lon": -77.0414315, "fusion_lon": 0.0, "fusion_lat": 0.0, "is_disabled": 0, "type": "electric_scooter", "bike_id": "6304125d21ae5f822a4773007f1e2d49", "rental_uris": {"android": "https://dc.lft.to/lastmile_qr_scan", "ios": "https://dc.lft.to/lastmile_qr_scan"}, "name": "6304125d21ae5f822a4773007f1e2d49"}, {"lat": 38.876277333333334, "is_reserved": 0, "lon": -76.96526333333334, "fusion_lon": 0.0, "fusion_lat": 0.0, "is_disabled": 0, "type": "electric_scooter", "bike_id": "cf6ecad88bf576b4b03b8f01a65c9de0", "rental_uris": {"android": "https://dc.lft.to/lastmile_qr_scan", "ios": "https://dc.lft.to/lastmile_qr_scan"}, "name": "cf6ecad88bf576b4b03b8f01a65c9de0"}, {"lat": 38.903811833333336, "is_reserved": 0, "lon": -77.03572266666667, "fusion_lon": 0.0, "fusion_lat": 0.0, "is_disabled": 0, "type": "electric_scooter", "bike_id": "6d015d1034c0389059c0677132dd439e", "rental_uris": {"android": "https://dc.lft.to/lastmile_qr_scan", "ios": "https://dc.lft.to/lastmile_qr_scan"}, "name": "6d015d1034c0389059c0677132dd439e"}, {"lat": 38.91060566666667, "is_reserved": 0, "lon": -77.0198415, "fusion_lon": 0.0, "fusion_lat": 0.0, "is_disabled": 0, "type": "electric_bike", "bike_id": "06e31e42ee64fc451f91e499bf4c11b4", "rental_uris": {"android": "https://dc.lft.to/lastmile_qr_scan", "ios": "https://dc.lft.to/lastmile_qr_scan"}, "name": "06e31e42ee64fc451f91e499bf4c11b4"}, {"lat": 38.898588833333335, "is_reserved": 0, "lon": -76.94638333333333, "fusion_lon": 0.0, "fusion_lat": 0.0, "is_disabled": 0, "type": "electric_scooter", "bike_id": "898a369596c1a83356834a4d8cdcfcef", "rental_uris": {"android": "https://dc.lft.to/lastmile_qr_scan", "ios": "https://dc.lft.to/lastmile_qr_scan"}, "name": "898a369596c1a83356834a4d8cdcfcef"}, {"lat": 38.88185433333334, "is_reserved": 0, "lon": -77.02086216666666, "fusion_lon": 0.0, "fusion_lat": 0.0, "is_disabled": 0, "type": "electric_scooter", "bike_id": "3ab161f494c1f08963f92fb97286909a", "rental_uris": {"android": "https://dc.lft.to/lastmile_qr_scan", "ios": "https://dc.lft.to/lastmile_qr_scan"}, "name": "3ab161f494c1f08963f92fb97286909a"}, {"lat": 38.908675, "is_reserved": 0, "lon": -77.003704, "fusion_lon": 0.0, "fusion_lat": 0.0, "is_disabled": 0, "type": "electric_scooter", "bike_id": "63ce4138252fed8ac57a76b903219454", "rental_uris": {"android": "https://dc.lft.to/lastmile_qr_scan", "ios": "https://dc.lft.to/lastmile_qr_scan"}, "name": "63ce4138252fed8ac57a76b903219454"}, {"lat": 38.8782835, "is_reserved": 0, "lon": -77.001933, "fusion_lon": 0.0, "fusion_lat": 0.0, "is_disabled": 0, "type": "electric_scooter", "bike_id": "41ee94fa448da88a8108ca68406499b6", "rental_uris": {"android": "https://dc.lft.to/lastmile_qr_scan", "ios": "https://dc.lft.to/lastmile_qr_scan"}, "name": "41ee94fa448da88a8108ca68406499b6"}, {"lat": 38.902629166666664, "is_reserved": 0, "lon": -77.01907166666666, "fusion_lon": 0.0, "fusion_lat": 0.0, "is_disabled": 0, "type": "electric_scooter", "bike_id": "0c5a46caf110f066856c541801bcc1c0", "rental_uris": {"android": "https://dc.lft.to/lastmile_qr_scan", "ios": "https://dc.lft.to/lastmile_qr_scan"}, "name": "0c5a46caf110f066856c541801bcc1c0"}, {"lat": 38.90011766666667, "is_reserved": 0, "lon": -76.985937, "fusion_lon": 0.0, "fusion_lat": 0.0, "is_disabled": 0, "type": "electric_scooter", "bike_id": "408aadcfe92c397c09cd843986b8995c", "rental_uris": {"android": "https://dc.lft.to/lastmile_qr_scan", "ios": "https://dc.lft.to/lastmile_qr_scan"}, "name": "408aadcfe92c397c09cd843986b8995c"}, {"lat": 38.903068, "is_reserved": 0, "lon": -77.038364, "fusion_lon": 0.0, "fusion_lat": 0.0, "is_disabled": 0, "type": "electric_scooter", "bike_id": "f9ccff552cf6788817babf67c8a99ef0", "rental_uris": {"android": "https://dc.lft.to/lastmile_qr_scan", "ios": "https://dc.lft.to/lastmile_qr_scan"}, "name": "f9ccff552cf6788817babf67c8a99ef0"}, {"lat": 38.89926416666667, "is_reserved": 0, "lon": -77.01637183333334, "fusion_lon": 0.0, "fusion_lat": 0.0, "is_disabled": 0, "type": "electric_scooter", "bike_id": "5f8aa292c909ab52dddaec0f09c1339c", "rental_uris": {"android": "https://dc.lft.to/lastmile_qr_scan", "ios": "https://dc.lft.to/lastmile_qr_scan"}, "name": "5f8aa292c909ab52dddaec0f09c1339c"}, {"lat": 38.973813, "is_reserved": 0, "lon": -77.06473566666666, "fusion_lon": 0.0, "fusion_lat": 0.0, "is_disabled": 0, "type": "electric_bike", "bike_id": "53f019a23dd2f367f806248390e97829", "rental_uris": {"android": "https://dc.lft.to/lastmile_qr_scan", "ios": "https://dc.lft.to/lastmile_qr_scan"}, "name": "53f019a23dd2f367f806248390e97829"}, {"lat": 38.873865, "is_reserved": 0, "lon": -77.00071533333333, "fusion_lon": 0.0, "fusion_lat": 0.0, "is_disabled": 0, "type": "electric_scooter", "bike_id": "fe3ddaa5be3041d4b19b79b08f34193d", "rental_uris": {"android": "https://dc.lft.to/lastmile_qr_scan", "ios": "https://dc.lft.to/lastmile_qr_scan"}, "name": "fe3ddaa5be3041d4b19b79b08f34193d"}, {"lat": 38.9170005, "is_reserved": 0, "lon": -77.02891933333333, "fusion_lon": 0.0, "fusion_lat": 0.0, "is_disabled": 0, "type": "electric_scooter", "bike_id": "36e6c200e26251d9988c5cedb7f15e39", "rental_uris": {"android": "https://dc.lft.to/lastmile_qr_scan", "ios": "https://dc.lft.to/lastmile_qr_scan"}, "name": "36e6c200e26251d9988c5cedb7f15e39"}, {"lat": 38.9162505, "is_reserved": 0, "lon": -77.03211016666667, "fusion_lon": 0.0, "fusion_lat": 0.0, "is_disabled": 0, "type": "electric_scooter", "bike_id": "0f39e3b0fdda565f8009c005161757fd", "rental_uris": {"android": "https://dc.lft.to/lastmile_qr_scan", "ios": "https://dc.lft.to/lastmile_qr_scan"}, "name": "0f39e3b0fdda565f8009c005161757fd"}, {"lat": 38.9010745, "is_reserved": 0, "lon": -77.0281125, "fusion_lon": 0.0, "fusion_lat": 0.0, "is_disabled": 0, "type": "electric_scooter", "bike_id": "564db6239b6bd694c4099e96a48f90c8", "rental_uris": {"android": "https://dc.lft.to/lastmile_qr_scan", "ios": "https://dc.lft.to/lastmile_qr_scan"}, "name": "564db6239b6bd694c4099e96a48f90c8"}, {"lat": 38.91266066666667, "is_reserved": 0, "lon": -77.0238645, "fusion_lon": 0.0, "fusion_lat": 0.0, "is_disabled": 0, "type": "electric_scooter", "bike_id": "1f26a68eb0d236885bb1b8f6ac8462b1", "rental_uris": {"android": "https://dc.lft.to/lastmile_qr_scan", "ios": "https://dc.lft.to/lastmile_qr_scan"}, "name": "1f26a68eb0d236885bb1b8f6ac8462b1"}, {"lat": 38.90018216666667, "is_reserved": 0, "lon": -76.98670533333333, "fusion_lon": 0.0, "fusion_lat": 0.0, "is_disabled": 0, "type": "electric_bike", "bike_id": "2732a4d41d7ca8ba5930f49f7fd0a7ea", "rental_uris": {"android": "https://dc.lft.to/lastmile_qr_scan", "ios": "https://dc.lft.to/lastmile_qr_scan"}, "name": "2732a4d41d7ca8ba5930f49f7fd0a7ea"}, {"lat": 38.862452833333336, "is_reserved": 0, "lon": -76.99503666666666, "fusion_lon": 0.0, "fusion_lat": 0.0, "is_disabled": 0, "type": "electric_scooter", "bike_id": "e307b58fbefd9392d4410fec32e89d43", "rental_uris": {"android": "https://dc.lft.to/lastmile_qr_scan", "ios": "https://dc.lft.to/lastmile_qr_scan"}, "name": "e307b58fbefd9392d4410fec32e89d43"}, {"lat": 38.885343, "is_reserved": 0, "lon": -76.998243, "fusion_lon": 0.0, "fusion_lat": 0.0, "is_disabled": 0, "type": "electric_scooter", "bike_id": "ff807b490c8d62ec43603f5c09000a6d", "rental_uris": {"android": "https://dc.lft.to/lastmile_qr_scan", "ios": "https://dc.lft.to/lastmile_qr_scan"}, "name": "ff807b490c8d62ec43603f5c09000a6d"}, {"lat": 38.8843705, "is_reserved": 0, "lon": -77.025141, "fusion_lon": 0.0, "fusion_lat": 0.0, "is_disabled": 0, "type": "electric_scooter", "bike_id": "af5ca1ad723ad53ed39e2688260d4227", "rental_uris": {"android": "https://dc.lft.to/lastmile_qr_scan", "ios": "https://dc.lft.to/lastmile_qr_scan"}, "name": "af5ca1ad723ad53ed39e2688260d4227"}, {"lat": 38.9027435, "is_reserved": 0, "lon": -77.03837433333334, "fusion_lon": 0.0, "fusion_lat": 0.0, "is_disabled": 0, "type": "electric_scooter", "bike_id": "4a6ffa406f2d93109ca747803683005e", "rental_uris": {"android": "https://dc.lft.to/lastmile_qr_scan", "ios": "https://dc.lft.to/lastmile_qr_scan"}, "name": "4a6ffa406f2d93109ca747803683005e"}, {"lat": 38.92831983333333, "is_reserved": 0, "lon": -77.0550775, "fusion_lon": 0.0, "fusion_lat": 0.0, "is_disabled": 0, "type": "electric_scooter", "bike_id": "f82b71e3d137de71a1ffc0a293de24c2", "rental_uris": {"android": "https://dc.lft.to/lastmile_qr_scan", "ios": "https://dc.lft.to/lastmile_qr_scan"}, "name": "f82b71e3d137de71a1ffc0a293de24c2"}, {"lat": 38.897366166666664, "is_reserved": 0, "lon": -77.0245775, "fusion_lon": 0.0, "fusion_lat": 0.0, "is_disabled": 0, "type": "electric_scooter", "bike_id": "e4ea74c80908d222b11a331f98fa2733", "rental_uris": {"android": "https://dc.lft.to/lastmile_qr_scan", "ios": "https://dc.lft.to/lastmile_qr_scan"}, "name": "e4ea74c80908d222b11a331f98fa2733"}, {"lat": 38.957901166666666, "is_reserved": 0, "lon": -77.03215483333334, "fusion_lon": 0.0, "fusion_lat": 0.0, "is_disabled": 0, "type": "electric_scooter", "bike_id": "2f46d4917cd7ea148957cdc9cd782eb8", "rental_uris": {"android": "https://dc.lft.to/lastmile_qr_scan", "ios": "https://dc.lft.to/lastmile_qr_scan"}, "name": "2f46d4917cd7ea148957cdc9cd782eb8"}, {"lat": 38.898626166666666, "is_reserved": 0, "lon": -76.94633383333333, "fusion_lon": 0.0, "fusion_lat": 0.0, "is_disabled": 0, "type": "electric_scooter", "bike_id": "fd2495eecffd0782ade339de168d07aa", "rental_uris": {"android": "https://dc.lft.to/lastmile_qr_scan", "ios": "https://dc.lft.to/lastmile_qr_scan"}, "name": "fd2495eecffd0782ade339de168d07aa"}, {"lat": 38.917460166666665, "is_reserved": 0, "lon": -77.01714133333333, "fusion_lon": 0.0, "fusion_lat": 0.0, "is_disabled": 0, "type": "electric_scooter", "bike_id": "0e6d0ce9550462355144252f483d853c", "rental_uris": {"android": "https://dc.lft.to/lastmile_qr_scan", "ios": "https://dc.lft.to/lastmile_qr_scan"}, "name": "0e6d0ce9550462355144252f483d853c"}, {"lat": 38.89743083333333, "is_reserved": 0, "lon": -77.04451933333333, "fusion_lon": 0.0, "fusion_lat": 0.0, "is_disabled": 0, "type": "electric_scooter", "bike_id": "5ea4fcf601c6927d0c4e6c5f05c598cc", "rental_uris": {"android": "https://dc.lft.to/lastmile_qr_scan", "ios": "https://dc.lft.to/lastmile_qr_scan"}, "name": "5ea4fcf601c6927d0c4e6c5f05c598cc"}, {"lat": 38.91693566666667, "is_reserved": 0, "lon": -77.02654533333333, "fusion_lon": 0.0, "fusion_lat": 0.0, "is_disabled": 0, "type": "electric_scooter", "bike_id": "69bb97cf868d64491e9d13b46d3295bf", "rental_uris": {"android": "https://dc.lft.to/lastmile_qr_scan", "ios": "https://dc.lft.to/lastmile_qr_scan"}, "name": "69bb97cf868d64491e9d13b46d3295bf"}, {"lat": 38.89734516666667, "is_reserved": 0, "lon": -77.02386066666666, "fusion_lon": 0.0, "fusion_lat": 0.0, "is_disabled": 0, "type": "electric_scooter", "bike_id": "1d0a91d30d92c65d4312680ba81b1b6a", "rental_uris": {"android": "https://dc.lft.to/lastmile_qr_scan", "ios": "https://dc.lft.to/lastmile_qr_scan"}, "name": "1d0a91d30d92c65d4312680ba81b1b6a"}, {"lat": 38.900775333333335, "is_reserved": 0, "lon": -77.049302, "fusion_lon": 0.0, "fusion_lat": 0.0, "is_disabled": 0, "type": "electric_scooter", "bike_id": "04b42dc1b744ab4eb10a6b0eb1d8314f", "rental_uris": {"android": "https://dc.lft.to/lastmile_qr_scan", "ios": "https://dc.lft.to/lastmile_qr_scan"}, "name": "04b42dc1b744ab4eb10a6b0eb1d8314f"}, {"lat": 38.91690933333334, "is_reserved": 0, "lon": -77.02758483333334, "fusion_lon": 0.0, "fusion_lat": 0.0, "is_disabled": 0, "type": "electric_scooter", "bike_id": "651fb4f00cf2e70fd785f1bf0fca156a", "rental_uris": {"android": "https://dc.lft.to/lastmile_qr_scan", "ios": "https://dc.lft.to/lastmile_qr_scan"}, "name": "651fb4f00cf2e70fd785f1bf0fca156a"}, {"lat": 38.9240235, "is_reserved": 0, "lon": -77.04029733333333, "fusion_lon": 0.0, "fusion_lat": 0.0, "is_disabled": 0, "type": "electric_scooter", "bike_id": "89b8406a4289110edadc6bf3256869f9", "rental_uris": {"android": "https://dc.lft.to/lastmile_qr_scan", "ios": "https://dc.lft.to/lastmile_qr_scan"}, "name": "89b8406a4289110edadc6bf3256869f9"}, {"lat": 38.91637866666667, "is_reserved": 0, "lon": -77.028123, "fusion_lon": 0.0, "fusion_lat": 0.0, "is_disabled": 0, "type": "electric_scooter", "bike_id": "0af5adc042040f4e5b85b2810749454b", "rental_uris": {"android": "https://dc.lft.to/lastmile_qr_scan", "ios": "https://dc.lft.to/lastmile_qr_scan"}, "name": "0af5adc042040f4e5b85b2810749454b"}, {"lat": 38.907332333333336, "is_reserved": 0, "lon": -77.0261655, "fusion_lon": 0.0, "fusion_lat": 0.0, "is_disabled": 0, "type": "electric_scooter", "bike_id": "38b261668c4bc84d39dd1e2ed9179693", "rental_uris": {"android": "https://dc.lft.to/lastmile_qr_scan", "ios": "https://dc.lft.to/lastmile_qr_scan"}, "name": "38b261668c4bc84d39dd1e2ed9179693"}, {"lat": 38.93560566666667, "is_reserved": 0, "lon": -77.07460866666666, "fusion_lon": 0.0, "fusion_lat": 0.0, "is_disabled": 0, "type": "electric_scooter", "bike_id": "9629aabb6e4935f10097fdc821d1c0f4", "rental_uris": {"android": "https://dc.lft.to/lastmile_qr_scan", "ios": "https://dc.lft.to/lastmile_qr_scan"}, "name": "9629aabb6e4935f10097fdc821d1c0f4"}, {"lat": 38.871735, "is_reserved": 0, "lon": -77.00624083333334, "fusion_lon": 0.0, "fusion_lat": 0.0, "is_disabled": 0, "type": "electric_scooter", "bike_id": "487a500077163cad71e076529bb8df36", "rental_uris": {"android": "https://dc.lft.to/lastmile_qr_scan", "ios": "https://dc.lft.to/lastmile_qr_scan"}, "name": "487a500077163cad71e076529bb8df36"}, {"lat": 38.8768745, "is_reserved": 0, "lon": -77.00727316666666, "fusion_lon": 0.0, "fusion_lat": 0.0, "is_disabled": 0, "type": "electric_scooter", "bike_id": "f3ea183726f1787857cd94fdeac224f1", "rental_uris": {"android": "https://dc.lft.to/lastmile_qr_scan", "ios": "https://dc.lft.to/lastmile_qr_scan"}, "name": "f3ea183726f1787857cd94fdeac224f1"}, {"lat": 38.89135483333333, "is_reserved": 0, "lon": -76.95184166666667, "fusion_lon": 0.0, "fusion_lat": 0.0, "is_disabled": 0, "type": "electric_scooter", "bike_id": "69d856944db7fd6d22263a961ddbd286", "rental_uris": {"android": "https://dc.lft.to/lastmile_qr_scan", "ios": "https://dc.lft.to/lastmile_qr_scan"}, "name": "69d856944db7fd6d22263a961ddbd286"}, {"lat": 38.90559016666667, "is_reserved": 0, "lon": -77.04037233333334, "fusion_lon": 0.0, "fusion_lat": 0.0, "is_disabled": 0, "type": "electric_scooter", "bike_id": "5a09da0c9c1d6a0262ad580a1e99ea8d", "rental_uris": {"android": "https://dc.lft.to/lastmile_qr_scan", "ios": "https://dc.lft.to/lastmile_qr_scan"}, "name": "5a09da0c9c1d6a0262ad580a1e99ea8d"}, {"lat": 38.905533, "is_reserved": 0, "lon": -77.00527383333333, "fusion_lon": 0.0, "fusion_lat": 0.0, "is_disabled": 0, "type": "electric_scooter", "bike_id": "8f34c92b317e8f0a1de8763661161b50", "rental_uris": {"android": "https://dc.lft.to/lastmile_qr_scan", "ios": "https://dc.lft.to/lastmile_qr_scan"}, "name": "8f34c92b317e8f0a1de8763661161b50"}, {"lat": 38.903744, "is_reserved": 0, "lon": -77.037067, "fusion_lon": 0.0, "fusion_lat": 0.0, "is_disabled": 0, "type": "electric_scooter", "bike_id": "e170e6aab3a4a1eb4f5f92db7a4bf0ef", "rental_uris": {"android": "https://dc.lft.to/lastmile_qr_scan", "ios": "https://dc.lft.to/lastmile_qr_scan"}, "name": "e170e6aab3a4a1eb4f5f92db7a4bf0ef"}, {"lat": 38.906528, "is_reserved": 0, "lon": -77.04288916666667, "fusion_lon": 0.0, "fusion_lat": 0.0, "is_disabled": 0, "type": "electric_scooter", "bike_id": "222682a0849851ee22b8863c2639e741", "rental_uris": {"android": "https://dc.lft.to/lastmile_qr_scan", "ios": "https://dc.lft.to/lastmile_qr_scan"}, "name": "222682a0849851ee22b8863c2639e741"}, {"lat": 38.89351966666667, "is_reserved": 0, "lon": -77.003367, "fusion_lon": 0.0, "fusion_lat": 0.0, "is_disabled": 0, "type": "electric_scooter", "bike_id": "6ee38289fb2dd0eb79d26c4db920e2f5", "rental_uris": {"android": "https://dc.lft.to/lastmile_qr_scan", "ios": "https://dc.lft.to/lastmile_qr_scan"}, "name": "6ee38289fb2dd0eb79d26c4db920e2f5"}, {"lat": 38.92157533333334, "is_reserved": 0, "lon": -77.03376, "fusion_lon": 0.0, "fusion_lat": 0.0, "is_disabled": 0, "type": "electric_scooter", "bike_id": "49ac990e1285953659a5c8085c25df22", "rental_uris": {"android": "https://dc.lft.to/lastmile_qr_scan", "ios": "https://dc.lft.to/lastmile_qr_scan"}, "name": "49ac990e1285953659a5c8085c25df22"}, {"lat": 38.938637, "is_reserved": 0, "lon": -77.02649033333333, "fusion_lon": 0.0, "fusion_lat": 0.0, "is_disabled": 0, "type": "electric_scooter", "bike_id": "3e4809c483a03b3ebfb9370dda994d25", "rental_uris": {"android": "https://dc.lft.to/lastmile_qr_scan", "ios": "https://dc.lft.to/lastmile_qr_scan"}, "name": "3e4809c483a03b3ebfb9370dda994d25"}, {"lat": 38.876852666666665, "is_reserved": 0, "lon": -77.00065233333333, "fusion_lon": 0.0, "fusion_lat": 0.0, "is_disabled": 0, "type": "electric_scooter", "bike_id": "565142e889335a062f925c6040efa712", "rental_uris": {"android": "https://dc.lft.to/lastmile_qr_scan", "ios": "https://dc.lft.to/lastmile_qr_scan"}, "name": "565142e889335a062f925c6040efa712"}, {"lat": 38.919223833333334, "is_reserved": 0, "lon": -77.07092116666666, "fusion_lon": 0.0, "fusion_lat": 0.0, "is_disabled": 0, "type": "electric_scooter", "bike_id": "3ba77e48c49fbd08861a9435d7d3d608", "rental_uris": {"android": "https://dc.lft.to/lastmile_qr_scan", "ios": "https://dc.lft.to/lastmile_qr_scan"}, "name": "3ba77e48c49fbd08861a9435d7d3d608"}, {"lat": 38.883666833333336, "is_reserved": 0, "lon": -76.995053, "fusion_lon": 0.0, "fusion_lat": 0.0, "is_disabled": 0, "type": "electric_scooter", "bike_id": "594b2dc5d6556204bac0442ee5ac0d12", "rental_uris": {"android": "https://dc.lft.to/lastmile_qr_scan", "ios": "https://dc.lft.to/lastmile_qr_scan"}, "name": "594b2dc5d6556204bac0442ee5ac0d12"}, {"lat": 38.91510616666667, "is_reserved": 0, "lon": -77.046263, "fusion_lon": 0.0, "fusion_lat": 0.0, "is_disabled": 0, "type": "electric_scooter", "bike_id": "f748223a900a58d60f5829be20db1e1d", "rental_uris": {"android": "https://dc.lft.to/lastmile_qr_scan", "ios": "https://dc.lft.to/lastmile_qr_scan"}, "name": "f748223a900a58d60f5829be20db1e1d"}, {"lat": 38.89925083333333, "is_reserved": 0, "lon": -77.0415995, "fusion_lon": 0.0, "fusion_lat": 0.0, "is_disabled": 0, "type": "electric_scooter", "bike_id": "200fe5a7f5d5a65bddfa8697e0f18629", "rental_uris": {"android": "https://dc.lft.to/lastmile_qr_scan", "ios": "https://dc.lft.to/lastmile_qr_scan"}, "name": "200fe5a7f5d5a65bddfa8697e0f18629"}, {"lat": 38.92987433333333, "is_reserved": 0, "lon": -77.02343433333333, "fusion_lon": 0.0, "fusion_lat": 0.0, "is_disabled": 0, "type": "electric_scooter", "bike_id": "53456a01d9db4ec4ecaeb97af8e1225e", "rental_uris": {"android": "https://dc.lft.to/lastmile_qr_scan", "ios": "https://dc.lft.to/lastmile_qr_scan"}, "name": "53456a01d9db4ec4ecaeb97af8e1225e"}, {"lat": 38.91684733333334, "is_reserved": 0, "lon": -77.04137716666666, "fusion_lon": 0.0, "fusion_lat": 0.0, "is_disabled": 0, "type": "electric_scooter", "bike_id": "e8da7d1a133986e88b0801d1884c814e", "rental_uris": {"android": "https://dc.lft.to/lastmile_qr_scan", "ios": "https://dc.lft.to/lastmile_qr_scan"}, "name": "e8da7d1a133986e88b0801d1884c814e"}, {"lat": 38.92537733333333, "is_reserved": 0, "lon": -77.03536166666666, "fusion_lon": 0.0, "fusion_lat": 0.0, "is_disabled": 0, "type": "electric_scooter", "bike_id": "cdc4c3d1e46789832d3786cbb95cfd5a", "rental_uris": {"android": "https://dc.lft.to/lastmile_qr_scan", "ios": "https://dc.lft.to/lastmile_qr_scan"}, "name": "cdc4c3d1e46789832d3786cbb95cfd5a"}, {"lat": 38.96551683333333, "is_reserved": 0, "lon": -77.03628816666667, "fusion_lon": 0.0, "fusion_lat": 0.0, "is_disabled": 0, "type": "electric_scooter", "bike_id": "0daeadd856af6d9a522c7b08c3e7ac12", "rental_uris": {"android": "https://dc.lft.to/lastmile_qr_scan", "ios": "https://dc.lft.to/lastmile_qr_scan"}, "name": "0daeadd856af6d9a522c7b08c3e7ac12"}, {"lat": 38.92421983333333, "is_reserved": 0, "lon": -77.0194635, "fusion_lon": 0.0, "fusion_lat": 0.0, "is_disabled": 0, "type": "electric_scooter", "bike_id": "e0466653b26e42c56d0c278bbf11d5d7", "rental_uris": {"android": "https://dc.lft.to/lastmile_qr_scan", "ios": "https://dc.lft.to/lastmile_qr_scan"}, "name": "e0466653b26e42c56d0c278bbf11d5d7"}, {"lat": 38.894412333333335, "is_reserved": 0, "lon": -77.02632966666667, "fusion_lon": 0.0, "fusion_lat": 0.0, "is_disabled": 0, "type": "electric_scooter", "bike_id": "4d270fa26b6262752f7c03b4b47c99b8", "rental_uris": {"android": "https://dc.lft.to/lastmile_qr_scan", "ios": "https://dc.lft.to/lastmile_qr_scan"}, "name": "4d270fa26b6262752f7c03b4b47c99b8"}, {"lat": 38.909602166666666, "is_reserved": 0, "lon": -77.01072116666667, "fusion_lon": 0.0, "fusion_lat": 0.0, "is_disabled": 0, "type": "electric_scooter", "bike_id": "453301eeda4a2c3fefc3a7a5fa7b2bfd", "rental_uris": {"android": "https://dc.lft.to/lastmile_qr_scan", "ios": "https://dc.lft.to/lastmile_qr_scan"}, "name": "453301eeda4a2c3fefc3a7a5fa7b2bfd"}, {"lat": 38.92589566666667, "is_reserved": 0, "lon": -77.03223716666666, "fusion_lon": 0.0, "fusion_lat": 0.0, "is_disabled": 0, "type": "electric_scooter", "bike_id": "9a024d1431045eabcd019140442bcc74", "rental_uris": {"android": "https://dc.lft.to/lastmile_qr_scan", "ios": "https://dc.lft.to/lastmile_qr_scan"}, "name": "9a024d1431045eabcd019140442bcc74"}, {"lat": 38.8872295, "is_reserved": 0, "lon": -77.0198005, "fusion_lon": 0.0, "fusion_lat": 0.0, "is_disabled": 0, "type": "electric_scooter", "bike_id": "cf04186603b39641ca19a94443ea5b8f", "rental_uris": {"android": "https://dc.lft.to/lastmile_qr_scan", "ios": "https://dc.lft.to/lastmile_qr_scan"}, "name": "cf04186603b39641ca19a94443ea5b8f"}, {"lat": 38.901654666666666, "is_reserved": 0, "lon": -76.9302515, "fusion_lon": 0.0, "fusion_lat": 0.0, "is_disabled": 0, "type": "electric_scooter", "bike_id": "0db0212a89a8bf7035fc62d1b0643af1", "rental_uris": {"android": "https://dc.lft.to/lastmile_qr_scan", "ios": "https://dc.lft.to/lastmile_qr_scan"}, "name": "0db0212a89a8bf7035fc62d1b0643af1"}, {"lat": 38.951227333333335, "is_reserved": 0, "lon": -77.015263, "fusion_lon": 0.0, "fusion_lat": 0.0, "is_disabled": 0, "type": "electric_bike", "bike_id": "791a43c2320b5bc4b1eedae3bf7c5a7c", "rental_uris": {"android": "https://dc.lft.to/lastmile_qr_scan", "ios": "https://dc.lft.to/lastmile_qr_scan"}, "name": "791a43c2320b5bc4b1eedae3bf7c5a7c"}, {"lat": 38.928571, "is_reserved": 0, "lon": -77.08304416666667, "fusion_lon": 0.0, "fusion_lat": 0.0, "is_disabled": 0, "type": "electric_scooter", "bike_id": "ba4f080a6502ef7278b85aa0180b10b3", "rental_uris": {"android": "https://dc.lft.to/lastmile_qr_scan", "ios": "https://dc.lft.to/lastmile_qr_scan"}, "name": "ba4f080a6502ef7278b85aa0180b10b3"}, {"lat": 38.897347833333335, "is_reserved": 0, "lon": -77.047032, "fusion_lon": 0.0, "fusion_lat": 0.0, "is_disabled": 0, "type": "electric_scooter", "bike_id": "da0da30874a766c96689614c367b0a15", "rental_uris": {"android": "https://dc.lft.to/lastmile_qr_scan", "ios": "https://dc.lft.to/lastmile_qr_scan"}, "name": "da0da30874a766c96689614c367b0a15"}, {"lat": 38.9042135, "is_reserved": 0, "lon": -77.03448416666667, "fusion_lon": 0.0, "fusion_lat": 0.0, "is_disabled": 0, "type": "electric_scooter", "bike_id": "2edd9f2bac9171f02d6ef2b60158792f", "rental_uris": {"android": "https://dc.lft.to/lastmile_qr_scan", "ios": "https://dc.lft.to/lastmile_qr_scan"}, "name": "2edd9f2bac9171f02d6ef2b60158792f"},