{"data": {"bikes": [{"lon": -77.036774, "is_disabled": 0, "lat": 38.922694166666666, "fusion_lat": 0.0, "is_reserved": 0, "rental_uris": {"ios": "https://dc.lft.to/lastmile_qr_scan", "android": "https://dc.lft.to/lastmile_qr_scan"}, "fusion_lon": 0.0, "type": "electric_scooter", "bike_id": "96cbd27b060a9421f37379d9b90de906", "name": "96cbd27b060a9421f37379d9b90de906"}, {"lon": -77.00574316666666, "is_disabled": 0, "lat": 38.906255, "fusion_lat": 0.0, "is_reserved": 0, "rental_uris": {"ios": "https://dc.lft.to/lastmile_qr_scan", "android": "https://dc.lft.to/lastmile_qr_scan"}, "fusion_lon": 0.0, "type": "electric_scooter", "bike_id": "fbd77f5de4d87bbd441af7bf19258c5d", "name": "fbd77f5de4d87bbd441af7bf19258c5d"}, {"lon": -77.005945, "is_disabled": 0, "lat": 38.90574133333333, "fusion_lat": 0.0, "is_reserved": 0, "rental_uris": {"ios": "https://dc.lft.to/lastmile_qr_scan", "android": "https://dc.lft.to/lastmile_qr_scan"}, "fusion_lon": 0.0, "type": "electric_scooter", "bike_id": "53a1d8b02733a7a3cf0a51470dad400e", "name": "53a1d8b02733a7a3cf0a51470dad400e"}, {"lon": -77.06206383333334, "is_disabled": 0, "lat": 38.9334935, "fusion_lat": 0.0, "is_reserved": 0, "rental_uris": {"ios": "https://dc.lft.to/lastmile_qr_scan", "android": "https://dc.lft.to/lastmile_qr_scan"}, "fusion_lon": 0.0, "type": "electric_scooter", "bike_id": "36c919365530966c6c052ae414e4ad68", "name": "36c919365530966c6c052ae414e4ad68"}, {"lon": -77.03939766666667, "is_disabled": 0, "lat": 38.90953783333333, "fusion_lat": 0.0, "is_reserved": 0, "rental_uris": {"ios": "https://dc.lft.to/lastmile_qr_scan", "android": "https://dc.lft.to/lastmile_qr_scan"}, "fusion_lon": 0.0, "type": "electric_scooter", "bike_id": "b2d29a6f9fb6e5cad485a7ef37c96dab", "name": "b2d29a6f9fb6e5cad485a7ef37c96dab"}, {"lon": -77.02414616666667, "is_disabled": 0, "lat": 38.909720166666666, "fusion_lat": 0.0, "is_reserved": 0, "rental_uris": {"ios": "https://dc.lft.to/lastmile_qr_scan", "android": "https://dc.lft.to/lastmile_qr_scan"}, "fusion_lon": 0.0, "type": "electric_scooter", "bike_id": "86551ae324520320d90d90fd6290e7d6", "name": "86551ae324520320d90d90fd6290e7d6"}, {"lon": -77.02491166666667, "is_disabled": 0, "lat": 38.9417915, "fusion_lat": 0.0, "is_reserved": 0, "rental_uris": {"ios": "https://dc.lft.to/lastmile_qr_scan", "android": "https://dc.lft.to/lastmile_qr_scan"}, "fusion_lon": 0.0, "type": "electric_scooter", "bike_id": "390df6821de5f6609cf6697f40d4290c", "name": "390df6821de5f6609cf6697f40d4290c"}, {"lon": -77.00679333333333, "is_disabled": 0, "lat": 38.871699166666666, "fusion_lat": 0.0, "is_reserved": 0, "rental_uris": {"ios": "https://dc.lft.to/lastmile_qr_scan", "android": "https://dc.lft.to/lastmile_qr_scan"}, "fusion_lon": 0.0, "type": "electric_scooter", "bike_id": "3e6fbacf6e99704a3591971420aec672", "name": "3e6fbacf6e99704a3591971420aec672"}, {"lon": -77.02163366666667, "is_disabled": 0, "lat": 38.925078666666664, "fusion_lat": 0.0, "is_reserved": 0, "rental_uris": {"ios": "https://dc.lft.to/lastmile_qr_scan", "android": "https://dc.lft.to/lastmile_qr_scan"}, "fusion_lon": 0.0, "type": "electric_scooter", "bike_id": "0df29e77ba304f31e1512dbb5e22b77d", "name": "0df29e77ba304f31e1512dbb5e22b77d"}, {"lon": -77.0113545, "is_disabled": 0, "lat": 38.906412333333336, "fusion_lat": 0.0, "is_reserved": 0, "rental_uris": {"ios": "https://dc.lft.to/lastmile_qr_scan", "android": "https://dc.lft.to/lastmile_qr_scan"}, "fusion_lon": 0.0, "type": "electric_scooter", "bike_id": "49f3b4e61f2a89219533155db6ad6ecd", "name": "49f3b4e61f2a89219533155db6ad6ecd"}, {"lon": -77.02372116666666, "is_disabled": 0, "lat": 38.906752833333336, "fusion_lat": 0.0, "is_reserved": 0, "rental_uris": {"ios": "https://dc.lft.to/lastmile_qr_scan", "android": "https://dc.lft.to/lastmile_qr_scan"}, "fusion_lon": 0.0, "type": "electric_scooter", "bike_id": "bc17bd94f7dbd3a6822a422536a4de12", "name": "bc17bd94f7dbd3a6822a422536a4de12"}, {"lon": -77.03545266666667, "is_disabled": 0, "lat": 38.912651, "fusion_lat": 0.0, "is_reserved": 0, "rental_uris": {"ios": "https://dc.lft.to/lastmile_qr_scan", "android": "https://dc.lft.to/lastmile_qr_scan"}, "fusion_lon": 0.0, "type": "electric_scooter", "bike_id": "a872a6e07a904faaaa513053c748cc58", "name": "a872a6e07a904faaaa513053c748cc58"}, {"lon": -76.98577833333333, "is_disabled": 0, "lat": 38.86682116666667, "fusion_lat": 0.0, "is_reserved": 0, "rental_uris": {"ios": "https://dc.lft.to/lastmile_qr_scan", "android": "https://dc.lft.to/lastmile_qr_scan"}, "fusion_lon": 0.0, "type": "electric_scooter", "bike_id": "387ddcd2cc582918e710d97d7db501d6", "name": "387ddcd2cc582918e710d97d7db501d6"}, {"lon": -76.99498166666666, "is_disabled": 0, "lat": 38.86248616666666, "fusion_lat": 0.0, "is_reserved": 0, "rental_uris": {"ios": "https://dc.lft.to/lastmile_qr_scan", "android": "https://dc.lft.to/lastmile_qr_scan"}, "fusion_lon": 0.0, "type": "electric_scooter", "bike_id": "ccc054bf886b839276d1d0384201a1fb", "name": "ccc054bf886b839276d1d0384201a1fb"}, {"lon": -77.03445583333334, "is_disabled": 0, "lat": 38.907337, "fusion_lat": 0.0, "is_reserved": 0, "rental_uris": {"ios": "https://dc.lft.to/lastmile_qr_scan", "android": "https://dc.lft.to/lastmile_qr_scan"}, "fusion_lon": 0.0, "type": "electric_scooter", "bike_id": "ff044df2e596201923016701c9290198", "name": "ff044df2e596201923016701c9290198"}, {"lon": -77.02593883333333, "is_disabled": 0, "lat": 38.91105783333333, "fusion_lat": 0.0, "is_reserved": 0, "rental_uris": {"ios": "https://dc.lft.to/lastmile_qr_scan", "android": "https://dc.lft.to/lastmile_qr_scan"}, "fusion_lon": 0.0, "type": "electric_scooter", "bike_id": "a5f12016a73beec2cfefee3df6b7fe18", "name": "a5f12016a73beec2cfefee3df6b7fe18"}, {"lon": -77.03563566666666, "is_disabled": 0, "lat": 38.92693, "fusion_lat": 0.0, "is_reserved": 0, "rental_uris": {"ios": "https://dc.lft.to/lastmile_qr_scan", "android": "https://dc.lft.to/lastmile_qr_scan"}, "fusion_lon": 0.0, "type": "electric_scooter", "bike_id": "234b27b77b0b812dc3140708b5824ac4", "name": "234b27b77b0b812dc3140708b5824ac4"}, {"lon": -77.11772016666667, "is_disabled": 0, "lat": 38.8316465, "fusion_lat": 0.0, "is_reserved": 0, "rental_uris": {"ios": "https://dc.lft.to/lastmile_qr_scan", "android": "https://dc.lft.to/lastmile_qr_scan"}, "fusion_lon": 0.0, "type": "electric_bike", "bike_id": "87b6d3b353d9195cc3dd349e4fb51a2c", "name": "87b6d3b353d9195cc3dd349e4fb51a2c"}, {"lon": -77.03648333333334, "is_disabled": 0, "lat": 38.9068295, "fusion_lat": 0.0, "is_reserved": 0, "rental_uris": {"ios": "https://dc.lft.to/lastmile_qr_scan", "android": "https://dc.lft.to/lastmile_qr_scan"}, "fusion_lon": 0.0, "type": "electric_scooter", "bike_id": "8f63c50d4ed7f40e185ffda639d0259b", "name": "8f63c50d4ed7f40e185ffda639d0259b"}, {"lon": -77.01761183333333, "is_disabled": 0, "lat": 38.878207833333335, "fusion_lat": 0.0, "is_reserved": 0, "rental_uris": {"ios": "https://dc.lft.to/lastmile_qr_scan", "android": "https://dc.lft.to/lastmile_qr_scan"}, "fusion_lon": 0.0, "type": "electric_scooter", "bike_id": "a6c45cdc544a56cda483c24f3985c0fd", "name": "a6c45cdc544a56cda483c24f3985c0fd"}, {"lon": -77.06065133333334, "is_disabled": 0, "lat": 38.906823833333334, "fusion_lat": 0.0, "is_reserved": 0, "rental_uris": {"ios": "https://dc.lft.to/lastmile_qr_scan", "android": "https://dc.lft.to/lastmile_qr_scan"}, "fusion_lon": 0.0, "type": "electric_scooter", "bike_id": "f09b50d3a5c7ad75abce42150cda05ba", "name": "f09b50d3a5c7ad75abce42150cda05ba"}, {"lon": -77.0343425, "is_disabled": 0, "lat": 38.9057695, "fusion_lat": 0.0, "is_reserved": 0, "rental_uris": {"ios": "https://dc.lft.to/lastmile_qr_scan", "android": "https://dc.lft.to/lastmile_qr_scan"}, "fusion_lon": 0.0, "type": "electric_scooter", "bike_id": "427fbcf5be14ebc8c7a4c49a65962df2", "name": "427fbcf5be14ebc8c7a4c49a65962df2"}, {"lon": -77.00239966666666, "is_disabled": 0, "lat": 38.8748485, "fusion_lat": 0.0, "is_reserved": 0, "rental_uris": {"ios": "https://dc.lft.to/lastmile_qr_scan", "android": "https://dc.lft.to/lastmile_qr_scan"}, "fusion_lon": 0.0, "type": "electric_scooter", "bike_id": "4934e9bc6e579942cc91cfd39cb27572", "name": "4934e9bc6e579942cc91cfd39cb27572"}, {"lon": -77.033212, "is_disabled": 0, "lat": 38.93899533333333, "fusion_lat": 0.0, "is_reserved": 0, "rental_uris": {"ios": "https://dc.lft.to/lastmile_qr_scan", "android": "https://dc.lft.to/lastmile_qr_scan"}, "fusion_lon": 0.0, "type": "electric_scooter", "bike_id": "ee1b610fcf2e788a266ba1cd3de69b09", "name": "ee1b610fcf2e788a266ba1cd3de69b09"}, {"lon": -76.98943983333334, "is_disabled": 0, "lat": 38.9039435, "fusion_lat": 0.0, "is_reserved": 0, "rental_uris": {"ios": "https://dc.lft.to/lastmile_qr_scan", "android": "https://dc.lft.to/lastmile_qr_scan"}, "fusion_lon": 0.0, "type": "electric_scooter", "bike_id": "fdbc76e9b88b9c4a1f26a3617f814dbc", "name": "fdbc76e9b88b9c4a1f26a3617f814dbc"}, {"lon": -77.02118583333333, "is_disabled": 0, "lat": 38.93601783333333, "fusion_lat": 0.0, "is_reserved": 0, "rental_uris": {"ios": "https://dc.lft.to/lastmile_qr_scan", "android": "https://dc.lft.to/lastmile_qr_scan"}, "fusion_lon": 0.0, "type": "electric_bike", "bike_id": "6d5a0c1f80f950f26f0853335e637861", "name": "6d5a0c1f80f950f26f0853335e637861"}, {"lon": -77.02182466666666, "is_disabled": 0, "lat": 38.90956666666666, "fusion_lat": 0.0, "is_reserved": 0, "rental_uris": {"ios": "https://dc.lft.to/lastmile_qr_scan", "android": "https://dc.lft.to/lastmile_qr_scan"}, "fusion_lon": 0.0, "type": "electric_scooter", "bike_id": "56d45e9e17a42c7be963c980e77e83d9", "name": "56d45e9e17a42c7be963c980e77e83d9"}, {"lon": -77.05834633333333, "is_disabled": 0, "lat": 38.93061333333333, "fusion_lat": 0.0, "is_reserved": 0, "rental_uris": {"ios": "https://dc.lft.to/lastmile_qr_scan", "android": "https://dc.lft.to/lastmile_qr_scan"}, "fusion_lon": 0.0, "type": "electric_scooter", "bike_id": "75ab1d90b8ee88f2bcbee6ebf23e8897", "name": "75ab1d90b8ee88f2bcbee6ebf23e8897"}, {"lon": -77.03221183333333, "is_disabled": 0, "lat": 38.896265166666666, "fusion_lat": 0.0, "is_reserved": 0, "rental_uris": {"ios": "https://dc.lft.to/lastmile_qr_scan", "android": "https://dc.lft.to/lastmile_qr_scan"}, "fusion_lon": 0.0, "type": "electric_scooter", "bike_id": "cba234097ae3af10260591db731351a5", "name": "cba234097ae3af10260591db731351a5"}, {"lon": -77.05324733333333, "is_disabled": 0, "lat": 38.90436433333333, "fusion_lat": 0.0, "is_reserved": 0, "rental_uris": {"ios": "https://dc.lft.to/lastmile_qr_scan", "android": "https://dc.lft.to/lastmile_qr_scan"}, "fusion_lon": 0.0, "type": "electric_scooter", "bike_id": "e18e7918c6b5f4d6d5a31f47049f715a", "name": "e18e7918c6b5f4d6d5a31f47049f715a"}, {"lon": -77.02860333333334, "is_disabled": 0, "lat": 38.887451666666664, "fusion_lat": 0.0, "is_reserved": 0, "rental_uris": {"ios": "https://dc.lft.to/lastmile_qr_scan", "android": "https://dc.lft.to/lastmile_qr_scan"}, "fusion_lon": 0.0, "type": "electric_scooter", "bike_id": "916d8ca03a1f3651c949e1ef6d00d39d", "name": "916d8ca03a1f3651c949e1ef6d00d39d"}, {"lon": -77.0098705, "is_disabled": 0, "lat": 38.872911333333334, "fusion_lat": 0.0, "is_reserved": 0, "rental_uris": {"ios": "https://dc.lft.to/lastmile_qr_scan", "android": "https://dc.lft.to/lastmile_qr_scan"}, "fusion_lon": 0.0, "type": "electric_scooter", "bike_id": "7bf35715aef5f02e0b5a14f8a2fe01a1", "name": "7bf35715aef5f02e0b5a14f8a2fe01a1"}, {"lon": -77.04875516666667, "is_disabled": 0, "lat": 38.892949333333334, "fusion_lat": 0.0, "is_reserved": 0, "rental_uris": {"ios": "https://dc.lft.to/lastmile_qr_scan", "android": "https://dc.lft.to/lastmile_qr_scan"}, "fusion_lon": 0.0, "type": "electric_scooter", "bike_id": "859abd2939fccbc5198605e70671c6cb", "name": "859abd2939fccbc5198605e70671c6cb"}, {"lon": -77.01780133333334, "is_disabled": 0, "lat": 38.914498, "fusion_lat": 0.0, "is_reserved": 0, "rental_uris": {"ios": "https://dc.lft.to/lastmile_qr_scan", "android": "https://dc.lft.to/lastmile_qr_scan"}, "fusion_lon": 0.0, "type": "electric_scooter", "bike_id": "494459f1afe8bc52cd3480501191e5eb", "name": "494459f1afe8bc52cd3480501191e5eb"}, {"lon": -77.03946216666667, "is_disabled": 0, "lat": 38.914128166666664, "fusion_lat": 0.0, "is_reserved": 0, "rental_uris": {"ios": "https://dc.lft.to/lastmile_qr_scan", "android": "https://dc.lft.to/lastmile_qr_scan"}, "fusion_lon": 0.0, "type": "electric_scooter", "bike_id": "683856a94795192f5d8300e13463befe", "name": "683856a94795192f5d8300e13463befe"}, {"lon": -77.00494416666666, "is_disabled": 0, "lat": 38.8746305, "fusion_lat": 0.0, "is_reserved": 0, "rental_uris": {"ios": "https://dc.lft.to/lastmile_qr_scan", "android": "https://dc.lft.to/lastmile_qr_scan"}, "fusion_lon": 0.0, "type": "electric_scooter", "bike_id": "58f3d369d7d88a552cf094fbe028141a", "name": "58f3d369d7d88a552cf094fbe028141a"}, {"lon": -77.0183365, "is_disabled": 0, "lat": 38.90639066666667, "fusion_lat": 0.0, "is_reserved": 0, "rental_uris": {"ios": "https://dc.lft.to/lastmile_qr_scan", "android": "https://dc.lft.to/lastmile_qr_scan"}, "fusion_lon": 0.0, "type": "electric_scooter", "bike_id": "a63124b97a9f547fef7c1f593f71039e", "name": "a63124b97a9f547fef7c1f593f71039e"}, {"lon": -77.00547283333333, "is_disabled": 0, "lat": 38.876429333333334, "fusion_lat": 0.0, "is_reserved": 0, "rental_uris": {"ios": "https://dc.lft.to/lastmile_qr_scan", "android": "https://dc.lft.to/lastmile_qr_scan"}, "fusion_lon": 0.0, "type": "electric_scooter", "bike_id": "2bb74fbfc462ce1d4d47d04aa599d6a5", "name": "2bb74fbfc462ce1d4d47d04aa599d6a5"}, {"lon": -77.01764383333334, "is_disabled": 0, "lat": 38.8721965, "fusion_lat": 0.0, "is_reserved": 0, "rental_uris": {"ios": "https://dc.lft.to/lastmile_qr_scan", "android": "https://dc.lft.to/lastmile_qr_scan"}, "fusion_lon": 0.0, "type": "electric_scooter", "bike_id": "8352a2b97ff1abda66b924f8ebae9165", "name": "8352a2b97ff1abda66b924f8ebae9165"}, {"lon": -77.02005, "is_disabled": 0, "lat": 38.911849333333336, "fusion_lat": 0.0, "is_reserved": 0, "rental_uris": {"ios": "https://dc.lft.to/lastmile_qr_scan", "android": "https://dc.lft.to/lastmile_qr_scan"}, "fusion_lon": 0.0, "type": "electric_scooter", "bike_id": "1d0cac6e7c15846c4aa255bd0d10e3a8", "name": "1d0cac6e7c15846c4aa255bd0d10e3a8"}, {"lon": -77.02955016666667, "is_disabled": 0, "lat": 38.905025, "fusion_lat": 0.0, "is_reserved": 0, "rental_uris": {"ios": "https://dc.lft.to/lastmile_qr_scan", "android": "https://dc.lft.to/lastmile_qr_scan"}, "fusion_lon": 0.0, "type": "electric_scooter", "bike_id": "4ec2fc27aff11d6cf103ca43f28891ee", "name": "4ec2fc27aff11d6cf103ca43f28891ee"}, {"lon": -76.997521, "is_disabled": 0, "lat": 38.877472833333336, "fusion_lat": 0.0, "is_reserved": 0, "rental_uris": {"ios": "https://dc.lft.to/lastmile_qr_scan", "android": "https://dc.lft.to/lastmile_qr_scan"}, "fusion_lon": 0.0, "type": "electric_scooter", "bike_id": "838c8dc9ad8bc64ef23702a6d3e59ef7", "name": "838c8dc9ad8bc64ef23702a6d3e59ef7"}, {"lon": -77.03257, "is_disabled": 0, "lat": 38.9396935, "fusion_lat": 0.0, "is_reserved": 0, "rental_uris": {"ios": "https://dc.lft.to/lastmile_qr_scan", "android": "https://dc.lft.to/lastmile_qr_scan"}, "fusion_lon": 0.0, "type": "electric_scooter", "bike_id": "2dab19e0fe867b893455e39e74e4b377", "name": "2dab19e0fe867b893455e39e74e4b377"}, {"lon": -77.0303175, "is_disabled": 0, "lat": 38.9223845, "fusion_lat": 0.0, "is_reserved": 0, "rental_uris": {"ios": "https://dc.lft.to/lastmile_qr_scan", "android": "https://dc.lft.to/lastmile_qr_scan"}, "fusion_lon": 0.0, "type": "electric_scooter", "bike_id": "01e19176d0fca27fc873a6a524dcd213", "name": "01e19176d0fca27fc873a6a524dcd213"}, {"lon": -77.00319433333334, "is_disabled": 0, "lat": 38.90285, "fusion_lat": 0.0, "is_reserved": 0, "rental_uris": {"ios": "https://dc.lft.to/lastmile_qr_scan", "android": "https://dc.lft.to/lastmile_qr_scan"}, "fusion_lon": 0.0, "type": "electric_scooter", "bike_id": "1cf18c0c7f4a674c16455040c7740382", "name": "1cf18c0c7f4a674c16455040c7740382"}, {"lon": -77.02382616666667, "is_disabled": 0, "lat": 38.899897833333334, "fusion_lat": 0.0, "is_reserved": 0, "rental_uris": {"ios": "https://dc.lft.to/lastmile_qr_scan", "android": "https://dc.lft.to/lastmile_qr_scan"}, "fusion_lon": 0.0, "type": "electric_scooter", "bike_id": "28d1b42710af52796098361aabd686df", "name": "28d1b42710af52796098361aabd686df"}, {"lon": -77.04172433333333, "is_disabled": 0, "lat": 38.911296666666665, "fusion_lat": 0.0, "is_reserved": 0, "rental_uris": {"ios": "https://dc.lft.to/lastmile_qr_scan", "android": "https://dc.lft.to/lastmile_qr_scan"}, "fusion_lon": 0.0, "type": "electric_scooter", "bike_id": "ab65eeafa79d2dce757543b0f4da2ecf", "name": "ab65eeafa79d2dce757543b0f4da2ecf"}, {"lon": -77.006825, "is_disabled": 0, "lat": 38.87174733333333, "fusion_lat": 0.0, "is_reserved": 0, "rental_uris": {"ios": "https://dc.lft.to/lastmile_qr_scan", "android": "https://dc.lft.to/lastmile_qr_scan"}, "fusion_lon": 0.0, "type": "electric_scooter", "bike_id": "e3de2432b8235d15b8132a4e26b48287", "name": "e3de2432b8235d15b8132a4e26b48287"}, {"lon": -76.99770733333334, "is_disabled": 0, "lat": 38.908979333333335, "fusion_lat": 0.0, "is_reserved": 0, "rental_uris": {"ios": "https://dc.lft.to/lastmile_qr_scan", "android": "https://dc.lft.to/lastmile_qr_scan"}, "fusion_lon": 0.0, "type": "electric_scooter", "bike_id": "2e0d25e9c5f56acdd471bc0f4df889f6", "name": "2e0d25e9c5f56acdd471bc0f4df889f6"}, {"lon": -77.0325585, "is_disabled": 0, "lat": 38.93968, "fusion_lat": 0.0, "is_reserved": 0, "rental_uris": {"ios": "https://dc.lft.to/lastmile_qr_scan", "android": "https://dc.lft.to/lastmile_qr_scan"}, "fusion_lon": 0.0, "type": "electric_scooter", "bike_id": "54e91e341444d2560d9a9516e0e778f7", "name": "54e91e341444d2560d9a9516e0e778f7"}, {"lon": -76.94632916666667, "is_disabled": 0, "lat": 38.89832916666667, "fusion_lat": 0.0, "is_reserved": 0, "rental_uris": {"ios": "https://dc.lft.to/lastmile_qr_scan", "android": "https://dc.lft.to/lastmile_qr_scan"}, "fusion_lon": 0.0, "type": "electric_scooter", "bike_id": "4927d0b248121553ffc1e111c20fddc9", "name": "4927d0b248121553ffc1e111c20fddc9"}, {"lon": -77.01776883333334, "is_disabled": 0, "lat": 38.915057833333336, "fusion_lat": 0.0, "is_reserved": 0, "rental_uris": {"ios": "https://dc.lft.to/lastmile_qr_scan", "android": "https://dc.lft.to/lastmile_qr_scan"}, "fusion_lon": 0.0, "type": "electric_scooter", "bike_id": "942d66bc31b1b46bb080c47217824657", "name": "942d66bc31b1b46bb080c47217824657"}, {"lon": -77.02180466666667, "is_disabled": 0, "lat": 38.904058, "fusion_lat": 0.0, "is_reserved": 0, "rental_uris": {"ios": "https://dc.lft.to/lastmile_qr_scan", "android": "https://dc.lft.to/lastmile_qr_scan"}, "fusion_lon": 0.0, "type": "electric_scooter", "bike_id": "364070b3c47d7d988c67ab758265cae1", "name": "364070b3c47d7d988c67ab758265cae1"}, {"lon": -77.00051833333333, "is_disabled": 0, "lat": 38.92326633333333, "fusion_lat": 0.0, "is_reserved": 0, "rental_uris": {"ios": "https://dc.lft.to/lastmile_qr_scan", "android": "https://dc.lft.to/lastmile_qr_scan"}, "fusion_lon": 0.0, "type": "electric_scooter", "bike_id": "e89734e36045a3e7f41f4b3c7eabfff1", "name": "e89734e36045a3e7f41f4b3c7eabfff1"}, {"lon": -77.0246645, "is_disabled": 0, "lat": 38.93863233333333, "fusion_lat": 0.0, "is_reserved": 0, "rental_uris": {"ios": "https://dc.lft.to/lastmile_qr_scan", "android": "https://dc.lft.to/lastmile_qr_scan"}, "fusion_lon": 0.0, "type": "electric_scooter", "bike_id": "14fb191baf5608669493bd931d64d383", "name": "14fb191baf5608669493bd931d64d383"}, {"lon": -77.02121833333334, "is_disabled": 0, "lat": 38.914151833333335, "fusion_lat": 0.0, "is_reserved": 0, "rental_uris": {"ios": "https://dc.lft.to/lastmile_qr_scan", "android": "https://dc.lft.to/lastmile_qr_scan"}, "fusion_lon": 0.0, "type": "electric_scooter", "bike_id": "ba367e596f1a6e35d02a20b4fa5df1ca", "name": "ba367e596f1a6e35d02a20b4fa5df1ca"}, {"lon": -77.02378016666667, "is_disabled": 0, "lat": 38.920433333333335, "fusion_lat": 0.0, "is_reserved": 0, "rental_uris": {"ios": "https://dc.lft.to/lastmile_qr_scan", "android": "https://dc.lft.to/lastmile_qr_scan"}, "fusion_lon": 0.0, "type": "electric_scooter", "bike_id": "8c26b962b10e98bf18d212ff14f299e4", "name": "8c26b962b10e98bf18d212ff14f299e4"}, {"lon": -77.10857566666667, "is_disabled": 0, "lat": 38.845991, "fusion_lat": 0.0, "is_reserved": 0, "rental_uris": {"ios": "https://dc.lft.to/lastmile_qr_scan", "android": "https://dc.lft.to/lastmile_qr_scan"}, "fusion_lon": 0.0, "type": "electric_bike", "bike_id": "46fc8b166586ddab75a5eb092ab10052", "name": "46fc8b166586ddab75a5eb092ab10052"}, {"lon": -76.9950625, "is_disabled": 0, "lat": 38.82171666666667, "fusion_lat": 0.0, "is_reserved": 0, "rental_uris": {"ios": "https://dc.lft.to/lastmile_qr_scan", "android": "https://dc.lft.to/lastmile_qr_scan"}, "fusion_lon": 0.0, "type": "electric_bike", "bike_id": "eba6b33b75d0163a2737c6cf5cf3ca37", "name": "eba6b33b75d0163a2737c6cf5cf3ca37"}, {"lon": -76.94936116666666, "is_disabled": 0, "lat": 38.893597166666666, "fusion_lat": 0.0, "is_reserved": 0, "rental_uris": {"ios": "https://dc.lft.to/lastmile_qr_scan", "android": "https://dc.lft.to/lastmile_qr_scan"}, "fusion_lon": 0.0, "type": "electric_scooter", "bike_id": "1b377ea1398b777f145f4a0ca19118d1", "name": "1b377ea1398b777f145f4a0ca19118d1"}, {"lon": -77.02941233333334, "is_disabled": 0, "lat": 38.901478166666664, "fusion_lat": 0.0, "is_reserved": 0, "rental_uris": {"ios": "https://dc.lft.to/lastmile_qr_scan", "android": "https://dc.lft.to/lastmile_qr_scan"}, "fusion_lon": 0.0, "type": "electric_scooter", "bike_id": "847a2181c7f86d2cea283e283cb285e1", "name": "847a2181c7f86d2cea283e283cb285e1"}, {"lon": -77.050445, "is_disabled": 0, "lat": 38.923416333333336, "fusion_lat": 0.0, "is_reserved": 0, "rental_uris": {"ios": "https://dc.lft.to/lastmile_qr_scan", "android": "https://dc.lft.to/lastmile_qr_scan"}, "fusion_lon": 0.0, "type": "electric_scooter", "bike_id": "8a3ea67b540f527f32ad813dffb51baf", "name": "8a3ea67b540f527f32ad813dffb51baf"}, {"lon": -76.991303, "is_disabled": 0, "lat": 38.846407666666664, "fusion_lat": 0.0, "is_reserved": 0, "rental_uris": {"ios": "https://dc.lft.to/lastmile_qr_scan", "android": "https://dc.lft.to/lastmile_qr_scan"}, "fusion_lon": 0.0, "type": "electric_scooter", "bike_id": "ce4705dc98cd74ab50d974cbfc505522", "name": "ce4705dc98cd74ab50d974cbfc505522"}, {"lon": -77.03427466666666, "is_disabled": 0, "lat": 38.9191515, "fusion_lat": 0.0, "is_reserved": 0, "rental_uris": {"ios": "https://dc.lft.to/lastmile_qr_scan", "android": "https://dc.lft.to/lastmile_qr_scan"}, "fusion_lon": 0.0, "type": "electric_scooter", "bike_id": "3cc7086f139046a065c0ca25b2b36b63", "name": "3cc7086f139046a065c0ca25b2b36b63"}, {"lon": -77.0270075, "is_disabled": 0, "lat": 38.91659633333333, "fusion_lat": 0.0, "is_reserved": 0, "rental_uris": {"ios": "https://dc.lft.to/lastmile_qr_scan", "android": "https://dc.lft.to/lastmile_qr_scan"}, "fusion_lon": 0.0, "type": "electric_scooter", "bike_id": "dac55a26f6aed2e9d34cbaa6dfebd474", "name": "dac55a26f6aed2e9d34cbaa6dfebd474"}, {"lon": -77.03299666666666, "is_disabled": 0, "lat": 38.924566, "fusion_lat": 0.0, "is_reserved": 0, "rental_uris": {"ios": "https://dc.lft.to/lastmile_qr_scan", "android": "https://dc.lft.to/lastmile_qr_scan"}, "fusion_lon": 0.0, "type": "electric_scooter", "bike_id": "e0dde8b641f4dadede42f9ca945040bb", "name": "e0dde8b641f4dadede42f9ca945040bb"}, {"lon": -77.03428983333333, "is_disabled": 0, "lat": 38.9191475, "fusion_lat": 0.0, "is_reserved": 0, "rental_uris": {"ios": "https://dc.lft.to/lastmile_qr_scan", "android": "https://dc.lft.to/lastmile_qr_scan"}, "fusion_lon": 0.0, "type": "electric_scooter", "bike_id": "b2fc6a2855cea560b3416186661bf0e3", "name": "b2fc6a2855cea560b3416186661bf0e3"}, {"lon": -77.03039483333333, "is_disabled": 0, "lat": 38.907232666666665, "fusion_lat": 0.0, "is_reserved": 0, "rental_uris": {"ios": "https://dc.lft.to/lastmile_qr_scan", "android": "https://dc.lft.to/lastmile_qr_scan"}, "fusion_lon": 0.0, "type": "electric_scooter", "bike_id": "e45d0ea8ff5ad327fd3b5cac90d1c662", "name": "e45d0ea8ff5ad327fd3b5cac90d1c662"}, {"lon": -77.01452, "is_disabled": 0, "lat": 38.9177255, "fusion_lat": 0.0, "is_reserved": 0, "rental_uris": {"ios": "https://dc.lft.to/lastmile_qr_scan", "android": "https://dc.lft.to/lastmile_qr_scan"}, "fusion_lon": 0.0, "type": "electric_scooter", "bike_id": "4e787b87b86fc050a73d781881b7d4bd", "name": "4e787b87b86fc050a73d781881b7d4bd"}, {"lon": -77.02296483333333, "is_disabled": 0, "lat": 38.91706583333333, "fusion_lat": 0.0, "is_reserved": 0, "rental_uris": {"ios": "https://dc.lft.to/lastmile_qr_scan", "android": "https://dc.lft.to/lastmile_qr_scan"}, "fusion_lon": 0.0, "type": "electric_scooter", "bike_id": "b0057f9c700e0835392d00478cd67bd7", "name": "b0057f9c700e0835392d00478cd67bd7"}, {"lon": -77.05002833333333, "is_disabled": 0, "lat": 38.89233216666667, "fusion_lat": 0.0, "is_reserved": 0, "rental_uris": {"ios": "https://dc.lft.to/lastmile_qr_scan", "android": "https://dc.lft.to/lastmile_qr_scan"}, "fusion_lon": 0.0, "type": "electric_scooter", "bike_id": "2af6b4a9127e25d29e3a4151630527c4", "name": "2af6b4a9127e25d29e3a4151630527c4"}, {"lon": -77.01770416666666, "is_disabled": 0, "lat": 38.920485, "fusion_lat": 0.0, "is_reserved": 0, "rental_uris": {"ios": "https://dc.lft.to/lastmile_qr_scan", "android": "https://dc.lft.to/lastmile_qr_scan"}, "fusion_lon": 0.0, "type": "electric_scooter", "bike_id": "deeb8ef48edd7bc73cdb005e83e7c64f", "name": "deeb8ef48edd7bc73cdb005e83e7c64f"}, {"lon": -77.02897816666666, "is_disabled": 0, "lat": 38.9987665, "fusion_lat": 0.0, "is_reserved": 0, "rental_uris": {"ios": "https://dc.lft.to/lastmile_qr_scan", "android": "https://dc.lft.to/lastmile_qr_scan"}, "fusion_lon": 0.0, "type": "electric_bike", "bike_id": "3e0553773857e3062f222e2ce5619226", "name": "3e0553773857e3062f222e2ce5619226"}, {"lon": -77.01886216666666, "is_disabled": 0, "lat": 38.911184166666665, "fusion_lat": 0.0, "is_reserved": 0, "rental_uris": {"ios": "https://dc.lft.to/lastmile_qr_scan", "android": "https://dc.lft.to/lastmile_qr_scan"}, "fusion_lon": 0.0, "type": "electric_scooter", "bike_id": "4a2728903e50135b5d0525332dab07cf", "name": "4a2728903e50135b5d0525332dab07cf"}, {"lon": -77.04764383333334, "is_disabled": 0, "lat": 38.917551833333334, "fusion_lat": 0.0, "is_reserved": 0, "rental_uris": {"ios": "https://dc.lft.to/lastmile_qr_scan", "android": "https://dc.lft.to/lastmile_qr_scan"}, "fusion_lon": 0.0, "type": "electric_scooter", "bike_id": "c2ee48ee040103fad6ca97b858ed47d8", "name": "c2ee48ee040103fad6ca97b858ed47d8"}, {"lon": -77.02362333333333, "is_disabled": 0, "lat": 38.915440833333335, "fusion_lat": 0.0, "is_reserved": 0, "rental_uris": {"ios": "https://dc.lft.to/lastmile_qr_scan", "android": "https://dc.lft.to/lastmile_qr_scan"}, "fusion_lon": 0.0, "type": "electric_scooter", "bike_id": "6d985addd6c284ca2a932a21f288e328", "name": "6d985addd6c284ca2a932a21f288e328"}, {"lon": -77.03511333333333, "is_disabled": 0, "lat": 38.9234435, "fusion_lat": 0.0, "is_reserved": 0, "rental_uris": {"ios": "https://dc.lft.to/lastmile_qr_scan", "android": "https://dc.lft.to/lastmile_qr_scan"}, "fusion_lon": 0.0, "type": "electric_scooter", "bike_id": "81409e12afe98d27f071537b44e6e25a", "name": "81409e12afe98d27f071537b44e6e25a"}, {"lon": -77.0351355, "is_disabled": 0, "lat": 38.9225565, "fusion_lat": 0.0, "is_reserved": 0, "rental_uris": {"ios": "https://dc.lft.to/lastmile_qr_scan", "android": "https://dc.lft.to/lastmile_qr_scan"}, "fusion_lon": 0.0, "type": "electric_scooter", "bike_id": "6cb810881f123cbc40b3590f460bda9e", "name": "6cb810881f123cbc40b3590f460bda9e"}, {"lon": -77.0093005, "is_disabled": 0, "lat": 38.918009, "fusion_lat": 0.0, "is_reserved": 0, "rental_uris": {"ios": "https://dc.lft.to/lastmile_qr_scan", "android": "https://dc.lft.to/lastmile_qr_scan"}, "fusion_lon": 0.0, "type": "electric_scooter", "bike_id": "b1cd340e71cac553ff8b1621df68cca0", "name": "b1cd340e71cac553ff8b1621df68cca0"}, {"lon": -77.03766133333333, "is_disabled": 0, "lat": 38.92218883333334, "fusion_lat": 0.0, "is_reserved": 0, "rental_uris": {"ios": "https://dc.lft.to/lastmile_qr_scan", "android": "https://dc.lft.to/lastmile_qr_scan"}, "fusion_lon": 0.0, "type": "electric_scooter", "bike_id": "21bde76bf3fe65e996be23c1b8e10a41", "name": "21bde76bf3fe65e996be23c1b8e10a41"}, {"lon": -77.05884466666667, "is_disabled": 0, "lat": 38.9363445, "fusion_lat": 0.0, "is_reserved": 0, "rental_uris": {"ios": "https://dc.lft.to/lastmile_qr_scan", "android": "https://dc.lft.to/lastmile_qr_scan"}, "fusion_lon": 0.0, "type": "electric_scooter", "bike_id": "6d8e639c838149d15b19a5269abb51d5", "name": "6d8e639c838149d15b19a5269abb51d5"}, {"lon": -77.0863, "is_disabled": 0, "lat": 38.80973016666667, "fusion_lat": 0.0, "is_reserved": 0, "rental_uris": {"ios": "https://dc.lft.to/lastmile_qr_scan", "android": "https://dc.lft.to/lastmile_qr_scan"}, "fusion_lon": 0.0, "type": "electric_bike", "bike_id": "19070664237d41b9543f75ef6a4721c9", "name": "19070664237d41b9543f75ef6a4721c9"}, {"lon": -77.0283415, "is_disabled": 0, "lat": 38.88651516666667, "fusion_lat": 0.0, "is_reserved": 0, "rental_uris": {"ios": "https://dc.lft.to/lastmile_qr_scan", "android": "https://dc.lft.to/lastmile_qr_scan"}, "fusion_lon": 0.0, "type": "electric_scooter", "bike_id": "21ec922428082636e01b99d613b71a2e", "name": "21ec922428082636e01b99d613b71a2e"}, {"lon": -76.98511483333333, "is_disabled": 0, "lat": 38.860575833333336, "fusion_lat": 0.0, "is_reserved": 0, "rental_uris": {"ios": "https://dc.lft.to/lastmile_qr_scan", "android": "https://dc.lft.to/lastmile_qr_scan"}, "fusion_lon": 0.0, "type": "electric_scooter", "bike_id": "3cd2e621646c6fab0f3a18da9ef263a7", "name": "3cd2e621646c6fab0f3a18da9ef263a7"}, {"lon": -76.98096316666667, "is_disabled": 0, "lat": 38.953557833333335, "fusion_lat": 0.0, "is_reserved": 0, "rental_uris": {"ios": "https://dc.lft.to/lastmile_qr_scan", "android": "https://dc.lft.to/lastmile_qr_scan"}, "fusion_lon": 0.0, "type": "electric_bike", "bike_id": "63821575d68b13d635b3645e6c3ad37b", "name": "63821575d68b13d635b3645e6c3ad37b"}, {"lon": -77.022802, "is_disabled": 0, "lat": 38.91560616666666, "fusion_lat": 0.0, "is_reserved": 0, "rental_uris": {"ios": "https://dc.lft.to/lastmile_qr_scan", "android": "https://dc.lft.to/lastmile_qr_scan"}, "fusion_lon": 0.0, "type": "electric_scooter", "bike_id": "388033033beb66ddb0af197c20d39e9d", "name": "388033033beb66ddb0af197c20d39e9d"}, {"lon": -76.98557166666667, "is_disabled": 0, "lat": 38.899879, "fusion_lat": 0.0, "is_reserved": 0, "rental_uris": {"ios": "https://dc.lft.to/lastmile_qr_scan", "android": "https://dc.lft.to/lastmile_qr_scan"}, "fusion_lon": 0.0, "type": "electric_scooter", "bike_id": "c12a36d5a0d40da0a0b585e24fada196", "name": "c12a36d5a0d40da0a0b585e24fada196"}, {"lon": -76.956274, "is_disabled": 0, "lat": 38.88510933333333, "fusion_lat": 0.0, "is_reserved": 0, "rental_uris": {"ios": "https://dc.lft.to/lastmile_qr_scan", "android": "https://dc.lft.to/lastmile_qr_scan"}, "fusion_lon": 0.0, "type": "electric_bike", "bike_id": "18eb11a75a78adabf39fb0dade95d265", "name": "18eb11a75a78adabf39fb0dade95d265"}, {"lon": -77.00134533333333, "is_disabled": 0, "lat": 38.905141, "fusion_lat": 0.0, "is_reserved": 0, "rental_uris": {"ios": "https://dc.lft.to/lastmile_qr_scan", "android": "https://dc.lft.to/lastmile_qr_scan"}, "fusion_lon": 0.0, "type": "electric_scooter", "bike_id": "ebd14967b7d87c026ff383b7a6fa2fa7", "name": "ebd14967b7d87c026ff383b7a6fa2fa7"}, {"lon": -77.02277483333333, "is_disabled": 0, "lat": 38.92728483333333, "fusion_lat": 0.0, "is_reserved": 0, "rental_uris": {"ios": "https://dc.lft.to/lastmile_qr_scan", "android": "https://dc.lft.to/lastmile_qr_scan"}, "fusion_lon": 0.0, "type": "electric_scooter", "bike_id": "532b8be25b1f9a18d63591a4ec3e717c", "name": "532b8be25b1f9a18d63591a4ec3e717c"}, {"lon": -77.02390866666667, "is_disabled": 0, "lat": 38.912761833333334, "fusion_lat": 0.0, "is_reserved": 0, "rental_uris": {"ios": "https://dc.lft.to/lastmile_qr_scan", "android": "https://dc.lft.to/lastmile_qr_scan"}, "fusion_lon": 0.0, "type": "electric_scooter", "bike_id": "6d06f85e958a8aa5cebd1ed58aa09370", "name": "6d06f85e958a8aa5cebd1ed58aa09370"}, {"lon": -77.04002033333333, "is_disabled": 0, "lat": 38.9079615, "fusion_lat": 0.0, "is_reserved": 0, "rental_uris": {"ios": "https://dc.lft.to/lastmile_qr_scan", "android": "https://dc.lft.to/lastmile_qr_scan"}, "fusion_lon": 0.0, "type": "electric_scooter", "bike_id": "722d4a76f968d07c7bd8257ab3206413", "name": "722d4a76f968d07c7bd8257ab3206413"}, {"lon": -77.02299116666667, "is_disabled": 0, "lat": 38.9206055, "fusion_lat": 0.0, "is_reserved": 0, "rental_uris": {"ios": "https://dc.lft.to/lastmile_qr_scan", "android": "https://dc.lft.to/lastmile_qr_scan"}, "fusion_lon": 0.0, "type": "electric_scooter", "bike_id": "320b44595f5f1602dad13f2762790a0d", "name": "320b44595f5f1602dad13f2762790a0d"}, {"lon": -77.02485516666667, "is_disabled": 0, "lat": 38.90245266666667, "fusion_lat": 0.0, "is_reserved": 0, "rental_uris": {"ios": "https://dc.lft.to/lastmile_qr_scan", "android": "https://dc.lft.to/lastmile_qr_scan"}, "fusion_lon": 0.0, "type": "electric_scooter", "bike_id": "ce07105c7980efd65c50bfdc10a2c00a", "name": "ce07105c7980efd65c50bfdc10a2c00a"}, {"lon": -77.18117966666667, "is_disabled": 0, "lat": 38.932286, "fusion_lat": 0.0, "is_reserved": 0, "rental_uris": {"ios": "https://dc.lft.to/lastmile_qr_scan", "android": "https://dc.lft.to/lastmile_qr_scan"}, "fusion_lon": 0.0, "type": "electric_bike", "bike_id": "6dd0d4ff1550a4b42b382b282c0ce518", "name": "6dd0d4ff1550a4b42b382b282c0ce518"}, {"lon": -77.01691366666667, "is_disabled": 0, "lat": 38.88125433333333, "fusion_lat": 0.0, "is_reserved": 0, "rental_uris": {"ios": "https://dc.lft.to/lastmile_qr_scan", "android": "https://dc.lft.to/lastmile_qr_scan"}, "fusion_lon": 0.0, "type": "electric_scooter", "bike_id": "81667c79296c03199088f8b67a34f011", "name": "81667c79296c03199088f8b67a34f011"}, {"lon": -77.03827683333333, "is_disabled": 0, "lat": 38.912554, "fusion_lat": 0.0, "is_reserved": 0, "rental_uris": {"ios": "https://dc.lft.to/lastmile_qr_scan", "android": "https://dc.lft.to/lastmile_qr_scan"}, "fusion_lon": 0.0, "type": "electric_scooter", "bike_id": "d769c2c939f9fa6494fd32622353d139", "name": "d769c2c939f9fa6494fd32622353d139"}, {"lon": -77.02692366666666, "is_disabled": 0, "lat": 38.925678, "fusion_lat": 0.0, "is_reserved": 0, "rental_uris": {"ios": "https://dc.lft.to/lastmile_qr_scan", "android": "https://dc.lft.to/lastmile_qr_scan"}, "fusion_lon": 0.0, "type": "electric_scooter", "bike_id": "95bdc20133bfa2a444d4c0dec9c87752", "name": "95bdc20133bfa2a444d4c0dec9c87752"}, {"lon": -76.9799795, "is_disabled": 0, "lat": 38.90678483333333, "fusion_lat": 0.0, "is_reserved": 0, "rental_uris": {"ios": "https://dc.lft.to/lastmile_qr_scan", "android": "https://dc.lft.to/lastmile_qr_scan"}, "fusion_lon": 0.0, "type": "electric_scooter", "bike_id": "d96e0b857af0d3cb86e2e679724858b5", "name": "d96e0b857af0d3cb86e2e679724858b5"}, {"lon": -77.03858166666667, "is_disabled": 0, "lat": 38.9171115, "fusion_lat": 0.0, "is_reserved": 0, "rental_uris": {"ios": "https://dc.lft.to/lastmile_qr_scan", "android": "https://dc.lft.to/lastmile_qr_scan"}, "fusion_lon": 0.0, "type": "electric_scooter", "bike_id": "99ceb331fde6a75cd12f6bd9d56aef6f", "name": "99ceb331fde6a75cd12f6bd9d56aef6f"}, {"lon": -77.00114933333333, "is_disabled": 0, "lat": 38.873742666666665, "fusion_lat": 0.0, "is_reserved": 0, "rental_uris": {"ios": "https://dc.lft.to/lastmile_qr_scan", "android": "https://dc.lft.to/lastmile_qr_scan"}, "fusion_lon": 0.0, "type": "electric_scooter", "bike_id": "ccd5d617c42eaf9215af3e6b04787fd7", "name": "ccd5d617c42eaf9215af3e6b04787fd7"}, {"lon": -77.02775783333334, "is_disabled": 0, "lat": 38.928783833333334, "fusion_lat": 0.0, "is_reserved": 0, "rental_uris": {"ios": "https://dc.lft.to/lastmile_qr_scan", "android": "https://dc.lft.to/lastmile_qr_scan"}, "fusion_lon": 0.0, "type": "electric_scooter", "bike_id": "88f6924d47e7b0a30956d654301cc112", "name": "88f6924d47e7b0a30956d654301cc112"}, {"lon": -77.05002233333333, "is_disabled": 0, "lat": 38.89229233333333, "fusion_lat": 0.0, "is_reserved": 0, "rental_uris": {"ios": "https://dc.lft.to/lastmile_qr_scan", "android": "https://dc.lft.to/lastmile_qr_scan"}, "fusion_lon": 0.0, "type": "electric_scooter", "bike_id": "28df439c73823005a081c685bebadfd3", "name": "28df439c73823005a081c685bebadfd3"}, {"lon": -76.996985, "is_disabled": 0, "lat": 38.90794316666667, "fusion_lat": 0.0, "is_reserved": 0, "rental_uris": {"ios": "https://dc.lft.to/lastmile_qr_scan", "android": "https://dc.lft.to/lastmile_qr_scan"}, "fusion_lon": 0.0, "type": "electric_scooter", "bike_id": "59fa1f9e0f18cfea199e9df33425628a", "name": "59fa1f9e0f18cfea199e9df33425628a"}, {"lon": -77.03733583333333, "is_disabled": 0, "lat": 38.92657116666667, "fusion_lat": 0.0, "is_reserved": 0, "rental_uris": {"ios": "https://dc.lft.to/lastmile_qr_scan", "android": "https://dc.lft.to/lastmile_qr_scan"}, "fusion_lon": 0.0, "type": "electric_scooter", "bike_id": "3da7318581fa921d0646a8f256ee3aad", "name": "3da7318581fa921d0646a8f256ee3aad"}, {"lon": -76.96521116666666, "is_disabled": 0, "lat": 38.87619333333333, "fusion_lat": 0.0, "is_reserved": 0, "rental_uris": {"ios": "https://dc.lft.to/lastmile_qr_scan", "android": "https://dc.lft.to/lastmile_qr_scan"}, "fusion_lon": 0.0, "type": "electric_scooter", "bike_id": "f7dd3fbf8b1ec7cf2779b2155c10a1d1", "name": "f7dd3fbf8b1ec7cf2779b2155c10a1d1"}, {"lon": -77.00808816666667, "is_disabled": 0, "lat": 38.876683666666665, "fusion_lat": 0.0, "is_reserved": 0, "rental_uris": {"ios": "https://dc.lft.to/lastmile_qr_scan", "android": "https://dc.lft.to/lastmile_qr_scan"}, "fusion_lon": 0.0, "type": "electric_scooter", "bike_id": "bf0be57388ee66bfcacc918863f67664", "name": "bf0be57388ee66bfcacc918863f67664"}, {"lon": -77.01017183333333, "is_disabled": 0, "lat": 38.9561205, "fusion_lat": 0.0, "is_reserved": 0, "rental_uris": {"ios": "https://dc.lft.to/lastmile_qr_scan", "android": "https://dc.lft.to/lastmile_qr_scan"}, "fusion_lon": 0.0, "type": "electric_scooter", "bike_id": "6c1aa8372c15e1cad0c5f9b5f3c6dbba", "name": "6c1aa8372c15e1cad0c5f9b5f3c6dbba"}, {"lon": -77.0417845, "is_disabled": 0, "lat": 38.90144883333333, "fusion_lat": 0.0, "is_reserved": 0, "rental_uris": {"ios": "https://dc.lft.to/lastmile_qr_scan", "android": "https://dc.lft.to/lastmile_qr_scan"}, "fusion_lon": 0.0, "type": "electric_scooter", "bike_id": "a65179fae7e5240824cb8a4e535ea420", "name": "a65179fae7e5240824cb8a4e535ea420"}, {"lon": -77.05324916666666, "is_disabled": 0, "lat": 38.9104965, "fusion_lat": 0.0, "is_reserved": 0, "rental_uris": {"ios": "https://dc.lft.to/lastmile_qr_scan", "android": "https://dc.lft.to/lastmile_qr_scan"}, "fusion_lon": 0.0, "type": "electric_scooter", "bike_id": "e2b8e81ed963f4c88fe875b74b054788", "name": "e2b8e81ed963f4c88fe875b74b054788"}, {"lon": -77.01675233333333, "is_disabled": 0, "lat": 38.90047416666667, "fusion_lat": 0.0, "is_reserved": 0, "rental_uris": {"ios": "https://dc.lft.to/lastmile_qr_scan", "android": "https://dc.lft.to/lastmile_qr_scan"}, "fusion_lon": 0.0, "type": "electric_scooter", "bike_id": "8b7c5ac4be99b288148fc51ca1e03f75", "name": "8b7c5ac4be99b288148fc51ca1e03f75"}, {"lon": -77.01915766666667, "is_disabled": 0, "lat": 38.917261333333336, "fusion_lat": 0.0, "is_reserved": 0, "rental_uris": {"ios": "https://dc.lft.to/lastmile_qr_scan", "android": "https://dc.lft.to/lastmile_qr_scan"}, "fusion_lon": 0.0, "type": "electric_scooter", "bike_id": "8764ad4f44c9d4abe2a909e9b7a47bda", "name": "8764ad4f44c9d4abe2a909e9b7a47bda"}, {"lon": -77.03586633333333, "is_disabled": 0, "lat": 38.9037695, "fusion_lat": 0.0, "is_reserved": 0, "rental_uris": {"ios": "https://dc.lft.to/lastmile_qr_scan", "android": "https://dc.lft.to/lastmile_qr_scan"}, "fusion_lon": 0.0, "type": "electric_scooter", "bike_id": "f1d0f130808642e214d3397adca18d61", "name": "f1d0f130808642e214d3397adca18d61"}, {"lon": -77.02231433333333, "is_disabled": 0, "lat": 38.9207015, "fusion_lat": 0.0, "is_reserved": 0, "rental_uris": {"ios": "https://dc.lft.to/lastmile_qr_scan", "android": "https://dc.lft.to/lastmile_qr_scan"}, "fusion_lon": 0.0, "type": "electric_scooter", "bike_id": "badfcc1eb7c693c40faa33cef4d164e8", "name": "badfcc1eb7c693c40faa33cef4d164e8"}, {"lon": -77.028109, "is_disabled": 0, "lat": 38.89984, "fusion_lat": 0.0, "is_reserved": 0, "rental_uris": {"ios": "https://dc.lft.to/lastmile_qr_scan", "android": "https://dc.lft.to/lastmile_qr_scan"}, "fusion_lon": 0.0, "type": "electric_scooter", "bike_id": "837129b2cb75cb692d0bc157bb41beb6", "name": "837129b2cb75cb692d0bc157bb41beb6"}, {"lon": -77.04149966666667, "is_disabled": 0, "lat": 38.9161595, "fusion_lat": 0.0, "is_reserved": 0, "rental_uris": {"ios": "https://dc.lft.to/lastmile_qr_scan", "android": "https://dc.lft.to/lastmile_qr_scan"}, "fusion_lon": 0.0, "type": "electric_scooter", "bike_id": "1de9c8012b975183ab5b6eb4b007e523", "name": "1de9c8012b975183ab5b6eb4b007e523"}, {"lon": -77.04271016666667, "is_disabled": 0, "lat": 38.925493833333334, "fusion_lat": 0.0, "is_reserved": 0, "rental_uris": {"ios": "https://dc.lft.to/lastmile_qr_scan", "android": "https://dc.lft.to/lastmile_qr_scan"}, "fusion_lon": 0.0, "type": "electric_scooter", "bike_id": "4ec5d2519655f148ee095d4af7e3393e", "name": "4ec5d2519655f148ee095d4af7e3393e"}, {"lon": -77.01224216666667, "is_disabled": 0, "lat": 38.87474233333333, "fusion_lat": 0.0, "is_reserved": 0, "rental_uris": {"ios": "https://dc.lft.to/lastmile_qr_scan", "android": "https://dc.lft.to/lastmile_qr_scan"}, "fusion_lon": 0.0, "type": "electric_scooter", "bike_id": "f505fa5fb53c4a59e0870724a35a10b1", "name": "f505fa5fb53c4a59e0870724a35a10b1"}, {"lon": -77.03640566666667, "is_disabled": 0, "lat": 38.924093, "fusion_lat": 0.0, "is_reserved": 0, "rental_uris": {"ios": "https://dc.lft.to/lastmile_qr_scan", "android": "https://dc.lft.to/lastmile_qr_scan"}, "fusion_lon": 0.0, "type": "electric_scooter", "bike_id": "750645890dbbc2736c593ff4f0a84b00", "name": "750645890dbbc2736c593ff4f0a84b00"}, {"lon": -77.0347615, "is_disabled": 0, "lat": 38.88486016666667, "fusion_lat": 0.0, "is_reserved": 0, "rental_uris": {"ios": "https://dc.lft.to/lastmile_qr_scan", "android": "https://dc.lft.to/lastmile_qr_scan"}, "fusion_lon": 0.0, "type": "electric_scooter", "bike_id": "d00013540ddc033742a58a86741d0c6f", "name": "d00013540ddc033742a58a86741d0c6f"}, {"lon": -76.983779, "is_disabled": 0, "lat": 38.879471833333334, "fusion_lat": 0.0, "is_reserved": 0, "rental_uris": {"ios": "https://dc.lft.to/lastmile_qr_scan", "android": "https://dc.lft.to/lastmile_qr_scan"}, "fusion_lon": 0.0, "type": "electric_scooter", "bike_id": "810faeda9e5a06d0a8d8ac9edc17f9dc", "name": "810faeda9e5a06d0a8d8ac9edc17f9dc"}, {"lon": -77.02249383333333, "is_disabled": 0, "lat": 38.96682116666667, "fusion_lat": 0.0, "is_reserved": 0, "rental_uris": {"ios": "https://dc.lft.to/lastmile_qr_scan", "android": "https://dc.lft.to/lastmile_qr_scan"}, "fusion_lon": 0.0, "type": "electric_bike", "bike_id": "747084129a44b0ae21d15b1b719cce0d", "name": "747084129a44b0ae21d15b1b719cce0d"}, {"lon": -77.02560683333333, "is_disabled": 0, "lat": 38.90966566666667, "fusion_lat": 0.0, "is_reserved": 0, "rental_uris": {"ios": "https://dc.lft.to/lastmile_qr_scan", "android": "https://dc.lft.to/lastmile_qr_scan"}, "fusion_lon": 0.0, "type": "electric_scooter", "bike_id": "bc79672137c607a7aa72aa4a0c431f32", "name": "bc79672137c607a7aa72aa4a0c431f32"}, {"lon": -77.056529, "is_disabled": 0, "lat": 38.90603516666667, "fusion_lat": 0.0, "is_reserved": 0, "rental_uris": {"ios": "https://dc.lft.to/lastmile_qr_scan", "android": "https://dc.lft.to/lastmile_qr_scan"}, "fusion_lon": 0.0, "type": "electric_scooter", "bike_id": "d3524591fb317b8abe3c599a35d2451b", "name": "d3524591fb317b8abe3c599a35d2451b"}, {"lon": -77.05729116666667, "is_disabled": 0, "lat": 38.933628666666664, "fusion_lat": 0.0, "is_reserved": 0, "rental_uris": {"ios": "https://dc.lft.to/lastmile_qr_scan", "android": "https://dc.lft.to/lastmile_qr_scan"}, "fusion_lon": 0.0, "type": "electric_scooter", "bike_id": "5823f17381689142e5d5e4ec09918bd6", "name": "5823f17381689142e5d5e4ec09918bd6"}, {"lon": -76.97880266666667, "is_disabled": 0, "lat": 38.90192616666667, "fusion_lat": 0.0, "is_reserved": 0, "rental_uris": {"ios": "https://dc.lft.to/lastmile_qr_scan", "android": "https://dc.lft.to/lastmile_qr_scan"}, "fusion_lon": 0.0, "type": "electric_scooter", "bike_id": "62f89a44e6b3df4f013f69324c71973e", "name": "62f89a44e6b3df4f013f69324c71973e"}, {"lon": -77.00843716666667, "is_disabled": 0, "lat": 38.9223165, "fusion_lat": 0.0, "is_reserved": 0, "rental_uris": {"ios": "https://dc.lft.to/lastmile_qr_scan", "android": "https://dc.lft.to/lastmile_qr_scan"}, "fusion_lon": 0.0, "type": "electric_scooter", "bike_id": "a4949bd904e7e164f3ac43e2999acc09", "name": "a4949bd904e7e164f3ac43e2999acc09"}, {"lon": -77.0383205, "is_disabled": 0, "lat": 38.911132, "fusion_lat": 0.0, "is_reserved": 0, "rental_uris": {"ios": "https://dc.lft.to/lastmile_qr_scan", "android": "https://dc.lft.to/lastmile_qr_scan"}, "fusion_lon": 0.0, "type": "electric_scooter", "bike_id": "2ea51d482d2d522647e7337748bf0289", "name": "2ea51d482d2d522647e7337748bf0289"}, {"lon": -77.00576, "is_disabled": 0, "lat": 38.8765445, "fusion_lat": 0.0, "is_reserved": 0, "rental_uris": {"ios": "https://dc.lft.to/lastmile_qr_scan", "android": "https://dc.lft.to/lastmile_qr_scan"}, "fusion_lon": 0.0, "type": "electric_scooter", "bike_id": "b3214050bdd60b8857eaeac0590cc250", "name": "b3214050bdd60b8857eaeac0590cc250"}, {"lon": -77.024983, "is_disabled": 0, "lat": 38.918060833333335, "fusion_lat": 0.0, "is_reserved": 0, "rental_uris": {"ios": "https://dc.lft.to/lastmile_qr_scan", "android": "https://dc.lft.to/lastmile_qr_scan"}, "fusion_lon": 0.0, "type": "electric_scooter", "bike_id": "8de7183088be28a8d2b0705bae4bd96b", "name": "8de7183088be28a8d2b0705bae4bd96b"}, {"lon": -76.97857416666666, "is_disabled": 0, "lat": 38.84471083333333, "fusion_lat": 0.0, "is_reserved": 0, "rental_uris": {"ios": "https://dc.lft.to/lastmile_qr_scan", "android": "https://dc.lft.to/lastmile_qr_scan"}, "fusion_lon": 0.0, "type": "electric_bike", "bike_id": "a0b6d1d1e08823bc0ee45191369111c8", "name": "a0b6d1d1e08823bc0ee45191369111c8"}, {"lon": -77.01213316666667, "is_disabled": 0, "lat": 38.89848933333333, "fusion_lat": 0.0, "is_reserved": 0, "rental_uris": {"ios": "https://dc.lft.to/lastmile_qr_scan", "android": "https://dc.lft.to/lastmile_qr_scan"}, "fusion_lon": 0.0, "type": "electric_scooter", "bike_id": "adfbd07e855720022991418c26cc0a52", "name": "adfbd07e855720022991418c26cc0a52"}, {"lon": -77.03731666666667, "is_disabled": 0, "lat": 38.926585333333335, "fusion_lat": 0.0, "is_reserved": 0, "rental_uris": {"ios": "https://dc.lft.to/lastmile_qr_scan", "android": "https://dc.lft.to/lastmile_qr_scan"}, "fusion_lon": 0.0, "type": "electric_scooter", "bike_id": "0a9ae010252e1313998ea19357d4fd26", "name": "0a9ae010252e1313998ea19357d4fd26"}, {"lon": -77.03275983333333, "is_disabled": 0, "lat": 38.93426733333333, "fusion_lat": 0.0, "is_reserved": 0, "rental_uris": {"ios": "https://dc.lft.to/lastmile_qr_scan", "android": "https://dc.lft.to/lastmile_qr_scan"}, "fusion_lon": 0.0, "type": "electric_scooter", "bike_id": "11157c29188f1c2e3f9d688b525aeded", "name": "11157c29188f1c2e3f9d688b525aeded"}, {"lon": -77.03001033333334, "is_disabled": 0, "lat": 38.90150333333333, "fusion_lat": 0.0, "is_reserved": 0, "rental_uris": {"ios": "https://dc.lft.to/lastmile_qr_scan", "android": "https://dc.lft.to/lastmile_qr_scan"}, "fusion_lon": 0.0, "type": "electric_scooter", "bike_id": "6a01f61468d6115fd300e2a6bec9ce52", "name": "6a01f61468d6115fd300e2a6bec9ce52"}, {"lon": -77.0167015, "is_disabled": 0, "lat": 38.88127, "fusion_lat": 0.0, "is_reserved": 0, "rental_uris": {"ios": "https://dc.lft.to/lastmile_qr_scan", "android": "https://dc.lft.to/lastmile_qr_scan"}, "fusion_lon": 0.0, "type": "electric_scooter", "bike_id": "fe4b5c3ce2e76f09f0d9b3e092b9acb8", "name": "fe4b5c3ce2e76f09f0d9b3e092b9acb8"}, {"lon": -77.04335233333333, "is_disabled": 0, "lat": 38.9222025, "fusion_lat": 0.0, "is_reserved": 0, "rental_uris": {"ios": "https://dc.lft.to/lastmile_qr_scan", "android": "https://dc.lft.to/lastmile_qr_scan"}, "fusion_lon": 0.0, "type": "electric_scooter", "bike_id": "fdec64e91bad87c8bb425025d37629ab", "name": "fdec64e91bad87c8bb425025d37629ab"}, {"lon": -77.04160266666666, "is_disabled": 0, "lat": 38.9142395, "fusion_lat": 0.0, "is_reserved": 0, "rental_uris": {"ios": "https://dc.lft.to/lastmile_qr_scan", "android": "https://dc.lft.to/lastmile_qr_scan"}, "fusion_lon": 0.0, "type": "electric_scooter", "bike_id": "31465b34871faa51210247cdce3f5acc", "name": "31465b34871faa51210247cdce3f5acc"}, {"lon": -77.03773016666666, "is_disabled": 0, "lat": 38.92566516666667, "fusion_lat": 0.0, "is_reserved": 0, "rental_uris": {"ios": "https://dc.lft.to/lastmile_qr_scan", "android": "https://dc.lft.to/lastmile_qr_scan"}, "fusion_lon": 0.0, "type": "electric_scooter", "bike_id": "83aad2fc4cdc9c6e092e4dfca8e9bf9c", "name": "83aad2fc4cdc9c6e092e4dfca8e9bf9c"}, {"lon": -77.044848, "is_disabled": 0, "lat": 38.89904883333333, "fusion_lat": 0.0, "is_reserved": 0, "rental_uris": {"ios": "https://dc.lft.to/lastmile_qr_scan", "android": "https://dc.lft.to/lastmile_qr_scan"}, "fusion_lon": 0.0, "type": "electric_scooter", "bike_id": "6dc59035147997b38bc59bf2a30ccc51", "name": "6dc59035147997b38bc59bf2a30ccc51"}, {"lon": -77.00545116666666, "is_disabled": 0, "lat": 38.880125666666665, "fusion_lat": 0.0, "is_reserved": 0, "rental_uris": {"ios": "https://dc.lft.to/lastmile_qr_scan", "android": "https://dc.lft.to/lastmile_qr_scan"}, "fusion_lon": 0.0, "type": "electric_scooter", "bike_id": "2a04bed13132d16f5e5239a136b1c775", "name": "2a04bed13132d16f5e5239a136b1c775"}, {"lon": -77.0204865, "is_disabled": 0, "lat": 38.92111516666667, "fusion_lat": 0.0, "is_reserved": 0, "rental_uris": {"ios": "https://dc.lft.to/lastmile_qr_scan", "android": "https://dc.lft.to/lastmile_qr_scan"}, "fusion_lon": 0.0, "type": "electric_scooter", "bike_id": "28a96a8212ac38844abe6a9ecaa94ce0", "name": "28a96a8212ac38844abe6a9ecaa94ce0"}, {"lon": -77.017881, "is_disabled": 0, "lat": 38.87706983333333, "fusion_lat": 0.0, "is_reserved": 0, "rental_uris": {"ios": "https://dc.lft.to/lastmile_qr_scan", "android": "https://dc.lft.to/lastmile_qr_scan"}, "fusion_lon": 0.0, "type": "electric_scooter", "bike_id": "93abf693521b0aefeb04d1cb6376da91", "name": "93abf693521b0aefeb04d1cb6376da91"}, {"lon": -77.04877316666666, "is_disabled": 0, "lat": 38.90640666666667, "fusion_lat": 0.0, "is_reserved": 0, "rental_uris": {"ios": "https://dc.lft.to/lastmile_qr_scan", "android": "https://dc.lft.to/lastmile_qr_scan"}, "fusion_lon": 0.0, "type": "electric_scooter", "bike_id": "e1d892a67c24fc6bd332ada24709003a", "name": "e1d892a67c24fc6bd332ada24709003a"}, {"lon": -77.04110183333333, "is_disabled": 0, "lat": 38.9087805, "fusion_lat": 0.0, "is_reserved": 0, "rental_uris": {"ios": "https://dc.lft.to/lastmile_qr_scan", "android": "https://dc.lft.to/lastmile_qr_scan"}, "fusion_lon": 0.0, "type": "electric_scooter", "bike_id": "47d08a3c03ac902adf376e738f90a3da", "name": "47d08a3c03ac902adf376e738f90a3da"}, {"lon": -77.04788466666666, "is_disabled": 0, "lat": 38.8977355, "fusion_lat": 0.0, "is_reserved": 0, "rental_uris": {"ios": "https://dc.lft.to/lastmile_qr_scan", "android": "https://dc.lft.to/lastmile_qr_scan"}, "fusion_lon": 0.0, "type": "electric_scooter", "bike_id": "4baa3753804ef730178155a7d691dba0", "name": "4baa3753804ef730178155a7d691dba0"}, {"lon": -77.02285316666666, "is_disabled": 0, "lat": 38.895034, "fusion_lat": 0.0, "is_reserved": 0, "rental_uris": {"ios": "https://dc.lft.to/lastmile_qr_scan", "android": "https://dc.lft.to/lastmile_qr_scan"}, "fusion_lon": 0.0, "type": "electric_scooter", "bike_id": "59a41add2bd5a00f98ae4640e68ad5de", "name": "59a41add2bd5a00f98ae4640e68ad5de"}, {"lon": -77.02219916666667, "is_disabled": 0, "lat": 38.905583666666665, "fusion_lat": 0.0, "is_reserved": 0, "rental_uris": {"ios": "https://dc.lft.to/lastmile_qr_scan", "android": "https://dc.lft.to/lastmile_qr_scan"}, "fusion_lon": 0.0, "type": "electric_scooter", "bike_id": "8ec41d239796f9f04bc865d86861481c", "name": "8ec41d239796f9f04bc865d86861481c"}, {"lon": -77.00724283333334, "is_disabled": 0, "lat": 38.88492883333333, "fusion_lat": 0.0, "is_reserved": 0, "rental_uris": {"ios": "https://dc.lft.to/lastmile_qr_scan", "android": "https://dc.lft.to/lastmile_qr_scan"}, "fusion_lon": 0.0, "type": "electric_scooter", "bike_id": "cf8bed18f328f06f4d415b23241b2802", "name": "cf8bed18f328f06f4d415b23241b2802"}, {"lon": -77.06165233333333, "is_disabled": 0, "lat": 38.90525066666667, "fusion_lat": 0.0, "is_reserved": 0, "rental_uris": {"ios": "https://dc.lft.to/lastmile_qr_scan", "android": "https://dc.lft.to/lastmile_qr_scan"}, "fusion_lon": 0.0, "type": "electric_scooter", "bike_id": "1a789d764ae1935edaab5d35cb9936a2", "name": "1a789d764ae1935edaab5d35cb9936a2"}, {"lon": -76.9702775, "is_disabled": 0, "lat": 38.87360533333333, "fusion_lat": 0.0, "is_reserved": 0, "rental_uris": {"ios": "https://dc.lft.to/lastmile_qr_scan", "android": "https://dc.lft.to/lastmile_qr_scan"}, "fusion_lon": 0.0, "type": "electric_scooter", "bike_id": "4a0f89fb859c134759f0dcb947b90159", "name": "4a0f89fb859c134759f0dcb947b90159"}, {"lon": -77.02592983333334, "is_disabled": 0, "lat": 38.904284833333335, "fusion_lat": 0.0, "is_reserved": 0, "rental_uris": {"ios": "https://dc.lft.to/lastmile_qr_scan", "android": "https://dc.lft.to/lastmile_qr_scan"}, "fusion_lon": 0.0, "type": "electric_scooter", "bike_id": "2bb65e815dd83ab111633fbf7aa2877f", "name": "2bb65e815dd83ab111633fbf7aa2877f"}, {"lon": -77.04404066666666, "is_disabled": 0, "lat": 38.91118766666666, "fusion_lat": 0.0, "is_reserved": 0, "rental_uris": {"ios": "https://dc.lft.to/lastmile_qr_scan", "android": "https://dc.lft.to/lastmile_qr_scan"}, "fusion_lon": 0.0, "type": "electric_scooter", "bike_id": "9a65ec1c076b0c451c09fd011cc1ebd5", "name": "9a65ec1c076b0c451c09fd011cc1ebd5"}, {"lon": -77.06172933333333, "is_disabled": 0, "lat": 38.80711816666667, "fusion_lat": 0.0, "is_reserved": 0, "rental_uris": {"ios": "https://dc.lft.to/lastmile_qr_scan", "android": "https://dc.lft.to/lastmile_qr_scan"}, "fusion_lon": 0.0, "type": "electric_bike", "bike_id": "07e7cafc471e21065abf8c7227c5f445", "name": "07e7cafc471e21065abf8c7227c5f445"}, {"lon": -77.045026, "is_disabled": 0, "lat": 38.896312333333334, "fusion_lat": 0.0, "is_reserved": 0, "rental_uris": {"ios": "https://dc.lft.to/lastmile_qr_scan", "android": "https://dc.lft.to/lastmile_qr_scan"}, "fusion_lon": 0.0, "type": "electric_scooter", "bike_id": "0973bfb870ced0df8bfbdea64771bcde", "name": "0973bfb870ced0df8bfbdea64771bcde"}, {"lon": -77.01224016666667, "is_disabled": 0, "lat": 38.91544666666667, "fusion_lat": 0.0, "is_reserved": 0, "rental_uris": {"ios": "https://dc.lft.to/lastmile_qr_scan", "android": "https://dc.lft.to/lastmile_qr_scan"}, "fusion_lon": 0.0, "type": "electric_scooter", "bike_id": "f3cb749e82ff3e1f7383b8b931434453", "name": "f3cb749e82ff3e1f7383b8b931434453"}, {"lon": -77.04584633333333, "is_disabled": 0, "lat": 38.9147075, "fusion_lat": 0.0, "is_reserved": 0, "rental_uris": {"ios": "https://dc.lft.to/lastmile_qr_scan", "android": "https://dc.lft.to/lastmile_qr_scan"}, "fusion_lon": 0.0, "type": "electric_scooter", "bike_id": "fb971c7725d88efe006d16d74f504a95", "name": "fb971c7725d88efe006d16d74f504a95"}, {"lon": -76.97971466666667, "is_disabled": 0, "lat": 38.9537305, "fusion_lat": 0.0, "is_reserved": 0, "rental_uris": {"ios": "https://dc.lft.to/lastmile_qr_scan", "android": "https://dc.lft.to/lastmile_qr_scan"}, "fusion_lon": 0.0, "type": "electric_bike", "bike_id": "e5b815d5eb965b5bd4a76bf77202611e", "name": "e5b815d5eb965b5bd4a76bf77202611e"}, {"lon": -76.97630083333334, "is_disabled": 0, "lat": 38.90155816666667, "fusion_lat": 0.0, "is_reserved": 0, "rental_uris": {"ios": "https://dc.lft.to/lastmile_qr_scan", "android": "https://dc.lft.to/lastmile_qr_scan"}, "fusion_lon": 0.0, "type": "electric_scooter", "bike_id": "88a07513a764419d29cf6e04db311667", "name": "88a07513a764419d29cf6e04db311667"}, {"lon": -77.02228266666667, "is_disabled": 0, "lat": 38.8802685, "fusion_lat": 0.0, "is_reserved": 0, "rental_uris": {"ios": "https://dc.lft.to/lastmile_qr_scan", "android": "https://dc.lft.to/lastmile_qr_scan"}, "fusion_lon": 0.0, "type": "electric_scooter", "bike_id": "90b4028e31a060ca2c192ca88a09e3de", "name": "90b4028e31a060ca2c192ca88a09e3de"}, {"lon": -77.03287516666667, "is_disabled": 0, "lat": 38.909602, "fusion_lat": 0.0, "is_reserved": 0, "rental_uris": {"ios": "https://dc.lft.to/lastmile_qr_scan", "android": "https://dc.lft.to/lastmile_qr_scan"}, "fusion_lon": 0.0, "type": "electric_scooter", "bike_id": "7dce2908e075d2d9c8cc767aa35698ae", "name": "7dce2908e075d2d9c8cc767aa35698ae"}, {"lon": -77.0248385, "is_disabled": 0, "lat": 38.93880866666667, "fusion_lat": 0.0, "is_reserved": 0, "rental_uris": {"ios": "https://dc.lft.to/lastmile_qr_scan", "android": "https://dc.lft.to/lastmile_qr_scan"}, "fusion_lon": 0.0, "type": "electric_scooter", "bike_id": "190786a1f9eb15fd8085f9dabffcfcf8", "name": "190786a1f9eb15fd8085f9dabffcfcf8"}, {"lon": -77.03162883333333, "is_disabled": 0, "lat": 38.88741483333333, "fusion_lat": 0.0, "is_reserved": 0, "rental_uris": {"ios": "https://dc.lft.to/lastmile_qr_scan", "android": "https://dc.lft.to/lastmile_qr_scan"}, "fusion_lon": 0.0, "type": "electric_scooter", "bike_id": "34d79382127eee34b743f421215c1f30", "name": "34d79382127eee34b743f421215c1f30"}, {"lon": -76.97684433333333, "is_disabled": 0, "lat": 38.898893, "fusion_lat": 0.0, "is_reserved": 0, "rental_uris": {"ios": "https://dc.lft.to/lastmile_qr_scan", "android": "https://dc.lft.to/lastmile_qr_scan"}, "fusion_lon": 0.0, "type": "electric_scooter", "bike_id": "6b08378b15097ba45c7528193a3007e2", "name": "6b08378b15097ba45c7528193a3007e2"}, {"lon": -77.00679083333333, "is_disabled": 0, "lat": 38.8716925, "fusion_lat": 0.0, "is_reserved": 0, "rental_uris": {"ios": "https://dc.lft.to/lastmile_qr_scan", "android": "https://dc.lft.to/lastmile_qr_scan"}, "fusion_lon": 0.0, "type": "electric_scooter", "bike_id": "fabf994526bb381fe03b3168aa8e2020", "name": "fabf994526bb381fe03b3168aa8e2020"}, {"lon": -76.94890316666667, "is_disabled": 0, "lat": 38.895301833333335, "fusion_lat": 0.0, "is_reserved": 0, "rental_uris": {"ios": "https://dc.lft.to/lastmile_qr_scan", "android": "https://dc.lft.to/lastmile_qr_scan"}, "fusion_lon": 0.0, "type": "electric_scooter", "bike_id": "79ecd19c64593fd7ef8f46bcc29aa484", "name": "79ecd19c64593fd7ef8f46bcc29aa484"}, {"lon": -77.02399383333334, "is_disabled": 0, "lat": 38.915524833333336, "fusion_lat": 0.0, "is_reserved": 0, "rental_uris": {"ios": "https://dc.lft.to/lastmile_qr_scan", "android": "https://dc.lft.to/lastmile_qr_scan"}, "fusion_lon": 0.0, "type": "electric_scooter", "bike_id": "5f8e5e3f76fb728b4f9c3963c652062d", "name": "5f8e5e3f76fb728b4f9c3963c652062d"}, {"lon": -77.0453155, "is_disabled": 0, "lat": 38.913289166666665, "fusion_lat": 0.0, "is_reserved": 0, "rental_uris": {"ios": "https://dc.lft.to/lastmile_qr_scan", "android": "https://dc.lft.to/lastmile_qr_scan"}, "fusion_lon": 0.0, "type": "electric_scooter", "bike_id": "9ceedb69288a1b58af0da73c379b934c", "name": "9ceedb69288a1b58af0da73c379b934c"}, {"lon": -77.06939133333333, "is_disabled": 0, "lat": 38.95222033333334, "fusion_lat": 0.0, "is_reserved": 0, "rental_uris": {"ios": "https://dc.lft.to/lastmile_qr_scan", "android": "https://dc.lft.to/lastmile_qr_scan"}, "fusion_lon": 0.0, "type": "electric_scooter", "bike_id": "a1db6892e4c6a1f417d4b98680810ea1", "name": "a1db6892e4c6a1f417d4b98680810ea1"}, {"lon": -77.03211783333333, "is_disabled": 0, "lat": 38.920032, "fusion_lat": 0.0, "is_reserved": 0, "rental_uris": {"ios": "https://dc.lft.to/lastmile_qr_scan", "android": "https://dc.lft.to/lastmile_qr_scan"}, "fusion_lon": 0.0, "type": "electric_scooter", "bike_id": "58201e8f20f7eee8010f9c8c9cf450a7", "name": "58201e8f20f7eee8010f9c8c9cf450a7"}, {"lon": -77.03529866666666, "is_disabled": 0, "lat": 38.922419833333336, "fusion_lat": 0.0, "is_reserved": 0, "rental_uris": {"ios": "https://dc.lft.to/lastmile_qr_scan", "android": "https://dc.lft.to/lastmile_qr_scan"}, "fusion_lon": 0.0, "type": "electric_scooter", "bike_id": "f4cc700dd510cb7098a4dac292cac481", "name": "f4cc700dd510cb7098a4dac292cac481"}, {"lon": -77.0080515, "is_disabled": 0, "lat": 38.949200166666664, "fusion_lat": 0.0, "is_reserved": 0, "rental_uris": {"ios": "https://dc.lft.to/lastmile_qr_scan", "android": "https://dc.lft.to/lastmile_qr_scan"}, "fusion_lon": 0.0, "type": "electric_bike", "bike_id": "23f6b5afcf38dd1aab643c0da82824e0", "name": "23f6b5afcf38dd1aab643c0da82824e0"}, {"lon": -77.0467195, "is_disabled": 0, "lat": 38.903476833333336, "fusion_lat": 0.0, "is_reserved": 0, "rental_uris": {"ios": "https://dc.lft.to/lastmile_qr_scan", "android": "https://dc.lft.to/lastmile_qr_scan"}, "fusion_lon": 0.0, "type": "electric_scooter", "bike_id": "4358a4f37ab9a129bed73afddbc514b6", "name": "4358a4f37ab9a129bed73afddbc514b6"}, {"lon": -77.00517116666667, "is_disabled": 0, "lat": 38.87471933333333, "fusion_lat": 0.0, "is_reserved": 0, "rental_uris": {"ios": "https://dc.lft.to/lastmile_qr_scan", "android": "https://dc.lft.to/lastmile_qr_scan"}, "fusion_lon": 0.0, "type": "electric_scooter", "bike_id": "1f032c67658ae7441fc624bcf26647e3", "name": "1f032c67658ae7441fc624bcf26647e3"}, {"lon": -77.01863966666667, "is_disabled": 0, "lat": 38.874684, "fusion_lat": 0.0, "is_reserved": 0, "rental_uris": {"ios": "https://dc.lft.to/lastmile_qr_scan", "android": "https://dc.lft.to/lastmile_qr_scan"}, "fusion_lon": 0.0, "type": "electric_scooter", "bike_id": "d008702912c86d6fd3168961408e45fe", "name": "d008702912c86d6fd3168961408e45fe"}, {"lon": -77.08428033333334, "is_disabled": 0, "lat": 38.93187016666667, "fusion_lat": 0.0, "is_reserved": 0, "rental_uris": {"ios": "https://dc.lft.to/lastmile_qr_scan", "android": "https://dc.lft.to/lastmile_qr_scan"}, "fusion_lon": 0.0, "type": "electric_scooter", "bike_id": "c466d0fae40783a7cc8401582f1bf1c3", "name": "c466d0fae40783a7cc8401582f1bf1c3"}, {"lon": -76.94571116666667, "is_disabled": 0, "lat": 38.86622883333333, "fusion_lat": 0.0, "is_reserved": 0, "rental_uris": {"ios": "https://dc.lft.to/lastmile_qr_scan", "android": "https://dc.lft.to/lastmile_qr_scan"}, "fusion_lon": 0.0, "type": "electric_bike", "bike_id": "2a42c5fbc1aa7f8d590f20ce2933be14", "name": "2a42c5fbc1aa7f8d590f20ce2933be14"}, {"lon": -77.04163916666667, "is_disabled": 0, "lat": 38.901376, "fusion_lat": 0.0, "is_reserved": 0, "rental_uris": {"ios": "https://dc.lft.to/lastmile_qr_scan", "android": "https://dc.lft.to/lastmile_qr_scan"}, "fusion_lon": 0.0, "type": "electric_scooter", "bike_id": "c2c371f9256d78b2f5a2af3d6270a101", "name": "c2c371f9256d78b2f5a2af3d6270a101"}, {"lon": -77.04835166666666, "is_disabled": 0, "lat": 38.90432333333333, "fusion_lat": 0.0, "is_reserved": 0, "rental_uris": {"ios": "https://dc.lft.to/lastmile_qr_scan", "android": "https://dc.lft.to/lastmile_qr_scan"}, "fusion_lon": 0.0, "type": "electric_scooter", "bike_id": "b79d50e054607714f5d58f5d6614f9c1", "name": "b79d50e054607714f5d58f5d6614f9c1"}, {"lon": -77.0218085, "is_disabled": 0, "lat": 38.92863716666667, "fusion_lat": 0.0, "is_reserved": 0, "rental_uris": {"ios": "https://dc.lft.to/lastmile_qr_scan", "android": "https://dc.lft.to/lastmile_qr_scan"}, "fusion_lon": 0.0, "type": "electric_scooter", "bike_id": "96fcec6c390db8f834de4cc3e97548fa", "name": "96fcec6c390db8f834de4cc3e97548fa"}, {"lon": -77.0321945, "is_disabled": 0, "lat": 38.916109666666664, "fusion_lat": 0.0, "is_reserved": 0, "rental_uris": {"ios": "https://dc.lft.to/lastmile_qr_scan", "android": "https://dc.lft.to/lastmile_qr_scan"}, "fusion_lon": 0.0, "type": "electric_scooter", "bike_id": "4cd8fdd0edf567ad5e2d328d9ee4b305", "name": "4cd8fdd0edf567ad5e2d328d9ee4b305"}, {"lon": -77.03778833333334, "is_disabled": 0, "lat": 38.925068333333336, "fusion_lat": 0.0, "is_reserved": 0, "rental_uris": {"ios": "https://dc.lft.to/lastmile_qr_scan", "android": "https://dc.lft.to/lastmile_qr_scan"}, "fusion_lon": 0.0, "type": "electric_scooter", "bike_id": "7b5619fad64c54939b903961cb19816f", "name": "7b5619fad64c54939b903961cb19816f"}, {"lon": -77.02346666666666, "is_disabled": 0, "lat": 38.8939235, "fusion_lat": 0.0, "is_reserved": 0, "rental_uris": {"ios": "https://dc.lft.to/lastmile_qr_scan", "android": "https://dc.lft.to/lastmile_qr_scan"}, "fusion_lon": 0.0, "type": "electric_scooter", "bike_id": "55aa01cd18e7ca6751eee6e3501ab6ef", "name": "55aa01cd18e7ca6751eee6e3501ab6ef"}, {"lon": -77.0401005, "is_disabled": 0, "lat": 38.910014, "fusion_lat": 0.0, "is_reserved": 0, "rental_uris": {"ios": "https://dc.lft.to/lastmile_qr_scan", "android": "https://dc.lft.to/lastmile_qr_scan"}, "fusion_lon": 0.0, "type": "electric_scooter", "bike_id": "43e800992bb2c176c1cec3bfecc5405a", "name": "43e800992bb2c176c1cec3bfecc5405a"}, {"lon": -77.026947, "is_disabled": 0, "lat": 38.906836, "fusion_lat": 0.0, "is_reserved": 0, "rental_uris": {"ios": "https://dc.lft.to/lastmile_qr_scan", "android": "https://dc.lft.to/lastmile_qr_scan"}, "fusion_lon": 0.0, "type": "electric_scooter", "bike_id": "528ce663cb90285e42ffa640189af2fb", "name": "528ce663cb90285e42ffa640189af2fb"}, {"lon": -77.03283983333333, "is_disabled": 0, "lat": 38.9025085, "fusion_lat": 0.0, "is_reserved": 0, "rental_uris": {"ios": "https://dc.lft.to/lastmile_qr_scan", "android": "https://dc.lft.to/lastmile_qr_scan"}, "fusion_lon": 0.0, "type": "electric_scooter", "bike_id": "4e4d2134989cdf4e2fbcebd48e6674d5", "name": "4e4d2134989cdf4e2fbcebd48e6674d5"}, {"lon": -76.98001416666666, "is_disabled": 0, "lat": 38.904454, "fusion_lat": 0.0, "is_reserved": 0, "rental_uris": {"ios": "https://dc.lft.to/lastmile_qr_scan", "android": "https://dc.lft.to/lastmile_qr_scan"}, "fusion_lon": 0.0, "type": "electric_scooter", "bike_id": "4bb0b43af66dba743a041a212bf7a4c8", "name": "4bb0b43af66dba743a041a212bf7a4c8"}, {"lon": -77.04765783333333, "is_disabled": 0, "lat": 38.917639333333334, "fusion_lat": 0.0, "is_reserved": 0, "rental_uris": {"ios": "https://dc.lft.to/lastmile_qr_scan", "android": "https://dc.lft.to/lastmile_qr_scan"}, "fusion_lon": 0.0, "type": "electric_scooter", "bike_id": "cda71910933df37ae799f26f4a98fc6c", "name": "cda71910933df37ae799f26f4a98fc6c"}, {"lon": -77.03850366666667, "is_disabled": 0, "lat": 38.93238683333333, "fusion_lat": 0.0, "is_reserved": 0, "rental_uris": {"ios": "https://dc.lft.to/lastmile_qr_scan", "android": "https://dc.lft.to/lastmile_qr_scan"}, "fusion_lon": 0.0, "type": "electric_scooter", "bike_id": "cf707ca7ec10e5f5f338b3b2044e61bf", "name": "cf707ca7ec10e5f5f338b3b2044e61bf"}, {"lon": -77.01214266666666, "is_disabled": 0, "lat": 38.900212833333335, "fusion_lat": 0.0, "is_reserved": 0, "rental_uris": {"ios": "https://dc.lft.to/lastmile_qr_scan", "android": "https://dc.lft.to/lastmile_qr_scan"}, "fusion_lon": 0.0, "type": "electric_scooter", "bike_id": "8df96b6663784cbdce77d1bd682a14af", "name": "8df96b6663784cbdce77d1bd682a14af"}, {"lon": -76.933713, "is_disabled": 0, "lat": 38.89914533333334, "fusion_lat": 0.0, "is_reserved": 0, "rental_uris": {"ios": "https://dc.lft.to/lastmile_qr_scan", "android": "https://dc.lft.to/lastmile_qr_scan"}, "fusion_lon": 0.0, "type": "electric_scooter", "bike_id": "d8239bddc55d9ba24fa7dc0b9c548133", "name": "d8239bddc55d9ba24fa7dc0b9c548133"}, {"lon": -76.980862, "is_disabled": 0, "lat": 38.92247316666667, "fusion_lat": 0.0, "is_reserved": 0, "rental_uris": {"ios": "https://dc.lft.to/lastmile_qr_scan", "android": "https://dc.lft.to/lastmile_qr_scan"}, "fusion_lon": 0.0, "type": "electric_scooter", "bike_id": "ad45638c564550687fd21acc90f3dd1e", "name": "ad45638c564550687fd21acc90f3dd1e"}, {"lon": -77.02616516666667, "is_disabled": 0, "lat": 38.914161, "fusion_lat": 0.0, "is_reserved": 0, "rental_uris": {"ios": "https://dc.lft.to/lastmile_qr_scan", "android": "https://dc.lft.to/lastmile_qr_scan"}, "fusion_lon": 0.0, "type": "electric_scooter", "bike_id": "e727a2713e3d46bb0ee3d6c116bcd8cf", "name": "e727a2713e3d46bb0ee3d6c116bcd8cf"}, {"lon": -77.02426633333333, "is_disabled": 0, "lat": 38.920466833333336, "fusion_lat": 0.0, "is_reserved": 0, "rental_uris": {"ios": "https://dc.lft.to/lastmile_qr_scan", "android": "https://dc.lft.to/lastmile_qr_scan"}, "fusion_lon": 0.0, "type": "electric_scooter", "bike_id": "9f7eee540a3263bd0f807d9bb7d2e2fa", "name": "9f7eee540a3263bd0f807d9bb7d2e2fa"}, {"lon": -77.02654933333334, "is_disabled": 0, "lat": 38.93010233333333, "fusion_lat": 0.0, "is_reserved": 0, "rental_uris": {"ios": "https://dc.lft.to/lastmile_qr_scan", "android": "https://dc.lft.to/lastmile_qr_scan"}, "fusion_lon": 0.0, "type": "electric_scooter", "bike_id": "c41ee2cbca5f44d6e07baaf5477a6e83", "name": "c41ee2cbca5f44d6e07baaf5477a6e83"}, {"lon": -77.02981533333333, "is_disabled": 0, "lat": 38.92783416666666, "fusion_lat": 0.0, "is_reserved": 0, "rental_uris": {"ios": "https://dc.lft.to/lastmile_qr_scan", "android": "https://dc.lft.to/lastmile_qr_scan"}, "fusion_lon": 0.0, "type": "electric_bike", "bike_id": "3843dd1df28fc4165ba82d4d500ccd47", "name": "3843dd1df28fc4165ba82d4d500ccd47"}, {"lon": -77.03637433333333, "is_disabled": 0, "lat": 38.930575166666664, "fusion_lat": 0.0, "is_reserved": 0, "rental_uris": {"ios": "https://dc.lft.to/lastmile_qr_scan", "android": "https://dc.lft.to/lastmile_qr_scan"}, "fusion_lon": 0.0, "type": "electric_scooter", "bike_id": "a6bd249746ad6146320913213e9a95d0", "name": "a6bd249746ad6146320913213e9a95d0"}, {"lon": -77.02955083333333, "is_disabled": 0, "lat": 38.90503366666667, "fusion_lat": 0.0, "is_reserved": 0, "rental_uris": {"ios": "https://dc.lft.to/lastmile_qr_scan", "android": "https://dc.lft.to/lastmile_qr_scan"}, "fusion_lon": 0.0, "type": "electric_scooter", "bike_id": "ec628f92d0878314dd3e31de1dad3e2c", "name": "ec628f92d0878314dd3e31de1dad3e2c"}, {"lon": -77.083077, "is_disabled": 0, "lat": 38.85439483333333, "fusion_lat": 0.0, "is_reserved": 0, "rental_uris": {"ios": "https://dc.lft.to/lastmile_qr_scan", "android": "https://dc.lft.to/lastmile_qr_scan"}, "fusion_lon": 0.0, "type": "electric_bike", "bike_id": "adf14791b517db8c31cc7d958f0b8c42", "name": "adf14791b517db8c31cc7d958f0b8c42"}, {"lon": -77.02713933333334, "is_disabled": 0, "lat": 38.92765166666667, "fusion_lat": 0.0, "is_reserved": 0, "rental_uris": {"ios": "https://dc.lft.to/lastmile_qr_scan", "android": "https://dc.lft.to/lastmile_qr_scan"}, "fusion_lon": 0.0, "type": "electric_scooter", "bike_id": "ccc296f288239c4fb9678832e1d861fb", "name": "ccc296f288239c4fb9678832e1d861fb"}, {"lon": -77.22929633333334, "is_disabled": 0, "lat": 38.93191133333333, "fusion_lat": 0.0, "is_reserved": 0, "rental_uris": {"ios": "https://dc.lft.to/lastmile_qr_scan", "android": "https://dc.lft.to/lastmile_qr_scan"}, "fusion_lon": 0.0, "type": "electric_bike", "bike_id": "55335c1025a5d05132305e64e0e28a81", "name": "55335c1025a5d05132305e64e0e28a81"}, {"lon": -77.032047, "is_disabled": 0, "lat": 38.913282833333334, "fusion_lat": 0.0, "is_reserved": 0, "rental_uris": {"ios": "https://dc.lft.to/lastmile_qr_scan", "android": "https://dc.lft.to/lastmile_qr_scan"}, "fusion_lon": 0.0, "type": "electric_scooter", "bike_id": "59308a2d89c66187394e80bf8379a7bf", "name": "59308a2d89c66187394e80bf8379a7bf"}, {"lon": -77.0272515, "is_disabled": 0, "lat": 38.95583516666667, "fusion_lat": 0.0, "is_reserved": 0, "rental_uris": {"ios": "https://dc.lft.to/lastmile_qr_scan", "android": "https://dc.lft.to/lastmile_qr_scan"}, "fusion_lon": 0.0, "type": "electric_scooter", "bike_id": "8e39aa26a3dcc347308e65c1b756da57", "name": "8e39aa26a3dcc347308e65c1b756da57"}, {"lon": -77.02721716666667, "is_disabled": 0, "lat": 38.8984205, "fusion_lat": 0.0, "is_reserved": 0, "rental_uris": {"ios": "https://dc.lft.to/lastmile_qr_scan", "android": "https://dc.lft.to/lastmile_qr_scan"}, "fusion_lon": 0.0, "type": "electric_scooter", "bike_id": "8d435060f2dda97667959be9e8efb51c", "name": "8d435060f2dda97667959be9e8efb51c"}, {"lon": -76.990108, "is_disabled": 0, "lat": 38.86508383333333, "fusion_lat": 0.0, "is_reserved": 0, "rental_uris": {"ios": "https://dc.lft.to/lastmile_qr_scan", "android": "https://dc.lft.to/lastmile_qr_scan"}, "fusion_lon": 0.0, "type": "electric_scooter", "bike_id": "e1e02857f469aaeb51a68c652f0f95e5", "name": "e1e02857f469aaeb51a68c652f0f95e5"}, {"lon": -77.01888783333334, "is_disabled": 0, "lat": 38.93988066666667, "fusion_lat": 0.0, "is_reserved": 0, "rental_uris": {"ios": "https://dc.lft.to/lastmile_qr_scan", "android": "https://dc.lft.to/lastmile_qr_scan"}, "fusion_lon": 0.0, "type": "electric_scooter", "bike_id": "2aaf8d4aa5f2ea2895472291b66f92e7", "name": "2aaf8d4aa5f2ea2895472291b66f92e7"}, {"lon": -77.00734133333333, "is_disabled": 0, "lat": 38.8792685, "fusion_lat": 0.0, "is_reserved": 0, "rental_uris": {"ios": "https://dc.lft.to/lastmile_qr_scan", "android": "https://dc.lft.to/lastmile_qr_scan"}, "fusion_lon": 0.0, "type": "electric_scooter", "bike_id": "921537201e5b725408f1642aee938c28", "name": "921537201e5b725408f1642aee938c28"}, {"lon": -76.98236566666667, "is_disabled": 0, "lat": 38.908910166666665, "fusion_lat": 0.0, "is_reserved": 0, "rental_uris": {"ios": "https://dc.lft.to/lastmile_qr_scan", "android": "https://dc.lft.to/lastmile_qr_scan"}, "fusion_lon": 0.0, "type": "electric_scooter", "bike_id": "207d789d8ce378a5b030d2cf39dd77f1", "name": "207d789d8ce378a5b030d2cf39dd77f1"}, {"lon": -77.04465083333334, "is_disabled": 0, "lat": 38.89734766666667, "fusion_lat": 0.0, "is_reserved": 0, "rental_uris": {"ios": "https://dc.lft.to/lastmile_qr_scan", "android": "https://dc.lft.to/lastmile_qr_scan"}, "fusion_lon": 0.0, "type": "electric_scooter", "bike_id": "6f47b59070a779ff3be3d33a26229e70", "name": "6f47b59070a779ff3be3d33a26229e70"}, {"lon": -77.00072333333334, "is_disabled": 0, "lat": 38.9003595, "fusion_lat": 0.0, "is_reserved": 0, "rental_uris": {"ios": "https://dc.lft.to/lastmile_qr_scan", "android": "https://dc.lft.to/lastmile_qr_scan"}, "fusion_lon": 0.0, "type": "electric_scooter", "bike_id": "948852e664ba28d6cce9fecdb3fe7b75", "name": "948852e664ba28d6cce9fecdb3fe7b75"}, {"lon": -77.007344, "is_disabled": 0, "lat": 38.903729166666665, "fusion_lat": 0.0, "is_reserved": 0, "rental_uris": {"ios": "https://dc.lft.to/lastmile_qr_scan", "android": "https://dc.lft.to/lastmile_qr_scan"}, "fusion_lon": 0.0, "type": "electric_scooter", "bike_id": "fd72984ec91e499367be6137b2e12aa1", "name": "fd72984ec91e499367be6137b2e12aa1"}, {"lon": -77.04010733333334, "is_disabled": 0, "lat": 38.922443, "fusion_lat": 0.0, "is_reserved": 0, "rental_uris": {"ios": "https://dc.lft.to/lastmile_qr_scan", "android": "https://dc.lft.to/lastmile_qr_scan"}, "fusion_lon": 0.0, "type": "electric_scooter", "bike_id": "d2f7099a4c7b2d17436bed0a2ed9c45a", "name": "d2f7099a4c7b2d17436bed0a2ed9c45a"}, {"lon": -77.05087866666666, "is_disabled": 0, "lat": 38.923375666666665, "fusion_lat": 0.0, "is_reserved": 0, "rental_uris": {"ios": "https://dc.lft.to/lastmile_qr_scan", "android": "https://dc.lft.to/lastmile_qr_scan"}, "fusion_lon": 0.0, "type": "electric_scooter", "bike_id": "47cc693cda1d9e5214bf01c941253805", "name": "47cc693cda1d9e5214bf01c941253805"}, {"lon": -77.03376566666667, "is_disabled": 0, "lat": 38.921413666666666, "fusion_lat": 0.0, "is_reserved": 0, "rental_uris": {"ios": "https://dc.lft.to/lastmile_qr_scan", "android": "https://dc.lft.to/lastmile_qr_scan"}, "fusion_lon": 0.0, "type": "electric_scooter", "bike_id": "2edabd35ad5941d6b9bd815e2147bca9", "name": "2edabd35ad5941d6b9bd815e2147bca9"}, {"lon": -77.00625216666667, "is_disabled": 0, "lat": 38.8717395, "fusion_lat": 0.0, "is_reserved": 0, "rental_uris": {"ios": "https://dc.lft.to/lastmile_qr_scan", "android": "https://dc.lft.to/lastmile_qr_scan"}, "fusion_lon": 0.0, "type": "electric_scooter", "bike_id": "51cafc5c1339ed501068340418e7c3aa", "name": "51cafc5c1339ed501068340418e7c3aa"}, {"lon": -77.0376575, "is_disabled": 0, "lat": 38.923232, "fusion_lat": 0.0, "is_reserved": 0, "rental_uris": {"ios": "https://dc.lft.to/lastmile_qr_scan", "android": "https://dc.lft.to/lastmile_qr_scan"}, "fusion_lon": 0.0, "type": "electric_scooter", "bike_id": "0aa13c0010beb9cbe90fe0fcda3c2dab", "name": "0aa13c0010beb9cbe90fe0fcda3c2dab"}, {"lon": -77.02410566666667, "is_disabled": 0, "lat": 38.91399966666667, "fusion_lat": 0.0, "is_reserved": 0, "rental_uris": {"ios": "https://dc.lft.to/lastmile_qr_scan", "android": "https://dc.lft.to/lastmile_qr_scan"}, "fusion_lon": 0.0, "type": "electric_scooter", "bike_id": "63062da33fd3579beb5003ffdd0b5c15", "name": "63062da33fd3579beb5003ffdd0b5c15"}, {"lon": -77.02400233333333, "is_disabled": 0, "lat": 38.89876183333333, "fusion_lat": 0.0, "is_reserved": 0, "rental_uris": {"ios": "https://dc.lft.to/lastmile_qr_scan", "android": "https://dc.lft.to/lastmile_qr_scan"}, "fusion_lon": 0.0, "type": "electric_scooter", "bike_id": "b1993322f7534300ca8591a6c726e2b3", "name": "b1993322f7534300ca8591a6c726e2b3"}, {"lon": -77.027648, "is_disabled": 0, "lat": 38.916895833333335, "fusion_lat": 0.0, "is_reserved": 0, "rental_uris": {"ios": "https://dc.lft.to/lastmile_qr_scan", "android": "https://dc.lft.to/lastmile_qr_scan"}, "fusion_lon": 0.0, "type": "electric_scooter", "bike_id": "5b581560d9926ecb3d9b8c6d4e00342c", "name": "5b581560d9926ecb3d9b8c6d4e00342c"}, {"lon": -77.042826, "is_disabled": 0, "lat": 38.906593666666666, "fusion_lat": 0.0, "is_reserved": 0, "rental_uris": {"ios": "https://dc.lft.to/lastmile_qr_scan", "android": "https://dc.lft.to/lastmile_qr_scan"}, "fusion_lon": 0.0, "type": "electric_scooter", "bike_id": "44793d1a0a2546e2010a13a973acd905", "name": "44793d1a0a2546e2010a13a973acd905"}, {"lon": -76.9518135, "is_disabled": 0, "lat": 38.8913555, "fusion_lat": 0.0, "is_reserved": 0, "rental_uris": {"ios": "https://dc.lft.to/lastmile_qr_scan", "android": "https://dc.lft.to/lastmile_qr_scan"}, "fusion_lon": 0.0, "type": "electric_scooter", "bike_id": "69fb2db11429598627eae2436422ec7d", "name": "69fb2db11429598627eae2436422ec7d"}, {"lon": -77.02383083333334, "is_disabled": 0, "lat": 38.911480833333336, "fusion_lat": 0.0, "is_reserved": 0, "rental_uris": {"ios": "https://dc.lft.to/lastmile_qr_scan", "android": "https://dc.lft.to/lastmile_qr_scan"}, "fusion_lon": 0.0, "type": "electric_scooter", "bike_id": "3d75601dc7d7dfae91f2c6ccccca2c40", "name": "3d75601dc7d7dfae91f2c6ccccca2c40"}, {"lon": -77.04139016666667, "is_disabled": 0, "lat": 38.916850833333335, "fusion_lat": 0.0, "is_reserved": 0, "rental_uris": {"ios": "https://dc.lft.to/lastmile_qr_scan", "android": "https://dc.lft.to/lastmile_qr_scan"}, "fusion_lon": 0.0, "type": "electric_scooter", "bike_id": "cce613f4ced84dc8c2c9d921d31a9498", "name": "cce613f4ced84dc8c2c9d921d31a9498"}, {"lon": -77.02490283333333, "is_disabled": 0, "lat": 38.9209355, "fusion_lat": 0.0, "is_reserved": 0, "rental_uris": {"ios": "https://dc.lft.to/lastmile_qr_scan", "android": "https://dc.lft.to/lastmile_qr_scan"}, "fusion_lon": 0.0, "type": "electric_scooter", "bike_id": "136a13ac24f261521278a1b0ec2f4800", "name": "136a13ac24f261521278a1b0ec2f4800"}, {"lon": -77.04028083333333, "is_disabled": 0, "lat": 38.91712883333334, "fusion_lat": 0.0, "is_reserved": 0, "rental_uris": {"ios": "https://dc.lft.to/lastmile_qr_scan", "android": "https://dc.lft.to/lastmile_qr_scan"}, "fusion_lon": 0.0, "type": "electric_scooter", "bike_id": "7302375b0dd99a8c76d430a50d5268b5", "name": "7302375b0dd99a8c76d430a50d5268b5"}, {"lon": -76.92044566666667, "is_disabled": 0, "lat": 38.8974245, "fusion_lat": 0.0, "is_reserved": 0, "rental_uris": {"ios": "https://dc.lft.to/lastmile_qr_scan", "android": "https://dc.lft.to/lastmile_qr_scan"}, "fusion_lon": 0.0, "type": "electric_bike", "bike_id": "15621e4a0d7f317706371d0371f1b5ae", "name": "15621e4a0d7f317706371d0371f1b5ae"}, {"lon": -77.02766216666667, "is_disabled": 0, "lat": 38.896396833333334, "fusion_lat": 0.0, "is_reserved": 0, "rental_uris": {"ios": "https://dc.lft.to/lastmile_qr_scan", "android": "https://dc.lft.to/lastmile_qr_scan"}, "fusion_lon": 0.0, "type": "electric_scooter", "bike_id": "eea25f48745e21e75f5faec59a2a0e3c", "name": "eea25f48745e21e75f5faec59a2a0e3c"}, {"lon": -77.04942033333333, "is_disabled": 0, "lat": 38.9182735, "fusion_lat": 0.0, "is_reserved": 0, "rental_uris": {"ios": "https://dc.lft.to/lastmile_qr_scan", "android": "https://dc.lft.to/lastmile_qr_scan"}, "fusion_lon": 0.0, "type": "electric_scooter", "bike_id": "172603aa9bc0652f22360c18fad91ab2", "name": "172603aa9bc0652f22360c18fad91ab2"}, {"lon": -77.072481, "is_disabled": 0, "lat": 38.93952616666667, "fusion_lat": 0.0, "is_reserved": 0, "rental_uris": {"ios": "https://dc.lft.to/lastmile_qr_scan", "android": "https://dc.lft.to/lastmile_qr_scan"}, "fusion_lon": 0.0, "type": "electric_scooter", "bike_id": "866567aa7d6d4b125d93d30a4450a7d1", "name": "866567aa7d6d4b125d93d30a4450a7d1"}, {"lon": -77.01776116666667, "is_disabled": 0, "lat": 38.887139, "fusion_lat": 0.0, "is_reserved": 0, "rental_uris": {"ios": "https://dc.lft.to/lastmile_qr_scan", "android": "https://dc.lft.to/lastmile_qr_scan"}, "fusion_lon": 0.0, "type": "electric_scooter", "bike_id": "906bc179ead492ee4316b7732c4ad239", "name": "906bc179ead492ee4316b7732c4ad239"}, {"lon": -77.01730716666667, "is_disabled": 0, "lat": 38.8874625, "fusion_lat": 0.0, "is_reserved": 0, "rental_uris": {"ios": "https://dc.lft.to/lastmile_qr_scan", "android": "https://dc.lft.to/lastmile_qr_scan"}, "fusion_lon": 0.0, "type": "electric_scooter", "bike_id": "384d7357b6db898db4c35fa2a3d97a30", "name": "384d7357b6db898db4c35fa2a3d97a30"}, {"lon": -77.0886655, "is_disabled": 0, "lat": 38.91644633333333, "fusion_lat": 0.0, "is_reserved": 0, "rental_uris": {"ios": "https://dc.lft.to/lastmile_qr_scan", "android": "https://dc.lft.to/lastmile_qr_scan"}, "fusion_lon": 0.0, "type": "electric_scooter", "bike_id": "d67d47ff3c80b220d460f8ca19f8f01f", "name": "d67d47ff3c80b220d460f8ca19f8f01f"}, {"lon": -77.02956066666667, "is_disabled": 0, "lat": 38.9050105, "fusion_lat": 0.0, "is_reserved": 0, "rental_uris": {"ios": "https://dc.lft.to/lastmile_qr_scan", "android": "https://dc.lft.to/lastmile_qr_scan"}, "fusion_lon": 0.0, "type": "electric_scooter", "bike_id": "5d3dd266105b4b427bbfb30af375b010", "name": "5d3dd266105b4b427bbfb30af375b010"}, {"lon": -77.008765, "is_disabled": 0, "lat": 38.900699833333334, "fusion_lat": 0.0, "is_reserved": 0, "rental_uris": {"ios": "https://dc.lft.to/lastmile_qr_scan", "android": "https://dc.lft.to/lastmile_qr_scan"}, "fusion_lon": 0.0, "type": "electric_scooter", "bike_id": "4618beee9a9bf702866e1462ccd2f237", "name": "4618beee9a9bf702866e1462ccd2f237"}, {"lon": -77.04879216666667, "is_disabled": 0, "lat": 38.90660583333333, "fusion_lat": 0.0, "is_reserved": 0, "rental_uris": {"ios": "https://dc.lft.to/lastmile_qr_scan", "android": "https://dc.lft.to/lastmile_qr_scan"}, "fusion_lon": 0.0, "type": "electric_scooter", "bike_id": "aea7e4c2ce8cec6dd7ea360fee4c751f", "name": "aea7e4c2ce8cec6dd7ea360fee4c751f"}, {"lon": -77.03185783333333, "is_disabled": 0, "lat": 38.919227166666666, "fusion_lat": 0.0, "is_reserved": 0, "rental_uris": {"ios": "https://dc.lft.to/lastmile_qr_scan", "android": "https://dc.lft.to/lastmile_qr_scan"}, "fusion_lon": 0.0, "type": "electric_scooter", "bike_id": "1b01aeb7bb4d2b4611fe6407bd748433", "name": "1b01aeb7bb4d2b4611fe6407bd748433"}, {"lon": -77.03734483333334, "is_disabled": 0, "lat": 38.924733333333336, "fusion_lat": 0.0, "is_reserved": 0, "rental_uris": {"ios": "https://dc.lft.to/lastmile_qr_scan", "android": "https://dc.lft.to/lastmile_qr_scan"}, "fusion_lon": 0.0, "type": "electric_scooter", "bike_id": "0e6a5538eb3f243e00ae49171e30afe7", "name": "0e6a5538eb3f243e00ae49171e30afe7"}, {"lon": -77.023717, "is_disabled": 0, "lat": 38.91549766666667, "fusion_lat": 0.0, "is_reserved": 0, "rental_uris": {"ios": "https://dc.lft.to/lastmile_qr_scan", "android": "https://dc.lft.to/lastmile_qr_scan"}, "fusion_lon": 0.0, "type": "electric_scooter", "bike_id": "ab3b39f62edf1a8123f284637983a2a7", "name": "ab3b39f62edf1a8123f284637983a2a7"}, {"lon": -77.01986266666667, "is_disabled": 0, "lat": 38.900575, "fusion_lat": 0.0, "is_reserved": 0, "rental_uris": {"ios": "https://dc.lft.to/lastmile_qr_scan", "android": "https://dc.lft.to/lastmile_qr_scan"}, "fusion_lon": 0.0, "type": "electric_scooter", "bike_id": "eb4c4c7e377a2daddd26c951646ec81f", "name": "eb4c4c7e377a2daddd26c951646ec81f"}, {"lon": -77.02364233333333, "is_disabled": 0, "lat": 38.920506333333336, "fusion_lat": 0.0, "is_reserved": 0, "rental_uris": {"ios": "https://dc.lft.to/lastmile_qr_scan", "android": "https://dc.lft.to/lastmile_qr_scan"}, "fusion_lon": 0.0, "type": "electric_scooter", "bike_id": "edd5bec7a88b3d26fdda8737d82dec8c", "name": "edd5bec7a88b3d26fdda8737d82dec8c"}, {"lon": -77.03218566666666, "is_disabled": 0, "lat": 38.89970733333333, "fusion_lat": 0.0, "is_reserved": 0, "rental_uris": {"ios": "https://dc.lft.to/lastmile_qr_scan", "android": "https://dc.lft.to/lastmile_qr_scan"}, "fusion_lon": 0.0, "type": "electric_scooter", "bike_id": "220c7c66fa7f543a1d73cb06e91c2d34", "name": "220c7c66fa7f543a1d73cb06e91c2d34"}, {"lon": -77.03338383333333, "is_disabled": 0, "lat": 38.917144666666665, "fusion_lat": 0.0, "is_reserved": 0, "rental_uris": {"ios": "https://dc.lft.to/lastmile_qr_scan", "android": "https://dc.lft.to/lastmile_qr_scan"}, "fusion_lon": 0.0, "type": "electric_scooter", "bike_id": "4438ffb7af0719b475f31a89cdf09700", "name": "4438ffb7af0719b475f31a89cdf09700"}, {"lon": -77.00558983333333, "is_disabled": 0, "lat": 38.874699666666665, "fusion_lat": 0.0, "is_reserved": 0, "rental_uris": {"ios": "https://dc.lft.to/lastmile_qr_scan", "android": "https://dc.lft.to/lastmile_qr_scan"}, "fusion_lon": 0.0, "type": "electric_scooter", "bike_id": "3e6256610afd274a820c70d636148e8c", "name": "3e6256610afd274a820c70d636148e8c"}, {"lon": -77.02878016666666, "is_disabled": 0, "lat": 38.92482566666666, "fusion_lat": 0.0, "is_reserved": 0, "rental_uris": {"ios": "https://dc.lft.to/lastmile_qr_scan", "android": "https://dc.lft.to/lastmile_qr_scan"}, "fusion_lon": 0.0, "type": "electric_scooter", "bike_id": "576eb4d47566631610c13c4849c2816e", "name": "576eb4d47566631610c13c4849c2816e"}, {"lon": -77.03346283333333, "is_disabled": 0, "lat": 38.89247483333333, "fusion_lat": 0.0, "is_reserved": 0, "rental_uris": {"ios": "https://dc.lft.to/lastmile_qr_scan", "android": "https://dc.lft.to/lastmile_qr_scan"}, "fusion_lon": 0.0, "type": "electric_scooter", "bike_id": "9ee3034f7feedb440e1fce147fb1d97d", "name": "9ee3034f7feedb440e1fce147fb1d97d"}, {"lon": -77.03867183333334, "is_disabled": 0, "lat": 38.912552, "fusion_lat": 0.0, "is_reserved": 0, "rental_uris": {"ios": "https://dc.lft.to/lastmile_qr_scan", "android": "https://dc.lft.to/lastmile_qr_scan"}, "fusion_lon": 0.0, "type": "electric_scooter", "bike_id": "a7c67d12ae1248cbdce097bec104140e", "name": "a7c67d12ae1248cbdce097bec104140e"}, {"lon": -77.0213035, "is_disabled": 0, "lat": 38.92120366666666, "fusion_lat": 0.0, "is_reserved": 0, "rental_uris": {"ios": "https://dc.lft.to/lastmile_qr_scan", "android": "https://dc.lft.to/lastmile_qr_scan"}, "fusion_lon": 0.0, "type": "electric_scooter", "bike_id": "4c31317118c6d120bf506b42e0914d0e", "name": "4c31317118c6d120bf506b42e0914d0e"}, {"lon": -77.04230783333334, "is_disabled": 0, "lat": 38.9206585, "fusion_lat": 0.0, "is_reserved": 0, "rental_uris": {"ios": "https://dc.lft.to/lastmile_qr_scan", "android": "https://dc.lft.to/lastmile_qr_scan"}, "fusion_lon": 0.0, "type": "electric_scooter", "bike_id": "d30a9118838401c33d14590a688f0a2d", "name": "d30a9118838401c33d14590a688f0a2d"}, {"lon": -77.04492383333333, "is_disabled": 0, "lat": 38.911863833333335, "fusion_lat": 0.0, "is_reserved": 0, "rental_uris": {"ios": "https://dc.lft.to/lastmile_qr_scan", "android": "https://dc.lft.to/lastmile_qr_scan"}, "fusion_lon": 0.0, "type": "electric_scooter", "bike_id": "3b5f58b3ddc5aae91afff5e2798f10ef", "name": "3b5f58b3ddc5aae91afff5e2798f10ef"}, {"lon": -77.00383733333334, "is_disabled": 0, "lat": 38.89547616666667, "fusion_lat": 0.0, "is_reserved": 0, "rental_uris": {"ios": "https://dc.lft.to/lastmile_qr_scan", "android": "https://dc.lft.to/lastmile_qr_scan"}, "fusion_lon": 0.0, "type": "electric_scooter", "bike_id": "d0556a308875c5a8e8c9c6c7ed661a41", "name": "d0556a308875c5a8e8c9c6c7ed661a41"}, {"lon": -77.06395783333333, "is_disabled": 0, "lat": 38.9441755, "fusion_lat": 0.0, "is_reserved": 0, "rental_uris": {"ios": "https://dc.lft.to/lastmile_qr_scan", "android": "https://dc.lft.to/lastmile_qr_scan"}, "fusion_lon": 0.0, "type": "electric_scooter", "bike_id": "ecefcad2ef09a3eb41b9ce380daa65ea", "name": "ecefcad2ef09a3eb41b9ce380daa65ea"}, {"lon": -76.98369616666666, "is_disabled": 0, "lat": 38.9150245, "fusion_lat": 0.0, "is_reserved": 0, "rental_uris": {"ios": "https://dc.lft.to/lastmile_qr_scan", "android": "https://dc.lft.to/lastmile_qr_scan"}, "fusion_lon": 0.0, "type": "electric_scooter", "bike_id": "a744ada41d68c1dce7477bf4a1ddc088", "name": "a744ada41d68c1dce7477bf4a1ddc088"}, {"lon": -77.0281395, "is_disabled": 0, "lat": 38.9089275, "fusion_lat": 0.0, "is_reserved": 0, "rental_uris": {"ios": "https://dc.lft.to/lastmile_qr_scan", "android": "https://dc.lft.to/lastmile_qr_scan"}, "fusion_lon": 0.0, "type": "electric_scooter", "bike_id": "578a12924b5c021afbe62c955b48a6e9", "name": "578a12924b5c021afbe62c955b48a6e9"}, {"lon": -77.02205516666666, "is_disabled": 0, "lat": 38.901944666666665, "fusion_lat": 0.0, "is_reserved": 0, "rental_uris": {"ios": "https://dc.lft.to/lastmile_qr_scan", "android": "https://dc.lft.to/lastmile_qr_scan"}, "fusion_lon": 0.0, "type": "electric_scooter", "bike_id": "1c9574b633043a6eadf228830979fc84", "name": "1c9574b633043a6eadf228830979fc84"}, {"lon": -77.02285366666666, "is_disabled": 0, "lat": 38.8948285, "fusion_lat": 0.0, "is_reserved": 0, "rental_uris": {"ios": "https://dc.lft.to/lastmile_qr_scan", "android": "https://dc.lft.to/lastmile_qr_scan"}, "fusion_lon": 0.0, "type": "electric_scooter", "bike_id": "6ad784acd87f20dfce33add16023c44f", "name": "6ad784acd87f20dfce33add16023c44f"}, {"lon": -76.96111716666667, "is_disabled": 0, "lat": 38.918563666666664, "fusion_lat": 0.0, "is_reserved": 0, "rental_uris": {"ios": "https://dc.lft.to/lastmile_qr_scan", "android": "https://dc.lft.to/lastmile_qr_scan"}, "fusion_lon": 0.0, "type": "electric_scooter", "bike_id": "083724a49e1b4d28f894edb984860b92", "name": "083724a49e1b4d28f894edb984860b92"}, {"lon": -77.05044166666667, "is_disabled": 0, "lat": 38.923371333333336, "fusion_lat": 0.0, "is_reserved": 0, "rental_uris": {"ios": "https://dc.lft.to/lastmile_qr_scan", "android": "https://dc.lft.to/lastmile_qr_scan"}, "fusion_lon": 0.0, "type": "electric_scooter", "bike_id": "7ce818473aed7d723567fde14e3b8776", "name": "7ce818473aed7d723567fde14e3b8776"}, {"lon": -77.0325995, "is_disabled": 0, "lat": 38.921629, "fusion_lat": 0.0, "is_reserved": 0, "rental_uris": {"ios": "https://dc.lft.to/lastmile_qr_scan", "android": "https://dc.lft.to/lastmile_qr_scan"}, "fusion_lon": 0.0, "type": "electric_scooter", "bike_id": "43fb42adbc6954e76f32f0e089f7f41f", "name": "43fb42adbc6954e76f32f0e089f7f41f"}, {"lon": -77.02978633333333, "is_disabled": 0, "lat": 38.986959666666664, "fusion_lat": 0.0, "is_reserved": 0, "rental_uris": {"ios": "https://dc.lft.to/lastmile_qr_scan", "android": "https://dc.lft.to/lastmile_qr_scan"}, "fusion_lon": 0.0, "type": "electric_scooter", "bike_id": "e3e342935b7e28e1a5188dd4f9227334", "name": "e3e342935b7e28e1a5188dd4f9227334"}, {"lon": -77.04423116666666, "is_disabled": 0, "lat": 38.909608, "fusion_lat": 0.0, "is_reserved": 0, "rental_uris": {"ios": "https://dc.lft.to/lastmile_qr_scan", "android": "https://dc.lft.to/lastmile_qr_scan"}, "fusion_lon": 0.0, "type": "electric_scooter", "bike_id": "1817ca56251794ddda31427b2f4215d1", "name": "1817ca56251794ddda31427b2f4215d1"}, {"lon": -77.00192383333334, "is_disabled": 0, "lat": 38.902336, "fusion_lat": 0.0, "is_reserved": 0, "rental_uris": {"ios": "https://dc.lft.to/lastmile_qr_scan", "android": "https://dc.lft.to/lastmile_qr_scan"}, "fusion_lon": 0.0, "type": "electric_scooter", "bike_id": "df6b2b8b50730693cb52abad2985b6b5", "name": "df6b2b8b50730693cb52abad2985b6b5"}, {"lon": -77.047638, "is_disabled": 0, "lat": 38.917572, "fusion_lat": 0.0, "is_reserved": 0, "rental_uris": {"ios": "https://dc.lft.to/lastmile_qr_scan", "android": "https://dc.lft.to/lastmile_qr_scan"}, "fusion_lon": 0.0, "type": "electric_scooter", "bike_id": "bd52e05f8eb02cf0c296a6e192c2629a", "name": "bd52e05f8eb02cf0c296a6e192c2629a"}, {"lon": -77.03425433333334, "is_disabled": 0, "lat": 38.9080405, "fusion_lat": 0.0, "is_reserved": 0, "rental_uris": {"ios": "https://dc.lft.to/lastmile_qr_scan", "android": "https://dc.lft.to/lastmile_qr_scan"}, "fusion_lon": 0.0, "type": "electric_scooter", "bike_id": "f7f5af1ffc1f65f35a2b9793a4f01e88", "name": "f7f5af1ffc1f65f35a2b9793a4f01e88"}, {"lon": -77.010937, "is_disabled": 0, "lat": 38.87297483333333, "fusion_lat": 0.0, "is_reserved": 0, "rental_uris": {"ios": "https://dc.lft.to/lastmile_qr_scan", "android": "https://dc.lft.to/lastmile_qr_scan"}, "fusion_lon": 0.0, "type": "electric_bike", "bike_id": "3fa8f439db90efd2a17ab67a033e154e", "name": "3fa8f439db90efd2a17ab67a033e154e"}, {"lon": -77.03171633333334, "is_disabled": 0, "lat": 38.90884116666667, "fusion_lat": 0.0, "is_reserved": 0, "rental_uris": {"ios": "https://dc.lft.to/lastmile_qr_scan", "android": "https://dc.lft.to/lastmile_qr_scan"}, "fusion_lon": 0.0, "type": "electric_scooter", "bike_id": "ed533e2ce3746474b44fa65cf9c12cdb", "name": "ed533e2ce3746474b44fa65cf9c12cdb"}, {"lon": -77.038312, "is_disabled": 0, "lat": 38.90777683333334, "fusion_lat": 0.0, "is_reserved": 0, "rental_uris": {"ios": "https://dc.lft.to/lastmile_qr_scan", "android": "https://dc.lft.to/lastmile_qr_scan"}, "fusion_lon": 0.0, "type": "electric_scooter", "bike_id": "9467a5ffe1d744e3b10789f7342e8971", "name": "9467a5ffe1d744e3b10789f7342e8971"}, {"lon": -76.99867566666667, "is_disabled": 0, "lat": 38.844318333333334, "fusion_lat": 0.0, "is_reserved": 0, "rental_uris": {"ios": "https://dc.lft.to/lastmile_qr_scan", "android": "https://dc.lft.to/lastmile_qr_scan"}, "fusion_lon": 0.0, "type": "electric_scooter", "bike_id": "9835de8545d4c4d1395f110d71c1f42a", "name": "9835de8545d4c4d1395f110d71c1f42a"}, {"lon": -77.0317855, "is_disabled": 0, "lat": 38.913285, "fusion_lat": 0.0, "is_reserved": 0, "rental_uris": {"ios": "https://dc.lft.to/lastmile_qr_scan", "android": "https://dc.lft.to/lastmile_qr_scan"}, "fusion_lon": 0.0, "type": "electric_scooter", "bike_id": "674ee6ae4e711946561c962f502e99b3", "name": "674ee6ae4e711946561c962f502e99b3"}, {"lon": -77.00198616666667, "is_disabled": 0, "lat": 38.96502916666667, "fusion_lat": 0.0, "is_reserved": 0, "rental_uris": {"ios": "https://dc.lft.to/lastmile_qr_scan", "android": "https://dc.lft.to/lastmile_qr_scan"}, "fusion_lon": 0.0, "type": "electric_scooter", "bike_id": "72118affaed583d5be72256eb8d27f1c", "name": "72118affaed583d5be72256eb8d27f1c"}, {"lon": -77.01965166666666, "is_disabled": 0, "lat": 38.87683466666667, "fusion_lat": 0.0, "is_reserved": 0, "rental_uris": {"ios": "https://dc.lft.to/lastmile_qr_scan", "android": "https://dc.lft.to/lastmile_qr_scan"}, "fusion_lon": 0.0, "type": "electric_scooter", "bike_id": "13b33f9a7561e4de8f847211efb4e9b7", "name": "13b33f9a7561e4de8f847211efb4e9b7"}, {"lon": -77.02457, "is_disabled": 0, "lat": 38.94368, "fusion_lat": 0.0, "is_reserved": 0, "rental_uris": {"ios": "https://dc.lft.to/lastmile_qr_scan", "android": "https://dc.lft.to/lastmile_qr_scan"}, "fusion_lon": 0.0, "type": "electric_scooter", "bike_id": "8d6df1f2a08e46afa0f6e0717a30fc93", "name": "8d6df1f2a08e46afa0f6e0717a30fc93"}, {"lon": -77.00600016666667, "is_disabled": 0, "lat": 38.905625, "fusion_lat": 0.0, "is_reserved": 0, "rental_uris": {"ios": "https://dc.lft.to/lastmile_qr_scan", "android": "https://dc.lft.to/lastmile_qr_scan"}, "fusion_lon": 0.0, "type": "electric_scooter", "bike_id": "be7575c17566f9d58ff33108824da555", "name": "be7575c17566f9d58ff33108824da555"}, {"lon": -77.029564, "is_disabled": 0, "lat": 38.90500816666667, "fusion_lat": 0.0, "is_reserved": 0, "rental_uris": {"ios": "https://dc.lft.to/lastmile_qr_scan", "android": "https://dc.lft.to/lastmile_qr_scan"}, "fusion_lon": 0.0, "type": "electric_scooter", "bike_id": "07197ff67529388279d16a25fcb66bcb", "name": "07197ff67529388279d16a25fcb66bcb"}, {"lon": -77.02073016666667, "is_disabled": 0, "lat": 38.92140116666667, "fusion_lat": 0.0, "is_reserved": 0, "rental_uris": {"ios": "https://dc.lft.to/lastmile_qr_scan", "android": "https://dc.lft.to/lastmile_qr_scan"}, "fusion_lon": 0.0, "type": "electric_scooter", "bike_id": "08f0262a028acf7638168143a064b031", "name": "08f0262a028acf7638168143a064b031"}, {"lon": -77.017763, "is_disabled": 0, "lat": 38.915072333333335, "fusion_lat": 0.0, "is_reserved": 0, "rental_uris": {"ios": "https://dc.lft.to/lastmile_qr_scan", "android": "https://dc.lft.to/lastmile_qr_scan"}, "fusion_lon": 0.0, "type": "electric_scooter", "bike_id": "07dc9cb6bd4e12735d083c081c1a68f4", "name": "07dc9cb6bd4e12735d083c081c1a68f4"}, {"lon": -77.02283283333334, "is_disabled": 0, "lat": 38.90908016666667, "fusion_lat": 0.0, "is_reserved": 0, "rental_uris": {"ios": "https://dc.lft.to/lastmile_qr_scan", "android": "https://dc.lft.to/lastmile_qr_scan"}, "fusion_lon": 0.0, "type": "electric_scooter", "bike_id": "6ecd2473f6e56c4461c7687918b096c6", "name": "6ecd2473f6e56c4461c7687918b096c6"}, {"lon": -77.00439166666666, "is_disabled": 0, "lat": 38.87669416666667, "fusion_lat": 0.0, "is_reserved": 0, "rental_uris": {"ios": "https://dc.lft.to/lastmile_qr_scan", "android": "https://dc.lft.to/lastmile_qr_scan"}, "fusion_lon": 0.0, "type": "electric_scooter", "bike_id": "9ebd405caae63e5d9cbca11852cb51bc", "name": "9ebd405caae63e5d9cbca11852cb51bc"}, {"lon": -77.02471816666667, "is_disabled": 0, "lat": 38.919583, "fusion_lat": 0.0, "is_reserved": 0, "rental_uris": {"ios": "https://dc.lft.to/lastmile_qr_scan", "android": "https://dc.lft.to/lastmile_qr_scan"}, "fusion_lon": 0.0, "type": "electric_scooter", "bike_id": "946a68c4ea190d93dcaa9a894c99dcb1", "name": "946a68c4ea190d93dcaa9a894c99dcb1"}, {"lon": -77.02588266666666, "is_disabled": 0, "lat": 38.9043025, "fusion_lat": 0.0, "is_reserved": 0, "rental_uris": {"ios": "https://dc.lft.to/lastmile_qr_scan", "android": "https://dc.lft.to/lastmile_qr_scan"}, "fusion_lon": 0.0, "type": "electric_scooter", "bike_id": "9550ce73051b1f2951f523e273243707", "name": "9550ce73051b1f2951f523e273243707"}, {"lon": -76.9652445, "is_disabled": 0, "lat": 38.87475666666667, "fusion_lat": 0.0, "is_reserved": 0, "rental_uris": {"ios": "https://dc.lft.to/lastmile_qr_scan", "android": "https://dc.lft.to/lastmile_qr_scan"}, "fusion_lon": 0.0, "type": "electric_bike", "bike_id": "b3dc0ef67dfecc896f24c2d17aefa4f7", "name": "b3dc0ef67dfecc896f24c2d17aefa4f7"}, {"lon": -77.02279583333333, "is_disabled": 0, "lat": 38.89505666666667, "fusion_lat": 0.0, "is_reserved": 0, "rental_uris": {"ios": "https://dc.lft.to/lastmile_qr_scan", "android": "https://dc.lft.to/lastmile_qr_scan"}, "fusion_lon": 0.0, "type": "electric_scooter", "bike_id": "dd85f84f544337171c3208cc6336b17e", "name": "dd85f84f544337171c3208cc6336b17e"}, {"lon": -77.02126883333334, "is_disabled": 0, "lat": 38.90206966666667, "fusion_lat": 0.0, "is_reserved": 0, "rental_uris": {"ios": "https://dc.lft.to/lastmile_qr_scan", "android": "https://dc.lft.to/lastmile_qr_scan"}, "fusion_lon": 0.0, "type": "electric_scooter", "bike_id": "2e5b613187c148ba2017f155928ea3e7", "name": "2e5b613187c148ba2017f155928ea3e7"},