{"data": {"bikes": [{"fusion_lat": 0.0, "name": "6ff2520fd2712a05fde7852db81d3bbe", "is_disabled": 0, "rental_uris": {"android": "https://dc.lft.to/lastmile_qr_scan", "ios": "https://dc.lft.to/lastmile_qr_scan"}, "fusion_lon": 0.0, "lat": 38.873738, "bike_id": "6ff2520fd2712a05fde7852db81d3bbe", "type": "electric_scooter", "is_reserved": 0, "lon": -77.0005325}, {"fusion_lat": 0.0, "name": "60fb4913017ff21d04d33cf35da8d96d", "is_disabled": 0, "rental_uris": {"android": "https://dc.lft.to/lastmile_qr_scan", "ios": "https://dc.lft.to/lastmile_qr_scan"}, "fusion_lon": 0.0, "lat": 38.917662666666665, "bike_id": "60fb4913017ff21d04d33cf35da8d96d", "type": "electric_scooter", "is_reserved": 0, "lon": -77.04771083333333}, {"fusion_lat": 0.0, "name": "be9534affb1ee11cad3604c69d311fa4", "is_disabled": 0, "rental_uris": {"android": "https://dc.lft.to/lastmile_qr_scan", "ios": "https://dc.lft.to/lastmile_qr_scan"}, "fusion_lon": 0.0, "lat": 38.9365635, "bike_id": "be9534affb1ee11cad3604c69d311fa4", "type": "electric_scooter", "is_reserved": 0, "lon": -77.05504033333334}, {"fusion_lat": 0.0, "name": "f65e464a8dddd4083fead59fb7957fd4", "is_disabled": 0, "rental_uris": {"android": "https://dc.lft.to/lastmile_qr_scan", "ios": "https://dc.lft.to/lastmile_qr_scan"}, "fusion_lon": 0.0, "lat": 38.8782985, "bike_id": "f65e464a8dddd4083fead59fb7957fd4", "type": "electric_scooter", "is_reserved": 0, "lon": -77.02276866666666}, {"fusion_lat": 0.0, "name": "f9e24e712924031993651011340ab84c", "is_disabled": 0, "rental_uris": {"android": "https://dc.lft.to/lastmile_qr_scan", "ios": "https://dc.lft.to/lastmile_qr_scan"}, "fusion_lon": 0.0, "lat": 38.88615433333333, "bike_id": "f9e24e712924031993651011340ab84c", "type": "electric_scooter", "is_reserved": 0, "lon": -77.01973716666667}, {"fusion_lat": 0.0, "name": "3a9a639801c07eab83114e5fdc8dbd4d", "is_disabled": 0, "rental_uris": {"android": "https://dc.lft.to/lastmile_qr_scan", "ios": "https://dc.lft.to/lastmile_qr_scan"}, "fusion_lon": 0.0, "lat": 38.91618916666667, "bike_id": "3a9a639801c07eab83114e5fdc8dbd4d", "type": "electric_scooter", "is_reserved": 0, "lon": -77.0315625}, {"fusion_lat": 0.0, "name": "3102dd29f179d22883ef55da17a390aa", "is_disabled": 0, "rental_uris": {"android": "https://dc.lft.to/lastmile_qr_scan", "ios": "https://dc.lft.to/lastmile_qr_scan"}, "fusion_lon": 0.0, "lat": 38.916901333333335, "bike_id": "3102dd29f179d22883ef55da17a390aa", "type": "electric_scooter", "is_reserved": 0, "lon": -77.0297815}, {"fusion_lat": 0.0, "name": "425c14f6bc03d3c68b05d3c429114b59", "is_disabled": 0, "rental_uris": {"android": "https://dc.lft.to/lastmile_qr_scan", "ios": "https://dc.lft.to/lastmile_qr_scan"}, "fusion_lon": 0.0, "lat": 38.978778166666665, "bike_id": "425c14f6bc03d3c68b05d3c429114b59", "type": "electric_bike", "is_reserved": 0, "lon": -77.06027566666667}, {"fusion_lat": 0.0, "name": "62348cb46e2d0b6be75e0f595e4feb94", "is_disabled": 0, "rental_uris": {"android": "https://dc.lft.to/lastmile_qr_scan", "ios": "https://dc.lft.to/lastmile_qr_scan"}, "fusion_lon": 0.0, "lat": 38.905807333333335, "bike_id": "62348cb46e2d0b6be75e0f595e4feb94", "type": "electric_scooter", "is_reserved": 0, "lon": -77.00604016666666}, {"fusion_lat": 0.0, "name": "ab3d53e352be265462a14c1bd22693b0", "is_disabled": 0, "rental_uris": {"android": "https://dc.lft.to/lastmile_qr_scan", "ios": "https://dc.lft.to/lastmile_qr_scan"}, "fusion_lon": 0.0, "lat": 38.839336, "bike_id": "ab3d53e352be265462a14c1bd22693b0", "type": "electric_bike", "is_reserved": 0, "lon": -77.0791155}, {"fusion_lat": 0.0, "name": "d2ca5291bd9f7072505e0bac7fe8eb4e", "is_disabled": 0, "rental_uris": {"android": "https://dc.lft.to/lastmile_qr_scan", "ios": "https://dc.lft.to/lastmile_qr_scan"}, "fusion_lon": 0.0, "lat": 38.88271816666666, "bike_id": "d2ca5291bd9f7072505e0bac7fe8eb4e", "type": "electric_scooter", "is_reserved": 0, "lon": -76.99016666666667}, {"fusion_lat": 0.0, "name": "ad89cd821b5beec649539422ad476f5b", "is_disabled": 0, "rental_uris": {"android": "https://dc.lft.to/lastmile_qr_scan", "ios": "https://dc.lft.to/lastmile_qr_scan"}, "fusion_lon": 0.0, "lat": 38.910214, "bike_id": "ad89cd821b5beec649539422ad476f5b", "type": "electric_scooter", "is_reserved": 0, "lon": -77.0448055}, {"fusion_lat": 0.0, "name": "7340d1a8e95fbda9497f53d48dc78f29", "is_disabled": 0, "rental_uris": {"android": "https://dc.lft.to/lastmile_qr_scan", "ios": "https://dc.lft.to/lastmile_qr_scan"}, "fusion_lon": 0.0, "lat": 38.9013795, "bike_id": "7340d1a8e95fbda9497f53d48dc78f29", "type": "electric_scooter", "is_reserved": 0, "lon": -76.98645766666667}, {"fusion_lat": 0.0, "name": "11649f3fdf6962fe602b915c6f16664c", "is_disabled": 0, "rental_uris": {"android": "https://dc.lft.to/lastmile_qr_scan", "ios": "https://dc.lft.to/lastmile_qr_scan"}, "fusion_lon": 0.0, "lat": 38.897990166666666, "bike_id": "11649f3fdf6962fe602b915c6f16664c", "type": "electric_scooter", "is_reserved": 0, "lon": -77.02950233333334}, {"fusion_lat": 0.0, "name": "a3dabc30aab0c410b66b2f3b0788fb15", "is_disabled": 0, "rental_uris": {"android": "https://dc.lft.to/lastmile_qr_scan", "ios": "https://dc.lft.to/lastmile_qr_scan"}, "fusion_lon": 0.0, "lat": 38.90665283333333, "bike_id": "a3dabc30aab0c410b66b2f3b0788fb15", "type": "electric_scooter", "is_reserved": 0, "lon": -77.071285}, {"fusion_lat": 0.0, "name": "9b94c905f047e10d8b3f7a954e61b6ea", "is_disabled": 0, "rental_uris": {"android": "https://dc.lft.to/lastmile_qr_scan", "ios": "https://dc.lft.to/lastmile_qr_scan"}, "fusion_lon": 0.0, "lat": 38.873701, "bike_id": "9b94c905f047e10d8b3f7a954e61b6ea", "type": "electric_scooter", "is_reserved": 0, "lon": -77.00140816666666}, {"fusion_lat": 0.0, "name": "f9981a23c298aa437100009ecb1027c1", "is_disabled": 0, "rental_uris": {"android": "https://dc.lft.to/lastmile_qr_scan", "ios": "https://dc.lft.to/lastmile_qr_scan"}, "fusion_lon": 0.0, "lat": 38.887564166666664, "bike_id": "f9981a23c298aa437100009ecb1027c1", "type": "electric_scooter", "is_reserved": 0, "lon": -77.001714}, {"fusion_lat": 0.0, "name": "77e0cbc0184f05714994df23f4da99d6", "is_disabled": 0, "rental_uris": {"android": "https://dc.lft.to/lastmile_qr_scan", "ios": "https://dc.lft.to/lastmile_qr_scan"}, "fusion_lon": 0.0, "lat": 38.90152, "bike_id": "77e0cbc0184f05714994df23f4da99d6", "type": "electric_scooter", "is_reserved": 0, "lon": -77.029503}, {"fusion_lat": 0.0, "name": "6c8a47d3e112884267b12bd2a8269f90", "is_disabled": 0, "rental_uris": {"android": "https://dc.lft.to/lastmile_qr_scan", "ios": "https://dc.lft.to/lastmile_qr_scan"}, "fusion_lon": 0.0, "lat": 38.88026766666667, "bike_id": "6c8a47d3e112884267b12bd2a8269f90", "type": "electric_scooter", "is_reserved": 0, "lon": -77.02484433333333}, {"fusion_lat": 0.0, "name": "a3495ac6447bf19edf8ae33efff5184a", "is_disabled": 0, "rental_uris": {"android": "https://dc.lft.to/lastmile_qr_scan", "ios": "https://dc.lft.to/lastmile_qr_scan"}, "fusion_lon": 0.0, "lat": 38.92153533333333, "bike_id": "a3495ac6447bf19edf8ae33efff5184a", "type": "electric_scooter", "is_reserved": 0, "lon": -77.02425283333334}, {"fusion_lat": 0.0, "name": "c1f526a0ca4aa84818271cc676442284", "is_disabled": 0, "rental_uris": {"android": "https://dc.lft.to/lastmile_qr_scan", "ios": "https://dc.lft.to/lastmile_qr_scan"}, "fusion_lon": 0.0, "lat": 38.8676435, "bike_id": "c1f526a0ca4aa84818271cc676442284", "type": "electric_scooter", "is_reserved": 0, "lon": -76.98274866666667}, {"fusion_lat": 0.0, "name": "9d24846692feedfa03078f8ecfee60ad", "is_disabled": 0, "rental_uris": {"android": "https://dc.lft.to/lastmile_qr_scan", "ios": "https://dc.lft.to/lastmile_qr_scan"}, "fusion_lon": 0.0, "lat": 38.88989383333333, "bike_id": "9d24846692feedfa03078f8ecfee60ad", "type": "electric_scooter", "is_reserved": 0, "lon": -76.97789}, {"fusion_lat": 0.0, "name": "556339f931fd324ba50f4e190ec078b5", "is_disabled": 0, "rental_uris": {"android": "https://dc.lft.to/lastmile_qr_scan", "ios": "https://dc.lft.to/lastmile_qr_scan"}, "fusion_lon": 0.0, "lat": 38.887107666666665, "bike_id": "556339f931fd324ba50f4e190ec078b5", "type": "electric_scooter", "is_reserved": 0, "lon": -77.0177905}, {"fusion_lat": 0.0, "name": "61f56542f3004d119d56e51da2ede45e", "is_disabled": 0, "rental_uris": {"android": "https://dc.lft.to/lastmile_qr_scan", "ios": "https://dc.lft.to/lastmile_qr_scan"}, "fusion_lon": 0.0, "lat": 38.907919666666665, "bike_id": "61f56542f3004d119d56e51da2ede45e", "type": "electric_scooter", "is_reserved": 0, "lon": -77.0426835}, {"fusion_lat": 0.0, "name": "5da18a81bea2764299827b2ae3167f08", "is_disabled": 0, "rental_uris": {"android": "https://dc.lft.to/lastmile_qr_scan", "ios": "https://dc.lft.to/lastmile_qr_scan"}, "fusion_lon": 0.0, "lat": 38.896207, "bike_id": "5da18a81bea2764299827b2ae3167f08", "type": "electric_scooter", "is_reserved": 0, "lon": -77.00926266666667}, {"fusion_lat": 0.0, "name": "21330deda36d97c32d974d8ebff7d2b3", "is_disabled": 0, "rental_uris": {"android": "https://dc.lft.to/lastmile_qr_scan", "ios": "https://dc.lft.to/lastmile_qr_scan"}, "fusion_lon": 0.0, "lat": 38.917277166666665, "bike_id": "21330deda36d97c32d974d8ebff7d2b3", "type": "electric_scooter", "is_reserved": 0, "lon": -77.04161383333333}, {"fusion_lat": 0.0, "name": "0e31a32d9bf7e3d39c8a243a61ae6b6d", "is_disabled": 0, "rental_uris": {"android": "https://dc.lft.to/lastmile_qr_scan", "ios": "https://dc.lft.to/lastmile_qr_scan"}, "fusion_lon": 0.0, "lat": 38.87708883333333, "bike_id": "0e31a32d9bf7e3d39c8a243a61ae6b6d", "type": "electric_scooter", "is_reserved": 0, "lon": -76.99384483333333}, {"fusion_lat": 0.0, "name": "666689cc5b6492988ecd4d2c655624d4", "is_disabled": 0, "rental_uris": {"android": "https://dc.lft.to/lastmile_qr_scan", "ios": "https://dc.lft.to/lastmile_qr_scan"}, "fusion_lon": 0.0, "lat": 38.898763, "bike_id": "666689cc5b6492988ecd4d2c655624d4", "type": "electric_scooter", "is_reserved": 0, "lon": -76.9318555}, {"fusion_lat": 0.0, "name": "b8dce075b0054ba8968916a5fde1bc29", "is_disabled": 0, "rental_uris": {"android": "https://dc.lft.to/lastmile_qr_scan", "ios": "https://dc.lft.to/lastmile_qr_scan"}, "fusion_lon": 0.0, "lat": 38.886116333333334, "bike_id": "b8dce075b0054ba8968916a5fde1bc29", "type": "electric_scooter", "is_reserved": 0, "lon": -77.01555033333334}, {"fusion_lat": 0.0, "name": "26193c10aa0c7790b19f1118b0f8c670", "is_disabled": 0, "rental_uris": {"android": "https://dc.lft.to/lastmile_qr_scan", "ios": "https://dc.lft.to/lastmile_qr_scan"}, "fusion_lon": 0.0, "lat": 38.92254233333333, "bike_id": "26193c10aa0c7790b19f1118b0f8c670", "type": "electric_scooter", "is_reserved": 0, "lon": -77.0195115}, {"fusion_lat": 0.0, "name": "574ff8a5a739c6f807e355e54a2379e4", "is_disabled": 0, "rental_uris": {"android": "https://dc.lft.to/lastmile_qr_scan", "ios": "https://dc.lft.to/lastmile_qr_scan"}, "fusion_lon": 0.0, "lat": 38.9239795, "bike_id": "574ff8a5a739c6f807e355e54a2379e4", "type": "electric_scooter", "is_reserved": 0, "lon": -77.02484483333333}, {"fusion_lat": 0.0, "name": "50a4c5aab3b522d83dba9b06fd755757", "is_disabled": 0, "rental_uris": {"android": "https://dc.lft.to/lastmile_qr_scan", "ios": "https://dc.lft.to/lastmile_qr_scan"}, "fusion_lon": 0.0, "lat": 38.9005655, "bike_id": "50a4c5aab3b522d83dba9b06fd755757", "type": "electric_scooter", "is_reserved": 0, "lon": -77.0366295}, {"fusion_lat": 0.0, "name": "419692706b1d2812904eeefe3103a761", "is_disabled": 0, "rental_uris": {"android": "https://dc.lft.to/lastmile_qr_scan", "ios": "https://dc.lft.to/lastmile_qr_scan"}, "fusion_lon": 0.0, "lat": 38.8899355, "bike_id": "419692706b1d2812904eeefe3103a761", "type": "electric_scooter", "is_reserved": 0, "lon": -76.98416633333333}, {"fusion_lat": 0.0, "name": "5e219b6b0dd0ef0eaf94016eb4617392", "is_disabled": 0, "rental_uris": {"android": "https://dc.lft.to/lastmile_qr_scan", "ios": "https://dc.lft.to/lastmile_qr_scan"}, "fusion_lon": 0.0, "lat": 38.92796716666667, "bike_id": "5e219b6b0dd0ef0eaf94016eb4617392", "type": "electric_scooter", "is_reserved": 0, "lon": -77.055138}, {"fusion_lat": 0.0, "name": "3d7d8e010b296bd556a08e58e6684044", "is_disabled": 0, "rental_uris": {"android": "https://dc.lft.to/lastmile_qr_scan", "ios": "https://dc.lft.to/lastmile_qr_scan"}, "fusion_lon": 0.0, "lat": 38.91692966666667, "bike_id": "3d7d8e010b296bd556a08e58e6684044", "type": "electric_scooter", "is_reserved": 0, "lon": -77.037707}, {"fusion_lat": 0.0, "name": "96feeecfaba6b9a4310740862dc025f5", "is_disabled": 0, "rental_uris": {"android": "https://dc.lft.to/lastmile_qr_scan", "ios": "https://dc.lft.to/lastmile_qr_scan"}, "fusion_lon": 0.0, "lat": 38.857009, "bike_id": "96feeecfaba6b9a4310740862dc025f5", "type": "electric_scooter", "is_reserved": 0, "lon": -76.99595483333333}, {"fusion_lat": 0.0, "name": "768c1ce4bdc95ab1cb93ea332ea26046", "is_disabled": 0, "rental_uris": {"android": "https://dc.lft.to/lastmile_qr_scan", "ios": "https://dc.lft.to/lastmile_qr_scan"}, "fusion_lon": 0.0, "lat": 38.90625383333333, "bike_id": "768c1ce4bdc95ab1cb93ea332ea26046", "type": "electric_scooter", "is_reserved": 0, "lon": -77.03969183333334}, {"fusion_lat": 0.0, "name": "5fd0b7d8018555a8dff2059647803bcc", "is_disabled": 0, "rental_uris": {"android": "https://dc.lft.to/lastmile_qr_scan", "ios": "https://dc.lft.to/lastmile_qr_scan"}, "fusion_lon": 0.0, "lat": 38.88729166666667, "bike_id": "5fd0b7d8018555a8dff2059647803bcc", "type": "electric_scooter", "is_reserved": 0, "lon": -77.03209833333334}, {"fusion_lat": 0.0, "name": "4a39db11bd48ad445cc674c9fd35ee32", "is_disabled": 0, "rental_uris": {"android": "https://dc.lft.to/lastmile_qr_scan", "ios": "https://dc.lft.to/lastmile_qr_scan"}, "fusion_lon": 0.0, "lat": 38.913871666666665, "bike_id": "4a39db11bd48ad445cc674c9fd35ee32", "type": "electric_scooter", "is_reserved": 0, "lon": -77.03324533333333}, {"fusion_lat": 0.0, "name": "a7a2040f2962d1dfbea9faedcc06b39b", "is_disabled": 0, "rental_uris": {"android": "https://dc.lft.to/lastmile_qr_scan", "ios": "https://dc.lft.to/lastmile_qr_scan"}, "fusion_lon": 0.0, "lat": 38.917964166666664, "bike_id": "a7a2040f2962d1dfbea9faedcc06b39b", "type": "electric_scooter", "is_reserved": 0, "lon": -77.00921083333333}, {"fusion_lat": 0.0, "name": "04275036ca4ea6aaf9d506ed0133c278", "is_disabled": 0, "rental_uris": {"android": "https://dc.lft.to/lastmile_qr_scan", "ios": "https://dc.lft.to/lastmile_qr_scan"}, "fusion_lon": 0.0, "lat": 38.8990525, "bike_id": "04275036ca4ea6aaf9d506ed0133c278", "type": "electric_scooter", "is_reserved": 0, "lon": -77.056788}, {"fusion_lat": 0.0, "name": "2a82e49e99c8a5b83532682eaeec9ff2", "is_disabled": 0, "rental_uris": {"android": "https://dc.lft.to/lastmile_qr_scan", "ios": "https://dc.lft.to/lastmile_qr_scan"}, "fusion_lon": 0.0, "lat": 38.891654833333334, "bike_id": "2a82e49e99c8a5b83532682eaeec9ff2", "type": "electric_scooter", "is_reserved": 0, "lon": -76.99471566666666}, {"fusion_lat": 0.0, "name": "4e16d583447834a388bcaa058f58df42", "is_disabled": 0, "rental_uris": {"android": "https://dc.lft.to/lastmile_qr_scan", "ios": "https://dc.lft.to/lastmile_qr_scan"}, "fusion_lon": 0.0, "lat": 38.93199216666667, "bike_id": "4e16d583447834a388bcaa058f58df42", "type": "electric_scooter", "is_reserved": 0, "lon": -77.0280015}, {"fusion_lat": 0.0, "name": "620593ce8ec05ecb49dedac93c49a782", "is_disabled": 0, "rental_uris": {"android": "https://dc.lft.to/lastmile_qr_scan", "ios": "https://dc.lft.to/lastmile_qr_scan"}, "fusion_lon": 0.0, "lat": 38.899264, "bike_id": "620593ce8ec05ecb49dedac93c49a782", "type": "electric_scooter", "is_reserved": 0, "lon": -77.00356383333333}, {"fusion_lat": 0.0, "name": "2f7f859e4eab8d86712017a5d60d62bb", "is_disabled": 0, "rental_uris": {"android": "https://dc.lft.to/lastmile_qr_scan", "ios": "https://dc.lft.to/lastmile_qr_scan"}, "fusion_lon": 0.0, "lat": 38.956404, "bike_id": "2f7f859e4eab8d86712017a5d60d62bb", "type": "electric_scooter", "is_reserved": 0, "lon": -77.02412616666666}, {"fusion_lat": 0.0, "name": "b805771c39a2ec9f7f3da00352733649", "is_disabled": 0, "rental_uris": {"android": "https://dc.lft.to/lastmile_qr_scan", "ios": "https://dc.lft.to/lastmile_qr_scan"}, "fusion_lon": 0.0, "lat": 38.8952305, "bike_id": "b805771c39a2ec9f7f3da00352733649", "type": "electric_scooter", "is_reserved": 0, "lon": -77.01212316666667}, {"fusion_lat": 0.0, "name": "13d3def320858fe879f1672091dfa4ed", "is_disabled": 0, "rental_uris": {"android": "https://dc.lft.to/lastmile_qr_scan", "ios": "https://dc.lft.to/lastmile_qr_scan"}, "fusion_lon": 0.0, "lat": 38.9168105, "bike_id": "13d3def320858fe879f1672091dfa4ed", "type": "electric_scooter", "is_reserved": 0, "lon": -77.03688816666667}, {"fusion_lat": 0.0, "name": "dec6af2b9534e1830e5bae45389985d4", "is_disabled": 0, "rental_uris": {"android": "https://dc.lft.to/lastmile_qr_scan", "ios": "https://dc.lft.to/lastmile_qr_scan"}, "fusion_lon": 0.0, "lat": 38.89062416666667, "bike_id": "dec6af2b9534e1830e5bae45389985d4", "type": "electric_scooter", "is_reserved": 0, "lon": -76.94460566666666}, {"fusion_lat": 0.0, "name": "eb94e370037f7ffa84fa21ce4542b88f", "is_disabled": 0, "rental_uris": {"android": "https://dc.lft.to/lastmile_qr_scan", "ios": "https://dc.lft.to/lastmile_qr_scan"}, "fusion_lon": 0.0, "lat": 38.93241033333334, "bike_id": "eb94e370037f7ffa84fa21ce4542b88f", "type": "electric_scooter", "is_reserved": 0, "lon": -77.0326685}, {"fusion_lat": 0.0, "name": "71f22abbd95940ca174abe283bea2512", "is_disabled": 0, "rental_uris": {"android": "https://dc.lft.to/lastmile_qr_scan", "ios": "https://dc.lft.to/lastmile_qr_scan"}, "fusion_lon": 0.0, "lat": 38.9012005, "bike_id": "71f22abbd95940ca174abe283bea2512", "type": "electric_scooter", "is_reserved": 0, "lon": -77.06018583333334}, {"fusion_lat": 0.0, "name": "9d8f7b2e522627814aa9bc137210006a", "is_disabled": 0, "rental_uris": {"android": "https://dc.lft.to/lastmile_qr_scan", "ios": "https://dc.lft.to/lastmile_qr_scan"}, "fusion_lon": 0.0, "lat": 38.903539, "bike_id": "9d8f7b2e522627814aa9bc137210006a", "type": "electric_scooter", "is_reserved": 0, "lon": -76.97481166666667}, {"fusion_lat": 0.0, "name": "014a2d711d100e80de6203062ddc3073", "is_disabled": 0, "rental_uris": {"android": "https://dc.lft.to/lastmile_qr_scan", "ios": "https://dc.lft.to/lastmile_qr_scan"}, "fusion_lon": 0.0, "lat": 38.88323466666667, "bike_id": "014a2d711d100e80de6203062ddc3073", "type": "electric_scooter", "is_reserved": 0, "lon": -77.013821}, {"fusion_lat": 0.0, "name": "298ec4293dc91a9be98ed69c4a7145ce", "is_disabled": 0, "rental_uris": {"android": "https://dc.lft.to/lastmile_qr_scan", "ios": "https://dc.lft.to/lastmile_qr_scan"}, "fusion_lon": 0.0, "lat": 38.887396333333335, "bike_id": "298ec4293dc91a9be98ed69c4a7145ce", "type": "electric_scooter", "is_reserved": 0, "lon": -77.01470983333333}, {"fusion_lat": 0.0, "name": "cb7935dfcfeef86c7f0b610fb55b34ad", "is_disabled": 0, "rental_uris": {"android": "https://dc.lft.to/lastmile_qr_scan", "ios": "https://dc.lft.to/lastmile_qr_scan"}, "fusion_lon": 0.0, "lat": 38.909735833333336, "bike_id": "cb7935dfcfeef86c7f0b610fb55b34ad", "type": "electric_scooter", "is_reserved": 0, "lon": -77.04876083333333}, {"fusion_lat": 0.0, "name": "f6a7e6dc08540ff05de03bb20b24aed4", "is_disabled": 0, "rental_uris": {"android": "https://dc.lft.to/lastmile_qr_scan", "ios": "https://dc.lft.to/lastmile_qr_scan"}, "fusion_lon": 0.0, "lat": 38.895221166666666, "bike_id": "f6a7e6dc08540ff05de03bb20b24aed4", "type": "electric_scooter", "is_reserved": 0, "lon": -77.02195033333334}, {"fusion_lat": 0.0, "name": "d2a2a9a97512d811655d70abf6d5bb13", "is_disabled": 0, "rental_uris": {"android": "https://dc.lft.to/lastmile_qr_scan", "ios": "https://dc.lft.to/lastmile_qr_scan"}, "fusion_lon": 0.0, "lat": 38.8922335, "bike_id": "d2a2a9a97512d811655d70abf6d5bb13", "type": "electric_scooter", "is_reserved": 0, "lon": -77.03196016666666}, {"fusion_lat": 0.0, "name": "dc6bc38be509afcc8be05dae1c72a7a0", "is_disabled": 0, "rental_uris": {"android": "https://dc.lft.to/lastmile_qr_scan", "ios": "https://dc.lft.to/lastmile_qr_scan"}, "fusion_lon": 0.0, "lat": 38.92155483333333, "bike_id": "dc6bc38be509afcc8be05dae1c72a7a0", "type": "electric_scooter", "is_reserved": 0, "lon": -77.02976933333333}, {"fusion_lat": 0.0, "name": "d0b981f9e0aa3d3f7eea1f490edf5355", "is_disabled": 0, "rental_uris": {"android": "https://dc.lft.to/lastmile_qr_scan", "ios": "https://dc.lft.to/lastmile_qr_scan"}, "fusion_lon": 0.0, "lat": 38.93529566666667, "bike_id": "d0b981f9e0aa3d3f7eea1f490edf5355", "type": "electric_scooter", "is_reserved": 0, "lon": -77.04516266666667}, {"fusion_lat": 0.0, "name": "02736aa7327afa054ca1090d5f553925", "is_disabled": 0, "rental_uris": {"android": "https://dc.lft.to/lastmile_qr_scan", "ios": "https://dc.lft.to/lastmile_qr_scan"}, "fusion_lon": 0.0, "lat": 38.907280666666665, "bike_id": "02736aa7327afa054ca1090d5f553925", "type": "electric_scooter", "is_reserved": 0, "lon": -77.0095215}, {"fusion_lat": 0.0, "name": "117a1c1211865456f6337bcde6da77eb", "is_disabled": 0, "rental_uris": {"android": "https://dc.lft.to/lastmile_qr_scan", "ios": "https://dc.lft.to/lastmile_qr_scan"}, "fusion_lon": 0.0, "lat": 38.81989183333334, "bike_id": "117a1c1211865456f6337bcde6da77eb", "type": "electric_bike", "is_reserved": 0, "lon": -76.9976575}, {"fusion_lat": 0.0, "name": "d1b17605e8eb0ab96271cd9a81ec3f2b", "is_disabled": 0, "rental_uris": {"android": "https://dc.lft.to/lastmile_qr_scan", "ios": "https://dc.lft.to/lastmile_qr_scan"}, "fusion_lon": 0.0, "lat": 38.951148, "bike_id": "d1b17605e8eb0ab96271cd9a81ec3f2b", "type": "electric_scooter", "is_reserved": 0, "lon": -77.05871233333333}, {"fusion_lat": 0.0, "name": "f58384e4ddfedd7e33b2f9896c41fd3f", "is_disabled": 0, "rental_uris": {"android": "https://dc.lft.to/lastmile_qr_scan", "ios": "https://dc.lft.to/lastmile_qr_scan"}, "fusion_lon": 0.0, "lat": 38.9155805, "bike_id": "f58384e4ddfedd7e33b2f9896c41fd3f", "type": "electric_scooter", "is_reserved": 0, "lon": -77.0347915}, {"fusion_lat": 0.0, "name": "2dc836cbe7e4ba73d96778acb217f3a8", "is_disabled": 0, "rental_uris": {"android": "https://dc.lft.to/lastmile_qr_scan", "ios": "https://dc.lft.to/lastmile_qr_scan"}, "fusion_lon": 0.0, "lat": 38.92298916666667, "bike_id": "2dc836cbe7e4ba73d96778acb217f3a8", "type": "electric_scooter", "is_reserved": 0, "lon": -77.04146216666666}, {"fusion_lat": 0.0, "name": "b68e926c06c37b8891b4ba807d1e3352", "is_disabled": 0, "rental_uris": {"android": "https://dc.lft.to/lastmile_qr_scan", "ios": "https://dc.lft.to/lastmile_qr_scan"}, "fusion_lon": 0.0, "lat": 38.876384, "bike_id": "b68e926c06c37b8891b4ba807d1e3352", "type": "electric_scooter", "is_reserved": 0, "lon": -77.006625}, {"fusion_lat": 0.0, "name": "46493d034cf7ac10cc06c833595b6bad", "is_disabled": 0, "rental_uris": {"android": "https://dc.lft.to/lastmile_qr_scan", "ios": "https://dc.lft.to/lastmile_qr_scan"}, "fusion_lon": 0.0, "lat": 38.864438, "bike_id": "46493d034cf7ac10cc06c833595b6bad", "type": "electric_bike", "is_reserved": 0, "lon": -76.97536033333333}, {"fusion_lat": 0.0, "name": "91948643e177b20230c8e77188c51586", "is_disabled": 0, "rental_uris": {"android": "https://dc.lft.to/lastmile_qr_scan", "ios": "https://dc.lft.to/lastmile_qr_scan"}, "fusion_lon": 0.0, "lat": 38.86626433333333, "bike_id": "91948643e177b20230c8e77188c51586", "type": "electric_scooter", "is_reserved": 0, "lon": -76.98717166666667}, {"fusion_lat": 0.0, "name": "d6eab35e598da869f2e7b125826ca091", "is_disabled": 0, "rental_uris": {"android": "https://dc.lft.to/lastmile_qr_scan", "ios": "https://dc.lft.to/lastmile_qr_scan"}, "fusion_lon": 0.0, "lat": 38.956324333333335, "bike_id": "d6eab35e598da869f2e7b125826ca091", "type": "electric_scooter", "is_reserved": 0, "lon": -77.03280833333334}, {"fusion_lat": 0.0, "name": "2450b797db338351d9cb5d4c13e688fb", "is_disabled": 0, "rental_uris": {"android": "https://dc.lft.to/lastmile_qr_scan", "ios": "https://dc.lft.to/lastmile_qr_scan"}, "fusion_lon": 0.0, "lat": 38.90241, "bike_id": "2450b797db338351d9cb5d4c13e688fb", "type": "electric_scooter", "is_reserved": 0, "lon": -77.002035}, {"fusion_lat": 0.0, "name": "06397044ef5bc6fff9e7cdc2d1b652ec", "is_disabled": 0, "rental_uris": {"android": "https://dc.lft.to/lastmile_qr_scan", "ios": "https://dc.lft.to/lastmile_qr_scan"}, "fusion_lon": 0.0, "lat": 38.907233, "bike_id": "06397044ef5bc6fff9e7cdc2d1b652ec", "type": "electric_scooter", "is_reserved": 0, "lon": -77.06894733333333}, {"fusion_lat": 0.0, "name": "4fb4412e55c0f72ed24816b12df066cd", "is_disabled": 0, "rental_uris": {"android": "https://dc.lft.to/lastmile_qr_scan", "ios": "https://dc.lft.to/lastmile_qr_scan"}, "fusion_lon": 0.0, "lat": 38.9504975, "bike_id": "4fb4412e55c0f72ed24816b12df066cd", "type": "electric_scooter", "is_reserved": 0, "lon": -77.08031716666666}, {"fusion_lat": 0.0, "name": "9f60effc18f99be0de554d448e6ec6ea", "is_disabled": 0, "rental_uris": {"android": "https://dc.lft.to/lastmile_qr_scan", "ios": "https://dc.lft.to/lastmile_qr_scan"}, "fusion_lon": 0.0, "lat": 38.9077155, "bike_id": "9f60effc18f99be0de554d448e6ec6ea", "type": "electric_scooter", "is_reserved": 0, "lon": -77.03859833333334}, {"fusion_lat": 0.0, "name": "1d1f37d611e42a006cdb3b9c74195fe5", "is_disabled": 0, "rental_uris": {"android": "https://dc.lft.to/lastmile_qr_scan", "ios": "https://dc.lft.to/lastmile_qr_scan"}, "fusion_lon": 0.0, "lat": 38.91810983333333, "bike_id": "1d1f37d611e42a006cdb3b9c74195fe5", "type": "electric_scooter", "is_reserved": 0, "lon": -77.03196933333334}, {"fusion_lat": 0.0, "name": "b94d3a94e452d13a08aa6406ef712a64", "is_disabled": 0, "rental_uris": {"android": "https://dc.lft.to/lastmile_qr_scan", "ios": "https://dc.lft.to/lastmile_qr_scan"}, "fusion_lon": 0.0, "lat": 38.87931616666667, "bike_id": "b94d3a94e452d13a08aa6406ef712a64", "type": "electric_scooter", "is_reserved": 0, "lon": -77.007812}, {"fusion_lat": 0.0, "name": "be9546c9ca21ee3598db78712545a503", "is_disabled": 0, "rental_uris": {"android": "https://dc.lft.to/lastmile_qr_scan", "ios": "https://dc.lft.to/lastmile_qr_scan"}, "fusion_lon": 0.0, "lat": 38.907359, "bike_id": "be9546c9ca21ee3598db78712545a503", "type": "electric_scooter", "is_reserved": 0, "lon": -77.00060866666666}, {"fusion_lat": 0.0, "name": "0b4805c9bc36f9eecbd3260f07a3081f", "is_disabled": 0, "rental_uris": {"android": "https://dc.lft.to/lastmile_qr_scan", "ios": "https://dc.lft.to/lastmile_qr_scan"}, "fusion_lon": 0.0, "lat": 38.865144666666666, "bike_id": "0b4805c9bc36f9eecbd3260f07a3081f", "type": "electric_bike", "is_reserved": 0, "lon": -77.12942533333333}, {"fusion_lat": 0.0, "name": "02c52c12ba60a52c3e79c45479c28d7d", "is_disabled": 0, "rental_uris": {"android": "https://dc.lft.to/lastmile_qr_scan", "ios": "https://dc.lft.to/lastmile_qr_scan"}, "fusion_lon": 0.0, "lat": 38.916858500000004, "bike_id": "02c52c12ba60a52c3e79c45479c28d7d", "type": "electric_scooter", "is_reserved": 0, "lon": -77.03633733333334}, {"fusion_lat": 0.0, "name": "ab7fa303738874679d0e41c631d71ebc", "is_disabled": 0, "rental_uris": {"android": "https://dc.lft.to/lastmile_qr_scan", "ios": "https://dc.lft.to/lastmile_qr_scan"}, "fusion_lon": 0.0, "lat": 38.90261066666667, "bike_id": "ab7fa303738874679d0e41c631d71ebc", "type": "electric_scooter", "is_reserved": 0, "lon": -77.0274005}, {"fusion_lat": 0.0, "name": "04d785199ac5c3abea8790a9e848341d", "is_disabled": 0, "rental_uris": {"android": "https://dc.lft.to/lastmile_qr_scan", "ios": "https://dc.lft.to/lastmile_qr_scan"}, "fusion_lon": 0.0, "lat": 38.93816533333333, "bike_id": "04d785199ac5c3abea8790a9e848341d", "type": "electric_scooter", "is_reserved": 0, "lon": -77.06021883333334}, {"fusion_lat": 0.0, "name": "fe21e5316f898caee83b35f5ca0f5b63", "is_disabled": 0, "rental_uris": {"android": "https://dc.lft.to/lastmile_qr_scan", "ios": "https://dc.lft.to/lastmile_qr_scan"}, "fusion_lon": 0.0, "lat": 38.902216, "bike_id": "fe21e5316f898caee83b35f5ca0f5b63", "type": "electric_scooter", "is_reserved": 0, "lon": -76.9950695}, {"fusion_lat": 0.0, "name": "833d80ee6533f3fe5f84d253ed204189", "is_disabled": 0, "rental_uris": {"android": "https://dc.lft.to/lastmile_qr_scan", "ios": "https://dc.lft.to/lastmile_qr_scan"}, "fusion_lon": 0.0, "lat": 38.933955, "bike_id": "833d80ee6533f3fe5f84d253ed204189", "type": "electric_scooter", "is_reserved": 0, "lon": -77.05771216666666}, {"fusion_lat": 0.0, "name": "27270b29bd223b043502996de3e5cbe3", "is_disabled": 0, "rental_uris": {"android": "https://dc.lft.to/lastmile_qr_scan", "ios": "https://dc.lft.to/lastmile_qr_scan"}, "fusion_lon": 0.0, "lat": 38.9069285, "bike_id": "27270b29bd223b043502996de3e5cbe3", "type": "electric_scooter", "is_reserved": 0, "lon": -77.06130416666667}, {"fusion_lat": 0.0, "name": "06eb4fa3b538b4fec61fcc7f5ea6262e", "is_disabled": 0, "rental_uris": {"android": "https://dc.lft.to/lastmile_qr_scan", "ios": "https://dc.lft.to/lastmile_qr_scan"}, "fusion_lon": 0.0, "lat": 38.924168, "bike_id": "06eb4fa3b538b4fec61fcc7f5ea6262e", "type": "electric_scooter", "is_reserved": 0, "lon": -76.99625716666667}, {"fusion_lat": 0.0, "name": "b3bda4c0466912af5938a064dd9bde3d", "is_disabled": 0, "rental_uris": {"android": "https://dc.lft.to/lastmile_qr_scan", "ios": "https://dc.lft.to/lastmile_qr_scan"}, "fusion_lon": 0.0, "lat": 38.898398, "bike_id": "b3bda4c0466912af5938a064dd9bde3d", "type": "electric_scooter", "is_reserved": 0, "lon": -77.01337883333333}, {"fusion_lat": 0.0, "name": "fbf27140a5c509aabd5fe789761bddec", "is_disabled": 0, "rental_uris": {"android": "https://dc.lft.to/lastmile_qr_scan", "ios": "https://dc.lft.to/lastmile_qr_scan"}, "fusion_lon": 0.0, "lat": 38.88300483333333, "bike_id": "fbf27140a5c509aabd5fe789761bddec", "type": "electric_scooter", "is_reserved": 0, "lon": -76.94862166666667}, {"fusion_lat": 0.0, "name": "a76ab9b4e70e56b9017a0fad573d18c1", "is_disabled": 0, "rental_uris": {"android": "https://dc.lft.to/lastmile_qr_scan", "ios": "https://dc.lft.to/lastmile_qr_scan"}, "fusion_lon": 0.0, "lat": 38.88428183333333, "bike_id": "a76ab9b4e70e56b9017a0fad573d18c1", "type": "electric_scooter", "is_reserved": 0, "lon": -76.95758116666667}, {"fusion_lat": 0.0, "name": "674a2811cab5ee6dc1ffa1ce58d67410", "is_disabled": 0, "rental_uris": {"android": "https://dc.lft.to/lastmile_qr_scan", "ios": "https://dc.lft.to/lastmile_qr_scan"}, "fusion_lon": 0.0, "lat": 38.916043333333334, "bike_id": "674a2811cab5ee6dc1ffa1ce58d67410", "type": "electric_scooter", "is_reserved": 0, "lon": -77.03210483333334}, {"fusion_lat": 0.0, "name": "5b0734f92bf7b7ef49ed7742eebf981e", "is_disabled": 0, "rental_uris": {"android": "https://dc.lft.to/lastmile_qr_scan", "ios": "https://dc.lft.to/lastmile_qr_scan"}, "fusion_lon": 0.0, "lat": 38.925179, "bike_id": "5b0734f92bf7b7ef49ed7742eebf981e", "type": "electric_scooter", "is_reserved": 0, "lon": -77.02290666666667}, {"fusion_lat": 0.0, "name": "1f33523e7fd42e053b08126bfc20a16b", "is_disabled": 0, "rental_uris": {"android": "https://dc.lft.to/lastmile_qr_scan", "ios": "https://dc.lft.to/lastmile_qr_scan"}, "fusion_lon": 0.0, "lat": 38.935779333333336, "bike_id": "1f33523e7fd42e053b08126bfc20a16b", "type": "electric_scooter", "is_reserved": 0, "lon": -77.028471}, {"fusion_lat": 0.0, "name": "f48ce5e92f8b57c42e29864892031523", "is_disabled": 0, "rental_uris": {"android": "https://dc.lft.to/lastmile_qr_scan", "ios": "https://dc.lft.to/lastmile_qr_scan"}, "fusion_lon": 0.0, "lat": 38.9522295, "bike_id": "f48ce5e92f8b57c42e29864892031523", "type": "electric_scooter", "is_reserved": 0, "lon": -77.08220216666666}, {"fusion_lat": 0.0, "name": "221c3d3827d29cf0a644bb024ffa1770", "is_disabled": 0, "rental_uris": {"android": "https://dc.lft.to/lastmile_qr_scan", "ios": "https://dc.lft.to/lastmile_qr_scan"}, "fusion_lon": 0.0, "lat": 38.920807333333336, "bike_id": "221c3d3827d29cf0a644bb024ffa1770", "type": "electric_scooter", "is_reserved": 0, "lon": -76.9944975}, {"fusion_lat": 0.0, "name": "8caa50b5e8a7be4a72a861d91fcd06d8", "is_disabled": 0, "rental_uris": {"android": "https://dc.lft.to/lastmile_qr_scan", "ios": "https://dc.lft.to/lastmile_qr_scan"}, "fusion_lon": 0.0, "lat": 38.8934025, "bike_id": "8caa50b5e8a7be4a72a861d91fcd06d8", "type": "electric_scooter", "is_reserved": 0, "lon": -77.04674016666667}, {"fusion_lat": 0.0, "name": "a28f4de1786fbb75c230111a004d7e90", "is_disabled": 0, "rental_uris": {"android": "https://dc.lft.to/lastmile_qr_scan", "ios": "https://dc.lft.to/lastmile_qr_scan"}, "fusion_lon": 0.0, "lat": 38.8838395, "bike_id": "a28f4de1786fbb75c230111a004d7e90", "type": "electric_scooter", "is_reserved": 0, "lon": -77.04609383333333}, {"fusion_lat": 0.0, "name": "f88628d75cd1c738f6458b62c1b2c7e2", "is_disabled": 0, "rental_uris": {"android": "https://dc.lft.to/lastmile_qr_scan", "ios": "https://dc.lft.to/lastmile_qr_scan"}, "fusion_lon": 0.0, "lat": 38.91994233333333, "bike_id": "f88628d75cd1c738f6458b62c1b2c7e2", "type": "electric_scooter", "is_reserved": 0, "lon": -77.07189333333334}, {"fusion_lat": 0.0, "name": "378ba0ac38be428936a04a0fb13f06a7", "is_disabled": 0, "rental_uris": {"android": "https://dc.lft.to/lastmile_qr_scan", "ios": "https://dc.lft.to/lastmile_qr_scan"}, "fusion_lon": 0.0, "lat": 38.854122333333336, "bike_id": "378ba0ac38be428936a04a0fb13f06a7", "type": "electric_bike", "is_reserved": 0, "lon": -77.12082516666666}, {"fusion_lat": 0.0, "name": "46d58ae71b3b4fb75d80a5a734847832", "is_disabled": 0, "rental_uris": {"android": "https://dc.lft.to/lastmile_qr_scan", "ios": "https://dc.lft.to/lastmile_qr_scan"}, "fusion_lon": 0.0, "lat": 38.923064, "bike_id": "46d58ae71b3b4fb75d80a5a734847832", "type": "electric_bike", "is_reserved": 0, "lon": -76.99394816666667}, {"fusion_lat": 0.0, "name": "027aeb725c06aafe11fca187f193167d", "is_disabled": 0, "rental_uris": {"android": "https://dc.lft.to/lastmile_qr_scan", "ios": "https://dc.lft.to/lastmile_qr_scan"}, "fusion_lon": 0.0, "lat": 38.90154783333333, "bike_id": "027aeb725c06aafe11fca187f193167d", "type": "electric_scooter", "is_reserved": 0, "lon": -77.0538845}, {"fusion_lat": 0.0, "name": "0eada621a8d4bfc23e34ba9ea1ca6dd0", "is_disabled": 0, "rental_uris": {"android": "https://dc.lft.to/lastmile_qr_scan", "ios": "https://dc.lft.to/lastmile_qr_scan"}, "fusion_lon": 0.0, "lat": 38.9497885, "bike_id": "0eada621a8d4bfc23e34ba9ea1ca6dd0", "type": "electric_scooter", "is_reserved": 0, "lon": -77.024881}, {"fusion_lat": 0.0, "name": "df7700c194596ebc78716f7dcadd2338", "is_disabled": 0, "rental_uris": {"android": "https://dc.lft.to/lastmile_qr_scan", "ios": "https://dc.lft.to/lastmile_qr_scan"}, "fusion_lon": 0.0, "lat": 38.98549716666667, "bike_id": "df7700c194596ebc78716f7dcadd2338", "type": "electric_bike", "is_reserved": 0, "lon": -77.00400316666666}, {"fusion_lat": 0.0, "name": "ca41e03a945fa9535dce85c4160664d9", "is_disabled": 0, "rental_uris": {"android": "https://dc.lft.to/lastmile_qr_scan", "ios": "https://dc.lft.to/lastmile_qr_scan"}, "fusion_lon": 0.0, "lat": 38.9247345, "bike_id": "ca41e03a945fa9535dce85c4160664d9", "type": "electric_scooter", "is_reserved": 0, "lon": -77.04458116666666}, {"fusion_lat": 0.0, "name": "39eb1556ccc0ade999218022056a95f3", "is_disabled": 0, "rental_uris": {"android": "https://dc.lft.to/lastmile_qr_scan", "ios": "https://dc.lft.to/lastmile_qr_scan"}, "fusion_lon": 0.0, "lat": 38.8998815, "bike_id": "39eb1556ccc0ade999218022056a95f3", "type": "electric_scooter", "is_reserved": 0, "lon": -76.98440116666667}, {"fusion_lat": 0.0, "name": "f71766e9cbc5d4d74bfd1b14903be604", "is_disabled": 0, "rental_uris": {"android": "https://dc.lft.to/lastmile_qr_scan", "ios": "https://dc.lft.to/lastmile_qr_scan"}, "fusion_lon": 0.0, "lat": 38.900326666666665, "bike_id": "f71766e9cbc5d4d74bfd1b14903be604", "type": "electric_scooter", "is_reserved": 0, "lon": -77.00180583333334}, {"fusion_lat": 0.0, "name": "c7b9e8c88d8ae9a425cdd7d19d45c7b1", "is_disabled": 0, "rental_uris": {"android": "https://dc.lft.to/lastmile_qr_scan", "ios": "https://dc.lft.to/lastmile_qr_scan"}, "fusion_lon": 0.0, "lat": 38.884327666666664, "bike_id": "c7b9e8c88d8ae9a425cdd7d19d45c7b1", "type": "electric_scooter", "is_reserved": 0, "lon": -77.02597516666667}, {"fusion_lat": 0.0, "name": "0079293878145936f7c9fd667f6f6213", "is_disabled": 0, "rental_uris": {"android": "https://dc.lft.to/lastmile_qr_scan", "ios": "https://dc.lft.to/lastmile_qr_scan"}, "fusion_lon": 0.0, "lat": 38.905317333333336, "bike_id": "0079293878145936f7c9fd667f6f6213", "type": "electric_scooter", "is_reserved": 0, "lon": -77.05936883333334}, {"fusion_lat": 0.0, "name": "d0b5d2959f3c0158941ca7c33367f26b", "is_disabled": 0, "rental_uris": {"android": "https://dc.lft.to/lastmile_qr_scan", "ios": "https://dc.lft.to/lastmile_qr_scan"}, "fusion_lon": 0.0, "lat": 38.91685066666667, "bike_id": "d0b5d2959f3c0158941ca7c33367f26b", "type": "electric_scooter", "is_reserved": 0, "lon": -77.041449}, {"fusion_lat": 0.0, "name": "8fa1c03c91eea154f03992d5941357f2", "is_disabled": 0, "rental_uris": {"android": "https://dc.lft.to/lastmile_qr_scan", "ios": "https://dc.lft.to/lastmile_qr_scan"}, "fusion_lon": 0.0, "lat": 38.929842, "bike_id": "8fa1c03c91eea154f03992d5941357f2", "type": "electric_scooter", "is_reserved": 0, "lon": -77.025284}, {"fusion_lat": 0.0, "name": "01ed316ccaabccfe060fc4eaf33ed2c9", "is_disabled": 0, "rental_uris": {"android": "https://dc.lft.to/lastmile_qr_scan", "ios": "https://dc.lft.to/lastmile_qr_scan"}, "fusion_lon": 0.0, "lat": 38.92361916666667, "bike_id": "01ed316ccaabccfe060fc4eaf33ed2c9", "type": "electric_scooter", "is_reserved": 0, "lon": -77.0431865}, {"fusion_lat": 0.0, "name": "fc81f059eab42843f239ef3092fb7795", "is_disabled": 0, "rental_uris": {"android": "https://dc.lft.to/lastmile_qr_scan", "ios": "https://dc.lft.to/lastmile_qr_scan"}, "fusion_lon": 0.0, "lat": 39.036047833333335, "bike_id": "fc81f059eab42843f239ef3092fb7795", "type": "electric_bike", "is_reserved": 0, "lon": -77.055481}, {"fusion_lat": 0.0, "name": "dc58a5c06839870ea6352c8bc9a79989", "is_disabled": 0, "rental_uris": {"android": "https://dc.lft.to/lastmile_qr_scan", "ios": "https://dc.lft.to/lastmile_qr_scan"}, "fusion_lon": 0.0, "lat": 38.90858883333333, "bike_id": "dc58a5c06839870ea6352c8bc9a79989", "type": "electric_scooter", "is_reserved": 0, "lon": -77.04249083333333}, {"fusion_lat": 0.0, "name": "aac126e55b4f374dc7b2a972d0e26632", "is_disabled": 0, "rental_uris": {"android": "https://dc.lft.to/lastmile_qr_scan", "ios": "https://dc.lft.to/lastmile_qr_scan"}, "fusion_lon": 0.0, "lat": 38.916482, "bike_id": "aac126e55b4f374dc7b2a972d0e26632", "type": "electric_scooter", "is_reserved": 0, "lon": -77.04802683333334}, {"fusion_lat": 0.0, "name": "a5dcc801fa50a03e5856419fcc5633d7", "is_disabled": 0, "rental_uris": {"android": "https://dc.lft.to/lastmile_qr_scan", "ios": "https://dc.lft.to/lastmile_qr_scan"}, "fusion_lon": 0.0, "lat": 38.93517666666666, "bike_id": "a5dcc801fa50a03e5856419fcc5633d7", "type": "electric_scooter", "is_reserved": 0, "lon": -77.03345983333334}, {"fusion_lat": 0.0, "name": "3be120bfec03ca146c0045ebc8b7af8f", "is_disabled": 0, "rental_uris": {"android": "https://dc.lft.to/lastmile_qr_scan", "ios": "https://dc.lft.to/lastmile_qr_scan"}, "fusion_lon": 0.0, "lat": 38.87908183333333, "bike_id": "3be120bfec03ca146c0045ebc8b7af8f", "type": "electric_scooter", "is_reserved": 0, "lon": -77.022981}, {"fusion_lat": 0.0, "name": "13e13e585012175d6608f48ebf49407b", "is_disabled": 0, "rental_uris": {"android": "https://dc.lft.to/lastmile_qr_scan", "ios": "https://dc.lft.to/lastmile_qr_scan"}, "fusion_lon": 0.0, "lat": 38.90965966666667, "bike_id": "13e13e585012175d6608f48ebf49407b", "type": "electric_scooter", "is_reserved": 0, "lon": -77.04458716666667}, {"fusion_lat": 0.0, "name": "4f6b245d3ba3af5d778edac054334843", "is_disabled": 0, "rental_uris": {"android": "https://dc.lft.to/lastmile_qr_scan", "ios": "https://dc.lft.to/lastmile_qr_scan"}, "fusion_lon": 0.0, "lat": 38.922470833333335, "bike_id": "4f6b245d3ba3af5d778edac054334843", "type": "electric_scooter", "is_reserved": 0, "lon": -77.07477016666667}, {"fusion_lat": 0.0, "name": "0eb9019aaaf8ec76cb2a8de85739de25", "is_disabled": 0, "rental_uris": {"android": "https://dc.lft.to/lastmile_qr_scan", "ios": "https://dc.lft.to/lastmile_qr_scan"}, "fusion_lon": 0.0, "lat": 38.93194, "bike_id": "0eb9019aaaf8ec76cb2a8de85739de25", "type": "electric_bike", "is_reserved": 0, "lon": -77.22931016666666}, {"fusion_lat": 0.0, "name": "9dfd9eeb30743bfbaf8dee344f951fca", "is_disabled": 0, "rental_uris": {"android": "https://dc.lft.to/lastmile_qr_scan", "ios": "https://dc.lft.to/lastmile_qr_scan"}, "fusion_lon": 0.0, "lat": 38.92070366666667, "bike_id": "9dfd9eeb30743bfbaf8dee344f951fca", "type": "electric_scooter", "is_reserved": 0, "lon": -77.042604}, {"fusion_lat": 0.0, "name": "51bfa015ad62e92d925501a7c7894e7f", "is_disabled": 0, "rental_uris": {"android": "https://dc.lft.to/lastmile_qr_scan", "ios": "https://dc.lft.to/lastmile_qr_scan"}, "fusion_lon": 0.0, "lat": 38.90088883333333, "bike_id": "51bfa015ad62e92d925501a7c7894e7f", "type": "electric_scooter", "is_reserved": 0, "lon": -77.05832583333333}, {"fusion_lat": 0.0, "name": "2975a554d67257b9f9c3fd1ec38eb7ab", "is_disabled": 0, "rental_uris": {"android": "https://dc.lft.to/lastmile_qr_scan", "ios": "https://dc.lft.to/lastmile_qr_scan"}, "fusion_lon": 0.0, "lat": 38.866260833333335, "bike_id": "2975a554d67257b9f9c3fd1ec38eb7ab", "type": "electric_scooter", "is_reserved": 0, "lon": -76.98719583333333}, {"fusion_lat": 0.0, "name": "ae12505d32555672b890a20bf819fb50", "is_disabled": 0, "rental_uris": {"android": "https://dc.lft.to/lastmile_qr_scan", "ios": "https://dc.lft.to/lastmile_qr_scan"}, "fusion_lon": 0.0, "lat": 38.924191, "bike_id": "ae12505d32555672b890a20bf819fb50", "type": "electric_scooter", "is_reserved": 0, "lon": -77.02010933333334}, {"fusion_lat": 0.0, "name": "06a67f45e1306562963cbad4b45e5518", "is_disabled": 0, "rental_uris": {"android": "https://dc.lft.to/lastmile_qr_scan", "ios": "https://dc.lft.to/lastmile_qr_scan"}, "fusion_lon": 0.0, "lat": 38.887245166666666, "bike_id": "06a67f45e1306562963cbad4b45e5518", "type": "electric_scooter", "is_reserved": 0, "lon": -76.98359333333333}, {"fusion_lat": 0.0, "name": "b360eec710d85934f3ca71e4d87f9c37", "is_disabled": 0, "rental_uris": {"android": "https://dc.lft.to/lastmile_qr_scan", "ios": "https://dc.lft.to/lastmile_qr_scan"}, "fusion_lon": 0.0, "lat": 38.911208, "bike_id": "b360eec710d85934f3ca71e4d87f9c37", "type": "electric_scooter", "is_reserved": 0, "lon": -77.02240983333333}, {"fusion_lat": 0.0, "name": "50393e59844a45379beb506b3cfc1a60", "is_disabled": 0, "rental_uris": {"android": "https://dc.lft.to/lastmile_qr_scan", "ios": "https://dc.lft.to/lastmile_qr_scan"}, "fusion_lon": 0.0, "lat": 38.94451, "bike_id": "50393e59844a45379beb506b3cfc1a60", "type": "electric_scooter", "is_reserved": 0, "lon": -77.02342}, {"fusion_lat": 0.0, "name": "f9d6eb7c0c91ff8f97d2a65b15089df9", "is_disabled": 0, "rental_uris": {"android": "https://dc.lft.to/lastmile_qr_scan", "ios": "https://dc.lft.to/lastmile_qr_scan"}, "fusion_lon": 0.0, "lat": 38.902775166666665, "bike_id": "f9d6eb7c0c91ff8f97d2a65b15089df9", "type": "electric_scooter", "is_reserved": 0, "lon": -77.04378816666667}, {"fusion_lat": 0.0, "name": "6dfd0162318c5ea8805c3f450a656420", "is_disabled": 0, "rental_uris": {"android": "https://dc.lft.to/lastmile_qr_scan", "ios": "https://dc.lft.to/lastmile_qr_scan"}, "fusion_lon": 0.0, "lat": 38.9314365, "bike_id": "6dfd0162318c5ea8805c3f450a656420", "type": "electric_scooter", "is_reserved": 0, "lon": -77.07846883333333}, {"fusion_lat": 0.0, "name": "0fee22902858f862770c3d5d598b8138", "is_disabled": 0, "rental_uris": {"android": "https://dc.lft.to/lastmile_qr_scan", "ios": "https://dc.lft.to/lastmile_qr_scan"}, "fusion_lon": 0.0, "lat": 38.91107933333333, "bike_id": "0fee22902858f862770c3d5d598b8138", "type": "electric_scooter", "is_reserved": 0, "lon": -77.01762683333334}, {"fusion_lat": 0.0, "name": "7922de2f37fe6410a2946d81fcfef83e", "is_disabled": 0, "rental_uris": {"android": "https://dc.lft.to/lastmile_qr_scan", "ios": "https://dc.lft.to/lastmile_qr_scan"}, "fusion_lon": 0.0, "lat": 38.94949883333334, "bike_id": "7922de2f37fe6410a2946d81fcfef83e", "type": "electric_bike", "is_reserved": 0, "lon": -77.06656066666666}, {"fusion_lat": 0.0, "name": "9e0ce72d1038cf6b34fae531d87cbab9", "is_disabled": 0, "rental_uris": {"android": "https://dc.lft.to/lastmile_qr_scan", "ios": "https://dc.lft.to/lastmile_qr_scan"}, "fusion_lon": 0.0, "lat": 38.9589325, "bike_id": "9e0ce72d1038cf6b34fae531d87cbab9", "type": "electric_scooter", "is_reserved": 0, "lon": -77.0274255}, {"fusion_lat": 0.0, "name": "98fe9f44e21f6b766342d26a13fba6b5", "is_disabled": 0, "rental_uris": {"android": "https://dc.lft.to/lastmile_qr_scan", "ios": "https://dc.lft.to/lastmile_qr_scan"}, "fusion_lon": 0.0, "lat": 38.8871775, "bike_id": "98fe9f44e21f6b766342d26a13fba6b5", "type": "electric_scooter", "is_reserved": 0, "lon": -77.017795}, {"fusion_lat": 0.0, "name": "84b1a2fd9e9c9d663da0a0c6d50f848b", "is_disabled": 0, "rental_uris": {"android": "https://dc.lft.to/lastmile_qr_scan", "ios": "https://dc.lft.to/lastmile_qr_scan"}, "fusion_lon": 0.0, "lat": 38.903906, "bike_id": "84b1a2fd9e9c9d663da0a0c6d50f848b", "type": "electric_scooter", "is_reserved": 0, "lon": -77.06709966666666}, {"fusion_lat": 0.0, "name": "58b04d8acd28c372cb5fe2948d9ca850", "is_disabled": 0, "rental_uris": {"android": "https://dc.lft.to/lastmile_qr_scan", "ios": "https://dc.lft.to/lastmile_qr_scan"}, "fusion_lon": 0.0, "lat": 38.813320833333336, "bike_id": "58b04d8acd28c372cb5fe2948d9ca850", "type": "electric_bike", "is_reserved": 0, "lon": -77.0509015}, {"fusion_lat": 0.0, "name": "f5ac09cc998da25e27d6fb2cc2da29c3", "is_disabled": 0, "rental_uris": {"android": "https://dc.lft.to/lastmile_qr_scan", "ios": "https://dc.lft.to/lastmile_qr_scan"}, "fusion_lon": 0.0, "lat": 38.90888133333333, "bike_id": "f5ac09cc998da25e27d6fb2cc2da29c3", "type": "electric_scooter", "is_reserved": 0, "lon": -77.04469983333334}, {"fusion_lat": 0.0, "name": "e45ff974af198798ef48a8f79c52612a", "is_disabled": 0, "rental_uris": {"android": "https://dc.lft.to/lastmile_qr_scan", "ios": "https://dc.lft.to/lastmile_qr_scan"}, "fusion_lon": 0.0, "lat": 38.8839095, "bike_id": "e45ff974af198798ef48a8f79c52612a", "type": "electric_scooter", "is_reserved": 0, "lon": -76.93051633333333}, {"fusion_lat": 0.0, "name": "c2776d67d4f549bef84ca87ec347a632", "is_disabled": 0, "rental_uris": {"android": "https://dc.lft.to/lastmile_qr_scan", "ios": "https://dc.lft.to/lastmile_qr_scan"}, "fusion_lon": 0.0, "lat": 38.921381, "bike_id": "c2776d67d4f549bef84ca87ec347a632", "type": "electric_scooter", "is_reserved": 0, "lon": -77.01792433333334}, {"fusion_lat": 0.0, "name": "537b3aca6172e2b3b42e0f811d80f671", "is_disabled": 0, "rental_uris": {"android": "https://dc.lft.to/lastmile_qr_scan", "ios": "https://dc.lft.to/lastmile_qr_scan"}, "fusion_lon": 0.0, "lat": 38.89905783333333, "bike_id": "537b3aca6172e2b3b42e0f811d80f671", "type": "electric_scooter", "is_reserved": 0, "lon": -76.93357083333333}, {"fusion_lat": 0.0, "name": "b37cd89476a0e3480221cc0295db77b5", "is_disabled": 0, "rental_uris": {"android": "https://dc.lft.to/lastmile_qr_scan", "ios": "https://dc.lft.to/lastmile_qr_scan"}, "fusion_lon": 0.0, "lat": 38.91693733333334, "bike_id": "b37cd89476a0e3480221cc0295db77b5", "type": "electric_scooter", "is_reserved": 0, "lon": -77.03234733333333}, {"fusion_lat": 0.0, "name": "20d8006e6af515b3a37bc46c9a17fb86", "is_disabled": 0, "rental_uris": {"android": "https://dc.lft.to/lastmile_qr_scan", "ios": "https://dc.lft.to/lastmile_qr_scan"}, "fusion_lon": 0.0, "lat": 38.875756333333335, "bike_id": "20d8006e6af515b3a37bc46c9a17fb86", "type": "electric_bike", "is_reserved": 0, "lon": -77.23410316666667}, {"fusion_lat": 0.0, "name": "7c16c4d2fc981fca46c81b10a578bfce", "is_disabled": 0, "rental_uris": {"android": "https://dc.lft.to/lastmile_qr_scan", "ios": "https://dc.lft.to/lastmile_qr_scan"}, "fusion_lon": 0.0, "lat": 38.95052883333334, "bike_id": "7c16c4d2fc981fca46c81b10a578bfce", "type": "electric_scooter", "is_reserved": 0, "lon": -77.08028566666667}, {"fusion_lat": 0.0, "name": "fbd1e1c10ae74fef9fa7f46a76c50997", "is_disabled": 0, "rental_uris": {"android": "https://dc.lft.to/lastmile_qr_scan", "ios": "https://dc.lft.to/lastmile_qr_scan"}, "fusion_lon": 0.0, "lat": 38.919459833333335, "bike_id": "fbd1e1c10ae74fef9fa7f46a76c50997", "type": "electric_scooter", "is_reserved": 0, "lon": -77.02495816666666}, {"fusion_lat": 0.0, "name": "ef3d53fdf46762939d52c194bb53e3e0", "is_disabled": 0, "rental_uris": {"android": "https://dc.lft.to/lastmile_qr_scan", "ios": "https://dc.lft.to/lastmile_qr_scan"}, "fusion_lon": 0.0, "lat": 38.8852355, "bike_id": "ef3d53fdf46762939d52c194bb53e3e0", "type": "electric_scooter", "is_reserved": 0, "lon": -76.92924633333334}, {"fusion_lat": 0.0, "name": "b04b31f24165590e4d64af4a5e12bb8d", "is_disabled": 0, "rental_uris": {"android": "https://dc.lft.to/lastmile_qr_scan", "ios": "https://dc.lft.to/lastmile_qr_scan"}, "fusion_lon": 0.0, "lat": 38.91692666666667, "bike_id": "b04b31f24165590e4d64af4a5e12bb8d", "type": "electric_scooter", "is_reserved": 0, "lon": -77.02599116666667}, {"fusion_lat": 0.0, "name": "622ad92034cfb73c289ab58f66d8ec3a", "is_disabled": 0, "rental_uris": {"android": "https://dc.lft.to/lastmile_qr_scan", "ios": "https://dc.lft.to/lastmile_qr_scan"}, "fusion_lon": 0.0, "lat": 38.89912416666667, "bike_id": "622ad92034cfb73c289ab58f66d8ec3a", "type": "electric_scooter", "is_reserved": 0, "lon": -76.945885}, {"fusion_lat": 0.0, "name": "23021fb429fbbf2d3b18dd55a234ed79", "is_disabled": 0, "rental_uris": {"android": "https://dc.lft.to/lastmile_qr_scan", "ios": "https://dc.lft.to/lastmile_qr_scan"}, "fusion_lon": 0.0, "lat": 38.89753666666667, "bike_id": "23021fb429fbbf2d3b18dd55a234ed79", "type": "electric_scooter", "is_reserved": 0, "lon": -77.02793416666667}, {"fusion_lat": 0.0, "name": "27b657f4dd8f0ebc3ad3d7ad31f31763", "is_disabled": 0, "rental_uris": {"android": "https://dc.lft.to/lastmile_qr_scan", "ios": "https://dc.lft.to/lastmile_qr_scan"}, "fusion_lon": 0.0, "lat": 38.916552333333335, "bike_id": "27b657f4dd8f0ebc3ad3d7ad31f31763", "type": "electric_scooter", "is_reserved": 0, "lon": -77.02814483333333}, {"fusion_lat": 0.0, "name": "90bd226302d0a8295c9dcd72e872d260", "is_disabled": 0, "rental_uris": {"android": "https://dc.lft.to/lastmile_qr_scan", "ios": "https://dc.lft.to/lastmile_qr_scan"}, "fusion_lon": 0.0, "lat": 38.9466075, "bike_id": "90bd226302d0a8295c9dcd72e872d260", "type": "electric_bike", "is_reserved": 0, "lon": -77.00698266666667}, {"fusion_lat": 0.0, "name": "1dae3920f216b995672c1e00975782d0", "is_disabled": 0, "rental_uris": {"android": "https://dc.lft.to/lastmile_qr_scan", "ios": "https://dc.lft.to/lastmile_qr_scan"}, "fusion_lon": 0.0, "lat": 38.892274666666665, "bike_id": "1dae3920f216b995672c1e00975782d0", "type": "electric_scooter", "is_reserved": 0, "lon": -77.03185416666666}, {"fusion_lat": 0.0, "name": "10864256be9aebe986ef0bc3c85bc088", "is_disabled": 0, "rental_uris": {"android": "https://dc.lft.to/lastmile_qr_scan", "ios": "https://dc.lft.to/lastmile_qr_scan"}, "fusion_lon": 0.0, "lat": 38.907892833333335, "bike_id": "10864256be9aebe986ef0bc3c85bc088", "type": "electric_scooter", "is_reserved": 0, "lon": -77.032071}, {"fusion_lat": 0.0, "name": "0e56643b632e5a48d9904a32a3ee15bd", "is_disabled": 0, "rental_uris": {"android": "https://dc.lft.to/lastmile_qr_scan", "ios": "https://dc.lft.to/lastmile_qr_scan"}, "fusion_lon": 0.0, "lat": 38.90681516666667, "bike_id": "0e56643b632e5a48d9904a32a3ee15bd", "type": "electric_scooter", "is_reserved": 0, "lon": -77.0238265}, {"fusion_lat": 0.0, "name": "1071791ae1e0d9693e7d6a781dea5c05", "is_disabled": 0, "rental_uris": {"android": "https://dc.lft.to/lastmile_qr_scan", "ios": "https://dc.lft.to/lastmile_qr_scan"}, "fusion_lon": 0.0, "lat": 38.86257033333333, "bike_id": "1071791ae1e0d9693e7d6a781dea5c05", "type": "electric_bike", "is_reserved": 0, "lon": -76.98357883333334}, {"fusion_lat": 0.0, "name": "546b03359cd7c46de744aa6018af5417", "is_disabled": 0, "rental_uris": {"android": "https://dc.lft.to/lastmile_qr_scan", "ios": "https://dc.lft.to/lastmile_qr_scan"}, "fusion_lon": 0.0, "lat": 38.8861105, "bike_id": "546b03359cd7c46de744aa6018af5417", "type": "electric_scooter", "is_reserved": 0, "lon": -77.01988966666667}, {"fusion_lat": 0.0, "name": "4adb40e642546e2359e82fb4db12be8a", "is_disabled": 0, "rental_uris": {"android": "https://dc.lft.to/lastmile_qr_scan", "ios": "https://dc.lft.to/lastmile_qr_scan"}, "fusion_lon": 0.0, "lat": 38.92843033333333, "bike_id": "4adb40e642546e2359e82fb4db12be8a", "type": "electric_scooter", "is_reserved": 0, "lon": -76.97983333333333}, {"fusion_lat": 0.0, "name": "befcc109cd52743908fbb353fd7dcdf1", "is_disabled": 0, "rental_uris": {"android": "https://dc.lft.to/lastmile_qr_scan", "ios": "https://dc.lft.to/lastmile_qr_scan"}, "fusion_lon": 0.0, "lat": 38.9954365, "bike_id": "befcc109cd52743908fbb353fd7dcdf1", "type": "electric_bike", "is_reserved": 0, "lon": -77.07461183333334}, {"fusion_lat": 0.0, "name": "21c7201e6e901964bf3b0b0b70a98166", "is_disabled": 0, "rental_uris": {"android": "https://dc.lft.to/lastmile_qr_scan", "ios": "https://dc.lft.to/lastmile_qr_scan"}, "fusion_lon": 0.0, "lat": 38.90683766666667, "bike_id": "21c7201e6e901964bf3b0b0b70a98166", "type": "electric_scooter", "is_reserved": 0, "lon": -77.041949}, {"fusion_lat": 0.0, "name": "76a29dbaa5c874083d3cfca6483e2d79", "is_disabled": 0, "rental_uris": {"android": "https://dc.lft.to/lastmile_qr_scan", "ios": "https://dc.lft.to/lastmile_qr_scan"}, "fusion_lon": 0.0, "lat": 38.923657, "bike_id": "76a29dbaa5c874083d3cfca6483e2d79", "type": "electric_scooter", "is_reserved": 0, "lon": -77.04249}, {"fusion_lat": 0.0, "name": "4ed60955e523b14d8218eb11822a08c7", "is_disabled": 0, "rental_uris": {"android": "https://dc.lft.to/lastmile_qr_scan", "ios": "https://dc.lft.to/lastmile_qr_scan"}, "fusion_lon": 0.0, "lat": 38.88385366666667, "bike_id": "4ed60955e523b14d8218eb11822a08c7", "type": "electric_scooter", "is_reserved": 0, "lon": -76.99608233333333}, {"fusion_lat": 0.0, "name": "ca4d2ddb18e83159055066b0a0cd3083", "is_disabled": 0, "rental_uris": {"android": "https://dc.lft.to/lastmile_qr_scan", "ios": "https://dc.lft.to/lastmile_qr_scan"}, "fusion_lon": 0.0, "lat": 38.93519466666667, "bike_id": "ca4d2ddb18e83159055066b0a0cd3083", "type": "electric_scooter", "is_reserved": 0, "lon": -77.03083266666667}, {"fusion_lat": 0.0, "name": "c32121b478fb23e0f32b34abc8742f83", "is_disabled": 0, "rental_uris": {"android": "https://dc.lft.to/lastmile_qr_scan", "ios": "https://dc.lft.to/lastmile_qr_scan"}, "fusion_lon": 0.0, "lat": 38.93080116666667, "bike_id": "c32121b478fb23e0f32b34abc8742f83", "type": "electric_scooter", "is_reserved": 0, "lon": -77.07760883333333}, {"fusion_lat": 0.0, "name": "f4e6f00ec307c084180b48b717f7bf2d", "is_disabled": 0, "rental_uris": {"android": "https://dc.lft.to/lastmile_qr_scan", "ios": "https://dc.lft.to/lastmile_qr_scan"}, "fusion_lon": 0.0, "lat": 38.90067033333333, "bike_id": "f4e6f00ec307c084180b48b717f7bf2d", "type": "electric_scooter", "is_reserved": 0, "lon": -77.04540983333334}, {"fusion_lat": 0.0, "name": "3520fe08dd17eb3e11919ae1bbbd7326", "is_disabled": 0, "rental_uris": {"android": "https://dc.lft.to/lastmile_qr_scan", "ios": "https://dc.lft.to/lastmile_qr_scan"}, "fusion_lon": 0.0, "lat": 38.90408766666667, "bike_id": "3520fe08dd17eb3e11919ae1bbbd7326", "type": "electric_scooter", "is_reserved": 0, "lon": -76.97331016666666}, {"fusion_lat": 0.0, "name": "b99253c7b4e1016fba3a5bebd7cbffb1", "is_disabled": 0, "rental_uris": {"android": "https://dc.lft.to/lastmile_qr_scan", "ios": "https://dc.lft.to/lastmile_qr_scan"}, "fusion_lon": 0.0, "lat": 38.907294666666665, "bike_id": "b99253c7b4e1016fba3a5bebd7cbffb1", "type": "electric_scooter", "is_reserved": 0, "lon": -77.012237}, {"fusion_lat": 0.0, "name": "dc8f4d8574883a766f3921e79662fa27", "is_disabled": 0, "rental_uris": {"android": "https://dc.lft.to/lastmile_qr_scan", "ios": "https://dc.lft.to/lastmile_qr_scan"}, "fusion_lon": 0.0, "lat": 38.901536, "bike_id": "dc8f4d8574883a766f3921e79662fa27", "type": "electric_scooter", "is_reserved": 0, "lon": -77.0332395}, {"fusion_lat": 0.0, "name": "18290c5b16a4043f8d3ffdb61159cdfa", "is_disabled": 0, "rental_uris": {"android": "https://dc.lft.to/lastmile_qr_scan", "ios": "https://dc.lft.to/lastmile_qr_scan"}, "fusion_lon": 0.0, "lat": 38.892268333333334, "bike_id": "18290c5b16a4043f8d3ffdb61159cdfa", "type": "electric_scooter", "is_reserved": 0, "lon": -77.03190816666667}, {"fusion_lat": 0.0, "name": "dd03808fac9df772f044553778222e4b", "is_disabled": 0, "rental_uris": {"android": "https://dc.lft.to/lastmile_qr_scan", "ios": "https://dc.lft.to/lastmile_qr_scan"}, "fusion_lon": 0.0, "lat": 38.9025195, "bike_id": "dd03808fac9df772f044553778222e4b", "type": "electric_scooter", "is_reserved": 0, "lon": -76.9745275}, {"fusion_lat": 0.0, "name": "7bdf11ee4f66925702be9c6ef71a51ee", "is_disabled": 0, "rental_uris": {"android": "https://dc.lft.to/lastmile_qr_scan", "ios": "https://dc.lft.to/lastmile_qr_scan"}, "fusion_lon": 0.0, "lat": 38.952338166666664, "bike_id": "7bdf11ee4f66925702be9c6ef71a51ee", "type": "electric_scooter", "is_reserved": 0, "lon": -76.9900715}, {"fusion_lat": 0.0, "name": "269f3659dfc283799bf0feaaf309a729", "is_disabled": 0, "rental_uris": {"android": "https://dc.lft.to/lastmile_qr_scan", "ios": "https://dc.lft.to/lastmile_qr_scan"}, "fusion_lon": 0.0, "lat": 38.95632166666667, "bike_id": "269f3659dfc283799bf0feaaf309a729", "type": "electric_scooter", "is_reserved": 0, "lon": -77.0231895}, {"fusion_lat": 0.0, "name": "ef1eb2fd64c46054deec0115d1450390", "is_disabled": 0, "rental_uris": {"android": "https://dc.lft.to/lastmile_qr_scan", "ios": "https://dc.lft.to/lastmile_qr_scan"}, "fusion_lon": 0.0, "lat": 38.86021266666667, "bike_id": "ef1eb2fd64c46054deec0115d1450390", "type": "electric_bike", "is_reserved": 0, "lon": -77.12804316666667}, {"fusion_lat": 0.0, "name": "89a7c10f6dc23f0ce8b46707ec1d1cef", "is_disabled": 0, "rental_uris": {"android": "https://dc.lft.to/lastmile_qr_scan", "ios": "https://dc.lft.to/lastmile_qr_scan"}, "fusion_lon": 0.0, "lat": 38.9041285, "bike_id": "89a7c10f6dc23f0ce8b46707ec1d1cef", "type": "electric_scooter", "is_reserved": 0, "lon": -77.02060383333334}, {"fusion_lat": 0.0, "name": "ff13d84f6f750ef399db32d14b5fba27", "is_disabled": 0, "rental_uris": {"android": "https://dc.lft.to/lastmile_qr_scan", "ios": "https://dc.lft.to/lastmile_qr_scan"}, "fusion_lon": 0.0, "lat": 38.9207885, "bike_id": "ff13d84f6f750ef399db32d14b5fba27", "type": "electric_bike", "is_reserved": 0, "lon": -76.98946133333334}, {"fusion_lat": 0.0, "name": "cbb2eb2d3defb42248e0cc8c305c8b09", "is_disabled": 0, "rental_uris": {"android": "https://dc.lft.to/lastmile_qr_scan", "ios": "https://dc.lft.to/lastmile_qr_scan"}, "fusion_lon": 0.0, "lat": 38.897354, "bike_id": "cbb2eb2d3defb42248e0cc8c305c8b09", "type": "electric_scooter", "is_reserved": 0, "lon": -77.0033915}, {"fusion_lat": 0.0, "name": "d5d0defa17d9461990cc7f1ecb8c85dc", "is_disabled": 0, "rental_uris": {"android": "https://dc.lft.to/lastmile_qr_scan", "ios": "https://dc.lft.to/lastmile_qr_scan"}, "fusion_lon": 0.0, "lat": 38.88516416666667, "bike_id": "d5d0defa17d9461990cc7f1ecb8c85dc", "type": "electric_scooter", "is_reserved": 0, "lon": -77.01511366666666}, {"fusion_lat": 0.0, "name": "12dcd9cb28195cf899e32e6907c95982", "is_disabled": 0, "rental_uris": {"android": "https://dc.lft.to/lastmile_qr_scan", "ios": "https://dc.lft.to/lastmile_qr_scan"}, "fusion_lon": 0.0, "lat": 38.893309333333335, "bike_id": "12dcd9cb28195cf899e32e6907c95982", "type": "electric_scooter", "is_reserved": 0, "lon": -77.02243833333333}, {"fusion_lat": 0.0, "name": "7c23db52d5e48a022ae1db836d604e35", "is_disabled": 0, "rental_uris": {"android": "https://dc.lft.to/lastmile_qr_scan", "ios": "https://dc.lft.to/lastmile_qr_scan"}, "fusion_lon": 0.0, "lat": 38.90101633333333, "bike_id": "7c23db52d5e48a022ae1db836d604e35", "type": "electric_scooter", "is_reserved": 0, "lon": -77.05150666666667}, {"fusion_lat": 0.0, "name": "1f465f2934e43b458851435b0195638b", "is_disabled": 0, "rental_uris": {"android": "https://dc.lft.to/lastmile_qr_scan", "ios": "https://dc.lft.to/lastmile_qr_scan"}, "fusion_lon": 0.0, "lat": 38.90696533333333, "bike_id": "1f465f2934e43b458851435b0195638b", "type": "electric_scooter", "is_reserved": 0, "lon": -76.99978566666667}, {"fusion_lat": 0.0, "name": "1cfb329b9ac94420c1fa7e3e4a33b8a6", "is_disabled": 0, "rental_uris": {"android": "https://dc.lft.to/lastmile_qr_scan", "ios": "https://dc.lft.to/lastmile_qr_scan"}, "fusion_lon": 0.0, "lat": 38.90287033333333, "bike_id": "1cfb329b9ac94420c1fa7e3e4a33b8a6", "type": "electric_scooter", "is_reserved": 0, "lon": -77.017393}, {"fusion_lat": 0.0, "name": "ca9f2a64a784125f201e6ae3631bc167", "is_disabled": 0, "rental_uris": {"android": "https://dc.lft.to/lastmile_qr_scan", "ios": "https://dc.lft.to/lastmile_qr_scan"}, "fusion_lon": 0.0, "lat": 38.9364725, "bike_id": "ca9f2a64a784125f201e6ae3631bc167", "type": "electric_scooter", "is_reserved": 0, "lon": -77.030546}, {"fusion_lat": 0.0, "name": "6d5dfefaf6c4da01155ee262523e76b3", "is_disabled": 0, "rental_uris": {"android": "https://dc.lft.to/lastmile_qr_scan", "ios": "https://dc.lft.to/lastmile_qr_scan"}, "fusion_lon": 0.0, "lat": 38.9051665, "bike_id": "6d5dfefaf6c4da01155ee262523e76b3", "type": "electric_scooter", "is_reserved": 0, "lon": -77.06451683333333}, {"fusion_lat": 0.0, "name": "69c7984addd0dd822a2f8b572ab27ef3", "is_disabled": 0, "rental_uris": {"android": "https://dc.lft.to/lastmile_qr_scan", "ios": "https://dc.lft.to/lastmile_qr_scan"}, "fusion_lon": 0.0, "lat": 38.923803, "bike_id": "69c7984addd0dd822a2f8b572ab27ef3", "type": "electric_scooter", "is_reserved": 0, "lon": -77.03051566666667}, {"fusion_lat": 0.0, "name": "67af8bff75f416b9da7705cd52536c61", "is_disabled": 0, "rental_uris": {"android": "https://dc.lft.to/lastmile_qr_scan", "ios": "https://dc.lft.to/lastmile_qr_scan"}, "fusion_lon": 0.0, "lat": 38.887270666666666, "bike_id": "67af8bff75f416b9da7705cd52536c61", "type": "electric_scooter", "is_reserved": 0, "lon": -76.98360983333333}, {"fusion_lat": 0.0, "name": "c9c1087c42cc912ed52dacaffd3ad70f", "is_disabled": 0, "rental_uris": {"android": "https://dc.lft.to/lastmile_qr_scan", "ios": "https://dc.lft.to/lastmile_qr_scan"}, "fusion_lon": 0.0, "lat": 38.94228433333333, "bike_id": "c9c1087c42cc912ed52dacaffd3ad70f", "type": "electric_scooter", "is_reserved": 0, "lon": -77.01385266666666}, {"fusion_lat": 0.0, "name": "23c85e4f87f0a5e5bfe8c6b45b6fcb82", "is_disabled": 0, "rental_uris": {"android": "https://dc.lft.to/lastmile_qr_scan", "ios": "https://dc.lft.to/lastmile_qr_scan"}, "fusion_lon": 0.0, "lat": 38.876342666666666, "bike_id": "23c85e4f87f0a5e5bfe8c6b45b6fcb82", "type": "electric_scooter", "is_reserved": 0, "lon": -77.00948833333334}, {"fusion_lat": 0.0, "name": "06645ff24f8852c2d237097c14f02236", "is_disabled": 0, "rental_uris": {"android": "https://dc.lft.to/lastmile_qr_scan", "ios": "https://dc.lft.to/lastmile_qr_scan"}, "fusion_lon": 0.0, "lat": 38.91809966666667, "bike_id": "06645ff24f8852c2d237097c14f02236", "type": "electric_scooter", "is_reserved": 0, "lon": -77.03340366666667}, {"fusion_lat": 0.0, "name": "49f98b43e927db9084bdbb6fc419ef65", "is_disabled": 0, "rental_uris": {"android": "https://dc.lft.to/lastmile_qr_scan", "ios": "https://dc.lft.to/lastmile_qr_scan"}, "fusion_lon": 0.0, "lat": 38.91666416666666, "bike_id": "49f98b43e927db9084bdbb6fc419ef65", "type": "electric_scooter", "is_reserved": 0, "lon": -77.0240585}, {"fusion_lat": 0.0, "name": "873102a354957ceeee63922ad24b4c77", "is_disabled": 0, "rental_uris": {"android": "https://dc.lft.to/lastmile_qr_scan", "ios": "https://dc.lft.to/lastmile_qr_scan"}, "fusion_lon": 0.0, "lat": 38.919109166666665, "bike_id": "873102a354957ceeee63922ad24b4c77", "type": "electric_scooter", "is_reserved": 0, "lon": -77.01221616666666}, {"fusion_lat": 0.0, "name": "b68c37af291306f03eba8252f8d71224", "is_disabled": 0, "rental_uris": {"android": "https://dc.lft.to/lastmile_qr_scan", "ios": "https://dc.lft.to/lastmile_qr_scan"}, "fusion_lon": 0.0, "lat": 38.87947483333333, "bike_id": "b68c37af291306f03eba8252f8d71224", "type": "electric_scooter", "is_reserved": 0, "lon": -77.0234245}, {"fusion_lat": 0.0, "name": "13feb629eb31e4fed21e804cd30d4af2", "is_disabled": 0, "rental_uris": {"android": "https://dc.lft.to/lastmile_qr_scan", "ios": "https://dc.lft.to/lastmile_qr_scan"}, "fusion_lon": 0.0, "lat": 38.88757716666667, "bike_id": "13feb629eb31e4fed21e804cd30d4af2", "type": "electric_scooter", "is_reserved": 0, "lon": -77.00173733333334}, {"fusion_lat": 0.0, "name": "d4ede749110ea01eb9bf1ecdf79aa3f6", "is_disabled": 0, "rental_uris": {"android": "https://dc.lft.to/lastmile_qr_scan", "ios": "https://dc.lft.to/lastmile_qr_scan"}, "fusion_lon": 0.0, "lat": 38.92608283333333, "bike_id": "d4ede749110ea01eb9bf1ecdf79aa3f6", "type": "electric_scooter", "is_reserved": 0, "lon": -77.022228}, {"fusion_lat": 0.0, "name": "5d296477ba9c86a9ff954af41370986f", "is_disabled": 0, "rental_uris": {"android": "https://dc.lft.to/lastmile_qr_scan", "ios": "https://dc.lft.to/lastmile_qr_scan"}, "fusion_lon": 0.0, "lat": 38.9401395, "bike_id": "5d296477ba9c86a9ff954af41370986f", "type": "electric_scooter", "is_reserved": 0, "lon": -77.0277355}, {"fusion_lat": 0.0, "name": "373485988d26e29d382251c92c180fa4", "is_disabled": 0, "rental_uris": {"android": "https://dc.lft.to/lastmile_qr_scan", "ios": "https://dc.lft.to/lastmile_qr_scan"}, "fusion_lon": 0.0, "lat": 38.91933066666667, "bike_id": "373485988d26e29d382251c92c180fa4", "type": "electric_scooter", "is_reserved": 0, "lon": -77.02504716666667}, {"fusion_lat": 0.0, "name": "203dcf553dd82e41f69723be70dae8c0", "is_disabled": 0, "rental_uris": {"android": "https://dc.lft.to/lastmile_qr_scan", "ios": "https://dc.lft.to/lastmile_qr_scan"}, "fusion_lon": 0.0, "lat": 38.926121333333334, "bike_id": "203dcf553dd82e41f69723be70dae8c0", "type": "electric_scooter", "is_reserved": 0, "lon": -77.02164583333334}, {"fusion_lat": 0.0, "name": "81bd48ea9a28a653cf6206e6579ce538", "is_disabled": 0, "rental_uris": {"android": "https://dc.lft.to/lastmile_qr_scan", "ios": "https://dc.lft.to/lastmile_qr_scan"}, "fusion_lon": 0.0, "lat": 38.956793833333336, "bike_id": "81bd48ea9a28a653cf6206e6579ce538", "type": "electric_scooter", "is_reserved": 0, "lon": -77.03252316666666}, {"fusion_lat": 0.0, "name": "1edbfb04876ba58370d2854984d80345", "is_disabled": 0, "rental_uris": {"android": "https://dc.lft.to/lastmile_qr_scan", "ios": "https://dc.lft.to/lastmile_qr_scan"}, "fusion_lon": 0.0, "lat": 38.889037, "bike_id": "1edbfb04876ba58370d2854984d80345", "type": "electric_scooter", "is_reserved": 0, "lon": -76.99203866666667}, {"fusion_lat": 0.0, "name": "8c485bdf3899d476ab11a77d6c2d7fed", "is_disabled": 0, "rental_uris": {"android": "https://dc.lft.to/lastmile_qr_scan", "ios": "https://dc.lft.to/lastmile_qr_scan"}, "fusion_lon": 0.0, "lat": 38.910302, "bike_id": "8c485bdf3899d476ab11a77d6c2d7fed", "type": "electric_scooter", "is_reserved": 0, "lon": -77.015139}, {"fusion_lat": 0.0, "name": "140550bbc08b4966ba0746204dff655b", "is_disabled": 0, "rental_uris": {"android": "https://dc.lft.to/lastmile_qr_scan", "ios": "https://dc.lft.to/lastmile_qr_scan"}, "fusion_lon": 0.0, "lat": 38.9168655, "bike_id": "140550bbc08b4966ba0746204dff655b", "type": "electric_scooter", "is_reserved": 0, "lon": -77.03772033333334}, {"fusion_lat": 0.0, "name": "71a1d478c8b575cf3f32991cd7873488", "is_disabled": 0, "rental_uris": {"android": "https://dc.lft.to/lastmile_qr_scan", "ios": "https://dc.lft.to/lastmile_qr_scan"}, "fusion_lon": 0.0, "lat": 38.9295175, "bike_id": "71a1d478c8b575cf3f32991cd7873488", "type": "electric_scooter", "is_reserved": 0, "lon": -77.05505366666667}, {"fusion_lat": 0.0, "name": "f88cc75289eb4c83a00bb3b749fa159c", "is_disabled": 0, "rental_uris": {"android": "https://dc.lft.to/lastmile_qr_scan", "ios": "https://dc.lft.to/lastmile_qr_scan"}, "fusion_lon": 0.0, "lat": 38.8792185, "bike_id": "f88cc75289eb4c83a00bb3b749fa159c", "type": "electric_scooter", "is_reserved": 0, "lon": -76.94483266666667}, {"fusion_lat": 0.0, "name": "12f327688ad2a207e5364c014398446f", "is_disabled": 0, "rental_uris": {"android": "https://dc.lft.to/lastmile_qr_scan", "ios": "https://dc.lft.to/lastmile_qr_scan"}, "fusion_lon": 0.0, "lat": 38.949536333333334, "bike_id": "12f327688ad2a207e5364c014398446f", "type": "electric_scooter", "is_reserved": 0, "lon": -77.023179}, {"fusion_lat": 0.0, "name": "aedff2d6ccb4f7408fd3ed64a887f189", "is_disabled": 0, "rental_uris": {"android": "https://dc.lft.to/lastmile_qr_scan", "ios": "https://dc.lft.to/lastmile_qr_scan"}, "fusion_lon": 0.0, "lat": 38.926131166666664, "bike_id": "aedff2d6ccb4f7408fd3ed64a887f189", "type": "electric_scooter", "is_reserved": 0, "lon": -77.02157983333333}, {"fusion_lat": 0.0, "name": "0890c036893c98a24a122c7f054db2c5", "is_disabled": 0, "rental_uris": {"android": "https://dc.lft.to/lastmile_qr_scan", "ios": "https://dc.lft.to/lastmile_qr_scan"}, "fusion_lon": 0.0, "lat": 38.89349383333333, "bike_id": "0890c036893c98a24a122c7f054db2c5", "type": "electric_bike", "is_reserved": 0, "lon": -77.18743783333333}, {"fusion_lat": 0.0, "name": "696f5946ebba8409d2454e1af6877211", "is_disabled": 0, "rental_uris": {"android": "https://dc.lft.to/lastmile_qr_scan", "ios": "https://dc.lft.to/lastmile_qr_scan"}, "fusion_lon": 0.0, "lat": 38.91965883333334, "bike_id": "696f5946ebba8409d2454e1af6877211", "type": "electric_scooter", "is_reserved": 0, "lon": -77.02488566666666}, {"fusion_lat": 0.0, "name": "72f1e25ddc205388feb7419b524338a7", "is_disabled": 0, "rental_uris": {"android": "https://dc.lft.to/lastmile_qr_scan", "ios": "https://dc.lft.to/lastmile_qr_scan"}, "fusion_lon": 0.0, "lat": 38.90560683333333, "bike_id": "72f1e25ddc205388feb7419b524338a7", "type": "electric_scooter", "is_reserved": 0, "lon": -77.011812}, {"fusion_lat": 0.0, "name": "8aee8cd022ec13333fdee9895812182b", "is_disabled": 0, "rental_uris": {"android": "https://dc.lft.to/lastmile_qr_scan", "ios": "https://dc.lft.to/lastmile_qr_scan"}, "fusion_lon": 0.0, "lat": 38.87930216666667, "bike_id": "8aee8cd022ec13333fdee9895812182b", "type": "electric_scooter", "is_reserved": 0, "lon": -77.00645566666667}, {"fusion_lat": 0.0, "name": "90ba33898e411d2decf8d9cc7388822b", "is_disabled": 0, "rental_uris": {"android": "https://dc.lft.to/lastmile_qr_scan", "ios": "https://dc.lft.to/lastmile_qr_scan"}, "fusion_lon": 0.0, "lat": 38.90119683333333, "bike_id": "90ba33898e411d2decf8d9cc7388822b", "type": "electric_bike", "is_reserved": 0, "lon": -77.03800083333333}, {"fusion_lat": 0.0, "name": "4bd1b944eca8d89f9c39e5d6b63f5e56", "is_disabled": 0, "rental_uris": {"android": "https://dc.lft.to/lastmile_qr_scan", "ios": "https://dc.lft.to/lastmile_qr_scan"}, "fusion_lon": 0.0, "lat": 38.92476766666667, "bike_id": "4bd1b944eca8d89f9c39e5d6b63f5e56", "type": "electric_scooter", "is_reserved": 0, "lon": -77.0283515}, {"fusion_lat": 0.0, "name": "49d75c26aba24f8e7b8b27ae267bdae4", "is_disabled": 0, "rental_uris": {"android": "https://dc.lft.to/lastmile_qr_scan", "ios": "https://dc.lft.to/lastmile_qr_scan"}, "fusion_lon": 0.0, "lat": 38.892233833333336, "bike_id": "49d75c26aba24f8e7b8b27ae267bdae4", "type": "electric_scooter", "is_reserved": 0, "lon": -77.0030905}, {"fusion_lat": 0.0, "name": "aa87a2ff2240fd0f40013d1c50b75291", "is_disabled": 0, "rental_uris": {"android": "https://dc.lft.to/lastmile_qr_scan", "ios": "https://dc.lft.to/lastmile_qr_scan"}, "fusion_lon": 0.0, "lat": 38.915661166666666, "bike_id": "aa87a2ff2240fd0f40013d1c50b75291", "type": "electric_scooter", "is_reserved": 0, "lon": -77.031506}, {"fusion_lat": 0.0, "name": "04ab51423a95326c9069fccc17eca92f", "is_disabled": 0, "rental_uris": {"android": "https://dc.lft.to/lastmile_qr_scan", "ios": "https://dc.lft.to/lastmile_qr_scan"}, "fusion_lon": 0.0, "lat": 38.962382166666664, "bike_id": "04ab51423a95326c9069fccc17eca92f", "type": "electric_bike", "is_reserved": 0, "lon": -76.92761033333333}, {"fusion_lat": 0.0, "name": "cc34ef5988ee50b5f27007b610fc0f8b", "is_disabled": 0, "rental_uris": {"android": "https://dc.lft.to/lastmile_qr_scan", "ios": "https://dc.lft.to/lastmile_qr_scan"}, "fusion_lon": 0.0, "lat": 38.929635166666664, "bike_id": "cc34ef5988ee50b5f27007b610fc0f8b", "type": "electric_scooter", "is_reserved": 0, "lon": -76.9917505}, {"fusion_lat": 0.0, "name": "1cbb6824d02a32f5f47fa5033f0a941e", "is_disabled": 0, "rental_uris": {"android": "https://dc.lft.to/lastmile_qr_scan", "ios": "https://dc.lft.to/lastmile_qr_scan"}, "fusion_lon": 0.0, "lat": 38.8769315, "bike_id": "1cbb6824d02a32f5f47fa5033f0a941e", "type": "electric_scooter", "is_reserved": 0, "lon": -77.00401666666667}, {"fusion_lat": 0.0, "name": "8a7ebeb6037740798cb33f716d02bf5c", "is_disabled": 0, "rental_uris": {"android": "https://dc.lft.to/lastmile_qr_scan", "ios": "https://dc.lft.to/lastmile_qr_scan"}, "fusion_lon": 0.0, "lat": 38.919456, "bike_id": "8a7ebeb6037740798cb33f716d02bf5c", "type": "electric_scooter", "is_reserved": 0, "lon": -77.0251095}, {"fusion_lat": 0.0, "name": "e3972ce167828ab2f4ca5a0a43640c66", "is_disabled": 0, "rental_uris": {"android": "https://dc.lft.to/lastmile_qr_scan", "ios": "https://dc.lft.to/lastmile_qr_scan"}, "fusion_lon": 0.0, "lat": 38.9132115, "bike_id": "e3972ce167828ab2f4ca5a0a43640c66", "type": "electric_scooter", "is_reserved": 0, "lon": -77.01207016666666}, {"fusion_lat": 0.0, "name": "dc8ffa0ebd551a4d58c7b7a0c19fef16", "is_disabled": 0, "rental_uris": {"android": "https://dc.lft.to/lastmile_qr_scan", "ios": "https://dc.lft.to/lastmile_qr_scan"}, "fusion_lon": 0.0, "lat": 38.922569833333334, "bike_id": "dc8ffa0ebd551a4d58c7b7a0c19fef16", "type": "electric_scooter", "is_reserved": 0, "lon": -77.00918216666666}, {"fusion_lat": 0.0, "name": "4690f2f9e0efa7d31c1275d1527bf60e", "is_disabled": 0, "rental_uris": {"android": "https://dc.lft.to/lastmile_qr_scan", "ios": "https://dc.lft.to/lastmile_qr_scan"}, "fusion_lon": 0.0, "lat": 38.966771666666666, "bike_id": "4690f2f9e0efa7d31c1275d1527bf60e", "type": "electric_bike", "is_reserved": 0, "lon": -77.02304583333333}, {"fusion_lat": 0.0, "name": "b9739d44ee2a383c19409f9610a36e7b", "is_disabled": 0, "rental_uris": {"android": "https://dc.lft.to/lastmile_qr_scan", "ios": "https://dc.lft.to/lastmile_qr_scan"}, "fusion_lon": 0.0, "lat": 38.9317265, "bike_id": "b9739d44ee2a383c19409f9610a36e7b", "type": "electric_scooter", "is_reserved": 0, "lon": -77.03800233333334}, {"fusion_lat": 0.0, "name": "3b85d071ab8d82ef7fd10e83f7ea4d82", "is_disabled": 0, "rental_uris": {"android": "https://dc.lft.to/lastmile_qr_scan", "ios": "https://dc.lft.to/lastmile_qr_scan"}, "fusion_lon": 0.0, "lat": 38.91694783333333, "bike_id": "3b85d071ab8d82ef7fd10e83f7ea4d82", "type": "electric_scooter", "is_reserved": 0, "lon": -77.03511716666667}, {"fusion_lat": 0.0, "name": "0c0df51da37a769f8e6c78a227c3c227", "is_disabled": 0, "rental_uris": {"android": "https://dc.lft.to/lastmile_qr_scan", "ios": "https://dc.lft.to/lastmile_qr_scan"}, "fusion_lon": 0.0, "lat": 38.89819683333333, "bike_id": "0c0df51da37a769f8e6c78a227c3c227", "type": "electric_scooter", "is_reserved": 0, "lon": -77.04672116666667}, {"fusion_lat": 0.0, "name": "0d02ac8e2bba38a3e4fe9b5524014d97", "is_disabled": 0, "rental_uris": {"android": "https://dc.lft.to/lastmile_qr_scan", "ios": "https://dc.lft.to/lastmile_qr_scan"}, "fusion_lon": 0.0, "lat": 38.90970166666666, "bike_id": "0d02ac8e2bba38a3e4fe9b5524014d97", "type": "electric_scooter", "is_reserved": 0, "lon": -77.0338335}, {"fusion_lat": 0.0, "name": "c3b0dfaa06e10b69114bf84311b7c5fe", "is_disabled": 0, "rental_uris": {"android": "https://dc.lft.to/lastmile_qr_scan", "ios": "https://dc.lft.to/lastmile_qr_scan"}, "fusion_lon": 0.0, "lat": 38.924755166666664, "bike_id": "c3b0dfaa06e10b69114bf84311b7c5fe", "type": "electric_scooter", "is_reserved": 0, "lon": -77.02271716666667}, {"fusion_lat": 0.0, "name": "95d3fde38a65539af1d11cd8c10d8223", "is_disabled": 0, "rental_uris": {"android": "https://dc.lft.to/lastmile_qr_scan", "ios": "https://dc.lft.to/lastmile_qr_scan"}, "fusion_lon": 0.0, "lat": 38.91437883333333, "bike_id": "95d3fde38a65539af1d11cd8c10d8223", "type": "electric_scooter", "is_reserved": 0, "lon": -76.993553}, {"fusion_lat": 0.0, "name": "b64ff023c0d106d3c1c29e3228ffb047", "is_disabled": 0, "rental_uris": {"android": "https://dc.lft.to/lastmile_qr_scan", "ios": "https://dc.lft.to/lastmile_qr_scan"}, "fusion_lon": 0.0, "lat": 38.90425366666667, "bike_id": "b64ff023c0d106d3c1c29e3228ffb047", "type": "electric_scooter", "is_reserved": 0, "lon": -77.0251455}, {"fusion_lat": 0.0, "name": "40a0226d84f75f8bbf0f8295c4343069", "is_disabled": 0, "rental_uris": {"android": "https://dc.lft.to/lastmile_qr_scan", "ios": "https://dc.lft.to/lastmile_qr_scan"}, "fusion_lon": 0.0, "lat": 38.9112035, "bike_id": "40a0226d84f75f8bbf0f8295c4343069", "type": "electric_scooter", "is_reserved": 0, "lon": -77.03724516666666}, {"fusion_lat": 0.0, "name": "6bf113f192e059f8046369b32c45a713", "is_disabled": 0, "rental_uris": {"android": "https://dc.lft.to/lastmile_qr_scan", "ios": "https://dc.lft.to/lastmile_qr_scan"}, "fusion_lon": 0.0, "lat": 38.9003785, "bike_id": "6bf113f192e059f8046369b32c45a713", "type": "electric_bike", "is_reserved": 0, "lon": -76.97222066666667}, {"fusion_lat": 0.0, "name": "0ab085539d0ed199bd0d2abb298af6b6", "is_disabled": 0, "rental_uris": {"android": "https://dc.lft.to/lastmile_qr_scan", "ios": "https://dc.lft.to/lastmile_qr_scan"}, "fusion_lon": 0.0, "lat": 38.909831, "bike_id": "0ab085539d0ed199bd0d2abb298af6b6", "type": "electric_scooter", "is_reserved": 0, "lon": -77.03373733333333}, {"fusion_lat": 0.0, "name": "b7b09a8bda4c3e1021e18df4eb11de8b", "is_disabled": 0, "rental_uris": {"android": "https://dc.lft.to/lastmile_qr_scan", "ios": "https://dc.lft.to/lastmile_qr_scan"}, "fusion_lon": 0.0, "lat": 38.90237333333334, "bike_id": "b7b09a8bda4c3e1021e18df4eb11de8b", "type": "electric_scooter", "is_reserved": 0, "lon": -77.04574116666667}, {"fusion_lat": 0.0, "name": "add700fd9ba75f110dc5f678f77c75dd", "is_disabled": 0, "rental_uris": {"android": "https://dc.lft.to/lastmile_qr_scan", "ios": "https://dc.lft.to/lastmile_qr_scan"}, "fusion_lon": 0.0, "lat": 38.87240533333333, "bike_id": "add700fd9ba75f110dc5f678f77c75dd", "type": "electric_scooter", "is_reserved": 0, "lon": -76.977263}, {"fusion_lat": 0.0, "name": "0999a5832bd658f784dd951292f53089", "is_disabled": 0, "rental_uris": {"android": "https://dc.lft.to/lastmile_qr_scan", "ios": "https://dc.lft.to/lastmile_qr_scan"}, "fusion_lon": 0.0, "lat": 38.905098833333334, "bike_id": "0999a5832bd658f784dd951292f53089", "type": "electric_scooter", "is_reserved": 0, "lon": -77.06386983333333}, {"fusion_lat": 0.0, "name": "06e0cff96e0afb6cb4f452992515cdf6", "is_disabled": 0, "rental_uris": {"android": "https://dc.lft.to/lastmile_qr_scan", "ios": "https://dc.lft.to/lastmile_qr_scan"}, "fusion_lon": 0.0, "lat": 38.90974883333333, "bike_id": "06e0cff96e0afb6cb4f452992515cdf6", "type": "electric_scooter", "is_reserved": 0, "lon": -77.00899483333333}, {"fusion_lat": 0.0, "name": "77d5a18f6f01548bb59ee852c27ce36f", "is_disabled": 0, "rental_uris": {"android": "https://dc.lft.to/lastmile_qr_scan", "ios": "https://dc.lft.to/lastmile_qr_scan"}, "fusion_lon": 0.0, "lat": 38.905780166666666, "bike_id": "77d5a18f6f01548bb59ee852c27ce36f", "type": "electric_scooter", "is_reserved": 0, "lon": -77.00890283333334}, {"fusion_lat": 0.0, "name": "660ba1afda077d68a5492a26540ec48a", "is_disabled": 0, "rental_uris": {"android": "https://dc.lft.to/lastmile_qr_scan", "ios": "https://dc.lft.to/lastmile_qr_scan"}, "fusion_lon": 0.0, "lat": 38.902153166666665, "bike_id": "660ba1afda077d68a5492a26540ec48a", "type": "electric_scooter", "is_reserved": 0, "lon": -77.021417}, {"fusion_lat": 0.0, "name": "cc81826c55832a7c95edba78da823200", "is_disabled": 0, "rental_uris": {"android": "https://dc.lft.to/lastmile_qr_scan", "ios": "https://dc.lft.to/lastmile_qr_scan"}, "fusion_lon": 0.0, "lat": 38.92678266666667, "bike_id": "cc81826c55832a7c95edba78da823200", "type": "electric_scooter", "is_reserved": 0, "lon": -77.027962}, {"fusion_lat": 0.0, "name": "982e42cdb532e3fb86bcbeaa0e6ff275", "is_disabled": 0, "rental_uris": {"android": "https://dc.lft.to/lastmile_qr_scan", "ios": "https://dc.lft.to/lastmile_qr_scan"}, "fusion_lon": 0.0, "lat": 38.909395, "bike_id": "982e42cdb532e3fb86bcbeaa0e6ff275", "type": "electric_scooter", "is_reserved": 0, "lon": -77.018474}, {"fusion_lat": 0.0, "name": "2a27336389e4f0a1864711aacbe79b46", "is_disabled": 0, "rental_uris": {"android": "https://dc.lft.to/lastmile_qr_scan", "ios": "https://dc.lft.to/lastmile_qr_scan"}, "fusion_lon": 0.0, "lat": 38.97345266666667, "bike_id": "2a27336389e4f0a1864711aacbe79b46", "type": "electric_bike", "is_reserved": 0, "lon": -77.01794733333334}, {"fusion_lat": 0.0, "name": "f521403de8c089b7d4598076bc961a08", "is_disabled": 0, "rental_uris": {"android": "https://dc.lft.to/lastmile_qr_scan", "ios": "https://dc.lft.to/lastmile_qr_scan"}, "fusion_lon": 0.0, "lat": 38.90685533333333, "bike_id": "f521403de8c089b7d4598076bc961a08", "type": "electric_bike", "is_reserved": 0, "lon": -76.94492583333333}, {"fusion_lat": 0.0, "name": "ddcae0937e3b365edf9925d51727d49a", "is_disabled": 0, "rental_uris": {"android": "https://dc.lft.to/lastmile_qr_scan", "ios": "https://dc.lft.to/lastmile_qr_scan"}, "fusion_lon": 0.0, "lat": 38.8876975, "bike_id": "ddcae0937e3b365edf9925d51727d49a", "type": "electric_scooter", "is_reserved": 0, "lon": -76.97745033333334}, {"fusion_lat": 0.0, "name": "b8d80941cd74149747de4cd56309eb8d", "is_disabled": 0, "rental_uris": {"android": "https://dc.lft.to/lastmile_qr_scan", "ios": "https://dc.lft.to/lastmile_qr_scan"}, "fusion_lon": 0.0, "lat": 38.901519, "bike_id": "b8d80941cd74149747de4cd56309eb8d", "type": "electric_scooter", "is_reserved": 0, "lon": -76.93069983333334}, {"fusion_lat": 0.0, "name": "a7684633e50e6ab5bda295ff72ae50e1", "is_disabled": 0, "rental_uris": {"android": "https://dc.lft.to/lastmile_qr_scan", "ios": "https://dc.lft.to/lastmile_qr_scan"}, "fusion_lon": 0.0, "lat": 38.98464366666666, "bike_id": "a7684633e50e6ab5bda295ff72ae50e1", "type": "electric_bike", "is_reserved": 0, "lon": -76.9705515}, {"fusion_lat": 0.0, "name": "7e97dcc2ac09cc3a975bcadc76a50a9c", "is_disabled": 0, "rental_uris": {"android": "https://dc.lft.to/lastmile_qr_scan", "ios": "https://dc.lft.to/lastmile_qr_scan"}, "fusion_lon": 0.0, "lat": 38.9285135, "bike_id": "7e97dcc2ac09cc3a975bcadc76a50a9c", "type": "electric_scooter", "is_reserved": 0, "lon": -77.03614383333333}, {"fusion_lat": 0.0, "name": "26268454c0b48679bee7133d81295216", "is_disabled": 0, "rental_uris": {"android": "https://dc.lft.to/lastmile_qr_scan", "ios": "https://dc.lft.to/lastmile_qr_scan"}, "fusion_lon": 0.0, "lat": 38.919239166666664, "bike_id": "26268454c0b48679bee7133d81295216", "type": "electric_scooter", "is_reserved": 0, "lon": -77.03189816666666}, {"fusion_lat": 0.0, "name": "ac9a5ffb7fefca17cc530ca7c7299576", "is_disabled": 0, "rental_uris": {"android": "https://dc.lft.to/lastmile_qr_scan", "ios": "https://dc.lft.to/lastmile_qr_scan"}, "fusion_lon": 0.0, "lat": 38.9014605, "bike_id": "ac9a5ffb7fefca17cc530ca7c7299576", "type": "electric_bike", "is_reserved": 0, "lon": -77.059095}, {"fusion_lat": 0.0, "name": "ac3ea39cefe98c3c616da8ca2765e7f0", "is_disabled": 0, "rental_uris": {"android": "https://dc.lft.to/lastmile_qr_scan", "ios": "https://dc.lft.to/lastmile_qr_scan"}, "fusion_lon": 0.0, "lat": 38.908332, "bike_id": "ac3ea39cefe98c3c616da8ca2765e7f0", "type": "electric_scooter", "is_reserved": 0, "lon": -76.98434083333333}, {"fusion_lat": 0.0, "name": "2949a19f47d9b772c3b682ed1ce16895", "is_disabled": 0, "rental_uris": {"android": "https://dc.lft.to/lastmile_qr_scan", "ios": "https://dc.lft.to/lastmile_qr_scan"}, "fusion_lon": 0.0, "lat": 38.910578, "bike_id": "2949a19f47d9b772c3b682ed1ce16895", "type": "electric_scooter", "is_reserved": 0, "lon": -77.041014}, {"fusion_lat": 0.0, "name": "fc3f9d449cd7fba74f32125eb83873f8", "is_disabled": 0, "rental_uris": {"android": "https://dc.lft.to/lastmile_qr_scan", "ios": "https://dc.lft.to/lastmile_qr_scan"}, "fusion_lon": 0.0, "lat": 38.911259, "bike_id": "fc3f9d449cd7fba74f32125eb83873f8", "type": "electric_scooter", "is_reserved": 0, "lon": -77.021997}, {"fusion_lat": 0.0, "name": "727da10ad3a2eaa16a547b9650876bfa", "is_disabled": 0, "rental_uris": {"android": "https://dc.lft.to/lastmile_qr_scan", "ios": "https://dc.lft.to/lastmile_qr_scan"}, "fusion_lon": 0.0, "lat": 38.88592533333333, "bike_id": "727da10ad3a2eaa16a547b9650876bfa", "type": "electric_scooter", "is_reserved": 0, "lon": -77.0172285}, {"fusion_lat": 0.0, "name": "9def1050dcaf2c19752ff0542572a60a", "is_disabled": 0, "rental_uris": {"android": "https://dc.lft.to/lastmile_qr_scan", "ios": "https://dc.lft.to/lastmile_qr_scan"}, "fusion_lon": 0.0, "lat": 38.906210333333334, "bike_id": "9def1050dcaf2c19752ff0542572a60a", "type": "electric_scooter", "is_reserved": 0, "lon": -77.02409883333333}, {"fusion_lat": 0.0, "name": "a008f3862410d119349eba0076ca91c6", "is_disabled": 0, "rental_uris": {"android": "https://dc.lft.to/lastmile_qr_scan", "ios": "https://dc.lft.to/lastmile_qr_scan"}, "fusion_lon": 0.0, "lat": 38.95052583333333, "bike_id": "a008f3862410d119349eba0076ca91c6", "type": "electric_scooter", "is_reserved": 0, "lon": -77.08035783333334}, {"fusion_lat": 0.0, "name": "d440e0f9124c352cadf5d44ffe4d4571", "is_disabled": 0, "rental_uris": {"android": "https://dc.lft.to/lastmile_qr_scan", "ios": "https://dc.lft.to/lastmile_qr_scan"}, "fusion_lon": 0.0, "lat": 38.9228815, "bike_id": "d440e0f9124c352cadf5d44ffe4d4571", "type": "electric_bike", "is_reserved": 0, "lon": -77.02246583333333}, {"fusion_lat": 0.0, "name": "ce7fd38ae8c2a5611458dd3e60caf98e", "is_disabled": 0, "rental_uris": {"android": "https://dc.lft.to/lastmile_qr_scan", "ios": "https://dc.lft.to/lastmile_qr_scan"}, "fusion_lon": 0.0, "lat": 38.91693466666667, "bike_id": "ce7fd38ae8c2a5611458dd3e60caf98e", "type": "electric_scooter", "is_reserved": 0, "lon": -77.02594416666666}, {"fusion_lat": 0.0, "name": "684098fb5e655b9bb830f4941d707e4f", "is_disabled": 0, "rental_uris": {"android": "https://dc.lft.to/lastmile_qr_scan", "ios": "https://dc.lft.to/lastmile_qr_scan"}, "fusion_lon": 0.0, "lat": 38.933995333333336, "bike_id": "684098fb5e655b9bb830f4941d707e4f", "type": "electric_scooter", "is_reserved": 0, "lon": -77.057469}, {"fusion_lat": 0.0, "name": "d44b3c17af1251f2bfc59129af6e3db9", "is_disabled": 0, "rental_uris": {"android": "https://dc.lft.to/lastmile_qr_scan", "ios": "https://dc.lft.to/lastmile_qr_scan"}, "fusion_lon": 0.0, "lat": 38.923823166666665, "bike_id": "d44b3c17af1251f2bfc59129af6e3db9", "type": "electric_scooter", "is_reserved": 0, "lon": -77.07537216666667}, {"fusion_lat": 0.0, "name": "47871f6f9f189e980e96689895062f6b", "is_disabled": 0, "rental_uris": {"android": "https://dc.lft.to/lastmile_qr_scan", "ios": "https://dc.lft.to/lastmile_qr_scan"}, "fusion_lon": 0.0, "lat": 38.921260833333335, "bike_id": "47871f6f9f189e980e96689895062f6b", "type": "electric_scooter", "is_reserved": 0, "lon": -77.044367}, {"fusion_lat": 0.0, "name": "072daffc5802c03a6e987b5b783c3114", "is_disabled": 0, "rental_uris": {"android": "https://dc.lft.to/lastmile_qr_scan", "ios": "https://dc.lft.to/lastmile_qr_scan"}, "fusion_lon": 0.0, "lat": 38.92778633333333, "bike_id": "072daffc5802c03a6e987b5b783c3114", "type": "electric_scooter", "is_reserved": 0, "lon": -77.02565333333334}, {"fusion_lat": 0.0, "name": "5254d9f79924ad35d1b3755e4b99cce1", "is_disabled": 0, "rental_uris": {"android": "https://dc.lft.to/lastmile_qr_scan", "ios": "https://dc.lft.to/lastmile_qr_scan"}, "fusion_lon": 0.0, "lat": 38.84587916666667, "bike_id": "5254d9f79924ad35d1b3755e4b99cce1", "type": "electric_bike", "is_reserved": 0, "lon": -76.981638}, {"fusion_lat": 0.0, "name": "3c502338aa83834c408e7101ba620072", "is_disabled": 0, "rental_uris": {"android": "https://dc.lft.to/lastmile_qr_scan", "ios": "https://dc.lft.to/lastmile_qr_scan"}, "fusion_lon": 0.0, "lat": 38.941849833333336, "bike_id": "3c502338aa83834c408e7101ba620072", "type": "electric_scooter", "is_reserved": 0, "lon": -77.024081}, {"fusion_lat": 0.0, "name": "20dc4e0a54b4a6efdf8ffda47ffdae14", "is_disabled": 0, "rental_uris": {"android": "https://dc.lft.to/lastmile_qr_scan", "ios": "https://dc.lft.to/lastmile_qr_scan"}, "fusion_lon": 0.0, "lat": 38.918052, "bike_id": "20dc4e0a54b4a6efdf8ffda47ffdae14", "type": "electric_scooter", "is_reserved": 0, "lon": -77.03660966666666}, {"fusion_lat": 0.0, "name": "acaf1c1b5d9252bfbc9e5a7e3358550c", "is_disabled": 0, "rental_uris": {"android": "https://dc.lft.to/lastmile_qr_scan", "ios": "https://dc.lft.to/lastmile_qr_scan"}, "fusion_lon": 0.0, "lat": 38.90415483333334, "bike_id": "acaf1c1b5d9252bfbc9e5a7e3358550c", "type": "electric_scooter", "is_reserved": 0, "lon": -77.02388466666666}, {"fusion_lat": 0.0, "name": "6cc4df23541110e06c889c04216b9f90", "is_disabled": 0, "rental_uris": {"android": "https://dc.lft.to/lastmile_qr_scan", "ios": "https://dc.lft.to/lastmile_qr_scan"}, "fusion_lon": 0.0, "lat": 38.907411, "bike_id": "6cc4df23541110e06c889c04216b9f90", "type": "electric_scooter", "is_reserved": 0, "lon": -77.02382566666667}, {"fusion_lat": 0.0, "name": "c18522f26a8090ce1508b6f56b9bcea6", "is_disabled": 0, "rental_uris": {"android": "https://dc.lft.to/lastmile_qr_scan", "ios": "https://dc.lft.to/lastmile_qr_scan"}, "fusion_lon": 0.0, "lat": 38.907613166666664, "bike_id": "c18522f26a8090ce1508b6f56b9bcea6", "type": "electric_scooter", "is_reserved": 0, "lon": -77.03858733333334}, {"fusion_lat": 0.0, "name": "fea0b5ec77ebdb0925aaf11ee86d8f2c", "is_disabled": 0, "rental_uris": {"android": "https://dc.lft.to/lastmile_qr_scan", "ios": "https://dc.lft.to/lastmile_qr_scan"}, "fusion_lon": 0.0, "lat": 38.8998405, "bike_id": "fea0b5ec77ebdb0925aaf11ee86d8f2c", "type": "electric_scooter", "is_reserved": 0, "lon": -77.04050766666667}, {"fusion_lat": 0.0, "name": "53a57529620e33a325c6b002c99c59a5", "is_disabled": 0, "rental_uris": {"android": "https://dc.lft.to/lastmile_qr_scan", "ios": "https://dc.lft.to/lastmile_qr_scan"}, "fusion_lon": 0.0, "lat": 38.9241155, "bike_id": "53a57529620e33a325c6b002c99c59a5", "type": "electric_scooter", "is_reserved": 0, "lon": -77.02011833333333}, {"fusion_lat": 0.0, "name": "72ca88fa235fce9b98679804c7275ae4", "is_disabled": 0, "rental_uris": {"android": "https://dc.lft.to/lastmile_qr_scan", "ios": "https://dc.lft.to/lastmile_qr_scan"}, "fusion_lon": 0.0, "lat": 38.938039833333335, "bike_id": "72ca88fa235fce9b98679804c7275ae4", "type": "electric_scooter", "is_reserved": 0, "lon": -77.06861566666667}, {"fusion_lat": 0.0, "name": "f05fdc004ea8077e99efa22763c203bc", "is_disabled": 0, "rental_uris": {"android": "https://dc.lft.to/lastmile_qr_scan", "ios": "https://dc.lft.to/lastmile_qr_scan"}, "fusion_lon": 0.0, "lat": 38.9235705, "bike_id": "f05fdc004ea8077e99efa22763c203bc", "type": "electric_scooter", "is_reserved": 0, "lon": -77.0195295}, {"fusion_lat": 0.0, "name": "a7f85e0925ebecce6471f27a11cf96ee", "is_disabled": 0, "rental_uris": {"android": "https://dc.lft.to/lastmile_qr_scan", "ios": "https://dc.lft.to/lastmile_qr_scan"}, "fusion_lon": 0.0, "lat": 38.94228533333333, "bike_id": "a7f85e0925ebecce6471f27a11cf96ee", "type": "electric_scooter", "is_reserved": 0, "lon": -77.02340166666667}, {"fusion_lat": 0.0, "name": "6dea7e565f1ba2e6e39f59be83e8669e", "is_disabled": 0, "rental_uris": {"android": "https://dc.lft.to/lastmile_qr_scan", "ios": "https://dc.lft.to/lastmile_qr_scan"}, "fusion_lon": 0.0, "lat": 38.9304845, "bike_id": "6dea7e565f1ba2e6e39f59be83e8669e", "type": "electric_scooter", "is_reserved": 0, "lon": -77.04067816666667}, {"fusion_lat": 0.0, "name": "6e1f9f394afcc956665f3fca1ff3760c", "is_disabled": 0, "rental_uris": {"android": "https://dc.lft.to/lastmile_qr_scan", "ios": "https://dc.lft.to/lastmile_qr_scan"}, "fusion_lon": 0.0, "lat": 38.907618, "bike_id": "6e1f9f394afcc956665f3fca1ff3760c", "type": "electric_scooter", "is_reserved": 0, "lon": -77.03203833333333}, {"fusion_lat": 0.0, "name": "694193761288508b8680dd0927a52ec9", "is_disabled": 0, "rental_uris": {"android": "https://dc.lft.to/lastmile_qr_scan", "ios": "https://dc.lft.to/lastmile_qr_scan"}, "fusion_lon": 0.0, "lat": 38.886651, "bike_id": "694193761288508b8680dd0927a52ec9", "type": "electric_scooter", "is_reserved": 0, "lon": -77.02822866666666}, {"fusion_lat": 0.0, "name": "4068a9ce0381838254a90f8d10cc6c4a", "is_disabled": 0, "rental_uris": {"android": "https://dc.lft.to/lastmile_qr_scan", "ios": "https://dc.lft.to/lastmile_qr_scan"}, "fusion_lon": 0.0, "lat": 38.928479333333335, "bike_id": "4068a9ce0381838254a90f8d10cc6c4a", "type": "electric_scooter", "is_reserved": 0, "lon": -76.997751}, {"fusion_lat": 0.0, "name": "c4c3d0c43772b106070910d4ebb6cb84", "is_disabled": 0, "rental_uris": {"android": "https://dc.lft.to/lastmile_qr_scan", "ios": "https://dc.lft.to/lastmile_qr_scan"}, "fusion_lon": 0.0, "lat": 38.901504333333335, "bike_id": "c4c3d0c43772b106070910d4ebb6cb84", "type": "electric_scooter", "is_reserved": 0, "lon": -77.033235}, {"fusion_lat": 0.0, "name": "fefeba2e6a4a8afea2b1d9b94012064c", "is_disabled": 0, "rental_uris": {"android": "https://dc.lft.to/lastmile_qr_scan", "ios": "https://dc.lft.to/lastmile_qr_scan"}, "fusion_lon": 0.0, "lat": 38.900142833333334, "bike_id": "fefeba2e6a4a8afea2b1d9b94012064c", "type": "electric_scooter", "is_reserved": 0, "lon": -77.02608316666667}, {"fusion_lat": 0.0, "name": "1180fa2af0a77c334bdba91802994957", "is_disabled": 0, "rental_uris": {"android": "https://dc.lft.to/lastmile_qr_scan", "ios": "https://dc.lft.to/lastmile_qr_scan"}, "fusion_lon": 0.0, "lat": 38.917682166666665, "bike_id": "1180fa2af0a77c334bdba91802994957", "type": "electric_scooter", "is_reserved": 0, "lon": -77.024035}, {"fusion_lat": 0.0, "name": "33dc2c45514be5a87c01d7a5eda84a08", "is_disabled": 0, "rental_uris": {"android": "https://dc.lft.to/lastmile_qr_scan", "ios": "https://dc.lft.to/lastmile_qr_scan"}, "fusion_lon": 0.0, "lat": 38.8995785, "bike_id": "33dc2c45514be5a87c01d7a5eda84a08", "type": "electric_scooter", "is_reserved": 0, "lon": -77.015078}, {"fusion_lat": 0.0, "name": "161e80e33f64c70ecbeed4d11b2b53a3", "is_disabled": 0, "rental_uris": {"android": "https://dc.lft.to/lastmile_qr_scan", "ios": "https://dc.lft.to/lastmile_qr_scan"}, "fusion_lon": 0.0, "lat": 39.0107745, "bike_id": "161e80e33f64c70ecbeed4d11b2b53a3", "type": "electric_bike", "is_reserved": 0, "lon": -76.91063033333333}, {"fusion_lat": 0.0, "name": "b3ce2a6d5a619462bd39f7e02e1e260b", "is_disabled": 0, "rental_uris": {"android": "https://dc.lft.to/lastmile_qr_scan", "ios": "https://dc.lft.to/lastmile_qr_scan"}, "fusion_lon": 0.0, "lat": 38.921977166666665, "bike_id": "b3ce2a6d5a619462bd39f7e02e1e260b", "type": "electric_scooter", "is_reserved": 0, "lon": -77.04132016666667}, {"fusion_lat": 0.0, "name": "166020dde23e7ee8adc6bfb1d034d621", "is_disabled": 0, "rental_uris": {"android": "https://dc.lft.to/lastmile_qr_scan", "ios": "https://dc.lft.to/lastmile_qr_scan"}, "fusion_lon": 0.0, "lat": 38.905026166666666, "bike_id": "166020dde23e7ee8adc6bfb1d034d621", "type": "electric_scooter", "is_reserved": 0, "lon": -76.97955266666666}, {"fusion_lat": 0.0, "name": "e1e3b90235f929c2cd389e1449eef7e1", "is_disabled": 0, "rental_uris": {"android": "https://dc.lft.to/lastmile_qr_scan", "ios": "https://dc.lft.to/lastmile_qr_scan"}, "fusion_lon": 0.0, "lat": 38.924213, "bike_id": "e1e3b90235f929c2cd389e1449eef7e1", "type": "electric_scooter", "is_reserved": 0, "lon": -77.02012733333333}, {"fusion_lat": 0.0, "name": "72ef99c5adb4aa5ed9613bc9eea83779", "is_disabled": 0, "rental_uris": {"android": "https://dc.lft.to/lastmile_qr_scan", "ios": "https://dc.lft.to/lastmile_qr_scan"}, "fusion_lon": 0.0, "lat": 38.900338166666664, "bike_id": "72ef99c5adb4aa5ed9613bc9eea83779", "type": "electric_scooter", "is_reserved": 0, "lon": -76.99269516666666}, {"fusion_lat": 0.0, "name": "28ae4752bdebe19f5ca58e5601fd0c0d", "is_disabled": 0, "rental_uris": {"android": "https://dc.lft.to/lastmile_qr_scan", "ios": "https://dc.lft.to/lastmile_qr_scan"}, "fusion_lon": 0.0, "lat": 38.926564, "bike_id": "28ae4752bdebe19f5ca58e5601fd0c0d", "type": "electric_scooter", "is_reserved": 0, "lon": -77.02426183333333}, {"fusion_lat": 0.0, "name": "c36c5bc0ce3d549adfb238ebbdda7678", "is_disabled": 0, "rental_uris": {"android": "https://dc.lft.to/lastmile_qr_scan", "ios": "https://dc.lft.to/lastmile_qr_scan"}, "fusion_lon": 0.0, "lat": 38.91176316666667, "bike_id": "c36c5bc0ce3d549adfb238ebbdda7678", "type": "electric_scooter", "is_reserved": 0, "lon": -77.06863316666667}, {"fusion_lat": 0.0, "name": "8c212234a721b2798ee5dd1e3a41c48b", "is_disabled": 0, "rental_uris": {"android": "https://dc.lft.to/lastmile_qr_scan", "ios": "https://dc.lft.to/lastmile_qr_scan"}, "fusion_lon": 0.0, "lat": 38.898966333333334, "bike_id": "8c212234a721b2798ee5dd1e3a41c48b", "type": "electric_scooter", "is_reserved": 0, "lon": -76.97623966666667}, {"fusion_lat": 0.0, "name": "4e4c53c8bb0eea8d7969874b3962df24", "is_disabled": 0, "rental_uris": {"android": "https://dc.lft.to/lastmile_qr_scan", "ios": "https://dc.lft.to/lastmile_qr_scan"}, "fusion_lon": 0.0, "lat": 38.92261216666667, "bike_id": "4e4c53c8bb0eea8d7969874b3962df24", "type": "electric_scooter", "is_reserved": 0, "lon": -77.018448}, {"fusion_lat": 0.0, "name": "39bd65cf678aee78035dd24df93765c2", "is_disabled": 0, "rental_uris": {"android": "https://dc.lft.to/lastmile_qr_scan", "ios": "https://dc.lft.to/lastmile_qr_scan"}, "fusion_lon": 0.0, "lat": 38.93729533333333, "bike_id": "39bd65cf678aee78035dd24df93765c2", "type": "electric_scooter", "is_reserved": 0, "lon": -77.01922016666667}, {"fusion_lat": 0.0, "name": "4b731213a480a727b730e93209fe496b", "is_disabled": 0, "rental_uris": {"android": "https://dc.lft.to/lastmile_qr_scan", "ios": "https://dc.lft.to/lastmile_qr_scan"}, "fusion_lon": 0.0, "lat": 38.892223333333334, "bike_id": "4b731213a480a727b730e93209fe496b", "type": "electric_scooter", "is_reserved": 0, "lon": -77.048673}, {"fusion_lat": 0.0, "name": "8894e13c35eae8208f443f5a0ca0a065", "is_disabled": 0, "rental_uris": {"android": "https://dc.lft.to/lastmile_qr_scan", "ios": "https://dc.lft.to/lastmile_qr_scan"}, "fusion_lon": 0.0, "lat": 38.935245333333334, "bike_id": "8894e13c35eae8208f443f5a0ca0a065", "type": "electric_scooter", "is_reserved": 0, "lon": -77.07292583333333}, {"fusion_lat": 0.0, "name": "728cf7babec39153aa354734485e495e", "is_disabled": 0, "rental_uris": {"android": "https://dc.lft.to/lastmile_qr_scan", "ios": "https://dc.lft.to/lastmile_qr_scan"}, "fusion_lon": 0.0, "lat": 38.8613925, "bike_id": "728cf7babec39153aa354734485e495e", "type": "electric_bike", "is_reserved": 0, "lon": -76.97168316666666}, {"fusion_lat": 0.0, "name": "e1641e4021320ee009a71c89f1f07411", "is_disabled": 0, "rental_uris": {"android": "https://dc.lft.to/lastmile_qr_scan", "ios": "https://dc.lft.to/lastmile_qr_scan"}, "fusion_lon": 0.0, "lat": 38.94293316666667, "bike_id": "e1641e4021320ee009a71c89f1f07411", "type": "electric_scooter", "is_reserved": 0, "lon": -77.02173216666667}, {"fusion_lat": 0.0, "name": "aaf5e03256690e4df7dd047a2132bf4d", "is_disabled": 0, "rental_uris": {"android": "https://dc.lft.to/lastmile_qr_scan", "ios": "https://dc.lft.to/lastmile_qr_scan"}, "fusion_lon": 0.0, "lat": 38.957395166666664, "bike_id": "aaf5e03256690e4df7dd047a2132bf4d", "type": "electric_bike", "is_reserved": 0, "lon": -76.98084566666667}, {"fusion_lat": 0.0, "name": "c03db1c59d111960f3df252def2063f3", "is_disabled": 0, "rental_uris": {"android": "https://dc.lft.to/lastmile_qr_scan", "ios": "https://dc.lft.to/lastmile_qr_scan"},