{"data": {"bikes": [{"lat": 38.908697333333336, "fusion_lat": 0.0, "type": "electric_scooter", "bike_id": "779fc77c6193d9772266c3ae4882b900", "is_reserved": 0, "rental_uris": {"ios": "https://dc.lft.to/lastmile_qr_scan", "android": "https://dc.lft.to/lastmile_qr_scan"}, "is_disabled": 0, "lon": -77.03224216666666, "name": "779fc77c6193d9772266c3ae4882b900", "fusion_lon": 0.0}, {"lat": 38.92665483333333, "fusion_lat": 0.0, "type": "electric_scooter", "bike_id": "bdd43b6f8a146ae3779fa787edacd20c", "is_reserved": 0, "rental_uris": {"ios": "https://dc.lft.to/lastmile_qr_scan", "android": "https://dc.lft.to/lastmile_qr_scan"}, "is_disabled": 0, "lon": -76.9953695, "name": "bdd43b6f8a146ae3779fa787edacd20c", "fusion_lon": 0.0}, {"lat": 38.9054095, "fusion_lat": 0.0, "type": "electric_scooter", "bike_id": "cd8bec37068af2d984aa47f294acfd66", "is_reserved": 0, "rental_uris": {"ios": "https://dc.lft.to/lastmile_qr_scan", "android": "https://dc.lft.to/lastmile_qr_scan"}, "is_disabled": 0, "lon": -77.030789, "name": "cd8bec37068af2d984aa47f294acfd66", "fusion_lon": 0.0}, {"lat": 38.8986335, "fusion_lat": 0.0, "type": "electric_scooter", "bike_id": "25a189dd5c3f8b8446d5f594f809890e", "is_reserved": 0, "rental_uris": {"ios": "https://dc.lft.to/lastmile_qr_scan", "android": "https://dc.lft.to/lastmile_qr_scan"}, "is_disabled": 0, "lon": -76.92755033333333, "name": "25a189dd5c3f8b8446d5f594f809890e", "fusion_lon": 0.0}, {"lat": 38.9594115, "fusion_lat": 0.0, "type": "electric_scooter", "bike_id": "24374d3cdf360a0937b85884b7b45f90", "is_reserved": 0, "rental_uris": {"ios": "https://dc.lft.to/lastmile_qr_scan", "android": "https://dc.lft.to/lastmile_qr_scan"}, "is_disabled": 0, "lon": -77.03044866666667, "name": "24374d3cdf360a0937b85884b7b45f90", "fusion_lon": 0.0}, {"lat": 38.85539966666666, "fusion_lat": 0.0, "type": "electric_scooter", "bike_id": "9442f6f7e8aa49c0829fe61c02f9933f", "is_reserved": 0, "rental_uris": {"ios": "https://dc.lft.to/lastmile_qr_scan", "android": "https://dc.lft.to/lastmile_qr_scan"}, "is_disabled": 0, "lon": -76.9841415, "name": "9442f6f7e8aa49c0829fe61c02f9933f", "fusion_lon": 0.0}, {"lat": 38.98696966666667, "fusion_lat": 0.0, "type": "electric_scooter", "bike_id": "d8e50af118f66cdfab185c78b99201f2", "is_reserved": 0, "rental_uris": {"ios": "https://dc.lft.to/lastmile_qr_scan", "android": "https://dc.lft.to/lastmile_qr_scan"}, "is_disabled": 0, "lon": -77.02977733333333, "name": "d8e50af118f66cdfab185c78b99201f2", "fusion_lon": 0.0}, {"lat": 38.90083833333333, "fusion_lat": 0.0, "type": "electric_scooter", "bike_id": "7dca464a00d09b9dc0203e37c25b2ed1", "is_reserved": 0, "rental_uris": {"ios": "https://dc.lft.to/lastmile_qr_scan", "android": "https://dc.lft.to/lastmile_qr_scan"}, "is_disabled": 0, "lon": -76.93020066666666, "name": "7dca464a00d09b9dc0203e37c25b2ed1", "fusion_lon": 0.0}, {"lat": 38.92969033333333, "fusion_lat": 0.0, "type": "electric_scooter", "bike_id": "5a6e0323a11d4d4b0ff85c0ca33341c7", "is_reserved": 0, "rental_uris": {"ios": "https://dc.lft.to/lastmile_qr_scan", "android": "https://dc.lft.to/lastmile_qr_scan"}, "is_disabled": 0, "lon": -77.01687116666666, "name": "5a6e0323a11d4d4b0ff85c0ca33341c7", "fusion_lon": 0.0}, {"lat": 38.90012633333333, "fusion_lat": 0.0, "type": "electric_scooter", "bike_id": "cc690cf5b864fb5a30e58163355703c2", "is_reserved": 0, "rental_uris": {"ios": "https://dc.lft.to/lastmile_qr_scan", "android": "https://dc.lft.to/lastmile_qr_scan"}, "is_disabled": 0, "lon": -76.9992855, "name": "cc690cf5b864fb5a30e58163355703c2", "fusion_lon": 0.0}, {"lat": 38.921493, "fusion_lat": 0.0, "type": "electric_scooter", "bike_id": "d2fd509aed4bfbe2ca4e82db8356b3aa", "is_reserved": 0, "rental_uris": {"ios": "https://dc.lft.to/lastmile_qr_scan", "android": "https://dc.lft.to/lastmile_qr_scan"}, "is_disabled": 0, "lon": -77.034987, "name": "d2fd509aed4bfbe2ca4e82db8356b3aa", "fusion_lon": 0.0}, {"lat": 38.9002745, "fusion_lat": 0.0, "type": "electric_scooter", "bike_id": "2f19bf00b3338194ec4d7496adc7a946", "is_reserved": 0, "rental_uris": {"ios": "https://dc.lft.to/lastmile_qr_scan", "android": "https://dc.lft.to/lastmile_qr_scan"}, "is_disabled": 0, "lon": -76.98813883333334, "name": "2f19bf00b3338194ec4d7496adc7a946", "fusion_lon": 0.0}, {"lat": 39.056341, "fusion_lat": 0.0, "type": "electric_bike", "bike_id": "efac49fa4b90cdd471fb143c62aaa484", "is_reserved": 0, "rental_uris": {"ios": "https://dc.lft.to/lastmile_qr_scan", "android": "https://dc.lft.to/lastmile_qr_scan"}, "is_disabled": 0, "lon": -77.12523033333333, "name": "efac49fa4b90cdd471fb143c62aaa484", "fusion_lon": 0.0}, {"lat": 38.89880016666667, "fusion_lat": 0.0, "type": "electric_scooter", "bike_id": "13bc5b3fdb031ff2d63f27507ea7c9ed", "is_reserved": 0, "rental_uris": {"ios": "https://dc.lft.to/lastmile_qr_scan", "android": "https://dc.lft.to/lastmile_qr_scan"}, "is_disabled": 0, "lon": -77.01258516666667, "name": "13bc5b3fdb031ff2d63f27507ea7c9ed", "fusion_lon": 0.0}, {"lat": 38.89472633333333, "fusion_lat": 0.0, "type": "electric_scooter", "bike_id": "dfccad0dbf8425f57bcf0dd09443ed66", "is_reserved": 0, "rental_uris": {"ios": "https://dc.lft.to/lastmile_qr_scan", "android": "https://dc.lft.to/lastmile_qr_scan"}, "is_disabled": 0, "lon": -77.0109785, "name": "dfccad0dbf8425f57bcf0dd09443ed66", "fusion_lon": 0.0}, {"lat": 38.90324733333333, "fusion_lat": 0.0, "type": "electric_scooter", "bike_id": "f90e915686963b34052caa6b82be7953", "is_reserved": 0, "rental_uris": {"ios": "https://dc.lft.to/lastmile_qr_scan", "android": "https://dc.lft.to/lastmile_qr_scan"}, "is_disabled": 0, "lon": -77.05029616666667, "name": "f90e915686963b34052caa6b82be7953", "fusion_lon": 0.0}, {"lat": 38.9058225, "fusion_lat": 0.0, "type": "electric_scooter", "bike_id": "f1e6d2a75a2d2f75b7339f8734489019", "is_reserved": 0, "rental_uris": {"ios": "https://dc.lft.to/lastmile_qr_scan", "android": "https://dc.lft.to/lastmile_qr_scan"}, "is_disabled": 0, "lon": -77.05126333333334, "name": "f1e6d2a75a2d2f75b7339f8734489019", "fusion_lon": 0.0}, {"lat": 38.90966066666667, "fusion_lat": 0.0, "type": "electric_scooter", "bike_id": "c8ff29644f175b31aebd236280e12efe", "is_reserved": 0, "rental_uris": {"ios": "https://dc.lft.to/lastmile_qr_scan", "android": "https://dc.lft.to/lastmile_qr_scan"}, "is_disabled": 0, "lon": -77.009308, "name": "c8ff29644f175b31aebd236280e12efe", "fusion_lon": 0.0}, {"lat": 38.90097883333333, "fusion_lat": 0.0, "type": "electric_scooter", "bike_id": "2cb03f47b15c6f6c34c7d11cb1e75eec", "is_reserved": 0, "rental_uris": {"ios": "https://dc.lft.to/lastmile_qr_scan", "android": "https://dc.lft.to/lastmile_qr_scan"}, "is_disabled": 0, "lon": -77.02728133333333, "name": "2cb03f47b15c6f6c34c7d11cb1e75eec", "fusion_lon": 0.0}, {"lat": 38.91573416666667, "fusion_lat": 0.0, "type": "electric_scooter", "bike_id": "b1f6b53bdbf27b91b7209d6a1ad07b6b", "is_reserved": 0, "rental_uris": {"ios": "https://dc.lft.to/lastmile_qr_scan", "android": "https://dc.lft.to/lastmile_qr_scan"}, "is_disabled": 0, "lon": -77.0124935, "name": "b1f6b53bdbf27b91b7209d6a1ad07b6b", "fusion_lon": 0.0}, {"lat": 38.9370845, "fusion_lat": 0.0, "type": "electric_scooter", "bike_id": "c60fcb39259bbfe4542608e9d28c12d4", "is_reserved": 0, "rental_uris": {"ios": "https://dc.lft.to/lastmile_qr_scan", "android": "https://dc.lft.to/lastmile_qr_scan"}, "is_disabled": 0, "lon": -77.06099366666666, "name": "c60fcb39259bbfe4542608e9d28c12d4", "fusion_lon": 0.0}, {"lat": 38.91690283333333, "fusion_lat": 0.0, "type": "electric_scooter", "bike_id": "706086329468905eb503e7ef6519cc6d", "is_reserved": 0, "rental_uris": {"ios": "https://dc.lft.to/lastmile_qr_scan", "android": "https://dc.lft.to/lastmile_qr_scan"}, "is_disabled": 0, "lon": -77.03875166666667, "name": "706086329468905eb503e7ef6519cc6d", "fusion_lon": 0.0}, {"lat": 38.9662155, "fusion_lat": 0.0, "type": "electric_scooter", "bike_id": "ba1d81821a57d70b0ce712d51d8662a9", "is_reserved": 0, "rental_uris": {"ios": "https://dc.lft.to/lastmile_qr_scan", "android": "https://dc.lft.to/lastmile_qr_scan"}, "is_disabled": 0, "lon": -77.02248183333333, "name": "ba1d81821a57d70b0ce712d51d8662a9", "fusion_lon": 0.0}, {"lat": 38.90676666666667, "fusion_lat": 0.0, "type": "electric_scooter", "bike_id": "aa533d68e705cc077fdb466163d66600", "is_reserved": 0, "rental_uris": {"ios": "https://dc.lft.to/lastmile_qr_scan", "android": "https://dc.lft.to/lastmile_qr_scan"}, "is_disabled": 0, "lon": -77.07174583333334, "name": "aa533d68e705cc077fdb466163d66600", "fusion_lon": 0.0}, {"lat": 38.923458833333335, "fusion_lat": 0.0, "type": "electric_scooter", "bike_id": "980a5cd433c4ac30243bd71930520603", "is_reserved": 0, "rental_uris": {"ios": "https://dc.lft.to/lastmile_qr_scan", "android": "https://dc.lft.to/lastmile_qr_scan"}, "is_disabled": 0, "lon": -77.03525983333333, "name": "980a5cd433c4ac30243bd71930520603", "fusion_lon": 0.0}, {"lat": 38.89325933333333, "fusion_lat": 0.0, "type": "electric_scooter", "bike_id": "15e54f8cad20def736b1fc953136ac8d", "is_reserved": 0, "rental_uris": {"ios": "https://dc.lft.to/lastmile_qr_scan", "android": "https://dc.lft.to/lastmile_qr_scan"}, "is_disabled": 0, "lon": -77.04875383333334, "name": "15e54f8cad20def736b1fc953136ac8d", "fusion_lon": 0.0}, {"lat": 38.90565216666667, "fusion_lat": 0.0, "type": "electric_scooter", "bike_id": "13c06e2649ac83709c8ca7e21f259326", "is_reserved": 0, "rental_uris": {"ios": "https://dc.lft.to/lastmile_qr_scan", "android": "https://dc.lft.to/lastmile_qr_scan"}, "is_disabled": 0, "lon": -77.02963266666667, "name": "13c06e2649ac83709c8ca7e21f259326", "fusion_lon": 0.0}, {"lat": 38.91695833333333, "fusion_lat": 0.0, "type": "electric_scooter", "bike_id": "9226d33a6dfe46c2f2fa49334584a0ae", "is_reserved": 0, "rental_uris": {"ios": "https://dc.lft.to/lastmile_qr_scan", "android": "https://dc.lft.to/lastmile_qr_scan"}, "is_disabled": 0, "lon": -77.03585233333334, "name": "9226d33a6dfe46c2f2fa49334584a0ae", "fusion_lon": 0.0}, {"lat": 38.874180833333334, "fusion_lat": 0.0, "type": "electric_scooter", "bike_id": "0d0c3c3243570ba7993fe952aa1ef7a9", "is_reserved": 0, "rental_uris": {"ios": "https://dc.lft.to/lastmile_qr_scan", "android": "https://dc.lft.to/lastmile_qr_scan"}, "is_disabled": 0, "lon": -76.97115166666667, "name": "0d0c3c3243570ba7993fe952aa1ef7a9", "fusion_lon": 0.0}, {"lat": 38.907213, "fusion_lat": 0.0, "type": "electric_scooter", "bike_id": "28b0529766c4ebbfa38fd5ccc48deb82", "is_reserved": 0, "rental_uris": {"ios": "https://dc.lft.to/lastmile_qr_scan", "android": "https://dc.lft.to/lastmile_qr_scan"}, "is_disabled": 0, "lon": -77.029801, "name": "28b0529766c4ebbfa38fd5ccc48deb82", "fusion_lon": 0.0}, {"lat": 38.916319333333334, "fusion_lat": 0.0, "type": "electric_scooter", "bike_id": "534408332415ce7156124a122913db69", "is_reserved": 0, "rental_uris": {"ios": "https://dc.lft.to/lastmile_qr_scan", "android": "https://dc.lft.to/lastmile_qr_scan"}, "is_disabled": 0, "lon": -77.04239233333334, "name": "534408332415ce7156124a122913db69", "fusion_lon": 0.0}, {"lat": 38.9515295, "fusion_lat": 0.0, "type": "electric_scooter", "bike_id": "98c23232f0b8d7ae14b69500e77cfb79", "is_reserved": 0, "rental_uris": {"ios": "https://dc.lft.to/lastmile_qr_scan", "android": "https://dc.lft.to/lastmile_qr_scan"}, "is_disabled": 0, "lon": -77.01866866666667, "name": "98c23232f0b8d7ae14b69500e77cfb79", "fusion_lon": 0.0}, {"lat": 38.89504383333333, "fusion_lat": 0.0, "type": "electric_scooter", "bike_id": "bb563bb2977104058358ad8003bed17d", "is_reserved": 0, "rental_uris": {"ios": "https://dc.lft.to/lastmile_qr_scan", "android": "https://dc.lft.to/lastmile_qr_scan"}, "is_disabled": 0, "lon": -76.93474916666666, "name": "bb563bb2977104058358ad8003bed17d", "fusion_lon": 0.0}, {"lat": 38.926244, "fusion_lat": 0.0, "type": "electric_scooter", "bike_id": "9d89bf506c97120e691ade85eaa24ad5", "is_reserved": 0, "rental_uris": {"ios": "https://dc.lft.to/lastmile_qr_scan", "android": "https://dc.lft.to/lastmile_qr_scan"}, "is_disabled": 0, "lon": -77.04314066666667, "name": "9d89bf506c97120e691ade85eaa24ad5", "fusion_lon": 0.0}, {"lat": 38.905658833333334, "fusion_lat": 0.0, "type": "electric_scooter", "bike_id": "c6332f83f38952a6cd220909bda7c5a7", "is_reserved": 0, "rental_uris": {"ios": "https://dc.lft.to/lastmile_qr_scan", "android": "https://dc.lft.to/lastmile_qr_scan"}, "is_disabled": 0, "lon": -77.03446566666666, "name": "c6332f83f38952a6cd220909bda7c5a7", "fusion_lon": 0.0}, {"lat": 38.91911616666667, "fusion_lat": 0.0, "type": "electric_bike", "bike_id": "157ac00913354964617ff4a6aae14ef5", "is_reserved": 0, "rental_uris": {"ios": "https://dc.lft.to/lastmile_qr_scan", "android": "https://dc.lft.to/lastmile_qr_scan"}, "is_disabled": 0, "lon": -77.0200615, "name": "157ac00913354964617ff4a6aae14ef5", "fusion_lon": 0.0}, {"lat": 38.90243666666667, "fusion_lat": 0.0, "type": "electric_scooter", "bike_id": "16a519412ca1579f031751df5f093f67", "is_reserved": 0, "rental_uris": {"ios": "https://dc.lft.to/lastmile_qr_scan", "android": "https://dc.lft.to/lastmile_qr_scan"}, "is_disabled": 0, "lon": -77.04328116666667, "name": "16a519412ca1579f031751df5f093f67", "fusion_lon": 0.0}, {"lat": 38.922381333333334, "fusion_lat": 0.0, "type": "electric_scooter", "bike_id": "55c846cb2ada10e87ee3c7689bdc0356", "is_reserved": 0, "rental_uris": {"ios": "https://dc.lft.to/lastmile_qr_scan", "android": "https://dc.lft.to/lastmile_qr_scan"}, "is_disabled": 0, "lon": -77.0335325, "name": "55c846cb2ada10e87ee3c7689bdc0356", "fusion_lon": 0.0}, {"lat": 38.988574166666666, "fusion_lat": 0.0, "type": "electric_bike", "bike_id": "a8311247330511212cfdfc31048985cc", "is_reserved": 0, "rental_uris": {"ios": "https://dc.lft.to/lastmile_qr_scan", "android": "https://dc.lft.to/lastmile_qr_scan"}, "is_disabled": 0, "lon": -77.09558283333334, "name": "a8311247330511212cfdfc31048985cc", "fusion_lon": 0.0}, {"lat": 38.88208566666667, "fusion_lat": 0.0, "type": "electric_bike", "bike_id": "f8f36b6f23800c3801e5d7dc2293ba0a", "is_reserved": 0, "rental_uris": {"ios": "https://dc.lft.to/lastmile_qr_scan", "android": "https://dc.lft.to/lastmile_qr_scan"}, "is_disabled": 0, "lon": -77.11748316666667, "name": "f8f36b6f23800c3801e5d7dc2293ba0a", "fusion_lon": 0.0}, {"lat": 38.866897, "fusion_lat": 0.0, "type": "electric_scooter", "bike_id": "7de647481dd8d760dbaa8a60512868b1", "is_reserved": 0, "rental_uris": {"ios": "https://dc.lft.to/lastmile_qr_scan", "android": "https://dc.lft.to/lastmile_qr_scan"}, "is_disabled": 0, "lon": -76.9856905, "name": "7de647481dd8d760dbaa8a60512868b1", "fusion_lon": 0.0}, {"lat": 38.905286333333336, "fusion_lat": 0.0, "type": "electric_scooter", "bike_id": "9213bd8b22c9c14f7aa97f65dbe25302", "is_reserved": 0, "rental_uris": {"ios": "https://dc.lft.to/lastmile_qr_scan", "android": "https://dc.lft.to/lastmile_qr_scan"}, "is_disabled": 0, "lon": -77.0653195, "name": "9213bd8b22c9c14f7aa97f65dbe25302", "fusion_lon": 0.0}, {"lat": 38.903735833333336, "fusion_lat": 0.0, "type": "electric_scooter", "bike_id": "f95945807908fde5459b24e7bf99f3fa", "is_reserved": 0, "rental_uris": {"ios": "https://dc.lft.to/lastmile_qr_scan", "android": "https://dc.lft.to/lastmile_qr_scan"}, "is_disabled": 0, "lon": -77.04332216666667, "name": "f95945807908fde5459b24e7bf99f3fa", "fusion_lon": 0.0}, {"lat": 38.928307833333335, "fusion_lat": 0.0, "type": "electric_scooter", "bike_id": "a94ff25ea4b05e486bb335d5512861b7", "is_reserved": 0, "rental_uris": {"ios": "https://dc.lft.to/lastmile_qr_scan", "android": "https://dc.lft.to/lastmile_qr_scan"}, "is_disabled": 0, "lon": -77.03633933333333, "name": "a94ff25ea4b05e486bb335d5512861b7", "fusion_lon": 0.0}, {"lat": 38.92071766666667, "fusion_lat": 0.0, "type": "electric_scooter", "bike_id": "d0d589aa899f1c14dcb1bd513eab550c", "is_reserved": 0, "rental_uris": {"ios": "https://dc.lft.to/lastmile_qr_scan", "android": "https://dc.lft.to/lastmile_qr_scan"}, "is_disabled": 0, "lon": -77.02281366666666, "name": "d0d589aa899f1c14dcb1bd513eab550c", "fusion_lon": 0.0}, {"lat": 38.89618016666667, "fusion_lat": 0.0, "type": "electric_scooter", "bike_id": "fcb6dadf43c34c08d9016798705f5c7c", "is_reserved": 0, "rental_uris": {"ios": "https://dc.lft.to/lastmile_qr_scan", "android": "https://dc.lft.to/lastmile_qr_scan"}, "is_disabled": 0, "lon": -77.0447295, "name": "fcb6dadf43c34c08d9016798705f5c7c", "fusion_lon": 0.0}, {"lat": 38.933286333333335, "fusion_lat": 0.0, "type": "electric_scooter", "bike_id": "397a8b3c693faf58aac4811bf64425fc", "is_reserved": 0, "rental_uris": {"ios": "https://dc.lft.to/lastmile_qr_scan", "android": "https://dc.lft.to/lastmile_qr_scan"}, "is_disabled": 0, "lon": -77.03431616666667, "name": "397a8b3c693faf58aac4811bf64425fc", "fusion_lon": 0.0}, {"lat": 38.92036483333333, "fusion_lat": 0.0, "type": "electric_scooter", "bike_id": "a06d4b53d97b285de5240a60604ced9f", "is_reserved": 0, "rental_uris": {"ios": "https://dc.lft.to/lastmile_qr_scan", "android": "https://dc.lft.to/lastmile_qr_scan"}, "is_disabled": 0, "lon": -77.02587216666667, "name": "a06d4b53d97b285de5240a60604ced9f", "fusion_lon": 0.0}, {"lat": 38.92073766666667, "fusion_lat": 0.0, "type": "electric_scooter", "bike_id": "7b59bda1d80468201c5f5b6046cdaabc", "is_reserved": 0, "rental_uris": {"ios": "https://dc.lft.to/lastmile_qr_scan", "android": "https://dc.lft.to/lastmile_qr_scan"}, "is_disabled": 0, "lon": -77.02511833333334, "name": "7b59bda1d80468201c5f5b6046cdaabc", "fusion_lon": 0.0}, {"lat": 38.9340435, "fusion_lat": 0.0, "type": "electric_scooter", "bike_id": "e0a32d25d4c66ac99126482a470f537b", "is_reserved": 0, "rental_uris": {"ios": "https://dc.lft.to/lastmile_qr_scan", "android": "https://dc.lft.to/lastmile_qr_scan"}, "is_disabled": 0, "lon": -77.03986216666667, "name": "e0a32d25d4c66ac99126482a470f537b", "fusion_lon": 0.0}, {"lat": 38.88811116666667, "fusion_lat": 0.0, "type": "electric_bike", "bike_id": "dfe1ac440e5012fd01d6ad878d201736", "is_reserved": 0, "rental_uris": {"ios": "https://dc.lft.to/lastmile_qr_scan", "android": "https://dc.lft.to/lastmile_qr_scan"}, "is_disabled": 0, "lon": -77.12637916666667, "name": "dfe1ac440e5012fd01d6ad878d201736", "fusion_lon": 0.0}, {"lat": 38.90632216666667, "fusion_lat": 0.0, "type": "electric_scooter", "bike_id": "5585b5627514fba88aad978497c9b00f", "is_reserved": 0, "rental_uris": {"ios": "https://dc.lft.to/lastmile_qr_scan", "android": "https://dc.lft.to/lastmile_qr_scan"}, "is_disabled": 0, "lon": -77.0514855, "name": "5585b5627514fba88aad978497c9b00f", "fusion_lon": 0.0}, {"lat": 38.9422445, "fusion_lat": 0.0, "type": "electric_bike", "bike_id": "fe56de2c7315045b382da12ca2200b5b", "is_reserved": 0, "rental_uris": {"ios": "https://dc.lft.to/lastmile_qr_scan", "android": "https://dc.lft.to/lastmile_qr_scan"}, "is_disabled": 0, "lon": -76.966172, "name": "fe56de2c7315045b382da12ca2200b5b", "fusion_lon": 0.0}, {"lat": 38.924608, "fusion_lat": 0.0, "type": "electric_scooter", "bike_id": "48a0de3f7ac49d020534ceb646462c02", "is_reserved": 0, "rental_uris": {"ios": "https://dc.lft.to/lastmile_qr_scan", "android": "https://dc.lft.to/lastmile_qr_scan"}, "is_disabled": 0, "lon": -77.07829, "name": "48a0de3f7ac49d020534ceb646462c02", "fusion_lon": 0.0}, {"lat": 38.929677833333336, "fusion_lat": 0.0, "type": "electric_bike", "bike_id": "cf2126cc660eeb8ca5e7ed4eee99dd4b", "is_reserved": 0, "rental_uris": {"ios": "https://dc.lft.to/lastmile_qr_scan", "android": "https://dc.lft.to/lastmile_qr_scan"}, "is_disabled": 0, "lon": -77.185628, "name": "cf2126cc660eeb8ca5e7ed4eee99dd4b", "fusion_lon": 0.0}, {"lat": 38.88608283333333, "fusion_lat": 0.0, "type": "electric_scooter", "bike_id": "adf8a52ca6271445d65deea3a12f6cee", "is_reserved": 0, "rental_uris": {"ios": "https://dc.lft.to/lastmile_qr_scan", "android": "https://dc.lft.to/lastmile_qr_scan"}, "is_disabled": 0, "lon": -76.995108, "name": "adf8a52ca6271445d65deea3a12f6cee", "fusion_lon": 0.0}, {"lat": 38.90294733333333, "fusion_lat": 0.0, "type": "electric_scooter", "bike_id": "41849db5b07719c8708b5a2cf35a7c61", "is_reserved": 0, "rental_uris": {"ios": "https://dc.lft.to/lastmile_qr_scan", "android": "https://dc.lft.to/lastmile_qr_scan"}, "is_disabled": 0, "lon": -77.058109, "name": "41849db5b07719c8708b5a2cf35a7c61", "fusion_lon": 0.0}, {"lat": 38.89840683333333, "fusion_lat": 0.0, "type": "electric_scooter", "bike_id": "36041b3d2cca3437c0e2b03020f87f01", "is_reserved": 0, "rental_uris": {"ios": "https://dc.lft.to/lastmile_qr_scan", "android": "https://dc.lft.to/lastmile_qr_scan"}, "is_disabled": 0, "lon": -77.02573916666667, "name": "36041b3d2cca3437c0e2b03020f87f01", "fusion_lon": 0.0}, {"lat": 39.05501566666667, "fusion_lat": 0.0, "type": "electric_bike", "bike_id": "a2ed5ef0ed1ebc1d8bbde8ada1bf7d18", "is_reserved": 0, "rental_uris": {"ios": "https://dc.lft.to/lastmile_qr_scan", "android": "https://dc.lft.to/lastmile_qr_scan"}, "is_disabled": 0, "lon": -77.04649033333334, "name": "a2ed5ef0ed1ebc1d8bbde8ada1bf7d18", "fusion_lon": 0.0}, {"lat": 38.89982883333333, "fusion_lat": 0.0, "type": "electric_scooter", "bike_id": "e4223bbb2857ada54e965d57c42064f4", "is_reserved": 0, "rental_uris": {"ios": "https://dc.lft.to/lastmile_qr_scan", "android": "https://dc.lft.to/lastmile_qr_scan"}, "is_disabled": 0, "lon": -77.02624866666666, "name": "e4223bbb2857ada54e965d57c42064f4", "fusion_lon": 0.0}, {"lat": 38.93540566666667, "fusion_lat": 0.0, "type": "electric_scooter", "bike_id": "597dd527de373d6886822c8ab9897eef", "is_reserved": 0, "rental_uris": {"ios": "https://dc.lft.to/lastmile_qr_scan", "android": "https://dc.lft.to/lastmile_qr_scan"}, "is_disabled": 0, "lon": -77.0585905, "name": "597dd527de373d6886822c8ab9897eef", "fusion_lon": 0.0}, {"lat": 38.9322515, "fusion_lat": 0.0, "type": "electric_scooter", "bike_id": "fe8847f0ab16d036d76f94ab1751c187", "is_reserved": 0, "rental_uris": {"ios": "https://dc.lft.to/lastmile_qr_scan", "android": "https://dc.lft.to/lastmile_qr_scan"}, "is_disabled": 0, "lon": -76.99539733333333, "name": "fe8847f0ab16d036d76f94ab1751c187", "fusion_lon": 0.0}, {"lat": 38.91685783333333, "fusion_lat": 0.0, "type": "electric_scooter", "bike_id": "22535b93b7c0b15a2e3362f8a1d3ff49", "is_reserved": 0, "rental_uris": {"ios": "https://dc.lft.to/lastmile_qr_scan", "android": "https://dc.lft.to/lastmile_qr_scan"}, "is_disabled": 0, "lon": -77.03154633333334, "name": "22535b93b7c0b15a2e3362f8a1d3ff49", "fusion_lon": 0.0}, {"lat": 38.9695875, "fusion_lat": 0.0, "type": "electric_bike", "bike_id": "32fc829857399d2e61a14af739b009cc", "is_reserved": 0, "rental_uris": {"ios": "https://dc.lft.to/lastmile_qr_scan", "android": "https://dc.lft.to/lastmile_qr_scan"}, "is_disabled": 0, "lon": -76.95750366666667, "name": "32fc829857399d2e61a14af739b009cc", "fusion_lon": 0.0}, {"lat": 38.92326, "fusion_lat": 0.0, "type": "electric_scooter", "bike_id": "2495e7351f26e3c008dd9d7e9bb24274", "is_reserved": 0, "rental_uris": {"ios": "https://dc.lft.to/lastmile_qr_scan", "android": "https://dc.lft.to/lastmile_qr_scan"}, "is_disabled": 0, "lon": -77.029611, "name": "2495e7351f26e3c008dd9d7e9bb24274", "fusion_lon": 0.0}, {"lat": 38.864736666666666, "fusion_lat": 0.0, "type": "electric_scooter", "bike_id": "6221b195ee31a6b6bdfdb516e4c86e86", "is_reserved": 0, "rental_uris": {"ios": "https://dc.lft.to/lastmile_qr_scan", "android": "https://dc.lft.to/lastmile_qr_scan"}, "is_disabled": 0, "lon": -76.9774015, "name": "6221b195ee31a6b6bdfdb516e4c86e86", "fusion_lon": 0.0}, {"lat": 38.90842516666667, "fusion_lat": 0.0, "type": "electric_scooter", "bike_id": "c69304167f51c7f9415975d3facb9548", "is_reserved": 0, "rental_uris": {"ios": "https://dc.lft.to/lastmile_qr_scan", "android": "https://dc.lft.to/lastmile_qr_scan"}, "is_disabled": 0, "lon": -77.01272233333333, "name": "c69304167f51c7f9415975d3facb9548", "fusion_lon": 0.0}, {"lat": 38.893596, "fusion_lat": 0.0, "type": "electric_scooter", "bike_id": "39de4b7527751aeb8f2ac6c95a8639f0", "is_reserved": 0, "rental_uris": {"ios": "https://dc.lft.to/lastmile_qr_scan", "android": "https://dc.lft.to/lastmile_qr_scan"}, "is_disabled": 0, "lon": -76.9493525, "name": "39de4b7527751aeb8f2ac6c95a8639f0", "fusion_lon": 0.0}, {"lat": 38.924139333333336, "fusion_lat": 0.0, "type": "electric_scooter", "bike_id": "719c0aab7f188dccc8e580822c783f56", "is_reserved": 0, "rental_uris": {"ios": "https://dc.lft.to/lastmile_qr_scan", "android": "https://dc.lft.to/lastmile_qr_scan"}, "is_disabled": 0, "lon": -77.02014666666666, "name": "719c0aab7f188dccc8e580822c783f56", "fusion_lon": 0.0}, {"lat": 38.9202645, "fusion_lat": 0.0, "type": "electric_scooter", "bike_id": "7bfcc085cb7c14d47d9c20c4562a3d19", "is_reserved": 0, "rental_uris": {"ios": "https://dc.lft.to/lastmile_qr_scan", "android": "https://dc.lft.to/lastmile_qr_scan"}, "is_disabled": 0, "lon": -77.01869833333333, "name": "7bfcc085cb7c14d47d9c20c4562a3d19", "fusion_lon": 0.0}, {"lat": 38.9168535, "fusion_lat": 0.0, "type": "electric_scooter", "bike_id": "0c41ce92f2c430e4fd1160e8f280f145", "is_reserved": 0, "rental_uris": {"ios": "https://dc.lft.to/lastmile_qr_scan", "android": "https://dc.lft.to/lastmile_qr_scan"}, "is_disabled": 0, "lon": -77.02695266666667, "name": "0c41ce92f2c430e4fd1160e8f280f145", "fusion_lon": 0.0}, {"lat": 38.91575733333333, "fusion_lat": 0.0, "type": "electric_scooter", "bike_id": "297a42540be3d94ebfdfa17712123b43", "is_reserved": 0, "rental_uris": {"ios": "https://dc.lft.to/lastmile_qr_scan", "android": "https://dc.lft.to/lastmile_qr_scan"}, "is_disabled": 0, "lon": -77.0449235, "name": "297a42540be3d94ebfdfa17712123b43", "fusion_lon": 0.0}, {"lat": 38.9306805, "fusion_lat": 0.0, "type": "electric_scooter", "bike_id": "dc16e86b9cdcf4ffc9d58235fe1bab32", "is_reserved": 0, "rental_uris": {"ios": "https://dc.lft.to/lastmile_qr_scan", "android": "https://dc.lft.to/lastmile_qr_scan"}, "is_disabled": 0, "lon": -77.02186266666666, "name": "dc16e86b9cdcf4ffc9d58235fe1bab32", "fusion_lon": 0.0}, {"lat": 38.9027255, "fusion_lat": 0.0, "type": "electric_scooter", "bike_id": "5ce9b6418a048bff03882915ae2f65b3", "is_reserved": 0, "rental_uris": {"ios": "https://dc.lft.to/lastmile_qr_scan", "android": "https://dc.lft.to/lastmile_qr_scan"}, "is_disabled": 0, "lon": -77.05920033333334, "name": "5ce9b6418a048bff03882915ae2f65b3", "fusion_lon": 0.0}, {"lat": 38.902686833333334, "fusion_lat": 0.0, "type": "electric_scooter", "bike_id": "dbd223ad04846c5af7624af3e41fe1f7", "is_reserved": 0, "rental_uris": {"ios": "https://dc.lft.to/lastmile_qr_scan", "android": "https://dc.lft.to/lastmile_qr_scan"}, "is_disabled": 0, "lon": -77.02000366666667, "name": "dbd223ad04846c5af7624af3e41fe1f7", "fusion_lon": 0.0}, {"lat": 38.905073333333334, "fusion_lat": 0.0, "type": "electric_scooter", "bike_id": "fd78d18d64cde144d636a19d6a75bbb7", "is_reserved": 0, "rental_uris": {"ios": "https://dc.lft.to/lastmile_qr_scan", "android": "https://dc.lft.to/lastmile_qr_scan"}, "is_disabled": 0, "lon": -77.06016083333333, "name": "fd78d18d64cde144d636a19d6a75bbb7", "fusion_lon": 0.0}, {"lat": 38.9004355, "fusion_lat": 0.0, "type": "electric_scooter", "bike_id": "9e67470cb089a90403403fd6af561f16", "is_reserved": 0, "rental_uris": {"ios": "https://dc.lft.to/lastmile_qr_scan", "android": "https://dc.lft.to/lastmile_qr_scan"}, "is_disabled": 0, "lon": -77.01271966666667, "name": "9e67470cb089a90403403fd6af561f16", "fusion_lon": 0.0}, {"lat": 38.903735, "fusion_lat": 0.0, "type": "electric_scooter", "bike_id": "1f07f0d4b9646779eb76212d93e3871a", "is_reserved": 0, "rental_uris": {"ios": "https://dc.lft.to/lastmile_qr_scan", "android": "https://dc.lft.to/lastmile_qr_scan"}, "is_disabled": 0, "lon": -77.043491, "name": "1f07f0d4b9646779eb76212d93e3871a", "fusion_lon": 0.0}, {"lat": 38.869541, "fusion_lat": 0.0, "type": "electric_scooter", "bike_id": "a1ba5180cb875d8f8af6d6e4a6aff796", "is_reserved": 0, "rental_uris": {"ios": "https://dc.lft.to/lastmile_qr_scan", "android": "https://dc.lft.to/lastmile_qr_scan"}, "is_disabled": 0, "lon": -76.98171716666667, "name": "a1ba5180cb875d8f8af6d6e4a6aff796", "fusion_lon": 0.0}, {"lat": 38.928604, "fusion_lat": 0.0, "type": "electric_scooter", "bike_id": "e851825288a054612eda2ed48ca6d1f3", "is_reserved": 0, "rental_uris": {"ios": "https://dc.lft.to/lastmile_qr_scan", "android": "https://dc.lft.to/lastmile_qr_scan"}, "is_disabled": 0, "lon": -77.03262533333333, "name": "e851825288a054612eda2ed48ca6d1f3", "fusion_lon": 0.0}, {"lat": 38.8999825, "fusion_lat": 0.0, "type": "electric_scooter", "bike_id": "e6d7d3935cfd27332d3bad45771f2227", "is_reserved": 0, "rental_uris": {"ios": "https://dc.lft.to/lastmile_qr_scan", "android": "https://dc.lft.to/lastmile_qr_scan"}, "is_disabled": 0, "lon": -77.0014345, "name": "e6d7d3935cfd27332d3bad45771f2227", "fusion_lon": 0.0}, {"lat": 38.9059995, "fusion_lat": 0.0, "type": "electric_scooter", "bike_id": "9356291897922093fce583641b184081", "is_reserved": 0, "rental_uris": {"ios": "https://dc.lft.to/lastmile_qr_scan", "android": "https://dc.lft.to/lastmile_qr_scan"}, "is_disabled": 0, "lon": -77.06420916666667, "name": "9356291897922093fce583641b184081", "fusion_lon": 0.0}, {"lat": 38.897076166666665, "fusion_lat": 0.0, "type": "electric_scooter", "bike_id": "db5e6ee6e1067259cff6dda50b8c2854", "is_reserved": 0, "rental_uris": {"ios": "https://dc.lft.to/lastmile_qr_scan", "android": "https://dc.lft.to/lastmile_qr_scan"}, "is_disabled": 0, "lon": -77.02127683333333, "name": "db5e6ee6e1067259cff6dda50b8c2854", "fusion_lon": 0.0}, {"lat": 38.9240865, "fusion_lat": 0.0, "type": "electric_scooter", "bike_id": "ab721a8fba1cb37a6a33da38b58da106", "is_reserved": 0, "rental_uris": {"ios": "https://dc.lft.to/lastmile_qr_scan", "android": "https://dc.lft.to/lastmile_qr_scan"}, "is_disabled": 0, "lon": -77.04449116666666, "name": "ab721a8fba1cb37a6a33da38b58da106", "fusion_lon": 0.0}, {"lat": 38.90150216666667, "fusion_lat": 0.0, "type": "electric_scooter", "bike_id": "97ffe1fed1b00e2abb77ef43f980d7b7", "is_reserved": 0, "rental_uris": {"ios": "https://dc.lft.to/lastmile_qr_scan", "android": "https://dc.lft.to/lastmile_qr_scan"}, "is_disabled": 0, "lon": -76.93057233333333, "name": "97ffe1fed1b00e2abb77ef43f980d7b7", "fusion_lon": 0.0}, {"lat": 38.9087905, "fusion_lat": 0.0, "type": "electric_scooter", "bike_id": "133bc6692e39078e8eb8c6986411872c", "is_reserved": 0, "rental_uris": {"ios": "https://dc.lft.to/lastmile_qr_scan", "android": "https://dc.lft.to/lastmile_qr_scan"}, "is_disabled": 0, "lon": -77.03751983333333, "name": "133bc6692e39078e8eb8c6986411872c", "fusion_lon": 0.0}, {"lat": 38.903792, "fusion_lat": 0.0, "type": "electric_scooter", "bike_id": "2951f99663b4cb5b5e3daedc2d3ed811", "is_reserved": 0, "rental_uris": {"ios": "https://dc.lft.to/lastmile_qr_scan", "android": "https://dc.lft.to/lastmile_qr_scan"}, "is_disabled": 0, "lon": -76.9375635, "name": "2951f99663b4cb5b5e3daedc2d3ed811", "fusion_lon": 0.0}, {"lat": 38.9135715, "fusion_lat": 0.0, "type": "electric_scooter", "bike_id": "5873b49e9d3cae89452d58d5bd70b1ad", "is_reserved": 0, "rental_uris": {"ios": "https://dc.lft.to/lastmile_qr_scan", "android": "https://dc.lft.to/lastmile_qr_scan"}, "is_disabled": 0, "lon": -77.044843, "name": "5873b49e9d3cae89452d58d5bd70b1ad", "fusion_lon": 0.0}, {"lat": 38.92014666666667, "fusion_lat": 0.0, "type": "electric_scooter", "bike_id": "41789db26609bc56477d2d205e9249cd", "is_reserved": 0, "rental_uris": {"ios": "https://dc.lft.to/lastmile_qr_scan", "android": "https://dc.lft.to/lastmile_qr_scan"}, "is_disabled": 0, "lon": -77.019439, "name": "41789db26609bc56477d2d205e9249cd", "fusion_lon": 0.0}, {"lat": 38.876726833333336, "fusion_lat": 0.0, "type": "electric_scooter", "bike_id": "aee6980cb6b048fa360f38e3dc880905", "is_reserved": 0, "rental_uris": {"ios": "https://dc.lft.to/lastmile_qr_scan", "android": "https://dc.lft.to/lastmile_qr_scan"}, "is_disabled": 0, "lon": -77.00566816666667, "name": "aee6980cb6b048fa360f38e3dc880905", "fusion_lon": 0.0}, {"lat": 39.0629695, "fusion_lat": 0.0, "type": "electric_bike", "bike_id": "54e69c045a364e18ebdaac74c2d47880", "is_reserved": 0, "rental_uris": {"ios": "https://dc.lft.to/lastmile_qr_scan", "android": "https://dc.lft.to/lastmile_qr_scan"}, "is_disabled": 0, "lon": -77.04978883333334, "name": "54e69c045a364e18ebdaac74c2d47880", "fusion_lon": 0.0}, {"lat": 38.934443, "fusion_lat": 0.0, "type": "electric_scooter", "bike_id": "316d680cb68d0c1ca9b8b88a5a8a1553", "is_reserved": 0, "rental_uris": {"ios": "https://dc.lft.to/lastmile_qr_scan", "android": "https://dc.lft.to/lastmile_qr_scan"}, "is_disabled": 0, "lon": -77.03289166666667, "name": "316d680cb68d0c1ca9b8b88a5a8a1553", "fusion_lon": 0.0}, {"lat": 38.91115933333333, "fusion_lat": 0.0, "type": "electric_scooter", "bike_id": "014a567f8e588e8a4610d95d3c5a4b67", "is_reserved": 0, "rental_uris": {"ios": "https://dc.lft.to/lastmile_qr_scan", "android": "https://dc.lft.to/lastmile_qr_scan"}, "is_disabled": 0, "lon": -77.04471216666667, "name": "014a567f8e588e8a4610d95d3c5a4b67", "fusion_lon": 0.0}, {"lat": 38.90930383333333, "fusion_lat": 0.0, "type": "electric_scooter", "bike_id": "2f2803bcf684a8813d6f3ac9f3fdad53", "is_reserved": 0, "rental_uris": {"ios": "https://dc.lft.to/lastmile_qr_scan", "android": "https://dc.lft.to/lastmile_qr_scan"}, "is_disabled": 0, "lon": -77.05541466666666, "name": "2f2803bcf684a8813d6f3ac9f3fdad53", "fusion_lon": 0.0}, {"lat": 38.9154805, "fusion_lat": 0.0, "type": "electric_scooter", "bike_id": "f16b1c7cd096c8d50414d3ed10efa40a", "is_reserved": 0, "rental_uris": {"ios": "https://dc.lft.to/lastmile_qr_scan", "android": "https://dc.lft.to/lastmile_qr_scan"}, "is_disabled": 0, "lon": -77.039506, "name": "f16b1c7cd096c8d50414d3ed10efa40a", "fusion_lon": 0.0}, {"lat": 38.8837, "fusion_lat": 0.0, "type": "electric_scooter", "bike_id": "87633181e34e9132ec3931ecaa7bd9a2", "is_reserved": 0, "rental_uris": {"ios": "https://dc.lft.to/lastmile_qr_scan", "android": "https://dc.lft.to/lastmile_qr_scan"}, "is_disabled": 0, "lon": -76.99519616666667, "name": "87633181e34e9132ec3931ecaa7bd9a2", "fusion_lon": 0.0}, {"lat": 38.850642, "fusion_lat": 0.0, "type": "electric_scooter", "bike_id": "533367a206ad7b7fe05b022b7eed017c", "is_reserved": 0, "rental_uris": {"ios": "https://dc.lft.to/lastmile_qr_scan", "android": "https://dc.lft.to/lastmile_qr_scan"}, "is_disabled": 0, "lon": -76.970095, "name": "533367a206ad7b7fe05b022b7eed017c", "fusion_lon": 0.0}, {"lat": 38.90134716666667, "fusion_lat": 0.0, "type": "electric_scooter", "bike_id": "af4b7134a97e5d5d31c7ce8517d115ea", "is_reserved": 0, "rental_uris": {"ios": "https://dc.lft.to/lastmile_qr_scan", "android": "https://dc.lft.to/lastmile_qr_scan"}, "is_disabled": 0, "lon": -77.01311983333333, "name": "af4b7134a97e5d5d31c7ce8517d115ea", "fusion_lon": 0.0}, {"lat": 38.909968166666665, "fusion_lat": 0.0, "type": "electric_scooter", "bike_id": "9bae60fe1a5b3e1447d0e1ae98fdf5d6", "is_reserved": 0, "rental_uris": {"ios": "https://dc.lft.to/lastmile_qr_scan", "android": "https://dc.lft.to/lastmile_qr_scan"}, "is_disabled": 0, "lon": -77.031939, "name": "9bae60fe1a5b3e1447d0e1ae98fdf5d6", "fusion_lon": 0.0}, {"lat": 38.91697633333333, "fusion_lat": 0.0, "type": "electric_scooter", "bike_id": "595775bac39c1a2862f37ea7ed7e7804", "is_reserved": 0, "rental_uris": {"ios": "https://dc.lft.to/lastmile_qr_scan", "android": "https://dc.lft.to/lastmile_qr_scan"}, "is_disabled": 0, "lon": -77.01050733333334, "name": "595775bac39c1a2862f37ea7ed7e7804", "fusion_lon": 0.0}, {"lat": 38.89312066666667, "fusion_lat": 0.0, "type": "electric_scooter", "bike_id": "9477f6be7c097746cda66f3fbadd0640", "is_reserved": 0, "rental_uris": {"ios": "https://dc.lft.to/lastmile_qr_scan", "android": "https://dc.lft.to/lastmile_qr_scan"}, "is_disabled": 0, "lon": -76.939745, "name": "9477f6be7c097746cda66f3fbadd0640", "fusion_lon": 0.0}, {"lat": 38.92692916666667, "fusion_lat": 0.0, "type": "electric_scooter", "bike_id": "39221ca1925c3abbf418659ef84e5147", "is_reserved": 0, "rental_uris": {"ios": "https://dc.lft.to/lastmile_qr_scan", "android": "https://dc.lft.to/lastmile_qr_scan"}, "is_disabled": 0, "lon": -77.02418766666666, "name": "39221ca1925c3abbf418659ef84e5147", "fusion_lon": 0.0}, {"lat": 38.807609, "fusion_lat": 0.0, "type": "electric_bike", "bike_id": "50c6a784e18640f37e22c28ac4053f34", "is_reserved": 0, "rental_uris": {"ios": "https://dc.lft.to/lastmile_qr_scan", "android": "https://dc.lft.to/lastmile_qr_scan"}, "is_disabled": 0, "lon": -77.09468866666667, "name": "50c6a784e18640f37e22c28ac4053f34", "fusion_lon": 0.0}, {"lat": 38.915655666666666, "fusion_lat": 0.0, "type": "electric_scooter", "bike_id": "9b04bbb544bc0648daff34a46de6cc35", "is_reserved": 0, "rental_uris": {"ios": "https://dc.lft.to/lastmile_qr_scan", "android": "https://dc.lft.to/lastmile_qr_scan"}, "is_disabled": 0, "lon": -77.039504, "name": "9b04bbb544bc0648daff34a46de6cc35", "fusion_lon": 0.0}, {"lat": 38.91579083333333, "fusion_lat": 0.0, "type": "electric_scooter", "bike_id": "053494844198ccc9f3fab6083be079e5", "is_reserved": 0, "rental_uris": {"ios": "https://dc.lft.to/lastmile_qr_scan", "android": "https://dc.lft.to/lastmile_qr_scan"}, "is_disabled": 0, "lon": -77.01224433333333, "name": "053494844198ccc9f3fab6083be079e5", "fusion_lon": 0.0}, {"lat": 38.923078, "fusion_lat": 0.0, "type": "electric_bike", "bike_id": "0a329cda44b2c4c54a30abd2f0293b89", "is_reserved": 0, "rental_uris": {"ios": "https://dc.lft.to/lastmile_qr_scan", "android": "https://dc.lft.to/lastmile_qr_scan"}, "is_disabled": 0, "lon": -77.02261816666666, "name": "0a329cda44b2c4c54a30abd2f0293b89", "fusion_lon": 0.0}, {"lat": 38.919617333333335, "fusion_lat": 0.0, "type": "electric_scooter", "bike_id": "3689082b2fe336b3f0bfafa0af9223f8", "is_reserved": 0, "rental_uris": {"ios": "https://dc.lft.to/lastmile_qr_scan", "android": "https://dc.lft.to/lastmile_qr_scan"}, "is_disabled": 0, "lon": -77.0347615, "name": "3689082b2fe336b3f0bfafa0af9223f8", "fusion_lon": 0.0}, {"lat": 38.9418035, "fusion_lat": 0.0, "type": "electric_scooter", "bike_id": "3f1f24e6ced2b371cb112b9cd2fadfe3", "is_reserved": 0, "rental_uris": {"ios": "https://dc.lft.to/lastmile_qr_scan", "android": "https://dc.lft.to/lastmile_qr_scan"}, "is_disabled": 0, "lon": -77.02793383333334, "name": "3f1f24e6ced2b371cb112b9cd2fadfe3", "fusion_lon": 0.0}, {"lat": 38.99345816666667, "fusion_lat": 0.0, "type": "electric_bike", "bike_id": "2540b565b8f8f9e978fc369db601a0e4", "is_reserved": 0, "rental_uris": {"ios": "https://dc.lft.to/lastmile_qr_scan", "android": "https://dc.lft.to/lastmile_qr_scan"}, "is_disabled": 0, "lon": -77.1157605, "name": "2540b565b8f8f9e978fc369db601a0e4", "fusion_lon": 0.0}, {"lat": 38.916906833333336, "fusion_lat": 0.0, "type": "electric_scooter", "bike_id": "f9543d62a1d4711711e66c070a82bca8", "is_reserved": 0, "rental_uris": {"ios": "https://dc.lft.to/lastmile_qr_scan", "android": "https://dc.lft.to/lastmile_qr_scan"}, "is_disabled": 0, "lon": -77.02513033333334, "name": "f9543d62a1d4711711e66c070a82bca8", "fusion_lon": 0.0}, {"lat": 38.92217733333333, "fusion_lat": 0.0, "type": "electric_scooter", "bike_id": "c22575712a66d4555e5828ed6c405c53", "is_reserved": 0, "rental_uris": {"ios": "https://dc.lft.to/lastmile_qr_scan", "android": "https://dc.lft.to/lastmile_qr_scan"}, "is_disabled": 0, "lon": -77.03286266666667, "name": "c22575712a66d4555e5828ed6c405c53", "fusion_lon": 0.0}, {"lat": 38.92359283333333, "fusion_lat": 0.0, "type": "electric_scooter", "bike_id": "72f9b67e0acfbb22b9fa6671bfa3b8f8", "is_reserved": 0, "rental_uris": {"ios": "https://dc.lft.to/lastmile_qr_scan", "android": "https://dc.lft.to/lastmile_qr_scan"}, "is_disabled": 0, "lon": -77.0528345, "name": "72f9b67e0acfbb22b9fa6671bfa3b8f8", "fusion_lon": 0.0}, {"lat": 38.9257045, "fusion_lat": 0.0, "type": "electric_scooter", "bike_id": "b2111c7f5c3c8a2263cca620ef319aac", "is_reserved": 0, "rental_uris": {"ios": "https://dc.lft.to/lastmile_qr_scan", "android": "https://dc.lft.to/lastmile_qr_scan"}, "is_disabled": 0, "lon": -77.0321565, "name": "b2111c7f5c3c8a2263cca620ef319aac", "fusion_lon": 0.0}, {"lat": 38.94185683333333, "fusion_lat": 0.0, "type": "electric_scooter", "bike_id": "32763e954dbbbff1faceb3f7af81ae10", "is_reserved": 0, "rental_uris": {"ios": "https://dc.lft.to/lastmile_qr_scan", "android": "https://dc.lft.to/lastmile_qr_scan"}, "is_disabled": 0, "lon": -77.02488716666667, "name": "32763e954dbbbff1faceb3f7af81ae10", "fusion_lon": 0.0}, {"lat": 38.918123666666666, "fusion_lat": 0.0, "type": "electric_scooter", "bike_id": "10573f4c549f33fdcaa91cad87ed317c", "is_reserved": 0, "rental_uris": {"ios": "https://dc.lft.to/lastmile_qr_scan", "android": "https://dc.lft.to/lastmile_qr_scan"}, "is_disabled": 0, "lon": -77.04000233333333, "name": "10573f4c549f33fdcaa91cad87ed317c", "fusion_lon": 0.0}, {"lat": 38.872062, "fusion_lat": 0.0, "type": "electric_scooter", "bike_id": "18e487f34dd43aa042c7162d6ca32633", "is_reserved": 0, "rental_uris": {"ios": "https://dc.lft.to/lastmile_qr_scan", "android": "https://dc.lft.to/lastmile_qr_scan"}, "is_disabled": 0, "lon": -77.00967866666667, "name": "18e487f34dd43aa042c7162d6ca32633", "fusion_lon": 0.0}, {"lat": 38.8650805, "fusion_lat": 0.0, "type": "electric_scooter", "bike_id": "c88c0b51bdf21d9bdabf3374e949273d", "is_reserved": 0, "rental_uris": {"ios": "https://dc.lft.to/lastmile_qr_scan", "android": "https://dc.lft.to/lastmile_qr_scan"}, "is_disabled": 0, "lon": -76.99008533333334, "name": "c88c0b51bdf21d9bdabf3374e949273d", "fusion_lon": 0.0}, {"lat": 38.9548245, "fusion_lat": 0.0, "type": "electric_scooter", "bike_id": "6146ff77a6d4ef67e8031581181b5555", "is_reserved": 0, "rental_uris": {"ios": "https://dc.lft.to/lastmile_qr_scan", "android": "https://dc.lft.to/lastmile_qr_scan"}, "is_disabled": 0, "lon": -77.02222783333333, "name": "6146ff77a6d4ef67e8031581181b5555", "fusion_lon": 0.0}, {"lat": 38.8872195, "fusion_lat": 0.0, "type": "electric_scooter", "bike_id": "9e931b83630d25b2c1c946ff6cf0cd4d", "is_reserved": 0, "rental_uris": {"ios": "https://dc.lft.to/lastmile_qr_scan", "android": "https://dc.lft.to/lastmile_qr_scan"}, "is_disabled": 0, "lon": -77.00337333333333, "name": "9e931b83630d25b2c1c946ff6cf0cd4d", "fusion_lon": 0.0}, {"lat": 38.901459, "fusion_lat": 0.0, "type": "electric_scooter", "bike_id": "48c27fc35bb6ff32edd5821da62ac817", "is_reserved": 0, "rental_uris": {"ios": "https://dc.lft.to/lastmile_qr_scan", "android": "https://dc.lft.to/lastmile_qr_scan"}, "is_disabled": 0, "lon": -77.02496483333333, "name": "48c27fc35bb6ff32edd5821da62ac817", "fusion_lon": 0.0}, {"lat": 38.9081335, "fusion_lat": 0.0, "type": "electric_scooter", "bike_id": "a632e72d47b1a0d89c94ef2928bfb3f4", "is_reserved": 0, "rental_uris": {"ios": "https://dc.lft.to/lastmile_qr_scan", "android": "https://dc.lft.to/lastmile_qr_scan"}, "is_disabled": 0, "lon": -77.0393765, "name": "a632e72d47b1a0d89c94ef2928bfb3f4", "fusion_lon": 0.0}, {"lat": 38.907255, "fusion_lat": 0.0, "type": "electric_scooter", "bike_id": "7050687c3958fcc66a76c59fe82e629d", "is_reserved": 0, "rental_uris": {"ios": "https://dc.lft.to/lastmile_qr_scan", "android": "https://dc.lft.to/lastmile_qr_scan"}, "is_disabled": 0, "lon": -77.007759, "name": "7050687c3958fcc66a76c59fe82e629d", "fusion_lon": 0.0}, {"lat": 38.91402633333333, "fusion_lat": 0.0, "type": "electric_scooter", "bike_id": "d24e5d3a99299466f0117591c5275a2b", "is_reserved": 0, "rental_uris": {"ios": "https://dc.lft.to/lastmile_qr_scan", "android": "https://dc.lft.to/lastmile_qr_scan"}, "is_disabled": 0, "lon": -77.02656866666666, "name": "d24e5d3a99299466f0117591c5275a2b", "fusion_lon": 0.0}, {"lat": 38.9318275, "fusion_lat": 0.0, "type": "electric_scooter", "bike_id": "fecb5f7c7b93d561ee2b372bddf09e90", "is_reserved": 0, "rental_uris": {"ios": "https://dc.lft.to/lastmile_qr_scan", "android": "https://dc.lft.to/lastmile_qr_scan"}, "is_disabled": 0, "lon": -77.03657733333333, "name": "fecb5f7c7b93d561ee2b372bddf09e90", "fusion_lon": 0.0}, {"lat": 38.90066266666667, "fusion_lat": 0.0, "type": "electric_scooter", "bike_id": "0eef20e0c93d57cc1a9f7208337d2ac0", "is_reserved": 0, "rental_uris": {"ios": "https://dc.lft.to/lastmile_qr_scan", "android": "https://dc.lft.to/lastmile_qr_scan"}, "is_disabled": 0, "lon": -76.92746033333333, "name": "0eef20e0c93d57cc1a9f7208337d2ac0", "fusion_lon": 0.0}, {"lat": 38.883744666666665, "fusion_lat": 0.0, "type": "electric_scooter", "bike_id": "5d3e93d369cda5c547c2fa2f79b46ef0", "is_reserved": 0, "rental_uris": {"ios": "https://dc.lft.to/lastmile_qr_scan", "android": "https://dc.lft.to/lastmile_qr_scan"}, "is_disabled": 0, "lon": -76.99519983333333, "name": "5d3e93d369cda5c547c2fa2f79b46ef0", "fusion_lon": 0.0}, {"lat": 38.891961, "fusion_lat": 0.0, "type": "electric_scooter", "bike_id": "bad001f74370fa2b880dd8d919a40d89", "is_reserved": 0, "rental_uris": {"ios": "https://dc.lft.to/lastmile_qr_scan", "android": "https://dc.lft.to/lastmile_qr_scan"}, "is_disabled": 0, "lon": -77.0029725, "name": "bad001f74370fa2b880dd8d919a40d89", "fusion_lon": 0.0}, {"lat": 38.908528, "fusion_lat": 0.0, "type": "electric_scooter", "bike_id": "ebbd04cff921221afa0cd1a7f9a011a1", "is_reserved": 0, "rental_uris": {"ios": "https://dc.lft.to/lastmile_qr_scan", "android": "https://dc.lft.to/lastmile_qr_scan"}, "is_disabled": 0, "lon": -76.997972, "name": "ebbd04cff921221afa0cd1a7f9a011a1", "fusion_lon": 0.0}, {"lat": 38.86685883333333, "fusion_lat": 0.0, "type": "electric_scooter", "bike_id": "51d1adf5d571b95b6eba4f3de9378bd9", "is_reserved": 0, "rental_uris": {"ios": "https://dc.lft.to/lastmile_qr_scan", "android": "https://dc.lft.to/lastmile_qr_scan"}, "is_disabled": 0, "lon": -76.98562416666667, "name": "51d1adf5d571b95b6eba4f3de9378bd9", "fusion_lon": 0.0}, {"lat": 38.91322483333333, "fusion_lat": 0.0, "type": "electric_bike", "bike_id": "28a4521dc770808ef750e2aaf3d56a3f", "is_reserved": 0, "rental_uris": {"ios": "https://dc.lft.to/lastmile_qr_scan", "android": "https://dc.lft.to/lastmile_qr_scan"}, "is_disabled": 0, "lon": -77.22313233333334, "name": "28a4521dc770808ef750e2aaf3d56a3f", "fusion_lon": 0.0}, {"lat": 38.921095, "fusion_lat": 0.0, "type": "electric_scooter", "bike_id": "25736eec36b1ddbf6f4ff21c59e7cddf", "is_reserved": 0, "rental_uris": {"ios": "https://dc.lft.to/lastmile_qr_scan", "android": "https://dc.lft.to/lastmile_qr_scan"}, "is_disabled": 0, "lon": -77.030472, "name": "25736eec36b1ddbf6f4ff21c59e7cddf", "fusion_lon": 0.0}, {"lat": 38.90480083333333, "fusion_lat": 0.0, "type": "electric_scooter", "bike_id": "33e7a8707d8657e5424d8b95c3312682", "is_reserved": 0, "rental_uris": {"ios": "https://dc.lft.to/lastmile_qr_scan", "android": "https://dc.lft.to/lastmile_qr_scan"}, "is_disabled": 0, "lon": -77.05334416666666, "name": "33e7a8707d8657e5424d8b95c3312682", "fusion_lon": 0.0}, {"lat": 38.912562333333334, "fusion_lat": 0.0, "type": "electric_scooter", "bike_id": "d27b08ac98a55c747babbe58823866b9", "is_reserved": 0, "rental_uris": {"ios": "https://dc.lft.to/lastmile_qr_scan", "android": "https://dc.lft.to/lastmile_qr_scan"}, "is_disabled": 0, "lon": -77.02522533333334, "name": "d27b08ac98a55c747babbe58823866b9", "fusion_lon": 0.0}, {"lat": 38.931919666666666, "fusion_lat": 0.0, "type": "electric_scooter", "bike_id": "cbdf18e6b0a0c7dca9f3a6685ccd3d50", "is_reserved": 0, "rental_uris": {"ios": "https://dc.lft.to/lastmile_qr_scan", "android": "https://dc.lft.to/lastmile_qr_scan"}, "is_disabled": 0, "lon": -77.0386995, "name": "cbdf18e6b0a0c7dca9f3a6685ccd3d50", "fusion_lon": 0.0}, {"lat": 38.91926683333333, "fusion_lat": 0.0, "type": "electric_scooter", "bike_id": "915acf0e18237c3371cd8b9d98b3bd89", "is_reserved": 0, "rental_uris": {"ios": "https://dc.lft.to/lastmile_qr_scan", "android": "https://dc.lft.to/lastmile_qr_scan"}, "is_disabled": 0, "lon": -77.042477, "name": "915acf0e18237c3371cd8b9d98b3bd89", "fusion_lon": 0.0}, {"lat": 38.90423216666667, "fusion_lat": 0.0, "type": "electric_scooter", "bike_id": "9ab65b46f84b30591b2d6c74aefc8ae6", "is_reserved": 0, "rental_uris": {"ios": "https://dc.lft.to/lastmile_qr_scan", "android": "https://dc.lft.to/lastmile_qr_scan"}, "is_disabled": 0, "lon": -77.0273685, "name": "9ab65b46f84b30591b2d6c74aefc8ae6", "fusion_lon": 0.0}, {"lat": 38.902614166666666, "fusion_lat": 0.0, "type": "electric_scooter", "bike_id": "c53b8c544bd26d297e83dcac2274a409", "is_reserved": 0, "rental_uris": {"ios": "https://dc.lft.to/lastmile_qr_scan", "android": "https://dc.lft.to/lastmile_qr_scan"}, "is_disabled": 0, "lon": -77.03968133333333, "name": "c53b8c544bd26d297e83dcac2274a409", "fusion_lon": 0.0}, {"lat": 38.863725, "fusion_lat": 0.0, "type": "electric_scooter", "bike_id": "f81cb8427dae9ed7a16e73e4bd4393c1", "is_reserved": 0, "rental_uris": {"ios": "https://dc.lft.to/lastmile_qr_scan", "android": "https://dc.lft.to/lastmile_qr_scan"}, "is_disabled": 0, "lon": -76.99057133333334, "name": "f81cb8427dae9ed7a16e73e4bd4393c1", "fusion_lon": 0.0}, {"lat": 38.89398816666667, "fusion_lat": 0.0, "type": "electric_scooter", "bike_id": "d229b6b5a0b724f18bf1a97b35da0f84", "is_reserved": 0, "rental_uris": {"ios": "https://dc.lft.to/lastmile_qr_scan", "android": "https://dc.lft.to/lastmile_qr_scan"}, "is_disabled": 0, "lon": -77.0209775, "name": "d229b6b5a0b724f18bf1a97b35da0f84", "fusion_lon": 0.0}, {"lat": 38.946271833333334, "fusion_lat": 0.0, "type": "electric_scooter", "bike_id": "6caeddc39074e41ae309231b9dc65fdd", "is_reserved": 0, "rental_uris": {"ios": "https://dc.lft.to/lastmile_qr_scan", "android": "https://dc.lft.to/lastmile_qr_scan"}, "is_disabled": 0, "lon": -77.018444, "name": "6caeddc39074e41ae309231b9dc65fdd", "fusion_lon": 0.0}, {"lat": 38.92320633333333, "fusion_lat": 0.0, "type": "electric_scooter", "bike_id": "b0855cbe81f33df7ace0a21516b76302", "is_reserved": 0, "rental_uris": {"ios": "https://dc.lft.to/lastmile_qr_scan", "android": "https://dc.lft.to/lastmile_qr_scan"}, "is_disabled": 0, "lon": -77.02141433333334, "name": "b0855cbe81f33df7ace0a21516b76302", "fusion_lon": 0.0}, {"lat": 38.9020715, "fusion_lat": 0.0, "type": "electric_scooter", "bike_id": "6eaa9d29c3ae2209436bcf5f32d4b672", "is_reserved": 0, "rental_uris": {"ios": "https://dc.lft.to/lastmile_qr_scan", "android": "https://dc.lft.to/lastmile_qr_scan"}, "is_disabled": 0, "lon": -77.05112316666667, "name": "6eaa9d29c3ae2209436bcf5f32d4b672", "fusion_lon": 0.0}, {"lat": 38.900824, "fusion_lat": 0.0, "type": "electric_scooter", "bike_id": "a081da182323b4e8790d5e0619390914", "is_reserved": 0, "rental_uris": {"ios": "https://dc.lft.to/lastmile_qr_scan", "android": "https://dc.lft.to/lastmile_qr_scan"}, "is_disabled": 0, "lon": -77.046869, "name": "a081da182323b4e8790d5e0619390914", "fusion_lon": 0.0}, {"lat": 38.918997166666664, "fusion_lat": 0.0, "type": "electric_scooter", "bike_id": "30845cdb14438f9e70e15fc94c887304", "is_reserved": 0, "rental_uris": {"ios": "https://dc.lft.to/lastmile_qr_scan", "android": "https://dc.lft.to/lastmile_qr_scan"}, "is_disabled": 0, "lon": -76.98742716666666, "name": "30845cdb14438f9e70e15fc94c887304", "fusion_lon": 0.0}, {"lat": 38.919424, "fusion_lat": 0.0, "type": "electric_scooter", "bike_id": "47b151ebc7c91621e21e898dddac28f9", "is_reserved": 0, "rental_uris": {"ios": "https://dc.lft.to/lastmile_qr_scan", "android": "https://dc.lft.to/lastmile_qr_scan"}, "is_disabled": 0, "lon": -77.04165083333334, "name": "47b151ebc7c91621e21e898dddac28f9", "fusion_lon": 0.0}, {"lat": 38.90899816666666, "fusion_lat": 0.0, "type": "electric_scooter", "bike_id": "aaad8bea072320c43f8edd8fd7c14677", "is_reserved": 0, "rental_uris": {"ios": "https://dc.lft.to/lastmile_qr_scan", "android": "https://dc.lft.to/lastmile_qr_scan"}, "is_disabled": 0, "lon": -77.03012833333334, "name": "aaad8bea072320c43f8edd8fd7c14677", "fusion_lon": 0.0}, {"lat": 38.898709333333336, "fusion_lat": 0.0, "type": "electric_scooter", "bike_id": "309863b3898947a3b377dd8f79ea7187", "is_reserved": 0, "rental_uris": {"ios": "https://dc.lft.to/lastmile_qr_scan", "android": "https://dc.lft.to/lastmile_qr_scan"}, "is_disabled": 0, "lon": -76.94665216666667, "name": "309863b3898947a3b377dd8f79ea7187", "fusion_lon": 0.0}, {"lat": 38.907710333333334, "fusion_lat": 0.0, "type": "electric_scooter", "bike_id": "e959efeb6df4a3868df545812659c1af", "is_reserved": 0, "rental_uris": {"ios": "https://dc.lft.to/lastmile_qr_scan", "android": "https://dc.lft.to/lastmile_qr_scan"}, "is_disabled": 0, "lon": -76.97826733333333, "name": "e959efeb6df4a3868df545812659c1af", "fusion_lon": 0.0}, {"lat": 38.90097, "fusion_lat": 0.0, "type": "electric_scooter", "bike_id": "f542f970ae13b112159ad8a366b6ea90", "is_reserved": 0, "rental_uris": {"ios": "https://dc.lft.to/lastmile_qr_scan", "android": "https://dc.lft.to/lastmile_qr_scan"}, "is_disabled": 0, "lon": -77.03926316666667, "name": "f542f970ae13b112159ad8a366b6ea90", "fusion_lon": 0.0}, {"lat": 38.91768716666667, "fusion_lat": 0.0, "type": "electric_scooter", "bike_id": "59d3ba37537260835a34c2014ab6a65a", "is_reserved": 0, "rental_uris": {"ios": "https://dc.lft.to/lastmile_qr_scan", "android": "https://dc.lft.to/lastmile_qr_scan"}, "is_disabled": 0, "lon": -77.04053233333333, "name": "59d3ba37537260835a34c2014ab6a65a", "fusion_lon": 0.0}, {"lat": 38.9279065, "fusion_lat": 0.0, "type": "electric_scooter", "bike_id": "417f066afa1e582113ff1f1df2279985", "is_reserved": 0, "rental_uris": {"ios": "https://dc.lft.to/lastmile_qr_scan", "android": "https://dc.lft.to/lastmile_qr_scan"}, "is_disabled": 0, "lon": -77.022075, "name": "417f066afa1e582113ff1f1df2279985", "fusion_lon": 0.0}, {"lat": 38.91111816666667, "fusion_lat": 0.0, "type": "electric_scooter", "bike_id": "1e6b1fa7a8f92ae80efae427b54980c0", "is_reserved": 0, "rental_uris": {"ios": "https://dc.lft.to/lastmile_qr_scan", "android": "https://dc.lft.to/lastmile_qr_scan"}, "is_disabled": 0, "lon": -77.03911566666666, "name": "1e6b1fa7a8f92ae80efae427b54980c0", "fusion_lon": 0.0}, {"lat": 38.878875666666666, "fusion_lat": 0.0, "type": "electric_bike", "bike_id": "c471eb42e4fe81fa4aede904a107bcf8", "is_reserved": 0, "rental_uris": {"ios": "https://dc.lft.to/lastmile_qr_scan", "android": "https://dc.lft.to/lastmile_qr_scan"}, "is_disabled": 0, "lon": -77.096154, "name": "c471eb42e4fe81fa4aede904a107bcf8", "fusion_lon": 0.0}, {"lat": 38.8917485, "fusion_lat": 0.0, "type": "electric_scooter", "bike_id": "1449435a998232b0b9faddeaae156923", "is_reserved": 0, "rental_uris": {"ios": "https://dc.lft.to/lastmile_qr_scan", "android": "https://dc.lft.to/lastmile_qr_scan"}, "is_disabled": 0, "lon": -77.02014, "name": "1449435a998232b0b9faddeaae156923", "fusion_lon": 0.0}, {"lat": 38.92506316666667, "fusion_lat": 0.0, "type": "electric_scooter", "bike_id": "e289acccb4fdd24afe941f68d1913c6f", "is_reserved": 0, "rental_uris": {"ios": "https://dc.lft.to/lastmile_qr_scan", "android": "https://dc.lft.to/lastmile_qr_scan"}, "is_disabled": 0, "lon": -77.02357733333334, "name": "e289acccb4fdd24afe941f68d1913c6f", "fusion_lon": 0.0}, {"lat": 38.915658, "fusion_lat": 0.0, "type": "electric_scooter", "bike_id": "3d5fac01166d22a8c53c4bf5ce39c8a9", "is_reserved": 0, "rental_uris": {"ios": "https://dc.lft.to/lastmile_qr_scan", "android": "https://dc.lft.to/lastmile_qr_scan"}, "is_disabled": 0, "lon": -77.03242416666667, "name": "3d5fac01166d22a8c53c4bf5ce39c8a9", "fusion_lon": 0.0}, {"lat": 38.916963, "fusion_lat": 0.0, "type": "electric_scooter", "bike_id": "00dc5256f14b1048e55d9272a5d1c7a1", "is_reserved": 0, "rental_uris": {"ios": "https://dc.lft.to/lastmile_qr_scan", "android": "https://dc.lft.to/lastmile_qr_scan"}, "is_disabled": 0, "lon": -77.04265583333333, "name": "00dc5256f14b1048e55d9272a5d1c7a1", "fusion_lon": 0.0}, {"lat": 38.89794, "fusion_lat": 0.0, "type": "electric_scooter", "bike_id": "b6d3e19f0755484ff18f5dbbc7d3f2a6", "is_reserved": 0, "rental_uris": {"ios": "https://dc.lft.to/lastmile_qr_scan", "android": "https://dc.lft.to/lastmile_qr_scan"}, "is_disabled": 0, "lon": -77.00907516666666, "name": "b6d3e19f0755484ff18f5dbbc7d3f2a6", "fusion_lon": 0.0}, {"lat": 38.91135933333333, "fusion_lat": 0.0, "type": "electric_scooter", "bike_id": "223318c76080572052e32e49274073b0", "is_reserved": 0, "rental_uris": {"ios": "https://dc.lft.to/lastmile_qr_scan", "android": "https://dc.lft.to/lastmile_qr_scan"}, "is_disabled": 0, "lon": -77.03189933333333, "name": "223318c76080572052e32e49274073b0", "fusion_lon": 0.0}, {"lat": 38.9169335, "fusion_lat": 0.0, "type": "electric_scooter", "bike_id": "e8953764ceea4febec6f4e53c40f048c", "is_reserved": 0, "rental_uris": {"ios": "https://dc.lft.to/lastmile_qr_scan", "android": "https://dc.lft.to/lastmile_qr_scan"}, "is_disabled": 0, "lon": -77.01047933333334, "name": "e8953764ceea4febec6f4e53c40f048c", "fusion_lon": 0.0}, {"lat": 38.91578583333333, "fusion_lat": 0.0, "type": "electric_scooter", "bike_id": "0594cb31f4c82f887c0baa4e60e10d52", "is_reserved": 0, "rental_uris": {"ios": "https://dc.lft.to/lastmile_qr_scan", "android": "https://dc.lft.to/lastmile_qr_scan"}, "is_disabled": 0, "lon": -77.01227783333333, "name": "0594cb31f4c82f887c0baa4e60e10d52", "fusion_lon": 0.0}, {"lat": 38.92240983333333, "fusion_lat": 0.0, "type": "electric_scooter", "bike_id": "b5c455c144cd68414fef29856cb3221a", "is_reserved": 0, "rental_uris": {"ios": "https://dc.lft.to/lastmile_qr_scan", "android": "https://dc.lft.to/lastmile_qr_scan"}, "is_disabled": 0, "lon": -77.02851183333334, "name": "b5c455c144cd68414fef29856cb3221a", "fusion_lon": 0.0}, {"lat": 38.8651635, "fusion_lat": 0.0, "type": "electric_scooter", "bike_id": "2284f461d1cdae84f10877760b71be82", "is_reserved": 0, "rental_uris": {"ios": "https://dc.lft.to/lastmile_qr_scan", "android": "https://dc.lft.to/lastmile_qr_scan"}, "is_disabled": 0, "lon": -76.99018733333334, "name": "2284f461d1cdae84f10877760b71be82", "fusion_lon": 0.0}, {"lat": 38.90368816666667, "fusion_lat": 0.0, "type": "electric_scooter", "bike_id": "0ccc4271e1775f1f171f0b1e531dacee", "is_reserved": 0, "rental_uris": {"ios": "https://dc.lft.to/lastmile_qr_scan", "android": "https://dc.lft.to/lastmile_qr_scan"}, "is_disabled": 0, "lon": -77.05301966666667, "name": "0ccc4271e1775f1f171f0b1e531dacee", "fusion_lon": 0.0}, {"lat": 38.93673916666667, "fusion_lat": 0.0, "type": "electric_scooter", "bike_id": "d375b4b46bedf6de4719b3e4cb80d0aa", "is_reserved": 0, "rental_uris": {"ios": "https://dc.lft.to/lastmile_qr_scan", "android": "https://dc.lft.to/lastmile_qr_scan"}, "is_disabled": 0, "lon": -77.03589983333333, "name": "d375b4b46bedf6de4719b3e4cb80d0aa", "fusion_lon": 0.0}, {"lat": 38.940556666666666, "fusion_lat": 0.0, "type": "electric_scooter", "bike_id": "ecfb847f60dc52d8e0a7cd455e3d6563", "is_reserved": 0, "rental_uris": {"ios": "https://dc.lft.to/lastmile_qr_scan", "android": "https://dc.lft.to/lastmile_qr_scan"}, "is_disabled": 0, "lon": -77.0297295, "name": "ecfb847f60dc52d8e0a7cd455e3d6563", "fusion_lon": 0.0}, {"lat": 38.90851766666667, "fusion_lat": 0.0, "type": "electric_scooter", "bike_id": "ae789610a6532f392a097ef059772b6b", "is_reserved": 0, "rental_uris": {"ios": "https://dc.lft.to/lastmile_qr_scan", "android": "https://dc.lft.to/lastmile_qr_scan"}, "is_disabled": 0, "lon": -77.0400715, "name": "ae789610a6532f392a097ef059772b6b", "fusion_lon": 0.0}, {"lat": 38.909716833333334, "fusion_lat": 0.0, "type": "electric_scooter", "bike_id": "3fad9f29659f6b883b61ce4690d07f1c", "is_reserved": 0, "rental_uris": {"ios": "https://dc.lft.to/lastmile_qr_scan", "android": "https://dc.lft.to/lastmile_qr_scan"}, "is_disabled": 0, "lon": -77.03596416666667, "name": "3fad9f29659f6b883b61ce4690d07f1c", "fusion_lon": 0.0}, {"lat": 38.885983333333336, "fusion_lat": 0.0, "type": "electric_scooter", "bike_id": "bbbece833a420123bbf7a57edfbef365", "is_reserved": 0, "rental_uris": {"ios": "https://dc.lft.to/lastmile_qr_scan", "android": "https://dc.lft.to/lastmile_qr_scan"}, "is_disabled": 0, "lon": -76.99099283333334, "name": "bbbece833a420123bbf7a57edfbef365", "fusion_lon": 0.0}, {"lat": 38.900751666666665, "fusion_lat": 0.0, "type": "electric_scooter", "bike_id": "1eda01f1ffbac19c6f6ddb2c5efc09a3", "is_reserved": 0, "rental_uris": {"ios": "https://dc.lft.to/lastmile_qr_scan", "android": "https://dc.lft.to/lastmile_qr_scan"}, "is_disabled": 0, "lon": -77.05025683333334, "name": "1eda01f1ffbac19c6f6ddb2c5efc09a3", "fusion_lon": 0.0}, {"lat": 38.9228445, "fusion_lat": 0.0, "type": "electric_scooter", "bike_id": "bf10deafd94cb70df024a08763f62f14", "is_reserved": 0, "rental_uris": {"ios": "https://dc.lft.to/lastmile_qr_scan", "android": "https://dc.lft.to/lastmile_qr_scan"}, "is_disabled": 0, "lon": -77.01842966666666, "name": "bf10deafd94cb70df024a08763f62f14", "fusion_lon": 0.0}, {"lat": 38.93414933333333, "fusion_lat": 0.0, "type": "electric_scooter", "bike_id": "314fdde041142f83fa4e81db12792264", "is_reserved": 0, "rental_uris": {"ios": "https://dc.lft.to/lastmile_qr_scan", "android": "https://dc.lft.to/lastmile_qr_scan"}, "is_disabled": 0, "lon": -77.04145433333333, "name": "314fdde041142f83fa4e81db12792264", "fusion_lon": 0.0}, {"lat": 38.913303166666665, "fusion_lat": 0.0, "type": "electric_scooter", "bike_id": "2e148edcab17b78bba98accaf2b328a3", "is_reserved": 0, "rental_uris": {"ios": "https://dc.lft.to/lastmile_qr_scan", "android": "https://dc.lft.to/lastmile_qr_scan"}, "is_disabled": 0, "lon": -77.03253666666667, "name": "2e148edcab17b78bba98accaf2b328a3", "fusion_lon": 0.0}, {"lat": 38.9287195, "fusion_lat": 0.0, "type": "electric_scooter", "bike_id": "e8c2e7d83e1105b7f74a72bf5399f927", "is_reserved": 0, "rental_uris": {"ios": "https://dc.lft.to/lastmile_qr_scan", "android": "https://dc.lft.to/lastmile_qr_scan"}, "is_disabled": 0, "lon": -77.03407883333334, "name": "e8c2e7d83e1105b7f74a72bf5399f927", "fusion_lon": 0.0}, {"lat": 38.917718, "fusion_lat": 0.0, "type": "electric_scooter", "bike_id": "63140c361748578b02f57fdc477d68a0", "is_reserved": 0, "rental_uris": {"ios": "https://dc.lft.to/lastmile_qr_scan", "android": "https://dc.lft.to/lastmile_qr_scan"}, "is_disabled": 0, "lon": -77.0405865, "name": "63140c361748578b02f57fdc477d68a0", "fusion_lon": 0.0}, {"lat": 38.8662215, "fusion_lat": 0.0, "type": "electric_scooter", "bike_id": "8a6b34c18b17a0bef9dea82d27defbef", "is_reserved": 0, "rental_uris": {"ios": "https://dc.lft.to/lastmile_qr_scan", "android": "https://dc.lft.to/lastmile_qr_scan"}, "is_disabled": 0, "lon": -77.0878655, "name": "8a6b34c18b17a0bef9dea82d27defbef", "fusion_lon": 0.0}, {"lat": 38.876384, "fusion_lat": 0.0, "type": "electric_scooter", "bike_id": "fddcb41389b849381b405a72dfb423d2", "is_reserved": 0, "rental_uris": {"ios": "https://dc.lft.to/lastmile_qr_scan", "android": "https://dc.lft.to/lastmile_qr_scan"}, "is_disabled": 0, "lon": -77.00452433333334, "name": "fddcb41389b849381b405a72dfb423d2", "fusion_lon": 0.0}, {"lat": 38.916155833333335, "fusion_lat": 0.0, "type": "electric_scooter", "bike_id": "0cfde1a424850009aaf30e5b2673b0d7", "is_reserved": 0, "rental_uris": {"ios": "https://dc.lft.to/lastmile_qr_scan", "android": "https://dc.lft.to/lastmile_qr_scan"}, "is_disabled": 0, "lon": -77.04863516666667, "name": "0cfde1a424850009aaf30e5b2673b0d7", "fusion_lon": 0.0}, {"lat": 38.923230333333336, "fusion_lat": 0.0, "type": "electric_scooter", "bike_id": "babd8fbb60d0193e6a89475bee766075", "is_reserved": 0, "rental_uris": {"ios": "https://dc.lft.to/lastmile_qr_scan", "android": "https://dc.lft.to/lastmile_qr_scan"}, "is_disabled": 0, "lon": -77.0431615, "name": "babd8fbb60d0193e6a89475bee766075", "fusion_lon": 0.0}, {"lat": 38.91369533333334, "fusion_lat": 0.0, "type": "electric_scooter", "bike_id": "7df1a8a6e1557b7e7a24bc904fa3bc67", "is_reserved": 0, "rental_uris": {"ios": "https://dc.lft.to/lastmile_qr_scan", "android": "https://dc.lft.to/lastmile_qr_scan"}, "is_disabled": 0, "lon": -77.066188, "name": "7df1a8a6e1557b7e7a24bc904fa3bc67", "fusion_lon": 0.0}, {"lat": 38.92073583333333, "fusion_lat": 0.0, "type": "electric_scooter", "bike_id": "ca99cbbf512c10ad3b8742e6495e92b5", "is_reserved": 0, "rental_uris": {"ios": "https://dc.lft.to/lastmile_qr_scan", "android": "https://dc.lft.to/lastmile_qr_scan"}, "is_disabled": 0, "lon": -77.02504416666666, "name": "ca99cbbf512c10ad3b8742e6495e92b5", "fusion_lon": 0.0}, {"lat": 38.896085666666664, "fusion_lat": 0.0, "type": "electric_scooter", "bike_id": "5b109bb20b14193087161bdfaa0c5470", "is_reserved": 0, "rental_uris": {"ios": "https://dc.lft.to/lastmile_qr_scan", "android": "https://dc.lft.to/lastmile_qr_scan"}, "is_disabled": 0, "lon": -77.05438116666667, "name": "5b109bb20b14193087161bdfaa0c5470", "fusion_lon": 0.0}, {"lat": 38.907773166666665, "fusion_lat": 0.0, "type": "electric_scooter", "bike_id": "ded5b0199b2a8b4e0f4da5cdcd4ba198", "is_reserved": 0, "rental_uris": {"ios": "https://dc.lft.to/lastmile_qr_scan", "android": "https://dc.lft.to/lastmile_qr_scan"}, "is_disabled": 0, "lon": -77.03833766666666, "name": "ded5b0199b2a8b4e0f4da5cdcd4ba198", "fusion_lon": 0.0}, {"lat": 38.932274666666665, "fusion_lat": 0.0, "type": "electric_bike", "bike_id": "48e662bd0e2e99092adae8db5247d7c8", "is_reserved": 0, "rental_uris": {"ios": "https://dc.lft.to/lastmile_qr_scan", "android": "https://dc.lft.to/lastmile_qr_scan"}, "is_disabled": 0, "lon": -77.181228, "name": "48e662bd0e2e99092adae8db5247d7c8", "fusion_lon": 0.0}, {"lat": 38.923753833333336, "fusion_lat": 0.0, "type": "electric_scooter", "bike_id": "f06a9170ce8d2140894faad756429a72", "is_reserved": 0, "rental_uris": {"ios": "https://dc.lft.to/lastmile_qr_scan", "android": "https://dc.lft.to/lastmile_qr_scan"}, "is_disabled": 0, "lon": -77.03052366666667, "name": "f06a9170ce8d2140894faad756429a72", "fusion_lon": 0.0}, {"lat": 38.912074833333335, "fusion_lat": 0.0, "type": "electric_scooter", "bike_id": "687ee12301a6297c3b3256da3f33e53c", "is_reserved": 0, "rental_uris": {"ios": "https://dc.lft.to/lastmile_qr_scan", "android": "https://dc.lft.to/lastmile_qr_scan"}, "is_disabled": 0, "lon": -77.04335416666666, "name": "687ee12301a6297c3b3256da3f33e53c", "fusion_lon": 0.0}, {"lat": 38.901672833333336, "fusion_lat": 0.0, "type": "electric_scooter", "bike_id": "24d4e40c13d3f65ca40af9787b5df5df", "is_reserved": 0, "rental_uris": {"ios": "https://dc.lft.to/lastmile_qr_scan", "android": "https://dc.lft.to/lastmile_qr_scan"}, "is_disabled": 0, "lon": -76.93022833333333, "name": "24d4e40c13d3f65ca40af9787b5df5df", "fusion_lon": 0.0}, {"lat": 38.92872533333333, "fusion_lat": 0.0, "type": "electric_scooter", "bike_id": "0a05533af461fab048cf5922f5dbb19d", "is_reserved": 0, "rental_uris": {"ios": "https://dc.lft.to/lastmile_qr_scan", "android": "https://dc.lft.to/lastmile_qr_scan"}, "is_disabled": 0, "lon": -77.03405116666667, "name": "0a05533af461fab048cf5922f5dbb19d", "fusion_lon": 0.0}, {"lat": 38.897336333333335, "fusion_lat": 0.0, "type": "electric_scooter", "bike_id": "b3ad990c9dcf8cd28f7f906f249a5892", "is_reserved": 0, "rental_uris": {"ios": "https://dc.lft.to/lastmile_qr_scan", "android": "https://dc.lft.to/lastmile_qr_scan"}, "is_disabled": 0, "lon": -76.9975145, "name": "b3ad990c9dcf8cd28f7f906f249a5892", "fusion_lon": 0.0}, {"lat": 38.89734883333333, "fusion_lat": 0.0, "type": "electric_scooter", "bike_id": "810f2d536472104e747839639cb80b1b", "is_reserved": 0, "rental_uris": {"ios": "https://dc.lft.to/lastmile_qr_scan", "android": "https://dc.lft.to/lastmile_qr_scan"}, "is_disabled": 0, "lon": -77.003743, "name": "810f2d536472104e747839639cb80b1b", "fusion_lon": 0.0}, {"lat": 38.923536, "fusion_lat": 0.0, "type": "electric_scooter", "bike_id": "d8e755b24215efc653e5c7f2cb0eb78a", "is_reserved": 0, "rental_uris": {"ios": "https://dc.lft.to/lastmile_qr_scan", "android": "https://dc.lft.to/lastmile_qr_scan"}, "is_disabled": 0, "lon": -77.05104966666667, "name": "d8e755b24215efc653e5c7f2cb0eb78a", "fusion_lon": 0.0}, {"lat": 38.91750283333333, "fusion_lat": 0.0, "type": "electric_scooter", "bike_id": "ae64ccd008369b482248b4012f0e93af", "is_reserved": 0, "rental_uris": {"ios": "https://dc.lft.to/lastmile_qr_scan", "android": "https://dc.lft.to/lastmile_qr_scan"}, "is_disabled": 0, "lon": -77.02821183333333, "name": "ae64ccd008369b482248b4012f0e93af", "fusion_lon": 0.0}, {"lat": 38.8747255, "fusion_lat": 0.0, "type": "electric_scooter", "bike_id": "618c5d179740ba801d3c58f907e8a430", "is_reserved": 0, "rental_uris": {"ios": "https://dc.lft.to/lastmile_qr_scan", "android": "https://dc.lft.to/lastmile_qr_scan"}, "is_disabled": 0, "lon": -77.00560666666667, "name": "618c5d179740ba801d3c58f907e8a430", "fusion_lon": 0.0}, {"lat": 38.9075365, "fusion_lat": 0.0, "type": "electric_scooter", "bike_id": "32b4f28218dc74bb807c5aecaf1e8aa8", "is_reserved": 0, "rental_uris": {"ios": "https://dc.lft.to/lastmile_qr_scan", "android": "https://dc.lft.to/lastmile_qr_scan"}, "is_disabled": 0, "lon": -77.03188566666667, "name": "32b4f28218dc74bb807c5aecaf1e8aa8", "fusion_lon": 0.0}, {"lat": 38.92416, "fusion_lat": 0.0, "type": "electric_scooter", "bike_id": "04ee65fe4048a8cf39351bdc8a1cdc8a", "is_reserved": 0, "rental_uris": {"ios": "https://dc.lft.to/lastmile_qr_scan", "android": "https://dc.lft.to/lastmile_qr_scan"}, "is_disabled": 0, "lon": -77.05062816666667, "name": "04ee65fe4048a8cf39351bdc8a1cdc8a", "fusion_lon": 0.0}, {"lat": 38.931893333333335, "fusion_lat": 0.0, "type": "electric_scooter", "bike_id": "524dc6cab4b34d6b6539140ee24fa1a4", "is_reserved": 0, "rental_uris": {"ios": "https://dc.lft.to/lastmile_qr_scan", "android": "https://dc.lft.to/lastmile_qr_scan"}, "is_disabled": 0, "lon": -77.04533933333333, "name": "524dc6cab4b34d6b6539140ee24fa1a4", "fusion_lon": 0.0}, {"lat": 38.90707533333333, "fusion_lat": 0.0, "type": "electric_scooter", "bike_id": "9ee4bafd7880dc10ec09561f3fe6f7d8", "is_reserved": 0, "rental_uris": {"ios": "https://dc.lft.to/lastmile_qr_scan", "android": "https://dc.lft.to/lastmile_qr_scan"}, "is_disabled": 0, "lon": -77.02950466666667, "name": "9ee4bafd7880dc10ec09561f3fe6f7d8", "fusion_lon": 0.0}, {"lat": 38.91416133333333, "fusion_lat": 0.0, "type": "electric_scooter", "bike_id": "3ba3726e785baa3560d7ed5cbdff9c0d", "is_reserved": 0, "rental_uris": {"ios": "https://dc.lft.to/lastmile_qr_scan", "android": "https://dc.lft.to/lastmile_qr_scan"}, "is_disabled": 0, "lon": -77.04918233333333, "name": "3ba3726e785baa3560d7ed5cbdff9c0d", "fusion_lon": 0.0}, {"lat": 38.87479016666666, "fusion_lat": 0.0, "type": "electric_bike", "bike_id": "e4708df8154d8a1a68ce52606840b13d", "is_reserved": 0, "rental_uris": {"ios": "https://dc.lft.to/lastmile_qr_scan", "android": "https://dc.lft.to/lastmile_qr_scan"}, "is_disabled": 0, "lon": -76.96520383333333, "name": "e4708df8154d8a1a68ce52606840b13d", "fusion_lon": 0.0}, {"lat": 38.89319233333333, "fusion_lat": 0.0, "type": "electric_scooter", "bike_id": "d786f427feaba2ddf332d3a8a79b810a", "is_reserved": 0, "rental_uris": {"ios": "https://dc.lft.to/lastmile_qr_scan", "android": "https://dc.lft.to/lastmile_qr_scan"}, "is_disabled": 0, "lon": -77.05001416666667, "name": "d786f427feaba2ddf332d3a8a79b810a", "fusion_lon": 0.0}, {"lat": 38.95917433333334, "fusion_lat": 0.0, "type": "electric_bike", "bike_id": "14246a1738153df33aaba3948d5b2e75", "is_reserved": 0, "rental_uris": {"ios": "https://dc.lft.to/lastmile_qr_scan", "android": "https://dc.lft.to/lastmile_qr_scan"}, "is_disabled": 0, "lon": -77.08476433333334, "name": "14246a1738153df33aaba3948d5b2e75", "fusion_lon": 0.0}, {"lat": 38.918600833333336, "fusion_lat": 0.0, "type": "electric_scooter", "bike_id": "bd2850cf1b096021e531e24ef9d758ce", "is_reserved": 0, "rental_uris": {"ios": "https://dc.lft.to/lastmile_qr_scan", "android": "https://dc.lft.to/lastmile_qr_scan"}, "is_disabled": 0, "lon": -77.04043183333333, "name": "bd2850cf1b096021e531e24ef9d758ce", "fusion_lon": 0.0}, {"lat": 38.88368366666667, "fusion_lat": 0.0, "type": "electric_scooter", "bike_id": "1155070f5212b4afecb623bcb8f2b39e", "is_reserved": 0, "rental_uris": {"ios": "https://dc.lft.to/lastmile_qr_scan", "android": "https://dc.lft.to/lastmile_qr_scan"}, "is_disabled": 0, "lon": -76.99521066666667, "name": "1155070f5212b4afecb623bcb8f2b39e", "fusion_lon": 0.0}, {"lat": 38.886046, "fusion_lat": 0.0, "type": "electric_scooter", "bike_id": "e0ce13e9daf051d4815b3c6ba6b2025c", "is_reserved": 0, "rental_uris": {"ios": "https://dc.lft.to/lastmile_qr_scan", "android": "https://dc.lft.to/lastmile_qr_scan"}, "is_disabled": 0, "lon": -77.01910033333333, "name": "e0ce13e9daf051d4815b3c6ba6b2025c", "fusion_lon": 0.0}, {"lat": 38.87179183333333, "fusion_lat": 0.0, "type": "electric_scooter", "bike_id": "535f97f338c6b6f9ee7a6d2c7ccafe83", "is_reserved": 0, "rental_uris": {"ios": "https://dc.lft.to/lastmile_qr_scan", "android": "https://dc.lft.to/lastmile_qr_scan"}, "is_disabled": 0, "lon": -77.006135, "name": "535f97f338c6b6f9ee7a6d2c7ccafe83", "fusion_lon": 0.0}, {"lat": 38.887439, "fusion_lat": 0.0, "type": "electric_scooter", "bike_id": "e6709492daab75305193284059391942", "is_reserved": 0, "rental_uris": {"ios": "https://dc.lft.to/lastmile_qr_scan", "android": "https://dc.lft.to/lastmile_qr_scan"}, "is_disabled": 0, "lon": -77.02846316666667, "name": "e6709492daab75305193284059391942", "fusion_lon": 0.0}, {"lat": 38.888497, "fusion_lat": 0.0, "type": "electric_scooter", "bike_id": "d304b68faf3c1dae5ad9bb73703db4b5", "is_reserved": 0, "rental_uris": {"ios": "https://dc.lft.to/lastmile_qr_scan", "android": "https://dc.lft.to/lastmile_qr_scan"}, "is_disabled": 0, "lon": -76.92682933333333, "name": "d304b68faf3c1dae5ad9bb73703db4b5", "fusion_lon": 0.0}, {"lat": 38.907383333333335, "fusion_lat": 0.0, "type": "electric_scooter", "bike_id": "7bd1cec5c593ff7df7e43a2b5ff4a215", "is_reserved": 0, "rental_uris": {"ios": "https://dc.lft.to/lastmile_qr_scan", "android": "https://dc.lft.to/lastmile_qr_scan"}, "is_disabled": 0, "lon": -77.00931833333334, "name": "7bd1cec5c593ff7df7e43a2b5ff4a215", "fusion_lon": 0.0}, {"lat": 38.93652016666667, "fusion_lat": 0.0, "type": "electric_scooter", "bike_id": "35ec46dfcda79d747abfddfef360e61a", "is_reserved": 0, "rental_uris": {"ios": "https://dc.lft.to/lastmile_qr_scan", "android": "https://dc.lft.to/lastmile_qr_scan"}, "is_disabled": 0, "lon": -77.02639083333334, "name": "35ec46dfcda79d747abfddfef360e61a", "fusion_lon": 0.0}, {"lat": 38.91695133333333, "fusion_lat": 0.0, "type": "electric_scooter", "bike_id": "b26bc1c06974f8d564289af7dd38b98b", "is_reserved": 0, "rental_uris": {"ios": "https://dc.lft.to/lastmile_qr_scan", "android": "https://dc.lft.to/lastmile_qr_scan"}, "is_disabled": 0, "lon": -77.03392416666667, "name": "b26bc1c06974f8d564289af7dd38b98b", "fusion_lon": 0.0}, {"lat": 38.8843135, "fusion_lat": 0.0, "type": "electric_scooter", "bike_id": "e16ea0bed25396fa3a0dda79a075124b", "is_reserved": 0, "rental_uris": {"ios": "https://dc.lft.to/lastmile_qr_scan", "android": "https://dc.lft.to/lastmile_qr_scan"}, "is_disabled": 0, "lon": -76.957417, "name": "e16ea0bed25396fa3a0dda79a075124b", "fusion_lon": 0.0}, {"lat": 38.86938816666667, "fusion_lat": 0.0, "type": "electric_bike", "bike_id": "9ae32c99c063638d0516c1388d647a9b", "is_reserved": 0, "rental_uris": {"ios": "https://dc.lft.to/lastmile_qr_scan", "android": "https://dc.lft.to/lastmile_qr_scan"}, "is_disabled": 0, "lon": -77.0946325, "name": "9ae32c99c063638d0516c1388d647a9b", "fusion_lon": 0.0}, {"lat": 38.90508916666667, "fusion_lat": 0.0, "type": "electric_scooter", "bike_id": "de75f171cc6ac9698c11e0dbbfa98ebd", "is_reserved": 0, "rental_uris": {"ios": "https://dc.lft.to/lastmile_qr_scan", "android": "https://dc.lft.to/lastmile_qr_scan"}, "is_disabled": 0, "lon": -77.05087766666666, "name": "de75f171cc6ac9698c11e0dbbfa98ebd", "fusion_lon": 0.0}, {"lat": 38.918434500000004, "fusion_lat": 0.0, "type": "electric_scooter", "bike_id": "0070d9291b74690b7cf9a7d1faa25fe3", "is_reserved": 0, "rental_uris": {"ios": "https://dc.lft.to/lastmile_qr_scan", "android": "https://dc.lft.to/lastmile_qr_scan"}, "is_disabled": 0, "lon": -77.04016716666666, "name": "0070d9291b74690b7cf9a7d1faa25fe3", "fusion_lon": 0.0}, {"lat": 38.928692, "fusion_lat": 0.0, "type": "electric_scooter", "bike_id": "07f6300b478692eaa19e2089d789dac3", "is_reserved": 0, "rental_uris": {"ios": "https://dc.lft.to/lastmile_qr_scan", "android": "https://dc.lft.to/lastmile_qr_scan"}, "is_disabled": 0, "lon": -77.0285035, "name": "07f6300b478692eaa19e2089d789dac3", "fusion_lon": 0.0}, {"lat": 38.93579366666667, "fusion_lat": 0.0, "type": "electric_scooter", "bike_id": "e6cf0a41f6747bae157f8557b48417f7", "is_reserved": 0, "rental_uris": {"ios": "https://dc.lft.to/lastmile_qr_scan", "android": "https://dc.lft.to/lastmile_qr_scan"}, "is_disabled": 0, "lon": -77.02120483333333, "name": "e6cf0a41f6747bae157f8557b48417f7", "fusion_lon": 0.0}, {"lat": 38.91975766666667, "fusion_lat": 0.0, "type": "electric_scooter", "bike_id": "f63fae81375acefadce75f98b0c3ac66", "is_reserved": 0, "rental_uris": {"ios": "https://dc.lft.to/lastmile_qr_scan", "android": "https://dc.lft.to/lastmile_qr_scan"}, "is_disabled": 0, "lon": -77.01912666666666, "name": "f63fae81375acefadce75f98b0c3ac66", "fusion_lon": 0.0}, {"lat": 38.907203333333335, "fusion_lat": 0.0, "type": "electric_scooter", "bike_id": "a3ae1875c4d194af112d39613830d9c6", "is_reserved": 0, "rental_uris": {"ios": "https://dc.lft.to/lastmile_qr_scan", "android": "https://dc.lft.to/lastmile_qr_scan"}, "is_disabled": 0, "lon": -77.029515, "name": "a3ae1875c4d194af112d39613830d9c6", "fusion_lon": 0.0}, {"lat": 38.908367, "fusion_lat": 0.0, "type": "electric_scooter", "bike_id": "f034c11bff2bac5ff843bafed6eaf503", "is_reserved": 0, "rental_uris": {"ios": "https://dc.lft.to/lastmile_qr_scan", "android": "https://dc.lft.to/lastmile_qr_scan"}, "is_disabled": 0, "lon": -76.99699733333334, "name": "f034c11bff2bac5ff843bafed6eaf503", "fusion_lon": 0.0}, {"lat": 38.8860565, "fusion_lat": 0.0, "type": "electric_scooter", "bike_id": "d0d934884d2e5ff31a5bdffc90fb78f3", "is_reserved": 0, "rental_uris": {"ios": "https://dc.lft.to/lastmile_qr_scan", "android": "https://dc.lft.to/lastmile_qr_scan"}, "is_disabled": 0, "lon": -76.99511283333334, "name": "d0d934884d2e5ff31a5bdffc90fb78f3", "fusion_lon": 0.0}, {"lat": 38.85543033333333, "fusion_lat": 0.0, "type": "electric_bike", "bike_id": "4e089b178b34d74b24a4e3839ca7f83a", "is_reserved": 0, "rental_uris": {"ios": "https://dc.lft.to/lastmile_qr_scan", "android": "https://dc.lft.to/lastmile_qr_scan"}, "is_disabled": 0, "lon": -77.12044783333333, "name": "4e089b178b34d74b24a4e3839ca7f83a", "fusion_lon": 0.0}, {"lat": 38.9177295, "fusion_lat": 0.0, "type": "electric_scooter", "bike_id": "fc102c8de9621deeb09f1441b1da12a4", "is_reserved": 0, "rental_uris": {"ios": "https://dc.lft.to/lastmile_qr_scan", "android": "https://dc.lft.to/lastmile_qr_scan"}, "is_disabled": 0, "lon": -77.04056933333334, "name": "fc102c8de9621deeb09f1441b1da12a4", "fusion_lon": 0.0}, {"lat": 38.883667333333335, "fusion_lat": 0.0, "type": "electric_scooter", "bike_id": "3c332acd2d4c3cdbf9d1b6728b5fec9c", "is_reserved": 0, "rental_uris": {"ios": "https://dc.lft.to/lastmile_qr_scan", "android": "https://dc.lft.to/lastmile_qr_scan"}, "is_disabled": 0, "lon": -76.99490616666667, "name": "3c332acd2d4c3cdbf9d1b6728b5fec9c", "fusion_lon": 0.0}, {"lat": 38.90363466666667, "fusion_lat": 0.0, "type": "electric_scooter", "bike_id": "2b81bad9bc3973a609cfaff0c18b3df0", "is_reserved": 0, "rental_uris": {"ios": "https://dc.lft.to/lastmile_qr_scan", "android": "https://dc.lft.to/lastmile_qr_scan"}, "is_disabled": 0, "lon": -77.043244, "name": "2b81bad9bc3973a609cfaff0c18b3df0", "fusion_lon": 0.0}, {"lat": 38.91187866666667, "fusion_lat": 0.0, "type": "electric_scooter", "bike_id": "5fe774d386901a6aed39126e73a503f9", "is_reserved": 0, "rental_uris": {"ios": "https://dc.lft.to/lastmile_qr_scan", "android": "https://dc.lft.to/lastmile_qr_scan"}, "is_disabled": 0, "lon": -77.00712383333334, "name": "5fe774d386901a6aed39126e73a503f9", "fusion_lon": 0.0}, {"lat": 38.993273333333335, "fusion_lat": 0.0, "type": "electric_bike", "bike_id": "592be566290c4d4e9ef888666436eb26", "is_reserved": 0, "rental_uris": {"ios": "https://dc.lft.to/lastmile_qr_scan", "android": "https://dc.lft.to/lastmile_qr_scan"}, "is_disabled": 0, "lon": -76.94615383333333, "name": "592be566290c4d4e9ef888666436eb26", "fusion_lon": 0.0}, {"lat": 38.916733, "fusion_lat": 0.0, "type": "electric_scooter", "bike_id": "7b0c2923cf4fc7557b0bf8e1ec0fa51f", "is_reserved": 0, "rental_uris": {"ios": "https://dc.lft.to/lastmile_qr_scan", "android": "https://dc.lft.to/lastmile_qr_scan"}, "is_disabled": 0, "lon": -77.01580733333333, "name": "7b0c2923cf4fc7557b0bf8e1ec0fa51f", "fusion_lon": 0.0}, {"lat": 38.92877, "fusion_lat": 0.0, "type": "electric_scooter", "bike_id": "bfa4ba9ebe118d8b085e9622bc7273ec", "is_reserved": 0, "rental_uris": {"ios": "https://dc.lft.to/lastmile_qr_scan", "android": "https://dc.lft.to/lastmile_qr_scan"}, "is_disabled": 0, "lon": -77.01358333333333, "name": "bfa4ba9ebe118d8b085e9622bc7273ec", "fusion_lon": 0.0}, {"lat": 38.892246666666665, "fusion_lat": 0.0, "type": "electric_scooter", "bike_id": "7f8a124da683b3083584fea42e428f48", "is_reserved": 0, "rental_uris": {"ios": "https://dc.lft.to/lastmile_qr_scan", "android": "https://dc.lft.to/lastmile_qr_scan"}, "is_disabled": 0, "lon": -77.02344866666667, "name": "7f8a124da683b3083584fea42e428f48", "fusion_lon": 0.0}, {"lat": 38.89399083333333, "fusion_lat": 0.0, "type": "electric_scooter", "bike_id": "8644833f75e0ae7aa241fb916d9bc853", "is_reserved": 0, "rental_uris": {"ios": "https://dc.lft.to/lastmile_qr_scan", "android": "https://dc.lft.to/lastmile_qr_scan"}, "is_disabled": 0, "lon": -77.02266933333334, "name": "8644833f75e0ae7aa241fb916d9bc853", "fusion_lon": 0.0}, {"lat": 38.928715, "fusion_lat": 0.0, "type": "electric_scooter", "bike_id": "43f1603b15a6a4ca26f2d2d257900868", "is_reserved": 0, "rental_uris": {"ios": "https://dc.lft.to/lastmile_qr_scan", "android": "https://dc.lft.to/lastmile_qr_scan"}, "is_disabled": 0, "lon": -77.0340745, "name": "43f1603b15a6a4ca26f2d2d257900868", "fusion_lon": 0.0}, {"lat": 38.91570083333333, "fusion_lat": 0.0, "type": "electric_scooter", "bike_id": "fac78203ce80b93726d5593adb5ded43", "is_reserved": 0, "rental_uris": {"ios": "https://dc.lft.to/lastmile_qr_scan", "android": "https://dc.lft.to/lastmile_qr_scan"}, "is_disabled": 0, "lon": -77.04284766666666, "name": "fac78203ce80b93726d5593adb5ded43", "fusion_lon": 0.0}, {"lat": 38.876180166666664, "fusion_lat": 0.0, "type": "electric_scooter", "bike_id": "b6e615153e4a7280402131745037db4b", "is_reserved": 0, "rental_uris": {"ios": "https://dc.lft.to/lastmile_qr_scan", "android": "https://dc.lft.to/lastmile_qr_scan"}, "is_disabled": 0, "lon": -77.00384983333333, "name": "b6e615153e4a7280402131745037db4b", "fusion_lon": 0.0}, {"lat": 38.90859666666667, "fusion_lat": 0.0, "type": "electric_scooter", "bike_id": "66dcda3a55b087d991efffafb9b5fc63", "is_reserved": 0, "rental_uris": {"ios": "https://dc.lft.to/lastmile_qr_scan", "android": "https://dc.lft.to/lastmile_qr_scan"}, "is_disabled": 0, "lon": -77.0416545, "name": "66dcda3a55b087d991efffafb9b5fc63", "fusion_lon": 0.0}, {"lat": 38.91104416666667, "fusion_lat": 0.0, "type": "electric_scooter", "bike_id": "a1b15acfbf2c3872d0cdafe5a92ac12f", "is_reserved": 0, "rental_uris": {"ios": "https://dc.lft.to/lastmile_qr_scan", "android": "https://dc.lft.to/lastmile_qr_scan"}, "is_disabled": 0, "lon": -77.02506533333333, "name": "a1b15acfbf2c3872d0cdafe5a92ac12f", "fusion_lon": 0.0}, {"lat": 38.90567933333333, "fusion_lat": 0.0, "type": "electric_scooter", "bike_id": "cdb3df254fcbd7fc6162e09fbfa5ecca", "is_reserved": 0, "rental_uris": {"ios": "https://dc.lft.to/lastmile_qr_scan", "android": "https://dc.lft.to/lastmile_qr_scan"}, "is_disabled": 0, "lon": -77.03442516666667, "name": "cdb3df254fcbd7fc6162e09fbfa5ecca", "fusion_lon": 0.0}, {"lat": 38.902801, "fusion_lat": 0.0, "type": "electric_scooter", "bike_id": "be3b56942bbe8714ef3199ac805f2245", "is_reserved": 0, "rental_uris": {"ios": "https://dc.lft.to/lastmile_qr_scan", "android": "https://dc.lft.to/lastmile_qr_scan"}, "is_disabled": 0, "lon": -77.02273083333333, "name": "be3b56942bbe8714ef3199ac805f2245", "fusion_lon": 0.0}, {"lat": 38.9094095, "fusion_lat": 0.0, "type": "electric_scooter", "bike_id": "0c0db2731ea02f7a9c609d2095c58384", "is_reserved": 0, "rental_uris": {"ios": "https://dc.lft.to/lastmile_qr_scan", "android": "https://dc.lft.to/lastmile_qr_scan"}, "is_disabled": 0, "lon": -77.049397, "name": "0c0db2731ea02f7a9c609d2095c58384", "fusion_lon": 0.0}, {"lat": 38.9066825, "fusion_lat": 0.0, "type": "electric_scooter", "bike_id": "b0a47528840bed6bdff78c8b718b09f8", "is_reserved": 0, "rental_uris": {"ios": "https://dc.lft.to/lastmile_qr_scan", "android": "https://dc.lft.to/lastmile_qr_scan"}, "is_disabled": 0, "lon": -77.03759233333334, "name": "b0a47528840bed6bdff78c8b718b09f8", "fusion_lon": 0.0}, {"lat": 38.9273935, "fusion_lat": 0.0, "type": "electric_scooter", "bike_id": "3d9f011101f9bd5856de5aec1c2b88c8", "is_reserved": 0, "rental_uris": {"ios": "https://dc.lft.to/lastmile_qr_scan", "android": "https://dc.lft.to/lastmile_qr_scan"}, "is_disabled": 0, "lon": -77.022247, "name": "3d9f011101f9bd5856de5aec1c2b88c8", "fusion_lon": 0.0}, {"lat": 38.911384166666664, "fusion_lat": 0.0, "type": "electric_scooter", "bike_id": "730883f05080dd4c97d104b3fab848ef", "is_reserved": 0, "rental_uris": {"ios": "https://dc.lft.to/lastmile_qr_scan", "android": "https://dc.lft.to/lastmile_qr_scan"}, "is_disabled": 0, "lon": -77.03851566666667, "name": "730883f05080dd4c97d104b3fab848ef", "fusion_lon": 0.0}, {"lat": 38.952654833333334, "fusion_lat": 0.0, "type": "electric_scooter", "bike_id": "c14f90e9e273820542bc652d6ca145e9", "is_reserved": 0, "rental_uris": {"ios": "https://dc.lft.to/lastmile_qr_scan", "android": "https://dc.lft.to/lastmile_qr_scan"}, "is_disabled": 0, "lon": -77.002037, "name": "c14f90e9e273820542bc652d6ca145e9", "fusion_lon": 0.0}, {"lat": 38.87480466666667, "fusion_lat": 0.0, "type": "electric_bike", "bike_id": "0a57c72617cc324350ee8e30acd13a43", "is_reserved": 0, "rental_uris": {"ios": "https://dc.lft.to/lastmile_qr_scan", "android": "https://dc.lft.to/lastmile_qr_scan"}, "is_disabled": 0, "lon": -76.96527783333333, "name": "0a57c72617cc324350ee8e30acd13a43", "fusion_lon": 0.0}, {"lat": 38.91289966666667, "fusion_lat": 0.0, "type": "electric_scooter", "bike_id": "45070585671942d6a0db0cfb7ff41d11", "is_reserved": 0, "rental_uris": {"ios": "https://dc.lft.to/lastmile_qr_scan", "android": "https://dc.lft.to/lastmile_qr_scan"}, "is_disabled": 0, "lon": -77.02378333333333, "name": "45070585671942d6a0db0cfb7ff41d11", "fusion_lon": 0.0}, {"lat": 38.8961655, "fusion_lat": 0.0, "type": "electric_scooter", "bike_id": "f682c91674682fec7be986f22ab1aac9", "is_reserved": 0, "rental_uris": {"ios": "https://dc.lft.to/lastmile_qr_scan", "android": "https://dc.lft.to/lastmile_qr_scan"}, "is_disabled": 0, "lon": -76.98111233333333, "name": "f682c91674682fec7be986f22ab1aac9", "fusion_lon": 0.0}, {"lat": 38.895989666666665, "fusion_lat": 0.0, "type": "electric_scooter", "bike_id": "fcb40a195dc4586af0e41ef5d1f595f3", "is_reserved": 0, "rental_uris": {"ios": "https://dc.lft.to/lastmile_qr_scan", "android": "https://dc.lft.to/lastmile_qr_scan"}, "is_disabled": 0, "lon": -77.015967, "name": "fcb40a195dc4586af0e41ef5d1f595f3", "fusion_lon": 0.0}, {"lat": 38.896118, "fusion_lat": 0.0, "type": "electric_scooter", "bike_id": "78e0384873608e99e4e0bdd171d7ad84", "is_reserved": 0, "rental_uris": {"ios": "https://dc.lft.to/lastmile_qr_scan", "android": "https://dc.lft.to/lastmile_qr_scan"}, "is_disabled": 0, "lon": -77.02199516666667, "name": "78e0384873608e99e4e0bdd171d7ad84", "fusion_lon": 0.0}, {"lat": 38.9102575, "fusion_lat": 0.0, "type": "electric_scooter", "bike_id": "bda9200a41da0fdb8a09c2b50219169d", "is_reserved": 0, "rental_uris": {"ios": "https://dc.lft.to/lastmile_qr_scan", "android": "https://dc.lft.to/lastmile_qr_scan"}, "is_disabled": 0, "lon": -77.05277116666667, "name": "bda9200a41da0fdb8a09c2b50219169d", "fusion_lon": 0.0}, {"lat": 38.907241, "fusion_lat": 0.0, "type": "electric_scooter", "bike_id": "5ec78ce33b9ceabee1377dbf084c25b6", "is_reserved": 0, "rental_uris": {"ios": "https://dc.lft.to/lastmile_qr_scan", "android": "https://dc.lft.to/lastmile_qr_scan"}, "is_disabled": 0, "lon": -77.02892416666667, "name": "5ec78ce33b9ceabee1377dbf084c25b6", "fusion_lon": 0.0}, {"lat": 38.873641166666665, "fusion_lat": 0.0, "type": "electric_scooter", "bike_id": "99be1052a5ceb7fad03d0fadc2c968cf", "is_reserved": 0, "rental_uris": {"ios": "https://dc.lft.to/lastmile_qr_scan", "android": "https://dc.lft.to/lastmile_qr_scan"}, "is_disabled": 0, "lon": -77.00569583333333, "name": "99be1052a5ceb7fad03d0fadc2c968cf", "fusion_lon": 0.0}, {"lat": 38.9361025, "fusion_lat": 0.0, "type": "electric_scooter", "bike_id": "ec23dd7aaa5e5dd918e956fdfc680bea", "is_reserved": 0, "rental_uris": {"ios": "https://dc.lft.to/lastmile_qr_scan", "android": "https://dc.lft.to/lastmile_qr_scan"}, "is_disabled": 0, "lon": -77.03732333333333, "name": "ec23dd7aaa5e5dd918e956fdfc680bea", "fusion_lon": 0.0}, {"lat": 38.90395216666667, "fusion_lat": 0.0, "type": "electric_scooter", "bike_id": "6b0c7e7e644aadd15c59ea3aba2028d3", "is_reserved": 0, "rental_uris": {"ios": "https://dc.lft.to/lastmile_qr_scan", "android": "https://dc.lft.to/lastmile_qr_scan"}, "is_disabled": 0, "lon": -77.0650895, "name": "6b0c7e7e644aadd15c59ea3aba2028d3", "fusion_lon": 0.0}, {"lat": 38.9000535, "fusion_lat": 0.0, "type": "electric_scooter", "bike_id": "e34deeeea42a3aa64acf439891149f75", "is_reserved": 0, "rental_uris": {"ios": "https://dc.lft.to/lastmile_qr_scan", "android": "https://dc.lft.to/lastmile_qr_scan"}, "is_disabled": 0, "lon": -76.99623683333333, "name": "e34deeeea42a3aa64acf439891149f75", "fusion_lon": 0.0}, {"lat": 38.89358283333333, "fusion_lat": 0.0, "type": "electric_scooter", "bike_id": "4463e02095a65e4627eb100c6c9307b0", "is_reserved": 0, "rental_uris": {"ios": "https://dc.lft.to/lastmile_qr_scan", "android": "https://dc.lft.to/lastmile_qr_scan"}, "is_disabled": 0, "lon": -77.01987, "name": "4463e02095a65e4627eb100c6c9307b0", "fusion_lon": 0.0}, {"lat": 38.920747, "fusion_lat": 0.0, "type": "electric_scooter", "bike_id": "5f727583ccb84da5a1213f1239bc814e", "is_reserved": 0, "rental_uris": {"ios": "https://dc.lft.to/lastmile_qr_scan", "android": "https://dc.lft.to/lastmile_qr_scan"}, "is_disabled": 0, "lon": -77.02427666666667, "name": "5f727583ccb84da5a1213f1239bc814e", "fusion_lon": 0.0}, {"lat": 38.9082775, "fusion_lat": 0.0, "type": "electric_scooter", "bike_id": "18636353a572ace595adee380158357c", "is_reserved": 0, "rental_uris": {"ios": "https://dc.lft.to/lastmile_qr_scan", "android": "https://dc.lft.to/lastmile_qr_scan"}, "is_disabled": 0, "lon": -76.9344805, "name": "18636353a572ace595adee380158357c", "fusion_lon": 0.0}, {"lat": 38.907895833333335, "fusion_lat": 0.0, "type": "electric_scooter", "bike_id": "c11fcebcca420fda09f6de3593aa75b3", "is_reserved": 0, "rental_uris": {"ios": "https://dc.lft.to/lastmile_qr_scan", "android": "https://dc.lft.to/lastmile_qr_scan"}, "is_disabled": 0, "lon": -77.0318545, "name": "c11fcebcca420fda09f6de3593aa75b3", "fusion_lon": 0.0}, {"lat": 38.920792666666664, "fusion_lat": 0.0, "type": "electric_scooter", "bike_id": "868723a60bf4daef87f53cf87cfc5648", "is_reserved": 0, "rental_uris": {"ios": "https://dc.lft.to/lastmile_qr_scan", "android": "https://dc.lft.to/lastmile_qr_scan"}, "is_disabled": 0, "lon": -77.04198816666667, "name": "868723a60bf4daef87f53cf87cfc5648", "fusion_lon": 0.0}, {"lat": 38.90094933333334, "fusion_lat": 0.0, "type": "electric_scooter", "bike_id": "2219d1b18e979a2a30d7325f408cf8f5", "is_reserved": 0, "rental_uris": {"ios": "https://dc.lft.to/lastmile_qr_scan", "android": "https://dc.lft.to/lastmile_qr_scan"}, "is_disabled": 0, "lon": -76.97639333333333, "name": "2219d1b18e979a2a30d7325f408cf8f5", "fusion_lon": 0.0}, {"lat": 38.906007333333335, "fusion_lat": 0.0, "type": "electric_scooter", "bike_id": "ea81d98c7b942ab4d710f6c207481d5d", "is_reserved": 0, "rental_uris": {"ios": "https://dc.lft.to/lastmile_qr_scan", "android": "https://dc.lft.to/lastmile_qr_scan"}, "is_disabled": 0, "lon": -77.02185316666667, "name": "ea81d98c7b942ab4d710f6c207481d5d", "fusion_lon": 0.0}, {"lat": 38.874203333333334, "fusion_lat": 0.0, "type": "electric_scooter", "bike_id": "690100ba7b92b1319a4a1f4f9029fd17", "is_reserved": 0, "rental_uris": {"ios": "https://dc.lft.to/lastmile_qr_scan", "android": "https://dc.lft.to/lastmile_qr_scan"}, "is_disabled": 0, "lon": -76.97118333333333, "name": "690100ba7b92b1319a4a1f4f9029fd17", "fusion_lon": 0.0}, {"lat": 38.86509383333333, "fusion_lat": 0.0, "type": "electric_scooter", "bike_id": "1bfdc474a44c5636349959911e9b444d", "is_reserved": 0, "rental_uris": {"ios": "https://dc.lft.to/lastmile_qr_scan", "android": "https://dc.lft.to/lastmile_qr_scan"}, "is_disabled": 0, "lon": -76.99007166666667, "name": "1bfdc474a44c5636349959911e9b444d", "fusion_lon": 0.0}, {"lat": 38.874754833333334, "fusion_lat": 0.0, "type": "electric_scooter", "bike_id": "00a357743c7fa9a08cc3a2cccd6cbe21", "is_reserved": 0, "rental_uris": {"ios": "https://dc.lft.to/lastmile_qr_scan", "android": "https://dc.lft.to/lastmile_qr_scan"}, "is_disabled": 0, "lon": -77.00563616666666, "name": "00a357743c7fa9a08cc3a2cccd6cbe21", "fusion_lon": 0.0}, {"lat": 38.90664183333333, "fusion_lat": 0.0, "type": "electric_scooter", "bike_id": "0341871931bf6914dd59541ad6e26b77", "is_reserved": 0, "rental_uris": {"ios": "https://dc.lft.to/lastmile_qr_scan", "android": "https://dc.lft.to/lastmile_qr_scan"}, "is_disabled": 0, "lon": -77.074673, "name": "0341871931bf6914dd59541ad6e26b77", "fusion_lon": 0.0}, {"lat": 38.92967483333334, "fusion_lat": 0.0, "type": "electric_scooter", "bike_id": "76e7395cbebe1266f9ca4508cd798b28", "is_reserved": 0, "rental_uris": {"ios": "https://dc.lft.to/lastmile_qr_scan", "android": "https://dc.lft.to/lastmile_qr_scan"}, "is_disabled": 0, "lon": -77.0294655, "name": "76e7395cbebe1266f9ca4508cd798b28", "fusion_lon": 0.0}, {"lat": 38.83810916666667, "fusion_lat": 0.0, "type": "electric_bike", "bike_id": "52fc9dc6672452c6e8806af1e7d48c0f", "is_reserved": 0, "rental_uris": {"ios": "https://dc.lft.to/lastmile_qr_scan", "android": "https://dc.lft.to/lastmile_qr_scan"}, "is_disabled": 0, "lon": -77.09520416666666, "name": "52fc9dc6672452c6e8806af1e7d48c0f", "fusion_lon": 0.0}, {"lat": 38.930296, "fusion_lat": 0.0, "type": "electric_scooter", "bike_id": "bff37f8431feab43b2ed79efc94fe57c", "is_reserved": 0, "rental_uris": {"ios": "https://dc.lft.to/lastmile_qr_scan", "android": "https://dc.lft.to/lastmile_qr_scan"}, "is_disabled": 0, "lon": -77.06090916666666, "name": "bff37f8431feab43b2ed79efc94fe57c", "fusion_lon": 0.0}, {"lat": 38.887627, "fusion_lat": 0.0, "type": "electric_scooter", "bike_id": "e4f213407dd812e1934cdfef7311750e", "is_reserved": 0, "rental_uris": {"ios": "https://dc.lft.to/lastmile_qr_scan", "android": "https://dc.lft.to/lastmile_qr_scan"}, "is_disabled": 0, "lon": -76.99606683333333, "name": "e4f213407dd812e1934cdfef7311750e", "fusion_lon": 0.0}, {"lat": 38.90797966666667, "fusion_lat": 0.0, "type": "electric_scooter", "bike_id": "3b54a7fa65e27a49ad3d116470a5195d", "is_reserved": 0, "rental_uris": {"ios": "https://dc.lft.to/lastmile_qr_scan", "android": "https://dc.lft.to/lastmile_qr_scan"}, "is_disabled": 0, "lon": -77.03658583333333, "name": "3b54a7fa65e27a49ad3d116470a5195d", "fusion_lon": 0.0}, {"lat": 38.921190333333335, "fusion_lat": 0.0, "type": "electric_scooter", "bike_id": "240696118c1a4a4f69fe890b5dbb2c07", "is_reserved": 0, "rental_uris": {"ios": "https://dc.lft.to/lastmile_qr_scan", "android": "https://dc.lft.to/lastmile_qr_scan"}, "is_disabled": 0, "lon": -77.04382, "name": "240696118c1a4a4f69fe890b5dbb2c07", "fusion_lon": 0.0}, {"lat": 38.95528, "fusion_lat": 0.0, "type": "electric_scooter", "bike_id": "7fa37bafd16aaee8de893475cfcd7dd2", "is_reserved": 0, "rental_uris": {"ios": "https://dc.lft.to/lastmile_qr_scan", "android": "https://dc.lft.to/lastmile_qr_scan"}, "is_disabled": 0, "lon": -77.02772633333333, "name": "7fa37bafd16aaee8de893475cfcd7dd2", "fusion_lon": 0.0}, {"lat": 38.857730333333336, "fusion_lat": 0.0, "type": "electric_bike", "bike_id": "52479bfd062a9a33154125955d1059cf", "is_reserved": 0, "rental_uris": {"ios": "https://dc.lft.to/lastmile_qr_scan", "android": "https://dc.lft.to/lastmile_qr_scan"}, "is_disabled": 0, "lon": -76.9876265, "name": "52479bfd062a9a33154125955d1059cf", "fusion_lon": 0.0}, {"lat": 38.92280383333333, "fusion_lat": 0.0, "type": "electric_scooter", "bike_id": "0ddaae334de2ebbcad0dc8c42f77c5b7", "is_reserved": 0, "rental_uris": {"ios": "https://dc.lft.to/lastmile_qr_scan", "android": "https://dc.lft.to/lastmile_qr_scan"}, "is_disabled": 0, "lon": -77.02230283333333, "name": "0ddaae334de2ebbcad0dc8c42f77c5b7", "fusion_lon": 0.0}, {"lat": 38.898882666666665, "fusion_lat": 0.0, "type": "electric_scooter", "bike_id": "a92acee8b43e2fa3a0da9f6cf94c0bff", "is_reserved": 0, "rental_uris": {"ios": "https://dc.lft.to/lastmile_qr_scan", "android": "https://dc.lft.to/lastmile_qr_scan"}, "is_disabled": 0, "lon": -76.97709366666666, "name": "a92acee8b43e2fa3a0da9f6cf94c0bff", "fusion_lon": 0.0}, {"lat": 38.857877, "fusion_lat": 0.0, "type": "electric_bike", "bike_id": "1d49488d6d63ebee840e79d4da05df77", "is_reserved": 0, "rental_uris": {"ios": "https://dc.lft.to/lastmile_qr_scan", "android": "https://dc.lft.to/lastmile_qr_scan"}, "is_disabled": 0, "lon": -77.1202075, "name": "1d49488d6d63ebee840e79d4da05df77", "fusion_lon": 0.0}, {"lat": 38.920239333333335, "fusion_lat": 0.0, "type": "electric_scooter", "bike_id": "04e924dd7fd08c96a8233b531b20f031", "is_reserved": 0, "rental_uris": {"ios": "https://dc.lft.to/lastmile_qr_scan", "android": "https://dc.lft.to/lastmile_qr_scan"}, "is_disabled": 0, "lon": -77.03117216666666, "name": "04e924dd7fd08c96a8233b531b20f031", "fusion_lon": 0.0}, {"lat": 38.90937, "fusion_lat": 0.0, "type": "electric_scooter", "bike_id": "85fb1f9291dab378bbd953017ca443a6", "is_reserved": 0, "rental_uris": {"ios": "https://dc.lft.to/lastmile_qr_scan", "android": "https://dc.lft.to/lastmile_qr_scan"}, "is_disabled": 0, "lon": -77.026939, "name": "85fb1f9291dab378bbd953017ca443a6", "fusion_lon": 0.0}, {"lat": 38.905309333333335, "fusion_lat": 0.0, "type": "electric_scooter", "bike_id": "fe561e87e5ba6f2ed78842042df4b167", "is_reserved": 0, "rental_uris": {"ios": "https://dc.lft.to/lastmile_qr_scan", "android": "https://dc.lft.to/lastmile_qr_scan"}, "is_disabled": 0, "lon": -76.98096466666667, "name": "fe561e87e5ba6f2ed78842042df4b167", "fusion_lon": 0.0}, {"lat": 38.8953805, "fusion_lat": 0.0, "type": "electric_scooter", "bike_id": "e027d9e1d02dc3f647d48eec0ba9a768", "is_reserved": 0, "rental_uris": {"ios": "https://dc.lft.to/lastmile_qr_scan", "android": "https://dc.lft.to/lastmile_qr_scan"}, "is_disabled": 0, "lon": -76.929504, "name": "e027d9e1d02dc3f647d48eec0ba9a768", "fusion_lon": 0.0}, {"lat": 38.906453166666665, "fusion_lat": 0.0, "type": "electric_scooter", "bike_id": "91c9d9065dda6a0b3a1aea1aa5b540b5", "is_reserved": 0, "rental_uris": {"ios": "https://dc.lft.to/lastmile_qr_scan", "android": "https://dc.lft.to/lastmile_qr_scan"}, "is_disabled": 0, "lon": -77.03841433333334, "name": "91c9d9065dda6a0b3a1aea1aa5b540b5", "fusion_lon": 0.0}, {"lat": 38.924161833333336, "fusion_lat": 0.0, "type": "electric_scooter", "bike_id": "05c85e052123a479b215b64fbd88bd31", "is_reserved": 0, "rental_uris": {"ios": "https://dc.lft.to/lastmile_qr_scan", "android": "https://dc.lft.to/lastmile_qr_scan"}, "is_disabled": 0, "lon": -77.05064583333333, "name": "05c85e052123a479b215b64fbd88bd31", "fusion_lon": 0.0}, {"lat": 38.935122666666665, "fusion_lat": 0.0, "type": "electric_scooter", "bike_id": "973e12d9e43865fd45e73195c9aeb400", "is_reserved": 0, "rental_uris": {"ios": "https://dc.lft.to/lastmile_qr_scan", "android": "https://dc.lft.to/lastmile_qr_scan"}, "is_disabled": 0, "lon": -77.0329095, "name": "973e12d9e43865fd45e73195c9aeb400", "fusion_lon": 0.0},