{"data": {"bikes": [{"lon": -76.97050666666667, "fusion_lat": 0.0, "type": "electric_bike", "lat": 38.958899, "is_disabled": 0, "name": "003ee102d76196dba9d7682022d7586a", "is_reserved": 0, "bike_id": "003ee102d76196dba9d7682022d7586a", "fusion_lon": 0.0, "rental_uris": {"ios": "https://dc.lft.to/lastmile_qr_scan", "android": "https://dc.lft.to/lastmile_qr_scan"}}, {"lon": -77.04903866666666, "fusion_lat": 0.0, "type": "electric_scooter", "lat": 38.90527816666667, "is_disabled": 0, "name": "b069b8538a29311a0e2487fef20df050", "is_reserved": 0, "bike_id": "b069b8538a29311a0e2487fef20df050", "fusion_lon": 0.0, "rental_uris": {"ios": "https://dc.lft.to/lastmile_qr_scan", "android": "https://dc.lft.to/lastmile_qr_scan"}}, {"lon": -77.0487165, "fusion_lat": 0.0, "type": "electric_scooter", "lat": 38.906425, "is_disabled": 0, "name": "6c5123ec52e42dab73cd0c8ce57c5adc", "is_reserved": 0, "bike_id": "6c5123ec52e42dab73cd0c8ce57c5adc", "fusion_lon": 0.0, "rental_uris": {"ios": "https://dc.lft.to/lastmile_qr_scan", "android": "https://dc.lft.to/lastmile_qr_scan"}}, {"lon": -76.99572483333333, "fusion_lat": 0.0, "type": "electric_scooter", "lat": 38.89481583333333, "is_disabled": 0, "name": "f06b383a40e0149874de817e5aa6d5fe", "is_reserved": 0, "bike_id": "f06b383a40e0149874de817e5aa6d5fe", "fusion_lon": 0.0, "rental_uris": {"ios": "https://dc.lft.to/lastmile_qr_scan", "android": "https://dc.lft.to/lastmile_qr_scan"}}, {"lon": -77.03823683333333, "fusion_lat": 0.0, "type": "electric_scooter", "lat": 38.934006, "is_disabled": 0, "name": "2c246d0972b1ad01194dd902c0854720", "is_reserved": 0, "bike_id": "2c246d0972b1ad01194dd902c0854720", "fusion_lon": 0.0, "rental_uris": {"ios": "https://dc.lft.to/lastmile_qr_scan", "android": "https://dc.lft.to/lastmile_qr_scan"}}, {"lon": -77.02784583333333, "fusion_lat": 0.0, "type": "electric_scooter", "lat": 38.961755833333335, "is_disabled": 0, "name": "ed7bd51fea4cbec660671c22fcfcac98", "is_reserved": 0, "bike_id": "ed7bd51fea4cbec660671c22fcfcac98", "fusion_lon": 0.0, "rental_uris": {"ios": "https://dc.lft.to/lastmile_qr_scan", "android": "https://dc.lft.to/lastmile_qr_scan"}}, {"lon": -76.99637833333334, "fusion_lat": 0.0, "type": "electric_scooter", "lat": 38.881320333333335, "is_disabled": 0, "name": "93c797f4569e9779546335086b2194ac", "is_reserved": 0, "bike_id": "93c797f4569e9779546335086b2194ac", "fusion_lon": 0.0, "rental_uris": {"ios": "https://dc.lft.to/lastmile_qr_scan", "android": "https://dc.lft.to/lastmile_qr_scan"}}, {"lon": -77.02288833333333, "fusion_lat": 0.0, "type": "electric_scooter", "lat": 38.90866966666667, "is_disabled": 0, "name": "4040c71d03fa393c0052167fb3f22e79", "is_reserved": 0, "bike_id": "4040c71d03fa393c0052167fb3f22e79", "fusion_lon": 0.0, "rental_uris": {"ios": "https://dc.lft.to/lastmile_qr_scan", "android": "https://dc.lft.to/lastmile_qr_scan"}}, {"lon": -77.004935, "fusion_lat": 0.0, "type": "electric_scooter", "lat": 38.90549266666667, "is_disabled": 0, "name": "84af4504d956b9caa36be30771a4be5a", "is_reserved": 0, "bike_id": "84af4504d956b9caa36be30771a4be5a", "fusion_lon": 0.0, "rental_uris": {"ios": "https://dc.lft.to/lastmile_qr_scan", "android": "https://dc.lft.to/lastmile_qr_scan"}}, {"lon": -76.97837516666667, "fusion_lat": 0.0, "type": "electric_scooter", "lat": 38.899145833333336, "is_disabled": 0, "name": "c9a43271455267a8a5748cb5f7ac9be9", "is_reserved": 0, "bike_id": "c9a43271455267a8a5748cb5f7ac9be9", "fusion_lon": 0.0, "rental_uris": {"ios": "https://dc.lft.to/lastmile_qr_scan", "android": "https://dc.lft.to/lastmile_qr_scan"}}, {"lon": -76.98549216666666, "fusion_lat": 0.0, "type": "electric_scooter", "lat": 38.897609833333334, "is_disabled": 0, "name": "995b8c96ed67bfc3f659afbdf4c3f98c", "is_reserved": 0, "bike_id": "995b8c96ed67bfc3f659afbdf4c3f98c", "fusion_lon": 0.0, "rental_uris": {"ios": "https://dc.lft.to/lastmile_qr_scan", "android": "https://dc.lft.to/lastmile_qr_scan"}}, {"lon": -77.06188216666666, "fusion_lat": 0.0, "type": "electric_scooter", "lat": 38.93012683333333, "is_disabled": 0, "name": "22af334b3679a03ae9f3f45f6ef1a266", "is_reserved": 0, "bike_id": "22af334b3679a03ae9f3f45f6ef1a266", "fusion_lon": 0.0, "rental_uris": {"ios": "https://dc.lft.to/lastmile_qr_scan", "android": "https://dc.lft.to/lastmile_qr_scan"}}, {"lon": -77.0720425, "fusion_lat": 0.0, "type": "electric_scooter", "lat": 38.9225185, "is_disabled": 0, "name": "0b27ec20d03ba62d518e66762fad6587", "is_reserved": 0, "bike_id": "0b27ec20d03ba62d518e66762fad6587", "fusion_lon": 0.0, "rental_uris": {"ios": "https://dc.lft.to/lastmile_qr_scan", "android": "https://dc.lft.to/lastmile_qr_scan"}}, {"lon": -77.03642966666666, "fusion_lat": 0.0, "type": "electric_scooter", "lat": 38.92341566666666, "is_disabled": 0, "name": "a67bc4c4454cd068f46fee0e34e4bacd", "is_reserved": 0, "bike_id": "a67bc4c4454cd068f46fee0e34e4bacd", "fusion_lon": 0.0, "rental_uris": {"ios": "https://dc.lft.to/lastmile_qr_scan", "android": "https://dc.lft.to/lastmile_qr_scan"}}, {"lon": -76.934833, "fusion_lat": 0.0, "type": "electric_scooter", "lat": 38.90738566666667, "is_disabled": 0, "name": "1473e9bcdab63e9ef1da9ba64b749ab8", "is_reserved": 0, "bike_id": "1473e9bcdab63e9ef1da9ba64b749ab8", "fusion_lon": 0.0, "rental_uris": {"ios": "https://dc.lft.to/lastmile_qr_scan", "android": "https://dc.lft.to/lastmile_qr_scan"}}, {"lon": -77.03480466666667, "fusion_lat": 0.0, "type": "electric_scooter", "lat": 38.92897116666666, "is_disabled": 0, "name": "27d12bb98f5d05f4a3b61df0c676b709", "is_reserved": 0, "bike_id": "27d12bb98f5d05f4a3b61df0c676b709", "fusion_lon": 0.0, "rental_uris": {"ios": "https://dc.lft.to/lastmile_qr_scan", "android": "https://dc.lft.to/lastmile_qr_scan"}}, {"lon": -77.03863116666666, "fusion_lat": 0.0, "type": "electric_scooter", "lat": 38.9119455, "is_disabled": 0, "name": "27a165031f87daf854ecfd1c19c4e5f2", "is_reserved": 0, "bike_id": "27a165031f87daf854ecfd1c19c4e5f2", "fusion_lon": 0.0, "rental_uris": {"ios": "https://dc.lft.to/lastmile_qr_scan", "android": "https://dc.lft.to/lastmile_qr_scan"}}, {"lon": -77.04653683333333, "fusion_lat": 0.0, "type": "electric_scooter", "lat": 38.90320066666666, "is_disabled": 0, "name": "7807548e94b251796ebd0e28b8c20e0b", "is_reserved": 0, "bike_id": "7807548e94b251796ebd0e28b8c20e0b", "fusion_lon": 0.0, "rental_uris": {"ios": "https://dc.lft.to/lastmile_qr_scan", "android": "https://dc.lft.to/lastmile_qr_scan"}}, {"lon": -77.04693066666667, "fusion_lat": 0.0, "type": "electric_scooter", "lat": 38.90184516666667, "is_disabled": 0, "name": "e03c0a4bf3e6d096e01fd5c0b74f78ec", "is_reserved": 0, "bike_id": "e03c0a4bf3e6d096e01fd5c0b74f78ec", "fusion_lon": 0.0, "rental_uris": {"ios": "https://dc.lft.to/lastmile_qr_scan", "android": "https://dc.lft.to/lastmile_qr_scan"}}, {"lon": -77.02183133333334, "fusion_lat": 0.0, "type": "electric_scooter", "lat": 38.90570533333333, "is_disabled": 0, "name": "70aefa273ffb808a8f2ab47e365f280a", "is_reserved": 0, "bike_id": "70aefa273ffb808a8f2ab47e365f280a", "fusion_lon": 0.0, "rental_uris": {"ios": "https://dc.lft.to/lastmile_qr_scan", "android": "https://dc.lft.to/lastmile_qr_scan"}}, {"lon": -77.00334816666667, "fusion_lat": 0.0, "type": "electric_scooter", "lat": 38.89354616666667, "is_disabled": 0, "name": "38712375527b1442e926370cf9c4fb0b", "is_reserved": 0, "bike_id": "38712375527b1442e926370cf9c4fb0b", "fusion_lon": 0.0, "rental_uris": {"ios": "https://dc.lft.to/lastmile_qr_scan", "android": "https://dc.lft.to/lastmile_qr_scan"}}, {"lon": -77.08856383333334, "fusion_lat": 0.0, "type": "electric_bike", "lat": 38.935299, "is_disabled": 0, "name": "fedb837f20ebd993e91326934f756f7d", "is_reserved": 0, "bike_id": "fedb837f20ebd993e91326934f756f7d", "fusion_lon": 0.0, "rental_uris": {"ios": "https://dc.lft.to/lastmile_qr_scan", "android": "https://dc.lft.to/lastmile_qr_scan"}}, {"lon": -77.0322205, "fusion_lat": 0.0, "type": "electric_scooter", "lat": 38.908674, "is_disabled": 0, "name": "2448dededdb03fb32111dfb0a300bf48", "is_reserved": 0, "bike_id": "2448dededdb03fb32111dfb0a300bf48", "fusion_lon": 0.0, "rental_uris": {"ios": "https://dc.lft.to/lastmile_qr_scan", "android": "https://dc.lft.to/lastmile_qr_scan"}}, {"lon": -77.03203216666667, "fusion_lat": 0.0, "type": "electric_scooter", "lat": 38.91472433333333, "is_disabled": 0, "name": "50411ae93f7c0c56444b2a3441c303b5", "is_reserved": 0, "bike_id": "50411ae93f7c0c56444b2a3441c303b5", "fusion_lon": 0.0, "rental_uris": {"ios": "https://dc.lft.to/lastmile_qr_scan", "android": "https://dc.lft.to/lastmile_qr_scan"}}, {"lon": -77.04311916666667, "fusion_lat": 0.0, "type": "electric_scooter", "lat": 38.90883066666667, "is_disabled": 0, "name": "56c644d3d7d88997382cb1be52482206", "is_reserved": 0, "bike_id": "56c644d3d7d88997382cb1be52482206", "fusion_lon": 0.0, "rental_uris": {"ios": "https://dc.lft.to/lastmile_qr_scan", "android": "https://dc.lft.to/lastmile_qr_scan"}}, {"lon": -77.0492885, "fusion_lat": 0.0, "type": "electric_scooter", "lat": 38.89735116666667, "is_disabled": 0, "name": "62141ee31589286cc5072f2d40546051", "is_reserved": 0, "bike_id": "62141ee31589286cc5072f2d40546051", "fusion_lon": 0.0, "rental_uris": {"ios": "https://dc.lft.to/lastmile_qr_scan", "android": "https://dc.lft.to/lastmile_qr_scan"}}, {"lon": -77.04489983333333, "fusion_lat": 0.0, "type": "electric_scooter", "lat": 38.90066766666666, "is_disabled": 0, "name": "ae474777512f98ca0e6dcfb953bda87f", "is_reserved": 0, "bike_id": "ae474777512f98ca0e6dcfb953bda87f", "fusion_lon": 0.0, "rental_uris": {"ios": "https://dc.lft.to/lastmile_qr_scan", "android": "https://dc.lft.to/lastmile_qr_scan"}}, {"lon": -76.98156583333333, "fusion_lat": 0.0, "type": "electric_scooter", "lat": 38.9032325, "is_disabled": 0, "name": "b25cb22be0e186fd69857e0127e10fed", "is_reserved": 0, "bike_id": "b25cb22be0e186fd69857e0127e10fed", "fusion_lon": 0.0, "rental_uris": {"ios": "https://dc.lft.to/lastmile_qr_scan", "android": "https://dc.lft.to/lastmile_qr_scan"}}, {"lon": -77.00340983333334, "fusion_lat": 0.0, "type": "electric_scooter", "lat": 38.8935415, "is_disabled": 0, "name": "367dc190aa7d911e0839601ccdefed31", "is_reserved": 0, "bike_id": "367dc190aa7d911e0839601ccdefed31", "fusion_lon": 0.0, "rental_uris": {"ios": "https://dc.lft.to/lastmile_qr_scan", "android": "https://dc.lft.to/lastmile_qr_scan"}}, {"lon": -77.0508205, "fusion_lat": 0.0, "type": "electric_scooter", "lat": 38.923468, "is_disabled": 0, "name": "9181231c69e3574fcacc09ca60a02cb1", "is_reserved": 0, "bike_id": "9181231c69e3574fcacc09ca60a02cb1", "fusion_lon": 0.0, "rental_uris": {"ios": "https://dc.lft.to/lastmile_qr_scan", "android": "https://dc.lft.to/lastmile_qr_scan"}}, {"lon": -77.04634516666667, "fusion_lat": 0.0, "type": "electric_scooter", "lat": 38.91589233333333, "is_disabled": 0, "name": "4fb52b9fb4ee7296c6552bdc522aa405", "is_reserved": 0, "bike_id": "4fb52b9fb4ee7296c6552bdc522aa405", "fusion_lon": 0.0, "rental_uris": {"ios": "https://dc.lft.to/lastmile_qr_scan", "android": "https://dc.lft.to/lastmile_qr_scan"}}, {"lon": -77.00578283333333, "fusion_lat": 0.0, "type": "electric_scooter", "lat": 38.905508833333336, "is_disabled": 0, "name": "c221d7925bfbac4e90511e521afff180", "is_reserved": 0, "bike_id": "c221d7925bfbac4e90511e521afff180", "fusion_lon": 0.0, "rental_uris": {"ios": "https://dc.lft.to/lastmile_qr_scan", "android": "https://dc.lft.to/lastmile_qr_scan"}}, {"lon": -77.02226466666667, "fusion_lat": 0.0, "type": "electric_scooter", "lat": 38.91268616666667, "is_disabled": 0, "name": "e0681fe5e7c3f658095f77751e347b86", "is_reserved": 0, "bike_id": "e0681fe5e7c3f658095f77751e347b86", "fusion_lon": 0.0, "rental_uris": {"ios": "https://dc.lft.to/lastmile_qr_scan", "android": "https://dc.lft.to/lastmile_qr_scan"}}, {"lon": -77.0021175, "fusion_lat": 0.0, "type": "electric_scooter", "lat": 38.8910365, "is_disabled": 0, "name": "678c489e3f5ccb448b18a0d6262d2ab0", "is_reserved": 0, "bike_id": "678c489e3f5ccb448b18a0d6262d2ab0", "fusion_lon": 0.0, "rental_uris": {"ios": "https://dc.lft.to/lastmile_qr_scan", "android": "https://dc.lft.to/lastmile_qr_scan"}}, {"lon": -77.03618283333333, "fusion_lat": 0.0, "type": "electric_scooter", "lat": 38.924235, "is_disabled": 0, "name": "d390cc1881dfeddc7b22c84f030ff49c", "is_reserved": 0, "bike_id": "d390cc1881dfeddc7b22c84f030ff49c", "fusion_lon": 0.0, "rental_uris": {"ios": "https://dc.lft.to/lastmile_qr_scan", "android": "https://dc.lft.to/lastmile_qr_scan"}}, {"lon": -77.10171116666666, "fusion_lat": 0.0, "type": "electric_bike", "lat": 38.91897733333333, "is_disabled": 0, "name": "03ed76dc2f580a48f78fe22ea0d5521f", "is_reserved": 0, "bike_id": "03ed76dc2f580a48f78fe22ea0d5521f", "fusion_lon": 0.0, "rental_uris": {"ios": "https://dc.lft.to/lastmile_qr_scan", "android": "https://dc.lft.to/lastmile_qr_scan"}}, {"lon": -76.990278, "fusion_lat": 0.0, "type": "electric_bike", "lat": 38.83579833333334, "is_disabled": 0, "name": "8d8ded677ddce3c4bf020ae31baccaa4", "is_reserved": 0, "bike_id": "8d8ded677ddce3c4bf020ae31baccaa4", "fusion_lon": 0.0, "rental_uris": {"ios": "https://dc.lft.to/lastmile_qr_scan", "android": "https://dc.lft.to/lastmile_qr_scan"}}, {"lon": -77.030447, "fusion_lat": 0.0, "type": "electric_scooter", "lat": 38.92858433333333, "is_disabled": 0, "name": "32408c69555a7aafadbd606b1cee9d88", "is_reserved": 0, "bike_id": "32408c69555a7aafadbd606b1cee9d88", "fusion_lon": 0.0, "rental_uris": {"ios": "https://dc.lft.to/lastmile_qr_scan", "android": "https://dc.lft.to/lastmile_qr_scan"}}, {"lon": -77.03344616666666, "fusion_lat": 0.0, "type": "electric_scooter", "lat": 38.89529533333334, "is_disabled": 0, "name": "3ecc1cdff2432ea79de90d49252f39f9", "is_reserved": 0, "bike_id": "3ecc1cdff2432ea79de90d49252f39f9", "fusion_lon": 0.0, "rental_uris": {"ios": "https://dc.lft.to/lastmile_qr_scan", "android": "https://dc.lft.to/lastmile_qr_scan"}}, {"lon": -77.02090766666667, "fusion_lat": 0.0, "type": "electric_scooter", "lat": 38.941920333333336, "is_disabled": 0, "name": "63b3395d064904148978c62aa1d852d3", "is_reserved": 0, "bike_id": "63b3395d064904148978c62aa1d852d3", "fusion_lon": 0.0, "rental_uris": {"ios": "https://dc.lft.to/lastmile_qr_scan", "android": "https://dc.lft.to/lastmile_qr_scan"}}, {"lon": -76.97632716666666, "fusion_lat": 0.0, "type": "electric_scooter", "lat": 38.904850833333334, "is_disabled": 0, "name": "2625741562f5ecb9d9da423f104799cf", "is_reserved": 0, "bike_id": "2625741562f5ecb9d9da423f104799cf", "fusion_lon": 0.0, "rental_uris": {"ios": "https://dc.lft.to/lastmile_qr_scan", "android": "https://dc.lft.to/lastmile_qr_scan"}}, {"lon": -77.00318266666666, "fusion_lat": 0.0, "type": "electric_scooter", "lat": 38.8898675, "is_disabled": 0, "name": "d288bd2c47a204ee4359ea5d013455bb", "is_reserved": 0, "bike_id": "d288bd2c47a204ee4359ea5d013455bb", "fusion_lon": 0.0, "rental_uris": {"ios": "https://dc.lft.to/lastmile_qr_scan", "android": "https://dc.lft.to/lastmile_qr_scan"}}, {"lon": -76.9957045, "fusion_lat": 0.0, "type": "electric_scooter", "lat": 38.9554195, "is_disabled": 0, "name": "51f586aed41e70f019fcb635707e7fa6", "is_reserved": 0, "bike_id": "51f586aed41e70f019fcb635707e7fa6", "fusion_lon": 0.0, "rental_uris": {"ios": "https://dc.lft.to/lastmile_qr_scan", "android": "https://dc.lft.to/lastmile_qr_scan"}}, {"lon": -77.03809916666667, "fusion_lat": 0.0, "type": "electric_scooter", "lat": 38.931133, "is_disabled": 0, "name": "d6dee9fff2eb9a68e1d0fb59dabe5be6", "is_reserved": 0, "bike_id": "d6dee9fff2eb9a68e1d0fb59dabe5be6", "fusion_lon": 0.0, "rental_uris": {"ios": "https://dc.lft.to/lastmile_qr_scan", "android": "https://dc.lft.to/lastmile_qr_scan"}}, {"lon": -77.03044216666666, "fusion_lat": 0.0, "type": "electric_scooter", "lat": 38.901199166666665, "is_disabled": 0, "name": "d2f3e58d8d836af75a7ed0d2d63f354e", "is_reserved": 0, "bike_id": "d2f3e58d8d836af75a7ed0d2d63f354e", "fusion_lon": 0.0, "rental_uris": {"ios": "https://dc.lft.to/lastmile_qr_scan", "android": "https://dc.lft.to/lastmile_qr_scan"}}, {"lon": -77.02747533333333, "fusion_lat": 0.0, "type": "electric_scooter", "lat": 38.90047533333333, "is_disabled": 0, "name": "7ece297bee34d520a0a15b537ee169c8", "is_reserved": 0, "bike_id": "7ece297bee34d520a0a15b537ee169c8", "fusion_lon": 0.0, "rental_uris": {"ios": "https://dc.lft.to/lastmile_qr_scan", "android": "https://dc.lft.to/lastmile_qr_scan"}}, {"lon": -77.03935083333333, "fusion_lat": 0.0, "type": "electric_scooter", "lat": 38.91255983333333, "is_disabled": 0, "name": "79ea3a9e7df2fc3302d5bfc1655ff8e4", "is_reserved": 0, "bike_id": "79ea3a9e7df2fc3302d5bfc1655ff8e4", "fusion_lon": 0.0, "rental_uris": {"ios": "https://dc.lft.to/lastmile_qr_scan", "android": "https://dc.lft.to/lastmile_qr_scan"}}, {"lon": -77.0268955, "fusion_lat": 0.0, "type": "electric_scooter", "lat": 38.906815, "is_disabled": 0, "name": "818b6dd409c23111fc1af9a9ac0c53c0", "is_reserved": 0, "bike_id": "818b6dd409c23111fc1af9a9ac0c53c0", "fusion_lon": 0.0, "rental_uris": {"ios": "https://dc.lft.to/lastmile_qr_scan", "android": "https://dc.lft.to/lastmile_qr_scan"}}, {"lon": -77.01927716666667, "fusion_lat": 0.0, "type": "electric_scooter", "lat": 38.917626166666665, "is_disabled": 0, "name": "fc7a39169d78dbd8d15de72db44616dc", "is_reserved": 0, "bike_id": "fc7a39169d78dbd8d15de72db44616dc", "fusion_lon": 0.0, "rental_uris": {"ios": "https://dc.lft.to/lastmile_qr_scan", "android": "https://dc.lft.to/lastmile_qr_scan"}}, {"lon": -76.931849, "fusion_lat": 0.0, "type": "electric_bike", "lat": 38.8985335, "is_disabled": 0, "name": "f0ef78765567ba9b47ff7259496b23c1", "is_reserved": 0, "bike_id": "f0ef78765567ba9b47ff7259496b23c1", "fusion_lon": 0.0, "rental_uris": {"ios": "https://dc.lft.to/lastmile_qr_scan", "android": "https://dc.lft.to/lastmile_qr_scan"}}, {"lon": -77.00355033333334, "fusion_lat": 0.0, "type": "electric_scooter", "lat": 38.9082185, "is_disabled": 0, "name": "0a556018ddca3d6ccc72cb3f3bdf22a2", "is_reserved": 0, "bike_id": "0a556018ddca3d6ccc72cb3f3bdf22a2", "fusion_lon": 0.0, "rental_uris": {"ios": "https://dc.lft.to/lastmile_qr_scan", "android": "https://dc.lft.to/lastmile_qr_scan"}}, {"lon": -77.02500583333334, "fusion_lat": 0.0, "type": "electric_scooter", "lat": 38.90720133333333, "is_disabled": 0, "name": "f9d1794e7490a21b7c980ca2fc0b3e04", "is_reserved": 0, "bike_id": "f9d1794e7490a21b7c980ca2fc0b3e04", "fusion_lon": 0.0, "rental_uris": {"ios": "https://dc.lft.to/lastmile_qr_scan", "android": "https://dc.lft.to/lastmile_qr_scan"}}, {"lon": -77.02389016666666, "fusion_lat": 0.0, "type": "electric_scooter", "lat": 38.90636116666667, "is_disabled": 0, "name": "4af5c387943d2bc7c5a63037c2c3e97b", "is_reserved": 0, "bike_id": "4af5c387943d2bc7c5a63037c2c3e97b", "fusion_lon": 0.0, "rental_uris": {"ios": "https://dc.lft.to/lastmile_qr_scan", "android": "https://dc.lft.to/lastmile_qr_scan"}}, {"lon": -77.01508366666667, "fusion_lat": 0.0, "type": "electric_scooter", "lat": 38.92675216666667, "is_disabled": 0, "name": "f8e1294ae85f6f17a396b6bdd85d6ba6", "is_reserved": 0, "bike_id": "f8e1294ae85f6f17a396b6bdd85d6ba6", "fusion_lon": 0.0, "rental_uris": {"ios": "https://dc.lft.to/lastmile_qr_scan", "android": "https://dc.lft.to/lastmile_qr_scan"}}, {"lon": -77.0270605, "fusion_lat": 0.0, "type": "electric_scooter", "lat": 38.90972933333333, "is_disabled": 0, "name": "107e7b12d822b7fa73fc66fa6f8b72b3", "is_reserved": 0, "bike_id": "107e7b12d822b7fa73fc66fa6f8b72b3", "fusion_lon": 0.0, "rental_uris": {"ios": "https://dc.lft.to/lastmile_qr_scan", "android": "https://dc.lft.to/lastmile_qr_scan"}}, {"lon": -77.029728, "fusion_lat": 0.0, "type": "electric_scooter", "lat": 38.915419666666665, "is_disabled": 0, "name": "8f080b561e155e877e9cff580af77acb", "is_reserved": 0, "bike_id": "8f080b561e155e877e9cff580af77acb", "fusion_lon": 0.0, "rental_uris": {"ios": "https://dc.lft.to/lastmile_qr_scan", "android": "https://dc.lft.to/lastmile_qr_scan"}}, {"lon": -77.02471883333334, "fusion_lat": 0.0, "type": "electric_scooter", "lat": 38.901490833333334, "is_disabled": 0, "name": "883cd8d26e522c0d84d8fac5df963026", "is_reserved": 0, "bike_id": "883cd8d26e522c0d84d8fac5df963026", "fusion_lon": 0.0, "rental_uris": {"ios": "https://dc.lft.to/lastmile_qr_scan", "android": "https://dc.lft.to/lastmile_qr_scan"}}, {"lon": -77.0062095, "fusion_lat": 0.0, "type": "electric_scooter", "lat": 38.87175233333333, "is_disabled": 0, "name": "4b8323aae5cd8e0e72584e0eab9add51", "is_reserved": 0, "bike_id": "4b8323aae5cd8e0e72584e0eab9add51", "fusion_lon": 0.0, "rental_uris": {"ios": "https://dc.lft.to/lastmile_qr_scan", "android": "https://dc.lft.to/lastmile_qr_scan"}}, {"lon": -77.03371783333333, "fusion_lat": 0.0, "type": "electric_scooter", "lat": 38.892258, "is_disabled": 0, "name": "cd8693aa4b264e8acdffa5594c0f3e94", "is_reserved": 0, "bike_id": "cd8693aa4b264e8acdffa5594c0f3e94", "fusion_lon": 0.0, "rental_uris": {"ios": "https://dc.lft.to/lastmile_qr_scan", "android": "https://dc.lft.to/lastmile_qr_scan"}}, {"lon": -77.03662333333334, "fusion_lat": 0.0, "type": "electric_scooter", "lat": 38.91553416666667, "is_disabled": 0, "name": "54dddbd49ef02a815d796a3b0f19b191", "is_reserved": 0, "bike_id": "54dddbd49ef02a815d796a3b0f19b191", "fusion_lon": 0.0, "rental_uris": {"ios": "https://dc.lft.to/lastmile_qr_scan", "android": "https://dc.lft.to/lastmile_qr_scan"}}, {"lon": -77.000015, "fusion_lat": 0.0, "type": "electric_bike", "lat": 38.92390816666666, "is_disabled": 0, "name": "e57fc91e0147b806d144f51016560481", "is_reserved": 0, "bike_id": "e57fc91e0147b806d144f51016560481", "fusion_lon": 0.0, "rental_uris": {"ios": "https://dc.lft.to/lastmile_qr_scan", "android": "https://dc.lft.to/lastmile_qr_scan"}}, {"lon": -76.92977216666667, "fusion_lat": 0.0, "type": "electric_scooter", "lat": 38.896149666666666, "is_disabled": 0, "name": "f595d88726cb53811baf5a6161b6fce9", "is_reserved": 0, "bike_id": "f595d88726cb53811baf5a6161b6fce9", "fusion_lon": 0.0, "rental_uris": {"ios": "https://dc.lft.to/lastmile_qr_scan", "android": "https://dc.lft.to/lastmile_qr_scan"}}, {"lon": -77.01922416666666, "fusion_lat": 0.0, "type": "electric_scooter", "lat": 38.88378683333333, "is_disabled": 0, "name": "90c89f1d60ab19f6e17654add5eb41b1", "is_reserved": 0, "bike_id": "90c89f1d60ab19f6e17654add5eb41b1", "fusion_lon": 0.0, "rental_uris": {"ios": "https://dc.lft.to/lastmile_qr_scan", "android": "https://dc.lft.to/lastmile_qr_scan"}}, {"lon": -76.98458166666667, "fusion_lat": 0.0, "type": "electric_scooter", "lat": 38.8935945, "is_disabled": 0, "name": "8a9c0c57b0d646a60e03c6523bdf150f", "is_reserved": 0, "bike_id": "8a9c0c57b0d646a60e03c6523bdf150f", "fusion_lon": 0.0, "rental_uris": {"ios": "https://dc.lft.to/lastmile_qr_scan", "android": "https://dc.lft.to/lastmile_qr_scan"}}, {"lon": -77.02951583333333, "fusion_lat": 0.0, "type": "electric_scooter", "lat": 38.95625183333333, "is_disabled": 0, "name": "7154f1254aea5f2f1a0b50b2ead20d3d", "is_reserved": 0, "bike_id": "7154f1254aea5f2f1a0b50b2ead20d3d", "fusion_lon": 0.0, "rental_uris": {"ios": "https://dc.lft.to/lastmile_qr_scan", "android": "https://dc.lft.to/lastmile_qr_scan"}}, {"lon": -77.03444816666666, "fusion_lat": 0.0, "type": "electric_scooter", "lat": 38.917975, "is_disabled": 0, "name": "bdda812c71504d390f639bc87be6a5ec", "is_reserved": 0, "bike_id": "bdda812c71504d390f639bc87be6a5ec", "fusion_lon": 0.0, "rental_uris": {"ios": "https://dc.lft.to/lastmile_qr_scan", "android": "https://dc.lft.to/lastmile_qr_scan"}}, {"lon": -77.03187766666667, "fusion_lat": 0.0, "type": "electric_scooter", "lat": 38.916042166666664, "is_disabled": 0, "name": "62c6a3c7f60f691c02d46e8605d30323", "is_reserved": 0, "bike_id": "62c6a3c7f60f691c02d46e8605d30323", "fusion_lon": 0.0, "rental_uris": {"ios": "https://dc.lft.to/lastmile_qr_scan", "android": "https://dc.lft.to/lastmile_qr_scan"}}, {"lon": -76.95916283333334, "fusion_lat": 0.0, "type": "electric_bike", "lat": 38.94921083333333, "is_disabled": 0, "name": "d48cf569f5dcdd63705520e605dc95f9", "is_reserved": 0, "bike_id": "d48cf569f5dcdd63705520e605dc95f9", "fusion_lon": 0.0, "rental_uris": {"ios": "https://dc.lft.to/lastmile_qr_scan", "android": "https://dc.lft.to/lastmile_qr_scan"}}, {"lon": -77.1272805, "fusion_lat": 0.0, "type": "electric_bike", "lat": 38.895594333333335, "is_disabled": 0, "name": "5d95b9c37bc4ae1ccaef78c58629d103", "is_reserved": 0, "bike_id": "5d95b9c37bc4ae1ccaef78c58629d103", "fusion_lon": 0.0, "rental_uris": {"ios": "https://dc.lft.to/lastmile_qr_scan", "android": "https://dc.lft.to/lastmile_qr_scan"}}, {"lon": -77.03722466666666, "fusion_lat": 0.0, "type": "electric_scooter", "lat": 38.880768, "is_disabled": 0, "name": "dd3aecbacf8c9006f4a3ce2b6cbe05d4", "is_reserved": 0, "bike_id": "dd3aecbacf8c9006f4a3ce2b6cbe05d4", "fusion_lon": 0.0, "rental_uris": {"ios": "https://dc.lft.to/lastmile_qr_scan", "android": "https://dc.lft.to/lastmile_qr_scan"}}, {"lon": -77.04315183333334, "fusion_lat": 0.0, "type": "electric_scooter", "lat": 38.9004515, "is_disabled": 0, "name": "991b68b8bc4975de2d75430a1ba19a01", "is_reserved": 0, "bike_id": "991b68b8bc4975de2d75430a1ba19a01", "fusion_lon": 0.0, "rental_uris": {"ios": "https://dc.lft.to/lastmile_qr_scan", "android": "https://dc.lft.to/lastmile_qr_scan"}}, {"lon": -77.03548266666667, "fusion_lat": 0.0, "type": "electric_scooter", "lat": 38.904899666666665, "is_disabled": 0, "name": "85f42b87d463520fdc8471e71d3a81ce", "is_reserved": 0, "bike_id": "85f42b87d463520fdc8471e71d3a81ce", "fusion_lon": 0.0, "rental_uris": {"ios": "https://dc.lft.to/lastmile_qr_scan", "android": "https://dc.lft.to/lastmile_qr_scan"}}, {"lon": -77.04674583333333, "fusion_lat": 0.0, "type": "electric_scooter", "lat": 38.901436333333336, "is_disabled": 0, "name": "6dc2b0e2fbc9da288fc748f5c00bfb83", "is_reserved": 0, "bike_id": "6dc2b0e2fbc9da288fc748f5c00bfb83", "fusion_lon": 0.0, "rental_uris": {"ios": "https://dc.lft.to/lastmile_qr_scan", "android": "https://dc.lft.to/lastmile_qr_scan"}}, {"lon": -77.025028, "fusion_lat": 0.0, "type": "electric_scooter", "lat": 38.89818483333333, "is_disabled": 0, "name": "564c5af50c1c53cd8969c7f4e802f427", "is_reserved": 0, "bike_id": "564c5af50c1c53cd8969c7f4e802f427", "fusion_lon": 0.0, "rental_uris": {"ios": "https://dc.lft.to/lastmile_qr_scan", "android": "https://dc.lft.to/lastmile_qr_scan"}}, {"lon": -77.04036516666666, "fusion_lat": 0.0, "type": "electric_scooter", "lat": 38.904517166666665, "is_disabled": 0, "name": "27b2f044960bda74af7a5229288b709b", "is_reserved": 0, "bike_id": "27b2f044960bda74af7a5229288b709b", "fusion_lon": 0.0, "rental_uris": {"ios": "https://dc.lft.to/lastmile_qr_scan", "android": "https://dc.lft.to/lastmile_qr_scan"}}, {"lon": -76.9958485, "fusion_lat": 0.0, "type": "electric_bike", "lat": 38.973398333333336, "is_disabled": 0, "name": "00a54c81631bbfb3271ae167f8102966", "is_reserved": 0, "bike_id": "00a54c81631bbfb3271ae167f8102966", "fusion_lon": 0.0, "rental_uris": {"ios": "https://dc.lft.to/lastmile_qr_scan", "android": "https://dc.lft.to/lastmile_qr_scan"}}, {"lon": -76.9973375, "fusion_lat": 0.0, "type": "electric_bike", "lat": 39.042327, "is_disabled": 0, "name": "d7c5c9013353f5b33668e4ff82833a02", "is_reserved": 0, "bike_id": "d7c5c9013353f5b33668e4ff82833a02", "fusion_lon": 0.0, "rental_uris": {"ios": "https://dc.lft.to/lastmile_qr_scan", "android": "https://dc.lft.to/lastmile_qr_scan"}}, {"lon": -77.04075316666666, "fusion_lat": 0.0, "type": "electric_scooter", "lat": 38.902778166666664, "is_disabled": 0, "name": "749d694c83c88773a07f44f6fed71e6a", "is_reserved": 0, "bike_id": "749d694c83c88773a07f44f6fed71e6a", "fusion_lon": 0.0, "rental_uris": {"ios": "https://dc.lft.to/lastmile_qr_scan", "android": "https://dc.lft.to/lastmile_qr_scan"}}, {"lon": -77.0461185, "fusion_lat": 0.0, "type": "electric_scooter", "lat": 38.923226, "is_disabled": 0, "name": "6d621ced5055ee95391215d2089b576f", "is_reserved": 0, "bike_id": "6d621ced5055ee95391215d2089b576f", "fusion_lon": 0.0, "rental_uris": {"ios": "https://dc.lft.to/lastmile_qr_scan", "android": "https://dc.lft.to/lastmile_qr_scan"}}, {"lon": -77.01629066666666, "fusion_lat": 0.0, "type": "electric_scooter", "lat": 38.89622583333333, "is_disabled": 0, "name": "b36273c5d31bcf06abc8418c04dc0be6", "is_reserved": 0, "bike_id": "b36273c5d31bcf06abc8418c04dc0be6", "fusion_lon": 0.0, "rental_uris": {"ios": "https://dc.lft.to/lastmile_qr_scan", "android": "https://dc.lft.to/lastmile_qr_scan"}}, {"lon": -77.03660966666666, "fusion_lat": 0.0, "type": "electric_scooter", "lat": 38.92284083333333, "is_disabled": 0, "name": "704eaef03deb488a8ae0eb22cfaba54d", "is_reserved": 0, "bike_id": "704eaef03deb488a8ae0eb22cfaba54d", "fusion_lon": 0.0, "rental_uris": {"ios": "https://dc.lft.to/lastmile_qr_scan", "android": "https://dc.lft.to/lastmile_qr_scan"}}, {"lon": -76.98431583333333, "fusion_lat": 0.0, "type": "electric_scooter", "lat": 38.92055166666667, "is_disabled": 0, "name": "0b42f02538bcc093da6ee5a15c9089e6", "is_reserved": 0, "bike_id": "0b42f02538bcc093da6ee5a15c9089e6", "fusion_lon": 0.0, "rental_uris": {"ios": "https://dc.lft.to/lastmile_qr_scan", "android": "https://dc.lft.to/lastmile_qr_scan"}}, {"lon": -77.03417783333333, "fusion_lat": 0.0, "type": "electric_scooter", "lat": 38.920399, "is_disabled": 0, "name": "9a6c93c2e7eab985ef3c48a1de8fe96b", "is_reserved": 0, "bike_id": "9a6c93c2e7eab985ef3c48a1de8fe96b", "fusion_lon": 0.0, "rental_uris": {"ios": "https://dc.lft.to/lastmile_qr_scan", "android": "https://dc.lft.to/lastmile_qr_scan"}}, {"lon": -77.0075335, "fusion_lat": 0.0, "type": "electric_scooter", "lat": 38.89846566666667, "is_disabled": 0, "name": "d5ed11218c5366e787016a03ce08662b", "is_reserved": 0, "bike_id": "d5ed11218c5366e787016a03ce08662b", "fusion_lon": 0.0, "rental_uris": {"ios": "https://dc.lft.to/lastmile_qr_scan", "android": "https://dc.lft.to/lastmile_qr_scan"}}, {"lon": -77.06397033333333, "fusion_lat": 0.0, "type": "electric_scooter", "lat": 38.9135945, "is_disabled": 0, "name": "1cad6f707fb1308bc4ac2cf4fe6d50ee", "is_reserved": 0, "bike_id": "1cad6f707fb1308bc4ac2cf4fe6d50ee", "fusion_lon": 0.0, "rental_uris": {"ios": "https://dc.lft.to/lastmile_qr_scan", "android": "https://dc.lft.to/lastmile_qr_scan"}}, {"lon": -77.01576116666666, "fusion_lat": 0.0, "type": "electric_scooter", "lat": 38.91690766666667, "is_disabled": 0, "name": "3646f26558e0ae851b0c9a7247498739", "is_reserved": 0, "bike_id": "3646f26558e0ae851b0c9a7247498739", "fusion_lon": 0.0, "rental_uris": {"ios": "https://dc.lft.to/lastmile_qr_scan", "android": "https://dc.lft.to/lastmile_qr_scan"}}, {"lon": -77.01921666666667, "fusion_lat": 0.0, "type": "electric_scooter", "lat": 38.92360466666667, "is_disabled": 0, "name": "0ff5ffff34c5f8757b9b7737f589433a", "is_reserved": 0, "bike_id": "0ff5ffff34c5f8757b9b7737f589433a", "fusion_lon": 0.0, "rental_uris": {"ios": "https://dc.lft.to/lastmile_qr_scan", "android": "https://dc.lft.to/lastmile_qr_scan"}}, {"lon": -77.04121666666667, "fusion_lat": 0.0, "type": "electric_scooter", "lat": 38.93367533333333, "is_disabled": 0, "name": "efa533ec2a8b6bd5afe96cd009445130", "is_reserved": 0, "bike_id": "efa533ec2a8b6bd5afe96cd009445130", "fusion_lon": 0.0, "rental_uris": {"ios": "https://dc.lft.to/lastmile_qr_scan", "android": "https://dc.lft.to/lastmile_qr_scan"}}, {"lon": -77.02603033333334, "fusion_lat": 0.0, "type": "electric_scooter", "lat": 38.90341816666667, "is_disabled": 0, "name": "4528d6ef2548823a71c553a0ec5e9b5a", "is_reserved": 0, "bike_id": "4528d6ef2548823a71c553a0ec5e9b5a", "fusion_lon": 0.0, "rental_uris": {"ios": "https://dc.lft.to/lastmile_qr_scan", "android": "https://dc.lft.to/lastmile_qr_scan"}}, {"lon": -76.98404366666666, "fusion_lat": 0.0, "type": "electric_scooter", "lat": 38.905234, "is_disabled": 0, "name": "f5870206c07bc2e2e502e437f34c0f14", "is_reserved": 0, "bike_id": "f5870206c07bc2e2e502e437f34c0f14", "fusion_lon": 0.0, "rental_uris": {"ios": "https://dc.lft.to/lastmile_qr_scan", "android": "https://dc.lft.to/lastmile_qr_scan"}}, {"lon": -77.03516816666667, "fusion_lat": 0.0, "type": "electric_scooter", "lat": 38.903781333333335, "is_disabled": 0, "name": "9dfe76bddd1f8b820ec8c30f327b2cd6", "is_reserved": 0, "bike_id": "9dfe76bddd1f8b820ec8c30f327b2cd6", "fusion_lon": 0.0, "rental_uris": {"ios": "https://dc.lft.to/lastmile_qr_scan", "android": "https://dc.lft.to/lastmile_qr_scan"}}, {"lon": -77.01095966666666, "fusion_lat": 0.0, "type": "electric_scooter", "lat": 38.910431, "is_disabled": 0, "name": "9f2b103b68299ce4f915b767476ef364", "is_reserved": 0, "bike_id": "9f2b103b68299ce4f915b767476ef364", "fusion_lon": 0.0, "rental_uris": {"ios": "https://dc.lft.to/lastmile_qr_scan", "android": "https://dc.lft.to/lastmile_qr_scan"}}, {"lon": -76.99795183333333, "fusion_lat": 0.0, "type": "electric_bike", "lat": 38.95086333333333, "is_disabled": 0, "name": "0218e31f0727248c6a4c3ed6ed2a6db8", "is_reserved": 0, "bike_id": "0218e31f0727248c6a4c3ed6ed2a6db8", "fusion_lon": 0.0, "rental_uris": {"ios": "https://dc.lft.to/lastmile_qr_scan", "android": "https://dc.lft.to/lastmile_qr_scan"}}, {"lon": -77.05806533333333, "fusion_lat": 0.0, "type": "electric_scooter", "lat": 38.934669166666666, "is_disabled": 0, "name": "e84236d723d645de946c16372b25f86f", "is_reserved": 0, "bike_id": "e84236d723d645de946c16372b25f86f", "fusion_lon": 0.0, "rental_uris": {"ios": "https://dc.lft.to/lastmile_qr_scan", "android": "https://dc.lft.to/lastmile_qr_scan"}}, {"lon": -76.9876065, "fusion_lat": 0.0, "type": "electric_scooter", "lat": 38.910952, "is_disabled": 0, "name": "815faea76cbf135eb9f3d143b0dc78c9", "is_reserved": 0, "bike_id": "815faea76cbf135eb9f3d143b0dc78c9", "fusion_lon": 0.0, "rental_uris": {"ios": "https://dc.lft.to/lastmile_qr_scan", "android": "https://dc.lft.to/lastmile_qr_scan"}}, {"lon": -77.01578066666667, "fusion_lat": 0.0, "type": "electric_scooter", "lat": 38.916735833333334, "is_disabled": 0, "name": "e603bda123687588d8cdf3e2cf30f4d3", "is_reserved": 0, "bike_id": "e603bda123687588d8cdf3e2cf30f4d3", "fusion_lon": 0.0, "rental_uris": {"ios": "https://dc.lft.to/lastmile_qr_scan", "android": "https://dc.lft.to/lastmile_qr_scan"}}, {"lon": -77.08872116666667, "fusion_lat": 0.0, "type": "electric_bike", "lat": 38.9510775, "is_disabled": 0, "name": "eac5b3dec614d213a00196332f4f1e73", "is_reserved": 0, "bike_id": "eac5b3dec614d213a00196332f4f1e73", "fusion_lon": 0.0, "rental_uris": {"ios": "https://dc.lft.to/lastmile_qr_scan", "android": "https://dc.lft.to/lastmile_qr_scan"}}, {"lon": -77.038589, "fusion_lat": 0.0, "type": "electric_scooter", "lat": 38.91198083333333, "is_disabled": 0, "name": "46ea379f620808980d9c26ecf04aff08", "is_reserved": 0, "bike_id": "46ea379f620808980d9c26ecf04aff08", "fusion_lon": 0.0, "rental_uris": {"ios": "https://dc.lft.to/lastmile_qr_scan", "android": "https://dc.lft.to/lastmile_qr_scan"}}, {"lon": -77.03441433333333, "fusion_lat": 0.0, "type": "electric_scooter", "lat": 38.91794816666667, "is_disabled": 0, "name": "50fd00e60a95c11c80ee39bce07550fe", "is_reserved": 0, "bike_id": "50fd00e60a95c11c80ee39bce07550fe", "fusion_lon": 0.0, "rental_uris": {"ios": "https://dc.lft.to/lastmile_qr_scan", "android": "https://dc.lft.to/lastmile_qr_scan"}}, {"lon": -76.998531, "fusion_lat": 0.0, "type": "electric_scooter", "lat": 38.89622583333333, "is_disabled": 0, "name": "442664dbe9376b7d99b88c834dea3211", "is_reserved": 0, "bike_id": "442664dbe9376b7d99b88c834dea3211", "fusion_lon": 0.0, "rental_uris": {"ios": "https://dc.lft.to/lastmile_qr_scan", "android": "https://dc.lft.to/lastmile_qr_scan"}}, {"lon": -76.99955516666667, "fusion_lat": 0.0, "type": "electric_scooter", "lat": 38.923521, "is_disabled": 0, "name": "ab3a2ae2aa0d1e8729dc5aa5c96b26ad", "is_reserved": 0, "bike_id": "ab3a2ae2aa0d1e8729dc5aa5c96b26ad", "fusion_lon": 0.0, "rental_uris": {"ios": "https://dc.lft.to/lastmile_qr_scan", "android": "https://dc.lft.to/lastmile_qr_scan"}}, {"lon": -77.01742183333333, "fusion_lat": 0.0, "type": "electric_scooter", "lat": 38.887376833333335, "is_disabled": 0, "name": "55e118db25203172b073938653482a29", "is_reserved": 0, "bike_id": "55e118db25203172b073938653482a29", "fusion_lon": 0.0, "rental_uris": {"ios": "https://dc.lft.to/lastmile_qr_scan", "android": "https://dc.lft.to/lastmile_qr_scan"}}, {"lon": -76.98658066666667, "fusion_lat": 0.0, "type": "electric_scooter", "lat": 38.86873033333333, "is_disabled": 0, "name": "03780de951b66edb760ac2b0dba9c05c", "is_reserved": 0, "bike_id": "03780de951b66edb760ac2b0dba9c05c", "fusion_lon": 0.0, "rental_uris": {"ios": "https://dc.lft.to/lastmile_qr_scan", "android": "https://dc.lft.to/lastmile_qr_scan"}}, {"lon": -77.04528566666667, "fusion_lat": 0.0, "type": "electric_scooter", "lat": 38.9057495, "is_disabled": 0, "name": "e6f385756ced29ad5543ccffafa887d5", "is_reserved": 0, "bike_id": "e6f385756ced29ad5543ccffafa887d5", "fusion_lon": 0.0, "rental_uris": {"ios": "https://dc.lft.to/lastmile_qr_scan", "android": "https://dc.lft.to/lastmile_qr_scan"}}, {"lon": -77.03454916666666, "fusion_lat": 0.0, "type": "electric_scooter", "lat": 38.90565183333333, "is_disabled": 0, "name": "88df51df8efeefe370353005413750a9", "is_reserved": 0, "bike_id": "88df51df8efeefe370353005413750a9", "fusion_lon": 0.0, "rental_uris": {"ios": "https://dc.lft.to/lastmile_qr_scan", "android": "https://dc.lft.to/lastmile_qr_scan"}}, {"lon": -77.02417683333333, "fusion_lat": 0.0, "type": "electric_scooter", "lat": 38.8796625, "is_disabled": 0, "name": "eea18900a43ee9e5f9de05d69aa0522e", "is_reserved": 0, "bike_id": "eea18900a43ee9e5f9de05d69aa0522e", "fusion_lon": 0.0, "rental_uris": {"ios": "https://dc.lft.to/lastmile_qr_scan", "android": "https://dc.lft.to/lastmile_qr_scan"}}, {"lon": -77.0269235, "fusion_lat": 0.0, "type": "electric_scooter", "lat": 38.9246605, "is_disabled": 0, "name": "deed7ebdd2f623ca956179c7d5ac5b5c", "is_reserved": 0, "bike_id": "deed7ebdd2f623ca956179c7d5ac5b5c", "fusion_lon": 0.0, "rental_uris": {"ios": "https://dc.lft.to/lastmile_qr_scan", "android": "https://dc.lft.to/lastmile_qr_scan"}}, {"lon": -77.00198116666667, "fusion_lat": 0.0, "type": "electric_scooter", "lat": 38.88674866666667, "is_disabled": 0, "name": "da7d16800f1b429ef4794d27d640d886", "is_reserved": 0, "bike_id": "da7d16800f1b429ef4794d27d640d886", "fusion_lon": 0.0, "rental_uris": {"ios": "https://dc.lft.to/lastmile_qr_scan", "android": "https://dc.lft.to/lastmile_qr_scan"}}, {"lon": -77.05039016666667, "fusion_lat": 0.0, "type": "electric_bike", "lat": 38.924169666666664, "is_disabled": 0, "name": "5230233dbe26248541d36252deac343f", "is_reserved": 0, "bike_id": "5230233dbe26248541d36252deac343f", "fusion_lon": 0.0, "rental_uris": {"ios": "https://dc.lft.to/lastmile_qr_scan", "android": "https://dc.lft.to/lastmile_qr_scan"}}, {"lon": -77.03108433333334, "fusion_lat": 0.0, "type": "electric_scooter", "lat": 38.895431, "is_disabled": 0, "name": "a2cbcf72225b0de879dc5c353469c299", "is_reserved": 0, "bike_id": "a2cbcf72225b0de879dc5c353469c299", "fusion_lon": 0.0, "rental_uris": {"ios": "https://dc.lft.to/lastmile_qr_scan", "android": "https://dc.lft.to/lastmile_qr_scan"}}, {"lon": -76.980855, "fusion_lat": 0.0, "type": "electric_scooter", "lat": 38.90021316666667, "is_disabled": 0, "name": "280a21aa3c20f9c5d0ff706259e7a77b", "is_reserved": 0, "bike_id": "280a21aa3c20f9c5d0ff706259e7a77b", "fusion_lon": 0.0, "rental_uris": {"ios": "https://dc.lft.to/lastmile_qr_scan", "android": "https://dc.lft.to/lastmile_qr_scan"}}, {"lon": -77.02368883333334, "fusion_lat": 0.0, "type": "electric_scooter", "lat": 38.90198566666667, "is_disabled": 0, "name": "a09c8bb506ebd61881e277784a13a574", "is_reserved": 0, "bike_id": "a09c8bb506ebd61881e277784a13a574", "fusion_lon": 0.0, "rental_uris": {"ios": "https://dc.lft.to/lastmile_qr_scan", "android": "https://dc.lft.to/lastmile_qr_scan"}}, {"lon": -77.02037366666667, "fusion_lat": 0.0, "type": "electric_scooter", "lat": 38.876782166666665, "is_disabled": 0, "name": "4a5dfb7b44375a9f0bb16ba97948c895", "is_reserved": 0, "bike_id": "4a5dfb7b44375a9f0bb16ba97948c895", "fusion_lon": 0.0, "rental_uris": {"ios": "https://dc.lft.to/lastmile_qr_scan", "android": "https://dc.lft.to/lastmile_qr_scan"}}, {"lon": -77.02455283333333, "fusion_lat": 0.0, "type": "electric_scooter", "lat": 38.907658833333336, "is_disabled": 0, "name": "7681e7c4cc840dec302d44d8b7597043", "is_reserved": 0, "bike_id": "7681e7c4cc840dec302d44d8b7597043", "fusion_lon": 0.0, "rental_uris": {"ios": "https://dc.lft.to/lastmile_qr_scan", "android": "https://dc.lft.to/lastmile_qr_scan"}}, {"lon": -77.05535983333333, "fusion_lat": 0.0, "type": "electric_scooter", "lat": 38.927930333333336, "is_disabled": 0, "name": "bdd7ab17bfdec55b6e2493ea73670a2e", "is_reserved": 0, "bike_id": "bdd7ab17bfdec55b6e2493ea73670a2e", "fusion_lon": 0.0, "rental_uris": {"ios": "https://dc.lft.to/lastmile_qr_scan", "android": "https://dc.lft.to/lastmile_qr_scan"}}, {"lon": -77.023146, "fusion_lat": 0.0, "type": "electric_scooter", "lat": 38.92060883333333, "is_disabled": 0, "name": "783e4f3cb033d279a66f9d195972dd01", "is_reserved": 0, "bike_id": "783e4f3cb033d279a66f9d195972dd01", "fusion_lon": 0.0, "rental_uris": {"ios": "https://dc.lft.to/lastmile_qr_scan", "android": "https://dc.lft.to/lastmile_qr_scan"}}, {"lon": -77.02691866666666, "fusion_lat": 0.0, "type": "electric_scooter", "lat": 38.91288383333333, "is_disabled": 0, "name": "a5cd1fdba94c8b0db61fd8226bfc7ca5", "is_reserved": 0, "bike_id": "a5cd1fdba94c8b0db61fd8226bfc7ca5", "fusion_lon": 0.0, "rental_uris": {"ios": "https://dc.lft.to/lastmile_qr_scan", "android": "https://dc.lft.to/lastmile_qr_scan"}}, {"lon": -77.01770933333333, "fusion_lat": 0.0, "type": "electric_scooter", "lat": 38.9026245, "is_disabled": 0, "name": "53803e16481bd46848ac164ee13c2f18", "is_reserved": 0, "bike_id": "53803e16481bd46848ac164ee13c2f18", "fusion_lon": 0.0, "rental_uris": {"ios": "https://dc.lft.to/lastmile_qr_scan", "android": "https://dc.lft.to/lastmile_qr_scan"}}, {"lon": -77.04057666666667, "fusion_lat": 0.0, "type": "electric_scooter", "lat": 38.9263865, "is_disabled": 0, "name": "942e42b66ab8151bb5f927fb0ec9d06d", "is_reserved": 0, "bike_id": "942e42b66ab8151bb5f927fb0ec9d06d", "fusion_lon": 0.0, "rental_uris": {"ios": "https://dc.lft.to/lastmile_qr_scan", "android": "https://dc.lft.to/lastmile_qr_scan"}}, {"lon": -76.868332, "fusion_lat": 0.0, "type": "electric_bike", "lat": 38.8939995, "is_disabled": 0, "name": "613eaa8df80bd74934c21331719308bd", "is_reserved": 0, "bike_id": "613eaa8df80bd74934c21331719308bd", "fusion_lon": 0.0, "rental_uris": {"ios": "https://dc.lft.to/lastmile_qr_scan", "android": "https://dc.lft.to/lastmile_qr_scan"}}, {"lon": -77.02669716666666, "fusion_lat": 0.0, "type": "electric_scooter", "lat": 38.92170466666666, "is_disabled": 0, "name": "afc1171c803a650e5bd2cedd394b3132", "is_reserved": 0, "bike_id": "afc1171c803a650e5bd2cedd394b3132", "fusion_lon": 0.0, "rental_uris": {"ios": "https://dc.lft.to/lastmile_qr_scan", "android": "https://dc.lft.to/lastmile_qr_scan"}}, {"lon": -77.00912966666667, "fusion_lat": 0.0, "type": "electric_scooter", "lat": 38.9575365, "is_disabled": 0, "name": "37a11fe08fceb1326d0313a411287391", "is_reserved": 0, "bike_id": "37a11fe08fceb1326d0313a411287391", "fusion_lon": 0.0, "rental_uris": {"ios": "https://dc.lft.to/lastmile_qr_scan", "android": "https://dc.lft.to/lastmile_qr_scan"}}, {"lon": -76.99321566666667, "fusion_lat": 0.0, "type": "electric_scooter", "lat": 38.87659716666667, "is_disabled": 0, "name": "5738461229e927d39ee50d2fbf4b299d", "is_reserved": 0, "bike_id": "5738461229e927d39ee50d2fbf4b299d", "fusion_lon": 0.0, "rental_uris": {"ios": "https://dc.lft.to/lastmile_qr_scan", "android": "https://dc.lft.to/lastmile_qr_scan"}}, {"lon": -77.04124283333333, "fusion_lat": 0.0, "type": "electric_scooter", "lat": 38.92350966666667, "is_disabled": 0, "name": "bf0e4d60681142229597cd099ab77a97", "is_reserved": 0, "bike_id": "bf0e4d60681142229597cd099ab77a97", "fusion_lon": 0.0, "rental_uris": {"ios": "https://dc.lft.to/lastmile_qr_scan", "android": "https://dc.lft.to/lastmile_qr_scan"}}, {"lon": -77.026408, "fusion_lat": 0.0, "type": "electric_scooter", "lat": 38.982212833333335, "is_disabled": 0, "name": "f838d219a7845e42b2be9b7a61f9d191", "is_reserved": 0, "bike_id": "f838d219a7845e42b2be9b7a61f9d191", "fusion_lon": 0.0, "rental_uris": {"ios": "https://dc.lft.to/lastmile_qr_scan", "android": "https://dc.lft.to/lastmile_qr_scan"}}, {"lon": -76.99146616666667, "fusion_lat": 0.0, "type": "electric_bike", "lat": 38.92035466666667, "is_disabled": 0, "name": "04e91c050c8d6afbdf2df14bb91e4834", "is_reserved": 0, "bike_id": "04e91c050c8d6afbdf2df14bb91e4834", "fusion_lon": 0.0, "rental_uris": {"ios": "https://dc.lft.to/lastmile_qr_scan", "android": "https://dc.lft.to/lastmile_qr_scan"}}, {"lon": -77.0610605, "fusion_lat": 0.0, "type": "electric_scooter", "lat": 38.943634333333335, "is_disabled": 0, "name": "ea0685f727b22ad8e8baf07b124274e9", "is_reserved": 0, "bike_id": "ea0685f727b22ad8e8baf07b124274e9", "fusion_lon": 0.0, "rental_uris": {"ios": "https://dc.lft.to/lastmile_qr_scan", "android": "https://dc.lft.to/lastmile_qr_scan"}}, {"lon": -76.98829316666667, "fusion_lat": 0.0, "type": "electric_scooter", "lat": 38.900332166666665, "is_disabled": 0, "name": "72197c0a72485414228f76222bdbc9db", "is_reserved": 0, "bike_id": "72197c0a72485414228f76222bdbc9db", "fusion_lon": 0.0, "rental_uris": {"ios": "https://dc.lft.to/lastmile_qr_scan", "android": "https://dc.lft.to/lastmile_qr_scan"}}, {"lon": -77.0209425, "fusion_lat": 0.0, "type": "electric_scooter", "lat": 38.9271255, "is_disabled": 0, "name": "94221042876e6f47d964ff06360f78fa", "is_reserved": 0, "bike_id": "94221042876e6f47d964ff06360f78fa", "fusion_lon": 0.0, "rental_uris": {"ios": "https://dc.lft.to/lastmile_qr_scan", "android": "https://dc.lft.to/lastmile_qr_scan"}}, {"lon": -77.041962, "fusion_lat": 0.0, "type": "electric_scooter", "lat": 38.90736916666667, "is_disabled": 0, "name": "731611e53b7895f94a2e820d04c9b549", "is_reserved": 0, "bike_id": "731611e53b7895f94a2e820d04c9b549", "fusion_lon": 0.0, "rental_uris": {"ios": "https://dc.lft.to/lastmile_qr_scan", "android": "https://dc.lft.to/lastmile_qr_scan"}}, {"lon": -77.0238575, "fusion_lat": 0.0, "type": "electric_scooter", "lat": 38.897568166666666, "is_disabled": 0, "name": "858e07c2f0b9a0ca7dcaf336c0d4263a", "is_reserved": 0, "bike_id": "858e07c2f0b9a0ca7dcaf336c0d4263a", "fusion_lon": 0.0, "rental_uris": {"ios": "https://dc.lft.to/lastmile_qr_scan", "android": "https://dc.lft.to/lastmile_qr_scan"}}, {"lon": -76.98757516666667, "fusion_lat": 0.0, "type": "electric_scooter", "lat": 38.91102216666667, "is_disabled": 0, "name": "f9850fdb5e32af4b29f093d6d202b670", "is_reserved": 0, "bike_id": "f9850fdb5e32af4b29f093d6d202b670", "fusion_lon": 0.0, "rental_uris": {"ios": "https://dc.lft.to/lastmile_qr_scan", "android": "https://dc.lft.to/lastmile_qr_scan"}}, {"lon": -76.996745, "fusion_lat": 0.0, "type": "electric_scooter", "lat": 38.885114, "is_disabled": 0, "name": "0b44b4486412bb8c27bf5f53ce7e3f7e", "is_reserved": 0, "bike_id": "0b44b4486412bb8c27bf5f53ce7e3f7e", "fusion_lon": 0.0, "rental_uris": {"ios": "https://dc.lft.to/lastmile_qr_scan", "android": "https://dc.lft.to/lastmile_qr_scan"}}, {"lon": -77.00726216666666, "fusion_lat": 0.0, "type": "electric_scooter", "lat": 38.95421666666667, "is_disabled": 0, "name": "cd93a1a0cc7e275b05de9ae3a6cbde77", "is_reserved": 0, "bike_id": "cd93a1a0cc7e275b05de9ae3a6cbde77", "fusion_lon": 0.0, "rental_uris": {"ios": "https://dc.lft.to/lastmile_qr_scan", "android": "https://dc.lft.to/lastmile_qr_scan"}}, {"lon": -77.02383566666667, "fusion_lat": 0.0, "type": "electric_scooter", "lat": 38.892362166666665, "is_disabled": 0, "name": "697137d64d26f9969f4e9655e4c5ffd8", "is_reserved": 0, "bike_id": "697137d64d26f9969f4e9655e4c5ffd8", "fusion_lon": 0.0, "rental_uris": {"ios": "https://dc.lft.to/lastmile_qr_scan", "android": "https://dc.lft.to/lastmile_qr_scan"}}, {"lon": -77.019011, "fusion_lat": 0.0, "type": "electric_scooter", "lat": 38.92335816666667, "is_disabled": 0, "name": "5c2a35ab3a9a2df5ef15592ae2e4cc00", "is_reserved": 0, "bike_id": "5c2a35ab3a9a2df5ef15592ae2e4cc00", "fusion_lon": 0.0, "rental_uris": {"ios": "https://dc.lft.to/lastmile_qr_scan", "android": "https://dc.lft.to/lastmile_qr_scan"}}, {"lon": -77.0378165, "fusion_lat": 0.0, "type": "electric_scooter", "lat": 38.92004716666667, "is_disabled": 0, "name": "64411aefc37846c7d6d1c33523b5fbfc", "is_reserved": 0, "bike_id": "64411aefc37846c7d6d1c33523b5fbfc", "fusion_lon": 0.0, "rental_uris": {"ios": "https://dc.lft.to/lastmile_qr_scan", "android": "https://dc.lft.to/lastmile_qr_scan"}}, {"lon": -77.01652883333334, "fusion_lat": 0.0, "type": "electric_scooter", "lat": 38.87632416666667, "is_disabled": 0, "name": "a9c5583cfb4f2850b5515dc67ef34e70", "is_reserved": 0, "bike_id": "a9c5583cfb4f2850b5515dc67ef34e70", "fusion_lon": 0.0, "rental_uris": {"ios": "https://dc.lft.to/lastmile_qr_scan", "android": "https://dc.lft.to/lastmile_qr_scan"}}, {"lon": -77.0714125, "fusion_lat": 0.0, "type": "electric_scooter", "lat": 38.920254166666666, "is_disabled": 0, "name": "0fb783f8e1f8002ad30952253d09f650", "is_reserved": 0, "bike_id": "0fb783f8e1f8002ad30952253d09f650", "fusion_lon": 0.0, "rental_uris": {"ios": "https://dc.lft.to/lastmile_qr_scan", "android": "https://dc.lft.to/lastmile_qr_scan"}}, {"lon": -77.0220955, "fusion_lat": 0.0, "type": "electric_scooter", "lat": 38.92197, "is_disabled": 0, "name": "ed06d036bdabe52bcdac83f61010a9ba", "is_reserved": 0, "bike_id": "ed06d036bdabe52bcdac83f61010a9ba", "fusion_lon": 0.0, "rental_uris": {"ios": "https://dc.lft.to/lastmile_qr_scan", "android": "https://dc.lft.to/lastmile_qr_scan"}}, {"lon": -76.92740766666667, "fusion_lat": 0.0, "type": "electric_scooter", "lat": 38.900679, "is_disabled": 0, "name": "6e82e04955853bb54a8e21253d9ed1ef", "is_reserved": 0, "bike_id": "6e82e04955853bb54a8e21253d9ed1ef", "fusion_lon": 0.0, "rental_uris": {"ios": "https://dc.lft.to/lastmile_qr_scan", "android": "https://dc.lft.to/lastmile_qr_scan"}}, {"lon": -76.99196516666666, "fusion_lat": 0.0, "type": "electric_scooter", "lat": 38.882672666666664, "is_disabled": 0, "name": "a77d137a6c71fde0b3e38d5f8bc77b17", "is_reserved": 0, "bike_id": "a77d137a6c71fde0b3e38d5f8bc77b17", "fusion_lon": 0.0, "rental_uris": {"ios": "https://dc.lft.to/lastmile_qr_scan", "android": "https://dc.lft.to/lastmile_qr_scan"}}, {"lon": -77.02840583333334, "fusion_lat": 0.0, "type": "electric_scooter", "lat": 38.9352385, "is_disabled": 0, "name": "2e92f97faa1f4e1faace9d86f17a02c4", "is_reserved": 0, "bike_id": "2e92f97faa1f4e1faace9d86f17a02c4", "fusion_lon": 0.0, "rental_uris": {"ios": "https://dc.lft.to/lastmile_qr_scan", "android": "https://dc.lft.to/lastmile_qr_scan"}}, {"lon": -77.03566616666667, "fusion_lat": 0.0, "type": "electric_scooter", "lat": 38.907428833333334, "is_disabled": 0, "name": "27ee831936dbf2eae391ccddb888d56a", "is_reserved": 0, "bike_id": "27ee831936dbf2eae391ccddb888d56a", "fusion_lon": 0.0, "rental_uris": {"ios": "https://dc.lft.to/lastmile_qr_scan", "android": "https://dc.lft.to/lastmile_qr_scan"}}, {"lon": -77.03441566666666, "fusion_lat": 0.0, "type": "electric_scooter", "lat": 38.905476666666665, "is_disabled": 0, "name": "5901425458b96bbba37421a3d872f6f9", "is_reserved": 0, "bike_id": "5901425458b96bbba37421a3d872f6f9", "fusion_lon": 0.0, "rental_uris": {"ios": "https://dc.lft.to/lastmile_qr_scan", "android": "https://dc.lft.to/lastmile_qr_scan"}}, {"lon": -76.99761233333334, "fusion_lat": 0.0, "type": "electric_bike", "lat": 38.953156666666665, "is_disabled": 0, "name": "52f4caa3a61affc466e86c756f04a2ef", "is_reserved": 0, "bike_id": "52f4caa3a61affc466e86c756f04a2ef", "fusion_lon": 0.0, "rental_uris": {"ios": "https://dc.lft.to/lastmile_qr_scan", "android": "https://dc.lft.to/lastmile_qr_scan"}}, {"lon": -77.01169333333333, "fusion_lat": 0.0, "type": "electric_scooter", "lat": 38.89619366666667, "is_disabled": 0, "name": "b93aba77858a4fbec84dd31196fc30c6", "is_reserved": 0, "bike_id": "b93aba77858a4fbec84dd31196fc30c6", "fusion_lon": 0.0, "rental_uris": {"ios": "https://dc.lft.to/lastmile_qr_scan", "android": "https://dc.lft.to/lastmile_qr_scan"}}, {"lon": -77.0376285, "fusion_lat": 0.0, "type": "electric_scooter", "lat": 38.92687566666667, "is_disabled": 0, "name": "f237ff3c75960ee857ea56801cba4720", "is_reserved": 0, "bike_id": "f237ff3c75960ee857ea56801cba4720", "fusion_lon": 0.0, "rental_uris": {"ios": "https://dc.lft.to/lastmile_qr_scan", "android": "https://dc.lft.to/lastmile_qr_scan"}}, {"lon": -77.02592816666667, "fusion_lat": 0.0, "type": "electric_scooter", "lat": 38.904300666666664, "is_disabled": 0, "name": "de563d1aeed5d8573ffa3f3c4329c6cb", "is_reserved": 0, "bike_id": "de563d1aeed5d8573ffa3f3c4329c6cb", "fusion_lon": 0.0, "rental_uris": {"ios": "https://dc.lft.to/lastmile_qr_scan", "android": "https://dc.lft.to/lastmile_qr_scan"}}, {"lon": -77.0246, "fusion_lat": 0.0, "type": "electric_scooter", "lat": 38.9472835, "is_disabled": 0, "name": "dedb1989954108fe1415d2161803a2e2", "is_reserved": 0, "bike_id": "dedb1989954108fe1415d2161803a2e2", "fusion_lon": 0.0, "rental_uris": {"ios": "https://dc.lft.to/lastmile_qr_scan", "android": "https://dc.lft.to/lastmile_qr_scan"}}, {"lon": -77.026772, "fusion_lat": 0.0, "type": "electric_scooter", "lat": 38.90721416666667, "is_disabled": 0, "name": "a4fcc1ce35eab24b392857e22c997da4", "is_reserved": 0, "bike_id": "a4fcc1ce35eab24b392857e22c997da4", "fusion_lon": 0.0, "rental_uris": {"ios": "https://dc.lft.to/lastmile_qr_scan", "android": "https://dc.lft.to/lastmile_qr_scan"}}, {"lon": -77.07264966666666, "fusion_lat": 0.0, "type": "electric_scooter", "lat": 38.908961833333336, "is_disabled": 0, "name": "f457ae9cf86c2ec6b0607892433acf61", "is_reserved": 0, "bike_id": "f457ae9cf86c2ec6b0607892433acf61", "fusion_lon": 0.0, "rental_uris": {"ios": "https://dc.lft.to/lastmile_qr_scan", "android": "https://dc.lft.to/lastmile_qr_scan"}}, {"lon": -77.00067133333333, "fusion_lat": 0.0, "type": "electric_scooter", "lat": 38.92436416666666, "is_disabled": 0, "name": "d359d4462dabb9b1727d42115c4b2a90", "is_reserved": 0, "bike_id": "d359d4462dabb9b1727d42115c4b2a90", "fusion_lon": 0.0, "rental_uris": {"ios": "https://dc.lft.to/lastmile_qr_scan", "android": "https://dc.lft.to/lastmile_qr_scan"}}, {"lon": -77.03086716666667, "fusion_lat": 0.0, "type": "electric_scooter", "lat": 38.9279155, "is_disabled": 0, "name": "789d6d568e3407e8b017b4c1e7a9ef8f", "is_reserved": 0, "bike_id": "789d6d568e3407e8b017b4c1e7a9ef8f", "fusion_lon": 0.0, "rental_uris": {"ios": "https://dc.lft.to/lastmile_qr_scan", "android": "https://dc.lft.to/lastmile_qr_scan"}}, {"lon": -77.04068566666666, "fusion_lat": 0.0, "type": "electric_scooter", "lat": 38.900129666666665, "is_disabled": 0, "name": "6054f0f78b98462b94b10197782deab0", "is_reserved": 0, "bike_id": "6054f0f78b98462b94b10197782deab0", "fusion_lon": 0.0, "rental_uris": {"ios": "https://dc.lft.to/lastmile_qr_scan", "android": "https://dc.lft.to/lastmile_qr_scan"}}, {"lon": -77.02682966666667, "fusion_lat": 0.0, "type": "electric_scooter", "lat": 38.897095, "is_disabled": 0, "name": "b2fa7733e824c756b5e7133f8b18b1ef", "is_reserved": 0, "bike_id": "b2fa7733e824c756b5e7133f8b18b1ef", "fusion_lon": 0.0, "rental_uris": {"ios": "https://dc.lft.to/lastmile_qr_scan", "android": "https://dc.lft.to/lastmile_qr_scan"}}, {"lon": -77.06037466666666, "fusion_lat": 0.0, "type": "electric_scooter", "lat": 38.93907183333334, "is_disabled": 0, "name": "19be6499302a2cb100d3ed468c777916", "is_reserved": 0, "bike_id": "19be6499302a2cb100d3ed468c777916", "fusion_lon": 0.0, "rental_uris": {"ios": "https://dc.lft.to/lastmile_qr_scan", "android": "https://dc.lft.to/lastmile_qr_scan"}}, {"lon": -77.05826933333333, "fusion_lat": 0.0, "type": "electric_scooter", "lat": 38.905283, "is_disabled": 0, "name": "2f6665f978fcdd3ea44c1ddd399dd8f0", "is_reserved": 0, "bike_id": "2f6665f978fcdd3ea44c1ddd399dd8f0", "fusion_lon": 0.0, "rental_uris": {"ios": "https://dc.lft.to/lastmile_qr_scan", "android": "https://dc.lft.to/lastmile_qr_scan"}}, {"lon": -77.02693683333334, "fusion_lat": 0.0, "type": "electric_scooter", "lat": 38.896892666666666, "is_disabled": 0, "name": "8b342401ca2576279a0562f78e78ac5b", "is_reserved": 0, "bike_id": "8b342401ca2576279a0562f78e78ac5b", "fusion_lon": 0.0, "rental_uris": {"ios": "https://dc.lft.to/lastmile_qr_scan", "android": "https://dc.lft.to/lastmile_qr_scan"}}, {"lon": -77.03332366666666, "fusion_lat": 0.0, "type": "electric_scooter", "lat": 38.91973383333333, "is_disabled": 0, "name": "55f28182508eef7b61903c2539b31254", "is_reserved": 0, "bike_id": "55f28182508eef7b61903c2539b31254", "fusion_lon": 0.0, "rental_uris": {"ios": "https://dc.lft.to/lastmile_qr_scan", "android": "https://dc.lft.to/lastmile_qr_scan"}}, {"lon": -77.03257966666666, "fusion_lat": 0.0, "type": "electric_scooter", "lat": 38.92904633333333, "is_disabled": 0, "name": "3f885ef20c1b32eee4182b6e470f9a54", "is_reserved": 0, "bike_id": "3f885ef20c1b32eee4182b6e470f9a54", "fusion_lon": 0.0, "rental_uris": {"ios": "https://dc.lft.to/lastmile_qr_scan", "android": "https://dc.lft.to/lastmile_qr_scan"}}, {"lon": -77.046238, "fusion_lat": 0.0, "type": "electric_scooter", "lat": 38.902060166666665, "is_disabled": 0, "name": "c459b1eeee2307e8cd4b288c47f36647", "is_reserved": 0, "bike_id": "c459b1eeee2307e8cd4b288c47f36647", "fusion_lon": 0.0, "rental_uris": {"ios": "https://dc.lft.to/lastmile_qr_scan", "android": "https://dc.lft.to/lastmile_qr_scan"}}, {"lon": -77.03185966666666, "fusion_lat": 0.0, "type": "electric_scooter", "lat": 38.91676133333333, "is_disabled": 0, "name": "8f6ddd57a903c50d18353d5c7ad8e01f", "is_reserved": 0, "bike_id": "8f6ddd57a903c50d18353d5c7ad8e01f", "fusion_lon": 0.0, "rental_uris": {"ios": "https://dc.lft.to/lastmile_qr_scan", "android": "https://dc.lft.to/lastmile_qr_scan"}}, {"lon": -77.0486635, "fusion_lat": 0.0, "type": "electric_scooter", "lat": 38.89222516666667, "is_disabled": 0, "name": "cde072425ee008a481a66a3559909433", "is_reserved": 0, "bike_id": "cde072425ee008a481a66a3559909433", "fusion_lon": 0.0, "rental_uris": {"ios": "https://dc.lft.to/lastmile_qr_scan", "android": "https://dc.lft.to/lastmile_qr_scan"}}, {"lon": -77.0552065, "fusion_lat": 0.0, "type": "electric_scooter", "lat": 38.897247, "is_disabled": 0, "name": "9c2de02a0f7118ba5f292ce5ea1bda30", "is_reserved": 0, "bike_id": "9c2de02a0f7118ba5f292ce5ea1bda30", "fusion_lon": 0.0, "rental_uris": {"ios": "https://dc.lft.to/lastmile_qr_scan", "android": "https://dc.lft.to/lastmile_qr_scan"}}, {"lon": -77.034625, "fusion_lat": 0.0, "type": "electric_scooter", "lat": 38.920561666666664, "is_disabled": 0, "name": "8714417afddc7263d9e9f7ef13ee2759", "is_reserved": 0, "bike_id": "8714417afddc7263d9e9f7ef13ee2759", "fusion_lon": 0.0, "rental_uris": {"ios": "https://dc.lft.to/lastmile_qr_scan", "android": "https://dc.lft.to/lastmile_qr_scan"}}, {"lon": -77.03152366666667, "fusion_lat": 0.0, "type": "electric_scooter", "lat": 38.924660833333334, "is_disabled": 0, "name": "fbfaf41ae83c0e9acc6ff6a85349f8d7", "is_reserved": 0, "bike_id": "fbfaf41ae83c0e9acc6ff6a85349f8d7", "fusion_lon": 0.0, "rental_uris": {"ios": "https://dc.lft.to/lastmile_qr_scan", "android": "https://dc.lft.to/lastmile_qr_scan"}}, {"lon": -76.99789583333333, "fusion_lat": 0.0, "type": "electric_scooter", "lat": 38.87495783333333, "is_disabled": 0, "name": "a6abc2eb28d7559eccb00765eae6fe5e", "is_reserved": 0, "bike_id": "a6abc2eb28d7559eccb00765eae6fe5e", "fusion_lon": 0.0, "rental_uris": {"ios": "https://dc.lft.to/lastmile_qr_scan", "android": "https://dc.lft.to/lastmile_qr_scan"}}, {"lon": -77.04193383333333, "fusion_lat": 0.0, "type": "electric_scooter", "lat": 38.904720833333336, "is_disabled": 0, "name": "3ce33d0819b50126bf188353739d5110", "is_reserved": 0, "bike_id": "3ce33d0819b50126bf188353739d5110", "fusion_lon": 0.0, "rental_uris": {"ios": "https://dc.lft.to/lastmile_qr_scan", "android": "https://dc.lft.to/lastmile_qr_scan"}}, {"lon": -77.03398883333334, "fusion_lat": 0.0, "type": "electric_scooter", "lat": 38.923871166666665, "is_disabled": 0, "name": "f6e9f8c19d87667377719d641369e383", "is_reserved": 0, "bike_id": "f6e9f8c19d87667377719d641369e383", "fusion_lon": 0.0, "rental_uris": {"ios": "https://dc.lft.to/lastmile_qr_scan", "android": "https://dc.lft.to/lastmile_qr_scan"}}, {"lon": -77.03200633333333, "fusion_lat": 0.0, "type": "electric_scooter", "lat": 38.917727666666664, "is_disabled": 0, "name": "baa1d5e63c4b3c06cfdc23a79436451d", "is_reserved": 0, "bike_id": "baa1d5e63c4b3c06cfdc23a79436451d", "fusion_lon": 0.0, "rental_uris": {"ios": "https://dc.lft.to/lastmile_qr_scan", "android": "https://dc.lft.to/lastmile_qr_scan"}}, {"lon": -77.01947416666667, "fusion_lat": 0.0, "type": "electric_scooter", "lat": 38.924183666666664, "is_disabled": 0, "name": "4a46d43f4bbff7f4d0be238ef70c1ad0", "is_reserved": 0, "bike_id": "4a46d43f4bbff7f4d0be238ef70c1ad0", "fusion_lon": 0.0, "rental_uris": {"ios": "https://dc.lft.to/lastmile_qr_scan", "android": "https://dc.lft.to/lastmile_qr_scan"}}, {"lon": -77.02964616666667, "fusion_lat": 0.0, "type": "electric_scooter", "lat": 38.92681983333333, "is_disabled": 0, "name": "911f2050a1096630941903f8c6ad45ba", "is_reserved": 0, "bike_id": "911f2050a1096630941903f8c6ad45ba", "fusion_lon": 0.0, "rental_uris": {"ios": "https://dc.lft.to/lastmile_qr_scan", "android": "https://dc.lft.to/lastmile_qr_scan"}}, {"lon": -77.030329, "fusion_lat": 0.0, "type": "electric_scooter", "lat": 38.8982055, "is_disabled": 0, "name": "afc884d0b9aa6d1579d46b1a5e36dec8", "is_reserved": 0, "bike_id": "afc884d0b9aa6d1579d46b1a5e36dec8", "fusion_lon": 0.0, "rental_uris": {"ios": "https://dc.lft.to/lastmile_qr_scan", "android": "https://dc.lft.to/lastmile_qr_scan"}}, {"lon": -77.02697866666666, "fusion_lat": 0.0, "type": "electric_scooter", "lat": 38.898211, "is_disabled": 0, "name": "91b9c11e8acc400ffc394e08614a2568", "is_reserved": 0, "bike_id": "91b9c11e8acc400ffc394e08614a2568", "fusion_lon": 0.0, "rental_uris": {"ios": "https://dc.lft.to/lastmile_qr_scan", "android": "https://dc.lft.to/lastmile_qr_scan"}}, {"lon": -77.111485, "fusion_lat": 0.0, "type": "electric_bike", "lat": 38.8822255, "is_disabled": 0, "name": "84e2f516e0b6321656498f1934eac49e", "is_reserved": 0, "bike_id": "84e2f516e0b6321656498f1934eac49e", "fusion_lon": 0.0, "rental_uris": {"ios": "https://dc.lft.to/lastmile_qr_scan", "android": "https://dc.lft.to/lastmile_qr_scan"}}, {"lon": -77.0327235, "fusion_lat": 0.0, "type": "electric_scooter", "lat": 38.929801, "is_disabled": 0, "name": "fe570f3f5d36186af0b379e1f6f20438", "is_reserved": 0, "bike_id": "fe570f3f5d36186af0b379e1f6f20438", "fusion_lon": 0.0, "rental_uris": {"ios": "https://dc.lft.to/lastmile_qr_scan", "android": "https://dc.lft.to/lastmile_qr_scan"}}, {"lon": -77.02118266666666, "fusion_lat": 0.0, "type": "electric_scooter", "lat": 38.92999316666667, "is_disabled": 0, "name": "fdc3b987255b19777becc8eabba60409", "is_reserved": 0, "bike_id": "fdc3b987255b19777becc8eabba60409", "fusion_lon": 0.0, "rental_uris": {"ios": "https://dc.lft.to/lastmile_qr_scan", "android": "https://dc.lft.to/lastmile_qr_scan"}}, {"lon": -77.01943933333334, "fusion_lat": 0.0, "type": "electric_scooter", "lat": 38.92416933333333, "is_disabled": 0, "name": "5e0d809b7db6793156924b8e9af7e00a", "is_reserved": 0, "bike_id": "5e0d809b7db6793156924b8e9af7e00a", "fusion_lon": 0.0, "rental_uris": {"ios": "https://dc.lft.to/lastmile_qr_scan", "android": "https://dc.lft.to/lastmile_qr_scan"}}, {"lon": -77.01198866666667, "fusion_lat": 0.0, "type": "electric_scooter", "lat": 38.89530516666667, "is_disabled": 0, "name": "c91b554f3392f9d6f2292a9e7c62e545", "is_reserved": 0, "bike_id": "c91b554f3392f9d6f2292a9e7c62e545", "fusion_lon": 0.0, "rental_uris": {"ios": "https://dc.lft.to/lastmile_qr_scan", "android": "https://dc.lft.to/lastmile_qr_scan"}}, {"lon": -77.0269415, "fusion_lat": 0.0, "type": "electric_scooter", "lat": 38.90693783333333, "is_disabled": 0, "name": "016c62adac318f70b580de0f9e437644", "is_reserved": 0, "bike_id": "016c62adac318f70b580de0f9e437644", "fusion_lon": 0.0, "rental_uris": {"ios": "https://dc.lft.to/lastmile_qr_scan", "android": "https://dc.lft.to/lastmile_qr_scan"}}, {"lon": -76.97466183333333, "fusion_lat": 0.0, "type": "electric_scooter", "lat": 38.871516666666665, "is_disabled": 0, "name": "ae3e0eb4a7427c1b61c55dc31959affb", "is_reserved": 0, "bike_id": "ae3e0eb4a7427c1b61c55dc31959affb", "fusion_lon": 0.0, "rental_uris": {"ios": "https://dc.lft.to/lastmile_qr_scan", "android": "https://dc.lft.to/lastmile_qr_scan"}}, {"lon": -77.023243, "fusion_lat": 0.0, "type": "electric_scooter", "lat": 38.87875283333333, "is_disabled": 0, "name": "bbe89a2fd380424658aed9025aac403e", "is_reserved": 0, "bike_id": "bbe89a2fd380424658aed9025aac403e", "fusion_lon": 0.0, "rental_uris": {"ios": "https://dc.lft.to/lastmile_qr_scan", "android": "https://dc.lft.to/lastmile_qr_scan"}}, {"lon": -77.03582383333334, "fusion_lat": 0.0, "type": "electric_scooter", "lat": 38.90360783333333, "is_disabled": 0, "name": "f7554ada78d32e7e9e65c7eae8a19c03", "is_reserved": 0, "bike_id": "f7554ada78d32e7e9e65c7eae8a19c03", "fusion_lon": 0.0, "rental_uris": {"ios": "https://dc.lft.to/lastmile_qr_scan", "android": "https://dc.lft.to/lastmile_qr_scan"}}, {"lon": -77.02333083333333, "fusion_lat": 0.0, "type": "electric_bike", "lat": 38.92229916666667, "is_disabled": 0, "name": "a7ff6724576386663c086f518a8f4941", "is_reserved": 0, "bike_id": "a7ff6724576386663c086f518a8f4941", "fusion_lon": 0.0, "rental_uris": {"ios": "https://dc.lft.to/lastmile_qr_scan", "android": "https://dc.lft.to/lastmile_qr_scan"}}, {"lon": -77.02562033333334, "fusion_lat": 0.0, "type": "electric_scooter", "lat": 38.90724316666667, "is_disabled": 0, "name": "69efb714cb0940a9b8525cbc94135b58", "is_reserved": 0, "bike_id": "69efb714cb0940a9b8525cbc94135b58", "fusion_lon": 0.0, "rental_uris": {"ios": "https://dc.lft.to/lastmile_qr_scan", "android": "https://dc.lft.to/lastmile_qr_scan"}}, {"lon": -77.00155616666666, "fusion_lat": 0.0, "type": "electric_bike", "lat": 38.899272, "is_disabled": 0, "name": "bf21c93f21cdee7ec95c378f6b15034b", "is_reserved": 0, "bike_id": "bf21c93f21cdee7ec95c378f6b15034b", "fusion_lon": 0.0, "rental_uris": {"ios": "https://dc.lft.to/lastmile_qr_scan", "android": "https://dc.lft.to/lastmile_qr_scan"}}, {"lon": -77.0272755, "fusion_lat": 0.0, "type": "electric_scooter", "lat": 38.93455466666666, "is_disabled": 0, "name": "5cc378379a8dcc19342b9466d0a263d6", "is_reserved": 0, "bike_id": "5cc378379a8dcc19342b9466d0a263d6", "fusion_lon": 0.0, "rental_uris": {"ios": "https://dc.lft.to/lastmile_qr_scan", "android": "https://dc.lft.to/lastmile_qr_scan"}}, {"lon": -77.05910716666666, "fusion_lat": 0.0, "type": "electric_scooter", "lat": 38.905335666666666, "is_disabled": 0, "name": "0082a19d880dd57a84905a4d2f9e998d", "is_reserved": 0, "bike_id": "0082a19d880dd57a84905a4d2f9e998d", "fusion_lon": 0.0, "rental_uris": {"ios": "https://dc.lft.to/lastmile_qr_scan", "android": "https://dc.lft.to/lastmile_qr_scan"}}, {"lon": -77.039364, "fusion_lat": 0.0, "type": "electric_scooter", "lat": 38.8993325, "is_disabled": 0, "name": "1dad75557fe6c9008e90d48f0b2f7bd1", "is_reserved": 0, "bike_id": "1dad75557fe6c9008e90d48f0b2f7bd1", "fusion_lon": 0.0, "rental_uris": {"ios": "https://dc.lft.to/lastmile_qr_scan", "android": "https://dc.lft.to/lastmile_qr_scan"}}, {"lon": -77.029733, "fusion_lat": 0.0, "type": "electric_scooter", "lat": 38.92926583333333, "is_disabled": 0, "name": "1095c3d6a9c6d12e31a0e0aa9d9e7097", "is_reserved": 0, "bike_id": "1095c3d6a9c6d12e31a0e0aa9d9e7097", "fusion_lon": 0.0, "rental_uris": {"ios": "https://dc.lft.to/lastmile_qr_scan", "android": "https://dc.lft.to/lastmile_qr_scan"}}, {"lon": -77.04232066666667, "fusion_lat": 0.0, "type": "electric_scooter", "lat": 38.90579, "is_disabled": 0, "name": "9d812ba0b5d8ae037a053e5c697fcd0e", "is_reserved": 0, "bike_id": "9d812ba0b5d8ae037a053e5c697fcd0e", "fusion_lon": 0.0, "rental_uris": {"ios": "https://dc.lft.to/lastmile_qr_scan", "android": "https://dc.lft.to/lastmile_qr_scan"}}, {"lon": -77.0255655, "fusion_lat": 0.0, "type": "electric_scooter", "lat": 38.94167783333333, "is_disabled": 0, "name": "ef63fbe84ea48bf0e45ab6cbfafa8ad7", "is_reserved": 0, "bike_id": "ef63fbe84ea48bf0e45ab6cbfafa8ad7", "fusion_lon": 0.0, "rental_uris": {"ios": "https://dc.lft.to/lastmile_qr_scan", "android": "https://dc.lft.to/lastmile_qr_scan"}}, {"lon": -77.0346195, "fusion_lat": 0.0, "type": "electric_scooter", "lat": 38.9207, "is_disabled": 0, "name": "d86803b4a37ea79ef7501b798bae2ca1", "is_reserved": 0, "bike_id": "d86803b4a37ea79ef7501b798bae2ca1", "fusion_lon": 0.0, "rental_uris": {"ios": "https://dc.lft.to/lastmile_qr_scan", "android": "https://dc.lft.to/lastmile_qr_scan"}}, {"lon": -77.000145, "fusion_lat": 0.0, "type": "electric_scooter", "lat": 38.90743583333333, "is_disabled": 0, "name": "df0eed95d0c77327bdb0f9528166ae23", "is_reserved": 0, "bike_id": "df0eed95d0c77327bdb0f9528166ae23", "fusion_lon": 0.0, "rental_uris": {"ios": "https://dc.lft.to/lastmile_qr_scan", "android": "https://dc.lft.to/lastmile_qr_scan"}}, {"lon": -77.02179033333333, "fusion_lat": 0.0, "type": "electric_scooter", "lat": 38.8846775, "is_disabled": 0, "name": "6e94b3ac881ea773b41e210f5281279e", "is_reserved": 0, "bike_id": "6e94b3ac881ea773b41e210f5281279e", "fusion_lon": 0.0, "rental_uris": {"ios": "https://dc.lft.to/lastmile_qr_scan", "android": "https://dc.lft.to/lastmile_qr_scan"}}, {"lon": -77.08018966666667, "fusion_lat": 0.0, "type": "electric_scooter", "lat": 38.94854483333334, "is_disabled": 0, "name": "15e7ca86bdacca5345093bf9bbfd3f07", "is_reserved": 0, "bike_id": "15e7ca86bdacca5345093bf9bbfd3f07", "fusion_lon": 0.0, "rental_uris": {"ios": "https://dc.lft.to/lastmile_qr_scan", "android": "https://dc.lft.to/lastmile_qr_scan"}}, {"lon": -77.03196033333333, "fusion_lat": 0.0, "type": "electric_scooter", "lat": 38.92109116666666, "is_disabled": 0, "name": "af667a51437141aebf1dc5eba8b56a08", "is_reserved": 0, "bike_id": "af667a51437141aebf1dc5eba8b56a08", "fusion_lon": 0.0, "rental_uris": {"ios": "https://dc.lft.to/lastmile_qr_scan", "android": "https://dc.lft.to/lastmile_qr_scan"}}, {"lon": -77.02414333333333, "fusion_lat": 0.0, "type": "electric_scooter", "lat": 38.92072783333333, "is_disabled": 0, "name": "6e2fd015f1ca0f2b7a1c92e55c991d43", "is_reserved": 0, "bike_id": "6e2fd015f1ca0f2b7a1c92e55c991d43", "fusion_lon": 0.0, "rental_uris": {"ios": "https://dc.lft.to/lastmile_qr_scan", "android": "https://dc.lft.to/lastmile_qr_scan"}}, {"lon": -76.983365, "fusion_lat": 0.0, "type": "electric_scooter", "lat": 38.895436833333335, "is_disabled": 0, "name": "d8469db6555a8e714f46fd56a6bf2887", "is_reserved": 0, "bike_id": "d8469db6555a8e714f46fd56a6bf2887", "fusion_lon": 0.0, "rental_uris": {"ios": "https://dc.lft.to/lastmile_qr_scan", "android": "https://dc.lft.to/lastmile_qr_scan"}}, {"lon": -76.99613666666667, "fusion_lat": 0.0, "type": "electric_scooter", "lat": 38.876652666666665, "is_disabled": 0, "name": "6da957e19a7e86cbd22efdb0c375f103", "is_reserved": 0, "bike_id": "6da957e19a7e86cbd22efdb0c375f103", "fusion_lon": 0.0, "rental_uris": {"ios": "https://dc.lft.to/lastmile_qr_scan", "android": "https://dc.lft.to/lastmile_qr_scan"}}, {"lon": -76.94251383333334, "fusion_lat": 0.0, "type": "electric_bike", "lat": 38.947932, "is_disabled": 0, "name": "917747ccd26eed0c4c26c308ea7bd282", "is_reserved": 0, "bike_id": "917747ccd26eed0c4c26c308ea7bd282", "fusion_lon": 0.0, "rental_uris": {"ios": "https://dc.lft.to/lastmile_qr_scan", "android": "https://dc.lft.to/lastmile_qr_scan"}}, {"lon": -77.017891, "fusion_lat": 0.0, "type": "electric_scooter", "lat": 38.91978683333333, "is_disabled": 0, "name": "1b8fb128d535a5739b143d2fbf0fa343", "is_reserved": 0, "bike_id": "1b8fb128d535a5739b143d2fbf0fa343", "fusion_lon": 0.0, "rental_uris": {"ios": "https://dc.lft.to/lastmile_qr_scan", "android": "https://dc.lft.to/lastmile_qr_scan"}}, {"lon": -77.03354, "fusion_lat": 0.0, "type": "electric_scooter", "lat": 38.90287166666667, "is_disabled": 0, "name": "9e77777a79eca8cb1ebf0d915bd0ea8c", "is_reserved": 0, "bike_id": "9e77777a79eca8cb1ebf0d915bd0ea8c", "fusion_lon": 0.0, "rental_uris": {"ios": "https://dc.lft.to/lastmile_qr_scan", "android": "https://dc.lft.to/lastmile_qr_scan"}}, {"lon": -77.02544716666667, "fusion_lat": 0.0, "type": "electric_scooter", "lat": 38.88068833333333, "is_disabled": 0, "name": "94d533e469f39cf7c445f13fedb44686", "is_reserved": 0, "bike_id": "94d533e469f39cf7c445f13fedb44686", "fusion_lon": 0.0, "rental_uris": {"ios": "https://dc.lft.to/lastmile_qr_scan", "android": "https://dc.lft.to/lastmile_qr_scan"}}, {"lon": -77.041417, "fusion_lat": 0.0, "type": "electric_scooter", "lat": 38.92295633333333, "is_disabled": 0, "name": "deec6e8059102fc776d2654f5ab7058f", "is_reserved": 0, "bike_id": "deec6e8059102fc776d2654f5ab7058f", "fusion_lon": 0.0, "rental_uris": {"ios": "https://dc.lft.to/lastmile_qr_scan", "android": "https://dc.lft.to/lastmile_qr_scan"}}, {"lon": -77.03200366666667, "fusion_lat": 0.0, "type": "electric_scooter", "lat": 38.913425833333335, "is_disabled": 0, "name": "c5706b21019e9b5f378317316438a0f3", "is_reserved": 0, "bike_id": "c5706b21019e9b5f378317316438a0f3", "fusion_lon": 0.0, "rental_uris": {"ios": "https://dc.lft.to/lastmile_qr_scan", "android": "https://dc.lft.to/lastmile_qr_scan"}}, {"lon": -76.98985266666666, "fusion_lat": 0.0, "type": "electric_scooter", "lat": 38.92449916666666, "is_disabled": 0, "name": "d107860f0ea5da6db4e59f66953f3239", "is_reserved": 0, "bike_id": "d107860f0ea5da6db4e59f66953f3239", "fusion_lon": 0.0, "rental_uris": {"ios": "https://dc.lft.to/lastmile_qr_scan", "android": "https://dc.lft.to/lastmile_qr_scan"}}, {"lon": -77.0241635, "fusion_lat": 0.0, "type": "electric_scooter", "lat": 38.9207475, "is_disabled": 0, "name": "ac2b04040239d859f5b5c6b8a9e9ecb9", "is_reserved": 0, "bike_id": "ac2b04040239d859f5b5c6b8a9e9ecb9", "fusion_lon": 0.0, "rental_uris": {"ios": "https://dc.lft.to/lastmile_qr_scan", "android": "https://dc.lft.to/lastmile_qr_scan"}}, {"lon": -77.01832116666667, "fusion_lat": 0.0, "type": "electric_scooter", "lat": 38.90276466666667, "is_disabled": 0, "name": "9f60daac8070bbfb8800b3de015eee87", "is_reserved": 0, "bike_id": "9f60daac8070bbfb8800b3de015eee87", "fusion_lon": 0.0, "rental_uris": {"ios": "https://dc.lft.to/lastmile_qr_scan", "android": "https://dc.lft.to/lastmile_qr_scan"}}, {"lon": -77.03343833333334, "fusion_lat": 0.0, "type": "electric_scooter", "lat": 38.913537833333336, "is_disabled": 0, "name": "58117f6e855fc56190bedee5f0ecc047", "is_reserved": 0, "bike_id": "58117f6e855fc56190bedee5f0ecc047", "fusion_lon": 0.0, "rental_uris": {"ios": "https://dc.lft.to/lastmile_qr_scan", "android": "https://dc.lft.to/lastmile_qr_scan"}}, {"lon": -77.04864633333334, "fusion_lat": 0.0, "type": "electric_scooter", "lat": 38.91616333333333, "is_disabled": 0, "name": "85a4dadf027e15c7c544e716b0a95206", "is_reserved": 0, "bike_id": "85a4dadf027e15c7c544e716b0a95206", "fusion_lon": 0.0, "rental_uris": {"ios": "https://dc.lft.to/lastmile_qr_scan", "android": "https://dc.lft.to/lastmile_qr_scan"}}, {"lon": -77.03822116666667, "fusion_lat": 0.0, "type": "electric_scooter", "lat": 38.92468016666667, "is_disabled": 0, "name": "67bfb46ac2feb880ed7333f309e72364", "is_reserved": 0, "bike_id": "67bfb46ac2feb880ed7333f309e72364", "fusion_lon": 0.0, "rental_uris": {"ios": "https://dc.lft.to/lastmile_qr_scan", "android": "https://dc.lft.to/lastmile_qr_scan"}}, {"lon": -77.00979316666667, "fusion_lat": 0.0, "type": "electric_scooter", "lat": 38.91336616666667, "is_disabled": 0, "name": "4b7af2af4cdd0aa68f5dba4a9131652c", "is_reserved": 0, "bike_id": "4b7af2af4cdd0aa68f5dba4a9131652c", "fusion_lon": 0.0, "rental_uris": {"ios": "https://dc.lft.to/lastmile_qr_scan", "android": "https://dc.lft.to/lastmile_qr_scan"}}, {"lon": -77.0427835, "fusion_lat": 0.0, "type": "electric_scooter", "lat": 38.906508333333335, "is_disabled": 0, "name": "7e9e9033979d905356cb1f930050fb95", "is_reserved": 0, "bike_id": "7e9e9033979d905356cb1f930050fb95", "fusion_lon": 0.0, "rental_uris": {"ios": "https://dc.lft.to/lastmile_qr_scan", "android": "https://dc.lft.to/lastmile_qr_scan"}}, {"lon": -77.02089133333334, "fusion_lat": 0.0, "type": "electric_scooter", "lat": 38.93264116666667, "is_disabled": 0, "name": "f4856964883bd512529088483b5bd805", "is_reserved": 0, "bike_id": "f4856964883bd512529088483b5bd805", "fusion_lon": 0.0, "rental_uris": {"ios": "https://dc.lft.to/lastmile_qr_scan", "android": "https://dc.lft.to/lastmile_qr_scan"}}, {"lon": -77.05525066666667, "fusion_lat": 0.0, "type": "electric_scooter", "lat": 38.89727333333333, "is_disabled": 0, "name": "fe64ad144058d278a0242ee6cff8b2da", "is_reserved": 0, "bike_id": "fe64ad144058d278a0242ee6cff8b2da", "fusion_lon": 0.0, "rental_uris": {"ios": "https://dc.lft.to/lastmile_qr_scan", "android": "https://dc.lft.to/lastmile_qr_scan"}}, {"lon": -77.04864516666666, "fusion_lat": 0.0, "type": "electric_scooter", "lat": 38.904758666666666, "is_disabled": 0, "name": "991c28850e21edca93caf694b013192a", "is_reserved": 0, "bike_id": "991c28850e21edca93caf694b013192a", "fusion_lon": 0.0, "rental_uris": {"ios": "https://dc.lft.to/lastmile_qr_scan", "android": "https://dc.lft.to/lastmile_qr_scan"}}, {"lon": -77.03180533333334, "fusion_lat": 0.0, "type": "electric_scooter", "lat": 38.908644333333335, "is_disabled": 0, "name": "5f2ea5adc5a63064dfabee750b18360c", "is_reserved": 0, "bike_id": "5f2ea5adc5a63064dfabee750b18360c", "fusion_lon": 0.0, "rental_uris": {"ios": "https://dc.lft.to/lastmile_qr_scan", "android": "https://dc.lft.to/lastmile_qr_scan"}}, {"lon": -77.03567466666667, "fusion_lat": 0.0, "type": "electric_scooter", "lat": 38.9046605, "is_disabled": 0, "name": "cf860011ff5718c78381bd834ee239f2", "is_reserved": 0, "bike_id": "cf860011ff5718c78381bd834ee239f2", "fusion_lon": 0.0, "rental_uris": {"ios": "https://dc.lft.to/lastmile_qr_scan", "android": "https://dc.lft.to/lastmile_qr_scan"}}, {"lon": -77.030843, "fusion_lat": 0.0, "type": "electric_scooter", "lat": 38.898202, "is_disabled": 0, "name": "cf3471480b929dc6aadad13e62e0bafc", "is_reserved": 0, "bike_id": "cf3471480b929dc6aadad13e62e0bafc", "fusion_lon": 0.0, "rental_uris": {"ios": "https://dc.lft.to/lastmile_qr_scan", "android": "https://dc.lft.to/lastmile_qr_scan"}}, {"lon": -77.05074283333333, "fusion_lat": 0.0, "type": "electric_scooter", "lat": 38.900577, "is_disabled": 0, "name": "66d4cf59b26bcc75bf20be8447f16c6e", "is_reserved": 0, "bike_id": "66d4cf59b26bcc75bf20be8447f16c6e", "fusion_lon": 0.0, "rental_uris": {"ios": "https://dc.lft.to/lastmile_qr_scan", "android": "https://dc.lft.to/lastmile_qr_scan"}}, {"lon": -77.03641283333333, "fusion_lat": 0.0, "type": "electric_scooter", "lat": 38.9036935, "is_disabled": 0, "name": "3476d420298f9ea615db15061559cf6a", "is_reserved": 0, "bike_id": "3476d420298f9ea615db15061559cf6a", "fusion_lon": 0.0, "rental_uris": {"ios": "https://dc.lft.to/lastmile_qr_scan", "android": "https://dc.lft.to/lastmile_qr_scan"}}, {"lon": -77.03266883333333, "fusion_lat": 0.0, "type": "electric_scooter", "lat": 38.9192115, "is_disabled": 0, "name": "ee4e0373e3a22dc62b8096a58b076825", "is_reserved": 0, "bike_id": "ee4e0373e3a22dc62b8096a58b076825", "fusion_lon": 0.0, "rental_uris": {"ios": "https://dc.lft.to/lastmile_qr_scan", "android": "https://dc.lft.to/lastmile_qr_scan"}}, {"lon": -76.986798, "fusion_lat": 0.0, "type": "electric_scooter", "lat": 38.900116, "is_disabled": 0, "name": "3040f848031577ac5fee0c6c4b8e3fcd", "is_reserved": 0, "bike_id": "3040f848031577ac5fee0c6c4b8e3fcd", "fusion_lon": 0.0, "rental_uris": {"ios": "https://dc.lft.to/lastmile_qr_scan", "android": "https://dc.lft.to/lastmile_qr_scan"}}, {"lon": -77.03916883333333, "fusion_lat": 0.0, "type": "electric_bike", "lat": 39.03562816666667, "is_disabled": 0, "name": "68597d5a3c7b499c8bbe1db27727fccd", "is_reserved": 0, "bike_id": "68597d5a3c7b499c8bbe1db27727fccd", "fusion_lon": 0.0, "rental_uris": {"ios": "https://dc.lft.to/lastmile_qr_scan", "android": "https://dc.lft.to/lastmile_qr_scan"}}, {"lon": -77.03216266666666, "fusion_lat": 0.0, "type": "electric_scooter", "lat": 38.9118435, "is_disabled": 0, "name": "26afe39d646d5eb7f3bbafd4c9bfdb3a", "is_reserved": 0, "bike_id": "26afe39d646d5eb7f3bbafd4c9bfdb3a", "fusion_lon": 0.0, "rental_uris": {"ios": "https://dc.lft.to/lastmile_qr_scan", "android": "https://dc.lft.to/lastmile_qr_scan"}}, {"lon": -77.01547766666667, "fusion_lat": 0.0, "type": "electric_scooter", "lat": 38.907725, "is_disabled": 0, "name": "50cddecebcda453944339a73dcbec6ca", "is_reserved": 0, "bike_id": "50cddecebcda453944339a73dcbec6ca", "fusion_lon": 0.0, "rental_uris": {"ios": "https://dc.lft.to/lastmile_qr_scan", "android": "https://dc.lft.to/lastmile_qr_scan"}}, {"lon": -77.01119383333334, "fusion_lat": 0.0, "type": "electric_scooter", "lat": 38.89508633333333, "is_disabled": 0, "name": "2838bc3a629bb7a5ce5f91dd2b73abff", "is_reserved": 0, "bike_id": "2838bc3a629bb7a5ce5f91dd2b73abff", "fusion_lon": 0.0, "rental_uris": {"ios": "https://dc.lft.to/lastmile_qr_scan", "android": "https://dc.lft.to/lastmile_qr_scan"}}, {"lon": -77.03167216666667, "fusion_lat": 0.0, "type": "electric_scooter", "lat": 38.893074166666665, "is_disabled": 0, "name": "5c56bf5e7f235b4e2cb2820ee6f71d3d", "is_reserved": 0, "bike_id": "5c56bf5e7f235b4e2cb2820ee6f71d3d", "fusion_lon": 0.0, "rental_uris": {"ios": "https://dc.lft.to/lastmile_qr_scan", "android": "https://dc.lft.to/lastmile_qr_scan"}}, {"lon": -77.03257333333333, "fusion_lat": 0.0, "type": "electric_scooter", "lat": 38.92806433333333, "is_disabled": 0, "name": "0eb45215f5dfc687bc09812a0c304a26", "is_reserved": 0, "bike_id": "0eb45215f5dfc687bc09812a0c304a26", "fusion_lon": 0.0, "rental_uris": {"ios": "https://dc.lft.to/lastmile_qr_scan", "android": "https://dc.lft.to/lastmile_qr_scan"}}, {"lon": -77.02751366666666, "fusion_lat": 0.0, "type": "electric_scooter", "lat": 38.896715, "is_disabled": 0, "name": "e3479e99b2a961f35497c735bfe113e7", "is_reserved": 0, "bike_id": "e3479e99b2a961f35497c735bfe113e7", "fusion_lon": 0.0, "rental_uris": {"ios": "https://dc.lft.to/lastmile_qr_scan", "android": "https://dc.lft.to/lastmile_qr_scan"}}, {"lon": -77.0320965, "fusion_lat": 0.0, "type": "electric_scooter", "lat": 38.897609333333335, "is_disabled": 0, "name": "c268b34cdc6a50d01b8ce3f9b9d5bdda", "is_reserved": 0, "bike_id": "c268b34cdc6a50d01b8ce3f9b9d5bdda", "fusion_lon": 0.0, "rental_uris": {"ios": "https://dc.lft.to/lastmile_qr_scan", "android": "https://dc.lft.to/lastmile_qr_scan"}}, {"lon": -77.07111216666667, "fusion_lat": 0.0, "type": "electric_scooter", "lat": 38.919725666666665, "is_disabled": 0, "name": "d1875d6a5adc0fa77cf6b639b4c7b90a", "is_reserved": 0, "bike_id": "d1875d6a5adc0fa77cf6b639b4c7b90a", "fusion_lon": 0.0, "rental_uris": {"ios": "https://dc.lft.to/lastmile_qr_scan", "android": "https://dc.lft.to/lastmile_qr_scan"}}, {"lon": -77.01503733333334, "fusion_lat": 0.0, "type": "electric_scooter", "lat": 38.92671983333334, "is_disabled": 0, "name": "34f619fee1783f563cb911d4330bc6d1", "is_reserved": 0, "bike_id": "34f619fee1783f563cb911d4330bc6d1", "fusion_lon": 0.0, "rental_uris": {"ios": "https://dc.lft.to/lastmile_qr_scan", "android": "https://dc.lft.to/lastmile_qr_scan"}}, {"lon": -76.98539666666667, "fusion_lat": 0.0, "type": "electric_scooter", "lat": 38.88528483333333, "is_disabled": 0, "name": "975c3ace418af9bfcf905bd9ee308585", "is_reserved": 0, "bike_id": "975c3ace418af9bfcf905bd9ee308585", "fusion_lon": 0.0, "rental_uris": {"ios": "https://dc.lft.to/lastmile_qr_scan", "android": "https://dc.lft.to/lastmile_qr_scan"}}, {"lon": -77.00581866666667, "fusion_lat": 0.0, "type": "electric_scooter", "lat": 38.875782, "is_disabled": 0, "name": "62751055c49e9da860916d75b5d7a47c", "is_reserved": 0, "bike_id": "62751055c49e9da860916d75b5d7a47c", "fusion_lon": 0.0, "rental_uris": {"ios": "https://dc.lft.to/lastmile_qr_scan", "android": "https://dc.lft.to/lastmile_qr_scan"}}, {"lon": -76.997846, "fusion_lat": 0.0, "type": "electric_scooter", "lat": 38.935588833333334, "is_disabled": 0, "name": "890ff017d730dbe7bb9af87ca283abe4", "is_reserved": 0, "bike_id": "890ff017d730dbe7bb9af87ca283abe4", "fusion_lon": 0.0, "rental_uris": {"ios": "https://dc.lft.to/lastmile_qr_scan", "android": "https://dc.lft.to/lastmile_qr_scan"}}, {"lon": -77.02846883333333, "fusion_lat": 0.0, "type": "electric_scooter", "lat": 38.93522266666667, "is_disabled": 0, "name": "69f48eec28ce4a49bfd268e156dd1b06", "is_reserved": 0, "bike_id": "69f48eec28ce4a49bfd268e156dd1b06", "fusion_lon": 0.0, "rental_uris": {"ios": "https://dc.lft.to/lastmile_qr_scan", "android": "https://dc.lft.to/lastmile_qr_scan"}}, {"lon": -77.00086133333333, "fusion_lat": 0.0, "type": "electric_scooter", "lat": 38.8736865, "is_disabled": 0, "name": "7557cef268f2d4548cea11b30d253009", "is_reserved": 0, "bike_id": "7557cef268f2d4548cea11b30d253009", "fusion_lon": 0.0, "rental_uris": {"ios": "https://dc.lft.to/lastmile_qr_scan", "android": "https://dc.lft.to/lastmile_qr_scan"}}, {"lon": -77.03640166666666, "fusion_lat": 0.0, "type": "electric_scooter", "lat": 38.90084216666666, "is_disabled": 0, "name": "76dee6dcc34bd4fb4933ce5e3e8080fc", "is_reserved": 0, "bike_id": "76dee6dcc34bd4fb4933ce5e3e8080fc", "fusion_lon": 0.0, "rental_uris": {"ios": "https://dc.lft.to/lastmile_qr_scan", "android": "https://dc.lft.to/lastmile_qr_scan"}}, {"lon": -77.03046883333333, "fusion_lat": 0.0, "type": "electric_scooter", "lat": 38.896113166666666, "is_disabled": 0, "name": "7f9bd789d40164a2a32ef93ed8c3499d", "is_reserved": 0, "bike_id": "7f9bd789d40164a2a32ef93ed8c3499d", "fusion_lon": 0.0, "rental_uris": {"ios": "https://dc.lft.to/lastmile_qr_scan", "android": "https://dc.lft.to/lastmile_qr_scan"}}, {"lon": -77.0191475, "fusion_lat": 0.0, "type": "electric_scooter", "lat": 38.9142245, "is_disabled": 0, "name": "ca9c5dd46ca23790aba2c99932737f46", "is_reserved": 0, "bike_id": "ca9c5dd46ca23790aba2c99932737f46", "fusion_lon": 0.0, "rental_uris": {"ios": "https://dc.lft.to/lastmile_qr_scan", "android": "https://dc.lft.to/lastmile_qr_scan"}}, {"lon": -77.03224216666666, "fusion_lat": 0.0, "type": "electric_scooter", "lat": 38.90271416666667, "is_disabled": 0, "name": "3e28b056744aab18c80b8c99f2487ca6", "is_reserved": 0, "bike_id": "3e28b056744aab18c80b8c99f2487ca6", "fusion_lon": 0.0, "rental_uris": {"ios": "https://dc.lft.to/lastmile_qr_scan", "android": "https://dc.lft.to/lastmile_qr_scan"}}, {"lon": -77.0075455, "fusion_lat": 0.0, "type": "electric_scooter", "lat": 38.90033583333334, "is_disabled": 0, "name": "b50ff46fded159597743219e215beb26", "is_reserved": 0, "bike_id": "b50ff46fded159597743219e215beb26", "fusion_lon": 0.0, "rental_uris": {"ios": "https://dc.lft.to/lastmile_qr_scan", "android": "https://dc.lft.to/lastmile_qr_scan"}}, {"lon": -76.93263283333333, "fusion_lat": 0.0, "type": "electric_scooter", "lat": 38.8876845, "is_disabled": 0, "name": "d6f4462e202a302a562c74b389a36b73", "is_reserved": 0, "bike_id": "d6f4462e202a302a562c74b389a36b73", "fusion_lon": 0.0, "rental_uris": {"ios": "https://dc.lft.to/lastmile_qr_scan", "android": "https://dc.lft.to/lastmile_qr_scan"}}, {"lon": -77.02279616666667, "fusion_lat": 0.0, "type": "electric_scooter", "lat": 38.926832166666664, "is_disabled": 0, "name": "39af6f54c3461f578d9330106c89cc63", "is_reserved": 0, "bike_id": "39af6f54c3461f578d9330106c89cc63", "fusion_lon": 0.0, "rental_uris": {"ios": "https://dc.lft.to/lastmile_qr_scan", "android": "https://dc.lft.to/lastmile_qr_scan"}}, {"lon": -77.01604933333333, "fusion_lat": 0.0, "type": "electric_scooter", "lat": 38.909679, "is_disabled": 0, "name": "53e519b28b8a385772e57ecd75ac384b", "is_reserved": 0, "bike_id": "53e519b28b8a385772e57ecd75ac384b", "fusion_lon": 0.0, "rental_uris": {"ios": "https://dc.lft.to/lastmile_qr_scan", "android": "https://dc.lft.to/lastmile_qr_scan"}}, {"lon": -77.03378216666667, "fusion_lat": 0.0, "type": "electric_scooter", "lat": 38.901791333333335, "is_disabled": 0, "name": "e84216567865d5b6357375cdf1a6b448", "is_reserved": 0, "bike_id": "e84216567865d5b6357375cdf1a6b448", "fusion_lon": 0.0, "rental_uris": {"ios": "https://dc.lft.to/lastmile_qr_scan", "android": "https://dc.lft.to/lastmile_qr_scan"}}, {"lon": -76.990338, "fusion_lat": 0.0, "type": "electric_scooter", "lat": 38.888807, "is_disabled": 0, "name": "410268edbeff341360be61c66ec5a656", "is_reserved": 0, "bike_id": "410268edbeff341360be61c66ec5a656", "fusion_lon": 0.0, "rental_uris": {"ios": "https://dc.lft.to/lastmile_qr_scan", "android": "https://dc.lft.to/lastmile_qr_scan"}}, {"lon": -76.99678133333333, "fusion_lat": 0.0, "type": "electric_scooter", "lat": 38.88723533333334, "is_disabled": 0, "name": "61f6cdcd83e9552f03ecd06d9515459c", "is_reserved": 0, "bike_id": "61f6cdcd83e9552f03ecd06d9515459c", "fusion_lon": 0.0, "rental_uris": {"ios": "https://dc.lft.to/lastmile_qr_scan", "android": "https://dc.lft.to/lastmile_qr_scan"}}, {"lon": -77.03907333333333, "fusion_lat": 0.0, "type": "electric_scooter", "lat": 38.924913833333335, "is_disabled": 0, "name": "e34642811ed6958ec798e9baf8c010d6", "is_reserved": 0, "bike_id": "e34642811ed6958ec798e9baf8c010d6", "fusion_lon": 0.0, "rental_uris": {"ios": "https://dc.lft.to/lastmile_qr_scan", "android": "https://dc.lft.to/lastmile_qr_scan"}}, {"lon": -77.02563616666667, "fusion_lat": 0.0, "type": "electric_scooter", "lat": 38.920693166666666, "is_disabled": 0, "name": "d2128fc277c68c5e165a52d28d514779", "is_reserved": 0, "bike_id": "d2128fc277c68c5e165a52d28d514779", "fusion_lon": 0.0, "rental_uris": {"ios": "https://dc.lft.to/lastmile_qr_scan", "android": "https://dc.lft.to/lastmile_qr_scan"}}, {"lon": -77.06111033333333, "fusion_lat": 0.0, "type": "electric_scooter", "lat": 38.902665, "is_disabled": 0, "name": "304f8f3b1d86cea3e52d105eb7469394", "is_reserved": 0, "bike_id": "304f8f3b1d86cea3e52d105eb7469394", "fusion_lon": 0.0, "rental_uris": {"ios": "https://dc.lft.to/lastmile_qr_scan", "android": "https://dc.lft.to/lastmile_qr_scan"}}, {"lon": -77.022873, "fusion_lat": 0.0, "type": "electric_scooter", "lat": 38.91490116666667, "is_disabled": 0, "name": "1c7a5bcb9be1b4e401059dcace944b84", "is_reserved": 0, "bike_id": "1c7a5bcb9be1b4e401059dcace944b84", "fusion_lon": 0.0, "rental_uris": {"ios": "https://dc.lft.to/lastmile_qr_scan", "android": "https://dc.lft.to/lastmile_qr_scan"}}, {"lon": -76.98226433333333, "fusion_lat": 0.0, "type": "electric_scooter", "lat": 38.8647335, "is_disabled": 0, "name": "f61f47ebf69c0dfe588ff0fb103acf6d", "is_reserved": 0, "bike_id": "f61f47ebf69c0dfe588ff0fb103acf6d", "fusion_lon": 0.0, "rental_uris": {"ios": "https://dc.lft.to/lastmile_qr_scan", "android": "https://dc.lft.to/lastmile_qr_scan"}}, {"lon": -77.02304266666667, "fusion_lat": 0.0, "type": "electric_scooter", "lat": 38.917487333333334, "is_disabled": 0, "name": "397d81fed629a6e659b99047f09ff216", "is_reserved": 0, "bike_id": "397d81fed629a6e659b99047f09ff216", "fusion_lon": 0.0, "rental_uris": {"ios": "https://dc.lft.to/lastmile_qr_scan", "android": "https://dc.lft.to/lastmile_qr_scan"}}, {"lon": -77.028259, "fusion_lat": 0.0, "type": "electric_scooter", "lat": 38.8984455, "is_disabled": 0, "name": "66da4c4c34766281af827bc389d5e912", "is_reserved": 0, "bike_id": "66da4c4c34766281af827bc389d5e912", "fusion_lon": 0.0, "rental_uris": {"ios": "https://dc.lft.to/lastmile_qr_scan", "android": "https://dc.lft.to/lastmile_qr_scan"}}, {"lon": -77.02595066666666, "fusion_lat": 0.0, "type": "electric_scooter", "lat": 38.904194833333335, "is_disabled": 0, "name": "7f831dc3e8ccc2e86468dcdab26a7ed0", "is_reserved": 0, "bike_id": "7f831dc3e8ccc2e86468dcdab26a7ed0", "fusion_lon": 0.0, "rental_uris": {"ios": "https://dc.lft.to/lastmile_qr_scan", "android": "https://dc.lft.to/lastmile_qr_scan"}}, {"lon": -77.23409416666667, "fusion_lat": 0.0, "type": "electric_bike", "lat": 38.87578216666667, "is_disabled": 0, "name": "8badafa8def2ba547a2a0fb3adeeeb8d", "is_reserved": 0, "bike_id": "8badafa8def2ba547a2a0fb3adeeeb8d", "fusion_lon": 0.0, "rental_uris": {"ios": "https://dc.lft.to/lastmile_qr_scan", "android": "https://dc.lft.to/lastmile_qr_scan"}}, {"lon": -77.02497066666666, "fusion_lat": 0.0, "type": "electric_scooter", "lat": 38.925868666666666, "is_disabled": 0, "name": "1bfd806b7ae9959f515c205d75728d5c", "is_reserved": 0, "bike_id": "1bfd806b7ae9959f515c205d75728d5c", "fusion_lon": 0.0, "rental_uris": {"ios": "https://dc.lft.to/lastmile_qr_scan", "android": "https://dc.lft.to/lastmile_qr_scan"}}, {"lon": -76.96900066666667, "fusion_lat": 0.0, "type": "electric_scooter", "lat": 38.865063666666664, "is_disabled": 0, "name": "60c27df798e933904f97b26a667fcfb3", "is_reserved": 0, "bike_id": "60c27df798e933904f97b26a667fcfb3", "fusion_lon": 0.0, "rental_uris": {"ios": "https://dc.lft.to/lastmile_qr_scan", "android": "https://dc.lft.to/lastmile_qr_scan"}}, {"lon": -76.98214466666667, "fusion_lat": 0.0, "type": "electric_scooter", "lat": 38.857067, "is_disabled": 0, "name": "02cea7d13035286d689c3c7bc2728610", "is_reserved": 0, "bike_id": "02cea7d13035286d689c3c7bc2728610", "fusion_lon": 0.0, "rental_uris": {"ios": "https://dc.lft.to/lastmile_qr_scan", "android": "https://dc.lft.to/lastmile_qr_scan"}}, {"lon": -77.02382616666667, "fusion_lat": 0.0, "type": "electric_scooter", "lat": 38.92051933333333, "is_disabled": 0, "name": "53b9e1403b6f55a76ed6733c5e5418b5", "is_reserved": 0, "bike_id": "53b9e1403b6f55a76ed6733c5e5418b5", "fusion_lon": 0.0, "rental_uris": {"ios": "https://dc.lft.to/lastmile_qr_scan", "android": "https://dc.lft.to/lastmile_qr_scan"}}, {"lon": -76.991619, "fusion_lat": 0.0, "type": "electric_scooter", "lat": 38.88073, "is_disabled": 0, "name": "d14c424e2937dea0b6584b62bdaf507b", "is_reserved": 0, "bike_id": "d14c424e2937dea0b6584b62bdaf507b", "fusion_lon": 0.0, "rental_uris": {"ios": "https://dc.lft.to/lastmile_qr_scan", "android": "https://dc.lft.to/lastmile_qr_scan"}}, {"lon": -77.05437, "fusion_lat": 0.0, "type": "electric_scooter", "lat": 38.928550666666666, "is_disabled": 0, "name": "e40b2df449d22459d3b8ac4adf7f1b38", "is_reserved": 0, "bike_id": "e40b2df449d22459d3b8ac4adf7f1b38", "fusion_lon": 0.0, "rental_uris": {"ios": "https://dc.lft.to/lastmile_qr_scan", "android": "https://dc.lft.to/lastmile_qr_scan"}}, {"lon": -77.00599266666667, "fusion_lat": 0.0, "type": "electric_scooter", "lat": 38.8756315, "is_disabled": 0, "name": "7206b80160b1241d59a50860c69887d4", "is_reserved": 0, "bike_id": "7206b80160b1241d59a50860c69887d4", "fusion_lon": 0.0, "rental_uris": {"ios": "https://dc.lft.to/lastmile_qr_scan", "android": "https://dc.lft.to/lastmile_qr_scan"}}, {"lon": -77.02124866666666, "fusion_lat": 0.0, "type": "electric_scooter", "lat": 38.899558, "is_disabled": 0, "name": "95bc83817fe02b21b52151b0f2aca47a", "is_reserved": 0, "bike_id": "95bc83817fe02b21b52151b0f2aca47a", "fusion_lon": 0.0, "rental_uris": {"ios": "https://dc.lft.to/lastmile_qr_scan", "android": "https://dc.lft.to/lastmile_qr_scan"}}, {"lon": -77.01465466666667, "fusion_lat": 0.0, "type": "electric_scooter", "lat": 38.926629, "is_disabled": 0, "name": "d71915531ddef4ab0a6e4f438e58ecbc", "is_reserved": 0, "bike_id": "d71915531ddef4ab0a6e4f438e58ecbc", "fusion_lon": 0.0, "rental_uris": {"ios": "https://dc.lft.to/lastmile_qr_scan", "android": "https://dc.lft.to/lastmile_qr_scan"}}, {"lon": -77.0660305, "fusion_lat": 0.0, "type": "electric_scooter", "lat": 38.905197333333334, "is_disabled": 0, "name": "1752b54e406f4b402a735b36e8cf9f43", "is_reserved": 0, "bike_id": "1752b54e406f4b402a735b36e8cf9f43", "fusion_lon": 0.0, "rental_uris": {"ios": "https://dc.lft.to/lastmile_qr_scan", "android": "https://dc.lft.to/lastmile_qr_scan"}}, {"lon": -77.03459483333333, "fusion_lat": 0.0, "type": "electric_scooter", "lat": 38.905650666666666, "is_disabled": 0, "name": "6623644a83f6971a6be29269b59e6d79", "is_reserved": 0, "bike_id": "6623644a83f6971a6be29269b59e6d79", "fusion_lon": 0.0, "rental_uris": {"ios": "https://dc.lft.to/lastmile_qr_scan", "android": "https://dc.lft.to/lastmile_qr_scan"}}, {"lon": -77.03705016666666, "fusion_lat": 0.0, "type": "electric_scooter", "lat": 38.90126083333333, "is_disabled": 0, "name": "585d627c37df72587cf996984c2a1d45", "is_reserved": 0, "bike_id": "585d627c37df72587cf996984c2a1d45", "fusion_lon": 0.0, "rental_uris": {"ios": "https://dc.lft.to/lastmile_qr_scan", "android": "https://dc.lft.to/lastmile_qr_scan"}}, {"lon": -76.95767283333333, "fusion_lat": 0.0, "type": "electric_scooter", "lat": 38.88439616666667, "is_disabled": 0, "name": "84c78d3efbaca1582d4e3ec1e5fb5875", "is_reserved": 0, "bike_id": "84c78d3efbaca1582d4e3ec1e5fb5875", "fusion_lon": 0.0, "rental_uris": {"ios": "https://dc.lft.to/lastmile_qr_scan", "android": "https://dc.lft.to/lastmile_qr_scan"}}, {"lon": -77.08410683333334, "fusion_lat": 0.0, "type": "electric_bike", "lat": 38.83295283333333, "is_disabled": 0, "name": "0e1ab8302cfaa3a484460f2ea7090951", "is_reserved": 0, "bike_id": "0e1ab8302cfaa3a484460f2ea7090951", "fusion_lon": 0.0, "rental_uris": {"ios": "https://dc.lft.to/lastmile_qr_scan", "android": "https://dc.lft.to/lastmile_qr_scan"}}, {"lon": -77.03477833333334, "fusion_lat": 0.0, "type": "electric_scooter", "lat": 38.91922, "is_disabled": 0, "name": "5f6d276452f63c9b82b6ee924f13d827", "is_reserved": 0, "bike_id": "5f6d276452f63c9b82b6ee924f13d827", "fusion_lon": 0.0, "rental_uris": {"ios": "https://dc.lft.to/lastmile_qr_scan", "android": "https://dc.lft.to/lastmile_qr_scan"}}, {"lon": -77.0402095, "fusion_lat": 0.0, "type": "electric_scooter", "lat": 38.90842133333334, "is_disabled": 0, "name": "5d21ee264b8e437d8152f6790fde0898", "is_reserved": 0, "bike_id": "5d21ee264b8e437d8152f6790fde0898", "fusion_lon": 0.0, "rental_uris": {"ios": "https://dc.lft.to/lastmile_qr_scan", "android": "https://dc.lft.to/lastmile_qr_scan"}}, {"lon": -77.041647, "fusion_lat": 0.0, "type": "electric_scooter", "lat": 38.91988533333333, "is_disabled": 0, "name": "9eef49cc12cdd7184f62feb04e1301bb", "is_reserved": 0, "bike_id": "9eef49cc12cdd7184f62feb04e1301bb", "fusion_lon": 0.0, "rental_uris": {"ios": "https://dc.lft.to/lastmile_qr_scan", "android": "https://dc.lft.to/lastmile_qr_scan"}}, {"lon": -77.0242985, "fusion_lat": 0.0, "type": "electric_scooter", "lat": 38.898939166666665, "is_disabled": 0, "name": "75b4e619b55c4df0e521d143fe6c0a61", "is_reserved": 0, "bike_id": "75b4e619b55c4df0e521d143fe6c0a61", "fusion_lon": 0.0, "rental_uris": {"ios": "https://dc.lft.to/lastmile_qr_scan", "android": "https://dc.lft.to/lastmile_qr_scan"}}, {"lon": -77.00582283333334, "fusion_lat": 0.0, "type": "electric_scooter", "lat": 38.87574433333333, "is_disabled": 0, "name": "448a6993f7fbc74a4fb95670e08c5f3b", "is_reserved": 0, "bike_id": "448a6993f7fbc74a4fb95670e08c5f3b", "fusion_lon": 0.0, "rental_uris": {"ios": "https://dc.lft.to/lastmile_qr_scan", "android": "https://dc.lft.to/lastmile_qr_scan"}}, {"lon": -77.02504366666666, "fusion_lat": 0.0, "type": "electric_scooter", "lat": 38.90635666666667, "is_disabled": 0, "name": "c279e6ac557c07f348f084969aebed18", "is_reserved": 0, "bike_id": "c279e6ac557c07f348f084969aebed18", "fusion_lon": 0.0, "rental_uris": {"ios": "https://dc.lft.to/lastmile_qr_scan", "android": "https://dc.lft.to/lastmile_qr_scan"}}, {"lon": -77.03804, "fusion_lat": 0.0, "type": "electric_scooter", "lat": 38.906798, "is_disabled": 0, "name": "4bfa3e2cfd2f9e49890e2e0a9d3c8df4", "is_reserved": 0, "bike_id": "4bfa3e2cfd2f9e49890e2e0a9d3c8df4", "fusion_lon": 0.0, "rental_uris": {"ios": "https://dc.lft.to/lastmile_qr_scan", "android": "https://dc.lft.to/lastmile_qr_scan"}}, {"lon": -77.0221885, "fusion_lat": 0.0, "type": "electric_scooter", "lat": 38.924690166666664, "is_disabled": 0, "name": "781682e408150adcdc4b9ff3b02a90a5", "is_reserved": 0, "bike_id": "781682e408150adcdc4b9ff3b02a90a5", "fusion_lon": 0.0, "rental_uris": {"ios": "https://dc.lft.to/lastmile_qr_scan", "android": "https://dc.lft.to/lastmile_qr_scan"}},