{"data": {"bikes": [{"fusion_lat": 0.0, "lon": -77.02947116666667, "is_reserved": 0, "bike_id": "b86e9c88f21e25e5d36b4531edda34b6", "fusion_lon": 0.0, "rental_uris": {"android": "https://dc.lft.to/lastmile_qr_scan", "ios": "https://dc.lft.to/lastmile_qr_scan"}, "name": "b86e9c88f21e25e5d36b4531edda34b6", "type": "electric_scooter", "lat": 38.916849666666664, "is_disabled": 0}, {"fusion_lat": 0.0, "lon": -77.0449145, "is_reserved": 0, "bike_id": "013b45ace9fe7cf56ca58da69e24bb09", "fusion_lon": 0.0, "rental_uris": {"android": "https://dc.lft.to/lastmile_qr_scan", "ios": "https://dc.lft.to/lastmile_qr_scan"}, "name": "013b45ace9fe7cf56ca58da69e24bb09", "type": "electric_scooter", "lat": 38.90507383333333, "is_disabled": 0}, {"fusion_lat": 0.0, "lon": -77.08037633333333, "is_reserved": 0, "bike_id": "4f080d6bf75f271f49b757b19a05c1fa", "fusion_lon": 0.0, "rental_uris": {"android": "https://dc.lft.to/lastmile_qr_scan", "ios": "https://dc.lft.to/lastmile_qr_scan"}, "name": "4f080d6bf75f271f49b757b19a05c1fa", "type": "electric_scooter", "lat": 38.923888166666664, "is_disabled": 0}, {"fusion_lat": 0.0, "lon": -77.042192, "is_reserved": 0, "bike_id": "008d56d8928dfa9f4011e8aa69196f9c", "fusion_lon": 0.0, "rental_uris": {"android": "https://dc.lft.to/lastmile_qr_scan", "ios": "https://dc.lft.to/lastmile_qr_scan"}, "name": "008d56d8928dfa9f4011e8aa69196f9c", "type": "electric_scooter", "lat": 38.92156116666666, "is_disabled": 0}, {"fusion_lat": 0.0, "lon": -76.98022933333333, "is_reserved": 0, "bike_id": "50e009afb995175daf9542b878aee064", "fusion_lon": 0.0, "rental_uris": {"android": "https://dc.lft.to/lastmile_qr_scan", "ios": "https://dc.lft.to/lastmile_qr_scan"}, "name": "50e009afb995175daf9542b878aee064", "type": "electric_scooter", "lat": 38.90294933333333, "is_disabled": 0}, {"fusion_lat": 0.0, "lon": -77.0388385, "is_reserved": 0, "bike_id": "12be653b1c50880195389e9b1ceac002", "fusion_lon": 0.0, "rental_uris": {"android": "https://dc.lft.to/lastmile_qr_scan", "ios": "https://dc.lft.to/lastmile_qr_scan"}, "name": "12be653b1c50880195389e9b1ceac002", "type": "electric_scooter", "lat": 38.914679, "is_disabled": 0}, {"fusion_lat": 0.0, "lon": -76.9987995, "is_reserved": 0, "bike_id": "add9614e40c08e646ca51eb3801047cf", "fusion_lon": 0.0, "rental_uris": {"android": "https://dc.lft.to/lastmile_qr_scan", "ios": "https://dc.lft.to/lastmile_qr_scan"}, "name": "add9614e40c08e646ca51eb3801047cf", "type": "electric_scooter", "lat": 38.901272666666664, "is_disabled": 0}, {"fusion_lat": 0.0, "lon": -77.023863, "is_reserved": 0, "bike_id": "318c13f5588e75c501d26ec714b4098d", "fusion_lon": 0.0, "rental_uris": {"android": "https://dc.lft.to/lastmile_qr_scan", "ios": "https://dc.lft.to/lastmile_qr_scan"}, "name": "318c13f5588e75c501d26ec714b4098d", "type": "electric_bike", "lat": 38.89677016666667, "is_disabled": 0}, {"fusion_lat": 0.0, "lon": -77.0290455, "is_reserved": 0, "bike_id": "44feb7fc42a5d91b6e5a3ec2a15beccd", "fusion_lon": 0.0, "rental_uris": {"android": "https://dc.lft.to/lastmile_qr_scan", "ios": "https://dc.lft.to/lastmile_qr_scan"}, "name": "44feb7fc42a5d91b6e5a3ec2a15beccd", "type": "electric_scooter", "lat": 38.928137, "is_disabled": 0}, {"fusion_lat": 0.0, "lon": -77.0319415, "is_reserved": 0, "bike_id": "a73c673f6161a4213cd38696bbb79972", "fusion_lon": 0.0, "rental_uris": {"android": "https://dc.lft.to/lastmile_qr_scan", "ios": "https://dc.lft.to/lastmile_qr_scan"}, "name": "a73c673f6161a4213cd38696bbb79972", "type": "electric_scooter", "lat": 38.920660166666664, "is_disabled": 0}, {"fusion_lat": 0.0, "lon": -76.93608583333334, "is_reserved": 0, "bike_id": "e2db59412d099fce5b270ee14059c1be", "fusion_lon": 0.0, "rental_uris": {"android": "https://dc.lft.to/lastmile_qr_scan", "ios": "https://dc.lft.to/lastmile_qr_scan"}, "name": "e2db59412d099fce5b270ee14059c1be", "type": "electric_scooter", "lat": 38.896815833333335, "is_disabled": 0}, {"fusion_lat": 0.0, "lon": -76.975338, "is_reserved": 0, "bike_id": "5ec2c8e5cedf973f60c6eb8ba761f203", "fusion_lon": 0.0, "rental_uris": {"android": "https://dc.lft.to/lastmile_qr_scan", "ios": "https://dc.lft.to/lastmile_qr_scan"}, "name": "5ec2c8e5cedf973f60c6eb8ba761f203", "type": "electric_scooter", "lat": 38.89957033333334, "is_disabled": 0}, {"fusion_lat": 0.0, "lon": -77.03573966666667, "is_reserved": 0, "bike_id": "89fc3a6da7ee138cd7e2b438e76f2cb8", "fusion_lon": 0.0, "rental_uris": {"android": "https://dc.lft.to/lastmile_qr_scan", "ios": "https://dc.lft.to/lastmile_qr_scan"}, "name": "89fc3a6da7ee138cd7e2b438e76f2cb8", "type": "electric_scooter", "lat": 38.909742333333334, "is_disabled": 0}, {"fusion_lat": 0.0, "lon": -77.025597, "is_reserved": 0, "bike_id": "63534249aaba1c907f601bb22d119022", "fusion_lon": 0.0, "rental_uris": {"android": "https://dc.lft.to/lastmile_qr_scan", "ios": "https://dc.lft.to/lastmile_qr_scan"}, "name": "63534249aaba1c907f601bb22d119022", "type": "electric_scooter", "lat": 38.930798333333335, "is_disabled": 0}, {"fusion_lat": 0.0, "lon": -77.01207233333334, "is_reserved": 0, "bike_id": "db9b83247ef5c85c25e715bc174d4ebf", "fusion_lon": 0.0, "rental_uris": {"android": "https://dc.lft.to/lastmile_qr_scan", "ios": "https://dc.lft.to/lastmile_qr_scan"}, "name": "db9b83247ef5c85c25e715bc174d4ebf", "type": "electric_scooter", "lat": 38.91590983333333, "is_disabled": 0}, {"fusion_lat": 0.0, "lon": -77.0595395, "is_reserved": 0, "bike_id": "2d6b2bce5f809b22a10d240ad62f76c1", "fusion_lon": 0.0, "rental_uris": {"android": "https://dc.lft.to/lastmile_qr_scan", "ios": "https://dc.lft.to/lastmile_qr_scan"}, "name": "2d6b2bce5f809b22a10d240ad62f76c1", "type": "electric_scooter", "lat": 38.907615666666665, "is_disabled": 0}, {"fusion_lat": 0.0, "lon": -76.9794155, "is_reserved": 0, "bike_id": "1904e367d3d0faed7c216001366506d6", "fusion_lon": 0.0, "rental_uris": {"android": "https://dc.lft.to/lastmile_qr_scan", "ios": "https://dc.lft.to/lastmile_qr_scan"}, "name": "1904e367d3d0faed7c216001366506d6", "type": "electric_scooter", "lat": 38.901884, "is_disabled": 0}, {"fusion_lat": 0.0, "lon": -77.03491066666666, "is_reserved": 0, "bike_id": "828b98c5a2a675bec2c3534b798d80d9", "fusion_lon": 0.0, "rental_uris": {"android": "https://dc.lft.to/lastmile_qr_scan", "ios": "https://dc.lft.to/lastmile_qr_scan"}, "name": "828b98c5a2a675bec2c3534b798d80d9", "type": "electric_scooter", "lat": 38.93565066666667, "is_disabled": 0}, {"fusion_lat": 0.0, "lon": -77.01977716666667, "is_reserved": 0, "bike_id": "8bf4d5fd191484063e641526356ee530", "fusion_lon": 0.0, "rental_uris": {"android": "https://dc.lft.to/lastmile_qr_scan", "ios": "https://dc.lft.to/lastmile_qr_scan"}, "name": "8bf4d5fd191484063e641526356ee530", "type": "electric_scooter", "lat": 38.883389, "is_disabled": 0}, {"fusion_lat": 0.0, "lon": -77.04579933333333, "is_reserved": 0, "bike_id": "b885ded2b197db0a2ee165d7b3303062", "fusion_lon": 0.0, "rental_uris": {"android": "https://dc.lft.to/lastmile_qr_scan", "ios": "https://dc.lft.to/lastmile_qr_scan"}, "name": "b885ded2b197db0a2ee165d7b3303062", "type": "electric_scooter", "lat": 38.915952, "is_disabled": 0}, {"fusion_lat": 0.0, "lon": -77.03170016666667, "is_reserved": 0, "bike_id": "effaa687d5ccb1107ba26d515c72bc94", "fusion_lon": 0.0, "rental_uris": {"android": "https://dc.lft.to/lastmile_qr_scan", "ios": "https://dc.lft.to/lastmile_qr_scan"}, "name": "effaa687d5ccb1107ba26d515c72bc94", "type": "electric_scooter", "lat": 38.91419666666667, "is_disabled": 0}, {"fusion_lat": 0.0, "lon": -77.0239615, "is_reserved": 0, "bike_id": "569a76d2ff8df0389baeeccc07128e01", "fusion_lon": 0.0, "rental_uris": {"android": "https://dc.lft.to/lastmile_qr_scan", "ios": "https://dc.lft.to/lastmile_qr_scan"}, "name": "569a76d2ff8df0389baeeccc07128e01", "type": "electric_scooter", "lat": 38.908058, "is_disabled": 0}, {"fusion_lat": 0.0, "lon": -76.9957995, "is_reserved": 0, "bike_id": "b6b971497273a7bbf262ce9051da3810", "fusion_lon": 0.0, "rental_uris": {"android": "https://dc.lft.to/lastmile_qr_scan", "ios": "https://dc.lft.to/lastmile_qr_scan"}, "name": "b6b971497273a7bbf262ce9051da3810", "type": "electric_bike", "lat": 38.85293683333333, "is_disabled": 0}, {"fusion_lat": 0.0, "lon": -77.042435, "is_reserved": 0, "bike_id": "a750f41e379655153bd6c3138a9dd21d", "fusion_lon": 0.0, "rental_uris": {"android": "https://dc.lft.to/lastmile_qr_scan", "ios": "https://dc.lft.to/lastmile_qr_scan"}, "name": "a750f41e379655153bd6c3138a9dd21d", "type": "electric_scooter", "lat": 38.922189833333334, "is_disabled": 0}, {"fusion_lat": 0.0, "lon": -77.02477, "is_reserved": 0, "bike_id": "e941a19b91425bb44f75282c972bbe6a", "fusion_lon": 0.0, "rental_uris": {"android": "https://dc.lft.to/lastmile_qr_scan", "ios": "https://dc.lft.to/lastmile_qr_scan"}, "name": "e941a19b91425bb44f75282c972bbe6a", "type": "electric_scooter", "lat": 38.9331345, "is_disabled": 0}, {"fusion_lat": 0.0, "lon": -77.0410245, "is_reserved": 0, "bike_id": "943c007b1bf4fcb913528bc57b9f0630", "fusion_lon": 0.0, "rental_uris": {"android": "https://dc.lft.to/lastmile_qr_scan", "ios": "https://dc.lft.to/lastmile_qr_scan"}, "name": "943c007b1bf4fcb913528bc57b9f0630", "type": "electric_scooter", "lat": 38.92801566666667, "is_disabled": 0}, {"fusion_lat": 0.0, "lon": -77.02318133333333, "is_reserved": 0, "bike_id": "303dd36b46a2a31d9c6dcd3dfbc8c378", "fusion_lon": 0.0, "rental_uris": {"android": "https://dc.lft.to/lastmile_qr_scan", "ios": "https://dc.lft.to/lastmile_qr_scan"}, "name": "303dd36b46a2a31d9c6dcd3dfbc8c378", "type": "electric_scooter", "lat": 38.93595166666667, "is_disabled": 0}, {"fusion_lat": 0.0, "lon": -77.02722183333333, "is_reserved": 0, "bike_id": "1abd5d64674ef0ebbf318bd0cc92e1e0", "fusion_lon": 0.0, "rental_uris": {"android": "https://dc.lft.to/lastmile_qr_scan", "ios": "https://dc.lft.to/lastmile_qr_scan"}, "name": "1abd5d64674ef0ebbf318bd0cc92e1e0", "type": "electric_scooter", "lat": 38.897481666666664, "is_disabled": 0}, {"fusion_lat": 0.0, "lon": -77.0213075, "is_reserved": 0, "bike_id": "e3d427996512f025859464b41281fce0", "fusion_lon": 0.0, "rental_uris": {"android": "https://dc.lft.to/lastmile_qr_scan", "ios": "https://dc.lft.to/lastmile_qr_scan"}, "name": "e3d427996512f025859464b41281fce0", "type": "electric_scooter", "lat": 38.9241265, "is_disabled": 0}, {"fusion_lat": 0.0, "lon": -77.02419216666667, "is_reserved": 0, "bike_id": "1bc55863723848dd1f3243e71361f6a9", "fusion_lon": 0.0, "rental_uris": {"android": "https://dc.lft.to/lastmile_qr_scan", "ios": "https://dc.lft.to/lastmile_qr_scan"}, "name": "1bc55863723848dd1f3243e71361f6a9", "type": "electric_scooter", "lat": 38.8925765, "is_disabled": 0}, {"fusion_lat": 0.0, "lon": -77.03237766666666, "is_reserved": 0, "bike_id": "61d200ba64c7659fce989b1b159b30fa", "fusion_lon": 0.0, "rental_uris": {"android": "https://dc.lft.to/lastmile_qr_scan", "ios": "https://dc.lft.to/lastmile_qr_scan"}, "name": "61d200ba64c7659fce989b1b159b30fa", "type": "electric_scooter", "lat": 38.9263595, "is_disabled": 0}, {"fusion_lat": 0.0, "lon": -77.00920516666666, "is_reserved": 0, "bike_id": "564e234b7e5f63292801a5322352e6cf", "fusion_lon": 0.0, "rental_uris": {"android": "https://dc.lft.to/lastmile_qr_scan", "ios": "https://dc.lft.to/lastmile_qr_scan"}, "name": "564e234b7e5f63292801a5322352e6cf", "type": "electric_scooter", "lat": 38.895633333333336, "is_disabled": 0}, {"fusion_lat": 0.0, "lon": -77.01658266666666, "is_reserved": 0, "bike_id": "6188df608801e319e4abd393232839d2", "fusion_lon": 0.0, "rental_uris": {"android": "https://dc.lft.to/lastmile_qr_scan", "ios": "https://dc.lft.to/lastmile_qr_scan"}, "name": "6188df608801e319e4abd393232839d2", "type": "electric_scooter", "lat": 38.8811125, "is_disabled": 0}, {"fusion_lat": 0.0, "lon": -77.03299466666667, "is_reserved": 0, "bike_id": "cdf51ddd7065ecfec06922eccf47ecdf", "fusion_lon": 0.0, "rental_uris": {"android": "https://dc.lft.to/lastmile_qr_scan", "ios": "https://dc.lft.to/lastmile_qr_scan"}, "name": "cdf51ddd7065ecfec06922eccf47ecdf", "type": "electric_scooter", "lat": 38.93785483333333, "is_disabled": 0}, {"fusion_lat": 0.0, "lon": -77.03830583333334, "is_reserved": 0, "bike_id": "57ab3f05169bf8a66941f68a20b4e72a", "fusion_lon": 0.0, "rental_uris": {"android": "https://dc.lft.to/lastmile_qr_scan", "ios": "https://dc.lft.to/lastmile_qr_scan"}, "name": "57ab3f05169bf8a66941f68a20b4e72a", "type": "electric_scooter", "lat": 38.911178666666665, "is_disabled": 0}, {"fusion_lat": 0.0, "lon": -76.9990115, "is_reserved": 0, "bike_id": "166ae1ee14f1c7a17bffd319d6a12f7e", "fusion_lon": 0.0, "rental_uris": {"android": "https://dc.lft.to/lastmile_qr_scan", "ios": "https://dc.lft.to/lastmile_qr_scan"}, "name": "166ae1ee14f1c7a17bffd319d6a12f7e", "type": "electric_scooter", "lat": 38.948159833333335, "is_disabled": 0}, {"fusion_lat": 0.0, "lon": -76.999344, "is_reserved": 0, "bike_id": "0497f47c52336821cb34be274fc5cf4c", "fusion_lon": 0.0, "rental_uris": {"android": "https://dc.lft.to/lastmile_qr_scan", "ios": "https://dc.lft.to/lastmile_qr_scan"}, "name": "0497f47c52336821cb34be274fc5cf4c", "type": "electric_scooter", "lat": 38.843015666666666, "is_disabled": 0}, {"fusion_lat": 0.0, "lon": -77.013118, "is_reserved": 0, "bike_id": "fa3872e85fb6d83501b5d4d1684b9448", "fusion_lon": 0.0, "rental_uris": {"android": "https://dc.lft.to/lastmile_qr_scan", "ios": "https://dc.lft.to/lastmile_qr_scan"}, "name": "fa3872e85fb6d83501b5d4d1684b9448", "type": "electric_scooter", "lat": 38.901902666666665, "is_disabled": 0}, {"fusion_lat": 0.0, "lon": -77.13923566666666, "is_reserved": 0, "bike_id": "ca5f41a76082f472a48500958706f87b", "fusion_lon": 0.0, "rental_uris": {"android": "https://dc.lft.to/lastmile_qr_scan", "ios": "https://dc.lft.to/lastmile_qr_scan"}, "name": "ca5f41a76082f472a48500958706f87b", "type": "electric_bike", "lat": 38.873002166666666, "is_disabled": 0}, {"fusion_lat": 0.0, "lon": -76.93075133333333, "is_reserved": 0, "bike_id": "a7d967e5f4249565f6112c1903294cf4", "fusion_lon": 0.0, "rental_uris": {"android": "https://dc.lft.to/lastmile_qr_scan", "ios": "https://dc.lft.to/lastmile_qr_scan"}, "name": "a7d967e5f4249565f6112c1903294cf4", "type": "electric_scooter", "lat": 38.901667, "is_disabled": 0}, {"fusion_lat": 0.0, "lon": -77.0212385, "is_reserved": 0, "bike_id": "348bba63cf590ee5094c666d21df1974", "fusion_lon": 0.0, "rental_uris": {"android": "https://dc.lft.to/lastmile_qr_scan", "ios": "https://dc.lft.to/lastmile_qr_scan"}, "name": "348bba63cf590ee5094c666d21df1974", "type": "electric_scooter", "lat": 38.896095, "is_disabled": 0}, {"fusion_lat": 0.0, "lon": -76.97204633333334, "is_reserved": 0, "bike_id": "adf0ad4727eba9d9775c113382c66103", "fusion_lon": 0.0, "rental_uris": {"android": "https://dc.lft.to/lastmile_qr_scan", "ios": "https://dc.lft.to/lastmile_qr_scan"}, "name": "adf0ad4727eba9d9775c113382c66103", "type": "electric_bike", "lat": 38.892902, "is_disabled": 0}, {"fusion_lat": 0.0, "lon": -77.138968, "is_reserved": 0, "bike_id": "e8b550963e19e19e8829c016a0c6d115", "fusion_lon": 0.0, "rental_uris": {"android": "https://dc.lft.to/lastmile_qr_scan", "ios": "https://dc.lft.to/lastmile_qr_scan"}, "name": "e8b550963e19e19e8829c016a0c6d115", "type": "electric_bike", "lat": 38.896827, "is_disabled": 0}, {"fusion_lat": 0.0, "lon": -77.04238983333333, "is_reserved": 0, "bike_id": "2414633251c94f7ba0df047e0747e312", "fusion_lon": 0.0, "rental_uris": {"android": "https://dc.lft.to/lastmile_qr_scan", "ios": "https://dc.lft.to/lastmile_qr_scan"}, "name": "2414633251c94f7ba0df047e0747e312", "type": "electric_scooter", "lat": 38.9218505, "is_disabled": 0}, {"fusion_lat": 0.0, "lon": -77.075954, "is_reserved": 0, "bike_id": "1d46b27ad69527f0dc0ae2135e897293", "fusion_lon": 0.0, "rental_uris": {"android": "https://dc.lft.to/lastmile_qr_scan", "ios": "https://dc.lft.to/lastmile_qr_scan"}, "name": "1d46b27ad69527f0dc0ae2135e897293", "type": "electric_scooter", "lat": 38.920556, "is_disabled": 0}, {"fusion_lat": 0.0, "lon": -77.0314075, "is_reserved": 0, "bike_id": "cca7496cd05bdd0e8a57fd900f1f1add", "fusion_lon": 0.0, "rental_uris": {"android": "https://dc.lft.to/lastmile_qr_scan", "ios": "https://dc.lft.to/lastmile_qr_scan"}, "name": "cca7496cd05bdd0e8a57fd900f1f1add", "type": "electric_scooter", "lat": 38.9238975, "is_disabled": 0}, {"fusion_lat": 0.0, "lon": -76.997056, "is_reserved": 0, "bike_id": "2a564561d57c02ca39a6d2a59ed0fb1c", "fusion_lon": 0.0, "rental_uris": {"android": "https://dc.lft.to/lastmile_qr_scan", "ios": "https://dc.lft.to/lastmile_qr_scan"}, "name": "2a564561d57c02ca39a6d2a59ed0fb1c", "type": "electric_scooter", "lat": 38.84430533333333, "is_disabled": 0}, {"fusion_lat": 0.0, "lon": -77.0217815, "is_reserved": 0, "bike_id": "fabf74245cec1113f5d841816c36f3a5", "fusion_lon": 0.0, "rental_uris": {"android": "https://dc.lft.to/lastmile_qr_scan", "ios": "https://dc.lft.to/lastmile_qr_scan"}, "name": "fabf74245cec1113f5d841816c36f3a5", "type": "electric_scooter", "lat": 38.92056383333333, "is_disabled": 0}, {"fusion_lat": 0.0, "lon": -77.04822183333333, "is_reserved": 0, "bike_id": "b08c4c2c619ca761888ea6ad9aa1d427", "fusion_lon": 0.0, "rental_uris": {"android": "https://dc.lft.to/lastmile_qr_scan", "ios": "https://dc.lft.to/lastmile_qr_scan"}, "name": "b08c4c2c619ca761888ea6ad9aa1d427", "type": "electric_scooter", "lat": 38.91040783333333, "is_disabled": 0}, {"fusion_lat": 0.0, "lon": -77.02050633333333, "is_reserved": 0, "bike_id": "58780cb5b8f1407e5d147cc1598ac2a8", "fusion_lon": 0.0, "rental_uris": {"android": "https://dc.lft.to/lastmile_qr_scan", "ios": "https://dc.lft.to/lastmile_qr_scan"}, "name": "58780cb5b8f1407e5d147cc1598ac2a8", "type": "electric_bike", "lat": 38.9575385, "is_disabled": 0}, {"fusion_lat": 0.0, "lon": -77.00335166666666, "is_reserved": 0, "bike_id": "ba84a191d742381d53285672089e4901", "fusion_lon": 0.0, "rental_uris": {"android": "https://dc.lft.to/lastmile_qr_scan", "ios": "https://dc.lft.to/lastmile_qr_scan"}, "name": "ba84a191d742381d53285672089e4901", "type": "electric_scooter", "lat": 38.889891666666664, "is_disabled": 0}, {"fusion_lat": 0.0, "lon": -77.01977616666667, "is_reserved": 0, "bike_id": "8710e8d18fb978aa1170365a14309d37", "fusion_lon": 0.0, "rental_uris": {"android": "https://dc.lft.to/lastmile_qr_scan", "ios": "https://dc.lft.to/lastmile_qr_scan"}, "name": "8710e8d18fb978aa1170365a14309d37", "type": "electric_scooter", "lat": 38.895610166666664, "is_disabled": 0}, {"fusion_lat": 0.0, "lon": -77.00323283333333, "is_reserved": 0, "bike_id": "08e7f8ea2a34ad6579eecd96d0f129c3", "fusion_lon": 0.0, "rental_uris": {"android": "https://dc.lft.to/lastmile_qr_scan", "ios": "https://dc.lft.to/lastmile_qr_scan"}, "name": "08e7f8ea2a34ad6579eecd96d0f129c3", "type": "electric_scooter", "lat": 38.902634166666665, "is_disabled": 0}, {"fusion_lat": 0.0, "lon": -77.00224783333333, "is_reserved": 0, "bike_id": "7b65a3a78b2739add98ce3f51803b7c0", "fusion_lon": 0.0, "rental_uris": {"android": "https://dc.lft.to/lastmile_qr_scan", "ios": "https://dc.lft.to/lastmile_qr_scan"}, "name": "7b65a3a78b2739add98ce3f51803b7c0", "type": "electric_scooter", "lat": 38.9005605, "is_disabled": 0}, {"fusion_lat": 0.0, "lon": -77.0060365, "is_reserved": 0, "bike_id": "e5d237c77c65ed9d67b23e92f7925da3", "fusion_lon": 0.0, "rental_uris": {"android": "https://dc.lft.to/lastmile_qr_scan", "ios": "https://dc.lft.to/lastmile_qr_scan"}, "name": "e5d237c77c65ed9d67b23e92f7925da3", "type": "electric_scooter", "lat": 38.875477833333335, "is_disabled": 0}, {"fusion_lat": 0.0, "lon": -77.03275383333333, "is_reserved": 0, "bike_id": "984e3a942baaab821301a7a89d144b03", "fusion_lon": 0.0, "rental_uris": {"android": "https://dc.lft.to/lastmile_qr_scan", "ios": "https://dc.lft.to/lastmile_qr_scan"}, "name": "984e3a942baaab821301a7a89d144b03", "type": "electric_scooter", "lat": 38.90247933333333, "is_disabled": 0}, {"fusion_lat": 0.0, "lon": -77.02202916666667, "is_reserved": 0, "bike_id": "a91b9de6bb80942f5a634711d9c62f2b", "fusion_lon": 0.0, "rental_uris": {"android": "https://dc.lft.to/lastmile_qr_scan", "ios": "https://dc.lft.to/lastmile_qr_scan"}, "name": "a91b9de6bb80942f5a634711d9c62f2b", "type": "electric_scooter", "lat": 38.920434666666665, "is_disabled": 0}, {"fusion_lat": 0.0, "lon": -76.99805533333333, "is_reserved": 0, "bike_id": "005852a5fbfae76f2615f6c9b7394701", "fusion_lon": 0.0, "rental_uris": {"android": "https://dc.lft.to/lastmile_qr_scan", "ios": "https://dc.lft.to/lastmile_qr_scan"}, "name": "005852a5fbfae76f2615f6c9b7394701", "type": "electric_scooter", "lat": 38.885670166666664, "is_disabled": 0}, {"fusion_lat": 0.0, "lon": -77.00037516666667, "is_reserved": 0, "bike_id": "1ae6fbc7cf49a6d2118ba6d2134b6616", "fusion_lon": 0.0, "rental_uris": {"android": "https://dc.lft.to/lastmile_qr_scan", "ios": "https://dc.lft.to/lastmile_qr_scan"}, "name": "1ae6fbc7cf49a6d2118ba6d2134b6616", "type": "electric_scooter", "lat": 38.907919666666665, "is_disabled": 0}, {"fusion_lat": 0.0, "lon": -77.02740833333333, "is_reserved": 0, "bike_id": "2b7f556e5f844803c4a6da98420463c0", "fusion_lon": 0.0, "rental_uris": {"android": "https://dc.lft.to/lastmile_qr_scan", "ios": "https://dc.lft.to/lastmile_qr_scan"}, "name": "2b7f556e5f844803c4a6da98420463c0", "type": "electric_scooter", "lat": 38.92383266666667, "is_disabled": 0}, {"fusion_lat": 0.0, "lon": -77.0169765, "is_reserved": 0, "bike_id": "c4222cf31810cd1de84f6184e3bdaeb4", "fusion_lon": 0.0, "rental_uris": {"android": "https://dc.lft.to/lastmile_qr_scan", "ios": "https://dc.lft.to/lastmile_qr_scan"}, "name": "c4222cf31810cd1de84f6184e3bdaeb4", "type": "electric_scooter", "lat": 38.97506033333333, "is_disabled": 0}, {"fusion_lat": 0.0, "lon": -77.03897516666666, "is_reserved": 0, "bike_id": "ba74921e1fb9a45141499d9d71037e45", "fusion_lon": 0.0, "rental_uris": {"android": "https://dc.lft.to/lastmile_qr_scan", "ios": "https://dc.lft.to/lastmile_qr_scan"}, "name": "ba74921e1fb9a45141499d9d71037e45", "type": "electric_scooter", "lat": 38.914729, "is_disabled": 0}, {"fusion_lat": 0.0, "lon": -77.00928816666666, "is_reserved": 0, "bike_id": "61ab303a8f5b3d985a19f99b6bb4f47e", "fusion_lon": 0.0, "rental_uris": {"android": "https://dc.lft.to/lastmile_qr_scan", "ios": "https://dc.lft.to/lastmile_qr_scan"}, "name": "61ab303a8f5b3d985a19f99b6bb4f47e", "type": "electric_scooter", "lat": 38.896149333333334, "is_disabled": 0}, {"fusion_lat": 0.0, "lon": -76.98767833333333, "is_reserved": 0, "bike_id": "f2e1b39c39bfd09386ed82372c925d94", "fusion_lon": 0.0, "rental_uris": {"android": "https://dc.lft.to/lastmile_qr_scan", "ios": "https://dc.lft.to/lastmile_qr_scan"}, "name": "f2e1b39c39bfd09386ed82372c925d94", "type": "electric_scooter", "lat": 38.9003125, "is_disabled": 0}, {"fusion_lat": 0.0, "lon": -76.9956815, "is_reserved": 0, "bike_id": "04d3cfe1662c53b4b36ea69f0ca180b6", "fusion_lon": 0.0, "rental_uris": {"android": "https://dc.lft.to/lastmile_qr_scan", "ios": "https://dc.lft.to/lastmile_qr_scan"}, "name": "04d3cfe1662c53b4b36ea69f0ca180b6", "type": "electric_scooter", "lat": 38.884215, "is_disabled": 0}, {"fusion_lat": 0.0, "lon": -77.06047266666667, "is_reserved": 0, "bike_id": "ce40ae12486f815d8011ea71b6d76808", "fusion_lon": 0.0, "rental_uris": {"android": "https://dc.lft.to/lastmile_qr_scan", "ios": "https://dc.lft.to/lastmile_qr_scan"}, "name": "ce40ae12486f815d8011ea71b6d76808", "type": "electric_scooter", "lat": 38.9391275, "is_disabled": 0}, {"fusion_lat": 0.0, "lon": -77.0403185, "is_reserved": 0, "bike_id": "ea9ef257e106c68707ee6bb4246cf5f3", "fusion_lon": 0.0, "rental_uris": {"android": "https://dc.lft.to/lastmile_qr_scan", "ios": "https://dc.lft.to/lastmile_qr_scan"}, "name": "ea9ef257e106c68707ee6bb4246cf5f3", "type": "electric_scooter", "lat": 38.924512166666666, "is_disabled": 0}, {"fusion_lat": 0.0, "lon": -77.0298045, "is_reserved": 0, "bike_id": "7e4be852944c6f485d41139337a69fac", "fusion_lon": 0.0, "rental_uris": {"android": "https://dc.lft.to/lastmile_qr_scan", "ios": "https://dc.lft.to/lastmile_qr_scan"}, "name": "7e4be852944c6f485d41139337a69fac", "type": "electric_scooter", "lat": 38.910591, "is_disabled": 0}, {"fusion_lat": 0.0, "lon": -77.04345883333333, "is_reserved": 0, "bike_id": "f5667f28ce317e92b0dcc8f2c281420a", "fusion_lon": 0.0, "rental_uris": {"android": "https://dc.lft.to/lastmile_qr_scan", "ios": "https://dc.lft.to/lastmile_qr_scan"}, "name": "f5667f28ce317e92b0dcc8f2c281420a", "type": "electric_scooter", "lat": 38.90418283333333, "is_disabled": 0}, {"fusion_lat": 0.0, "lon": -77.03328133333333, "is_reserved": 0, "bike_id": "89fb2dd1a8798dcd92f3e3bd9287e098", "fusion_lon": 0.0, "rental_uris": {"android": "https://dc.lft.to/lastmile_qr_scan", "ios": "https://dc.lft.to/lastmile_qr_scan"}, "name": "89fb2dd1a8798dcd92f3e3bd9287e098", "type": "electric_scooter", "lat": 38.94718016666667, "is_disabled": 0}, {"fusion_lat": 0.0, "lon": -76.9960295, "is_reserved": 0, "bike_id": "83da9944d3e9eda92e143b4f73323550", "fusion_lon": 0.0, "rental_uris": {"android": "https://dc.lft.to/lastmile_qr_scan", "ios": "https://dc.lft.to/lastmile_qr_scan"}, "name": "83da9944d3e9eda92e143b4f73323550", "type": "electric_scooter", "lat": 38.900109, "is_disabled": 0}, {"fusion_lat": 0.0, "lon": -76.99468116666667, "is_reserved": 0, "bike_id": "b8b29d398fbcfb028080821e5acf3f22", "fusion_lon": 0.0, "rental_uris": {"android": "https://dc.lft.to/lastmile_qr_scan", "ios": "https://dc.lft.to/lastmile_qr_scan"}, "name": "b8b29d398fbcfb028080821e5acf3f22", "type": "electric_scooter", "lat": 38.8622395, "is_disabled": 0}, {"fusion_lat": 0.0, "lon": -77.00704683333333, "is_reserved": 0, "bike_id": "87769c5d99eefbcaa6af30a28497cf71", "fusion_lon": 0.0, "rental_uris": {"android": "https://dc.lft.to/lastmile_qr_scan", "ios": "https://dc.lft.to/lastmile_qr_scan"}, "name": "87769c5d99eefbcaa6af30a28497cf71", "type": "electric_scooter", "lat": 38.87854466666667, "is_disabled": 0}, {"fusion_lat": 0.0, "lon": -77.01739033333334, "is_reserved": 0, "bike_id": "effa805016fec870febaaf6e3f9e7ddd", "fusion_lon": 0.0, "rental_uris": {"android": "https://dc.lft.to/lastmile_qr_scan", "ios": "https://dc.lft.to/lastmile_qr_scan"}, "name": "effa805016fec870febaaf6e3f9e7ddd", "type": "electric_scooter", "lat": 38.872613333333334, "is_disabled": 0}, {"fusion_lat": 0.0, "lon": -77.03840616666666, "is_reserved": 0, "bike_id": "6ea2d670feaff941167d113f40745386", "fusion_lon": 0.0, "rental_uris": {"android": "https://dc.lft.to/lastmile_qr_scan", "ios": "https://dc.lft.to/lastmile_qr_scan"}, "name": "6ea2d670feaff941167d113f40745386", "type": "electric_scooter", "lat": 38.909887499999996, "is_disabled": 0}, {"fusion_lat": 0.0, "lon": -77.0246115, "is_reserved": 0, "bike_id": "a446acb3a34df631404e288de8069b1b", "fusion_lon": 0.0, "rental_uris": {"android": "https://dc.lft.to/lastmile_qr_scan", "ios": "https://dc.lft.to/lastmile_qr_scan"}, "name": "a446acb3a34df631404e288de8069b1b", "type": "electric_scooter", "lat": 38.937158333333336, "is_disabled": 0}, {"fusion_lat": 0.0, "lon": -77.0420435, "is_reserved": 0, "bike_id": "e3966565074ad5ed19d803a3e67371e0", "fusion_lon": 0.0, "rental_uris": {"android": "https://dc.lft.to/lastmile_qr_scan", "ios": "https://dc.lft.to/lastmile_qr_scan"}, "name": "e3966565074ad5ed19d803a3e67371e0", "type": "electric_scooter", "lat": 38.9197855, "is_disabled": 0}, {"fusion_lat": 0.0, "lon": -77.01619266666667, "is_reserved": 0, "bike_id": "f0ff139301f85f184d24d12b08193308", "fusion_lon": 0.0, "rental_uris": {"android": "https://dc.lft.to/lastmile_qr_scan", "ios": "https://dc.lft.to/lastmile_qr_scan"}, "name": "f0ff139301f85f184d24d12b08193308", "type": "electric_scooter", "lat": 38.883445, "is_disabled": 0}, {"fusion_lat": 0.0, "lon": -77.0344605, "is_reserved": 0, "bike_id": "d8a2d688aff5add9ae83fa22c43b2f5f", "fusion_lon": 0.0, "rental_uris": {"android": "https://dc.lft.to/lastmile_qr_scan", "ios": "https://dc.lft.to/lastmile_qr_scan"}, "name": "d8a2d688aff5add9ae83fa22c43b2f5f", "type": "electric_scooter", "lat": 38.91815833333333, "is_disabled": 0}, {"fusion_lat": 0.0, "lon": -76.997519, "is_reserved": 0, "bike_id": "a41a82bfc6e8f4abbbf46924bc2987c9", "fusion_lon": 0.0, "rental_uris": {"android": "https://dc.lft.to/lastmile_qr_scan", "ios": "https://dc.lft.to/lastmile_qr_scan"}, "name": "a41a82bfc6e8f4abbbf46924bc2987c9", "type": "electric_scooter", "lat": 38.908418, "is_disabled": 0}, {"fusion_lat": 0.0, "lon": -77.07351966666667, "is_reserved": 0, "bike_id": "4bee7e8fd35b82ac4bb5b14feb967fae", "fusion_lon": 0.0, "rental_uris": {"android": "https://dc.lft.to/lastmile_qr_scan", "ios": "https://dc.lft.to/lastmile_qr_scan"}, "name": "4bee7e8fd35b82ac4bb5b14feb967fae", "type": "electric_scooter", "lat": 38.911083166666664, "is_disabled": 0}, {"fusion_lat": 0.0, "lon": -76.98139516666667, "is_reserved": 0, "bike_id": "c89a22726f07ef1b42b70b7a9b766757", "fusion_lon": 0.0, "rental_uris": {"android": "https://dc.lft.to/lastmile_qr_scan", "ios": "https://dc.lft.to/lastmile_qr_scan"}, "name": "c89a22726f07ef1b42b70b7a9b766757", "type": "electric_scooter", "lat": 38.905638333333336, "is_disabled": 0}, {"fusion_lat": 0.0, "lon": -77.06133283333334, "is_reserved": 0, "bike_id": "c606453584b3915648a6886a54b97c7c", "fusion_lon": 0.0, "rental_uris": {"android": "https://dc.lft.to/lastmile_qr_scan", "ios": "https://dc.lft.to/lastmile_qr_scan"}, "name": "c606453584b3915648a6886a54b97c7c", "type": "electric_scooter", "lat": 38.940874, "is_disabled": 0}, {"fusion_lat": 0.0, "lon": -77.02723233333333, "is_reserved": 0, "bike_id": "4c8b6a301c6334e4cd227efec9314ce4", "fusion_lon": 0.0, "rental_uris": {"android": "https://dc.lft.to/lastmile_qr_scan", "ios": "https://dc.lft.to/lastmile_qr_scan"}, "name": "4c8b6a301c6334e4cd227efec9314ce4", "type": "electric_scooter", "lat": 38.949600833333335, "is_disabled": 0}, {"fusion_lat": 0.0, "lon": -77.0256135, "is_reserved": 0, "bike_id": "082ea01d2efc34516765378cf3c31bfd", "fusion_lon": 0.0, "rental_uris": {"android": "https://dc.lft.to/lastmile_qr_scan", "ios": "https://dc.lft.to/lastmile_qr_scan"}, "name": "082ea01d2efc34516765378cf3c31bfd", "type": "electric_scooter", "lat": 38.9386535, "is_disabled": 0}, {"fusion_lat": 0.0, "lon": -77.05214833333334, "is_reserved": 0, "bike_id": "81aa7d541a62b568f11936e524463fbb", "fusion_lon": 0.0, "rental_uris": {"android": "https://dc.lft.to/lastmile_qr_scan", "ios": "https://dc.lft.to/lastmile_qr_scan"}, "name": "81aa7d541a62b568f11936e524463fbb", "type": "electric_scooter", "lat": 38.91562116666667, "is_disabled": 0}, {"fusion_lat": 0.0, "lon": -76.9361295, "is_reserved": 0, "bike_id": "a107bbc81aeb7d0489bbbaead2a5c926", "fusion_lon": 0.0, "rental_uris": {"android": "https://dc.lft.to/lastmile_qr_scan", "ios": "https://dc.lft.to/lastmile_qr_scan"}, "name": "a107bbc81aeb7d0489bbbaead2a5c926", "type": "electric_scooter", "lat": 38.8866995, "is_disabled": 0}, {"fusion_lat": 0.0, "lon": -76.98256333333333, "is_reserved": 0, "bike_id": "9fc830b64fc49e2acf9ac3188139ad5a", "fusion_lon": 0.0, "rental_uris": {"android": "https://dc.lft.to/lastmile_qr_scan", "ios": "https://dc.lft.to/lastmile_qr_scan"}, "name": "9fc830b64fc49e2acf9ac3188139ad5a", "type": "electric_scooter", "lat": 38.86305316666667, "is_disabled": 0}, {"fusion_lat": 0.0, "lon": -77.01160833333333, "is_reserved": 0, "bike_id": "7826e72dec6d755296990984666b841e", "fusion_lon": 0.0, "rental_uris": {"android": "https://dc.lft.to/lastmile_qr_scan", "ios": "https://dc.lft.to/lastmile_qr_scan"}, "name": "7826e72dec6d755296990984666b841e", "type": "electric_scooter", "lat": 38.969898, "is_disabled": 0}, {"fusion_lat": 0.0, "lon": -77.00443216666666, "is_reserved": 0, "bike_id": "3e9ee4f8d9c8f0903d9b71352350cac6", "fusion_lon": 0.0, "rental_uris": {"android": "https://dc.lft.to/lastmile_qr_scan", "ios": "https://dc.lft.to/lastmile_qr_scan"}, "name": "3e9ee4f8d9c8f0903d9b71352350cac6", "type": "electric_scooter", "lat": 38.913285333333334, "is_disabled": 0}, {"fusion_lat": 0.0, "lon": -77.02846416666667, "is_reserved": 0, "bike_id": "ea59131a8a28ad38de69e7eef1813e74", "fusion_lon": 0.0, "rental_uris": {"android": "https://dc.lft.to/lastmile_qr_scan", "ios": "https://dc.lft.to/lastmile_qr_scan"}, "name": "ea59131a8a28ad38de69e7eef1813e74", "type": "electric_scooter", "lat": 38.9044045, "is_disabled": 0}, {"fusion_lat": 0.0, "lon": -77.0323545, "is_reserved": 0, "bike_id": "ffe954e634405ad76b5fb9f925e1809a", "fusion_lon": 0.0, "rental_uris": {"android": "https://dc.lft.to/lastmile_qr_scan", "ios": "https://dc.lft.to/lastmile_qr_scan"}, "name": "ffe954e634405ad76b5fb9f925e1809a", "type": "electric_scooter", "lat": 38.91559516666667, "is_disabled": 0}, {"fusion_lat": 0.0, "lon": -77.0083875, "is_reserved": 0, "bike_id": "ba48b734106492a864b1a6bca6ae31e0", "fusion_lon": 0.0, "rental_uris": {"android": "https://dc.lft.to/lastmile_qr_scan", "ios": "https://dc.lft.to/lastmile_qr_scan"}, "name": "ba48b734106492a864b1a6bca6ae31e0", "type": "electric_scooter", "lat": 38.92249316666667, "is_disabled": 0}, {"fusion_lat": 0.0, "lon": -76.94956783333333, "is_reserved": 0, "bike_id": "d8d57329ffe2266f40368e4daef0d6ac", "fusion_lon": 0.0, "rental_uris": {"android": "https://dc.lft.to/lastmile_qr_scan", "ios": "https://dc.lft.to/lastmile_qr_scan"}, "name": "d8d57329ffe2266f40368e4daef0d6ac", "type": "electric_scooter", "lat": 38.8943805, "is_disabled": 0}, {"fusion_lat": 0.0, "lon": -76.99776983333334, "is_reserved": 0, "bike_id": "e493c452333f04c41452e748f03b2cea", "fusion_lon": 0.0, "rental_uris": {"android": "https://dc.lft.to/lastmile_qr_scan", "ios": "https://dc.lft.to/lastmile_qr_scan"}, "name": "e493c452333f04c41452e748f03b2cea", "type": "electric_scooter", "lat": 38.84433633333333, "is_disabled": 0}, {"fusion_lat": 0.0, "lon": -77.02593783333333, "is_reserved": 0, "bike_id": "686ffce5ea43ffb952fb10e22bef782f", "fusion_lon": 0.0, "rental_uris": {"android": "https://dc.lft.to/lastmile_qr_scan", "ios": "https://dc.lft.to/lastmile_qr_scan"}, "name": "686ffce5ea43ffb952fb10e22bef782f", "type": "electric_scooter", "lat": 38.96394383333333, "is_disabled": 0}, {"fusion_lat": 0.0, "lon": -77.03194666666667, "is_reserved": 0, "bike_id": "d97ebd30d527d2d008fd6be1ebda6ac8", "fusion_lon": 0.0, "rental_uris": {"android": "https://dc.lft.to/lastmile_qr_scan", "ios": "https://dc.lft.to/lastmile_qr_scan"}, "name": "d97ebd30d527d2d008fd6be1ebda6ac8", "type": "electric_scooter", "lat": 38.896626499999996, "is_disabled": 0}, {"fusion_lat": 0.0, "lon": -77.01773316666667, "is_reserved": 0, "bike_id": "32b8a76b0e508a3dad4a104cb990f49a", "fusion_lon": 0.0, "rental_uris": {"android": "https://dc.lft.to/lastmile_qr_scan", "ios": "https://dc.lft.to/lastmile_qr_scan"}, "name": "32b8a76b0e508a3dad4a104cb990f49a", "type": "electric_scooter", "lat": 38.9212045, "is_disabled": 0}, {"fusion_lat": 0.0, "lon": -76.97423566666667, "is_reserved": 0, "bike_id": "f2be6898b5247bdad38638cd70a03799", "fusion_lon": 0.0, "rental_uris": {"android": "https://dc.lft.to/lastmile_qr_scan", "ios": "https://dc.lft.to/lastmile_qr_scan"}, "name": "f2be6898b5247bdad38638cd70a03799", "type": "electric_scooter", "lat": 38.904013166666665, "is_disabled": 0}, {"fusion_lat": 0.0, "lon": -77.019067, "is_reserved": 0, "bike_id": "c5826e6309af08c27a9c933616b88fc9", "fusion_lon": 0.0, "rental_uris": {"android": "https://dc.lft.to/lastmile_qr_scan", "ios": "https://dc.lft.to/lastmile_qr_scan"}, "name": "c5826e6309af08c27a9c933616b88fc9", "type": "electric_scooter", "lat": 38.919348166666666, "is_disabled": 0}, {"fusion_lat": 0.0, "lon": -76.93755533333334, "is_reserved": 0, "bike_id": "e0d3112050a19643928691c430f153f1", "fusion_lon": 0.0, "rental_uris": {"android": "https://dc.lft.to/lastmile_qr_scan", "ios": "https://dc.lft.to/lastmile_qr_scan"}, "name": "e0d3112050a19643928691c430f153f1", "type": "electric_scooter", "lat": 38.89051333333333, "is_disabled": 0}, {"fusion_lat": 0.0, "lon": -76.9438015, "is_reserved": 0, "bike_id": "b5283cf52581dca9ac91ac84a6a732b6", "fusion_lon": 0.0, "rental_uris": {"android": "https://dc.lft.to/lastmile_qr_scan", "ios": "https://dc.lft.to/lastmile_qr_scan"}, "name": "b5283cf52581dca9ac91ac84a6a732b6", "type": "electric_scooter", "lat": 38.89325816666667, "is_disabled": 0}, {"fusion_lat": 0.0, "lon": -77.090664, "is_reserved": 0, "bike_id": "fc109feadac9828c6426d77917f2e5bd", "fusion_lon": 0.0, "rental_uris": {"android": "https://dc.lft.to/lastmile_qr_scan", "ios": "https://dc.lft.to/lastmile_qr_scan"}, "name": "fc109feadac9828c6426d77917f2e5bd", "type": "electric_bike", "lat": 38.862602333333335, "is_disabled": 0}, {"fusion_lat": 0.0, "lon": -77.033653, "is_reserved": 0, "bike_id": "e105d96756b60159f5d7a18d30e312cc", "fusion_lon": 0.0, "rental_uris": {"android": "https://dc.lft.to/lastmile_qr_scan", "ios": "https://dc.lft.to/lastmile_qr_scan"}, "name": "e105d96756b60159f5d7a18d30e312cc", "type": "electric_scooter", "lat": 38.8991165, "is_disabled": 0}, {"fusion_lat": 0.0, "lon": -76.986244, "is_reserved": 0, "bike_id": "f5ba911ba85bae6c09659a0e14c9b392", "fusion_lon": 0.0, "rental_uris": {"android": "https://dc.lft.to/lastmile_qr_scan", "ios": "https://dc.lft.to/lastmile_qr_scan"}, "name": "f5ba911ba85bae6c09659a0e14c9b392", "type": "electric_scooter", "lat": 38.9011485, "is_disabled": 0}, {"fusion_lat": 0.0, "lon": -77.0299135, "is_reserved": 0, "bike_id": "8184f8e7711a829555837d4a9cbe50d8", "fusion_lon": 0.0, "rental_uris": {"android": "https://dc.lft.to/lastmile_qr_scan", "ios": "https://dc.lft.to/lastmile_qr_scan"}, "name": "8184f8e7711a829555837d4a9cbe50d8", "type": "electric_bike", "lat": 38.93455866666667, "is_disabled": 0}, {"fusion_lat": 0.0, "lon": -76.9870625, "is_reserved": 0, "bike_id": "b2a84329775e9c19c196f9e45f8e017b", "fusion_lon": 0.0, "rental_uris": {"android": "https://dc.lft.to/lastmile_qr_scan", "ios": "https://dc.lft.to/lastmile_qr_scan"}, "name": "b2a84329775e9c19c196f9e45f8e017b", "type": "electric_scooter", "lat": 38.89969216666667, "is_disabled": 0}, {"fusion_lat": 0.0, "lon": -76.97824366666667, "is_reserved": 0, "bike_id": "2f7dbb594941efa46e2b25aab021cca4", "fusion_lon": 0.0, "rental_uris": {"android": "https://dc.lft.to/lastmile_qr_scan", "ios": "https://dc.lft.to/lastmile_qr_scan"}, "name": "2f7dbb594941efa46e2b25aab021cca4", "type": "electric_bike", "lat": 38.843670833333334, "is_disabled": 0}, {"fusion_lat": 0.0, "lon": -77.04146583333333, "is_reserved": 0, "bike_id": "488487c4c2e43e6d38ad59cbcd809b19", "fusion_lon": 0.0, "rental_uris": {"android": "https://dc.lft.to/lastmile_qr_scan", "ios": "https://dc.lft.to/lastmile_qr_scan"}, "name": "488487c4c2e43e6d38ad59cbcd809b19", "type": "electric_scooter", "lat": 38.917757333333334, "is_disabled": 0}, {"fusion_lat": 0.0, "lon": -77.0215015, "is_reserved": 0, "bike_id": "4bfd80bae728839727ff712ed565be00", "fusion_lon": 0.0, "rental_uris": {"android": "https://dc.lft.to/lastmile_qr_scan", "ios": "https://dc.lft.to/lastmile_qr_scan"}, "name": "4bfd80bae728839727ff712ed565be00", "type": "electric_scooter", "lat": 38.87923166666667, "is_disabled": 0}, {"fusion_lat": 0.0, "lon": -77.04509366666667, "is_reserved": 0, "bike_id": "27dbce427a0a4175874cd32cefaccfb2", "fusion_lon": 0.0, "rental_uris": {"android": "https://dc.lft.to/lastmile_qr_scan", "ios": "https://dc.lft.to/lastmile_qr_scan"}, "name": "27dbce427a0a4175874cd32cefaccfb2", "type": "electric_scooter", "lat": 38.907754833333335, "is_disabled": 0}, {"fusion_lat": 0.0, "lon": -77.00372133333333, "is_reserved": 0, "bike_id": "6cc7bca76ea5455e6a80f4cda0fe67dc", "fusion_lon": 0.0, "rental_uris": {"android": "https://dc.lft.to/lastmile_qr_scan", "ios": "https://dc.lft.to/lastmile_qr_scan"}, "name": "6cc7bca76ea5455e6a80f4cda0fe67dc", "type": "electric_scooter", "lat": 38.897300333333334, "is_disabled": 0}, {"fusion_lat": 0.0, "lon": -76.98038866666667, "is_reserved": 0, "bike_id": "58fac36cdd2738468774356f2302cf3e", "fusion_lon": 0.0, "rental_uris": {"android": "https://dc.lft.to/lastmile_qr_scan", "ios": "https://dc.lft.to/lastmile_qr_scan"}, "name": "58fac36cdd2738468774356f2302cf3e", "type": "electric_bike", "lat": 38.88967816666667, "is_disabled": 0}, {"fusion_lat": 0.0, "lon": -77.02696583333334, "is_reserved": 0, "bike_id": "5f5194e302fe44e5a10359a9cdbf6677", "fusion_lon": 0.0, "rental_uris": {"android": "https://dc.lft.to/lastmile_qr_scan", "ios": "https://dc.lft.to/lastmile_qr_scan"}, "name": "5f5194e302fe44e5a10359a9cdbf6677", "type": "electric_scooter", "lat": 38.92335283333333, "is_disabled": 0}, {"fusion_lat": 0.0, "lon": -77.03987, "is_reserved": 0, "bike_id": "2b0da6a869c1f0caf2463b3f76f290ee", "fusion_lon": 0.0, "rental_uris": {"android": "https://dc.lft.to/lastmile_qr_scan", "ios": "https://dc.lft.to/lastmile_qr_scan"}, "name": "2b0da6a869c1f0caf2463b3f76f290ee", "type": "electric_scooter", "lat": 38.91760766666667, "is_disabled": 0}, {"fusion_lat": 0.0, "lon": -77.01132383333334, "is_reserved": 0, "bike_id": "ac85a6e2c1df2cb6d49b08a7072619de", "fusion_lon": 0.0, "rental_uris": {"android": "https://dc.lft.to/lastmile_qr_scan", "ios": "https://dc.lft.to/lastmile_qr_scan"}, "name": "ac85a6e2c1df2cb6d49b08a7072619de", "type": "electric_scooter", "lat": 38.880339, "is_disabled": 0}, {"fusion_lat": 0.0, "lon": -77.018117, "is_reserved": 0, "bike_id": "41d63c8b4e69e23887098354362bc920", "fusion_lon": 0.0, "rental_uris": {"android": "https://dc.lft.to/lastmile_qr_scan", "ios": "https://dc.lft.to/lastmile_qr_scan"}, "name": "41d63c8b4e69e23887098354362bc920", "type": "electric_scooter", "lat": 38.909657833333334, "is_disabled": 0}, {"fusion_lat": 0.0, "lon": -77.01640766666667, "is_reserved": 0, "bike_id": "9aad264ef266be52921f8561e704f435", "fusion_lon": 0.0, "rental_uris": {"android": "https://dc.lft.to/lastmile_qr_scan", "ios": "https://dc.lft.to/lastmile_qr_scan"}, "name": "9aad264ef266be52921f8561e704f435", "type": "electric_scooter", "lat": 38.9037615, "is_disabled": 0}, {"fusion_lat": 0.0, "lon": -76.99773716666667, "is_reserved": 0, "bike_id": "94d44f9571ac662b7f7590995674ad34", "fusion_lon": 0.0, "rental_uris": {"android": "https://dc.lft.to/lastmile_qr_scan", "ios": "https://dc.lft.to/lastmile_qr_scan"}, "name": "94d44f9571ac662b7f7590995674ad34", "type": "electric_scooter", "lat": 38.911317, "is_disabled": 0}, {"fusion_lat": 0.0, "lon": -77.00716333333334, "is_reserved": 0, "bike_id": "a6e83e1a18258219cbb22645ba6db050", "fusion_lon": 0.0, "rental_uris": {"android": "https://dc.lft.to/lastmile_qr_scan", "ios": "https://dc.lft.to/lastmile_qr_scan"}, "name": "a6e83e1a18258219cbb22645ba6db050", "type": "electric_scooter", "lat": 38.905787833333335, "is_disabled": 0}, {"fusion_lat": 0.0, "lon": -77.04814516666667, "is_reserved": 0, "bike_id": "7b665b487c44ad5114592130e0887703", "fusion_lon": 0.0, "rental_uris": {"android": "https://dc.lft.to/lastmile_qr_scan", "ios": "https://dc.lft.to/lastmile_qr_scan"}, "name": "7b665b487c44ad5114592130e0887703", "type": "electric_scooter", "lat": 38.91918583333333, "is_disabled": 0}, {"fusion_lat": 0.0, "lon": -76.93885566666667, "is_reserved": 0, "bike_id": "e7aa5d9f5b75379c182582d495f2ce64", "fusion_lon": 0.0, "rental_uris": {"android": "https://dc.lft.to/lastmile_qr_scan", "ios": "https://dc.lft.to/lastmile_qr_scan"}, "name": "e7aa5d9f5b75379c182582d495f2ce64", "type": "electric_bike", "lat": 38.9563705, "is_disabled": 0}, {"fusion_lat": 0.0, "lon": -77.03462933333333, "is_reserved": 0, "bike_id": "b6fd1b1da97f73abe438cd0431e06db7", "fusion_lon": 0.0, "rental_uris": {"android": "https://dc.lft.to/lastmile_qr_scan", "ios": "https://dc.lft.to/lastmile_qr_scan"}, "name": "b6fd1b1da97f73abe438cd0431e06db7", "type": "electric_scooter", "lat": 38.92352283333334, "is_disabled": 0}, {"fusion_lat": 0.0, "lon": -77.00982533333334, "is_reserved": 0, "bike_id": "396f0ab36fd094364513473fc852f4be", "fusion_lon": 0.0, "rental_uris": {"android": "https://dc.lft.to/lastmile_qr_scan", "ios": "https://dc.lft.to/lastmile_qr_scan"}, "name": "396f0ab36fd094364513473fc852f4be", "type": "electric_scooter", "lat": 38.87285083333333, "is_disabled": 0}, {"fusion_lat": 0.0, "lon": -77.023885, "is_reserved": 0, "bike_id": "26ebdbf2d4342c68513f15ffb61a28c2", "fusion_lon": 0.0, "rental_uris": {"android": "https://dc.lft.to/lastmile_qr_scan", "ios": "https://dc.lft.to/lastmile_qr_scan"}, "name": "26ebdbf2d4342c68513f15ffb61a28c2", "type": "electric_scooter", "lat": 38.91599433333333, "is_disabled": 0}, {"fusion_lat": 0.0, "lon": -77.0417865, "is_reserved": 0, "bike_id": "f98dd6522463409349859c6191b842ec", "fusion_lon": 0.0, "rental_uris": {"android": "https://dc.lft.to/lastmile_qr_scan", "ios": "https://dc.lft.to/lastmile_qr_scan"}, "name": "f98dd6522463409349859c6191b842ec", "type": "electric_scooter", "lat": 38.91662266666667, "is_disabled": 0}, {"fusion_lat": 0.0, "lon": -76.99417816666667, "is_reserved": 0, "bike_id": "06bfb4caf522004f43dc69dbc80b6893", "fusion_lon": 0.0, "rental_uris": {"android": "https://dc.lft.to/lastmile_qr_scan", "ios": "https://dc.lft.to/lastmile_qr_scan"}, "name": "06bfb4caf522004f43dc69dbc80b6893", "type": "electric_scooter", "lat": 38.950533666666665, "is_disabled": 0}, {"fusion_lat": 0.0, "lon": -77.0498125, "is_reserved": 0, "bike_id": "6c3e640b21f5010af6bf7a749b766a7e", "fusion_lon": 0.0, "rental_uris": {"android": "https://dc.lft.to/lastmile_qr_scan", "ios": "https://dc.lft.to/lastmile_qr_scan"}, "name": "6c3e640b21f5010af6bf7a749b766a7e", "type": "electric_scooter", "lat": 38.897204, "is_disabled": 0}, {"fusion_lat": 0.0, "lon": -77.032639, "is_reserved": 0, "bike_id": "d9b438b209e5f41cc12ae8a0758b4b88", "fusion_lon": 0.0, "rental_uris": {"android": "https://dc.lft.to/lastmile_qr_scan", "ios": "https://dc.lft.to/lastmile_qr_scan"}, "name": "d9b438b209e5f41cc12ae8a0758b4b88", "type": "electric_scooter", "lat": 38.941568333333336, "is_disabled": 0}, {"fusion_lat": 0.0, "lon": -77.038503, "is_reserved": 0, "bike_id": "7aafc5d3f14d0cfdb153a13ca7cc53f3", "fusion_lon": 0.0, "rental_uris": {"android": "https://dc.lft.to/lastmile_qr_scan", "ios": "https://dc.lft.to/lastmile_qr_scan"}, "name": "7aafc5d3f14d0cfdb153a13ca7cc53f3", "type": "electric_scooter", "lat": 38.91658266666666, "is_disabled": 0}, {"fusion_lat": 0.0, "lon": -77.04503583333333, "is_reserved": 0, "bike_id": "6e8cad4d671749aff81c638500e65484", "fusion_lon": 0.0, "rental_uris": {"android": "https://dc.lft.to/lastmile_qr_scan", "ios": "https://dc.lft.to/lastmile_qr_scan"}, "name": "6e8cad4d671749aff81c638500e65484", "type": "electric_scooter", "lat": 38.90786466666667, "is_disabled": 0}, {"fusion_lat": 0.0, "lon": -77.0042005, "is_reserved": 0, "bike_id": "7de6cbb4d71cad42f95e826af9c6e31a", "fusion_lon": 0.0, "rental_uris": {"android": "https://dc.lft.to/lastmile_qr_scan", "ios": "https://dc.lft.to/lastmile_qr_scan"}, "name": "7de6cbb4d71cad42f95e826af9c6e31a", "type": "electric_scooter", "lat": 38.876524833333335, "is_disabled": 0}, {"fusion_lat": 0.0, "lon": -76.98272566666667, "is_reserved": 0, "bike_id": "f504d32c0faf683ec25bc7b8ff60a68e", "fusion_lon": 0.0, "rental_uris": {"android": "https://dc.lft.to/lastmile_qr_scan", "ios": "https://dc.lft.to/lastmile_qr_scan"}, "name": "f504d32c0faf683ec25bc7b8ff60a68e", "type": "electric_scooter", "lat": 38.8993525, "is_disabled": 0}, {"fusion_lat": 0.0, "lon": -77.0287215, "is_reserved": 0, "bike_id": "50eecf4279e79e136c8aa92620117cc8", "fusion_lon": 0.0, "rental_uris": {"android": "https://dc.lft.to/lastmile_qr_scan", "ios": "https://dc.lft.to/lastmile_qr_scan"}, "name": "50eecf4279e79e136c8aa92620117cc8", "type": "electric_scooter", "lat": 38.925752333333335, "is_disabled": 0}, {"fusion_lat": 0.0, "lon": -77.08394633333333, "is_reserved": 0, "bike_id": "b969c2da99069330703e322e1b7a53c7", "fusion_lon": 0.0, "rental_uris": {"android": "https://dc.lft.to/lastmile_qr_scan", "ios": "https://dc.lft.to/lastmile_qr_scan"}, "name": "b969c2da99069330703e322e1b7a53c7", "type": "electric_scooter", "lat": 38.908029666666664, "is_disabled": 0}, {"fusion_lat": 0.0, "lon": -77.05689016666666, "is_reserved": 0, "bike_id": "7224188bbfcbbd306e98b7897dbbaaf1", "fusion_lon": 0.0, "rental_uris": {"android": "https://dc.lft.to/lastmile_qr_scan", "ios": "https://dc.lft.to/lastmile_qr_scan"}, "name": "7224188bbfcbbd306e98b7897dbbaaf1", "type": "electric_scooter", "lat": 38.906029, "is_disabled": 0}, {"fusion_lat": 0.0, "lon": -77.02611016666667, "is_reserved": 0, "bike_id": "e8faa79dd2069be93f5f8f39b4e37c5a", "fusion_lon": 0.0, "rental_uris": {"android": "https://dc.lft.to/lastmile_qr_scan", "ios": "https://dc.lft.to/lastmile_qr_scan"}, "name": "e8faa79dd2069be93f5f8f39b4e37c5a", "type": "electric_scooter", "lat": 38.9298575, "is_disabled": 0}, {"fusion_lat": 0.0, "lon": -77.0369195, "is_reserved": 0, "bike_id": "28b0e0566ad6b810339c0eeb32e6a9ff", "fusion_lon": 0.0, "rental_uris": {"android": "https://dc.lft.to/lastmile_qr_scan", "ios": "https://dc.lft.to/lastmile_qr_scan"}, "name": "28b0e0566ad6b810339c0eeb32e6a9ff", "type": "electric_scooter", "lat": 38.91679666666667, "is_disabled": 0}, {"fusion_lat": 0.0, "lon": -77.02220033333333, "is_reserved": 0, "bike_id": "f402f83cdcb9062b8416a17c504dc318", "fusion_lon": 0.0, "rental_uris": {"android": "https://dc.lft.to/lastmile_qr_scan", "ios": "https://dc.lft.to/lastmile_qr_scan"}, "name": "f402f83cdcb9062b8416a17c504dc318", "type": "electric_bike", "lat": 38.95687366666667, "is_disabled": 0}, {"fusion_lat": 0.0, "lon": -77.00410866666667, "is_reserved": 0, "bike_id": "92a84a4eb4783ad936aaf467705eda40", "fusion_lon": 0.0, "rental_uris": {"android": "https://dc.lft.to/lastmile_qr_scan", "ios": "https://dc.lft.to/lastmile_qr_scan"}, "name": "92a84a4eb4783ad936aaf467705eda40", "type": "electric_scooter", "lat": 38.905549, "is_disabled": 0}, {"fusion_lat": 0.0, "lon": -76.98777883333334, "is_reserved": 0, "bike_id": "0651829823610ca285ddfc31b5a42715", "fusion_lon": 0.0, "rental_uris": {"android": "https://dc.lft.to/lastmile_qr_scan", "ios": "https://dc.lft.to/lastmile_qr_scan"}, "name": "0651829823610ca285ddfc31b5a42715", "type": "electric_scooter", "lat": 38.84466483333333, "is_disabled": 0}, {"fusion_lat": 0.0, "lon": -76.99861883333334, "is_reserved": 0, "bike_id": "c61a2341ef49f245912b9e3288d54786", "fusion_lon": 0.0, "rental_uris": {"android": "https://dc.lft.to/lastmile_qr_scan", "ios": "https://dc.lft.to/lastmile_qr_scan"}, "name": "c61a2341ef49f245912b9e3288d54786", "type": "electric_bike", "lat": 38.89727283333333, "is_disabled": 0}, {"fusion_lat": 0.0, "lon": -77.05212233333333, "is_reserved": 0, "bike_id": "cdbbdd59aaf94638a4d849a12b833ff9", "fusion_lon": 0.0, "rental_uris": {"android": "https://dc.lft.to/lastmile_qr_scan", "ios": "https://dc.lft.to/lastmile_qr_scan"}, "name": "cdbbdd59aaf94638a4d849a12b833ff9", "type": "electric_bike", "lat": 38.9001415, "is_disabled": 0}, {"fusion_lat": 0.0, "lon": -77.034814, "is_reserved": 0, "bike_id": "4c9068c93d3f87cb6e755cf6414e1be4", "fusion_lon": 0.0, "rental_uris": {"android": "https://dc.lft.to/lastmile_qr_scan", "ios": "https://dc.lft.to/lastmile_qr_scan"}, "name": "4c9068c93d3f87cb6e755cf6414e1be4", "type": "electric_scooter", "lat": 38.92483266666667, "is_disabled": 0}, {"fusion_lat": 0.0, "lon": -77.10328983333333, "is_reserved": 0, "bike_id": "055980350264e428669c8794e53e728b", "fusion_lon": 0.0, "rental_uris": {"android": "https://dc.lft.to/lastmile_qr_scan", "ios": "https://dc.lft.to/lastmile_qr_scan"}, "name": "055980350264e428669c8794e53e728b", "type": "electric_bike", "lat": 38.874161, "is_disabled": 0}, {"fusion_lat": 0.0, "lon": -77.0238605, "is_reserved": 0, "bike_id": "1a19e7929ce158c654ee598f80725ee1", "fusion_lon": 0.0, "rental_uris": {"android": "https://dc.lft.to/lastmile_qr_scan", "ios": "https://dc.lft.to/lastmile_qr_scan"}, "name": "1a19e7929ce158c654ee598f80725ee1", "type": "electric_scooter", "lat": 38.909535166666664, "is_disabled": 0}, {"fusion_lat": 0.0, "lon": -77.023947, "is_reserved": 0, "bike_id": "060e6bd68d909ef2f73372fe237eff1a", "fusion_lon": 0.0, "rental_uris": {"android": "https://dc.lft.to/lastmile_qr_scan", "ios": "https://dc.lft.to/lastmile_qr_scan"}, "name": "060e6bd68d909ef2f73372fe237eff1a", "type": "electric_scooter", "lat": 38.95708233333333, "is_disabled": 0}, {"fusion_lat": 0.0, "lon": -76.93139616666667, "is_reserved": 0, "bike_id": "f4d24b7ebec8810f14e266b943c9e07e", "fusion_lon": 0.0, "rental_uris": {"android": "https://dc.lft.to/lastmile_qr_scan", "ios": "https://dc.lft.to/lastmile_qr_scan"}, "name": "f4d24b7ebec8810f14e266b943c9e07e", "type": "electric_scooter", "lat": 38.88077716666667, "is_disabled": 0}, {"fusion_lat": 0.0, "lon": -77.03395516666667, "is_reserved": 0, "bike_id": "232fd839e2909457b191fd098142f979", "fusion_lon": 0.0, "rental_uris": {"android": "https://dc.lft.to/lastmile_qr_scan", "ios": "https://dc.lft.to/lastmile_qr_scan"}, "name": "232fd839e2909457b191fd098142f979", "type": "electric_scooter", "lat": 38.92306833333333, "is_disabled": 0}, {"fusion_lat": 0.0, "lon": -77.03083083333334, "is_reserved": 0, "bike_id": "b8efc6230aa108b7f71f95e20fb216da", "fusion_lon": 0.0, "rental_uris": {"android": "https://dc.lft.to/lastmile_qr_scan", "ios": "https://dc.lft.to/lastmile_qr_scan"}, "name": "b8efc6230aa108b7f71f95e20fb216da", "type": "electric_scooter", "lat": 38.917531833333335, "is_disabled": 0}, {"fusion_lat": 0.0, "lon": -76.99384233333333, "is_reserved": 0, "bike_id": "fd131429c6002e69773da61ba3f0605d", "fusion_lon": 0.0, "rental_uris": {"android": "https://dc.lft.to/lastmile_qr_scan", "ios": "https://dc.lft.to/lastmile_qr_scan"}, "name": "fd131429c6002e69773da61ba3f0605d", "type": "electric_scooter", "lat": 38.89730466666666, "is_disabled": 0}, {"fusion_lat": 0.0, "lon": -77.01863933333334, "is_reserved": 0, "bike_id": "f074af098f23bc621930e191c2fa3d02", "fusion_lon": 0.0, "rental_uris": {"android": "https://dc.lft.to/lastmile_qr_scan", "ios": "https://dc.lft.to/lastmile_qr_scan"}, "name": "f074af098f23bc621930e191c2fa3d02", "type": "electric_scooter", "lat": 38.973717, "is_disabled": 0}, {"fusion_lat": 0.0, "lon": -76.996356, "is_reserved": 0, "bike_id": "606bb1a676abf32e002e68d70fb795d2", "fusion_lon": 0.0, "rental_uris": {"android": "https://dc.lft.to/lastmile_qr_scan", "ios": "https://dc.lft.to/lastmile_qr_scan"}, "name": "606bb1a676abf32e002e68d70fb795d2", "type": "electric_scooter", "lat": 38.9001725, "is_disabled": 0}, {"fusion_lat": 0.0, "lon": -77.04194433333333, "is_reserved": 0, "bike_id": "7a5d347beb884b9665a622ceec964a2a", "fusion_lon": 0.0, "rental_uris": {"android": "https://dc.lft.to/lastmile_qr_scan", "ios": "https://dc.lft.to/lastmile_qr_scan"}, "name": "7a5d347beb884b9665a622ceec964a2a", "type": "electric_scooter", "lat": 38.91971816666667, "is_disabled": 0}, {"fusion_lat": 0.0, "lon": -76.99833416666667, "is_reserved": 0, "bike_id": "7f8253e4a10e161f964c9c01988d1558", "fusion_lon": 0.0, "rental_uris": {"android": "https://dc.lft.to/lastmile_qr_scan", "ios": "https://dc.lft.to/lastmile_qr_scan"}, "name": "7f8253e4a10e161f964c9c01988d1558", "type": "electric_scooter", "lat": 38.9002035, "is_disabled": 0}, {"fusion_lat": 0.0, "lon": -76.99372616666666, "is_reserved": 0, "bike_id": "a18a81e170b4b1249f48f2f7ce49d8c7", "fusion_lon": 0.0, "rental_uris": {"android": "https://dc.lft.to/lastmile_qr_scan", "ios": "https://dc.lft.to/lastmile_qr_scan"}, "name": "a18a81e170b4b1249f48f2f7ce49d8c7", "type": "electric_bike", "lat": 38.97184516666667, "is_disabled": 0}, {"fusion_lat": 0.0, "lon": -77.05736883333333, "is_reserved": 0, "bike_id": "518fc8d8ab365e473d8fa20017355720", "fusion_lon": 0.0, "rental_uris": {"android": "https://dc.lft.to/lastmile_qr_scan", "ios": "https://dc.lft.to/lastmile_qr_scan"}, "name": "518fc8d8ab365e473d8fa20017355720", "type": "electric_scooter", "lat": 38.9338865, "is_disabled": 0}, {"fusion_lat": 0.0, "lon": -77.02940783333334, "is_reserved": 0, "bike_id": "59dac3bcb046f40d59010e7650063d62", "fusion_lon": 0.0, "rental_uris": {"android": "https://dc.lft.to/lastmile_qr_scan", "ios": "https://dc.lft.to/lastmile_qr_scan"}, "name": "59dac3bcb046f40d59010e7650063d62", "type": "electric_scooter", "lat": 38.916841, "is_disabled": 0}, {"fusion_lat": 0.0, "lon": -76.99934916666666, "is_reserved": 0, "bike_id": "33b0b00bbb708cbc8d401adf20767a09", "fusion_lon": 0.0, "rental_uris": {"android": "https://dc.lft.to/lastmile_qr_scan", "ios": "https://dc.lft.to/lastmile_qr_scan"}, "name": "33b0b00bbb708cbc8d401adf20767a09", "type": "electric_scooter", "lat": 38.84300783333333, "is_disabled": 0}, {"fusion_lat": 0.0, "lon": -77.02487133333334, "is_reserved": 0, "bike_id": "70167692b1a93bc11aa413846aba140a", "fusion_lon": 0.0, "rental_uris": {"android": "https://dc.lft.to/lastmile_qr_scan", "ios": "https://dc.lft.to/lastmile_qr_scan"}, "name": "70167692b1a93bc11aa413846aba140a", "type": "electric_scooter", "lat": 38.937489666666664, "is_disabled": 0}, {"fusion_lat": 0.0, "lon": -77.03299466666667, "is_reserved": 0, "bike_id": "8fb5bd5de6b1502d608594f1b97a437b", "fusion_lon": 0.0, "rental_uris": {"android": "https://dc.lft.to/lastmile_qr_scan", "ios": "https://dc.lft.to/lastmile_qr_scan"}, "name": "8fb5bd5de6b1502d608594f1b97a437b", "type": "electric_bike", "lat": 38.92629316666667, "is_disabled": 0}, {"fusion_lat": 0.0, "lon": -77.015218, "is_reserved": 0, "bike_id": "d11da7cd4f1fc7cf1c71b663e314d977", "fusion_lon": 0.0, "rental_uris": {"android": "https://dc.lft.to/lastmile_qr_scan", "ios": "https://dc.lft.to/lastmile_qr_scan"}, "name": "d11da7cd4f1fc7cf1c71b663e314d977", "type": "electric_bike", "lat": 38.918687, "is_disabled": 0}, {"fusion_lat": 0.0, "lon": -76.948729, "is_reserved": 0, "bike_id": "47c395259da7d24ac59ac8531f91fec6", "fusion_lon": 0.0, "rental_uris": {"android": "https://dc.lft.to/lastmile_qr_scan", "ios": "https://dc.lft.to/lastmile_qr_scan"}, "name": "47c395259da7d24ac59ac8531f91fec6", "type": "electric_scooter", "lat": 38.89548083333333, "is_disabled": 0}, {"fusion_lat": 0.0, "lon": -77.06277166666666, "is_reserved": 0, "bike_id": "e4453c54c3390bc71ec2d10f6886c5b6", "fusion_lon": 0.0, "rental_uris": {"android": "https://dc.lft.to/lastmile_qr_scan", "ios": "https://dc.lft.to/lastmile_qr_scan"}, "name": "e4453c54c3390bc71ec2d10f6886c5b6", "type": "electric_scooter", "lat": 38.90581666666667, "is_disabled": 0}, {"fusion_lat": 0.0, "lon": -77.010691, "is_reserved": 0, "bike_id": "9edef66cb4ddf4008072d1786a667b75", "fusion_lon": 0.0, "rental_uris": {"android": "https://dc.lft.to/lastmile_qr_scan", "ios": "https://dc.lft.to/lastmile_qr_scan"}, "name": "9edef66cb4ddf4008072d1786a667b75", "type": "electric_scooter", "lat": 38.91761733333333, "is_disabled": 0}, {"fusion_lat": 0.0, "lon": -77.07323733333334, "is_reserved": 0, "bike_id": "b2dd9742fa7c85ca9eeac0092158cd53", "fusion_lon": 0.0, "rental_uris": {"android": "https://dc.lft.to/lastmile_qr_scan", "ios": "https://dc.lft.to/lastmile_qr_scan"}, "name": "b2dd9742fa7c85ca9eeac0092158cd53", "type": "electric_scooter", "lat": 38.9260815, "is_disabled": 0}, {"fusion_lat": 0.0, "lon": -77.038499, "is_reserved": 0, "bike_id": "5b73b2ba6061c79b56d441bd6c05209a", "fusion_lon": 0.0, "rental_uris": {"android": "https://dc.lft.to/lastmile_qr_scan", "ios": "https://dc.lft.to/lastmile_qr_scan"}, "name": "5b73b2ba6061c79b56d441bd6c05209a", "type": "electric_scooter", "lat": 38.903677333333334, "is_disabled": 0}, {"fusion_lat": 0.0, "lon": -77.00377516666667, "is_reserved": 0, "bike_id": "cef4f896c50f02f56e90f3100c2003c6", "fusion_lon": 0.0, "rental_uris": {"android": "https://dc.lft.to/lastmile_qr_scan", "ios": "https://dc.lft.to/lastmile_qr_scan"}, "name": "cef4f896c50f02f56e90f3100c2003c6", "type": "electric_scooter", "lat": 38.911091166666665, "is_disabled": 0}, {"fusion_lat": 0.0, "lon": -76.97846883333334, "is_reserved": 0, "bike_id": "e63dd30b670f53c9ad231e9308bb17a2", "fusion_lon": 0.0, "rental_uris": {"android": "https://dc.lft.to/lastmile_qr_scan", "ios": "https://dc.lft.to/lastmile_qr_scan"}, "name": "e63dd30b670f53c9ad231e9308bb17a2", "type": "electric_bike", "lat": 38.888763833333336, "is_disabled": 0}, {"fusion_lat": 0.0, "lon": -77.00359466666667, "is_reserved": 0, "bike_id": "bb6a69d6b93b244edb4f1d4104e1c96e", "fusion_lon": 0.0, "rental_uris": {"android": "https://dc.lft.to/lastmile_qr_scan", "ios": "https://dc.lft.to/lastmile_qr_scan"}, "name": "bb6a69d6b93b244edb4f1d4104e1c96e", "type": "electric_scooter", "lat": 38.88256883333333, "is_disabled": 0}, {"fusion_lat": 0.0, "lon": -77.01166616666667, "is_reserved": 0, "bike_id": "5de5c3297800252558c51287040d2586", "fusion_lon": 0.0, "rental_uris": {"android": "https://dc.lft.to/lastmile_qr_scan", "ios": "https://dc.lft.to/lastmile_qr_scan"}, "name": "5de5c3297800252558c51287040d2586", "type": "electric_scooter", "lat": 38.900233666666665, "is_disabled": 0}, {"fusion_lat": 0.0, "lon": -77.03242783333333, "is_reserved": 0, "bike_id": "81a9dd396fea4424ff7471f0b26af048", "fusion_lon": 0.0, "rental_uris": {"android": "https://dc.lft.to/lastmile_qr_scan", "ios": "https://dc.lft.to/lastmile_qr_scan"}, "name": "81a9dd396fea4424ff7471f0b26af048", "type": "electric_scooter", "lat": 38.928475, "is_disabled": 0}, {"fusion_lat": 0.0, "lon": -77.011305, "is_reserved": 0, "bike_id": "0c3bbecf0805714494b29f036e879b09", "fusion_lon": 0.0, "rental_uris": {"android": "https://dc.lft.to/lastmile_qr_scan", "ios": "https://dc.lft.to/lastmile_qr_scan"}, "name": "0c3bbecf0805714494b29f036e879b09", "type": "electric_scooter", "lat": 38.898701333333335, "is_disabled": 0}, {"fusion_lat": 0.0, "lon": -77.03855366666667, "is_reserved": 0, "bike_id": "b0f30567f9e45c3002fd932712d48956", "fusion_lon": 0.0, "rental_uris": {"android": "https://dc.lft.to/lastmile_qr_scan", "ios": "https://dc.lft.to/lastmile_qr_scan"}, "name": "b0f30567f9e45c3002fd932712d48956", "type": "electric_scooter", "lat": 38.916609666666666, "is_disabled": 0}, {"fusion_lat": 0.0, "lon": -77.01140066666666, "is_reserved": 0, "bike_id": "2200441871249b344428ef5b283083fd", "fusion_lon": 0.0, "rental_uris": {"android": "https://dc.lft.to/lastmile_qr_scan", "ios": "https://dc.lft.to/lastmile_qr_scan"}, "name": "2200441871249b344428ef5b283083fd", "type": "electric_scooter", "lat": 38.91588016666667, "is_disabled": 0}, {"fusion_lat": 0.0, "lon": -77.06326283333334, "is_reserved": 0, "bike_id": "1c2ce46149fdbfc22b7f4b4953de3787", "fusion_lon": 0.0, "rental_uris": {"android": "https://dc.lft.to/lastmile_qr_scan", "ios": "https://dc.lft.to/lastmile_qr_scan"}, "name": "1c2ce46149fdbfc22b7f4b4953de3787", "type": "electric_scooter", "lat": 38.94418983333333, "is_disabled": 0}, {"fusion_lat": 0.0, "lon": -77.0178595, "is_reserved": 0, "bike_id": "5f1b5fae731a394dcb1a9db34bf87041", "fusion_lon": 0.0, "rental_uris": {"android": "https://dc.lft.to/lastmile_qr_scan", "ios": "https://dc.lft.to/lastmile_qr_scan"}, "name": "5f1b5fae731a394dcb1a9db34bf87041", "type": "electric_scooter", "lat": 38.90399333333333, "is_disabled": 0}, {"fusion_lat": 0.0, "lon": -77.06161883333333, "is_reserved": 0, "bike_id": "5a2a339a67798828f2d629c5c3e33b31", "fusion_lon": 0.0, "rental_uris": {"android": "https://dc.lft.to/lastmile_qr_scan", "ios": "https://dc.lft.to/lastmile_qr_scan"}, "name": "5a2a339a67798828f2d629c5c3e33b31", "type": "electric_scooter", "lat": 38.902552, "is_disabled": 0}, {"fusion_lat": 0.0, "lon": -77.0124975, "is_reserved": 0, "bike_id": "cefde91eec0f26916a4c21e249e2d991", "fusion_lon": 0.0, "rental_uris": {"android": "https://dc.lft.to/lastmile_qr_scan", "ios": "https://dc.lft.to/lastmile_qr_scan"}, "name": "cefde91eec0f26916a4c21e249e2d991", "type": "electric_scooter", "lat": 38.900378333333336, "is_disabled": 0}, {"fusion_lat": 0.0, "lon": -77.11706333333333, "is_reserved": 0, "bike_id": "5c4da681b214f35cd2beec95d69e0568", "fusion_lon": 0.0, "rental_uris": {"android": "https://dc.lft.to/lastmile_qr_scan", "ios": "https://dc.lft.to/lastmile_qr_scan"}, "name": "5c4da681b214f35cd2beec95d69e0568", "type": "electric_bike", "lat": 38.86743416666667, "is_disabled": 0}, {"fusion_lat": 0.0, "lon": -76.98458683333334, "is_reserved": 0, "bike_id": "cfa6c773019122aa6573a8f1169ecd46", "fusion_lon": 0.0, "rental_uris": {"android": "https://dc.lft.to/lastmile_qr_scan", "ios": "https://dc.lft.to/lastmile_qr_scan"}, "name": "cfa6c773019122aa6573a8f1169ecd46", "type": "electric_scooter", "lat": 38.90389283333333, "is_disabled": 0}, {"fusion_lat": 0.0, "lon": -77.032435, "is_reserved": 0, "bike_id": "34d2a5ae1ccfc3599ab7f0d38bc6dc37", "fusion_lon": 0.0, "rental_uris": {"android": "https://dc.lft.to/lastmile_qr_scan", "ios": "https://dc.lft.to/lastmile_qr_scan"}, "name": "34d2a5ae1ccfc3599ab7f0d38bc6dc37", "type": "electric_scooter", "lat": 38.928451833333334, "is_disabled": 0}, {"fusion_lat": 0.0, "lon": -77.116121, "is_reserved": 0, "bike_id": "d46c5633ecae553e516a3bad1ee7ee7b", "fusion_lon": 0.0, "rental_uris": {"android": "https://dc.lft.to/lastmile_qr_scan", "ios": "https://dc.lft.to/lastmile_qr_scan"}, "name": "d46c5633ecae553e516a3bad1ee7ee7b", "type": "electric_bike", "lat": 38.85493316666667, "is_disabled": 0}, {"fusion_lat": 0.0, "lon": -77.00728, "is_reserved": 0, "bike_id": "88665fa5f65bcbde8015e22197247ec9", "fusion_lon": 0.0, "rental_uris": {"android": "https://dc.lft.to/lastmile_qr_scan", "ios": "https://dc.lft.to/lastmile_qr_scan"}, "name": "88665fa5f65bcbde8015e22197247ec9", "type": "electric_scooter", "lat": 38.88493183333333, "is_disabled": 0}, {"fusion_lat": 0.0, "lon": -77.03028116666667, "is_reserved": 0, "bike_id": "156c8fe8ce8da01323f0475ed012987b", "fusion_lon": 0.0, "rental_uris": {"android": "https://dc.lft.to/lastmile_qr_scan", "ios": "https://dc.lft.to/lastmile_qr_scan"}, "name": "156c8fe8ce8da01323f0475ed012987b", "type": "electric_scooter", "lat": 38.9321875, "is_disabled": 0}, {"fusion_lat": 0.0, "lon": -77.0309515, "is_reserved": 0, "bike_id": "01ff5802cdf6769652db1a93ebe366a8", "fusion_lon": 0.0, "rental_uris": {"android": "https://dc.lft.to/lastmile_qr_scan", "ios": "https://dc.lft.to/lastmile_qr_scan"}, "name": "01ff5802cdf6769652db1a93ebe366a8", "type": "electric_scooter", "lat": 38.927127, "is_disabled": 0}, {"fusion_lat": 0.0, "lon": -77.07934416666667, "is_reserved": 0, "bike_id": "b70705028ab98a6e3b962247e8315cf8", "fusion_lon": 0.0, "rental_uris": {"android": "https://dc.lft.to/lastmile_qr_scan", "ios": "https://dc.lft.to/lastmile_qr_scan"}, "name": "b70705028ab98a6e3b962247e8315cf8", "type": "electric_scooter", "lat": 38.9307745, "is_disabled": 0}, {"fusion_lat": 0.0, "lon": -77.05563166666667, "is_reserved": 0, "bike_id": "6961c9b15024fa7696eebdd2112a98ca", "fusion_lon": 0.0, "rental_uris": {"android": "https://dc.lft.to/lastmile_qr_scan", "ios": "https://dc.lft.to/lastmile_qr_scan"}, "name": "6961c9b15024fa7696eebdd2112a98ca", "type": "electric_scooter", "lat": 38.9092835, "is_disabled": 0}, {"fusion_lat": 0.0, "lon": -76.981915, "is_reserved": 0, "bike_id": "d9f53a28107054ac924fd7ed28f58048", "fusion_lon": 0.0, "rental_uris": {"android": "https://dc.lft.to/lastmile_qr_scan", "ios": "https://dc.lft.to/lastmile_qr_scan"}, "name": "d9f53a28107054ac924fd7ed28f58048", "type": "electric_scooter", "lat": 38.9028165, "is_disabled": 0}, {"fusion_lat": 0.0, "lon": -77.02283533333333, "is_reserved": 0, "bike_id": "867b58d3984fab38e2e9a2050cd67d27", "fusion_lon": 0.0, "rental_uris": {"android": "https://dc.lft.to/lastmile_qr_scan", "ios": "https://dc.lft.to/lastmile_qr_scan"}, "name": "867b58d3984fab38e2e9a2050cd67d27", "type": "electric_scooter", "lat": 38.87888216666666, "is_disabled": 0}, {"fusion_lat": 0.0, "lon": -77.029994, "is_reserved": 0, "bike_id": "5a34e12e15ab1290350f0370a441ad77", "fusion_lon": 0.0, "rental_uris": {"android": "https://dc.lft.to/lastmile_qr_scan", "ios": "https://dc.lft.to/lastmile_qr_scan"}, "name": "5a34e12e15ab1290350f0370a441ad77", "type": "electric_scooter", "lat": 38.926791, "is_disabled": 0}, {"fusion_lat": 0.0, "lon": -77.02314816666667, "is_reserved": 0, "bike_id": "9e58e77acfb4c15f086c76798a9093fd", "fusion_lon": 0.0, "rental_uris": {"android": "https://dc.lft.to/lastmile_qr_scan", "ios": "https://dc.lft.to/lastmile_qr_scan"}, "name": "9e58e77acfb4c15f086c76798a9093fd", "type": "electric_scooter", "lat": 38.92062583333333, "is_disabled": 0}, {"fusion_lat": 0.0, "lon": -77.00379533333333, "is_reserved": 0, "bike_id": "7f095fbf91270505a59bbeae4c7075b8", "fusion_lon": 0.0, "rental_uris": {"android": "https://dc.lft.to/lastmile_qr_scan", "ios": "https://dc.lft.to/lastmile_qr_scan"}, "name": "7f095fbf91270505a59bbeae4c7075b8", "type": "electric_bike", "lat": 38.836077333333336, "is_disabled": 0}, {"fusion_lat": 0.0, "lon": -77.03836433333333, "is_reserved": 0, "bike_id": "0143366159a09608e2ed847c13ab8225", "fusion_lon": 0.0, "rental_uris": {"android": "https://dc.lft.to/lastmile_qr_scan", "ios": "https://dc.lft.to/lastmile_qr_scan"}, "name": "0143366159a09608e2ed847c13ab8225", "type": "electric_scooter", "lat": 38.90380966666667, "is_disabled": 0}, {"fusion_lat": 0.0, "lon": -77.00185733333333, "is_reserved": 0, "bike_id": "58dce957e4c643bd73e2f05925c5d0f1", "fusion_lon": 0.0, "rental_uris": {"android": "https://dc.lft.to/lastmile_qr_scan", "ios": "https://dc.lft.to/lastmile_qr_scan"}, "name": "58dce957e4c643bd73e2f05925c5d0f1", "type": "electric_scooter", "lat": 38.8944605, "is_disabled": 0}, {"fusion_lat": 0.0, "lon": -76.9872615, "is_reserved": 0, "bike_id": "de77e7d8f852149adc6a0e8d0e24e5fe", "fusion_lon": 0.0, "rental_uris": {"android": "https://dc.lft.to/lastmile_qr_scan", "ios": "https://dc.lft.to/lastmile_qr_scan"}, "name": "de77e7d8f852149adc6a0e8d0e24e5fe", "type": "electric_scooter", "lat": 38.8671685, "is_disabled": 0}, {"fusion_lat": 0.0, "lon": -76.98300866666666, "is_reserved": 0, "bike_id": "e504d346c3775bd6a8b7ee25101b14b8", "fusion_lon": 0.0, "rental_uris": {"android": "https://dc.lft.to/lastmile_qr_scan", "ios": "https://dc.lft.to/lastmile_qr_scan"}, "name": "e504d346c3775bd6a8b7ee25101b14b8", "type": "electric_scooter", "lat": 38.90524, "is_disabled": 0}, {"fusion_lat": 0.0, "lon": -76.976701, "is_reserved": 0, "bike_id": "d2779a9eabbe1f9286862ba1bba48a21", "fusion_lon": 0.0, "rental_uris": {"android": "https://dc.lft.to/lastmile_qr_scan", "ios": "https://dc.lft.to/lastmile_qr_scan"}, "name": "d2779a9eabbe1f9286862ba1bba48a21", "type": "electric_bike", "lat": 38.952468333333336, "is_disabled": 0}, {"fusion_lat": 0.0, "lon": -77.02475, "is_reserved": 0, "bike_id": "c303826f3d9107bb7e434e4e92268d4f", "fusion_lon": 0.0, "rental_uris": {"android": "https://dc.lft.to/lastmile_qr_scan", "ios": "https://dc.lft.to/lastmile_qr_scan"}, "name": "c303826f3d9107bb7e434e4e92268d4f", "type": "electric_scooter", "lat": 38.927455333333334, "is_disabled": 0}, {"fusion_lat": 0.0, "lon": -77.03992616666666, "is_reserved": 0, "bike_id": "819b755bebb564525453368c9bd67f11", "fusion_lon": 0.0, "rental_uris": {"android": "https://dc.lft.to/lastmile_qr_scan", "ios": "https://dc.lft.to/lastmile_qr_scan"}, "name": "819b755bebb564525453368c9bd67f11", "type": "electric_scooter", "lat": 38.914120833333335, "is_disabled": 0}, {"fusion_lat": 0.0, "lon": -77.04057816666666, "is_reserved": 0, "bike_id": "1b1d70790294cc0cb0fc6baaefb0aa41", "fusion_lon": 0.0, "rental_uris": {"android": "https://dc.lft.to/lastmile_qr_scan", "ios": "https://dc.lft.to/lastmile_qr_scan"}, "name": "1b1d70790294cc0cb0fc6baaefb0aa41", "type": "electric_scooter", "lat": 38.91868383333333, "is_disabled": 0}, {"fusion_lat": 0.0, "lon": -77.03861183333333, "is_reserved": 0, "bike_id": "a98776d162f3473c5fefc672d7025a82", "fusion_lon": 0.0, "rental_uris": {"android": "https://dc.lft.to/lastmile_qr_scan", "ios": "https://dc.lft.to/lastmile_qr_scan"}, "name": "a98776d162f3473c5fefc672d7025a82", "type": "electric_scooter", "lat": 38.90661933333333, "is_disabled": 0}, {"fusion_lat": 0.0, "lon": -77.0359525, "is_reserved": 0, "bike_id": "a2a04f2ae4a9b5c7480f4a29b03b29e9", "fusion_lon": 0.0, "rental_uris": {"android": "https://dc.lft.to/lastmile_qr_scan", "ios": "https://dc.lft.to/lastmile_qr_scan"}, "name": "a2a04f2ae4a9b5c7480f4a29b03b29e9", "type": "electric_scooter", "lat": 38.93937533333333, "is_disabled": 0}, {"fusion_lat": 0.0, "lon": -76.9835775, "is_reserved": 0, "bike_id": "3f35263fcd5a2346e047b0fb791b69c5", "fusion_lon": 0.0, "rental_uris": {"android": "https://dc.lft.to/lastmile_qr_scan", "ios": "https://dc.lft.to/lastmile_qr_scan"}, "name": "3f35263fcd5a2346e047b0fb791b69c5", "type": "electric_scooter", "lat": 38.8972115, "is_disabled": 0}, {"fusion_lat": 0.0, "lon": -76.99647333333333, "is_reserved": 0, "bike_id": "e8640bffbc39c29ea20bf7fbdbae100c", "fusion_lon": 0.0, "rental_uris": {"android": "https://dc.lft.to/lastmile_qr_scan", "ios": "https://dc.lft.to/lastmile_qr_scan"}, "name": "e8640bffbc39c29ea20bf7fbdbae100c", "type": "electric_scooter", "lat": 38.90033666666667, "is_disabled": 0}, {"fusion_lat": 0.0, "lon": -77.06089083333333, "is_reserved": 0, "bike_id": "01f76c19b3e80d3ef419d1abf7ac9d5c", "fusion_lon": 0.0, "rental_uris": {"android": "https://dc.lft.to/lastmile_qr_scan", "ios": "https://dc.lft.to/lastmile_qr_scan"}, "name": "01f76c19b3e80d3ef419d1abf7ac9d5c", "type": "electric_scooter", "lat": 38.9117365, "is_disabled": 0}, {"fusion_lat": 0.0, "lon": -77.02229116666666, "is_reserved": 0, "bike_id": "b28bc24395b22ce8c38f13513e379aec", "fusion_lon": 0.0, "rental_uris": {"android": "https://dc.lft.to/lastmile_qr_scan", "ios": "https://dc.lft.to/lastmile_qr_scan"}, "name": "b28bc24395b22ce8c38f13513e379aec", "type": "electric_scooter", "lat": 38.892220333333334, "is_disabled": 0}, {"fusion_lat": 0.0, "lon": -77.0395645, "is_reserved": 0, "bike_id": "06e34ce18617e3d4a637c39f57c0b182", "fusion_lon": 0.0, "rental_uris": {"android": "https://dc.lft.to/lastmile_qr_scan", "ios": "https://dc.lft.to/lastmile_qr_scan"}, "name": "06e34ce18617e3d4a637c39f57c0b182", "type": "electric_scooter", "lat": 38.892439333333336, "is_disabled": 0}, {"fusion_lat": 0.0, "lon": -77.0351575, "is_reserved": 0, "bike_id": "e4910dc984103a0508ac401a646e763c", "fusion_lon": 0.0, "rental_uris": {"android": "https://dc.lft.to/lastmile_qr_scan", "ios": "https://dc.lft.to/lastmile_qr_scan"}, "name": "e4910dc984103a0508ac401a646e763c", "type": "electric_scooter", "lat": 38.966252833333336, "is_disabled": 0}, {"fusion_lat": 0.0, "lon": -77.0269285, "is_reserved": 0, "bike_id": "5bfe559379993433f28f04848c39bfec", "fusion_lon": 0.0, "rental_uris": {"android": "https://dc.lft.to/lastmile_qr_scan", "ios": "https://dc.lft.to/lastmile_qr_scan"}, "name": "5bfe559379993433f28f04848c39bfec", "type": "electric_scooter", "lat": 38.9240485, "is_disabled": 0}, {"fusion_lat": 0.0, "lon": -77.04358833333333, "is_reserved": 0, "bike_id": "dc36b71801b3ed5c6fdfe3082dd0c08c", "fusion_lon": 0.0, "rental_uris": {"android": "https://dc.lft.to/lastmile_qr_scan", "ios": "https://dc.lft.to/lastmile_qr_scan"}, "name": "dc36b71801b3ed5c6fdfe3082dd0c08c", "type": "electric_scooter", "lat": 38.892302, "is_disabled": 0}, {"fusion_lat": 0.0, "lon": -76.94688816666667, "is_reserved": 0, "bike_id": "c18554bb34a74ba60ad9a4577711c4f2", "fusion_lon": 0.0, "rental_uris": {"android": "https://dc.lft.to/lastmile_qr_scan", "ios": "https://dc.lft.to/lastmile_qr_scan"}, "name": "c18554bb34a74ba60ad9a4577711c4f2", "type": "electric_scooter", "lat": 38.886302666666666, "is_disabled": 0}, {"fusion_lat": 0.0, "lon": -77.03845583333333, "is_reserved": 0, "bike_id": "449ff04ef769bcdec4168a03b8bfdca7", "fusion_lon": 0.0, "rental_uris": {"android": "https://dc.lft.to/lastmile_qr_scan", "ios": "https://dc.lft.to/lastmile_qr_scan"}, "name": "449ff04ef769bcdec4168a03b8bfdca7", "type": "electric_scooter", "lat": 38.925259833333335, "is_disabled": 0}, {"fusion_lat": 0.0, "lon": -77.00380233333334, "is_reserved": 0, "bike_id": "1137f142a6146844c396b3fe5852807d", "fusion_lon": 0.0, "rental_uris": {"android": "https://dc.lft.to/lastmile_qr_scan", "ios": "https://dc.lft.to/lastmile_qr_scan"}, "name": "1137f142a6146844c396b3fe5852807d", "type": "electric_scooter", "lat": 38.876342666666666, "is_disabled": 0}, {"fusion_lat": 0.0, "lon": -77.0033675, "is_reserved": 0, "bike_id": "44aaef595feddf3bde2ce56a82149af2", "fusion_lon": 0.0, "rental_uris": {"android": "https://dc.lft.to/lastmile_qr_scan", "ios": "https://dc.lft.to/lastmile_qr_scan"}, "name": "44aaef595feddf3bde2ce56a82149af2", "type": "electric_scooter", "lat": 38.9035845, "is_disabled": 0}, {"fusion_lat": 0.0, "lon": -77.0788515, "is_reserved": 0, "bike_id": "f04a8d203bd214f893ea88bd46829def", "fusion_lon": 0.0, "rental_uris": {"android": "https://dc.lft.to/lastmile_qr_scan", "ios": "https://dc.lft.to/lastmile_qr_scan"}, "name": "f04a8d203bd214f893ea88bd46829def", "type": "electric_bike", "lat": 38.950247166666664, "is_disabled": 0}, {"fusion_lat": 0.0, "lon": -77.04493066666667, "is_reserved": 0, "bike_id": "2704036b1abd17e1ebd137b854f8b190", "fusion_lon": 0.0, "rental_uris": {"android": "https://dc.lft.to/lastmile_qr_scan", "ios": "https://dc.lft.to/lastmile_qr_scan"}, "name": "2704036b1abd17e1ebd137b854f8b190", "type": "electric_scooter", "lat": 38.90505233333333, "is_disabled": 0}, {"fusion_lat": 0.0, "lon": -77.028061, "is_reserved": 0, "bike_id": "36cb0876e08cac4ceb7e66bc532f0390", "fusion_lon": 0.0, "rental_uris": {"android": "https://dc.lft.to/lastmile_qr_scan", "ios": "https://dc.lft.to/lastmile_qr_scan"}, "name": "36cb0876e08cac4ceb7e66bc532f0390", "type": "electric_scooter", "lat": 38.91791416666667, "is_disabled": 0}, {"fusion_lat": 0.0, "lon": -76.941984, "is_reserved": 0, "bike_id": "b95afc0d3da3e5215b085d6281d963b7", "fusion_lon": 0.0, "rental_uris": {"android": "https://dc.lft.to/lastmile_qr_scan", "ios": "https://dc.lft.to/lastmile_qr_scan"}, "name": "b95afc0d3da3e5215b085d6281d963b7", "type": "electric_scooter", "lat": 38.893715666666665, "is_disabled": 0}, {"fusion_lat": 0.0, "lon": -76.99762133333333, "is_reserved": 0, "bike_id": "c89fed04f0b509be18158a1afa861f81", "fusion_lon": 0.0, "rental_uris": {"android": "https://dc.lft.to/lastmile_qr_scan", "ios": "https://dc.lft.to/lastmile_qr_scan"}, "name": "c89fed04f0b509be18158a1afa861f81", "type": "electric_scooter", "lat": 38.88769766666667, "is_disabled": 0}, {"fusion_lat": 0.0, "lon": -77.0315795, "is_reserved": 0, "bike_id": "dbf2952adcf5e5890623ff75da819b92", "fusion_lon": 0.0, "rental_uris": {"android": "https://dc.lft.to/lastmile_qr_scan", "ios": "https://dc.lft.to/lastmile_qr_scan"}, "name": "dbf2952adcf5e5890623ff75da819b92", "type": "electric_scooter", "lat": 38.927917, "is_disabled": 0}, {"fusion_lat": 0.0, "lon": -77.00067266666667, "is_reserved": 0, "bike_id": "02cc5d528c4481940a75b0906a007870", "fusion_lon": 0.0, "rental_uris": {"android": "https://dc.lft.to/lastmile_qr_scan", "ios": "https://dc.lft.to/lastmile_qr_scan"}, "name": "02cc5d528c4481940a75b0906a007870", "type": "electric_scooter", "lat": 38.92434, "is_disabled": 0}, {"fusion_lat": 0.0, "lon": -77.0657145, "is_reserved": 0, "bike_id": "0cb768d33b1dcba58c0f4dd426793e40", "fusion_lon": 0.0, "rental_uris": {"android": "https://dc.lft.to/lastmile_qr_scan", "ios": "https://dc.lft.to/lastmile_qr_scan"}, "name": "0cb768d33b1dcba58c0f4dd426793e40", "type": "electric_bike", "lat": 38.91135033333333, "is_disabled": 0}, {"fusion_lat": 0.0, "lon": -77.05589983333333, "is_reserved": 0, "bike_id": "c3e8283d8c1dba5ce77f0cdca45a2ab4", "fusion_lon": 0.0, "rental_uris": {"android": "https://dc.lft.to/lastmile_qr_scan", "ios": "https://dc.lft.to/lastmile_qr_scan"}, "name": "c3e8283d8c1dba5ce77f0cdca45a2ab4", "type": "electric_scooter", "lat": 38.9360225, "is_disabled": 0}, {"fusion_lat": 0.0, "lon": -77.05132866666666, "is_reserved": 0, "bike_id": "a5225cb34d674e09155eaf2d32f1a120", "fusion_lon": 0.0, "rental_uris": {"android": "https://dc.lft.to/lastmile_qr_scan", "ios": "https://dc.lft.to/lastmile_qr_scan"}, "name": "a5225cb34d674e09155eaf2d32f1a120", "type": "electric_scooter", "lat": 38.907158833333334, "is_disabled": 0}, {"fusion_lat": 0.0, "lon": -76.944216, "is_reserved": 0, "bike_id": "88fe14bdd5dd5f821fec7f646d1288fd", "fusion_lon": 0.0, "rental_uris": {"android": "https://dc.lft.to/lastmile_qr_scan", "ios": "https://dc.lft.to/lastmile_qr_scan"}, "name": "88fe14bdd5dd5f821fec7f646d1288fd", "type": "electric_bike", "lat": 38.9661615, "is_disabled": 0}, {"fusion_lat": 0.0, "lon": -77.00739916666667, "is_reserved": 0, "bike_id": "8f503ffcf46c293b4490c65e0bc899ca", "fusion_lon": 0.0, "rental_uris": {"android": "https://dc.lft.to/lastmile_qr_scan", "ios": "https://dc.lft.to/lastmile_qr_scan"}, "name": "8f503ffcf46c293b4490c65e0bc899ca", "type": "electric_scooter", "lat": 38.9059665, "is_disabled": 0}, {"fusion_lat": 0.0, "lon": -76.9982715, "is_reserved": 0, "bike_id": "a104988c056877ee733c2fceda7cfdbd", "fusion_lon": 0.0, "rental_uris": {"android": "https://dc.lft.to/lastmile_qr_scan", "ios": "https://dc.lft.to/lastmile_qr_scan"}, "name": "a104988c056877ee733c2fceda7cfdbd", "type": "electric_scooter", "lat": 38.88532816666667, "is_disabled": 0}, {"fusion_lat": 0.0, "lon": -77.03137816666667, "is_reserved": 0, "bike_id": "698e42b639e3f7d2a59d5d4a4e20e5e9", "fusion_lon": 0.0, "rental_uris": {"android": "https://dc.lft.to/lastmile_qr_scan", "ios": "https://dc.lft.to/lastmile_qr_scan"}, "name": "698e42b639e3f7d2a59d5d4a4e20e5e9", "type": "electric_scooter", "lat": 38.9045245, "is_disabled": 0}, {"fusion_lat": 0.0, "lon": -77.007722, "is_reserved": 0, "bike_id": "d917c9c7d3afd7c24cdd76f9292f1e5d", "fusion_lon": 0.0, "rental_uris": {"android": "https://dc.lft.to/lastmile_qr_scan", "ios": "https://dc.lft.to/lastmile_qr_scan"}, "name": "d917c9c7d3afd7c24cdd76f9292f1e5d", "type": "electric_scooter", "lat": 38.926709833333334, "is_disabled": 0}, {"fusion_lat": 0.0, "lon": -76.99935433333333, "is_reserved": 0, "bike_id": "067d6c5fc188bc1c509b2b29b592aa89", "fusion_lon": 0.0, "rental_uris": {"android": "https://dc.lft.to/lastmile_qr_scan", "ios": "https://dc.lft.to/lastmile_qr_scan"}, "name": "067d6c5fc188bc1c509b2b29b592aa89", "type": "electric_scooter", "lat": 38.8429825, "is_disabled": 0}, {"fusion_lat": 0.0, "lon": -77.0350635, "is_reserved": 0, "bike_id": "eed2593529ba42bac4d60c6563924f3f", "fusion_lon": 0.0, "rental_uris": {"android": "https://dc.lft.to/lastmile_qr_scan", "ios": "https://dc.lft.to/lastmile_qr_scan"}, "name": "eed2593529ba42bac4d60c6563924f3f", "type": "electric_bike", "lat": 38.937451833333334, "is_disabled": 0}, {"fusion_lat": 0.0, "lon": -76.97310566666667, "is_reserved": 0, "bike_id": "85c024200a4eef409e4d89f5344fdd7c", "fusion_lon": 0.0, "rental_uris": {"android": "https://dc.lft.to/lastmile_qr_scan", "ios": "https://dc.lft.to/lastmile_qr_scan"}, "name": "85c024200a4eef409e4d89f5344fdd7c", "type": "electric_scooter", "lat": 38.8464785, "is_disabled": 0}, {"fusion_lat": 0.0, "lon": -77.03021266666667, "is_reserved": 0, "bike_id": "cb03478655db3cc08bf895610fd4081d", "fusion_lon": 0.0, "rental_uris": {"android": "https://dc.lft.to/lastmile_qr_scan", "ios": "https://dc.lft.to/lastmile_qr_scan"}, "name": "cb03478655db3cc08bf895610fd4081d", "type": "electric_scooter", "lat": 38.9051875, "is_disabled": 0}, {"fusion_lat": 0.0, "lon": -77.0129685, "is_reserved": 0, "bike_id": "111e006f2a52d0c2813d9b194e7d61d8", "fusion_lon": 0.0, "rental_uris": {"android": "https://dc.lft.to/lastmile_qr_scan", "ios": "https://dc.lft.to/lastmile_qr_scan"}, "name": "111e006f2a52d0c2813d9b194e7d61d8", "type": "electric_scooter", "lat": 38.894733333333335, "is_disabled": 0}, {"fusion_lat": 0.0, "lon": -77.02436566666667, "is_reserved": 0, "bike_id": "fd9919f878639d620cd54e12867ef6f0", "fusion_lon": 0.0, "rental_uris": {"android": "https://dc.lft.to/lastmile_qr_scan", "ios": "https://dc.lft.to/lastmile_qr_scan"}, "name": "fd9919f878639d620cd54e12867ef6f0", "type": "electric_scooter", "lat": 38.916925166666665, "is_disabled": 0}, {"fusion_lat": 0.0, "lon": -77.00892283333333, "is_reserved": 0, "bike_id": "ad34a8333284ba4f3455405a88728aec", "fusion_lon": 0.0, "rental_uris": {"android": "https://dc.lft.to/lastmile_qr_scan", "ios": "https://dc.lft.to/lastmile_qr_scan"}, "name": "ad34a8333284ba4f3455405a88728aec", "type": "electric_scooter", "lat": 38.96815133333333, "is_disabled": 0}, {"fusion_lat": 0.0, "lon": -76.9887905, "is_reserved": 0, "bike_id": "f83944cd92ca16e3cda429138b4e8abf", "fusion_lon": 0.0, "rental_uris": {"android": "https://dc.lft.to/lastmile_qr_scan", "ios": "https://dc.lft.to/lastmile_qr_scan"}, "name": "f83944cd92ca16e3cda429138b4e8abf", "type": "electric_scooter", "lat": 38.866508333333336, "is_disabled": 0}, {"fusion_lat": 0.0, "lon": -77.01964383333333, "is_reserved": 0, "bike_id": "20e8936afbc899c77bfc68782b15cd70", "fusion_lon": 0.0, "rental_uris": {"android": "https://dc.lft.to/lastmile_qr_scan", "ios": "https://dc.lft.to/lastmile_qr_scan"}, "name": "20e8936afbc899c77bfc68782b15cd70", "type": "electric_scooter", "lat": 38.95655033333333, "is_disabled": 0}, {"fusion_lat": 0.0, "lon": -77.1157115, "is_reserved": 0, "bike_id": "d1cabdaaa77273aaa923b706a69e7f3a", "fusion_lon": 0.0, "rental_uris": {"android": "https://dc.lft.to/lastmile_qr_scan", "ios": "https://dc.lft.to/lastmile_qr_scan"}, "name": "d1cabdaaa77273aaa923b706a69e7f3a", "type": "electric_bike", "lat": 38.99342716666666, "is_disabled": 0}, {"fusion_lat": 0.0, "lon": -77.04517516666667, "is_reserved": 0, "bike_id": "3e65a334e690e03d1119812c0d29d30a", "fusion_lon": 0.0, "rental_uris": {"android": "https://dc.lft.to/lastmile_qr_scan", "ios": "https://dc.lft.to/lastmile_qr_scan"}, "name": "3e65a334e690e03d1119812c0d29d30a", "type": "electric_scooter", "lat": 38.923213833333335, "is_disabled": 0}, {"fusion_lat": 0.0, "lon": -77.04477883333334, "is_reserved": 0, "bike_id": "76ee9d70823b95265ef5032cec900f05", "fusion_lon": 0.0, "rental_uris": {"android": "https://dc.lft.to/lastmile_qr_scan", "ios": "https://dc.lft.to/lastmile_qr_scan"}, "name": "76ee9d70823b95265ef5032cec900f05", "type": "electric_scooter", "lat": 38.905109333333336, "is_disabled": 0}, {"fusion_lat": 0.0, "lon": -77.03848166666667, "is_reserved": 0, "bike_id": "dc573eb792aa5de10e412843ebd6abcc", "fusion_lon": 0.0, "rental_uris": {"android": "https://dc.lft.to/lastmile_qr_scan", "ios": "https://dc.lft.to/lastmile_qr_scan"}, "name": "dc573eb792aa5de10e412843ebd6abcc", "type": "electric_scooter", "lat": 38.91349366666667, "is_disabled": 0}, {"fusion_lat": 0.0, "lon": -76.980143, "is_reserved": 0, "bike_id": "3058211c37ecccdef5fb03e446f91898", "fusion_lon": 0.0, "rental_uris": {"android": "https://dc.lft.to/lastmile_qr_scan", "ios": "https://dc.lft.to/lastmile_qr_scan"}, "name": "3058211c37ecccdef5fb03e446f91898", "type": "electric_scooter", "lat": 38.8885905, "is_disabled": 0}, {"fusion_lat": 0.0, "lon": -77.04175933333333, "is_reserved": 0, "bike_id": "b741ac340ab5ebd0f45c15b8a441b0e5", "fusion_lon": 0.0, "rental_uris": {"android": "https://dc.lft.to/lastmile_qr_scan", "ios": "https://dc.lft.to/lastmile_qr_scan"}, "name": "b741ac340ab5ebd0f45c15b8a441b0e5", "type": "electric_scooter", "lat": 38.912638, "is_disabled": 0}, {"fusion_lat": 0.0, "lon": -77.04417833333333, "is_reserved": 0, "bike_id": "5b634db78f37117e83cfb9ffe445762b", "fusion_lon": 0.0, "rental_uris": {"android": "https://dc.lft.to/lastmile_qr_scan", "ios": "https://dc.lft.to/lastmile_qr_scan"}, "name": "5b634db78f37117e83cfb9ffe445762b", "type": "electric_scooter", "lat": 38.92112983333333, "is_disabled": 0}, {"fusion_lat": 0.0, "lon": -77.127306, "is_reserved": 0, "bike_id": "5e41f53a2eca9ce59fec06dff0d57e85", "fusion_lon": 0.0, "rental_uris": {"android": "https://dc.lft.to/lastmile_qr_scan", "ios": "https://dc.lft.to/lastmile_qr_scan"}, "name": "5e41f53a2eca9ce59fec06dff0d57e85", "type": "electric_bike", "lat": 38.89562333333333, "is_disabled": 0}, {"fusion_lat": 0.0, "lon": -77.01369566666666, "is_reserved": 0, "bike_id": "b28b8e396ef21cbdb3684eeef2b219bd", "fusion_lon": 0.0, "rental_uris": {"android": "https://dc.lft.to/lastmile_qr_scan", "ios": "https://dc.lft.to/lastmile_qr_scan"}, "name": "b28b8e396ef21cbdb3684eeef2b219bd", "type": "electric_scooter", "lat": 38.892216, "is_disabled": 0}, {"fusion_lat": 0.0, "lon": -77.02085516666666, "is_reserved": 0, "bike_id": "5bd3f2b2db423efdf14ef20f52beba84", "fusion_lon": 0.0, "rental_uris": {"android": "https://dc.lft.to/lastmile_qr_scan", "ios": "https://dc.lft.to/lastmile_qr_scan"}, "name": "5bd3f2b2db423efdf14ef20f52beba84", "type": "electric_scooter", "lat": 38.93013666666667, "is_disabled": 0}, {"fusion_lat": 0.0, "lon": -77.02334, "is_reserved": 0, "bike_id": "6889077ac793180ad4f8737c94228499", "fusion_lon": 0.0, "rental_uris": {"android": "https://dc.lft.to/lastmile_qr_scan", "ios": "https://dc.lft.to/lastmile_qr_scan"}, "name": "6889077ac793180ad4f8737c94228499", "type": "electric_scooter", "lat": 38.92477316666667, "is_disabled": 0}, {"fusion_lat": 0.0, "lon": -77.04043083333333, "is_reserved": 0, "bike_id": "c03e48f947c3ddeb370089f22ff97d8a", "fusion_lon": 0.0, "rental_uris": {"android": "https://dc.lft.to/lastmile_qr_scan", "ios": "https://dc.lft.to/lastmile_qr_scan"}, "name": "c03e48f947c3ddeb370089f22ff97d8a", "type": "electric_scooter", "lat": 38.91862416666667, "is_disabled": 0}, {"fusion_lat": 0.0, "lon": -76.987655, "is_reserved": 0, "bike_id": "5b6acda8230af78beed9f3d3cf184e05", "fusion_lon": 0.0, "rental_uris": {"android": "https://dc.lft.to/lastmile_qr_scan", "ios": "https://dc.lft.to/lastmile_qr_scan"}, "name": "5b6acda8230af78beed9f3d3cf184e05", "type": "electric_bike", "lat": 38.857709666666665, "is_disabled": 0}, {"fusion_lat": 0.0, "lon": -77.02719366666666, "is_reserved": 0, "bike_id": "1bbefdd3c564e9ce25cebd1be9732950", "fusion_lon": 0.0, "rental_uris": {"android": "https://dc.lft.to/lastmile_qr_scan", "ios": "https://dc.lft.to/lastmile_qr_scan"}, "name": "1bbefdd3c564e9ce25cebd1be9732950", "type": "electric_scooter", "lat": 38.918196333333334, "is_disabled": 0}, {"fusion_lat": 0.0, "lon": -77.03423666666667, "is_reserved": 0, "bike_id": "7f4b2006c98a991530aec9d654ac3d87", "fusion_lon": 0.0, "rental_uris": {"android": "https://dc.lft.to/lastmile_qr_scan", "ios": "https://dc.lft.to/lastmile_qr_scan"}, "name": "7f4b2006c98a991530aec9d654ac3d87", "type": "electric_bike", "lat": 38.9661795, "is_disabled": 0}, {"fusion_lat": 0.0, "lon": -77.04195733333333, "is_reserved": 0, "bike_id": "795eec12c0ffb24c2f5f9553abacffbc", "fusion_lon": 0.0, "rental_uris": {"android": "https://dc.lft.to/lastmile_qr_scan", "ios": "https://dc.lft.to/lastmile_qr_scan"}, "name": "795eec12c0ffb24c2f5f9553abacffbc", "type": "electric_scooter", "lat": 38.90650316666667, "is_disabled": 0}, {"fusion_lat": 0.0, "lon": -77.0487225, "is_reserved": 0, "bike_id": "e1d081470f6717f6ed058e24ac252845", "fusion_lon": 0.0, "rental_uris": {"android": "https://dc.lft.to/lastmile_qr_scan", "ios": "https://dc.lft.to/lastmile_qr_scan"}, "name": "e1d081470f6717f6ed058e24ac252845", "type": "electric_scooter", "lat": 38.915598833333334, "is_disabled": 0}, {"fusion_lat": 0.0, "lon": -77.07347833333333, "is_reserved": 0, "bike_id": "405abfbeb72c679963e518a7cee50dc7", "fusion_lon": 0.0, "rental_uris": {"android": "https://dc.lft.to/lastmile_qr_scan", "ios": "https://dc.lft.to/lastmile_qr_scan"}, "name": "405abfbeb72c679963e518a7cee50dc7", "type": "electric_scooter", "lat": 38.9335505, "is_disabled": 0}, {"fusion_lat": 0.0, "lon": -77.028777, "is_reserved": 0, "bike_id": "0c7698accd0adb53dd4f3c6d1b3217cc", "fusion_lon": 0.0, "rental_uris": {"android": "https://dc.lft.to/lastmile_qr_scan", "ios": "https://dc.lft.to/lastmile_qr_scan"}, "name": "0c7698accd0adb53dd4f3c6d1b3217cc", "type": "electric_scooter", "lat": 39.037417, "is_disabled": 0}, {"fusion_lat": 0.0, "lon": -77.0068205, "is_reserved": 0, "bike_id": "49076fd9a702a9888c1052f530fe0a60", "fusion_lon": 0.0, "rental_uris": {"android": "https://dc.lft.to/lastmile_qr_scan", "ios": "https://dc.lft.to/lastmile_qr_scan"}, "name": "49076fd9a702a9888c1052f530fe0a60", "type": "electric_scooter", "lat": 38.900077, "is_disabled": 0}, {"fusion_lat": 0.0, "lon": -76.97424966666667, "is_reserved": 0, "bike_id": "efc701b8ade1af58932aa50701148939", "fusion_lon": 0.0, "rental_uris": {"android": "https://dc.lft.to/lastmile_qr_scan", "ios": "https://dc.lft.to/lastmile_qr_scan"}, "name": "efc701b8ade1af58932aa50701148939", "type": "electric_scooter", "lat": 38.9045005, "is_disabled": 0}, {"fusion_lat": 0.0, "lon": -77.08068266666666, "is_reserved": 0, "bike_id": "bcba7a826c169725dabef96f714f706a", "fusion_lon": 0.0, "rental_uris": {"android": "https://dc.lft.to/lastmile_qr_scan", "ios": "https://dc.lft.to/lastmile_qr_scan"}, "name": "bcba7a826c169725dabef96f714f706a", "type": "electric_bike", "lat": 39.0528055, "is_disabled": 0}, {"fusion_lat": 0.0, "lon": -77.02815733333334, "is_reserved": 0, "bike_id": "7657735351328703121f3079d968d81b", "fusion_lon": 0.0, "rental_uris": {"android": "https://dc.lft.to/lastmile_qr_scan", "ios": "https://dc.lft.to/lastmile_qr_scan"}, "name": "7657735351328703121f3079d968d81b", "type": "electric_scooter", "lat": 38.895218, "is_disabled": 0}, {"fusion_lat": 0.0, "lon": -76.97480733333333, "is_reserved": 0, "bike_id": "97b23e9bb6df40c178339d0ea9586572", "fusion_lon": 0.0, "rental_uris": {"android": "https://dc.lft.to/lastmile_qr_scan", "ios": "https://dc.lft.to/lastmile_qr_scan"}, "name": "97b23e9bb6df40c178339d0ea9586572", "type": "electric_scooter", "lat": 38.903528, "is_disabled": 0}, {"fusion_lat": 0.0, "lon": -77.0092705, "is_reserved": 0, "bike_id": "ab8eb05f6ce511a4ee72829f11a068dd", "fusion_lon": 0.0, "rental_uris": {"android": "https://dc.lft.to/lastmile_qr_scan", "ios": "https://dc.lft.to/lastmile_qr_scan"}, "name": "ab8eb05f6ce511a4ee72829f11a068dd", "type": "electric_scooter", "lat": 38.91807466666667, "is_disabled": 0}, {"fusion_lat": 0.0, "lon": -77.038617, "is_reserved": 0, "bike_id": "959c0119225fcb59fe5cd0becb7c89a5", "fusion_lon": 0.0, "rental_uris": {"android": "https://dc.lft.to/lastmile_qr_scan", "ios": "https://dc.lft.to/lastmile_qr_scan"}, "name": "959c0119225fcb59fe5cd0becb7c89a5", "type": "electric_scooter", "lat": 38.9155045, "is_disabled": 0}, {"fusion_lat": 0.0, "lon": -77.02529533333333, "is_reserved": 0, "bike_id": "25624fbdf5709db56cb3f1217e65f71a", "fusion_lon": 0.0, "rental_uris": {"android": "https://dc.lft.to/lastmile_qr_scan", "ios": "https://dc.lft.to/lastmile_qr_scan"}, "name": "25624fbdf5709db56cb3f1217e65f71a", "type": "electric_scooter", "lat": 38.92084833333333, "is_disabled": 0}, {"fusion_lat": 0.0, "lon": -76.99085583333333, "is_reserved": 0, "bike_id": "b72e576f34d5fcebbae780e8b3ff2575", "fusion_lon": 0.0, "rental_uris": {"android": "https://dc.lft.to/lastmile_qr_scan", "ios": "https://dc.lft.to/lastmile_qr_scan"}, "name": "b72e576f34d5fcebbae780e8b3ff2575", "type": "electric_bike", "lat": 38.862371, "is_disabled": 0}, {"fusion_lat": 0.0, "lon": -77.00439833333333, "is_reserved": 0, "bike_id": "4f8ce57893b1933593c08e78debe6527", "fusion_lon": 0.0, "rental_uris": {"android": "https://dc.lft.to/lastmile_qr_scan", "ios": "https://dc.lft.to/lastmile_qr_scan"}, "name": "4f8ce57893b1933593c08e78debe6527", "type": "electric_scooter", "lat": 38.90556216666667, "is_disabled": 0}, {"fusion_lat": 0.0, "lon": -77.0329985, "is_reserved": 0, "bike_id": "35cf1ea9dead3f097ec24b9e928663ae", "fusion_lon": 0.0, "rental_uris": {"android": "https://dc.lft.to/lastmile_qr_scan", "ios": "https://dc.lft.to/lastmile_qr_scan"}, "name": "35cf1ea9dead3f097ec24b9e928663ae", "type": "electric_scooter", "lat": 38.95632633333334, "is_disabled": 0}, {"fusion_lat": 0.0, "lon": -77.04356633333333, "is_reserved": 0, "bike_id": "d338b5ea4d6d801849316c254fe9bc0d", "fusion_lon": 0.0, "rental_uris": {"android": "https://dc.lft.to/lastmile_qr_scan", "ios": "https://dc.lft.to/lastmile_qr_scan"}, "name": "d338b5ea4d6d801849316c254fe9bc0d", "type": "electric_scooter", "lat": 38.89231516666667, "is_disabled": 0}, {"fusion_lat": 0.0, "lon": -76.99354783333334, "is_reserved": 0, "bike_id": "6cbc8c51ea142da94bf5975ac298e2e8", "fusion_lon": 0.0, "rental_uris": {"android": "https://dc.lft.to/lastmile_qr_scan", "ios": "https://dc.lft.to/lastmile_qr_scan"}, "name": "6cbc8c51ea142da94bf5975ac298e2e8", "type": "electric_bike", "lat": 38.922936, "is_disabled": 0}, {"fusion_lat": 0.0, "lon": -77.0589285, "is_reserved": 0, "bike_id": "78d3c7074e3f5d5e2d08b2f63516dbfc", "fusion_lon": 0.0, "rental_uris": {"android": "https://dc.lft.to/lastmile_qr_scan", "ios": "https://dc.lft.to/lastmile_qr_scan"}, "name": "78d3c7074e3f5d5e2d08b2f63516dbfc", "type": "electric_scooter", "lat": 38.942960666666664, "is_disabled": 0}, {"fusion_lat": 0.0, "lon": -77.02763783333333, "is_reserved": 0, "bike_id": "60ed28a027f6bee5229591059ac2ab33", "fusion_lon": 0.0, "rental_uris": {"android": "https://dc.lft.to/lastmile_qr_scan", "ios": "https://dc.lft.to/lastmile_qr_scan"}, "name": "60ed28a027f6bee5229591059ac2ab33", "type": "electric_scooter", "lat": 38.954215, "is_disabled": 0}, {"fusion_lat": 0.0, "lon": -77.032249, "is_reserved": 0, "bike_id": "20442438da78b72ea3faf93e1b57a5ce", "fusion_lon": 0.0, "rental_uris": {"android": "https://dc.lft.to/lastmile_qr_scan", "ios": "https://dc.lft.to/lastmile_qr_scan"}, "name": "20442438da78b72ea3faf93e1b57a5ce", "type": "electric_scooter", "lat": 38.89221, "is_disabled": 0}, {"fusion_lat": 0.0, "lon": -77.026519, "is_reserved": 0, "bike_id": "25baca3cdd89209514215ef707275793", "fusion_lon": 0.0, "rental_uris": {"android": "https://dc.lft.to/lastmile_qr_scan", "ios": "https://dc.lft.to/lastmile_qr_scan"}, "name": "25baca3cdd89209514215ef707275793", "type": "electric_scooter", "lat": 38.892190666666664, "is_disabled": 0}, {"fusion_lat": 0.0, "lon": -77.03477516666666, "is_reserved": 0, "bike_id": "e9909e1d347b122684c774d423d78d0f", "fusion_lon": 0.0, "rental_uris": {"android": "https://dc.lft.to/lastmile_qr_scan", "ios": "https://dc.lft.to/lastmile_qr_scan"}, "name": "e9909e1d347b122684c774d423d78d0f", "type": "electric_scooter", "lat": 38.92544083333333, "is_disabled": 0}, {"fusion_lat": 0.0, "lon": -77.0212045, "is_reserved": 0, "bike_id": "4a8b0b3ab594809e632bc6ef76c05757", "fusion_lon": 0.0, "rental_uris": {"android": "https://dc.lft.to/lastmile_qr_scan", "ios": "https://dc.lft.to/lastmile_qr_scan"}, "name": "4a8b0b3ab594809e632bc6ef76c05757", "type": "electric_scooter", "lat": 38.894876, "is_disabled": 0}, {"fusion_lat": 0.0, "lon": -76.97800666666667, "is_reserved": 0, "bike_id": "3ee755c8945edeaa8efd8e9d32f018fd", "fusion_lon": 0.0, "rental_uris": {"android": "https://dc.lft.to/lastmile_qr_scan", "ios": "https://dc.lft.to/lastmile_qr_scan"}, "name": "3ee755c8945edeaa8efd8e9d32f018fd", "type": "electric_scooter", "lat": 38.90313066666667, "is_disabled": 0}, {"fusion_lat": 0.0, "lon": -77.03847633333334, "is_reserved": 0, "bike_id": "cb648a0d18ed4bb35472e12e0e23924d", "fusion_lon": 0.0, "rental_uris": {"android": "https://dc.lft.to/lastmile_qr_scan", "ios": "https://dc.lft.to/lastmile_qr_scan"}, "name": "cb648a0d18ed4bb35472e12e0e23924d", "type": "electric_scooter", "lat": 38.91277016666667, "is_disabled": 0}, {"fusion_lat": 0.0, "lon": -76.98381966666666, "is_reserved": 0, "bike_id": "1b620a4e38797cfb29a5b81ce41198b2", "fusion_lon": 0.0, "rental_uris": {"android": "https://dc.lft.to/lastmile_qr_scan", "ios": "https://dc.lft.to/lastmile_qr_scan"}, "name": "1b620a4e38797cfb29a5b81ce41198b2", "type": "electric_scooter", "lat": 38.92688616666667, "is_disabled": 0}, {"fusion_lat": 0.0, "lon": -77.02038366666666, "is_reserved": 0, "bike_id": "4a256598248d077be3bfc8c3b4f2cf58", "fusion_lon": 0.0, "rental_uris": {"android": "https://dc.lft.to/lastmile_qr_scan", "ios": "https://dc.lft.to/lastmile_qr_scan"}, "name": "4a256598248d077be3bfc8c3b4f2cf58", "type": "electric_scooter", "lat": 38.9218535, "is_disabled": 0}, {"fusion_lat": 0.0, "lon": -76.98841233333333, "is_reserved": 0, "bike_id": "6242af96ad8f78cbf17672226c516eed", "fusion_lon": 0.0, "rental_uris": {"android": "https://dc.lft.to/lastmile_qr_scan", "ios": "https://dc.lft.to/lastmile_qr_scan"}, "name": "6242af96ad8f78cbf17672226c516eed", "type": "electric_bike", "lat": 38.84276933333334, "is_disabled": 0}, {"fusion_lat": 0.0, "lon": -77.0269275, "is_reserved": 0, "bike_id": "f24c9901530b19553099957e5684b572", "fusion_lon": 0.0, "rental_uris": {"android": "https://dc.lft.to/lastmile_qr_scan", "ios": "https://dc.lft.to/lastmile_qr_scan"},