{"data": {"bikes": [{"lon": -76.9948125, "bike_id": "6a699e60c32c6ea0a64badc0bb3ffdb6", "lat": 38.886106166666664, "fusion_lon": 0.0, "fusion_lat": 0.0, "type": "electric_scooter", "name": "6a699e60c32c6ea0a64badc0bb3ffdb6", "is_disabled": 0, "rental_uris": {"ios": "https://dc.lft.to/lastmile_qr_scan", "android": "https://dc.lft.to/lastmile_qr_scan"}, "is_reserved": 0}, {"lon": -77.04319516666666, "bike_id": "eb792f50ef0a1ada3a42fbbeec7d5831", "lat": 38.90364783333333, "fusion_lon": 0.0, "fusion_lat": 0.0, "type": "electric_scooter", "name": "eb792f50ef0a1ada3a42fbbeec7d5831", "is_disabled": 0, "rental_uris": {"ios": "https://dc.lft.to/lastmile_qr_scan", "android": "https://dc.lft.to/lastmile_qr_scan"}, "is_reserved": 0}, {"lon": -76.982898, "bike_id": "d5f41612b90f7b1c74815e13be771f20", "lat": 38.916445833333334, "fusion_lon": 0.0, "fusion_lat": 0.0, "type": "electric_scooter", "name": "d5f41612b90f7b1c74815e13be771f20", "is_disabled": 0, "rental_uris": {"ios": "https://dc.lft.to/lastmile_qr_scan", "android": "https://dc.lft.to/lastmile_qr_scan"}, "is_reserved": 0}, {"lon": -77.0192415, "bike_id": "b2ff676db82e81b751d92cf16f0f736c", "lat": 38.88637683333333, "fusion_lon": 0.0, "fusion_lat": 0.0, "type": "electric_scooter", "name": "b2ff676db82e81b751d92cf16f0f736c", "is_disabled": 0, "rental_uris": {"ios": "https://dc.lft.to/lastmile_qr_scan", "android": "https://dc.lft.to/lastmile_qr_scan"}, "is_reserved": 0}, {"lon": -77.026314, "bike_id": "12f56ef3924750195a9903f2f47626ec", "lat": 38.962268333333334, "fusion_lon": 0.0, "fusion_lat": 0.0, "type": "electric_bike", "name": "12f56ef3924750195a9903f2f47626ec", "is_disabled": 0, "rental_uris": {"ios": "https://dc.lft.to/lastmile_qr_scan", "android": "https://dc.lft.to/lastmile_qr_scan"}, "is_reserved": 0}, {"lon": -77.02536316666666, "bike_id": "7c145e068bca9ebc5f77fa5e59bcac74", "lat": 38.92747333333333, "fusion_lon": 0.0, "fusion_lat": 0.0, "type": "electric_scooter", "name": "7c145e068bca9ebc5f77fa5e59bcac74", "is_disabled": 0, "rental_uris": {"ios": "https://dc.lft.to/lastmile_qr_scan", "android": "https://dc.lft.to/lastmile_qr_scan"}, "is_reserved": 0}, {"lon": -76.98594383333334, "bike_id": "c06c35ee00ec721f0dc24102940f5d47", "lat": 38.86687233333333, "fusion_lon": 0.0, "fusion_lat": 0.0, "type": "electric_scooter", "name": "c06c35ee00ec721f0dc24102940f5d47", "is_disabled": 0, "rental_uris": {"ios": "https://dc.lft.to/lastmile_qr_scan", "android": "https://dc.lft.to/lastmile_qr_scan"}, "is_reserved": 0}, {"lon": -77.04360716666666, "bike_id": "8b59483a5ca3842ba3c78cab5d707dca", "lat": 38.90809, "fusion_lon": 0.0, "fusion_lat": 0.0, "type": "electric_scooter", "name": "8b59483a5ca3842ba3c78cab5d707dca", "is_disabled": 0, "rental_uris": {"ios": "https://dc.lft.to/lastmile_qr_scan", "android": "https://dc.lft.to/lastmile_qr_scan"}, "is_reserved": 0}, {"lon": -77.0385735, "bike_id": "0719b8deb7803a09f4a6090cc3460fef", "lat": 38.91173583333333, "fusion_lon": 0.0, "fusion_lat": 0.0, "type": "electric_scooter", "name": "0719b8deb7803a09f4a6090cc3460fef", "is_disabled": 0, "rental_uris": {"ios": "https://dc.lft.to/lastmile_qr_scan", "android": "https://dc.lft.to/lastmile_qr_scan"}, "is_reserved": 0}, {"lon": -77.02930033333334, "bike_id": "92aa8389745f4411ce6f33bc7dd84893", "lat": 38.91698933333333, "fusion_lon": 0.0, "fusion_lat": 0.0, "type": "electric_bike", "name": "92aa8389745f4411ce6f33bc7dd84893", "is_disabled": 0, "rental_uris": {"ios": "https://dc.lft.to/lastmile_qr_scan", "android": "https://dc.lft.to/lastmile_qr_scan"}, "is_reserved": 0}, {"lon": -77.0270845, "bike_id": "97819500a30b4779820949652705c119", "lat": 38.89715283333334, "fusion_lon": 0.0, "fusion_lat": 0.0, "type": "electric_scooter", "name": "97819500a30b4779820949652705c119", "is_disabled": 0, "rental_uris": {"ios": "https://dc.lft.to/lastmile_qr_scan", "android": "https://dc.lft.to/lastmile_qr_scan"}, "is_reserved": 0}, {"lon": -77.01881383333334, "bike_id": "2c47874730bf210e04707eab4ad885af", "lat": 38.903217, "fusion_lon": 0.0, "fusion_lat": 0.0, "type": "electric_scooter", "name": "2c47874730bf210e04707eab4ad885af", "is_disabled": 0, "rental_uris": {"ios": "https://dc.lft.to/lastmile_qr_scan", "android": "https://dc.lft.to/lastmile_qr_scan"}, "is_reserved": 0}, {"lon": -77.02203516666667, "bike_id": "96ca2e19d6119058c8fc4cf2b44be1c5", "lat": 38.87892333333333, "fusion_lon": 0.0, "fusion_lat": 0.0, "type": "electric_scooter", "name": "96ca2e19d6119058c8fc4cf2b44be1c5", "is_disabled": 0, "rental_uris": {"ios": "https://dc.lft.to/lastmile_qr_scan", "android": "https://dc.lft.to/lastmile_qr_scan"}, "is_reserved": 0}, {"lon": -77.0213335, "bike_id": "9e8d9f69be37fd4fcc55899ad02d7a49", "lat": 38.8996505, "fusion_lon": 0.0, "fusion_lat": 0.0, "type": "electric_scooter", "name": "9e8d9f69be37fd4fcc55899ad02d7a49", "is_disabled": 0, "rental_uris": {"ios": "https://dc.lft.to/lastmile_qr_scan", "android": "https://dc.lft.to/lastmile_qr_scan"}, "is_reserved": 0}, {"lon": -77.03968533333334, "bike_id": "8b5f7ca45842ed690b5fa7828a363813", "lat": 38.892226666666666, "fusion_lon": 0.0, "fusion_lat": 0.0, "type": "electric_scooter", "name": "8b5f7ca45842ed690b5fa7828a363813", "is_disabled": 0, "rental_uris": {"ios": "https://dc.lft.to/lastmile_qr_scan", "android": "https://dc.lft.to/lastmile_qr_scan"}, "is_reserved": 0}, {"lon": -77.01743683333333, "bike_id": "5dde6e641b3adefcbcbbf7d5ea118c4e", "lat": 38.887473666666665, "fusion_lon": 0.0, "fusion_lat": 0.0, "type": "electric_scooter", "name": "5dde6e641b3adefcbcbbf7d5ea118c4e", "is_disabled": 0, "rental_uris": {"ios": "https://dc.lft.to/lastmile_qr_scan", "android": "https://dc.lft.to/lastmile_qr_scan"}, "is_reserved": 0}, {"lon": -77.03744666666667, "bike_id": "815758ab27cbd863f4e4c7fb7ef7216e", "lat": 38.9180725, "fusion_lon": 0.0, "fusion_lat": 0.0, "type": "electric_scooter", "name": "815758ab27cbd863f4e4c7fb7ef7216e", "is_disabled": 0, "rental_uris": {"ios": "https://dc.lft.to/lastmile_qr_scan", "android": "https://dc.lft.to/lastmile_qr_scan"}, "is_reserved": 0}, {"lon": -77.00551833333333, "bike_id": "e2df3e05de7ffba2399f40b6c2e1afee", "lat": 38.905600666666665, "fusion_lon": 0.0, "fusion_lat": 0.0, "type": "electric_scooter", "name": "e2df3e05de7ffba2399f40b6c2e1afee", "is_disabled": 0, "rental_uris": {"ios": "https://dc.lft.to/lastmile_qr_scan", "android": "https://dc.lft.to/lastmile_qr_scan"}, "is_reserved": 0}, {"lon": -77.0433735, "bike_id": "51146fe7de6624233a22e83ce9a6efca", "lat": 38.89223533333333, "fusion_lon": 0.0, "fusion_lat": 0.0, "type": "electric_scooter", "name": "51146fe7de6624233a22e83ce9a6efca", "is_disabled": 0, "rental_uris": {"ios": "https://dc.lft.to/lastmile_qr_scan", "android": "https://dc.lft.to/lastmile_qr_scan"}, "is_reserved": 0}, {"lon": -77.01974766666666, "bike_id": "4270d7d27707f36695c668460cfdd5d8", "lat": 38.883778666666664, "fusion_lon": 0.0, "fusion_lat": 0.0, "type": "electric_scooter", "name": "4270d7d27707f36695c668460cfdd5d8", "is_disabled": 0, "rental_uris": {"ios": "https://dc.lft.to/lastmile_qr_scan", "android": "https://dc.lft.to/lastmile_qr_scan"}, "is_reserved": 0}, {"lon": -77.03309633333333, "bike_id": "9516e50b90d36153858960250821e775", "lat": 38.89815566666667, "fusion_lon": 0.0, "fusion_lat": 0.0, "type": "electric_scooter", "name": "9516e50b90d36153858960250821e775", "is_disabled": 0, "rental_uris": {"ios": "https://dc.lft.to/lastmile_qr_scan", "android": "https://dc.lft.to/lastmile_qr_scan"}, "is_reserved": 0}, {"lon": -76.99002616666667, "bike_id": "017ca78cb250fe81ce04854b0f786a9f", "lat": 38.865091666666665, "fusion_lon": 0.0, "fusion_lat": 0.0, "type": "electric_scooter", "name": "017ca78cb250fe81ce04854b0f786a9f", "is_disabled": 0, "rental_uris": {"ios": "https://dc.lft.to/lastmile_qr_scan", "android": "https://dc.lft.to/lastmile_qr_scan"}, "is_reserved": 0}, {"lon": -76.9937075, "bike_id": "3feed4185a29e8557008cf47467d0f88", "lat": 38.879733, "fusion_lon": 0.0, "fusion_lat": 0.0, "type": "electric_scooter", "name": "3feed4185a29e8557008cf47467d0f88", "is_disabled": 0, "rental_uris": {"ios": "https://dc.lft.to/lastmile_qr_scan", "android": "https://dc.lft.to/lastmile_qr_scan"}, "is_reserved": 0}, {"lon": -77.03706716666667, "bike_id": "e2f4a58dc955774208a111b2520d6edb", "lat": 38.93531516666667, "fusion_lon": 0.0, "fusion_lat": 0.0, "type": "electric_scooter", "name": "e2f4a58dc955774208a111b2520d6edb", "is_disabled": 0, "rental_uris": {"ios": "https://dc.lft.to/lastmile_qr_scan", "android": "https://dc.lft.to/lastmile_qr_scan"}, "is_reserved": 0}, {"lon": -76.98904416666667, "bike_id": "8538c50fdbf11dbde006c4b855df7462", "lat": 38.8666625, "fusion_lon": 0.0, "fusion_lat": 0.0, "type": "electric_scooter", "name": "8538c50fdbf11dbde006c4b855df7462", "is_disabled": 0, "rental_uris": {"ios": "https://dc.lft.to/lastmile_qr_scan", "android": "https://dc.lft.to/lastmile_qr_scan"}, "is_reserved": 0}, {"lon": -77.031247, "bike_id": "a6ff581a9368f78ca416c2e273745f2a", "lat": 38.92383433333333, "fusion_lon": 0.0, "fusion_lat": 0.0, "type": "electric_scooter", "name": "a6ff581a9368f78ca416c2e273745f2a", "is_disabled": 0, "rental_uris": {"ios": "https://dc.lft.to/lastmile_qr_scan", "android": "https://dc.lft.to/lastmile_qr_scan"}, "is_reserved": 0}, {"lon": -76.99809266666666, "bike_id": "0214dff91c24728845df99e75d0d1b47", "lat": 38.90034416666667, "fusion_lon": 0.0, "fusion_lat": 0.0, "type": "electric_scooter", "name": "0214dff91c24728845df99e75d0d1b47", "is_disabled": 0, "rental_uris": {"ios": "https://dc.lft.to/lastmile_qr_scan", "android": "https://dc.lft.to/lastmile_qr_scan"}, "is_reserved": 0}, {"lon": -77.04239616666666, "bike_id": "7f0a95279ecfcd6e38a3a3b32e916eda", "lat": 38.916473333333336, "fusion_lon": 0.0, "fusion_lat": 0.0, "type": "electric_scooter", "name": "7f0a95279ecfcd6e38a3a3b32e916eda", "is_disabled": 0, "rental_uris": {"ios": "https://dc.lft.to/lastmile_qr_scan", "android": "https://dc.lft.to/lastmile_qr_scan"}, "is_reserved": 0}, {"lon": -77.03383666666667, "bike_id": "b778c1e970549ff4306fbfcd1b615408", "lat": 38.92158116666667, "fusion_lon": 0.0, "fusion_lat": 0.0, "type": "electric_scooter", "name": "b778c1e970549ff4306fbfcd1b615408", "is_disabled": 0, "rental_uris": {"ios": "https://dc.lft.to/lastmile_qr_scan", "android": "https://dc.lft.to/lastmile_qr_scan"}, "is_reserved": 0}, {"lon": -77.02370783333333, "bike_id": "b71f7f07a124c71ca7b36650883df5ec", "lat": 38.8848945, "fusion_lon": 0.0, "fusion_lat": 0.0, "type": "electric_scooter", "name": "b71f7f07a124c71ca7b36650883df5ec", "is_disabled": 0, "rental_uris": {"ios": "https://dc.lft.to/lastmile_qr_scan", "android": "https://dc.lft.to/lastmile_qr_scan"}, "is_reserved": 0}, {"lon": -77.05608233333334, "bike_id": "beb61d4334714ade9c392c5593528baa", "lat": 38.93163933333334, "fusion_lon": 0.0, "fusion_lat": 0.0, "type": "electric_scooter", "name": "beb61d4334714ade9c392c5593528baa", "is_disabled": 0, "rental_uris": {"ios": "https://dc.lft.to/lastmile_qr_scan", "android": "https://dc.lft.to/lastmile_qr_scan"}, "is_reserved": 0}, {"lon": -77.06097283333334, "bike_id": "60e02c8f3b3a04f7336ee5163067f00a", "lat": 38.943745, "fusion_lon": 0.0, "fusion_lat": 0.0, "type": "electric_scooter", "name": "60e02c8f3b3a04f7336ee5163067f00a", "is_disabled": 0, "rental_uris": {"ios": "https://dc.lft.to/lastmile_qr_scan", "android": "https://dc.lft.to/lastmile_qr_scan"}, "is_reserved": 0}, {"lon": -77.04484283333333, "bike_id": "2696f25f4bfcc32bd9d8b59ca6bb5cfc", "lat": 38.907323833333336, "fusion_lon": 0.0, "fusion_lat": 0.0, "type": "electric_scooter", "name": "2696f25f4bfcc32bd9d8b59ca6bb5cfc", "is_disabled": 0, "rental_uris": {"ios": "https://dc.lft.to/lastmile_qr_scan", "android": "https://dc.lft.to/lastmile_qr_scan"}, "is_reserved": 0}, {"lon": -76.98373416666666, "bike_id": "1eac398f6e562653119b644c11f42e2f", "lat": 38.88965, "fusion_lon": 0.0, "fusion_lat": 0.0, "type": "electric_scooter", "name": "1eac398f6e562653119b644c11f42e2f", "is_disabled": 0, "rental_uris": {"ios": "https://dc.lft.to/lastmile_qr_scan", "android": "https://dc.lft.to/lastmile_qr_scan"}, "is_reserved": 0}, {"lon": -77.0334425, "bike_id": "1d0f07ca6cbee098c2c02ce9fa19eaf7", "lat": 38.919123, "fusion_lon": 0.0, "fusion_lat": 0.0, "type": "electric_scooter", "name": "1d0f07ca6cbee098c2c02ce9fa19eaf7", "is_disabled": 0, "rental_uris": {"ios": "https://dc.lft.to/lastmile_qr_scan", "android": "https://dc.lft.to/lastmile_qr_scan"}, "is_reserved": 0}, {"lon": -77.02341866666667, "bike_id": "235a107ddb9887f98dbf9e65c93e8381", "lat": 38.92085016666667, "fusion_lon": 0.0, "fusion_lat": 0.0, "type": "electric_scooter", "name": "235a107ddb9887f98dbf9e65c93e8381", "is_disabled": 0, "rental_uris": {"ios": "https://dc.lft.to/lastmile_qr_scan", "android": "https://dc.lft.to/lastmile_qr_scan"}, "is_reserved": 0}, {"lon": -76.98838983333333, "bike_id": "756e7b7bf1e82c3dbf89f6f3e44d4cd3", "lat": 38.900761333333335, "fusion_lon": 0.0, "fusion_lat": 0.0, "type": "electric_scooter", "name": "756e7b7bf1e82c3dbf89f6f3e44d4cd3", "is_disabled": 0, "rental_uris": {"ios": "https://dc.lft.to/lastmile_qr_scan", "android": "https://dc.lft.to/lastmile_qr_scan"}, "is_reserved": 0}, {"lon": -77.01441783333334, "bike_id": "87a577e31a9839cc83bd523e47e6c702", "lat": 38.9206805, "fusion_lon": 0.0, "fusion_lat": 0.0, "type": "electric_scooter", "name": "87a577e31a9839cc83bd523e47e6c702", "is_disabled": 0, "rental_uris": {"ios": "https://dc.lft.to/lastmile_qr_scan", "android": "https://dc.lft.to/lastmile_qr_scan"}, "is_reserved": 0}, {"lon": -77.050457, "bike_id": "2afc427cc0e017c511a2dc083b31b80a", "lat": 38.92362083333333, "fusion_lon": 0.0, "fusion_lat": 0.0, "type": "electric_scooter", "name": "2afc427cc0e017c511a2dc083b31b80a", "is_disabled": 0, "rental_uris": {"ios": "https://dc.lft.to/lastmile_qr_scan", "android": "https://dc.lft.to/lastmile_qr_scan"}, "is_reserved": 0}, {"lon": -76.99477266666666, "bike_id": "452a0439a6d030e0aec04abaf8ea7a8e", "lat": 38.86222766666667, "fusion_lon": 0.0, "fusion_lat": 0.0, "type": "electric_scooter", "name": "452a0439a6d030e0aec04abaf8ea7a8e", "is_disabled": 0, "rental_uris": {"ios": "https://dc.lft.to/lastmile_qr_scan", "android": "https://dc.lft.to/lastmile_qr_scan"}, "is_reserved": 0}, {"lon": -77.04691183333334, "bike_id": "9c5f08dbcaa5f0b3756d3b1a0eed6744", "lat": 38.892224166666665, "fusion_lon": 0.0, "fusion_lat": 0.0, "type": "electric_scooter", "name": "9c5f08dbcaa5f0b3756d3b1a0eed6744", "is_disabled": 0, "rental_uris": {"ios": "https://dc.lft.to/lastmile_qr_scan", "android": "https://dc.lft.to/lastmile_qr_scan"}, "is_reserved": 0}, {"lon": -77.029628, "bike_id": "ecd4fd4e9d62c94c765252ec54e61b9c", "lat": 38.90662716666667, "fusion_lon": 0.0, "fusion_lat": 0.0, "type": "electric_scooter", "name": "ecd4fd4e9d62c94c765252ec54e61b9c", "is_disabled": 0, "rental_uris": {"ios": "https://dc.lft.to/lastmile_qr_scan", "android": "https://dc.lft.to/lastmile_qr_scan"}, "is_reserved": 0}, {"lon": -77.00916066666667, "bike_id": "e47793e9d530885eebfcfd5855e89092", "lat": 38.827849666666665, "fusion_lon": 0.0, "fusion_lat": 0.0, "type": "electric_bike", "name": "e47793e9d530885eebfcfd5855e89092", "is_disabled": 0, "rental_uris": {"ios": "https://dc.lft.to/lastmile_qr_scan", "android": "https://dc.lft.to/lastmile_qr_scan"}, "is_reserved": 0}, {"lon": -77.02583666666666, "bike_id": "210aea10b33fcb7c12b2f72efebf9242", "lat": 38.887424, "fusion_lon": 0.0, "fusion_lat": 0.0, "type": "electric_scooter", "name": "210aea10b33fcb7c12b2f72efebf9242", "is_disabled": 0, "rental_uris": {"ios": "https://dc.lft.to/lastmile_qr_scan", "android": "https://dc.lft.to/lastmile_qr_scan"}, "is_reserved": 0}, {"lon": -77.024017, "bike_id": "142c4323473cbee89295277c913970f3", "lat": 38.90421683333334, "fusion_lon": 0.0, "fusion_lat": 0.0, "type": "electric_scooter", "name": "142c4323473cbee89295277c913970f3", "is_disabled": 0, "rental_uris": {"ios": "https://dc.lft.to/lastmile_qr_scan", "android": "https://dc.lft.to/lastmile_qr_scan"}, "is_reserved": 0}, {"lon": -76.958947, "bike_id": "fd811d147da86b23f0c14b92cabd62e3", "lat": 38.890069, "fusion_lon": 0.0, "fusion_lat": 0.0, "type": "electric_scooter", "name": "fd811d147da86b23f0c14b92cabd62e3", "is_disabled": 0, "rental_uris": {"ios": "https://dc.lft.to/lastmile_qr_scan", "android": "https://dc.lft.to/lastmile_qr_scan"}, "is_reserved": 0}, {"lon": -76.9636345, "bike_id": "dc3b08a4d4768668e9fc5a52442486ae", "lat": 38.9350475, "fusion_lon": 0.0, "fusion_lat": 0.0, "type": "electric_scooter", "name": "dc3b08a4d4768668e9fc5a52442486ae", "is_disabled": 0, "rental_uris": {"ios": "https://dc.lft.to/lastmile_qr_scan", "android": "https://dc.lft.to/lastmile_qr_scan"}, "is_reserved": 0}, {"lon": -77.03815916666667, "bike_id": "15fe64ea230e997413f064bb62db47fd", "lat": 38.93095616666667, "fusion_lon": 0.0, "fusion_lat": 0.0, "type": "electric_scooter", "name": "15fe64ea230e997413f064bb62db47fd", "is_disabled": 0, "rental_uris": {"ios": "https://dc.lft.to/lastmile_qr_scan", "android": "https://dc.lft.to/lastmile_qr_scan"}, "is_reserved": 0}, {"lon": -77.03852733333333, "bike_id": "d3b6898d95a079dbd8f1390f851cc64d", "lat": 38.91549, "fusion_lon": 0.0, "fusion_lat": 0.0, "type": "electric_scooter", "name": "d3b6898d95a079dbd8f1390f851cc64d", "is_disabled": 0, "rental_uris": {"ios": "https://dc.lft.to/lastmile_qr_scan", "android": "https://dc.lft.to/lastmile_qr_scan"}, "is_reserved": 0}, {"lon": -77.03509766666667, "bike_id": "41464e8950dadc430af19c1478a4ab37", "lat": 38.921422, "fusion_lon": 0.0, "fusion_lat": 0.0, "type": "electric_scooter", "name": "41464e8950dadc430af19c1478a4ab37", "is_disabled": 0, "rental_uris": {"ios": "https://dc.lft.to/lastmile_qr_scan", "android": "https://dc.lft.to/lastmile_qr_scan"}, "is_reserved": 0}, {"lon": -77.0211645, "bike_id": "ea247a0ef0a7ed00a639ae3f69baabdd", "lat": 38.937045833333336, "fusion_lon": 0.0, "fusion_lat": 0.0, "type": "electric_scooter", "name": "ea247a0ef0a7ed00a639ae3f69baabdd", "is_disabled": 0, "rental_uris": {"ios": "https://dc.lft.to/lastmile_qr_scan", "android": "https://dc.lft.to/lastmile_qr_scan"}, "is_reserved": 0}, {"lon": -77.046917, "bike_id": "ecaa9ceb2c5a762d973373c7c9604f8d", "lat": 38.892246, "fusion_lon": 0.0, "fusion_lat": 0.0, "type": "electric_scooter", "name": "ecaa9ceb2c5a762d973373c7c9604f8d", "is_disabled": 0, "rental_uris": {"ios": "https://dc.lft.to/lastmile_qr_scan", "android": "https://dc.lft.to/lastmile_qr_scan"}, "is_reserved": 0}, {"lon": -77.04868233333333, "bike_id": "66c16cd511355cd61e598163cfded2df", "lat": 38.90720116666667, "fusion_lon": 0.0, "fusion_lat": 0.0, "type": "electric_scooter", "name": "66c16cd511355cd61e598163cfded2df", "is_disabled": 0, "rental_uris": {"ios": "https://dc.lft.to/lastmile_qr_scan", "android": "https://dc.lft.to/lastmile_qr_scan"}, "is_reserved": 0}, {"lon": -77.04193066666667, "bike_id": "bf2ebbcf59de503d63079a23d14aa1a2", "lat": 38.899792166666664, "fusion_lon": 0.0, "fusion_lat": 0.0, "type": "electric_scooter", "name": "bf2ebbcf59de503d63079a23d14aa1a2", "is_disabled": 0, "rental_uris": {"ios": "https://dc.lft.to/lastmile_qr_scan", "android": "https://dc.lft.to/lastmile_qr_scan"}, "is_reserved": 0}, {"lon": -76.998111, "bike_id": "482c29dd16d5d7ba2ca24b977b752c98", "lat": 38.82918633333333, "fusion_lon": 0.0, "fusion_lat": 0.0, "type": "electric_bike", "name": "482c29dd16d5d7ba2ca24b977b752c98", "is_disabled": 0, "rental_uris": {"ios": "https://dc.lft.to/lastmile_qr_scan", "android": "https://dc.lft.to/lastmile_qr_scan"}, "is_reserved": 0}, {"lon": -77.02308366666666, "bike_id": "7257ba54e62f342f33194dffd3c9637d", "lat": 38.917888, "fusion_lon": 0.0, "fusion_lat": 0.0, "type": "electric_scooter", "name": "7257ba54e62f342f33194dffd3c9637d", "is_disabled": 0, "rental_uris": {"ios": "https://dc.lft.to/lastmile_qr_scan", "android": "https://dc.lft.to/lastmile_qr_scan"}, "is_reserved": 0}, {"lon": -77.03605183333333, "bike_id": "c0bcc2faf71aa01b0605149cca3e43aa", "lat": 38.936822, "fusion_lon": 0.0, "fusion_lat": 0.0, "type": "electric_scooter", "name": "c0bcc2faf71aa01b0605149cca3e43aa", "is_disabled": 0, "rental_uris": {"ios": "https://dc.lft.to/lastmile_qr_scan", "android": "https://dc.lft.to/lastmile_qr_scan"}, "is_reserved": 0}, {"lon": -77.034238, "bike_id": "698bab363a8b0eace42a845b8e198b3b", "lat": 38.96534233333333, "fusion_lon": 0.0, "fusion_lat": 0.0, "type": "electric_bike", "name": "698bab363a8b0eace42a845b8e198b3b", "is_disabled": 0, "rental_uris": {"ios": "https://dc.lft.to/lastmile_qr_scan", "android": "https://dc.lft.to/lastmile_qr_scan"}, "is_reserved": 0}, {"lon": -77.03077833333333, "bike_id": "6f0479ac1ad84a78fc84884cdf00c739", "lat": 38.9203285, "fusion_lon": 0.0, "fusion_lat": 0.0, "type": "electric_scooter", "name": "6f0479ac1ad84a78fc84884cdf00c739", "is_disabled": 0, "rental_uris": {"ios": "https://dc.lft.to/lastmile_qr_scan", "android": "https://dc.lft.to/lastmile_qr_scan"}, "is_reserved": 0}, {"lon": -77.02716233333334, "bike_id": "bf6ab258c47d23214ea519b555c4b84a", "lat": 38.90953233333333, "fusion_lon": 0.0, "fusion_lat": 0.0, "type": "electric_scooter", "name": "bf6ab258c47d23214ea519b555c4b84a", "is_disabled": 0, "rental_uris": {"ios": "https://dc.lft.to/lastmile_qr_scan", "android": "https://dc.lft.to/lastmile_qr_scan"}, "is_reserved": 0}, {"lon": -77.0221025, "bike_id": "e6ef117748ff0f4188cb14f84917cfdc", "lat": 38.9127015, "fusion_lon": 0.0, "fusion_lat": 0.0, "type": "electric_scooter", "name": "e6ef117748ff0f4188cb14f84917cfdc", "is_disabled": 0, "rental_uris": {"ios": "https://dc.lft.to/lastmile_qr_scan", "android": "https://dc.lft.to/lastmile_qr_scan"}, "is_reserved": 0}, {"lon": -77.03023366666666, "bike_id": "a9856329a434e5b1cb3ca910af8ccc1e", "lat": 38.884521166666666, "fusion_lon": 0.0, "fusion_lat": 0.0, "type": "electric_scooter", "name": "a9856329a434e5b1cb3ca910af8ccc1e", "is_disabled": 0, "rental_uris": {"ios": "https://dc.lft.to/lastmile_qr_scan", "android": "https://dc.lft.to/lastmile_qr_scan"}, "is_reserved": 0}, {"lon": -77.02186416666666, "bike_id": "fa2f2fdc7acf42e9a3cef17ab5216a7d", "lat": 38.90978966666667, "fusion_lon": 0.0, "fusion_lat": 0.0, "type": "electric_scooter", "name": "fa2f2fdc7acf42e9a3cef17ab5216a7d", "is_disabled": 0, "rental_uris": {"ios": "https://dc.lft.to/lastmile_qr_scan", "android": "https://dc.lft.to/lastmile_qr_scan"}, "is_reserved": 0}, {"lon": -77.07623233333334, "bike_id": "c5238080d96c3c70e6d20c584a53c571", "lat": 38.9657745, "fusion_lon": 0.0, "fusion_lat": 0.0, "type": "electric_bike", "name": "c5238080d96c3c70e6d20c584a53c571", "is_disabled": 0, "rental_uris": {"ios": "https://dc.lft.to/lastmile_qr_scan", "android": "https://dc.lft.to/lastmile_qr_scan"}, "is_reserved": 0}, {"lon": -77.03212566666667, "bike_id": "5e61a64236d2a0527ff6d4dd5c16f4bd", "lat": 38.9124565, "fusion_lon": 0.0, "fusion_lat": 0.0, "type": "electric_scooter", "name": "5e61a64236d2a0527ff6d4dd5c16f4bd", "is_disabled": 0, "rental_uris": {"ios": "https://dc.lft.to/lastmile_qr_scan", "android": "https://dc.lft.to/lastmile_qr_scan"}, "is_reserved": 0}, {"lon": -77.03205733333333, "bike_id": "cb5a39747d6903576be47015d3ed8ca1", "lat": 38.906939666666666, "fusion_lon": 0.0, "fusion_lat": 0.0, "type": "electric_scooter", "name": "cb5a39747d6903576be47015d3ed8ca1", "is_disabled": 0, "rental_uris": {"ios": "https://dc.lft.to/lastmile_qr_scan", "android": "https://dc.lft.to/lastmile_qr_scan"}, "is_reserved": 0}, {"lon": -77.11708566666667, "bike_id": "6f10beaf7c82bdb9ce33981cd6bc5221", "lat": 38.86745416666667, "fusion_lon": 0.0, "fusion_lat": 0.0, "type": "electric_bike", "name": "6f10beaf7c82bdb9ce33981cd6bc5221", "is_disabled": 0, "rental_uris": {"ios": "https://dc.lft.to/lastmile_qr_scan", "android": "https://dc.lft.to/lastmile_qr_scan"}, "is_reserved": 0}, {"lon": -77.017653, "bike_id": "857ba6b63c5bd00f9d9521e07aa2459c", "lat": 38.9038125, "fusion_lon": 0.0, "fusion_lat": 0.0, "type": "electric_scooter", "name": "857ba6b63c5bd00f9d9521e07aa2459c", "is_disabled": 0, "rental_uris": {"ios": "https://dc.lft.to/lastmile_qr_scan", "android": "https://dc.lft.to/lastmile_qr_scan"}, "is_reserved": 0}, {"lon": -76.95750933333333, "bike_id": "df26a8e3d5d7bb1ad4058a193bc37dea", "lat": 38.884319, "fusion_lon": 0.0, "fusion_lat": 0.0, "type": "electric_scooter", "name": "df26a8e3d5d7bb1ad4058a193bc37dea", "is_disabled": 0, "rental_uris": {"ios": "https://dc.lft.to/lastmile_qr_scan", "android": "https://dc.lft.to/lastmile_qr_scan"}, "is_reserved": 0}, {"lon": -77.02314066666666, "bike_id": "5eaf6a323e376d6ef9b7cdc1ec3ca848", "lat": 38.89482066666667, "fusion_lon": 0.0, "fusion_lat": 0.0, "type": "electric_scooter", "name": "5eaf6a323e376d6ef9b7cdc1ec3ca848", "is_disabled": 0, "rental_uris": {"ios": "https://dc.lft.to/lastmile_qr_scan", "android": "https://dc.lft.to/lastmile_qr_scan"}, "is_reserved": 0}, {"lon": -77.02241866666667, "bike_id": "7948169c47898120be1eee3817ac8925", "lat": 38.9273045, "fusion_lon": 0.0, "fusion_lat": 0.0, "type": "electric_scooter", "name": "7948169c47898120be1eee3817ac8925", "is_disabled": 0, "rental_uris": {"ios": "https://dc.lft.to/lastmile_qr_scan", "android": "https://dc.lft.to/lastmile_qr_scan"}, "is_reserved": 0}, {"lon": -77.02154133333333, "bike_id": "91ef94f787b36f1c82b619cf576ea4c3", "lat": 38.89728933333333, "fusion_lon": 0.0, "fusion_lat": 0.0, "type": "electric_scooter", "name": "91ef94f787b36f1c82b619cf576ea4c3", "is_disabled": 0, "rental_uris": {"ios": "https://dc.lft.to/lastmile_qr_scan", "android": "https://dc.lft.to/lastmile_qr_scan"}, "is_reserved": 0}, {"lon": -77.02390716666666, "bike_id": "6093732ddb0ffa46d9a2a9fa8126fd69", "lat": 38.916837666666666, "fusion_lon": 0.0, "fusion_lat": 0.0, "type": "electric_scooter", "name": "6093732ddb0ffa46d9a2a9fa8126fd69", "is_disabled": 0, "rental_uris": {"ios": "https://dc.lft.to/lastmile_qr_scan", "android": "https://dc.lft.to/lastmile_qr_scan"}, "is_reserved": 0}, {"lon": -77.0586135, "bike_id": "c08fd04c0710086ecc9f18b64d5c7dc9", "lat": 38.936069833333335, "fusion_lon": 0.0, "fusion_lat": 0.0, "type": "electric_scooter", "name": "c08fd04c0710086ecc9f18b64d5c7dc9", "is_disabled": 0, "rental_uris": {"ios": "https://dc.lft.to/lastmile_qr_scan", "android": "https://dc.lft.to/lastmile_qr_scan"}, "is_reserved": 0}, {"lon": -77.0433495, "bike_id": "e037f9634676d1119bf6165909259ef7", "lat": 38.90230183333333, "fusion_lon": 0.0, "fusion_lat": 0.0, "type": "electric_scooter", "name": "e037f9634676d1119bf6165909259ef7", "is_disabled": 0, "rental_uris": {"ios": "https://dc.lft.to/lastmile_qr_scan", "android": "https://dc.lft.to/lastmile_qr_scan"}, "is_reserved": 0}, {"lon": -77.03412616666667, "bike_id": "74d2f04906bcd795d38e6f06896ee98c", "lat": 38.9231955, "fusion_lon": 0.0, "fusion_lat": 0.0, "type": "electric_scooter", "name": "74d2f04906bcd795d38e6f06896ee98c", "is_disabled": 0, "rental_uris": {"ios": "https://dc.lft.to/lastmile_qr_scan", "android": "https://dc.lft.to/lastmile_qr_scan"}, "is_reserved": 0}, {"lon": -77.02470283333334, "bike_id": "35f87d8659d093a1263c8842f0156cc0", "lat": 38.900894, "fusion_lon": 0.0, "fusion_lat": 0.0, "type": "electric_scooter", "name": "35f87d8659d093a1263c8842f0156cc0", "is_disabled": 0, "rental_uris": {"ios": "https://dc.lft.to/lastmile_qr_scan", "android": "https://dc.lft.to/lastmile_qr_scan"}, "is_reserved": 0}, {"lon": -77.05264333333334, "bike_id": "dad572844627e425d7f448ebb6135636", "lat": 38.9277055, "fusion_lon": 0.0, "fusion_lat": 0.0, "type": "electric_scooter", "name": "dad572844627e425d7f448ebb6135636", "is_disabled": 0, "rental_uris": {"ios": "https://dc.lft.to/lastmile_qr_scan", "android": "https://dc.lft.to/lastmile_qr_scan"}, "is_reserved": 0}, {"lon": -77.0183705, "bike_id": "f95ae0d7d8f85da4e16f92dce9260550", "lat": 38.91496716666666, "fusion_lon": 0.0, "fusion_lat": 0.0, "type": "electric_scooter", "name": "f95ae0d7d8f85da4e16f92dce9260550", "is_disabled": 0, "rental_uris": {"ios": "https://dc.lft.to/lastmile_qr_scan", "android": "https://dc.lft.to/lastmile_qr_scan"}, "is_reserved": 0}, {"lon": -77.02758516666667, "bike_id": "10069d94ecdef8f1b9d862ca43cf6091", "lat": 38.9440455, "fusion_lon": 0.0, "fusion_lat": 0.0, "type": "electric_scooter", "name": "10069d94ecdef8f1b9d862ca43cf6091", "is_disabled": 0, "rental_uris": {"ios": "https://dc.lft.to/lastmile_qr_scan", "android": "https://dc.lft.to/lastmile_qr_scan"}, "is_reserved": 0}, {"lon": -77.03447016666667, "bike_id": "0a7fa00625a757863c4fb341b94815ed", "lat": 38.909823, "fusion_lon": 0.0, "fusion_lat": 0.0, "type": "electric_scooter", "name": "0a7fa00625a757863c4fb341b94815ed", "is_disabled": 0, "rental_uris": {"ios": "https://dc.lft.to/lastmile_qr_scan", "android": "https://dc.lft.to/lastmile_qr_scan"}, "is_reserved": 0}, {"lon": -77.03825616666667, "bike_id": "0070056cffb6d8b367c0ff14f757bfb0", "lat": 38.9067755, "fusion_lon": 0.0, "fusion_lat": 0.0, "type": "electric_scooter", "name": "0070056cffb6d8b367c0ff14f757bfb0", "is_disabled": 0, "rental_uris": {"ios": "https://dc.lft.to/lastmile_qr_scan", "android": "https://dc.lft.to/lastmile_qr_scan"}, "is_reserved": 0}, {"lon": -77.0050865, "bike_id": "f3b78ddb91f621fe2ee889216dfd2880", "lat": 38.912655666666666, "fusion_lon": 0.0, "fusion_lat": 0.0, "type": "electric_scooter", "name": "f3b78ddb91f621fe2ee889216dfd2880", "is_disabled": 0, "rental_uris": {"ios": "https://dc.lft.to/lastmile_qr_scan", "android": "https://dc.lft.to/lastmile_qr_scan"}, "is_reserved": 0}, {"lon": -77.04645233333333, "bike_id": "9325a7487e8b06a21f58e12657607d33", "lat": 38.915957166666665, "fusion_lon": 0.0, "fusion_lat": 0.0, "type": "electric_scooter", "name": "9325a7487e8b06a21f58e12657607d33", "is_disabled": 0, "rental_uris": {"ios": "https://dc.lft.to/lastmile_qr_scan", "android": "https://dc.lft.to/lastmile_qr_scan"}, "is_reserved": 0}, {"lon": -77.02052783333333, "bike_id": "c94efcab45e03977cdd6df8c87055b53", "lat": 38.909685, "fusion_lon": 0.0, "fusion_lat": 0.0, "type": "electric_scooter", "name": "c94efcab45e03977cdd6df8c87055b53", "is_disabled": 0, "rental_uris": {"ios": "https://dc.lft.to/lastmile_qr_scan", "android": "https://dc.lft.to/lastmile_qr_scan"}, "is_reserved": 0}, {"lon": -77.02363433333333, "bike_id": "ea3a735ba33a6e8ca97eae6813e2cc91", "lat": 38.89226633333333, "fusion_lon": 0.0, "fusion_lat": 0.0, "type": "electric_scooter", "name": "ea3a735ba33a6e8ca97eae6813e2cc91", "is_disabled": 0, "rental_uris": {"ios": "https://dc.lft.to/lastmile_qr_scan", "android": "https://dc.lft.to/lastmile_qr_scan"}, "is_reserved": 0}, {"lon": -77.03660266666667, "bike_id": "8b95370555f5ff15b8174486aa9ae765", "lat": 38.92285833333333, "fusion_lon": 0.0, "fusion_lat": 0.0, "type": "electric_scooter", "name": "8b95370555f5ff15b8174486aa9ae765", "is_disabled": 0, "rental_uris": {"ios": "https://dc.lft.to/lastmile_qr_scan", "android": "https://dc.lft.to/lastmile_qr_scan"}, "is_reserved": 0}, {"lon": -76.94879083333333, "bike_id": "2b80c9a98067e50f032f0fbd1edc684e", "lat": 38.89427, "fusion_lon": 0.0, "fusion_lat": 0.0, "type": "electric_scooter", "name": "2b80c9a98067e50f032f0fbd1edc684e", "is_disabled": 0, "rental_uris": {"ios": "https://dc.lft.to/lastmile_qr_scan", "android": "https://dc.lft.to/lastmile_qr_scan"}, "is_reserved": 0}, {"lon": -77.03213866666667, "bike_id": "195250b52da20541f68fc8db66127a91", "lat": 38.912661, "fusion_lon": 0.0, "fusion_lat": 0.0, "type": "electric_scooter", "name": "195250b52da20541f68fc8db66127a91", "is_disabled": 0, "rental_uris": {"ios": "https://dc.lft.to/lastmile_qr_scan", "android": "https://dc.lft.to/lastmile_qr_scan"}, "is_reserved": 0}, {"lon": -77.01987766666667, "bike_id": "cce2cf449ad0760f63904272fd2b5a05", "lat": 38.925481, "fusion_lon": 0.0, "fusion_lat": 0.0, "type": "electric_bike", "name": "cce2cf449ad0760f63904272fd2b5a05", "is_disabled": 0, "rental_uris": {"ios": "https://dc.lft.to/lastmile_qr_scan", "android": "https://dc.lft.to/lastmile_qr_scan"}, "is_reserved": 0}, {"lon": -77.03391616666667, "bike_id": "3e2bf1b41cd5b977aa076e64ca14e61c", "lat": 38.9385015, "fusion_lon": 0.0, "fusion_lat": 0.0, "type": "electric_scooter", "name": "3e2bf1b41cd5b977aa076e64ca14e61c", "is_disabled": 0, "rental_uris": {"ios": "https://dc.lft.to/lastmile_qr_scan", "android": "https://dc.lft.to/lastmile_qr_scan"}, "is_reserved": 0}, {"lon": -76.99372333333334, "bike_id": "146bd70b24c9af18349f9d5498136d2e", "lat": 38.8938365, "fusion_lon": 0.0, "fusion_lat": 0.0, "type": "electric_scooter", "name": "146bd70b24c9af18349f9d5498136d2e", "is_disabled": 0, "rental_uris": {"ios": "https://dc.lft.to/lastmile_qr_scan", "android": "https://dc.lft.to/lastmile_qr_scan"}, "is_reserved": 0}, {"lon": -77.03448616666667, "bike_id": "daba18990e4e400c70f2bf242e7b8a2e", "lat": 38.90980166666667, "fusion_lon": 0.0, "fusion_lat": 0.0, "type": "electric_scooter", "name": "daba18990e4e400c70f2bf242e7b8a2e", "is_disabled": 0, "rental_uris": {"ios": "https://dc.lft.to/lastmile_qr_scan", "android": "https://dc.lft.to/lastmile_qr_scan"}, "is_reserved": 0}, {"lon": -77.00682366666666, "bike_id": "dc4fda3909a05da036af2690a08eb7af", "lat": 38.834944, "fusion_lon": 0.0, "fusion_lat": 0.0, "type": "electric_scooter", "name": "dc4fda3909a05da036af2690a08eb7af", "is_disabled": 0, "rental_uris": {"ios": "https://dc.lft.to/lastmile_qr_scan", "android": "https://dc.lft.to/lastmile_qr_scan"}, "is_reserved": 0}, {"lon": -77.03321766666667, "bike_id": "d3d194538df2c6e116fb413eb80280a0", "lat": 38.921793666666666, "fusion_lon": 0.0, "fusion_lat": 0.0, "type": "electric_scooter", "name": "d3d194538df2c6e116fb413eb80280a0", "is_disabled": 0, "rental_uris": {"ios": "https://dc.lft.to/lastmile_qr_scan", "android": "https://dc.lft.to/lastmile_qr_scan"}, "is_reserved": 0}, {"lon": -77.03063983333334, "bike_id": "9536accd73526895b01ea4d3cfb9b8c0", "lat": 38.900680333333334, "fusion_lon": 0.0, "fusion_lat": 0.0, "type": "electric_scooter", "name": "9536accd73526895b01ea4d3cfb9b8c0", "is_disabled": 0, "rental_uris": {"ios": "https://dc.lft.to/lastmile_qr_scan", "android": "https://dc.lft.to/lastmile_qr_scan"}, "is_reserved": 0}, {"lon": -77.04443683333334, "bike_id": "3d6e8966cfaee85e4c1a3ce91d3d3309", "lat": 38.91813783333333, "fusion_lon": 0.0, "fusion_lat": 0.0, "type": "electric_scooter", "name": "3d6e8966cfaee85e4c1a3ce91d3d3309", "is_disabled": 0, "rental_uris": {"ios": "https://dc.lft.to/lastmile_qr_scan", "android": "https://dc.lft.to/lastmile_qr_scan"}, "is_reserved": 0}, {"lon": -77.0453825, "bike_id": "8ff49f4f90e2e59904be139ff9f72494", "lat": 38.913161833333334, "fusion_lon": 0.0, "fusion_lat": 0.0, "type": "electric_scooter", "name": "8ff49f4f90e2e59904be139ff9f72494", "is_disabled": 0, "rental_uris": {"ios": "https://dc.lft.to/lastmile_qr_scan", "android": "https://dc.lft.to/lastmile_qr_scan"}, "is_reserved": 0}, {"lon": -77.0239635, "bike_id": "6d286b60b1ab334d954b9afa956461af", "lat": 38.919865, "fusion_lon": 0.0, "fusion_lat": 0.0, "type": "electric_scooter", "name": "6d286b60b1ab334d954b9afa956461af", "is_disabled": 0, "rental_uris": {"ios": "https://dc.lft.to/lastmile_qr_scan", "android": "https://dc.lft.to/lastmile_qr_scan"}, "is_reserved": 0}, {"lon": -77.02692, "bike_id": "f75f948f996c7247a90f33ae10a1f2ec", "lat": 38.908414, "fusion_lon": 0.0, "fusion_lat": 0.0, "type": "electric_scooter", "name": "f75f948f996c7247a90f33ae10a1f2ec", "is_disabled": 0, "rental_uris": {"ios": "https://dc.lft.to/lastmile_qr_scan", "android": "https://dc.lft.to/lastmile_qr_scan"}, "is_reserved": 0}, {"lon": -77.027713, "bike_id": "872e5bfb6c0fa7880b9b584fa768124e", "lat": 38.892200333333335, "fusion_lon": 0.0, "fusion_lat": 0.0, "type": "electric_scooter", "name": "872e5bfb6c0fa7880b9b584fa768124e", "is_disabled": 0, "rental_uris": {"ios": "https://dc.lft.to/lastmile_qr_scan", "android": "https://dc.lft.to/lastmile_qr_scan"}, "is_reserved": 0}, {"lon": -77.02058033333333, "bike_id": "ec3e737dd97324c7cd2a892c21fbfb38", "lat": 38.92919633333333, "fusion_lon": 0.0, "fusion_lat": 0.0, "type": "electric_scooter", "name": "ec3e737dd97324c7cd2a892c21fbfb38", "is_disabled": 0, "rental_uris": {"ios": "https://dc.lft.to/lastmile_qr_scan", "android": "https://dc.lft.to/lastmile_qr_scan"}, "is_reserved": 0}, {"lon": -77.0005895, "bike_id": "db1b73831e8c6a0e7f167db37db3a97c", "lat": 38.900870166666664, "fusion_lon": 0.0, "fusion_lat": 0.0, "type": "electric_scooter", "name": "db1b73831e8c6a0e7f167db37db3a97c", "is_disabled": 0, "rental_uris": {"ios": "https://dc.lft.to/lastmile_qr_scan", "android": "https://dc.lft.to/lastmile_qr_scan"}, "is_reserved": 0}, {"lon": -77.01790566666666, "bike_id": "b9c9f2b1d6ef0ba5c5b1fc6770e25720", "lat": 38.94120216666666, "fusion_lon": 0.0, "fusion_lat": 0.0, "type": "electric_scooter", "name": "b9c9f2b1d6ef0ba5c5b1fc6770e25720", "is_disabled": 0, "rental_uris": {"ios": "https://dc.lft.to/lastmile_qr_scan", "android": "https://dc.lft.to/lastmile_qr_scan"}, "is_reserved": 0}, {"lon": -76.990562, "bike_id": "8dc73bf7ece8f11adecf3572ac203f95", "lat": 38.863774666666664, "fusion_lon": 0.0, "fusion_lat": 0.0, "type": "electric_scooter", "name": "8dc73bf7ece8f11adecf3572ac203f95", "is_disabled": 0, "rental_uris": {"ios": "https://dc.lft.to/lastmile_qr_scan", "android": "https://dc.lft.to/lastmile_qr_scan"}, "is_reserved": 0}, {"lon": -76.94204083333334, "bike_id": "7a7948545db8d6e7332e4119a2ccc710", "lat": 38.893136166666665, "fusion_lon": 0.0, "fusion_lat": 0.0, "type": "electric_bike", "name": "7a7948545db8d6e7332e4119a2ccc710", "is_disabled": 0, "rental_uris": {"ios": "https://dc.lft.to/lastmile_qr_scan", "android": "https://dc.lft.to/lastmile_qr_scan"}, "is_reserved": 0}, {"lon": -77.0247145, "bike_id": "f941012e0154d6a170a04847f32f0601", "lat": 38.938613833333335, "fusion_lon": 0.0, "fusion_lat": 0.0, "type": "electric_scooter", "name": "f941012e0154d6a170a04847f32f0601", "is_disabled": 0, "rental_uris": {"ios": "https://dc.lft.to/lastmile_qr_scan", "android": "https://dc.lft.to/lastmile_qr_scan"}, "is_reserved": 0}, {"lon": -77.06213, "bike_id": "1af6960bac263d0e9718c880329da207", "lat": 38.92042883333333, "fusion_lon": 0.0, "fusion_lat": 0.0, "type": "electric_bike", "name": "1af6960bac263d0e9718c880329da207", "is_disabled": 0, "rental_uris": {"ios": "https://dc.lft.to/lastmile_qr_scan", "android": "https://dc.lft.to/lastmile_qr_scan"}, "is_reserved": 0}, {"lon": -76.93609583333334, "bike_id": "95419c30ea1783f08b00fc7700980051", "lat": 38.97068983333333, "fusion_lon": 0.0, "fusion_lat": 0.0, "type": "electric_bike", "name": "95419c30ea1783f08b00fc7700980051", "is_disabled": 0, "rental_uris": {"ios": "https://dc.lft.to/lastmile_qr_scan", "android": "https://dc.lft.to/lastmile_qr_scan"}, "is_reserved": 0}, {"lon": -77.03369283333333, "bike_id": "2c463a8ff38fa94568a04089b9dd5846", "lat": 38.9288805, "fusion_lon": 0.0, "fusion_lat": 0.0, "type": "electric_scooter", "name": "2c463a8ff38fa94568a04089b9dd5846", "is_disabled": 0, "rental_uris": {"ios": "https://dc.lft.to/lastmile_qr_scan", "android": "https://dc.lft.to/lastmile_qr_scan"}, "is_reserved": 0}, {"lon": -77.03472833333333, "bike_id": "792b0bfdcf184b325d13fc70ba322cc9", "lat": 38.907298, "fusion_lon": 0.0, "fusion_lat": 0.0, "type": "electric_scooter", "name": "792b0bfdcf184b325d13fc70ba322cc9", "is_disabled": 0, "rental_uris": {"ios": "https://dc.lft.to/lastmile_qr_scan", "android": "https://dc.lft.to/lastmile_qr_scan"}, "is_reserved": 0}, {"lon": -76.97330216666667, "bike_id": "d2d057546059ec0d4ad65336677ee806", "lat": 38.904151666666664, "fusion_lon": 0.0, "fusion_lat": 0.0, "type": "electric_scooter", "name": "d2d057546059ec0d4ad65336677ee806", "is_disabled": 0, "rental_uris": {"ios": "https://dc.lft.to/lastmile_qr_scan", "android": "https://dc.lft.to/lastmile_qr_scan"}, "is_reserved": 0}, {"lon": -77.0386835, "bike_id": "e283816979be5161a1d9e3275488c75a", "lat": 38.9127035, "fusion_lon": 0.0, "fusion_lat": 0.0, "type": "electric_scooter", "name": "e283816979be5161a1d9e3275488c75a", "is_disabled": 0, "rental_uris": {"ios": "https://dc.lft.to/lastmile_qr_scan", "android": "https://dc.lft.to/lastmile_qr_scan"}, "is_reserved": 0}, {"lon": -77.03275316666667, "bike_id": "01f346f59dde49242e0429fab0cfdb04", "lat": 38.91407133333333, "fusion_lon": 0.0, "fusion_lat": 0.0, "type": "electric_scooter", "name": "01f346f59dde49242e0429fab0cfdb04", "is_disabled": 0, "rental_uris": {"ios": "https://dc.lft.to/lastmile_qr_scan", "android": "https://dc.lft.to/lastmile_qr_scan"}, "is_reserved": 0}, {"lon": -77.03293566666666, "bike_id": "fc16433d012d5939e759463b912328b5", "lat": 38.9263255, "fusion_lon": 0.0, "fusion_lat": 0.0, "type": "electric_bike", "name": "fc16433d012d5939e759463b912328b5", "is_disabled": 0, "rental_uris": {"ios": "https://dc.lft.to/lastmile_qr_scan", "android": "https://dc.lft.to/lastmile_qr_scan"}, "is_reserved": 0}, {"lon": -77.013334, "bike_id": "2a856c69b8c75ffd0e15ffbf06a66f4b", "lat": 38.90014583333333, "fusion_lon": 0.0, "fusion_lat": 0.0, "type": "electric_scooter", "name": "2a856c69b8c75ffd0e15ffbf06a66f4b", "is_disabled": 0, "rental_uris": {"ios": "https://dc.lft.to/lastmile_qr_scan", "android": "https://dc.lft.to/lastmile_qr_scan"}, "is_reserved": 0}, {"lon": -77.0685345, "bike_id": "4fdbc3bc126cbaae14fd5649b42a4786", "lat": 38.93812783333333, "fusion_lon": 0.0, "fusion_lat": 0.0, "type": "electric_bike", "name": "4fdbc3bc126cbaae14fd5649b42a4786", "is_disabled": 0, "rental_uris": {"ios": "https://dc.lft.to/lastmile_qr_scan", "android": "https://dc.lft.to/lastmile_qr_scan"}, "is_reserved": 0}, {"lon": -77.0351805, "bike_id": "c338167d2438d2e63ca983a24b3bca0e", "lat": 38.9234455, "fusion_lon": 0.0, "fusion_lat": 0.0, "type": "electric_scooter", "name": "c338167d2438d2e63ca983a24b3bca0e", "is_disabled": 0, "rental_uris": {"ios": "https://dc.lft.to/lastmile_qr_scan", "android": "https://dc.lft.to/lastmile_qr_scan"}, "is_reserved": 0}, {"lon": -77.0088605, "bike_id": "4eca704bf126f27f5eb4f110e31e6770", "lat": 38.91635016666667, "fusion_lon": 0.0, "fusion_lat": 0.0, "type": "electric_bike", "name": "4eca704bf126f27f5eb4f110e31e6770", "is_disabled": 0, "rental_uris": {"ios": "https://dc.lft.to/lastmile_qr_scan", "android": "https://dc.lft.to/lastmile_qr_scan"}, "is_reserved": 0}, {"lon": -76.98526183333334, "bike_id": "781cdd4e7c1a2fd47bf5317b14f74f95", "lat": 38.866869666666666, "fusion_lon": 0.0, "fusion_lat": 0.0, "type": "electric_scooter", "name": "781cdd4e7c1a2fd47bf5317b14f74f95", "is_disabled": 0, "rental_uris": {"ios": "https://dc.lft.to/lastmile_qr_scan", "android": "https://dc.lft.to/lastmile_qr_scan"}, "is_reserved": 0}, {"lon": -77.022216, "bike_id": "9415802597204ad56d447931f8b90a17", "lat": 38.912602166666666, "fusion_lon": 0.0, "fusion_lat": 0.0, "type": "electric_scooter", "name": "9415802597204ad56d447931f8b90a17", "is_disabled": 0, "rental_uris": {"ios": "https://dc.lft.to/lastmile_qr_scan", "android": "https://dc.lft.to/lastmile_qr_scan"}, "is_reserved": 0}, {"lon": -77.03662266666667, "bike_id": "96ec0286a78376ebc4b632e4f6e325ad", "lat": 38.922819833333335, "fusion_lon": 0.0, "fusion_lat": 0.0, "type": "electric_scooter", "name": "96ec0286a78376ebc4b632e4f6e325ad", "is_disabled": 0, "rental_uris": {"ios": "https://dc.lft.to/lastmile_qr_scan", "android": "https://dc.lft.to/lastmile_qr_scan"}, "is_reserved": 0}, {"lon": -77.04473566666667, "bike_id": "cf1d716f5ee6db6720d15913c30391ea", "lat": 38.90869166666667, "fusion_lon": 0.0, "fusion_lat": 0.0, "type": "electric_scooter", "name": "cf1d716f5ee6db6720d15913c30391ea", "is_disabled": 0, "rental_uris": {"ios": "https://dc.lft.to/lastmile_qr_scan", "android": "https://dc.lft.to/lastmile_qr_scan"}, "is_reserved": 0}, {"lon": -77.03049233333333, "bike_id": "da173fa65905d4f428fc85313974be9d", "lat": 38.884311833333335, "fusion_lon": 0.0, "fusion_lat": 0.0, "type": "electric_scooter", "name": "da173fa65905d4f428fc85313974be9d", "is_disabled": 0, "rental_uris": {"ios": "https://dc.lft.to/lastmile_qr_scan", "android": "https://dc.lft.to/lastmile_qr_scan"}, "is_reserved": 0}, {"lon": -76.95751833333334, "bike_id": "3e1f8c1cfef98abdb60fa78e3411c475", "lat": 38.8842985, "fusion_lon": 0.0, "fusion_lat": 0.0, "type": "electric_scooter", "name": "3e1f8c1cfef98abdb60fa78e3411c475", "is_disabled": 0, "rental_uris": {"ios": "https://dc.lft.to/lastmile_qr_scan", "android": "https://dc.lft.to/lastmile_qr_scan"}, "is_reserved": 0}, {"lon": -77.06100516666666, "bike_id": "33b4f9e99cfff239c42a2fe864ef2dbe", "lat": 38.90532483333333, "fusion_lon": 0.0, "fusion_lat": 0.0, "type": "electric_scooter", "name": "33b4f9e99cfff239c42a2fe864ef2dbe", "is_disabled": 0, "rental_uris": {"ios": "https://dc.lft.to/lastmile_qr_scan", "android": "https://dc.lft.to/lastmile_qr_scan"}, "is_reserved": 0}, {"lon": -77.02371733333334, "bike_id": "58d8ca6a9454257df79eee27466b7035", "lat": 38.900164833333335, "fusion_lon": 0.0, "fusion_lat": 0.0, "type": "electric_scooter", "name": "58d8ca6a9454257df79eee27466b7035", "is_disabled": 0, "rental_uris": {"ios": "https://dc.lft.to/lastmile_qr_scan", "android": "https://dc.lft.to/lastmile_qr_scan"}, "is_reserved": 0}, {"lon": -77.0297065, "bike_id": "bc6afdd6b52f458a5f4a934023b7cdbe", "lat": 38.912477, "fusion_lon": 0.0, "fusion_lat": 0.0, "type": "electric_scooter", "name": "bc6afdd6b52f458a5f4a934023b7cdbe", "is_disabled": 0, "rental_uris": {"ios": "https://dc.lft.to/lastmile_qr_scan", "android": "https://dc.lft.to/lastmile_qr_scan"}, "is_reserved": 0}, {"lon": -76.98934416666667, "bike_id": "4c964b35e741f20c78adc81d4365bd9d", "lat": 38.90188333333333, "fusion_lon": 0.0, "fusion_lat": 0.0, "type": "electric_scooter", "name": "4c964b35e741f20c78adc81d4365bd9d", "is_disabled": 0, "rental_uris": {"ios": "https://dc.lft.to/lastmile_qr_scan", "android": "https://dc.lft.to/lastmile_qr_scan"}, "is_reserved": 0}, {"lon": -77.0408545, "bike_id": "80a364bc8a89ce82a7905cec461d0211", "lat": 38.90959333333333, "fusion_lon": 0.0, "fusion_lat": 0.0, "type": "electric_scooter", "name": "80a364bc8a89ce82a7905cec461d0211", "is_disabled": 0, "rental_uris": {"ios": "https://dc.lft.to/lastmile_qr_scan", "android": "https://dc.lft.to/lastmile_qr_scan"}, "is_reserved": 0}, {"lon": -77.05008516666666, "bike_id": "763c516346dc052ee4b9b48f182d2fa1", "lat": 38.90161833333333, "fusion_lon": 0.0, "fusion_lat": 0.0, "type": "electric_scooter", "name": "763c516346dc052ee4b9b48f182d2fa1", "is_disabled": 0, "rental_uris": {"ios": "https://dc.lft.to/lastmile_qr_scan", "android": "https://dc.lft.to/lastmile_qr_scan"}, "is_reserved": 0}, {"lon": -76.97444033333333, "bike_id": "7afbf5cb6ad3322023aa4b407a6db3e9", "lat": 38.86422183333333, "fusion_lon": 0.0, "fusion_lat": 0.0, "type": "electric_scooter", "name": "7afbf5cb6ad3322023aa4b407a6db3e9", "is_disabled": 0, "rental_uris": {"ios": "https://dc.lft.to/lastmile_qr_scan", "android": "https://dc.lft.to/lastmile_qr_scan"}, "is_reserved": 0}, {"lon": -77.04110283333333, "bike_id": "0cd95331084656d9b98b81cd47218b66", "lat": 38.92305266666666, "fusion_lon": 0.0, "fusion_lat": 0.0, "type": "electric_scooter", "name": "0cd95331084656d9b98b81cd47218b66", "is_disabled": 0, "rental_uris": {"ios": "https://dc.lft.to/lastmile_qr_scan", "android": "https://dc.lft.to/lastmile_qr_scan"}, "is_reserved": 0}, {"lon": -77.03204216666667, "bike_id": "7517fbebb3902d66bc5c2e693385f631", "lat": 38.9124435, "fusion_lon": 0.0, "fusion_lat": 0.0, "type": "electric_scooter", "name": "7517fbebb3902d66bc5c2e693385f631", "is_disabled": 0, "rental_uris": {"ios": "https://dc.lft.to/lastmile_qr_scan", "android": "https://dc.lft.to/lastmile_qr_scan"}, "is_reserved": 0}, {"lon": -77.06360033333333, "bike_id": "f8fabf7ec89022745e3d2af61c12b8d5", "lat": 38.94405883333334, "fusion_lon": 0.0, "fusion_lat": 0.0, "type": "electric_bike", "name": "f8fabf7ec89022745e3d2af61c12b8d5", "is_disabled": 0, "rental_uris": {"ios": "https://dc.lft.to/lastmile_qr_scan", "android": "https://dc.lft.to/lastmile_qr_scan"}, "is_reserved": 0}, {"lon": -77.03082066666667, "bike_id": "beec9a3b2e5f9e523e637ba0922f4d74", "lat": 38.91009233333333, "fusion_lon": 0.0, "fusion_lat": 0.0, "type": "electric_scooter", "name": "beec9a3b2e5f9e523e637ba0922f4d74", "is_disabled": 0, "rental_uris": {"ios": "https://dc.lft.to/lastmile_qr_scan", "android": "https://dc.lft.to/lastmile_qr_scan"}, "is_reserved": 0}, {"lon": -77.0295955, "bike_id": "9758fb68f7e15fd2e9ea3706c9367ad4", "lat": 38.92292, "fusion_lon": 0.0, "fusion_lat": 0.0, "type": "electric_scooter", "name": "9758fb68f7e15fd2e9ea3706c9367ad4", "is_disabled": 0, "rental_uris": {"ios": "https://dc.lft.to/lastmile_qr_scan", "android": "https://dc.lft.to/lastmile_qr_scan"}, "is_reserved": 0}, {"lon": -77.06884233333334, "bike_id": "86b7ff4b3a0500ef76045199f920e967", "lat": 38.904015333333334, "fusion_lon": 0.0, "fusion_lat": 0.0, "type": "electric_bike", "name": "86b7ff4b3a0500ef76045199f920e967", "is_disabled": 0, "rental_uris": {"ios": "https://dc.lft.to/lastmile_qr_scan", "android": "https://dc.lft.to/lastmile_qr_scan"}, "is_reserved": 0}, {"lon": -76.93547733333334, "bike_id": "9f1cf6ca54e2a8bf1cdfde42810410ce", "lat": 38.89031133333334, "fusion_lon": 0.0, "fusion_lat": 0.0, "type": "electric_scooter", "name": "9f1cf6ca54e2a8bf1cdfde42810410ce", "is_disabled": 0, "rental_uris": {"ios": "https://dc.lft.to/lastmile_qr_scan", "android": "https://dc.lft.to/lastmile_qr_scan"}, "is_reserved": 0}, {"lon": -77.03852633333334, "bike_id": "ce22efacb079ee75d3b1a13346a66241", "lat": 38.910182166666665, "fusion_lon": 0.0, "fusion_lat": 0.0, "type": "electric_scooter", "name": "ce22efacb079ee75d3b1a13346a66241", "is_disabled": 0, "rental_uris": {"ios": "https://dc.lft.to/lastmile_qr_scan", "android": "https://dc.lft.to/lastmile_qr_scan"}, "is_reserved": 0}, {"lon": -77.04671816666666, "bike_id": "d1d53eced998a133503a4a993dfb8d43", "lat": 38.8923275, "fusion_lon": 0.0, "fusion_lat": 0.0, "type": "electric_scooter", "name": "d1d53eced998a133503a4a993dfb8d43", "is_disabled": 0, "rental_uris": {"ios": "https://dc.lft.to/lastmile_qr_scan", "android": "https://dc.lft.to/lastmile_qr_scan"}, "is_reserved": 0}, {"lon": -77.04387933333334, "bike_id": "e0a8bcc69f45b10eee73ea89f85875c7", "lat": 38.92109116666666, "fusion_lon": 0.0, "fusion_lat": 0.0, "type": "electric_scooter", "name": "e0a8bcc69f45b10eee73ea89f85875c7", "is_disabled": 0, "rental_uris": {"ios": "https://dc.lft.to/lastmile_qr_scan", "android": "https://dc.lft.to/lastmile_qr_scan"}, "is_reserved": 0}, {"lon": -77.03167383333333, "bike_id": "b6c36268ae7215e9c6d2b375cb9bfa87", "lat": 38.91822483333333, "fusion_lon": 0.0, "fusion_lat": 0.0, "type": "electric_scooter", "name": "b6c36268ae7215e9c6d2b375cb9bfa87", "is_disabled": 0, "rental_uris": {"ios": "https://dc.lft.to/lastmile_qr_scan", "android": "https://dc.lft.to/lastmile_qr_scan"}, "is_reserved": 0}, {"lon": -77.02562866666666, "bike_id": "442fe6588625cecb438b65fa4b4ec325", "lat": 38.94172733333333, "fusion_lon": 0.0, "fusion_lat": 0.0, "type": "electric_scooter", "name": "442fe6588625cecb438b65fa4b4ec325", "is_disabled": 0, "rental_uris": {"ios": "https://dc.lft.to/lastmile_qr_scan", "android": "https://dc.lft.to/lastmile_qr_scan"}, "is_reserved": 0}, {"lon": -76.89538966666667, "bike_id": "65e174cda3c751ef3f7d6148e8ece48f", "lat": 38.945565, "fusion_lon": 0.0, "fusion_lat": 0.0, "type": "electric_bike", "name": "65e174cda3c751ef3f7d6148e8ece48f", "is_disabled": 0, "rental_uris": {"ios": "https://dc.lft.to/lastmile_qr_scan", "android": "https://dc.lft.to/lastmile_qr_scan"}, "is_reserved": 0}, {"lon": -76.999061, "bike_id": "f1f8dfefb7b5c19136eeb7178b95b69f", "lat": 38.907281166666664, "fusion_lon": 0.0, "fusion_lat": 0.0, "type": "electric_scooter", "name": "f1f8dfefb7b5c19136eeb7178b95b69f", "is_disabled": 0, "rental_uris": {"ios": "https://dc.lft.to/lastmile_qr_scan", "android": "https://dc.lft.to/lastmile_qr_scan"}, "is_reserved": 0}, {"lon": -77.04261766666667, "bike_id": "b100e7aed273531898ed090392189411", "lat": 38.922868, "fusion_lon": 0.0, "fusion_lat": 0.0, "type": "electric_scooter", "name": "b100e7aed273531898ed090392189411", "is_disabled": 0, "rental_uris": {"ios": "https://dc.lft.to/lastmile_qr_scan", "android": "https://dc.lft.to/lastmile_qr_scan"}, "is_reserved": 0}, {"lon": -77.02570166666666, "bike_id": "3623c64201aee6b71139f3fd4e739c34", "lat": 38.914889333333335, "fusion_lon": 0.0, "fusion_lat": 0.0, "type": "electric_scooter", "name": "3623c64201aee6b71139f3fd4e739c34", "is_disabled": 0, "rental_uris": {"ios": "https://dc.lft.to/lastmile_qr_scan", "android": "https://dc.lft.to/lastmile_qr_scan"}, "is_reserved": 0}, {"lon": -77.03804316666667, "bike_id": "18a97c4d2bfd8e7c0c2eb92d230ce42b", "lat": 38.93026066666667, "fusion_lon": 0.0, "fusion_lat": 0.0, "type": "electric_scooter", "name": "18a97c4d2bfd8e7c0c2eb92d230ce42b", "is_disabled": 0, "rental_uris": {"ios": "https://dc.lft.to/lastmile_qr_scan", "android": "https://dc.lft.to/lastmile_qr_scan"}, "is_reserved": 0}, {"lon": -77.0251295, "bike_id": "041ef54b31dffe3f10ac3f033cf26bf8", "lat": 38.92642683333333, "fusion_lon": 0.0, "fusion_lat": 0.0, "type": "electric_scooter", "name": "041ef54b31dffe3f10ac3f033cf26bf8", "is_disabled": 0, "rental_uris": {"ios": "https://dc.lft.to/lastmile_qr_scan", "android": "https://dc.lft.to/lastmile_qr_scan"}, "is_reserved": 0}, {"lon": -77.040157, "bike_id": "ec3e970a438dc9183539f9a822b7207f", "lat": 38.90558, "fusion_lon": 0.0, "fusion_lat": 0.0, "type": "electric_scooter", "name": "ec3e970a438dc9183539f9a822b7207f", "is_disabled": 0, "rental_uris": {"ios": "https://dc.lft.to/lastmile_qr_scan", "android": "https://dc.lft.to/lastmile_qr_scan"}, "is_reserved": 0}, {"lon": -77.00598066666667, "bike_id": "cdcd5c722547eacce73e922627d09ee8", "lat": 38.87185733333333, "fusion_lon": 0.0, "fusion_lat": 0.0, "type": "electric_scooter", "name": "cdcd5c722547eacce73e922627d09ee8", "is_disabled": 0, "rental_uris": {"ios": "https://dc.lft.to/lastmile_qr_scan", "android": "https://dc.lft.to/lastmile_qr_scan"}, "is_reserved": 0}, {"lon": -77.00682266666666, "bike_id": "cf5811d860cd78d0c4e087f42917f0f3", "lat": 38.94500633333333, "fusion_lon": 0.0, "fusion_lat": 0.0, "type": "electric_bike", "name": "cf5811d860cd78d0c4e087f42917f0f3", "is_disabled": 0, "rental_uris": {"ios": "https://dc.lft.to/lastmile_qr_scan", "android": "https://dc.lft.to/lastmile_qr_scan"}, "is_reserved": 0}, {"lon": -77.0312925, "bike_id": "0ef46e6e98fee515ea73cbc5537e1477", "lat": 38.9238325, "fusion_lon": 0.0, "fusion_lat": 0.0, "type": "electric_scooter", "name": "0ef46e6e98fee515ea73cbc5537e1477", "is_disabled": 0, "rental_uris": {"ios": "https://dc.lft.to/lastmile_qr_scan", "android": "https://dc.lft.to/lastmile_qr_scan"}, "is_reserved": 0}, {"lon": -77.03295233333333, "bike_id": "21c44f8ff76bd13cf5e5f28bc6b6627e", "lat": 38.901294666666665, "fusion_lon": 0.0, "fusion_lat": 0.0, "type": "electric_scooter", "name": "21c44f8ff76bd13cf5e5f28bc6b6627e", "is_disabled": 0, "rental_uris": {"ios": "https://dc.lft.to/lastmile_qr_scan", "android": "https://dc.lft.to/lastmile_qr_scan"}, "is_reserved": 0}, {"lon": -77.04218116666667, "bike_id": "64552b06fe1bec0fe5f402e5301015eb", "lat": 38.9231465, "fusion_lon": 0.0, "fusion_lat": 0.0, "type": "electric_scooter", "name": "64552b06fe1bec0fe5f402e5301015eb", "is_disabled": 0, "rental_uris": {"ios": "https://dc.lft.to/lastmile_qr_scan", "android": "https://dc.lft.to/lastmile_qr_scan"}, "is_reserved": 0}, {"lon": -77.02711266666667, "bike_id": "d0ad36329f044a8ff5e8442ef1334ef7", "lat": 38.90662566666666, "fusion_lon": 0.0, "fusion_lat": 0.0, "type": "electric_scooter", "name": "d0ad36329f044a8ff5e8442ef1334ef7", "is_disabled": 0, "rental_uris": {"ios": "https://dc.lft.to/lastmile_qr_scan", "android": "https://dc.lft.to/lastmile_qr_scan"}, "is_reserved": 0}, {"lon": -76.9781035, "bike_id": "c4a7636c996f47f8d35724903f48a0d7", "lat": 38.906744, "fusion_lon": 0.0, "fusion_lat": 0.0, "type": "electric_scooter", "name": "c4a7636c996f47f8d35724903f48a0d7", "is_disabled": 0, "rental_uris": {"ios": "https://dc.lft.to/lastmile_qr_scan", "android": "https://dc.lft.to/lastmile_qr_scan"}, "is_reserved": 0}, {"lon": -77.07121616666667, "bike_id": "b35dea91563eb4c136d92bda8a9d8349", "lat": 38.91974483333333, "fusion_lon": 0.0, "fusion_lat": 0.0, "type": "electric_scooter", "name": "b35dea91563eb4c136d92bda8a9d8349", "is_disabled": 0, "rental_uris": {"ios": "https://dc.lft.to/lastmile_qr_scan", "android": "https://dc.lft.to/lastmile_qr_scan"}, "is_reserved": 0}, {"lon": -77.031851, "bike_id": "06cfb023c08140ad69a36c0de3a763c8", "lat": 38.917475333333336, "fusion_lon": 0.0, "fusion_lat": 0.0, "type": "electric_scooter", "name": "06cfb023c08140ad69a36c0de3a763c8", "is_disabled": 0, "rental_uris": {"ios": "https://dc.lft.to/lastmile_qr_scan", "android": "https://dc.lft.to/lastmile_qr_scan"}, "is_reserved": 0}, {"lon": -77.04212966666667, "bike_id": "160776740e1c672c51bece8e0f2a4bf5", "lat": 38.9141495, "fusion_lon": 0.0, "fusion_lat": 0.0, "type": "electric_scooter", "name": "160776740e1c672c51bece8e0f2a4bf5", "is_disabled": 0, "rental_uris": {"ios": "https://dc.lft.to/lastmile_qr_scan", "android": "https://dc.lft.to/lastmile_qr_scan"}, "is_reserved": 0}, {"lon": -76.99161766666667, "bike_id": "d1c439288b21583f47fae29dc5678e99", "lat": 38.90038966666667, "fusion_lon": 0.0, "fusion_lat": 0.0, "type": "electric_scooter", "name": "d1c439288b21583f47fae29dc5678e99", "is_disabled": 0, "rental_uris": {"ios": "https://dc.lft.to/lastmile_qr_scan", "android": "https://dc.lft.to/lastmile_qr_scan"}, "is_reserved": 0}, {"lon": -77.02429033333334, "bike_id": "63b534842f36fcfd2957954c8adf59d9", "lat": 38.9182965, "fusion_lon": 0.0, "fusion_lat": 0.0, "type": "electric_scooter", "name": "63b534842f36fcfd2957954c8adf59d9", "is_disabled": 0, "rental_uris": {"ios": "https://dc.lft.to/lastmile_qr_scan", "android": "https://dc.lft.to/lastmile_qr_scan"}, "is_reserved": 0}, {"lon": -77.01760583333333, "bike_id": "8d18cd3ccd948eceab451008e7299979", "lat": 38.876679833333334, "fusion_lon": 0.0, "fusion_lat": 0.0, "type": "electric_scooter", "name": "8d18cd3ccd948eceab451008e7299979", "is_disabled": 0, "rental_uris": {"ios": "https://dc.lft.to/lastmile_qr_scan", "android": "https://dc.lft.to/lastmile_qr_scan"}, "is_reserved": 0}, {"lon": -77.02718516666667, "bike_id": "39f22e8a37e70a3937828f1f0f6debb8", "lat": 38.90952683333333, "fusion_lon": 0.0, "fusion_lat": 0.0, "type": "electric_scooter", "name": "39f22e8a37e70a3937828f1f0f6debb8", "is_disabled": 0, "rental_uris": {"ios": "https://dc.lft.to/lastmile_qr_scan", "android": "https://dc.lft.to/lastmile_qr_scan"}, "is_reserved": 0}, {"lon": -77.04337316666667, "bike_id": "fd12f6bcc960a18035a73eb2ced8315d", "lat": 38.89225066666667, "fusion_lon": 0.0, "fusion_lat": 0.0, "type": "electric_scooter", "name": "fd12f6bcc960a18035a73eb2ced8315d", "is_disabled": 0, "rental_uris": {"ios": "https://dc.lft.to/lastmile_qr_scan", "android": "https://dc.lft.to/lastmile_qr_scan"}, "is_reserved": 0}, {"lon": -77.02184733333333, "bike_id": "48486906791136f9892f897d938e8f09", "lat": 38.9148255, "fusion_lon": 0.0, "fusion_lat": 0.0, "type": "electric_scooter", "name": "48486906791136f9892f897d938e8f09", "is_disabled": 0, "rental_uris": {"ios": "https://dc.lft.to/lastmile_qr_scan", "android": "https://dc.lft.to/lastmile_qr_scan"}, "is_reserved": 0}, {"lon": -77.02453266666667, "bike_id": "adb4a4409c5eaad5e3cca3bfc27f6498", "lat": 38.914123833333335, "fusion_lon": 0.0, "fusion_lat": 0.0, "type": "electric_scooter", "name": "adb4a4409c5eaad5e3cca3bfc27f6498", "is_disabled": 0, "rental_uris": {"ios": "https://dc.lft.to/lastmile_qr_scan", "android": "https://dc.lft.to/lastmile_qr_scan"}, "is_reserved": 0}, {"lon": -77.02121833333334, "bike_id": "228af301a03108a12204c6efe9ce634b", "lat": 38.93705383333333, "fusion_lon": 0.0, "fusion_lat": 0.0, "type": "electric_scooter", "name": "228af301a03108a12204c6efe9ce634b", "is_disabled": 0, "rental_uris": {"ios": "https://dc.lft.to/lastmile_qr_scan", "android": "https://dc.lft.to/lastmile_qr_scan"}, "is_reserved": 0}, {"lon": -77.00826283333333, "bike_id": "4cc8e37fe3cfa5be3a130335a802b660", "lat": 38.879067, "fusion_lon": 0.0, "fusion_lat": 0.0, "type": "electric_scooter", "name": "4cc8e37fe3cfa5be3a130335a802b660", "is_disabled": 0, "rental_uris": {"ios": "https://dc.lft.to/lastmile_qr_scan", "android": "https://dc.lft.to/lastmile_qr_scan"}, "is_reserved": 0}, {"lon": -77.04356333333334, "bike_id": "8a28ca5d831adf5c79e4ced4c38b4e72", "lat": 38.921469, "fusion_lon": 0.0, "fusion_lat": 0.0, "type": "electric_scooter", "name": "8a28ca5d831adf5c79e4ced4c38b4e72", "is_disabled": 0, "rental_uris": {"ios": "https://dc.lft.to/lastmile_qr_scan", "android": "https://dc.lft.to/lastmile_qr_scan"}, "is_reserved": 0}, {"lon": -76.94882016666666, "bike_id": "be6a9b6e83a5c39d54542abc45ab9540", "lat": 38.895064166666664, "fusion_lon": 0.0, "fusion_lat": 0.0, "type": "electric_scooter", "name": "be6a9b6e83a5c39d54542abc45ab9540", "is_disabled": 0, "rental_uris": {"ios": "https://dc.lft.to/lastmile_qr_scan", "android": "https://dc.lft.to/lastmile_qr_scan"}, "is_reserved": 0}, {"lon": -77.05705783333333, "bike_id": "dbb5cf88ff83d14b34560476971abd1c", "lat": 38.90541666666667, "fusion_lon": 0.0, "fusion_lat": 0.0, "type": "electric_scooter", "name": "dbb5cf88ff83d14b34560476971abd1c", "is_disabled": 0, "rental_uris": {"ios": "https://dc.lft.to/lastmile_qr_scan", "android": "https://dc.lft.to/lastmile_qr_scan"}, "is_reserved": 0}, {"lon": -77.04173816666666, "bike_id": "c4fd3b7655541d38a2d2c3de70b9e7d1", "lat": 38.91792066666667, "fusion_lon": 0.0, "fusion_lat": 0.0, "type": "electric_scooter", "name": "c4fd3b7655541d38a2d2c3de70b9e7d1", "is_disabled": 0, "rental_uris": {"ios": "https://dc.lft.to/lastmile_qr_scan", "android": "https://dc.lft.to/lastmile_qr_scan"}, "is_reserved": 0}, {"lon": -77.02832333333333, "bike_id": "b9798ac9e5da6ddd3a9e139f4ec3469a", "lat": 38.93280716666666, "fusion_lon": 0.0, "fusion_lat": 0.0, "type": "electric_scooter", "name": "b9798ac9e5da6ddd3a9e139f4ec3469a", "is_disabled": 0, "rental_uris": {"ios": "https://dc.lft.to/lastmile_qr_scan", "android": "https://dc.lft.to/lastmile_qr_scan"}, "is_reserved": 0}, {"lon": -77.0710995, "bike_id": "d87d76deee6803c7074382e51a8f98f3", "lat": 38.91980983333333, "fusion_lon": 0.0, "fusion_lat": 0.0, "type": "electric_scooter", "name": "d87d76deee6803c7074382e51a8f98f3", "is_disabled": 0, "rental_uris": {"ios": "https://dc.lft.to/lastmile_qr_scan", "android": "https://dc.lft.to/lastmile_qr_scan"}, "is_reserved": 0}, {"lon": -76.9949775, "bike_id": "194778e3d68e2c4510b7eece59bad07c", "lat": 38.932347, "fusion_lon": 0.0, "fusion_lat": 0.0, "type": "electric_scooter", "name": "194778e3d68e2c4510b7eece59bad07c", "is_disabled": 0, "rental_uris": {"ios": "https://dc.lft.to/lastmile_qr_scan", "android": "https://dc.lft.to/lastmile_qr_scan"}, "is_reserved": 0}, {"lon": -76.976697, "bike_id": "088d1d10872972211447deacb94d2e68", "lat": 38.95249583333333, "fusion_lon": 0.0, "fusion_lat": 0.0, "type": "electric_bike", "name": "088d1d10872972211447deacb94d2e68", "is_disabled": 0, "rental_uris": {"ios": "https://dc.lft.to/lastmile_qr_scan", "android": "https://dc.lft.to/lastmile_qr_scan"}, "is_reserved": 0}, {"lon": -77.018134, "bike_id": "34368c3bf6bdee18ae915984c7425c17", "lat": 38.92125133333333, "fusion_lon": 0.0, "fusion_lat": 0.0, "type": "electric_scooter", "name": "34368c3bf6bdee18ae915984c7425c17", "is_disabled": 0, "rental_uris": {"ios": "https://dc.lft.to/lastmile_qr_scan", "android": "https://dc.lft.to/lastmile_qr_scan"}, "is_reserved": 0}, {"lon": -77.00985833333333, "bike_id": "24031dfe9c2e6d593f3cd721f2e1969a", "lat": 38.872877333333335, "fusion_lon": 0.0, "fusion_lat": 0.0, "type": "electric_scooter", "name": "24031dfe9c2e6d593f3cd721f2e1969a", "is_disabled": 0, "rental_uris": {"ios": "https://dc.lft.to/lastmile_qr_scan", "android": "https://dc.lft.to/lastmile_qr_scan"}, "is_reserved": 0}, {"lon": -77.04644616666667, "bike_id": "faee49d834436cfbd782d790f37dc44b", "lat": 38.91588466666666, "fusion_lon": 0.0, "fusion_lat": 0.0, "type": "electric_scooter", "name": "faee49d834436cfbd782d790f37dc44b", "is_disabled": 0, "rental_uris": {"ios": "https://dc.lft.to/lastmile_qr_scan", "android": "https://dc.lft.to/lastmile_qr_scan"}, "is_reserved": 0}, {"lon": -76.987886, "bike_id": "ba26b9fd0a04b69f5f9b9cc4cb51a2d9", "lat": 38.86737766666667, "fusion_lon": 0.0, "fusion_lat": 0.0, "type": "electric_scooter", "name": "ba26b9fd0a04b69f5f9b9cc4cb51a2d9", "is_disabled": 0, "rental_uris": {"ios": "https://dc.lft.to/lastmile_qr_scan", "android": "https://dc.lft.to/lastmile_qr_scan"}, "is_reserved": 0}, {"lon": -77.03069433333333, "bike_id": "fa1989c35bee01dcb2fb143ecf44f9b0", "lat": 38.92245, "fusion_lon": 0.0, "fusion_lat": 0.0, "type": "electric_scooter", "name": "fa1989c35bee01dcb2fb143ecf44f9b0", "is_disabled": 0, "rental_uris": {"ios": "https://dc.lft.to/lastmile_qr_scan", "android": "https://dc.lft.to/lastmile_qr_scan"}, "is_reserved": 0}, {"lon": -77.02928683333333, "bike_id": "2083692ddc74da677c9c7dd332d33386", "lat": 38.93460233333333, "fusion_lon": 0.0, "fusion_lat": 0.0, "type": "electric_scooter", "name": "2083692ddc74da677c9c7dd332d33386", "is_disabled": 0, "rental_uris": {"ios": "https://dc.lft.to/lastmile_qr_scan", "android": "https://dc.lft.to/lastmile_qr_scan"}, "is_reserved": 0}, {"lon": -77.02953, "bike_id": "c18056d4c24a867c1752c8240635ad60", "lat": 38.916811833333334, "fusion_lon": 0.0, "fusion_lat": 0.0, "type": "electric_scooter", "name": "c18056d4c24a867c1752c8240635ad60", "is_disabled": 0, "rental_uris": {"ios": "https://dc.lft.to/lastmile_qr_scan", "android": "https://dc.lft.to/lastmile_qr_scan"}, "is_reserved": 0}, {"lon": -77.03112033333333, "bike_id": "4442c378ab00170afbbbab49848489f8", "lat": 38.915659833333336, "fusion_lon": 0.0, "fusion_lat": 0.0, "type": "electric_scooter", "name": "4442c378ab00170afbbbab49848489f8", "is_disabled": 0, "rental_uris": {"ios": "https://dc.lft.to/lastmile_qr_scan", "android": "https://dc.lft.to/lastmile_qr_scan"}, "is_reserved": 0}, {"lon": -77.03940633333333, "bike_id": "601a7c865c85a6c5267e5bd909e2fc47", "lat": 38.89906116666667, "fusion_lon": 0.0, "fusion_lat": 0.0, "type": "electric_scooter", "name": "601a7c865c85a6c5267e5bd909e2fc47", "is_disabled": 0, "rental_uris": {"ios": "https://dc.lft.to/lastmile_qr_scan", "android": "https://dc.lft.to/lastmile_qr_scan"}, "is_reserved": 0}, {"lon": -77.02900083333333, "bike_id": "e83cb89916b66198216474b5b5446a57", "lat": 38.91707516666666, "fusion_lon": 0.0, "fusion_lat": 0.0, "type": "electric_scooter", "name": "e83cb89916b66198216474b5b5446a57", "is_disabled": 0, "rental_uris": {"ios": "https://dc.lft.to/lastmile_qr_scan", "android": "https://dc.lft.to/lastmile_qr_scan"}, "is_reserved": 0}, {"lon": -77.0271495, "bike_id": "279f15f7ef047ec567893475d892949f", "lat": 38.90657916666667, "fusion_lon": 0.0, "fusion_lat": 0.0, "type": "electric_scooter", "name": "279f15f7ef047ec567893475d892949f", "is_disabled": 0, "rental_uris": {"ios": "https://dc.lft.to/lastmile_qr_scan", "android": "https://dc.lft.to/lastmile_qr_scan"}, "is_reserved": 0}, {"lon": -77.03832416666667, "bike_id": "1c04caef84fbcc059143abe4a00921a7", "lat": 38.906739333333334, "fusion_lon": 0.0, "fusion_lat": 0.0, "type": "electric_scooter", "name": "1c04caef84fbcc059143abe4a00921a7", "is_disabled": 0, "rental_uris": {"ios": "https://dc.lft.to/lastmile_qr_scan", "android": "https://dc.lft.to/lastmile_qr_scan"}, "is_reserved": 0}, {"lon": -76.988629, "bike_id": "80ef27a6fbfa94bd463c611316a0b9d2", "lat": 38.891752, "fusion_lon": 0.0, "fusion_lat": 0.0, "type": "electric_scooter", "name": "80ef27a6fbfa94bd463c611316a0b9d2", "is_disabled": 0, "rental_uris": {"ios": "https://dc.lft.to/lastmile_qr_scan", "android": "https://dc.lft.to/lastmile_qr_scan"}, "is_reserved": 0}, {"lon": -77.02946916666667, "bike_id": "70d5428065a48a47a61b34cb7ac037a2", "lat": 38.905012, "fusion_lon": 0.0, "fusion_lat": 0.0, "type": "electric_scooter", "name": "70d5428065a48a47a61b34cb7ac037a2", "is_disabled": 0, "rental_uris": {"ios": "https://dc.lft.to/lastmile_qr_scan", "android": "https://dc.lft.to/lastmile_qr_scan"}, "is_reserved": 0}, {"lon": -77.01478166666666, "bike_id": "8f751b8d627bfe2ccaec276af55aa46b", "lat": 38.919208166666664, "fusion_lon": 0.0, "fusion_lat": 0.0, "type": "electric_scooter", "name": "8f751b8d627bfe2ccaec276af55aa46b", "is_disabled": 0, "rental_uris": {"ios": "https://dc.lft.to/lastmile_qr_scan", "android": "https://dc.lft.to/lastmile_qr_scan"}, "is_reserved": 0}, {"lon": -77.0057855, "bike_id": "e557c5c89e9001621b2b9122e751143f", "lat": 38.873082333333336, "fusion_lon": 0.0, "fusion_lat": 0.0, "type": "electric_scooter", "name": "e557c5c89e9001621b2b9122e751143f", "is_disabled": 0, "rental_uris": {"ios": "https://dc.lft.to/lastmile_qr_scan", "android": "https://dc.lft.to/lastmile_qr_scan"}, "is_reserved": 0}, {"lon": -77.09495266666667, "bike_id": "1ddc58167f9d99e88694dd91db36a948", "lat": 38.80763833333334, "fusion_lon": 0.0, "fusion_lat": 0.0, "type": "electric_bike", "name": "1ddc58167f9d99e88694dd91db36a948", "is_disabled": 0, "rental_uris": {"ios": "https://dc.lft.to/lastmile_qr_scan", "android": "https://dc.lft.to/lastmile_qr_scan"}, "is_reserved": 0}, {"lon": -77.01626266666666, "bike_id": "af5d2d7095632aa6db0857deb6702335", "lat": 38.906873833333336, "fusion_lon": 0.0, "fusion_lat": 0.0, "type": "electric_scooter", "name": "af5d2d7095632aa6db0857deb6702335", "is_disabled": 0, "rental_uris": {"ios": "https://dc.lft.to/lastmile_qr_scan", "android": "https://dc.lft.to/lastmile_qr_scan"}, "is_reserved": 0}, {"lon": -77.03176916666666, "bike_id": "a3bd8e0c3cd405ec27b9bf60ddb85f19", "lat": 38.89948733333333, "fusion_lon": 0.0, "fusion_lat": 0.0, "type": "electric_scooter", "name": "a3bd8e0c3cd405ec27b9bf60ddb85f19", "is_disabled": 0, "rental_uris": {"ios": "https://dc.lft.to/lastmile_qr_scan", "android": "https://dc.lft.to/lastmile_qr_scan"}, "is_reserved": 0}, {"lon": -77.04880666666666, "bike_id": "24f128ef0a3065a2d21907222891a1af", "lat": 38.8923445, "fusion_lon": 0.0, "fusion_lat": 0.0, "type": "electric_scooter", "name": "24f128ef0a3065a2d21907222891a1af", "is_disabled": 0, "rental_uris": {"ios": "https://dc.lft.to/lastmile_qr_scan", "android": "https://dc.lft.to/lastmile_qr_scan"}, "is_reserved": 0}, {"lon": -76.98835866666667, "bike_id": "13428e9d38738fbbe86fc840b8a1dfe7", "lat": 38.901262, "fusion_lon": 0.0, "fusion_lat": 0.0, "type": "electric_scooter", "name": "13428e9d38738fbbe86fc840b8a1dfe7", "is_disabled": 0, "rental_uris": {"ios": "https://dc.lft.to/lastmile_qr_scan", "android": "https://dc.lft.to/lastmile_qr_scan"}, "is_reserved": 0}, {"lon": -77.040106, "bike_id": "b3785200fb58d3849c83d74d265c68e0", "lat": 38.92171883333334, "fusion_lon": 0.0, "fusion_lat": 0.0, "type": "electric_scooter", "name": "b3785200fb58d3849c83d74d265c68e0", "is_disabled": 0, "rental_uris": {"ios": "https://dc.lft.to/lastmile_qr_scan", "android": "https://dc.lft.to/lastmile_qr_scan"}, "is_reserved": 0}, {"lon": -77.03638933333333, "bike_id": "77cdd0d11eed3d7512490b3c87c4b2ff", "lat": 38.92465883333333, "fusion_lon": 0.0, "fusion_lat": 0.0, "type": "electric_scooter", "name": "77cdd0d11eed3d7512490b3c87c4b2ff", "is_disabled": 0, "rental_uris": {"ios": "https://dc.lft.to/lastmile_qr_scan", "android": "https://dc.lft.to/lastmile_qr_scan"}, "is_reserved": 0}, {"lon": -77.04471566666666, "bike_id": "f0ff9719de23c3ae3e325a16acf55c13", "lat": 38.89225066666667, "fusion_lon": 0.0, "fusion_lat": 0.0, "type": "electric_scooter", "name": "f0ff9719de23c3ae3e325a16acf55c13", "is_disabled": 0, "rental_uris": {"ios": "https://dc.lft.to/lastmile_qr_scan", "android": "https://dc.lft.to/lastmile_qr_scan"}, "is_reserved": 0}, {"lon": -77.02399633333333, "bike_id": "95eff1347c296364c0c2ec79fa9c4c31", "lat": 38.90701933333333, "fusion_lon": 0.0, "fusion_lat": 0.0, "type": "electric_scooter", "name": "95eff1347c296364c0c2ec79fa9c4c31", "is_disabled": 0, "rental_uris": {"ios": "https://dc.lft.to/lastmile_qr_scan", "android": "https://dc.lft.to/lastmile_qr_scan"}, "is_reserved": 0}, {"lon": -77.0207425, "bike_id": "a87e3ef9ab0211c635e06c438c4467d2", "lat": 38.927293166666665, "fusion_lon": 0.0, "fusion_lat": 0.0, "type": "electric_scooter", "name": "a87e3ef9ab0211c635e06c438c4467d2", "is_disabled": 0, "rental_uris": {"ios": "https://dc.lft.to/lastmile_qr_scan", "android": "https://dc.lft.to/lastmile_qr_scan"}, "is_reserved": 0}, {"lon": -77.04260366666666, "bike_id": "5217066e114ec07710d3b859806c9e48", "lat": 38.904473, "fusion_lon": 0.0, "fusion_lat": 0.0, "type": "electric_scooter", "name": "5217066e114ec07710d3b859806c9e48", "is_disabled": 0, "rental_uris": {"ios": "https://dc.lft.to/lastmile_qr_scan", "android": "https://dc.lft.to/lastmile_qr_scan"}, "is_reserved": 0}, {"lon": -77.03992583333333, "bike_id": "f2510df9a87885ddb6ae05dede30e155", "lat": 38.9327575, "fusion_lon": 0.0, "fusion_lat": 0.0, "type": "electric_scooter", "name": "f2510df9a87885ddb6ae05dede30e155", "is_disabled": 0, "rental_uris": {"ios": "https://dc.lft.to/lastmile_qr_scan", "android": "https://dc.lft.to/lastmile_qr_scan"}, "is_reserved": 0}, {"lon": -77.030076, "bike_id": "7ccfa4f2f5d666dd2f7c68daf34cf7d8", "lat": 38.92572716666667, "fusion_lon": 0.0, "fusion_lat": 0.0, "type": "electric_scooter", "name": "7ccfa4f2f5d666dd2f7c68daf34cf7d8", "is_disabled": 0, "rental_uris": {"ios": "https://dc.lft.to/lastmile_qr_scan", "android": "https://dc.lft.to/lastmile_qr_scan"}, "is_reserved": 0}, {"lon": -77.16627133333333, "bike_id": "98ed92042ef1d8bf53365cb58a178c93", "lat": 38.88839433333333, "fusion_lon": 0.0, "fusion_lat": 0.0, "type": "electric_bike", "name": "98ed92042ef1d8bf53365cb58a178c93", "is_disabled": 0, "rental_uris": {"ios": "https://dc.lft.to/lastmile_qr_scan", "android": "https://dc.lft.to/lastmile_qr_scan"}, "is_reserved": 0}, {"lon": -77.03265683333333, "bike_id": "48361565673f51de971c4fca27b550ec", "lat": 38.9389175, "fusion_lon": 0.0, "fusion_lat": 0.0, "type": "electric_scooter", "name": "48361565673f51de971c4fca27b550ec", "is_disabled": 0, "rental_uris": {"ios": "https://dc.lft.to/lastmile_qr_scan", "android": "https://dc.lft.to/lastmile_qr_scan"}, "is_reserved": 0}, {"lon": -77.04658483333333, "bike_id": "42a99be2ae95fabb458dc854c2f1c590", "lat": 38.90787066666667, "fusion_lon": 0.0, "fusion_lat": 0.0, "type": "electric_scooter", "name": "42a99be2ae95fabb458dc854c2f1c590", "is_disabled": 0, "rental_uris": {"ios": "https://dc.lft.to/lastmile_qr_scan", "android": "https://dc.lft.to/lastmile_qr_scan"}, "is_reserved": 0}, {"lon": -76.99526433333334, "bike_id": "e3d230b9db565fe55da2cca062ceb85b", "lat": 38.8917645, "fusion_lon": 0.0, "fusion_lat": 0.0, "type": "electric_scooter", "name": "e3d230b9db565fe55da2cca062ceb85b", "is_disabled": 0, "rental_uris": {"ios": "https://dc.lft.to/lastmile_qr_scan", "android": "https://dc.lft.to/lastmile_qr_scan"}, "is_reserved": 0}, {"lon": -77.02726566666666, "bike_id": "209343e486a9b376ffa080da37cacfee", "lat": 38.894678666666664, "fusion_lon": 0.0, "fusion_lat": 0.0, "type": "electric_scooter", "name": "209343e486a9b376ffa080da37cacfee", "is_disabled": 0, "rental_uris": {"ios": "https://dc.lft.to/lastmile_qr_scan", "android": "https://dc.lft.to/lastmile_qr_scan"}, "is_reserved": 0}, {"lon": -77.02449733333333, "bike_id": "51ce92c2f6247371f40f9bb43fd20c69", "lat": 38.93859633333334, "fusion_lon": 0.0, "fusion_lat": 0.0, "type": "electric_scooter", "name": "51ce92c2f6247371f40f9bb43fd20c69", "is_disabled": 0, "rental_uris": {"ios": "https://dc.lft.to/lastmile_qr_scan", "android": "https://dc.lft.to/lastmile_qr_scan"}, "is_reserved": 0}, {"lon": -76.98661133333333, "bike_id": "7d6e4389f0b7e1bd00a2589ade563b3a", "lat": 38.867386, "fusion_lon": 0.0, "fusion_lat": 0.0, "type": "electric_scooter", "name": "7d6e4389f0b7e1bd00a2589ade563b3a", "is_disabled": 0, "rental_uris": {"ios": "https://dc.lft.to/lastmile_qr_scan", "android": "https://dc.lft.to/lastmile_qr_scan"}, "is_reserved": 0}, {"lon": -77.0274365, "bike_id": "d77ce13ade1d4682f55c9fdd68a4dec6", "lat": 38.88149383333333, "fusion_lon": 0.0, "fusion_lat": 0.0, "type": "electric_scooter", "name": "d77ce13ade1d4682f55c9fdd68a4dec6", "is_disabled": 0, "rental_uris": {"ios": "https://dc.lft.to/lastmile_qr_scan", "android": "https://dc.lft.to/lastmile_qr_scan"}, "is_reserved": 0}, {"lon": -77.0271375, "bike_id": "420842a9b86150a0ea73d015508c475a", "lat": 38.950876, "fusion_lon": 0.0, "fusion_lat": 0.0, "type": "electric_scooter", "name": "420842a9b86150a0ea73d015508c475a", "is_disabled": 0, "rental_uris": {"ios": "https://dc.lft.to/lastmile_qr_scan", "android": "https://dc.lft.to/lastmile_qr_scan"}, "is_reserved": 0}, {"lon": -77.04363483333333, "bike_id": "3467423995c413f2ea2a0a94f92ab7d5", "lat": 38.92105183333334, "fusion_lon": 0.0, "fusion_lat": 0.0, "type": "electric_scooter", "name": "3467423995c413f2ea2a0a94f92ab7d5", "is_disabled": 0, "rental_uris": {"ios": "https://dc.lft.to/lastmile_qr_scan", "android": "https://dc.lft.to/lastmile_qr_scan"}, "is_reserved": 0}, {"lon": -77.03106316666667, "bike_id": "37a7b5b58c692bb0038cdb1d91fb16d3", "lat": 38.91811166666667, "fusion_lon": 0.0, "fusion_lat": 0.0, "type": "electric_scooter", "name": "37a7b5b58c692bb0038cdb1d91fb16d3", "is_disabled": 0, "rental_uris": {"ios": "https://dc.lft.to/lastmile_qr_scan", "android": "https://dc.lft.to/lastmile_qr_scan"}, "is_reserved": 0}, {"lon": -76.993675, "bike_id": "3f427a88c13af0eb27ff065a817c5dd4", "lat": 38.900188166666666, "fusion_lon": 0.0, "fusion_lat": 0.0, "type": "electric_bike", "name": "3f427a88c13af0eb27ff065a817c5dd4", "is_disabled": 0, "rental_uris": {"ios": "https://dc.lft.to/lastmile_qr_scan", "android": "https://dc.lft.to/lastmile_qr_scan"}, "is_reserved": 0}, {"lon": -77.11149416666666, "bike_id": "499c306c3c38205f28a91f4f47e150f0", "lat": 38.8550965, "fusion_lon": 0.0, "fusion_lat": 0.0, "type": "electric_bike", "name": "499c306c3c38205f28a91f4f47e150f0", "is_disabled": 0, "rental_uris": {"ios": "https://dc.lft.to/lastmile_qr_scan", "android": "https://dc.lft.to/lastmile_qr_scan"}, "is_reserved": 0}, {"lon": -77.038453, "bike_id": "0e9983ca2d8db50a5694626aebfe5759", "lat": 38.912128, "fusion_lon": 0.0, "fusion_lat": 0.0, "type": "electric_scooter", "name": "0e9983ca2d8db50a5694626aebfe5759", "is_disabled": 0, "rental_uris": {"ios": "https://dc.lft.to/lastmile_qr_scan", "android": "https://dc.lft.to/lastmile_qr_scan"}, "is_reserved": 0}, {"lon": -77.026049, "bike_id": "5ae252949cfe23ee9fd58236e80e9f18", "lat": 38.918405666666665, "fusion_lon": 0.0, "fusion_lat": 0.0, "type": "electric_scooter", "name": "5ae252949cfe23ee9fd58236e80e9f18", "is_disabled": 0, "rental_uris": {"ios": "https://dc.lft.to/lastmile_qr_scan", "android": "https://dc.lft.to/lastmile_qr_scan"}, "is_reserved": 0}, {"lon": -76.94880283333333, "bike_id": "58f5eb120e63d3e01bf0e207668241b1", "lat": 38.89503366666667, "fusion_lon": 0.0, "fusion_lat": 0.0, "type": "electric_scooter", "name": "58f5eb120e63d3e01bf0e207668241b1", "is_disabled": 0, "rental_uris": {"ios": "https://dc.lft.to/lastmile_qr_scan", "android": "https://dc.lft.to/lastmile_qr_scan"}, "is_reserved": 0}, {"lon": -77.04879166666667, "bike_id": "74b06356cc1f0ffb2b59545f5e21f6a5", "lat": 38.89233216666667, "fusion_lon": 0.0, "fusion_lat": 0.0, "type": "electric_scooter", "name": "74b06356cc1f0ffb2b59545f5e21f6a5", "is_disabled": 0, "rental_uris": {"ios": "https://dc.lft.to/lastmile_qr_scan", "android": "https://dc.lft.to/lastmile_qr_scan"}, "is_reserved": 0}, {"lon": -77.034647, "bike_id": "e5a5540879785367944f29aec92ffa85", "lat": 38.9176915, "fusion_lon": 0.0, "fusion_lat": 0.0, "type": "electric_scooter", "name": "e5a5540879785367944f29aec92ffa85", "is_disabled": 0, "rental_uris": {"ios": "https://dc.lft.to/lastmile_qr_scan", "android": "https://dc.lft.to/lastmile_qr_scan"}, "is_reserved": 0}, {"lon": -77.03135733333333, "bike_id": "2958b540117cad0e0e1e99135a5faf74", "lat": 38.91556583333333, "fusion_lon": 0.0, "fusion_lat": 0.0, "type": "electric_scooter", "name": "2958b540117cad0e0e1e99135a5faf74", "is_disabled": 0, "rental_uris": {"ios": "https://dc.lft.to/lastmile_qr_scan", "android": "https://dc.lft.to/lastmile_qr_scan"}, "is_reserved": 0}, {"lon": -77.04360516666667, "bike_id": "58f951ecede1583cea777ba3af1cdb60", "lat": 39.015366666666665, "fusion_lon": 0.0, "fusion_lat": 0.0, "type": "electric_bike", "name": "58f951ecede1583cea777ba3af1cdb60", "is_disabled": 0, "rental_uris": {"ios": "https://dc.lft.to/lastmile_qr_scan", "android": "https://dc.lft.to/lastmile_qr_scan"}, "is_reserved": 0}, {"lon": -77.03195916666667, "bike_id": "419c06810c1e60e5d8a0cea318540de5", "lat": 38.90995916666667, "fusion_lon": 0.0, "fusion_lat": 0.0, "type": "electric_scooter", "name": "419c06810c1e60e5d8a0cea318540de5", "is_disabled": 0, "rental_uris": {"ios": "https://dc.lft.to/lastmile_qr_scan", "android": "https://dc.lft.to/lastmile_qr_scan"}, "is_reserved": 0}, {"lon": -77.0387225, "bike_id": "1300e165e0f2a6d92052998f09051716", "lat": 38.912704, "fusion_lon": 0.0, "fusion_lat": 0.0, "type": "electric_scooter", "name": "1300e165e0f2a6d92052998f09051716", "is_disabled": 0, "rental_uris": {"ios": "https://dc.lft.to/lastmile_qr_scan", "android": "https://dc.lft.to/lastmile_qr_scan"}, "is_reserved": 0}, {"lon": -77.0423095, "bike_id": "0f42d956e9228318b74247a75005e0c5", "lat": 38.921860833333334, "fusion_lon": 0.0, "fusion_lat": 0.0, "type": "electric_scooter", "name": "0f42d956e9228318b74247a75005e0c5", "is_disabled": 0, "rental_uris": {"ios": "https://dc.lft.to/lastmile_qr_scan", "android": "https://dc.lft.to/lastmile_qr_scan"}, "is_reserved": 0}, {"lon": -77.0013035, "bike_id": "de9d440d503762f4078ea0446e5172a9", "lat": 38.91247366666666, "fusion_lon": 0.0, "fusion_lat": 0.0, "type": "electric_scooter", "name": "de9d440d503762f4078ea0446e5172a9", "is_disabled": 0, "rental_uris": {"ios": "https://dc.lft.to/lastmile_qr_scan", "android": "https://dc.lft.to/lastmile_qr_scan"}, "is_reserved": 0}, {"lon": -76.97845216666667, "bike_id": "15e6cc9de0e32583a54d3a1878568e6b", "lat": 38.86570116666667, "fusion_lon": 0.0, "fusion_lat": 0.0, "type": "electric_scooter", "name": "15e6cc9de0e32583a54d3a1878568e6b", "is_disabled": 0, "rental_uris": {"ios": "https://dc.lft.to/lastmile_qr_scan", "android": "https://dc.lft.to/lastmile_qr_scan"}, "is_reserved": 0}, {"lon": -77.00523233333334, "bike_id": "05669bc0c55c4546e8c37c730bf5baf4", "lat": 38.875459, "fusion_lon": 0.0, "fusion_lat": 0.0, "type": "electric_scooter", "name": "05669bc0c55c4546e8c37c730bf5baf4", "is_disabled": 0, "rental_uris": {"ios": "https://dc.lft.to/lastmile_qr_scan", "android": "https://dc.lft.to/lastmile_qr_scan"}, "is_reserved": 0}, {"lon": -77.04336816666667, "bike_id": "1a253eaa0fc5ea77f5c85061b3d1f998", "lat": 38.91106833333333, "fusion_lon": 0.0, "fusion_lat": 0.0, "type": "electric_scooter", "name": "1a253eaa0fc5ea77f5c85061b3d1f998", "is_disabled": 0, "rental_uris": {"ios": "https://dc.lft.to/lastmile_qr_scan", "android": "https://dc.lft.to/lastmile_qr_scan"}, "is_reserved": 0}, {"lon": -77.02698683333334, "bike_id": "2ed7c5f86d0bfc0a6adb3fac2387e9ce", "lat": 38.9062505, "fusion_lon": 0.0, "fusion_lat": 0.0, "type": "electric_scooter", "name": "2ed7c5f86d0bfc0a6adb3fac2387e9ce", "is_disabled": 0, "rental_uris": {"ios": "https://dc.lft.to/lastmile_qr_scan", "android": "https://dc.lft.to/lastmile_qr_scan"}, "is_reserved": 0}, {"lon": -76.99002816666666, "bike_id": "db712dbb8b73bc9df80c089050739b80", "lat": 38.8650585, "fusion_lon": 0.0, "fusion_lat": 0.0, "type": "electric_scooter", "name": "db712dbb8b73bc9df80c089050739b80", "is_disabled": 0, "rental_uris": {"ios": "https://dc.lft.to/lastmile_qr_scan", "android": "https://dc.lft.to/lastmile_qr_scan"}, "is_reserved": 0}, {"lon": -77.02817133333333, "bike_id": "597b0798f5123b2be30021367def4d40", "lat": 38.893880833333334, "fusion_lon": 0.0, "fusion_lat": 0.0, "type": "electric_scooter", "name": "597b0798f5123b2be30021367def4d40", "is_disabled": 0, "rental_uris": {"ios": "https://dc.lft.to/lastmile_qr_scan", "android": "https://dc.lft.to/lastmile_qr_scan"}, "is_reserved": 0}, {"lon": -77.03582933333334, "bike_id": "2694bf5c64b59e27d889076e23524f4e", "lat": 38.91781816666666, "fusion_lon": 0.0, "fusion_lat": 0.0, "type": "electric_scooter", "name": "2694bf5c64b59e27d889076e23524f4e", "is_disabled": 0, "rental_uris": {"ios": "https://dc.lft.to/lastmile_qr_scan", "android": "https://dc.lft.to/lastmile_qr_scan"}, "is_reserved": 0}, {"lon": -77.0277255, "bike_id": "f01146db87c0b36391a13ed0e4862463", "lat": 38.930170333333336, "fusion_lon": 0.0, "fusion_lat": 0.0, "type": "electric_scooter", "name": "f01146db87c0b36391a13ed0e4862463", "is_disabled": 0, "rental_uris": {"ios": "https://dc.lft.to/lastmile_qr_scan", "android": "https://dc.lft.to/lastmile_qr_scan"}, "is_reserved": 0}, {"lon": -77.02548383333334, "bike_id": "57669640782826b11b6d29d8dbd4b8ad", "lat": 38.930969166666664, "fusion_lon": 0.0, "fusion_lat": 0.0, "type": "electric_scooter", "name": "57669640782826b11b6d29d8dbd4b8ad", "is_disabled": 0, "rental_uris": {"ios": "https://dc.lft.to/lastmile_qr_scan", "android": "https://dc.lft.to/lastmile_qr_scan"}, "is_reserved": 0}, {"lon": -77.02379466666666, "bike_id": "2e57cd5afdcb25d62cbd6fa729b728de", "lat": 38.902285, "fusion_lon": 0.0, "fusion_lat": 0.0, "type": "electric_scooter", "name": "2e57cd5afdcb25d62cbd6fa729b728de", "is_disabled": 0, "rental_uris": {"ios": "https://dc.lft.to/lastmile_qr_scan", "android": "https://dc.lft.to/lastmile_qr_scan"}, "is_reserved": 0}, {"lon": -77.03971483333333, "bike_id": "0f31fce8753b05eed977e20a6f16170d", "lat": 38.898702166666666, "fusion_lon": 0.0, "fusion_lat": 0.0, "type": "electric_scooter", "name": "0f31fce8753b05eed977e20a6f16170d", "is_disabled": 0, "rental_uris": {"ios": "https://dc.lft.to/lastmile_qr_scan", "android": "https://dc.lft.to/lastmile_qr_scan"}, "is_reserved": 0}, {"lon": -76.989067, "bike_id": "9cf9ddaa0961eed0b0eeffb68ce7ba82", "lat": 38.8666655, "fusion_lon": 0.0, "fusion_lat": 0.0, "type": "electric_scooter", "name": "9cf9ddaa0961eed0b0eeffb68ce7ba82", "is_disabled": 0, "rental_uris": {"ios": "https://dc.lft.to/lastmile_qr_scan", "android": "https://dc.lft.to/lastmile_qr_scan"}, "is_reserved": 0}, {"lon": -77.10837133333334, "bike_id": "9dfa8cea6968a748940332f6b6f8fe60", "lat": 38.812047, "fusion_lon": 0.0, "fusion_lat": 0.0, "type": "electric_bike", "name": "9dfa8cea6968a748940332f6b6f8fe60", "is_disabled": 0, "rental_uris": {"ios": "https://dc.lft.to/lastmile_qr_scan", "android": "https://dc.lft.to/lastmile_qr_scan"}, "is_reserved": 0}, {"lon": -77.03963766666666, "bike_id": "29ae195aa70a244d186e175bdec89487", "lat": 38.8989305, "fusion_lon": 0.0, "fusion_lat": 0.0, "type": "electric_scooter", "name": "29ae195aa70a244d186e175bdec89487", "is_disabled": 0, "rental_uris": {"ios": "https://dc.lft.to/lastmile_qr_scan", "android": "https://dc.lft.to/lastmile_qr_scan"}, "is_reserved": 0}, {"lon": -76.98087333333334, "bike_id": "4e3a6814608371ebba0069b2dee83886", "lat": 38.907089166666665, "fusion_lon": 0.0, "fusion_lat": 0.0, "type": "electric_scooter", "name": "4e3a6814608371ebba0069b2dee83886", "is_disabled": 0, "rental_uris": {"ios": "https://dc.lft.to/lastmile_qr_scan", "android": "https://dc.lft.to/lastmile_qr_scan"}, "is_reserved": 0}, {"lon": -77.022396, "bike_id": "485f49b8320f9d7372b45193f7c35f94", "lat": 38.908684, "fusion_lon": 0.0, "fusion_lat": 0.0, "type": "electric_scooter", "name": "485f49b8320f9d7372b45193f7c35f94", "is_disabled": 0, "rental_uris": {"ios": "https://dc.lft.to/lastmile_qr_scan", "android": "https://dc.lft.to/lastmile_qr_scan"}, "is_reserved": 0}, {"lon": -77.03660433333333, "bike_id": "fb8fba30688b645d9031ede1f2ff2e09", "lat": 38.922886166666665, "fusion_lon": 0.0, "fusion_lat": 0.0, "type": "electric_scooter", "name": "fb8fba30688b645d9031ede1f2ff2e09", "is_disabled": 0, "rental_uris": {"ios": "https://dc.lft.to/lastmile_qr_scan", "android": "https://dc.lft.to/lastmile_qr_scan"}, "is_reserved": 0}, {"lon": -77.02372833333334, "bike_id": "86ca61bd3eec0d045b671ae4c960fd35", "lat": 38.90207566666667, "fusion_lon": 0.0, "fusion_lat": 0.0, "type": "electric_scooter", "name": "86ca61bd3eec0d045b671ae4c960fd35", "is_disabled": 0, "rental_uris": {"ios": "https://dc.lft.to/lastmile_qr_scan", "android": "https://dc.lft.to/lastmile_qr_scan"}, "is_reserved": 0}, {"lon": -76.977036, "bike_id": "948448745636fdbdc7e9412182cdd304", "lat": 38.949165666666666, "fusion_lon": 0.0, "fusion_lat": 0.0, "type": "electric_bike", "name": "948448745636fdbdc7e9412182cdd304", "is_disabled": 0, "rental_uris": {"ios": "https://dc.lft.to/lastmile_qr_scan", "android": "https://dc.lft.to/lastmile_qr_scan"}, "is_reserved": 0}, {"lon": -77.0239125, "bike_id": "aa22a1d2c3cf071dc8850373f964e346", "lat": 38.92804533333333, "fusion_lon": 0.0, "fusion_lat": 0.0, "type": "electric_scooter", "name": "aa22a1d2c3cf071dc8850373f964e346", "is_disabled": 0, "rental_uris": {"ios": "https://dc.lft.to/lastmile_qr_scan", "android": "https://dc.lft.to/lastmile_qr_scan"}, "is_reserved": 0}, {"lon": -77.02627033333333, "bike_id": "a9e821825ef7789fdbb61d9a2fa65fa4", "lat": 38.900830166666665, "fusion_lon": 0.0, "fusion_lat": 0.0, "type": "electric_scooter", "name": "a9e821825ef7789fdbb61d9a2fa65fa4", "is_disabled": 0, "rental_uris": {"ios": "https://dc.lft.to/lastmile_qr_scan", "android": "https://dc.lft.to/lastmile_qr_scan"}, "is_reserved": 0}, {"lon": -77.01205133333333, "bike_id": "b02fd783b8712408d9ca8e553b137932", "lat": 38.885511, "fusion_lon": 0.0, "fusion_lat": 0.0, "type": "electric_scooter", "name": "b02fd783b8712408d9ca8e553b137932", "is_disabled": 0, "rental_uris": {"ios": "https://dc.lft.to/lastmile_qr_scan", "android": "https://dc.lft.to/lastmile_qr_scan"}, "is_reserved": 0}, {"lon": -77.020206, "bike_id": "4b07a5885d76313db67d6ea726fa13b9", "lat": 38.9244515, "fusion_lon": 0.0, "fusion_lat": 0.0, "type": "electric_scooter", "name": "4b07a5885d76313db67d6ea726fa13b9", "is_disabled": 0, "rental_uris": {"ios": "https://dc.lft.to/lastmile_qr_scan", "android": "https://dc.lft.to/lastmile_qr_scan"}, "is_reserved": 0}, {"lon": -77.03662716666666, "bike_id": "e877cfe4196e51b0df1bba7dd8467b4f", "lat": 38.91713466666667, "fusion_lon": 0.0, "fusion_lat": 0.0, "type": "electric_scooter", "name": "e877cfe4196e51b0df1bba7dd8467b4f", "is_disabled": 0, "rental_uris": {"ios": "https://dc.lft.to/lastmile_qr_scan", "android": "https://dc.lft.to/lastmile_qr_scan"}, "is_reserved": 0}, {"lon": -77.01761683333334, "bike_id": "3519f2e60ad13826639bb42780d91a95", "lat": 38.87721833333333, "fusion_lon": 0.0, "fusion_lat": 0.0, "type": "electric_scooter", "name": "3519f2e60ad13826639bb42780d91a95", "is_disabled": 0, "rental_uris": {"ios": "https://dc.lft.to/lastmile_qr_scan", "android": "https://dc.lft.to/lastmile_qr_scan"}, "is_reserved": 0}, {"lon": -77.040895, "bike_id": "7e145452881f1de7bc25d0ebeb352ac3", "lat": 38.9170845, "fusion_lon": 0.0, "fusion_lat": 0.0, "type": "electric_scooter", "name": "7e145452881f1de7bc25d0ebeb352ac3", "is_disabled": 0, "rental_uris": {"ios": "https://dc.lft.to/lastmile_qr_scan", "android": "https://dc.lft.to/lastmile_qr_scan"}, "is_reserved": 0}, {"lon": -77.02652016666667, "bike_id": "b2182abde46f360988647920c52f9cf2", "lat": 38.92610283333333, "fusion_lon": 0.0, "fusion_lat": 0.0, "type": "electric_scooter", "name": "b2182abde46f360988647920c52f9cf2", "is_disabled": 0, "rental_uris": {"ios": "https://dc.lft.to/lastmile_qr_scan", "android": "https://dc.lft.to/lastmile_qr_scan"}, "is_reserved": 0}, {"lon": -77.02169833333333, "bike_id": "0bb90ec77604923aa7d0d60fb42fdc20", "lat": 38.942963, "fusion_lon": 0.0, "fusion_lat": 0.0, "type": "electric_scooter", "name": "0bb90ec77604923aa7d0d60fb42fdc20", "is_disabled": 0, "rental_uris": {"ios": "https://dc.lft.to/lastmile_qr_scan", "android": "https://dc.lft.to/lastmile_qr_scan"}, "is_reserved": 0}, {"lon": -76.94730183333333, "bike_id": "35f4266e035cf9aebea241d9eec3c33b", "lat": 38.897388166666666, "fusion_lon": 0.0, "fusion_lat": 0.0, "type": "electric_scooter", "name": "35f4266e035cf9aebea241d9eec3c33b", "is_disabled": 0, "rental_uris": {"ios": "https://dc.lft.to/lastmile_qr_scan", "android": "https://dc.lft.to/lastmile_qr_scan"}, "is_reserved": 0}, {"lon": -77.34409016666666, "bike_id": "764ba47b51d79111520dbe4888e89167", "lat": 38.9459595, "fusion_lon": 0.0, "fusion_lat": 0.0, "type": "electric_bike", "name": "764ba47b51d79111520dbe4888e89167", "is_disabled": 0, "rental_uris": {"ios": "https://dc.lft.to/lastmile_qr_scan", "android": "https://dc.lft.to/lastmile_qr_scan"}, "is_reserved": 0}, {"lon": -77.0327865, "bike_id": "6d570b6b36e80f0a85b3d24a50bd5bd5", "lat": 38.940952, "fusion_lon": 0.0, "fusion_lat": 0.0, "type": "electric_scooter", "name": "6d570b6b36e80f0a85b3d24a50bd5bd5", "is_disabled": 0, "rental_uris": {"ios": "https://dc.lft.to/lastmile_qr_scan", "android": "https://dc.lft.to/lastmile_qr_scan"}, "is_reserved": 0}, {"lon": -77.03783133333333, "bike_id": "3f5bb32b91eae9de3a77104bfd86658e", "lat": 38.996783666666666, "fusion_lon": 0.0, "fusion_lat": 0.0, "type": "electric_bike", "name": "3f5bb32b91eae9de3a77104bfd86658e", "is_disabled": 0, "rental_uris": {"ios": "https://dc.lft.to/lastmile_qr_scan", "android": "https://dc.lft.to/lastmile_qr_scan"}, "is_reserved": 0}, {"lon": -76.99783333333333, "bike_id": "d1c01c727d0a945991c423f3c8ad13af", "lat": 38.844294166666664, "fusion_lon": 0.0, "fusion_lat": 0.0, "type": "electric_scooter", "name": "d1c01c727d0a945991c423f3c8ad13af", "is_disabled": 0, "rental_uris": {"ios": "https://dc.lft.to/lastmile_qr_scan", "android": "https://dc.lft.to/lastmile_qr_scan"}, "is_reserved": 0}, {"lon": -77.0406285, "bike_id": "64e7ce99fb099c5f5032e684b339350f", "lat": 38.91770983333333, "fusion_lon": 0.0, "fusion_lat": 0.0, "type": "electric_scooter", "name": "64e7ce99fb099c5f5032e684b339350f", "is_disabled": 0, "rental_uris": {"ios": "https://dc.lft.to/lastmile_qr_scan", "android": "https://dc.lft.to/lastmile_qr_scan"}, "is_reserved": 0}, {"lon": -77.00100716666667, "bike_id": "b3405dcd6b2b1d5a31a003709d3cb119", "lat": 38.907617333333334, "fusion_lon": 0.0, "fusion_lat": 0.0, "type": "electric_scooter", "name": "b3405dcd6b2b1d5a31a003709d3cb119", "is_disabled": 0, "rental_uris": {"ios": "https://dc.lft.to/lastmile_qr_scan", "android": "https://dc.lft.to/lastmile_qr_scan"}, "is_reserved": 0}, {"lon": -77.0364195, "bike_id": "ee53d286445539a1fede1a3fb722a6ba", "lat": 38.923094, "fusion_lon": 0.0, "fusion_lat": 0.0, "type": "electric_scooter", "name": "ee53d286445539a1fede1a3fb722a6ba", "is_disabled": 0, "rental_uris": {"ios": "https://dc.lft.to/lastmile_qr_scan", "android": "https://dc.lft.to/lastmile_qr_scan"}, "is_reserved": 0}, {"lon": -77.027019, "bike_id": "c92e3e8779cb466ffe748e5c21551f99", "lat": 38.906284666666664, "fusion_lon": 0.0, "fusion_lat": 0.0, "type": "electric_scooter", "name": "c92e3e8779cb466ffe748e5c21551f99", "is_disabled": 0, "rental_uris": {"ios": "https://dc.lft.to/lastmile_qr_scan", "android": "https://dc.lft.to/lastmile_qr_scan"}, "is_reserved": 0}, {"lon": -77.038588, "bike_id": "e5f81ad78bf3d0a5de1c779718f0a448", "lat": 38.906592833333335, "fusion_lon": 0.0, "fusion_lat": 0.0, "type": "electric_scooter", "name": "e5f81ad78bf3d0a5de1c779718f0a448", "is_disabled": 0, "rental_uris": {"ios": "https://dc.lft.to/lastmile_qr_scan", "android": "https://dc.lft.to/lastmile_qr_scan"}, "is_reserved": 0}, {"lon": -77.06754966666666, "bike_id": "0d14a39a28817d2a1294e09d0d82abd0", "lat": 38.903384333333335, "fusion_lon": 0.0, "fusion_lat": 0.0, "type": "electric_scooter", "name": "0d14a39a28817d2a1294e09d0d82abd0", "is_disabled": 0, "rental_uris": {"ios": "https://dc.lft.to/lastmile_qr_scan", "android": "https://dc.lft.to/lastmile_qr_scan"}, "is_reserved": 0}, {"lon": -76.985795, "bike_id": "c58d85d0ef4b9547ce89b834d37bef38", "lat": 38.9003765, "fusion_lon": 0.0, "fusion_lat": 0.0, "type": "electric_scooter", "name": "c58d85d0ef4b9547ce89b834d37bef38", "is_disabled": 0, "rental_uris": {"ios": "https://dc.lft.to/lastmile_qr_scan", "android": "https://dc.lft.to/lastmile_qr_scan"}, "is_reserved": 0}, {"lon": -77.08596383333334, "bike_id": "df60184ca8e95a8f728f7a8ebc722433", "lat": 38.908657833333336, "fusion_lon": 0.0, "fusion_lat": 0.0, "type": "electric_scooter", "name": "df60184ca8e95a8f728f7a8ebc722433", "is_disabled": 0, "rental_uris": {"ios": "https://dc.lft.to/lastmile_qr_scan", "android": "https://dc.lft.to/lastmile_qr_scan"}, "is_reserved": 0}, {"lon": -77.03299666666666, "bike_id": "c15ac6565f4baf236dc6d5b97e424219", "lat": 38.89884433333334, "fusion_lon": 0.0, "fusion_lat": 0.0, "type": "electric_bike", "name": "c15ac6565f4baf236dc6d5b97e424219", "is_disabled": 0, "rental_uris": {"ios": "https://dc.lft.to/lastmile_qr_scan", "android": "https://dc.lft.to/lastmile_qr_scan"}, "is_reserved": 0}, {"lon": -77.02592433333334, "bike_id": "a0fc535f453b2490f7e31b549be68442", "lat": 38.94201283333334, "fusion_lon": 0.0, "fusion_lat": 0.0, "type": "electric_scooter", "name": "a0fc535f453b2490f7e31b549be68442", "is_disabled": 0, "rental_uris": {"ios": "https://dc.lft.to/lastmile_qr_scan", "android": "https://dc.lft.to/lastmile_qr_scan"}, "is_reserved": 0}, {"lon": -77.03942083333334, "bike_id": "51971cd81df63696e2b2c92b3a959f76", "lat": 38.9305745, "fusion_lon": 0.0, "fusion_lat": 0.0, "type": "electric_scooter", "name": "51971cd81df63696e2b2c92b3a959f76", "is_disabled": 0, "rental_uris": {"ios": "https://dc.lft.to/lastmile_qr_scan", "android": "https://dc.lft.to/lastmile_qr_scan"}, "is_reserved": 0}, {"lon": -76.99782633333334, "bike_id": "1f15609a68f086596bd45a5d40962f11", "lat": 38.84426766666667, "fusion_lon": 0.0, "fusion_lat": 0.0, "type": "electric_scooter", "name": "1f15609a68f086596bd45a5d40962f11", "is_disabled": 0, "rental_uris": {"ios": "https://dc.lft.to/lastmile_qr_scan", "android": "https://dc.lft.to/lastmile_qr_scan"}, "is_reserved": 0}, {"lon": -76.99544566666667, "bike_id": "ee92136d516898e271e2010d480f4921", "lat": 38.88377633333333, "fusion_lon": 0.0, "fusion_lat": 0.0, "type": "electric_scooter", "name": "ee92136d516898e271e2010d480f4921", "is_disabled": 0, "rental_uris": {"ios": "https://dc.lft.to/lastmile_qr_scan", "android": "https://dc.lft.to/lastmile_qr_scan"}, "is_reserved": 0}, {"lon": -77.02965183333333, "bike_id": "7d3ad850a54ca854298b71ea7cb21506", "lat": 38.930625, "fusion_lon": 0.0, "fusion_lat": 0.0, "type": "electric_scooter", "name": "7d3ad850a54ca854298b71ea7cb21506", "is_disabled": 0, "rental_uris": {"ios": "https://dc.lft.to/lastmile_qr_scan", "android": "https://dc.lft.to/lastmile_qr_scan"}, "is_reserved": 0}, {"lon": -77.03443966666667, "bike_id": "7ebf53499eca7b5a76b0a9107fdb1b33", "lat": 38.907326166666664, "fusion_lon": 0.0, "fusion_lat": 0.0, "type": "electric_scooter", "name": "7ebf53499eca7b5a76b0a9107fdb1b33", "is_disabled": 0, "rental_uris": {"ios": "https://dc.lft.to/lastmile_qr_scan", "android": "https://dc.lft.to/lastmile_qr_scan"}, "is_reserved": 0}, {"lon": -77.05045033333333, "bike_id": "14b6646fe5e14ac1f865eb49436642a5", "lat": 38.92365516666667, "fusion_lon": 0.0, "fusion_lat": 0.0, "type": "electric_scooter", "name": "14b6646fe5e14ac1f865eb49436642a5", "is_disabled": 0, "rental_uris": {"ios": "https://dc.lft.to/lastmile_qr_scan", "android": "https://dc.lft.to/lastmile_qr_scan"}, "is_reserved": 0}, {"lon": -77.03484933333333, "bike_id": "d3906423b05a967cff501915223b6a79", "lat": 38.93440666666667, "fusion_lon": 0.0, "fusion_lat": 0.0, "type": "electric_scooter", "name": "d3906423b05a967cff501915223b6a79", "is_disabled": 0, "rental_uris": {"ios": "https://dc.lft.to/lastmile_qr_scan", "android": "https://dc.lft.to/lastmile_qr_scan"}, "is_reserved": 0}, {"lon": -77.02173983333333, "bike_id": "da59fe1b0666a0fc970a3e7e4c2447b1", "lat": 38.9300385, "fusion_lon": 0.0, "fusion_lat": 0.0, "type": "electric_scooter", "name": "da59fe1b0666a0fc970a3e7e4c2447b1", "is_disabled": 0, "rental_uris": {"ios": "https://dc.lft.to/lastmile_qr_scan", "android": "https://dc.lft.to/lastmile_qr_scan"}, "is_reserved": 0},