{"data": {"bikes": [{"fusion_lon": 0.0, "bike_id": "eb534f09d6892ab5aa4e1cf65ba63c30", "name": "eb534f09d6892ab5aa4e1cf65ba63c30", "type": "electric_scooter", "lon": -77.03781366666666, "rental_uris": {"android": "https://dc.lft.to/lastmile_qr_scan", "ios": "https://dc.lft.to/lastmile_qr_scan"}, "lat": 38.9361135, "is_reserved": 0, "is_disabled": 0, "fusion_lat": 0.0}, {"fusion_lon": 0.0, "bike_id": "e604cb30f104136e9cc46a808263f0ea", "name": "e604cb30f104136e9cc46a808263f0ea", "type": "electric_scooter", "lon": -77.05134933333333, "rental_uris": {"android": "https://dc.lft.to/lastmile_qr_scan", "ios": "https://dc.lft.to/lastmile_qr_scan"}, "lat": 38.90714066666666, "is_reserved": 0, "is_disabled": 0, "fusion_lat": 0.0}, {"fusion_lon": 0.0, "bike_id": "653fc28054602b80f6de97814b8f6b38", "name": "653fc28054602b80f6de97814b8f6b38", "type": "electric_scooter", "lon": -77.0034135, "rental_uris": {"android": "https://dc.lft.to/lastmile_qr_scan", "ios": "https://dc.lft.to/lastmile_qr_scan"}, "lat": 38.92270933333333, "is_reserved": 0, "is_disabled": 0, "fusion_lat": 0.0}, {"fusion_lon": 0.0, "bike_id": "9668748da92c64e7516d9856a05525c5", "name": "9668748da92c64e7516d9856a05525c5", "type": "electric_scooter", "lon": -77.02586433333333, "rental_uris": {"android": "https://dc.lft.to/lastmile_qr_scan", "ios": "https://dc.lft.to/lastmile_qr_scan"}, "lat": 38.927914666666666, "is_reserved": 0, "is_disabled": 0, "fusion_lat": 0.0}, {"fusion_lon": 0.0, "bike_id": "327fb3c88cd3f004e79e8e40a8cdaed6", "name": "327fb3c88cd3f004e79e8e40a8cdaed6", "type": "electric_scooter", "lon": -76.9424215, "rental_uris": {"android": "https://dc.lft.to/lastmile_qr_scan", "ios": "https://dc.lft.to/lastmile_qr_scan"}, "lat": 38.8899805, "is_reserved": 0, "is_disabled": 0, "fusion_lat": 0.0}, {"fusion_lon": 0.0, "bike_id": "f0ce2cdea5acb8956f68739f817fb6d5", "name": "f0ce2cdea5acb8956f68739f817fb6d5", "type": "electric_bike", "lon": -76.909775, "rental_uris": {"android": "https://dc.lft.to/lastmile_qr_scan", "ios": "https://dc.lft.to/lastmile_qr_scan"}, "lat": 38.8544295, "is_reserved": 0, "is_disabled": 0, "fusion_lat": 0.0}, {"fusion_lon": 0.0, "bike_id": "80211866753f57e18d966325434b6a6b", "name": "80211866753f57e18d966325434b6a6b", "type": "electric_scooter", "lon": -77.06263466666667, "rental_uris": {"android": "https://dc.lft.to/lastmile_qr_scan", "ios": "https://dc.lft.to/lastmile_qr_scan"}, "lat": 38.905227833333335, "is_reserved": 0, "is_disabled": 0, "fusion_lat": 0.0}, {"fusion_lon": 0.0, "bike_id": "8744afe8cf18ea8d4d47002ed9793991", "name": "8744afe8cf18ea8d4d47002ed9793991", "type": "electric_scooter", "lon": -77.00745633333334, "rental_uris": {"android": "https://dc.lft.to/lastmile_qr_scan", "ios": "https://dc.lft.to/lastmile_qr_scan"}, "lat": 38.903540666666665, "is_reserved": 0, "is_disabled": 0, "fusion_lat": 0.0}, {"fusion_lon": 0.0, "bike_id": "12eda225f0baa0886b662e33bf6b3474", "name": "12eda225f0baa0886b662e33bf6b3474", "type": "electric_scooter", "lon": -77.0608305, "rental_uris": {"android": "https://dc.lft.to/lastmile_qr_scan", "ios": "https://dc.lft.to/lastmile_qr_scan"}, "lat": 38.94379433333334, "is_reserved": 0, "is_disabled": 0, "fusion_lat": 0.0}, {"fusion_lon": 0.0, "bike_id": "ed28d33013fab46aa15bc2e07c5b7680", "name": "ed28d33013fab46aa15bc2e07c5b7680", "type": "electric_scooter", "lon": -77.041673, "rental_uris": {"android": "https://dc.lft.to/lastmile_qr_scan", "ios": "https://dc.lft.to/lastmile_qr_scan"}, "lat": 38.913425333333336, "is_reserved": 0, "is_disabled": 0, "fusion_lat": 0.0}, {"fusion_lon": 0.0, "bike_id": "8e485e4b57afeb6838f94a2c18564207", "name": "8e485e4b57afeb6838f94a2c18564207", "type": "electric_scooter", "lon": -77.03859366666667, "rental_uris": {"android": "https://dc.lft.to/lastmile_qr_scan", "ios": "https://dc.lft.to/lastmile_qr_scan"}, "lat": 38.912879333333336, "is_reserved": 0, "is_disabled": 0, "fusion_lat": 0.0}, {"fusion_lon": 0.0, "bike_id": "83e78e8b52cc6e27d022e17fc0406c9a", "name": "83e78e8b52cc6e27d022e17fc0406c9a", "type": "electric_scooter", "lon": -77.03654766666666, "rental_uris": {"android": "https://dc.lft.to/lastmile_qr_scan", "ios": "https://dc.lft.to/lastmile_qr_scan"}, "lat": 38.936302, "is_reserved": 0, "is_disabled": 0, "fusion_lat": 0.0}, {"fusion_lon": 0.0, "bike_id": "8b9f8e3f854e24c641da9bfc4d21f56f", "name": "8b9f8e3f854e24c641da9bfc4d21f56f", "type": "electric_scooter", "lon": -77.03208033333334, "rental_uris": {"android": "https://dc.lft.to/lastmile_qr_scan", "ios": "https://dc.lft.to/lastmile_qr_scan"}, "lat": 38.887363666666666, "is_reserved": 0, "is_disabled": 0, "fusion_lat": 0.0}, {"fusion_lon": 0.0, "bike_id": "cc67f9836b84aa18cfe71b1277230a6c", "name": "cc67f9836b84aa18cfe71b1277230a6c", "type": "electric_scooter", "lon": -76.9366065, "rental_uris": {"android": "https://dc.lft.to/lastmile_qr_scan", "ios": "https://dc.lft.to/lastmile_qr_scan"}, "lat": 38.88960983333333, "is_reserved": 0, "is_disabled": 0, "fusion_lat": 0.0}, {"fusion_lon": 0.0, "bike_id": "096e20b43efd21643cd383ef2ce06a59", "name": "096e20b43efd21643cd383ef2ce06a59", "type": "electric_scooter", "lon": -77.03059283333333, "rental_uris": {"android": "https://dc.lft.to/lastmile_qr_scan", "ios": "https://dc.lft.to/lastmile_qr_scan"}, "lat": 38.90121416666667, "is_reserved": 0, "is_disabled": 0, "fusion_lat": 0.0}, {"fusion_lon": 0.0, "bike_id": "f00953b0b464802ec4819998c47ff552", "name": "f00953b0b464802ec4819998c47ff552", "type": "electric_scooter", "lon": -77.01402666666667, "rental_uris": {"android": "https://dc.lft.to/lastmile_qr_scan", "ios": "https://dc.lft.to/lastmile_qr_scan"}, "lat": 38.928593, "is_reserved": 0, "is_disabled": 0, "fusion_lat": 0.0}, {"fusion_lon": 0.0, "bike_id": "cde74a6e18d62e3edc1d493396651b8a", "name": "cde74a6e18d62e3edc1d493396651b8a", "type": "electric_scooter", "lon": -77.009577, "rental_uris": {"android": "https://dc.lft.to/lastmile_qr_scan", "ios": "https://dc.lft.to/lastmile_qr_scan"}, "lat": 38.87664216666667, "is_reserved": 0, "is_disabled": 0, "fusion_lat": 0.0}, {"fusion_lon": 0.0, "bike_id": "3ee12483d22715939eb618985f10528d", "name": "3ee12483d22715939eb618985f10528d", "type": "electric_scooter", "lon": -77.05582016666666, "rental_uris": {"android": "https://dc.lft.to/lastmile_qr_scan", "ios": "https://dc.lft.to/lastmile_qr_scan"}, "lat": 38.93611583333333, "is_reserved": 0, "is_disabled": 0, "fusion_lat": 0.0}, {"fusion_lon": 0.0, "bike_id": "5731fadab420f6004a4cb3f2e3d5aab5", "name": "5731fadab420f6004a4cb3f2e3d5aab5", "type": "electric_bike", "lon": -77.012242, "rental_uris": {"android": "https://dc.lft.to/lastmile_qr_scan", "ios": "https://dc.lft.to/lastmile_qr_scan"}, "lat": 38.893146333333334, "is_reserved": 0, "is_disabled": 0, "fusion_lat": 0.0}, {"fusion_lon": 0.0, "bike_id": "72d5b6dcd4033175f1b697451ee2efbe", "name": "72d5b6dcd4033175f1b697451ee2efbe", "type": "electric_scooter", "lon": -77.02291383333333, "rental_uris": {"android": "https://dc.lft.to/lastmile_qr_scan", "ios": "https://dc.lft.to/lastmile_qr_scan"}, "lat": 38.93764816666667, "is_reserved": 0, "is_disabled": 0, "fusion_lat": 0.0}, {"fusion_lon": 0.0, "bike_id": "bd3740135f7da3bf4244fb4f57f61e75", "name": "bd3740135f7da3bf4244fb4f57f61e75", "type": "electric_scooter", "lon": -77.09443716666667, "rental_uris": {"android": "https://dc.lft.to/lastmile_qr_scan", "ios": "https://dc.lft.to/lastmile_qr_scan"}, "lat": 38.917829166666664, "is_reserved": 0, "is_disabled": 0, "fusion_lat": 0.0}, {"fusion_lon": 0.0, "bike_id": "043c2c146a94fe9b7ab71ae98ed41ba7", "name": "043c2c146a94fe9b7ab71ae98ed41ba7", "type": "electric_scooter", "lon": -77.0238485, "rental_uris": {"android": "https://dc.lft.to/lastmile_qr_scan", "ios": "https://dc.lft.to/lastmile_qr_scan"}, "lat": 38.90740866666667, "is_reserved": 0, "is_disabled": 0, "fusion_lat": 0.0}, {"fusion_lon": 0.0, "bike_id": "fd5d3ed33bec4ff76f5d48e5467ab59c", "name": "fd5d3ed33bec4ff76f5d48e5467ab59c", "type": "electric_scooter", "lon": -76.94778766666667, "rental_uris": {"android": "https://dc.lft.to/lastmile_qr_scan", "ios": "https://dc.lft.to/lastmile_qr_scan"}, "lat": 38.896410833333334, "is_reserved": 0, "is_disabled": 0, "fusion_lat": 0.0}, {"fusion_lon": 0.0, "bike_id": "d4af1a89ab4781e29b994fc24a01467a", "name": "d4af1a89ab4781e29b994fc24a01467a", "type": "electric_scooter", "lon": -76.94941483333334, "rental_uris": {"android": "https://dc.lft.to/lastmile_qr_scan", "ios": "https://dc.lft.to/lastmile_qr_scan"}, "lat": 38.88319933333333, "is_reserved": 0, "is_disabled": 0, "fusion_lat": 0.0}, {"fusion_lon": 0.0, "bike_id": "6f9a91d7ce51e7f60c8c5f7c1e24ae3a", "name": "6f9a91d7ce51e7f60c8c5f7c1e24ae3a", "type": "electric_bike", "lon": -76.98839, "rental_uris": {"android": "https://dc.lft.to/lastmile_qr_scan", "ios": "https://dc.lft.to/lastmile_qr_scan"}, "lat": 38.842732166666664, "is_reserved": 0, "is_disabled": 0, "fusion_lat": 0.0}, {"fusion_lon": 0.0, "bike_id": "bcfe2b94d76d8eb1e69d605faf570f68", "name": "bcfe2b94d76d8eb1e69d605faf570f68", "type": "electric_scooter", "lon": -77.00434716666666, "rental_uris": {"android": "https://dc.lft.to/lastmile_qr_scan", "ios": "https://dc.lft.to/lastmile_qr_scan"}, "lat": 38.907516, "is_reserved": 0, "is_disabled": 0, "fusion_lat": 0.0}, {"fusion_lon": 0.0, "bike_id": "08e48d6ed2d41766c087386cde470a6d", "name": "08e48d6ed2d41766c087386cde470a6d", "type": "electric_scooter", "lon": -77.0229595, "rental_uris": {"android": "https://dc.lft.to/lastmile_qr_scan", "ios": "https://dc.lft.to/lastmile_qr_scan"}, "lat": 38.91562616666667, "is_reserved": 0, "is_disabled": 0, "fusion_lat": 0.0}, {"fusion_lon": 0.0, "bike_id": "24b62f57e22a1a06a4cf9f2c0b056069", "name": "24b62f57e22a1a06a4cf9f2c0b056069", "type": "electric_scooter", "lon": -77.0318585, "rental_uris": {"android": "https://dc.lft.to/lastmile_qr_scan", "ios": "https://dc.lft.to/lastmile_qr_scan"}, "lat": 38.9162615, "is_reserved": 0, "is_disabled": 0, "fusion_lat": 0.0}, {"fusion_lon": 0.0, "bike_id": "983f781a5527d3301b101b6e7487ac44", "name": "983f781a5527d3301b101b6e7487ac44", "type": "electric_bike", "lon": -77.13230166666666, "rental_uris": {"android": "https://dc.lft.to/lastmile_qr_scan", "ios": "https://dc.lft.to/lastmile_qr_scan"}, "lat": 38.869779666666666, "is_reserved": 0, "is_disabled": 0, "fusion_lat": 0.0}, {"fusion_lon": 0.0, "bike_id": "c85b165ebad8bb6079e63745b367e87b", "name": "c85b165ebad8bb6079e63745b367e87b", "type": "electric_scooter", "lon": -77.071654, "rental_uris": {"android": "https://dc.lft.to/lastmile_qr_scan", "ios": "https://dc.lft.to/lastmile_qr_scan"}, "lat": 38.907639833333334, "is_reserved": 0, "is_disabled": 0, "fusion_lat": 0.0}, {"fusion_lon": 0.0, "bike_id": "81a6615062ed7ff740351ac262fcaca3", "name": "81a6615062ed7ff740351ac262fcaca3", "type": "electric_scooter", "lon": -77.0112305, "rental_uris": {"android": "https://dc.lft.to/lastmile_qr_scan", "ios": "https://dc.lft.to/lastmile_qr_scan"}, "lat": 38.89480433333333, "is_reserved": 0, "is_disabled": 0, "fusion_lat": 0.0}, {"fusion_lon": 0.0, "bike_id": "7ae4d2aae1411e845b8b61e1d697d2e0", "name": "7ae4d2aae1411e845b8b61e1d697d2e0", "type": "electric_scooter", "lon": -77.02171583333333, "rental_uris": {"android": "https://dc.lft.to/lastmile_qr_scan", "ios": "https://dc.lft.to/lastmile_qr_scan"}, "lat": 38.942918166666665, "is_reserved": 0, "is_disabled": 0, "fusion_lat": 0.0}, {"fusion_lon": 0.0, "bike_id": "4c1d158843c0fbd41f30d8ebc2c4f8fa", "name": "4c1d158843c0fbd41f30d8ebc2c4f8fa", "type": "electric_scooter", "lon": -77.046509, "rental_uris": {"android": "https://dc.lft.to/lastmile_qr_scan", "ios": "https://dc.lft.to/lastmile_qr_scan"}, "lat": 38.9041095, "is_reserved": 0, "is_disabled": 0, "fusion_lat": 0.0}, {"fusion_lon": 0.0, "bike_id": "480f7022816dd1dfab5a5356e5d74d2a", "name": "480f7022816dd1dfab5a5356e5d74d2a", "type": "electric_scooter", "lon": -77.02524833333334, "rental_uris": {"android": "https://dc.lft.to/lastmile_qr_scan", "ios": "https://dc.lft.to/lastmile_qr_scan"}, "lat": 38.900951666666664, "is_reserved": 0, "is_disabled": 0, "fusion_lat": 0.0}, {"fusion_lon": 0.0, "bike_id": "b5fe15223e113056854dfd604802c173", "name": "b5fe15223e113056854dfd604802c173", "type": "electric_scooter", "lon": -77.04610883333334, "rental_uris": {"android": "https://dc.lft.to/lastmile_qr_scan", "ios": "https://dc.lft.to/lastmile_qr_scan"}, "lat": 38.905790833333334, "is_reserved": 0, "is_disabled": 0, "fusion_lat": 0.0}, {"fusion_lon": 0.0, "bike_id": "55177ec5da98650c8817b4b62bfb6672", "name": "55177ec5da98650c8817b4b62bfb6672", "type": "electric_scooter", "lon": -77.02714783333333, "rental_uris": {"android": "https://dc.lft.to/lastmile_qr_scan", "ios": "https://dc.lft.to/lastmile_qr_scan"}, "lat": 38.90747366666667, "is_reserved": 0, "is_disabled": 0, "fusion_lat": 0.0}, {"fusion_lon": 0.0, "bike_id": "be3b52ce679da968a8583e574686374e", "name": "be3b52ce679da968a8583e574686374e", "type": "electric_scooter", "lon": -77.00755133333334, "rental_uris": {"android": "https://dc.lft.to/lastmile_qr_scan", "ios": "https://dc.lft.to/lastmile_qr_scan"}, "lat": 38.87641433333334, "is_reserved": 0, "is_disabled": 0, "fusion_lat": 0.0}, {"fusion_lon": 0.0, "bike_id": "ad900bd154cd0b01d62f96b40b42309e", "name": "ad900bd154cd0b01d62f96b40b42309e", "type": "electric_scooter", "lon": -77.031974, "rental_uris": {"android": "https://dc.lft.to/lastmile_qr_scan", "ios": "https://dc.lft.to/lastmile_qr_scan"}, "lat": 38.91918916666667, "is_reserved": 0, "is_disabled": 0, "fusion_lat": 0.0}, {"fusion_lon": 0.0, "bike_id": "207cf26542b6584538ecae95ee6f1efd", "name": "207cf26542b6584538ecae95ee6f1efd", "type": "electric_scooter", "lon": -77.0009745, "rental_uris": {"android": "https://dc.lft.to/lastmile_qr_scan", "ios": "https://dc.lft.to/lastmile_qr_scan"}, "lat": 38.8974195, "is_reserved": 0, "is_disabled": 0, "fusion_lat": 0.0}, {"fusion_lon": 0.0, "bike_id": "cfff77729b9d421b91f856a7a88858bb", "name": "cfff77729b9d421b91f856a7a88858bb", "type": "electric_scooter", "lon": -77.005842, "rental_uris": {"android": "https://dc.lft.to/lastmile_qr_scan", "ios": "https://dc.lft.to/lastmile_qr_scan"}, "lat": 38.87517016666666, "is_reserved": 0, "is_disabled": 0, "fusion_lat": 0.0}, {"fusion_lon": 0.0, "bike_id": "1ec6f74f63efadde8227e8e8396b0bcd", "name": "1ec6f74f63efadde8227e8e8396b0bcd", "type": "electric_scooter", "lon": -77.02661933333333, "rental_uris": {"android": "https://dc.lft.to/lastmile_qr_scan", "ios": "https://dc.lft.to/lastmile_qr_scan"}, "lat": 38.93099433333333, "is_reserved": 0, "is_disabled": 0, "fusion_lat": 0.0}, {"fusion_lon": 0.0, "bike_id": "63d6692a8fafaa2b5eb952686cbe9f43", "name": "63d6692a8fafaa2b5eb952686cbe9f43", "type": "electric_scooter", "lon": -77.00363633333333, "rental_uris": {"android": "https://dc.lft.to/lastmile_qr_scan", "ios": "https://dc.lft.to/lastmile_qr_scan"}, "lat": 38.877571833333334, "is_reserved": 0, "is_disabled": 0, "fusion_lat": 0.0}, {"fusion_lon": 0.0, "bike_id": "8e1394e21089a51ee4f48f9244109316", "name": "8e1394e21089a51ee4f48f9244109316", "type": "electric_scooter", "lon": -77.01890466666667, "rental_uris": {"android": "https://dc.lft.to/lastmile_qr_scan", "ios": "https://dc.lft.to/lastmile_qr_scan"}, "lat": 38.949264, "is_reserved": 0, "is_disabled": 0, "fusion_lat": 0.0}, {"fusion_lon": 0.0, "bike_id": "0a05f09daca60a64fc8363be1aac1933", "name": "0a05f09daca60a64fc8363be1aac1933", "type": "electric_scooter", "lon": -77.002126, "rental_uris": {"android": "https://dc.lft.to/lastmile_qr_scan", "ios": "https://dc.lft.to/lastmile_qr_scan"}, "lat": 38.900296833333336, "is_reserved": 0, "is_disabled": 0, "fusion_lat": 0.0}, {"fusion_lon": 0.0, "bike_id": "9960156cabde2ade80a0b525195378ba", "name": "9960156cabde2ade80a0b525195378ba", "type": "electric_scooter", "lon": -77.03531533333333, "rental_uris": {"android": "https://dc.lft.to/lastmile_qr_scan", "ios": "https://dc.lft.to/lastmile_qr_scan"}, "lat": 38.9359525, "is_reserved": 0, "is_disabled": 0, "fusion_lat": 0.0}, {"fusion_lon": 0.0, "bike_id": "7e8c2a620589850b75431e69e5a28bdf", "name": "7e8c2a620589850b75431e69e5a28bdf", "type": "electric_scooter", "lon": -76.98456266666666, "rental_uris": {"android": "https://dc.lft.to/lastmile_qr_scan", "ios": "https://dc.lft.to/lastmile_qr_scan"}, "lat": 38.880052, "is_reserved": 0, "is_disabled": 0, "fusion_lat": 0.0}, {"fusion_lon": 0.0, "bike_id": "cdb155b54b7d2b412b5ee33ff9b5a62d", "name": "cdb155b54b7d2b412b5ee33ff9b5a62d", "type": "electric_scooter", "lon": -77.041684, "rental_uris": {"android": "https://dc.lft.to/lastmile_qr_scan", "ios": "https://dc.lft.to/lastmile_qr_scan"}, "lat": 38.91105566666667, "is_reserved": 0, "is_disabled": 0, "fusion_lat": 0.0}, {"fusion_lon": 0.0, "bike_id": "56a5d987659ca647202affa44fc152e4", "name": "56a5d987659ca647202affa44fc152e4", "type": "electric_scooter", "lon": -77.04151816666666, "rental_uris": {"android": "https://dc.lft.to/lastmile_qr_scan", "ios": "https://dc.lft.to/lastmile_qr_scan"}, "lat": 38.915966833333336, "is_reserved": 0, "is_disabled": 0, "fusion_lat": 0.0}, {"fusion_lon": 0.0, "bike_id": "1ca36f4ee6e1cc0adb10ae56fa94c878", "name": "1ca36f4ee6e1cc0adb10ae56fa94c878", "type": "electric_scooter", "lon": -77.012078, "rental_uris": {"android": "https://dc.lft.to/lastmile_qr_scan", "ios": "https://dc.lft.to/lastmile_qr_scan"}, "lat": 38.8933025, "is_reserved": 0, "is_disabled": 0, "fusion_lat": 0.0}, {"fusion_lon": 0.0, "bike_id": "58adfa2cc0e1df98107bd4c8df3353e2", "name": "58adfa2cc0e1df98107bd4c8df3353e2", "type": "electric_scooter", "lon": -76.93345183333334, "rental_uris": {"android": "https://dc.lft.to/lastmile_qr_scan", "ios": "https://dc.lft.to/lastmile_qr_scan"}, "lat": 38.89914683333333, "is_reserved": 0, "is_disabled": 0, "fusion_lat": 0.0}, {"fusion_lon": 0.0, "bike_id": "306d143260ef0fd02e89f6e46ac548a6", "name": "306d143260ef0fd02e89f6e46ac548a6", "type": "electric_scooter", "lon": -77.0364705, "rental_uris": {"android": "https://dc.lft.to/lastmile_qr_scan", "ios": "https://dc.lft.to/lastmile_qr_scan"}, "lat": 38.91585716666667, "is_reserved": 0, "is_disabled": 0, "fusion_lat": 0.0}, {"fusion_lon": 0.0, "bike_id": "2018b4fdaee7ea6d7a437dc1ead81e02", "name": "2018b4fdaee7ea6d7a437dc1ead81e02", "type": "electric_bike", "lon": -76.98168233333334, "rental_uris": {"android": "https://dc.lft.to/lastmile_qr_scan", "ios": "https://dc.lft.to/lastmile_qr_scan"}, "lat": 38.95957466666667, "is_reserved": 0, "is_disabled": 0, "fusion_lat": 0.0}, {"fusion_lon": 0.0, "bike_id": "d7da6828466191d9d2e24498a81d3f87", "name": "d7da6828466191d9d2e24498a81d3f87", "type": "electric_scooter", "lon": -77.011892, "rental_uris": {"android": "https://dc.lft.to/lastmile_qr_scan", "ios": "https://dc.lft.to/lastmile_qr_scan"}, "lat": 38.906579666666666, "is_reserved": 0, "is_disabled": 0, "fusion_lat": 0.0}, {"fusion_lon": 0.0, "bike_id": "137c44359eed8e508042225f981e6034", "name": "137c44359eed8e508042225f981e6034", "type": "electric_scooter", "lon": -77.03636916666666, "rental_uris": {"android": "https://dc.lft.to/lastmile_qr_scan", "ios": "https://dc.lft.to/lastmile_qr_scan"}, "lat": 38.924132666666665, "is_reserved": 0, "is_disabled": 0, "fusion_lat": 0.0}, {"fusion_lon": 0.0, "bike_id": "0d20461cb6b8d635cd0218f0e86f186b", "name": "0d20461cb6b8d635cd0218f0e86f186b", "type": "electric_scooter", "lon": -77.05191483333333, "rental_uris": {"android": "https://dc.lft.to/lastmile_qr_scan", "ios": "https://dc.lft.to/lastmile_qr_scan"}, "lat": 38.925469166666666, "is_reserved": 0, "is_disabled": 0, "fusion_lat": 0.0}, {"fusion_lon": 0.0, "bike_id": "599f60324e8a4993a3d6a5d9cbb476d3", "name": "599f60324e8a4993a3d6a5d9cbb476d3", "type": "electric_bike", "lon": -77.08043383333333, "rental_uris": {"android": "https://dc.lft.to/lastmile_qr_scan", "ios": "https://dc.lft.to/lastmile_qr_scan"}, "lat": 38.84845766666667, "is_reserved": 0, "is_disabled": 0, "fusion_lat": 0.0}, {"fusion_lon": 0.0, "bike_id": "ba8b77df34b410a17084572993a0561a", "name": "ba8b77df34b410a17084572993a0561a", "type": "electric_scooter", "lon": -76.99819833333333, "rental_uris": {"android": "https://dc.lft.to/lastmile_qr_scan", "ios": "https://dc.lft.to/lastmile_qr_scan"}, "lat": 38.8443385, "is_reserved": 0, "is_disabled": 0, "fusion_lat": 0.0}, {"fusion_lon": 0.0, "bike_id": "ff1f5d2e8417da9b320c20fd0ff89b10", "name": "ff1f5d2e8417da9b320c20fd0ff89b10", "type": "electric_bike", "lon": -76.98088466666667, "rental_uris": {"android": "https://dc.lft.to/lastmile_qr_scan", "ios": "https://dc.lft.to/lastmile_qr_scan"}, "lat": 38.95359883333333, "is_reserved": 0, "is_disabled": 0, "fusion_lat": 0.0}, {"fusion_lon": 0.0, "bike_id": "4b346510684a9c32bb53115b1df59dcc", "name": "4b346510684a9c32bb53115b1df59dcc", "type": "electric_scooter", "lon": -77.02276, "rental_uris": {"android": "https://dc.lft.to/lastmile_qr_scan", "ios": "https://dc.lft.to/lastmile_qr_scan"}, "lat": 38.92694816666667, "is_reserved": 0, "is_disabled": 0, "fusion_lat": 0.0}, {"fusion_lon": 0.0, "bike_id": "e40137ec6b380d4cb5535c4b482632ec", "name": "e40137ec6b380d4cb5535c4b482632ec", "type": "electric_scooter", "lon": -77.0366445, "rental_uris": {"android": "https://dc.lft.to/lastmile_qr_scan", "ios": "https://dc.lft.to/lastmile_qr_scan"}, "lat": 38.92289866666667, "is_reserved": 0, "is_disabled": 0, "fusion_lat": 0.0}, {"fusion_lon": 0.0, "bike_id": "1b24ed12d1ec4f0ee99feca508921a8f", "name": "1b24ed12d1ec4f0ee99feca508921a8f", "type": "electric_scooter", "lon": -77.04670116666667, "rental_uris": {"android": "https://dc.lft.to/lastmile_qr_scan", "ios": "https://dc.lft.to/lastmile_qr_scan"}, "lat": 38.913155833333334, "is_reserved": 0, "is_disabled": 0, "fusion_lat": 0.0}, {"fusion_lon": 0.0, "bike_id": "b22bf872ee9bc28273bae4106b6b69f4", "name": "b22bf872ee9bc28273bae4106b6b69f4", "type": "electric_scooter", "lon": -76.98879133333334, "rental_uris": {"android": "https://dc.lft.to/lastmile_qr_scan", "ios": "https://dc.lft.to/lastmile_qr_scan"}, "lat": 38.90640666666667, "is_reserved": 0, "is_disabled": 0, "fusion_lat": 0.0}, {"fusion_lon": 0.0, "bike_id": "87a704fff355f7972a49243d80e83c54", "name": "87a704fff355f7972a49243d80e83c54", "type": "electric_bike", "lon": -77.01204766666666, "rental_uris": {"android": "https://dc.lft.to/lastmile_qr_scan", "ios": "https://dc.lft.to/lastmile_qr_scan"}, "lat": 38.87094066666667, "is_reserved": 0, "is_disabled": 0, "fusion_lat": 0.0}, {"fusion_lon": 0.0, "bike_id": "e1581525df219ecbc97f395ee6089439", "name": "e1581525df219ecbc97f395ee6089439", "type": "electric_scooter", "lon": -77.0465755, "rental_uris": {"android": "https://dc.lft.to/lastmile_qr_scan", "ios": "https://dc.lft.to/lastmile_qr_scan"}, "lat": 38.893383666666665, "is_reserved": 0, "is_disabled": 0, "fusion_lat": 0.0}, {"fusion_lon": 0.0, "bike_id": "f813a67da52bb3f51e8464fed3fb9622", "name": "f813a67da52bb3f51e8464fed3fb9622", "type": "electric_scooter", "lon": -77.0120695, "rental_uris": {"android": "https://dc.lft.to/lastmile_qr_scan", "ios": "https://dc.lft.to/lastmile_qr_scan"}, "lat": 38.919752, "is_reserved": 0, "is_disabled": 0, "fusion_lat": 0.0}, {"fusion_lon": 0.0, "bike_id": "d9ab53505f656fe29e7304e01ace1469", "name": "d9ab53505f656fe29e7304e01ace1469", "type": "electric_scooter", "lon": -77.0437005, "rental_uris": {"android": "https://dc.lft.to/lastmile_qr_scan", "ios": "https://dc.lft.to/lastmile_qr_scan"}, "lat": 38.9257795, "is_reserved": 0, "is_disabled": 0, "fusion_lat": 0.0}, {"fusion_lon": 0.0, "bike_id": "8a69b9662a865b045a828619e9bc95c3", "name": "8a69b9662a865b045a828619e9bc95c3", "type": "electric_scooter", "lon": -76.957533, "rental_uris": {"android": "https://dc.lft.to/lastmile_qr_scan", "ios": "https://dc.lft.to/lastmile_qr_scan"}, "lat": 38.8843265, "is_reserved": 0, "is_disabled": 0, "fusion_lat": 0.0}, {"fusion_lon": 0.0, "bike_id": "9f74a1e7afcbee189aa7fac5f3681f2a", "name": "9f74a1e7afcbee189aa7fac5f3681f2a", "type": "electric_scooter", "lon": -77.01158466666666, "rental_uris": {"android": "https://dc.lft.to/lastmile_qr_scan", "ios": "https://dc.lft.to/lastmile_qr_scan"}, "lat": 38.87195833333333, "is_reserved": 0, "is_disabled": 0, "fusion_lat": 0.0}, {"fusion_lon": 0.0, "bike_id": "49bbabd7b084710a1872bf545815d743", "name": "49bbabd7b084710a1872bf545815d743", "type": "electric_bike", "lon": -76.9668655, "rental_uris": {"android": "https://dc.lft.to/lastmile_qr_scan", "ios": "https://dc.lft.to/lastmile_qr_scan"}, "lat": 38.95891533333333, "is_reserved": 0, "is_disabled": 0, "fusion_lat": 0.0}, {"fusion_lon": 0.0, "bike_id": "6062ea8c8c7611a8361f0884b21e988c", "name": "6062ea8c8c7611a8361f0884b21e988c", "type": "electric_scooter", "lon": -77.04558533333334, "rental_uris": {"android": "https://dc.lft.to/lastmile_qr_scan", "ios": "https://dc.lft.to/lastmile_qr_scan"}, "lat": 38.91822283333333, "is_reserved": 0, "is_disabled": 0, "fusion_lat": 0.0}, {"fusion_lon": 0.0, "bike_id": "a8dde82c141e4c6993755221c5f86543", "name": "a8dde82c141e4c6993755221c5f86543", "type": "electric_scooter", "lon": -77.02037433333334, "rental_uris": {"android": "https://dc.lft.to/lastmile_qr_scan", "ios": "https://dc.lft.to/lastmile_qr_scan"}, "lat": 38.911085666666665, "is_reserved": 0, "is_disabled": 0, "fusion_lat": 0.0}, {"fusion_lon": 0.0, "bike_id": "16ab98926dc0db6e1f2c5d9ad2edd5fe", "name": "16ab98926dc0db6e1f2c5d9ad2edd5fe", "type": "electric_scooter", "lon": -76.98704916666667, "rental_uris": {"android": "https://dc.lft.to/lastmile_qr_scan", "ios": "https://dc.lft.to/lastmile_qr_scan"}, "lat": 38.90127016666667, "is_reserved": 0, "is_disabled": 0, "fusion_lat": 0.0}, {"fusion_lon": 0.0, "bike_id": "6dd2c902098920e3e84e10f3a2b96507", "name": "6dd2c902098920e3e84e10f3a2b96507", "type": "electric_scooter", "lon": -77.04662933333333, "rental_uris": {"android": "https://dc.lft.to/lastmile_qr_scan", "ios": "https://dc.lft.to/lastmile_qr_scan"}, "lat": 38.906288333333336, "is_reserved": 0, "is_disabled": 0, "fusion_lat": 0.0}, {"fusion_lon": 0.0, "bike_id": "0dab56a913875258e747b4db04328bbb", "name": "0dab56a913875258e747b4db04328bbb", "type": "electric_scooter", "lon": -77.02278433333333, "rental_uris": {"android": "https://dc.lft.to/lastmile_qr_scan", "ios": "https://dc.lft.to/lastmile_qr_scan"}, "lat": 38.9169195, "is_reserved": 0, "is_disabled": 0, "fusion_lat": 0.0}, {"fusion_lon": 0.0, "bike_id": "b3af5448bca2599219a766aad14ba0f6", "name": "b3af5448bca2599219a766aad14ba0f6", "type": "electric_scooter", "lon": -77.02842966666667, "rental_uris": {"android": "https://dc.lft.to/lastmile_qr_scan", "ios": "https://dc.lft.to/lastmile_qr_scan"}, "lat": 38.9223895, "is_reserved": 0, "is_disabled": 0, "fusion_lat": 0.0}, {"fusion_lon": 0.0, "bike_id": "72fabd766db1a05b2c6e3bfabf02c6fe", "name": "72fabd766db1a05b2c6e3bfabf02c6fe", "type": "electric_scooter", "lon": -77.00591316666667, "rental_uris": {"android": "https://dc.lft.to/lastmile_qr_scan", "ios": "https://dc.lft.to/lastmile_qr_scan"}, "lat": 38.876931, "is_reserved": 0, "is_disabled": 0, "fusion_lat": 0.0}, {"fusion_lon": 0.0, "bike_id": "0abe8d94e737c6f868f78cad7ec39b26", "name": "0abe8d94e737c6f868f78cad7ec39b26", "type": "electric_scooter", "lon": -77.05302416666666, "rental_uris": {"android": "https://dc.lft.to/lastmile_qr_scan", "ios": "https://dc.lft.to/lastmile_qr_scan"}, "lat": 38.92776816666667, "is_reserved": 0, "is_disabled": 0, "fusion_lat": 0.0}, {"fusion_lon": 0.0, "bike_id": "010ba8a29c5169bdf0e129737a7e7d1a", "name": "010ba8a29c5169bdf0e129737a7e7d1a", "type": "electric_scooter", "lon": -77.02495266666666, "rental_uris": {"android": "https://dc.lft.to/lastmile_qr_scan", "ios": "https://dc.lft.to/lastmile_qr_scan"}, "lat": 38.919355, "is_reserved": 0, "is_disabled": 0, "fusion_lat": 0.0}, {"fusion_lon": 0.0, "bike_id": "46e5f1b622c13a2e7059b493ecbe730e", "name": "46e5f1b622c13a2e7059b493ecbe730e", "type": "electric_scooter", "lon": -77.0249585, "rental_uris": {"android": "https://dc.lft.to/lastmile_qr_scan", "ios": "https://dc.lft.to/lastmile_qr_scan"}, "lat": 38.918070666666665, "is_reserved": 0, "is_disabled": 0, "fusion_lat": 0.0}, {"fusion_lon": 0.0, "bike_id": "04a90577b44ea6dbda95dc4354d90aee", "name": "04a90577b44ea6dbda95dc4354d90aee", "type": "electric_bike", "lon": -76.98327516666667, "rental_uris": {"android": "https://dc.lft.to/lastmile_qr_scan", "ios": "https://dc.lft.to/lastmile_qr_scan"}, "lat": 38.96605233333333, "is_reserved": 0, "is_disabled": 0, "fusion_lat": 0.0}, {"fusion_lon": 0.0, "bike_id": "9e6b6f6048eec7a2ce3251e598c75b6a", "name": "9e6b6f6048eec7a2ce3251e598c75b6a", "type": "electric_scooter", "lon": -76.99003716666667, "rental_uris": {"android": "https://dc.lft.to/lastmile_qr_scan", "ios": "https://dc.lft.to/lastmile_qr_scan"}, "lat": 38.865070833333334, "is_reserved": 0, "is_disabled": 0, "fusion_lat": 0.0}, {"fusion_lon": 0.0, "bike_id": "c3e9dac6b46f5b53c64038d4a3ba38eb", "name": "c3e9dac6b46f5b53c64038d4a3ba38eb", "type": "electric_scooter", "lon": -76.99857333333334, "rental_uris": {"android": "https://dc.lft.to/lastmile_qr_scan", "ios": "https://dc.lft.to/lastmile_qr_scan"}, "lat": 38.90031, "is_reserved": 0, "is_disabled": 0, "fusion_lat": 0.0}, {"fusion_lon": 0.0, "bike_id": "a99bc076d39f3f8c67cec60ec16f7360", "name": "a99bc076d39f3f8c67cec60ec16f7360", "type": "electric_scooter", "lon": -76.93431416666667, "rental_uris": {"android": "https://dc.lft.to/lastmile_qr_scan", "ios": "https://dc.lft.to/lastmile_qr_scan"}, "lat": 38.89965766666667, "is_reserved": 0, "is_disabled": 0, "fusion_lat": 0.0}, {"fusion_lon": 0.0, "bike_id": "9c3e2e84c80122903bb7a20dc5a098cf", "name": "9c3e2e84c80122903bb7a20dc5a098cf", "type": "electric_scooter", "lon": -77.03973216666667, "rental_uris": {"android": "https://dc.lft.to/lastmile_qr_scan", "ios": "https://dc.lft.to/lastmile_qr_scan"}, "lat": 38.91196516666667, "is_reserved": 0, "is_disabled": 0, "fusion_lat": 0.0}, {"fusion_lon": 0.0, "bike_id": "7ff3fb18297d463515076a59f2eb8bcf", "name": "7ff3fb18297d463515076a59f2eb8bcf", "type": "electric_scooter", "lon": -76.99334583333334, "rental_uris": {"android": "https://dc.lft.to/lastmile_qr_scan", "ios": "https://dc.lft.to/lastmile_qr_scan"}, "lat": 38.83878333333333, "is_reserved": 0, "is_disabled": 0, "fusion_lat": 0.0}, {"fusion_lon": 0.0, "bike_id": "14a29337d561a456c5c21231dc3f1561", "name": "14a29337d561a456c5c21231dc3f1561", "type": "electric_scooter", "lon": -77.03750883333333, "rental_uris": {"android": "https://dc.lft.to/lastmile_qr_scan", "ios": "https://dc.lft.to/lastmile_qr_scan"}, "lat": 38.90227266666667, "is_reserved": 0, "is_disabled": 0, "fusion_lat": 0.0}, {"fusion_lon": 0.0, "bike_id": "4bf05e60f30d3dd732571931a60843f0", "name": "4bf05e60f30d3dd732571931a60843f0", "type": "electric_scooter", "lon": -76.9845925, "rental_uris": {"android": "https://dc.lft.to/lastmile_qr_scan", "ios": "https://dc.lft.to/lastmile_qr_scan"}, "lat": 38.89366183333333, "is_reserved": 0, "is_disabled": 0, "fusion_lat": 0.0}, {"fusion_lon": 0.0, "bike_id": "8d8b0e1ad884a126117113568ca34e5a", "name": "8d8b0e1ad884a126117113568ca34e5a", "type": "electric_scooter", "lon": -77.015563, "rental_uris": {"android": "https://dc.lft.to/lastmile_qr_scan", "ios": "https://dc.lft.to/lastmile_qr_scan"}, "lat": 38.914082, "is_reserved": 0, "is_disabled": 0, "fusion_lat": 0.0}, {"fusion_lon": 0.0, "bike_id": "7da2a6abd96dd820fc8e480574b5c955", "name": "7da2a6abd96dd820fc8e480574b5c955", "type": "electric_scooter", "lon": -77.025316, "rental_uris": {"android": "https://dc.lft.to/lastmile_qr_scan", "ios": "https://dc.lft.to/lastmile_qr_scan"}, "lat": 38.948386, "is_reserved": 0, "is_disabled": 0, "fusion_lat": 0.0}, {"fusion_lon": 0.0, "bike_id": "1679f6518ce2ed5ec0eb6590c19a56d0", "name": "1679f6518ce2ed5ec0eb6590c19a56d0", "type": "electric_scooter", "lon": -77.0113145, "rental_uris": {"android": "https://dc.lft.to/lastmile_qr_scan", "ios": "https://dc.lft.to/lastmile_qr_scan"}, "lat": 38.870795, "is_reserved": 0, "is_disabled": 0, "fusion_lat": 0.0}, {"fusion_lon": 0.0, "bike_id": "720b28a8d6e8b64930703e90220bf895", "name": "720b28a8d6e8b64930703e90220bf895", "type": "electric_scooter", "lon": -77.03259833333334, "rental_uris": {"android": "https://dc.lft.to/lastmile_qr_scan", "ios": "https://dc.lft.to/lastmile_qr_scan"}, "lat": 38.91929416666667, "is_reserved": 0, "is_disabled": 0, "fusion_lat": 0.0}, {"fusion_lon": 0.0, "bike_id": "692dd07deae446fdfd98deb5232b9771", "name": "692dd07deae446fdfd98deb5232b9771", "type": "electric_scooter", "lon": -77.00106233333334, "rental_uris": {"android": "https://dc.lft.to/lastmile_qr_scan", "ios": "https://dc.lft.to/lastmile_qr_scan"}, "lat": 38.9163305, "is_reserved": 0, "is_disabled": 0, "fusion_lat": 0.0}, {"fusion_lon": 0.0, "bike_id": "8494e82fc6eba0e1aacdcf5e7d843e36", "name": "8494e82fc6eba0e1aacdcf5e7d843e36", "type": "electric_scooter", "lon": -77.02384833333333, "rental_uris": {"android": "https://dc.lft.to/lastmile_qr_scan", "ios": "https://dc.lft.to/lastmile_qr_scan"}, "lat": 38.90748383333333, "is_reserved": 0, "is_disabled": 0, "fusion_lat": 0.0}, {"fusion_lon": 0.0, "bike_id": "b6620619f13ce8351d4eed3b9b9e328f", "name": "b6620619f13ce8351d4eed3b9b9e328f", "type": "electric_scooter", "lon": -77.00223183333334, "rental_uris": {"android": "https://dc.lft.to/lastmile_qr_scan", "ios": "https://dc.lft.to/lastmile_qr_scan"}, "lat": 38.90276033333333, "is_reserved": 0, "is_disabled": 0, "fusion_lat": 0.0}, {"fusion_lon": 0.0, "bike_id": "e360e822aef2eb7b1730058d2af8d72a", "name": "e360e822aef2eb7b1730058d2af8d72a", "type": "electric_scooter", "lon": -77.05344583333333, "rental_uris": {"android": "https://dc.lft.to/lastmile_qr_scan", "ios": "https://dc.lft.to/lastmile_qr_scan"}, "lat": 38.9023375, "is_reserved": 0, "is_disabled": 0, "fusion_lat": 0.0}, {"fusion_lon": 0.0, "bike_id": "1235ca3c3cacc572b49fbd9d960dc059", "name": "1235ca3c3cacc572b49fbd9d960dc059", "type": "electric_scooter", "lon": -76.9855035, "rental_uris": {"android": "https://dc.lft.to/lastmile_qr_scan", "ios": "https://dc.lft.to/lastmile_qr_scan"}, "lat": 38.904200333333335, "is_reserved": 0, "is_disabled": 0, "fusion_lat": 0.0}, {"fusion_lon": 0.0, "bike_id": "dd53fc4b8b7baf8c8f9e3dc831ad488f", "name": "dd53fc4b8b7baf8c8f9e3dc831ad488f", "type": "electric_scooter", "lon": -77.017178, "rental_uris": {"android": "https://dc.lft.to/lastmile_qr_scan", "ios": "https://dc.lft.to/lastmile_qr_scan"}, "lat": 38.9041565, "is_reserved": 0, "is_disabled": 0, "fusion_lat": 0.0}, {"fusion_lon": 0.0, "bike_id": "f40c2bed2713505e75f530433d771b30", "name": "f40c2bed2713505e75f530433d771b30", "type": "electric_scooter", "lon": -76.9355585, "rental_uris": {"android": "https://dc.lft.to/lastmile_qr_scan", "ios": "https://dc.lft.to/lastmile_qr_scan"}, "lat": 38.90160633333333, "is_reserved": 0, "is_disabled": 0, "fusion_lat": 0.0}, {"fusion_lon": 0.0, "bike_id": "b513d8c43b1cb6b1888b3b6b11de0cbc", "name": "b513d8c43b1cb6b1888b3b6b11de0cbc", "type": "electric_scooter", "lon": -77.02981216666667, "rental_uris": {"android": "https://dc.lft.to/lastmile_qr_scan", "ios": "https://dc.lft.to/lastmile_qr_scan"}, "lat": 38.924568, "is_reserved": 0, "is_disabled": 0, "fusion_lat": 0.0}, {"fusion_lon": 0.0, "bike_id": "c4b66a9c9a0c6d2cac962ec09842ab7c", "name": "c4b66a9c9a0c6d2cac962ec09842ab7c", "type": "electric_scooter", "lon": -77.01890083333333, "rental_uris": {"android": "https://dc.lft.to/lastmile_qr_scan", "ios": "https://dc.lft.to/lastmile_qr_scan"}, "lat": 38.939134, "is_reserved": 0, "is_disabled": 0, "fusion_lat": 0.0}, {"fusion_lon": 0.0, "bike_id": "c16a7556fca2abdf76dfe6c392ce2dee", "name": "c16a7556fca2abdf76dfe6c392ce2dee", "type": "electric_bike", "lon": -76.94785766666666, "rental_uris": {"android": "https://dc.lft.to/lastmile_qr_scan", "ios": "https://dc.lft.to/lastmile_qr_scan"}, "lat": 38.896452, "is_reserved": 0, "is_disabled": 0, "fusion_lat": 0.0}, {"fusion_lon": 0.0, "bike_id": "665c54b83bb5a0b9d0f36d4cca605345", "name": "665c54b83bb5a0b9d0f36d4cca605345", "type": "electric_scooter", "lon": -77.027411, "rental_uris": {"android": "https://dc.lft.to/lastmile_qr_scan", "ios": "https://dc.lft.to/lastmile_qr_scan"}, "lat": 38.92407683333333, "is_reserved": 0, "is_disabled": 0, "fusion_lat": 0.0}, {"fusion_lon": 0.0, "bike_id": "b2e43d1dab1b158c79abf3e02f7611c9", "name": "b2e43d1dab1b158c79abf3e02f7611c9", "type": "electric_scooter", "lon": -77.02147983333333, "rental_uris": {"android": "https://dc.lft.to/lastmile_qr_scan", "ios": "https://dc.lft.to/lastmile_qr_scan"}, "lat": 38.92601416666667, "is_reserved": 0, "is_disabled": 0, "fusion_lat": 0.0}, {"fusion_lon": 0.0, "bike_id": "8936ad72620866956f61b7b6365b6993", "name": "8936ad72620866956f61b7b6365b6993", "type": "electric_bike", "lon": -77.00375066666666, "rental_uris": {"android": "https://dc.lft.to/lastmile_qr_scan", "ios": "https://dc.lft.to/lastmile_qr_scan"}, "lat": 38.87940733333333, "is_reserved": 0, "is_disabled": 0, "fusion_lat": 0.0}, {"fusion_lon": 0.0, "bike_id": "55bc1df445b4972246627756f200c076", "name": "55bc1df445b4972246627756f200c076", "type": "electric_scooter", "lon": -77.02798833333334, "rental_uris": {"android": "https://dc.lft.to/lastmile_qr_scan", "ios": "https://dc.lft.to/lastmile_qr_scan"}, "lat": 38.916780833333334, "is_reserved": 0, "is_disabled": 0, "fusion_lat": 0.0}, {"fusion_lon": 0.0, "bike_id": "df8bb44fc8f9260c9668af9e8252a3c4", "name": "df8bb44fc8f9260c9668af9e8252a3c4", "type": "electric_bike", "lon": -76.9721655, "rental_uris": {"android": "https://dc.lft.to/lastmile_qr_scan", "ios": "https://dc.lft.to/lastmile_qr_scan"}, "lat": 38.8448325, "is_reserved": 0, "is_disabled": 0, "fusion_lat": 0.0}, {"fusion_lon": 0.0, "bike_id": "b58b8ebb4e3ad089e0e802a8b4248263", "name": "b58b8ebb4e3ad089e0e802a8b4248263", "type": "electric_scooter", "lon": -77.0674825, "rental_uris": {"android": "https://dc.lft.to/lastmile_qr_scan", "ios": "https://dc.lft.to/lastmile_qr_scan"}, "lat": 38.94979383333333, "is_reserved": 0, "is_disabled": 0, "fusion_lat": 0.0}, {"fusion_lon": 0.0, "bike_id": "96b71cb24ccad622e1b0ea076c283f1a", "name": "96b71cb24ccad622e1b0ea076c283f1a", "type": "electric_scooter", "lon": -76.97337233333333, "rental_uris": {"android": "https://dc.lft.to/lastmile_qr_scan", "ios": "https://dc.lft.to/lastmile_qr_scan"}, "lat": 38.865140333333336, "is_reserved": 0, "is_disabled": 0, "fusion_lat": 0.0}, {"fusion_lon": 0.0, "bike_id": "ae5b4d69e3425823477fcbd7452e7979", "name": "ae5b4d69e3425823477fcbd7452e7979", "type": "electric_scooter", "lon": -77.041749, "rental_uris": {"android": "https://dc.lft.to/lastmile_qr_scan", "ios": "https://dc.lft.to/lastmile_qr_scan"}, "lat": 38.915486, "is_reserved": 0, "is_disabled": 0, "fusion_lat": 0.0}, {"fusion_lon": 0.0, "bike_id": "fa43046ec284ff931747e12a3c220831", "name": "fa43046ec284ff931747e12a3c220831", "type": "electric_scooter", "lon": -77.05820616666666, "rental_uris": {"android": "https://dc.lft.to/lastmile_qr_scan", "ios": "https://dc.lft.to/lastmile_qr_scan"}, "lat": 38.93536066666667, "is_reserved": 0, "is_disabled": 0, "fusion_lat": 0.0}, {"fusion_lon": 0.0, "bike_id": "e63b0cf7fb5061dd957e181d9b3ac4b6", "name": "e63b0cf7fb5061dd957e181d9b3ac4b6", "type": "electric_scooter", "lon": -77.02688133333334, "rental_uris": {"android": "https://dc.lft.to/lastmile_qr_scan", "ios": "https://dc.lft.to/lastmile_qr_scan"}, "lat": 38.90871516666667, "is_reserved": 0, "is_disabled": 0, "fusion_lat": 0.0}, {"fusion_lon": 0.0, "bike_id": "2a27b520c875fe08266db61e643f75d4", "name": "2a27b520c875fe08266db61e643f75d4", "type": "electric_scooter", "lon": -77.034459, "rental_uris": {"android": "https://dc.lft.to/lastmile_qr_scan", "ios": "https://dc.lft.to/lastmile_qr_scan"}, "lat": 38.90675566666667, "is_reserved": 0, "is_disabled": 0, "fusion_lat": 0.0}, {"fusion_lon": 0.0, "bike_id": "dbab039c43e5bd441e2a7362aec8f492", "name": "dbab039c43e5bd441e2a7362aec8f492", "type": "electric_scooter", "lon": -77.01691966666667, "rental_uris": {"android": "https://dc.lft.to/lastmile_qr_scan", "ios": "https://dc.lft.to/lastmile_qr_scan"}, "lat": 38.974971333333336, "is_reserved": 0, "is_disabled": 0, "fusion_lat": 0.0}, {"fusion_lon": 0.0, "bike_id": "ad5a37591b6e49064bf8d6a5b4da3646", "name": "ad5a37591b6e49064bf8d6a5b4da3646", "type": "electric_scooter", "lon": -77.01695783333334, "rental_uris": {"android": "https://dc.lft.to/lastmile_qr_scan", "ios": "https://dc.lft.to/lastmile_qr_scan"}, "lat": 38.9750175, "is_reserved": 0, "is_disabled": 0, "fusion_lat": 0.0}, {"fusion_lon": 0.0, "bike_id": "280f597b4f309194bf25a179ca54caf6", "name": "280f597b4f309194bf25a179ca54caf6", "type": "electric_scooter", "lon": -77.0215555, "rental_uris": {"android": "https://dc.lft.to/lastmile_qr_scan", "ios": "https://dc.lft.to/lastmile_qr_scan"}, "lat": 38.92603533333333, "is_reserved": 0, "is_disabled": 0, "fusion_lat": 0.0}, {"fusion_lon": 0.0, "bike_id": "4408043f2cb3b1c6ff641879aa54869c", "name": "4408043f2cb3b1c6ff641879aa54869c", "type": "electric_bike", "lon": -76.95469833333334, "rental_uris": {"android": "https://dc.lft.to/lastmile_qr_scan", "ios": "https://dc.lft.to/lastmile_qr_scan"}, "lat": 38.93563116666667, "is_reserved": 0, "is_disabled": 0, "fusion_lat": 0.0}, {"fusion_lon": 0.0, "bike_id": "7f3eac0f39b6702bd6454f383737b29e", "name": "7f3eac0f39b6702bd6454f383737b29e", "type": "electric_scooter", "lon": -77.00451883333334, "rental_uris": {"android": "https://dc.lft.to/lastmile_qr_scan", "ios": "https://dc.lft.to/lastmile_qr_scan"}, "lat": 38.87652633333333, "is_reserved": 0, "is_disabled": 0, "fusion_lat": 0.0}, {"fusion_lon": 0.0, "bike_id": "7d065e4d7d6c918044fbfcbe992ba31b", "name": "7d065e4d7d6c918044fbfcbe992ba31b", "type": "electric_scooter", "lon": -77.07228916666666, "rental_uris": {"android": "https://dc.lft.to/lastmile_qr_scan", "ios": "https://dc.lft.to/lastmile_qr_scan"}, "lat": 38.93457683333333, "is_reserved": 0, "is_disabled": 0, "fusion_lat": 0.0}, {"fusion_lon": 0.0, "bike_id": "1eb22e19f9ad2ecd1fd48dfba6cfdc3b", "name": "1eb22e19f9ad2ecd1fd48dfba6cfdc3b", "type": "electric_scooter", "lon": -77.02334683333333, "rental_uris": {"android": "https://dc.lft.to/lastmile_qr_scan", "ios": "https://dc.lft.to/lastmile_qr_scan"}, "lat": 38.91561466666667, "is_reserved": 0, "is_disabled": 0, "fusion_lat": 0.0}, {"fusion_lon": 0.0, "bike_id": "feb584c5fe40727d3558ec373a785fec", "name": "feb584c5fe40727d3558ec373a785fec", "type": "electric_scooter", "lon": -77.00195783333334, "rental_uris": {"android": "https://dc.lft.to/lastmile_qr_scan", "ios": "https://dc.lft.to/lastmile_qr_scan"}, "lat": 38.902302, "is_reserved": 0, "is_disabled": 0, "fusion_lat": 0.0}, {"fusion_lon": 0.0, "bike_id": "8fc2810d2910c931d152e04e48c4fc72", "name": "8fc2810d2910c931d152e04e48c4fc72", "type": "electric_scooter", "lon": -76.97609983333334, "rental_uris": {"android": "https://dc.lft.to/lastmile_qr_scan", "ios": "https://dc.lft.to/lastmile_qr_scan"}, "lat": 38.93144483333333, "is_reserved": 0, "is_disabled": 0, "fusion_lat": 0.0}, {"fusion_lon": 0.0, "bike_id": "635a98377fd800d017352dfebbd5c6c4", "name": "635a98377fd800d017352dfebbd5c6c4", "type": "electric_scooter", "lon": -76.990555, "rental_uris": {"android": "https://dc.lft.to/lastmile_qr_scan", "ios": "https://dc.lft.to/lastmile_qr_scan"}, "lat": 38.85898666666667, "is_reserved": 0, "is_disabled": 0, "fusion_lat": 0.0}, {"fusion_lon": 0.0, "bike_id": "1874e385a4d5d928c20902ce4f8d129d", "name": "1874e385a4d5d928c20902ce4f8d129d", "type": "electric_scooter", "lon": -77.01989516666667, "rental_uris": {"android": "https://dc.lft.to/lastmile_qr_scan", "ios": "https://dc.lft.to/lastmile_qr_scan"}, "lat": 38.883539, "is_reserved": 0, "is_disabled": 0, "fusion_lat": 0.0}, {"fusion_lon": 0.0, "bike_id": "ca1ce38210c39b5ad1c415652b7c4bb3", "name": "ca1ce38210c39b5ad1c415652b7c4bb3", "type": "electric_scooter", "lon": -77.037272, "rental_uris": {"android": "https://dc.lft.to/lastmile_qr_scan", "ios": "https://dc.lft.to/lastmile_qr_scan"}, "lat": 38.92656183333333, "is_reserved": 0, "is_disabled": 0, "fusion_lat": 0.0}, {"fusion_lon": 0.0, "bike_id": "7046381c408a3405b79e37faf725d749", "name": "7046381c408a3405b79e37faf725d749", "type": "electric_scooter", "lon": -76.97727166666667, "rental_uris": {"android": "https://dc.lft.to/lastmile_qr_scan", "ios": "https://dc.lft.to/lastmile_qr_scan"}, "lat": 38.87243933333333, "is_reserved": 0, "is_disabled": 0, "fusion_lat": 0.0}, {"fusion_lon": 0.0, "bike_id": "22358975996195f76d3686e23708f1b5", "name": "22358975996195f76d3686e23708f1b5", "type": "electric_scooter", "lon": -77.05755616666667, "rental_uris": {"android": "https://dc.lft.to/lastmile_qr_scan", "ios": "https://dc.lft.to/lastmile_qr_scan"}, "lat": 38.924161166666664, "is_reserved": 0, "is_disabled": 0, "fusion_lat": 0.0}, {"fusion_lon": 0.0, "bike_id": "939bfb129f3d1a1476199d8b7e89e9e2", "name": "939bfb129f3d1a1476199d8b7e89e9e2", "type": "electric_scooter", "lon": -77.02393183333334, "rental_uris": {"android": "https://dc.lft.to/lastmile_qr_scan", "ios": "https://dc.lft.to/lastmile_qr_scan"}, "lat": 38.919581, "is_reserved": 0, "is_disabled": 0, "fusion_lat": 0.0}, {"fusion_lon": 0.0, "bike_id": "cd2c9404e7424767a1040e57d32c79f2", "name": "cd2c9404e7424767a1040e57d32c79f2", "type": "electric_scooter", "lon": -77.04145733333333, "rental_uris": {"android": "https://dc.lft.to/lastmile_qr_scan", "ios": "https://dc.lft.to/lastmile_qr_scan"}, "lat": 38.91969533333334, "is_reserved": 0, "is_disabled": 0, "fusion_lat": 0.0}, {"fusion_lon": 0.0, "bike_id": "895146af4dea51de563dd01e88368b6d", "name": "895146af4dea51de563dd01e88368b6d", "type": "electric_scooter", "lon": -77.02599383333333, "rental_uris": {"android": "https://dc.lft.to/lastmile_qr_scan", "ios": "https://dc.lft.to/lastmile_qr_scan"}, "lat": 38.8999815, "is_reserved": 0, "is_disabled": 0, "fusion_lat": 0.0}, {"fusion_lon": 0.0, "bike_id": "1d267754c29b863f530242b505e260bc", "name": "1d267754c29b863f530242b505e260bc", "type": "electric_scooter", "lon": -77.0041195, "rental_uris": {"android": "https://dc.lft.to/lastmile_qr_scan", "ios": "https://dc.lft.to/lastmile_qr_scan"}, "lat": 38.911268666666665, "is_reserved": 0, "is_disabled": 0, "fusion_lat": 0.0}, {"fusion_lon": 0.0, "bike_id": "afa10c8cb8f674ae50506fd74436ad1b", "name": "afa10c8cb8f674ae50506fd74436ad1b", "type": "electric_scooter", "lon": -77.03087783333334, "rental_uris": {"android": "https://dc.lft.to/lastmile_qr_scan", "ios": "https://dc.lft.to/lastmile_qr_scan"}, "lat": 38.9467515, "is_reserved": 0, "is_disabled": 0, "fusion_lat": 0.0}, {"fusion_lon": 0.0, "bike_id": "187a71bb9f130c4852306b9b39225ca5", "name": "187a71bb9f130c4852306b9b39225ca5", "type": "electric_scooter", "lon": -77.02958633333333, "rental_uris": {"android": "https://dc.lft.to/lastmile_qr_scan", "ios": "https://dc.lft.to/lastmile_qr_scan"}, "lat": 38.9214485, "is_reserved": 0, "is_disabled": 0, "fusion_lat": 0.0}, {"fusion_lon": 0.0, "bike_id": "9b72986dcd36056ba9daee6a8a67d50e", "name": "9b72986dcd36056ba9daee6a8a67d50e", "type": "electric_scooter", "lon": -76.9856505, "rental_uris": {"android": "https://dc.lft.to/lastmile_qr_scan", "ios": "https://dc.lft.to/lastmile_qr_scan"}, "lat": 38.860591166666666, "is_reserved": 0, "is_disabled": 0, "fusion_lat": 0.0}, {"fusion_lon": 0.0, "bike_id": "1b006939c314a13bc440b53d0a9ade7d", "name": "1b006939c314a13bc440b53d0a9ade7d", "type": "electric_scooter", "lon": -77.03479183333333, "rental_uris": {"android": "https://dc.lft.to/lastmile_qr_scan", "ios": "https://dc.lft.to/lastmile_qr_scan"}, "lat": 38.91118916666667, "is_reserved": 0, "is_disabled": 0, "fusion_lat": 0.0}, {"fusion_lon": 0.0, "bike_id": "d090c13e23f13af87b775a0bc56d9821", "name": "d090c13e23f13af87b775a0bc56d9821", "type": "electric_bike", "lon": -76.99074983333334, "rental_uris": {"android": "https://dc.lft.to/lastmile_qr_scan", "ios": "https://dc.lft.to/lastmile_qr_scan"}, "lat": 38.898166333333336, "is_reserved": 0, "is_disabled": 0, "fusion_lat": 0.0}, {"fusion_lon": 0.0, "bike_id": "059de3940fd43d7cfa3dfd1e028b88a2", "name": "059de3940fd43d7cfa3dfd1e028b88a2", "type": "electric_scooter", "lon": -77.04320383333334, "rental_uris": {"android": "https://dc.lft.to/lastmile_qr_scan", "ios": "https://dc.lft.to/lastmile_qr_scan"}, "lat": 38.91455333333333, "is_reserved": 0, "is_disabled": 0, "fusion_lat": 0.0}, {"fusion_lon": 0.0, "bike_id": "d9ed917f4ba1faa28b257ecdd961dcfa", "name": "d9ed917f4ba1faa28b257ecdd961dcfa", "type": "electric_scooter", "lon": -77.04817816666667, "rental_uris": {"android": "https://dc.lft.to/lastmile_qr_scan", "ios": "https://dc.lft.to/lastmile_qr_scan"}, "lat": 38.914914, "is_reserved": 0, "is_disabled": 0, "fusion_lat": 0.0}, {"fusion_lon": 0.0, "bike_id": "5bc98b9b32cc183004f815c7ca4bfa1f", "name": "5bc98b9b32cc183004f815c7ca4bfa1f", "type": "electric_scooter", "lon": -77.02667683333334, "rental_uris": {"android": "https://dc.lft.to/lastmile_qr_scan", "ios": "https://dc.lft.to/lastmile_qr_scan"}, "lat": 38.902392166666665, "is_reserved": 0, "is_disabled": 0, "fusion_lat": 0.0}, {"fusion_lon": 0.0, "bike_id": "7392d51f046ca525d2711a34333b77e4", "name": "7392d51f046ca525d2711a34333b77e4", "type": "electric_scooter", "lon": -77.00699066666667, "rental_uris": {"android": "https://dc.lft.to/lastmile_qr_scan", "ios": "https://dc.lft.to/lastmile_qr_scan"}, "lat": 38.87700516666666, "is_reserved": 0, "is_disabled": 0, "fusion_lat": 0.0}, {"fusion_lon": 0.0, "bike_id": "b83034c4991a50aec91838ddecd1048f", "name": "b83034c4991a50aec91838ddecd1048f", "type": "electric_scooter", "lon": -76.99057633333334, "rental_uris": {"android": "https://dc.lft.to/lastmile_qr_scan", "ios": "https://dc.lft.to/lastmile_qr_scan"}, "lat": 38.863649, "is_reserved": 0, "is_disabled": 0, "fusion_lat": 0.0}, {"fusion_lon": 0.0, "bike_id": "5c6a3916971b123e678876678c0698f9", "name": "5c6a3916971b123e678876678c0698f9", "type": "electric_scooter", "lon": -77.0336465, "rental_uris": {"android": "https://dc.lft.to/lastmile_qr_scan", "ios": "https://dc.lft.to/lastmile_qr_scan"}, "lat": 38.90974333333333, "is_reserved": 0, "is_disabled": 0, "fusion_lat": 0.0}, {"fusion_lon": 0.0, "bike_id": "1c175e6b71776bc6ef2fa39f9f479123", "name": "1c175e6b71776bc6ef2fa39f9f479123", "type": "electric_scooter", "lon": -76.99351116666666, "rental_uris": {"android": "https://dc.lft.to/lastmile_qr_scan", "ios": "https://dc.lft.to/lastmile_qr_scan"}, "lat": 38.89610716666667, "is_reserved": 0, "is_disabled": 0, "fusion_lat": 0.0}, {"fusion_lon": 0.0, "bike_id": "44aca9f72eeb5dff80c85eee69583b6c", "name": "44aca9f72eeb5dff80c85eee69583b6c", "type": "electric_scooter", "lon": -77.0511575, "rental_uris": {"android": "https://dc.lft.to/lastmile_qr_scan", "ios": "https://dc.lft.to/lastmile_qr_scan"}, "lat": 38.92344766666667, "is_reserved": 0, "is_disabled": 0, "fusion_lat": 0.0}, {"fusion_lon": 0.0, "bike_id": "4bcbbf57f8d5e901e7d4381d4f88655a", "name": "4bcbbf57f8d5e901e7d4381d4f88655a", "type": "electric_scooter", "lon": -77.0274525, "rental_uris": {"android": "https://dc.lft.to/lastmile_qr_scan", "ios": "https://dc.lft.to/lastmile_qr_scan"}, "lat": 38.932007166666665, "is_reserved": 0, "is_disabled": 0, "fusion_lat": 0.0}, {"fusion_lon": 0.0, "bike_id": "4c81c6312070fad3e20cf28b209b9a1b", "name": "4c81c6312070fad3e20cf28b209b9a1b", "type": "electric_scooter", "lon": -77.0516225, "rental_uris": {"android": "https://dc.lft.to/lastmile_qr_scan", "ios": "https://dc.lft.to/lastmile_qr_scan"}, "lat": 38.9008775, "is_reserved": 0, "is_disabled": 0, "fusion_lat": 0.0}, {"fusion_lon": 0.0, "bike_id": "d0b7680703d4000cfd29c9c2d0c6f75f", "name": "d0b7680703d4000cfd29c9c2d0c6f75f", "type": "electric_scooter", "lon": -76.9963875, "rental_uris": {"android": "https://dc.lft.to/lastmile_qr_scan", "ios": "https://dc.lft.to/lastmile_qr_scan"}, "lat": 38.9325815, "is_reserved": 0, "is_disabled": 0, "fusion_lat": 0.0}, {"fusion_lon": 0.0, "bike_id": "02f3b8c8f0944c8aa70a817237668fbc", "name": "02f3b8c8f0944c8aa70a817237668fbc", "type": "electric_scooter", "lon": -77.0281035, "rental_uris": {"android": "https://dc.lft.to/lastmile_qr_scan", "ios": "https://dc.lft.to/lastmile_qr_scan"}, "lat": 38.916348666666664, "is_reserved": 0, "is_disabled": 0, "fusion_lat": 0.0}, {"fusion_lon": 0.0, "bike_id": "bc7b424355c2cdf82b5ae3e1e6044deb", "name": "bc7b424355c2cdf82b5ae3e1e6044deb", "type": "electric_scooter", "lon": -77.010093, "rental_uris": {"android": "https://dc.lft.to/lastmile_qr_scan", "ios": "https://dc.lft.to/lastmile_qr_scan"}, "lat": 38.879653166666664, "is_reserved": 0, "is_disabled": 0, "fusion_lat": 0.0}, {"fusion_lon": 0.0, "bike_id": "fe1572027f5b5345b84f0f6fee33a497", "name": "fe1572027f5b5345b84f0f6fee33a497", "type": "electric_scooter", "lon": -77.02959883333334, "rental_uris": {"android": "https://dc.lft.to/lastmile_qr_scan", "ios": "https://dc.lft.to/lastmile_qr_scan"}, "lat": 38.90477683333334, "is_reserved": 0, "is_disabled": 0, "fusion_lat": 0.0}, {"fusion_lon": 0.0, "bike_id": "25376fec4031db5f831bfac2f3e18f4b", "name": "25376fec4031db5f831bfac2f3e18f4b", "type": "electric_scooter", "lon": -76.9654185, "rental_uris": {"android": "https://dc.lft.to/lastmile_qr_scan", "ios": "https://dc.lft.to/lastmile_qr_scan"}, "lat": 38.918750833333334, "is_reserved": 0, "is_disabled": 0, "fusion_lat": 0.0}, {"fusion_lon": 0.0, "bike_id": "bfa2938a91fd2d657b151cc38393b868", "name": "bfa2938a91fd2d657b151cc38393b868", "type": "electric_scooter", "lon": -77.022224, "rental_uris": {"android": "https://dc.lft.to/lastmile_qr_scan", "ios": "https://dc.lft.to/lastmile_qr_scan"}, "lat": 38.9354675, "is_reserved": 0, "is_disabled": 0, "fusion_lat": 0.0}, {"fusion_lon": 0.0, "bike_id": "6edaa84d892f13b3c2e6cdbdbd4da11f", "name": "6edaa84d892f13b3c2e6cdbdbd4da11f", "type": "electric_scooter", "lon": -77.01258633333333, "rental_uris": {"android": "https://dc.lft.to/lastmile_qr_scan", "ios": "https://dc.lft.to/lastmile_qr_scan"}, "lat": 38.87628466666666, "is_reserved": 0, "is_disabled": 0, "fusion_lat": 0.0}, {"fusion_lon": 0.0, "bike_id": "895d00425898ae87085b5c3155ab5b49", "name": "895d00425898ae87085b5c3155ab5b49", "type": "electric_scooter", "lon": -77.01223816666666, "rental_uris": {"android": "https://dc.lft.to/lastmile_qr_scan", "ios": "https://dc.lft.to/lastmile_qr_scan"}, "lat": 38.86719983333333, "is_reserved": 0, "is_disabled": 0, "fusion_lat": 0.0}, {"fusion_lon": 0.0, "bike_id": "cd3b3d737596c941da43ec085070cf0f", "name": "cd3b3d737596c941da43ec085070cf0f", "type": "electric_scooter", "lon": -77.02756866666667, "rental_uris": {"android": "https://dc.lft.to/lastmile_qr_scan", "ios": "https://dc.lft.to/lastmile_qr_scan"}, "lat": 38.95416866666667, "is_reserved": 0, "is_disabled": 0, "fusion_lat": 0.0}, {"fusion_lon": 0.0, "bike_id": "53a3b44aa2ece593ca33865ef8b4431a", "name": "53a3b44aa2ece593ca33865ef8b4431a", "type": "electric_scooter", "lon": -77.04019183333334, "rental_uris": {"android": "https://dc.lft.to/lastmile_qr_scan", "ios": "https://dc.lft.to/lastmile_qr_scan"}, "lat": 38.91329433333333, "is_reserved": 0, "is_disabled": 0, "fusion_lat": 0.0}, {"fusion_lon": 0.0, "bike_id": "2e99e91e1ee903aeeb3a65c81dedb021", "name": "2e99e91e1ee903aeeb3a65c81dedb021", "type": "electric_bike", "lon": -76.93410533333333, "rental_uris": {"android": "https://dc.lft.to/lastmile_qr_scan", "ios": "https://dc.lft.to/lastmile_qr_scan"}, "lat": 38.94624666666667, "is_reserved": 0, "is_disabled": 0, "fusion_lat": 0.0}, {"fusion_lon": 0.0, "bike_id": "7311cc6c2367e6c3d7d9281e9dcc6b11", "name": "7311cc6c2367e6c3d7d9281e9dcc6b11", "type": "electric_scooter", "lon": -77.022971, "rental_uris": {"android": "https://dc.lft.to/lastmile_qr_scan", "ios": "https://dc.lft.to/lastmile_qr_scan"}, "lat": 38.9183165, "is_reserved": 0, "is_disabled": 0, "fusion_lat": 0.0}, {"fusion_lon": 0.0, "bike_id": "024082d6e148d7b4aa291e57847469ac", "name": "024082d6e148d7b4aa291e57847469ac", "type": "electric_scooter", "lon": -77.02955866666667, "rental_uris": {"android": "https://dc.lft.to/lastmile_qr_scan", "ios": "https://dc.lft.to/lastmile_qr_scan"}, "lat": 38.892247166666664, "is_reserved": 0, "is_disabled": 0, "fusion_lat": 0.0}, {"fusion_lon": 0.0, "bike_id": "57f236cbaac4e34661b0f3a6012e69f9", "name": "57f236cbaac4e34661b0f3a6012e69f9", "type": "electric_scooter", "lon": -77.048639, "rental_uris": {"android": "https://dc.lft.to/lastmile_qr_scan", "ios": "https://dc.lft.to/lastmile_qr_scan"}, "lat": 38.90076833333333, "is_reserved": 0, "is_disabled": 0, "fusion_lat": 0.0}, {"fusion_lon": 0.0, "bike_id": "f7d1ddfb1bb2586e4d51bc6f03ddbc1b", "name": "f7d1ddfb1bb2586e4d51bc6f03ddbc1b", "type": "electric_scooter", "lon": -77.023984, "rental_uris": {"android": "https://dc.lft.to/lastmile_qr_scan", "ios": "https://dc.lft.to/lastmile_qr_scan"}, "lat": 38.905822666666666, "is_reserved": 0, "is_disabled": 0, "fusion_lat": 0.0}, {"fusion_lon": 0.0, "bike_id": "96411ad46ff5a82411f3f7bb14d0a86e", "name": "96411ad46ff5a82411f3f7bb14d0a86e", "type": "electric_scooter", "lon": -77.0317275, "rental_uris": {"android": "https://dc.lft.to/lastmile_qr_scan", "ios": "https://dc.lft.to/lastmile_qr_scan"}, "lat": 38.919114666666665, "is_reserved": 0, "is_disabled": 0, "fusion_lat": 0.0}, {"fusion_lon": 0.0, "bike_id": "3e0169777f9f316a8c9827104f9e0c39", "name": "3e0169777f9f316a8c9827104f9e0c39", "type": "electric_scooter", "lon": -77.02708316666667, "rental_uris": {"android": "https://dc.lft.to/lastmile_qr_scan", "ios": "https://dc.lft.to/lastmile_qr_scan"}, "lat": 38.88142716666667, "is_reserved": 0, "is_disabled": 0, "fusion_lat": 0.0}, {"fusion_lon": 0.0, "bike_id": "4d5e91bcbd22108e6ccfd816e689e2e3", "name": "4d5e91bcbd22108e6ccfd816e689e2e3", "type": "electric_scooter", "lon": -77.03348716666666, "rental_uris": {"android": "https://dc.lft.to/lastmile_qr_scan", "ios": "https://dc.lft.to/lastmile_qr_scan"}, "lat": 38.922367333333334, "is_reserved": 0, "is_disabled": 0, "fusion_lat": 0.0}, {"fusion_lon": 0.0, "bike_id": "cb86bc0e83f0363281a6425c48f798b5", "name": "cb86bc0e83f0363281a6425c48f798b5", "type": "electric_scooter", "lon": -77.04156266666666, "rental_uris": {"android": "https://dc.lft.to/lastmile_qr_scan", "ios": "https://dc.lft.to/lastmile_qr_scan"}, "lat": 38.90927883333333, "is_reserved": 0, "is_disabled": 0, "fusion_lat": 0.0}, {"fusion_lon": 0.0, "bike_id": "fe2e5d47dbac23a95b10f7ea90289ba3", "name": "fe2e5d47dbac23a95b10f7ea90289ba3", "type": "electric_scooter", "lon": -77.023711, "rental_uris": {"android": "https://dc.lft.to/lastmile_qr_scan", "ios": "https://dc.lft.to/lastmile_qr_scan"}, "lat": 38.9073825, "is_reserved": 0, "is_disabled": 0, "fusion_lat": 0.0}, {"fusion_lon": 0.0, "bike_id": "5673ee818b3ea37ae48ca590840d5731", "name": "5673ee818b3ea37ae48ca590840d5731", "type": "electric_scooter", "lon": -77.00753433333334, "rental_uris": {"android": "https://dc.lft.to/lastmile_qr_scan", "ios": "https://dc.lft.to/lastmile_qr_scan"}, "lat": 38.91547666666666, "is_reserved": 0, "is_disabled": 0, "fusion_lat": 0.0}, {"fusion_lon": 0.0, "bike_id": "c673832126c1e2975b60d2d1cd6dad24", "name": "c673832126c1e2975b60d2d1cd6dad24", "type": "electric_scooter", "lon": -77.03855566666667, "rental_uris": {"android": "https://dc.lft.to/lastmile_qr_scan", "ios": "https://dc.lft.to/lastmile_qr_scan"}, "lat": 38.91075166666667, "is_reserved": 0, "is_disabled": 0, "fusion_lat": 0.0}, {"fusion_lon": 0.0, "bike_id": "76faae1008900c80f45ac6e473d4a9eb", "name": "76faae1008900c80f45ac6e473d4a9eb", "type": "electric_scooter", "lon": -76.99813533333334, "rental_uris": {"android": "https://dc.lft.to/lastmile_qr_scan", "ios": "https://dc.lft.to/lastmile_qr_scan"}, "lat": 38.844339166666664, "is_reserved": 0, "is_disabled": 0, "fusion_lat": 0.0}, {"fusion_lon": 0.0, "bike_id": "96d9ddf6ae57487be398a05ee3589984", "name": "96d9ddf6ae57487be398a05ee3589984", "type": "electric_scooter", "lon": -76.98854266666666, "rental_uris": {"android": "https://dc.lft.to/lastmile_qr_scan", "ios": "https://dc.lft.to/lastmile_qr_scan"}, "lat": 38.90704433333333, "is_reserved": 0, "is_disabled": 0, "fusion_lat": 0.0}, {"fusion_lon": 0.0, "bike_id": "ac78f97c08746da6acac0280e718c72d", "name": "ac78f97c08746da6acac0280e718c72d", "type": "electric_bike", "lon": -77.12625033333333, "rental_uris": {"android": "https://dc.lft.to/lastmile_qr_scan", "ios": "https://dc.lft.to/lastmile_qr_scan"}, "lat": 39.05814, "is_reserved": 0, "is_disabled": 0, "fusion_lat": 0.0}, {"fusion_lon": 0.0, "bike_id": "a7cf8a5d6dd29106bec9be15723d73b2", "name": "a7cf8a5d6dd29106bec9be15723d73b2", "type": "electric_scooter", "lon": -77.02799666666667, "rental_uris": {"android": "https://dc.lft.to/lastmile_qr_scan", "ios": "https://dc.lft.to/lastmile_qr_scan"}, "lat": 38.91681766666667, "is_reserved": 0, "is_disabled": 0, "fusion_lat": 0.0}, {"fusion_lon": 0.0, "bike_id": "49304319fe840d6cfec344bd34415e5b", "name": "49304319fe840d6cfec344bd34415e5b", "type": "electric_scooter", "lon": -77.01993933333334, "rental_uris": {"android": "https://dc.lft.to/lastmile_qr_scan", "ios": "https://dc.lft.to/lastmile_qr_scan"}, "lat": 38.96623833333334, "is_reserved": 0, "is_disabled": 0, "fusion_lat": 0.0}, {"fusion_lon": 0.0, "bike_id": "b00d921ea8e1f1ba3e998d0af3ea6a04", "name": "b00d921ea8e1f1ba3e998d0af3ea6a04", "type": "electric_bike", "lon": -76.94800933333333, "rental_uris": {"android": "https://dc.lft.to/lastmile_qr_scan", "ios": "https://dc.lft.to/lastmile_qr_scan"}, "lat": 38.861897, "is_reserved": 0, "is_disabled": 0, "fusion_lat": 0.0}, {"fusion_lon": 0.0, "bike_id": "89289ec5f6aae5df06e45caae657904b", "name": "89289ec5f6aae5df06e45caae657904b", "type": "electric_scooter", "lon": -77.02119033333334, "rental_uris": {"android": "https://dc.lft.to/lastmile_qr_scan", "ios": "https://dc.lft.to/lastmile_qr_scan"}, "lat": 38.894919333333334, "is_reserved": 0, "is_disabled": 0, "fusion_lat": 0.0}, {"fusion_lon": 0.0, "bike_id": "92803dd739a48c4e98e3faa82492490d", "name": "92803dd739a48c4e98e3faa82492490d", "type": "electric_bike", "lon": -76.98009783333333, "rental_uris": {"android": "https://dc.lft.to/lastmile_qr_scan", "ios": "https://dc.lft.to/lastmile_qr_scan"}, "lat": 38.853250833333334, "is_reserved": 0, "is_disabled": 0, "fusion_lat": 0.0}, {"fusion_lon": 0.0, "bike_id": "c8aa237194a0c296237bb4dc32518e0f", "name": "c8aa237194a0c296237bb4dc32518e0f", "type": "electric_scooter", "lon": -77.0280305, "rental_uris": {"android": "https://dc.lft.to/lastmile_qr_scan", "ios": "https://dc.lft.to/lastmile_qr_scan"}, "lat": 38.91101183333333, "is_reserved": 0, "is_disabled": 0, "fusion_lat": 0.0}, {"fusion_lon": 0.0, "bike_id": "7e5fca65795d108a6a81b2da4bdb42c6", "name": "7e5fca65795d108a6a81b2da4bdb42c6", "type": "electric_scooter", "lon": -77.03862183333334, "rental_uris": {"android": "https://dc.lft.to/lastmile_qr_scan", "ios": "https://dc.lft.to/lastmile_qr_scan"}, "lat": 38.9155955, "is_reserved": 0, "is_disabled": 0, "fusion_lat": 0.0}, {"fusion_lon": 0.0, "bike_id": "2d84f53327ebae456b6e1803cdbcb34d", "name": "2d84f53327ebae456b6e1803cdbcb34d", "type": "electric_scooter", "lon": -77.0326355, "rental_uris": {"android": "https://dc.lft.to/lastmile_qr_scan", "ios": "https://dc.lft.to/lastmile_qr_scan"}, "lat": 38.93260183333334, "is_reserved": 0, "is_disabled": 0, "fusion_lat": 0.0}, {"fusion_lon": 0.0, "bike_id": "4a7c7474143e4b1757694c55951772bd", "name": "4a7c7474143e4b1757694c55951772bd", "type": "electric_scooter", "lon": -77.04165933333333, "rental_uris": {"android": "https://dc.lft.to/lastmile_qr_scan", "ios": "https://dc.lft.to/lastmile_qr_scan"}, "lat": 38.9200655, "is_reserved": 0, "is_disabled": 0, "fusion_lat": 0.0}, {"fusion_lon": 0.0, "bike_id": "d22b40b5305157534d901ba6af1b9860", "name": "d22b40b5305157534d901ba6af1b9860", "type": "electric_scooter", "lon": -77.03420983333334, "rental_uris": {"android": "https://dc.lft.to/lastmile_qr_scan", "ios": "https://dc.lft.to/lastmile_qr_scan"}, "lat": 38.9072915, "is_reserved": 0, "is_disabled": 0, "fusion_lat": 0.0}, {"fusion_lon": 0.0, "bike_id": "10ae446e49a9201e99ac36662e8da569", "name": "10ae446e49a9201e99ac36662e8da569", "type": "electric_scooter", "lon": -77.03204083333334, "rental_uris": {"android": "https://dc.lft.to/lastmile_qr_scan", "ios": "https://dc.lft.to/lastmile_qr_scan"}, "lat": 38.90785533333333, "is_reserved": 0, "is_disabled": 0, "fusion_lat": 0.0}, {"fusion_lon": 0.0, "bike_id": "57fc674cd5fe241c3a797fc69506f59d", "name": "57fc674cd5fe241c3a797fc69506f59d", "type": "electric_scooter", "lon": -77.01101083333333, "rental_uris": {"android": "https://dc.lft.to/lastmile_qr_scan", "ios": "https://dc.lft.to/lastmile_qr_scan"}, "lat": 38.90968483333333, "is_reserved": 0, "is_disabled": 0, "fusion_lat": 0.0}, {"fusion_lon": 0.0, "bike_id": "80e832a2be00998c94d371e793404d7c", "name": "80e832a2be00998c94d371e793404d7c", "type": "electric_scooter", "lon": -77.02351533333334, "rental_uris": {"android": "https://dc.lft.to/lastmile_qr_scan", "ios": "https://dc.lft.to/lastmile_qr_scan"}, "lat": 38.935345166666664, "is_reserved": 0, "is_disabled": 0, "fusion_lat": 0.0}, {"fusion_lon": 0.0, "bike_id": "d728efdf14d06365c8d562e3c5bfa512", "name": "d728efdf14d06365c8d562e3c5bfa512", "type": "electric_scooter", "lon": -77.03103733333333, "rental_uris": {"android": "https://dc.lft.to/lastmile_qr_scan", "ios": "https://dc.lft.to/lastmile_qr_scan"}, "lat": 38.92022083333333, "is_reserved": 0, "is_disabled": 0, "fusion_lat": 0.0}, {"fusion_lon": 0.0, "bike_id": "c805447d27b17337d8c22c2a84850a0c", "name": "c805447d27b17337d8c22c2a84850a0c", "type": "electric_scooter", "lon": -77.03199, "rental_uris": {"android": "https://dc.lft.to/lastmile_qr_scan", "ios": "https://dc.lft.to/lastmile_qr_scan"}, "lat": 38.909229333333336, "is_reserved": 0, "is_disabled": 0, "fusion_lat": 0.0}, {"fusion_lon": 0.0, "bike_id": "9a058505c6bcf72d26f6c2a81646a872", "name": "9a058505c6bcf72d26f6c2a81646a872", "type": "electric_scooter", "lon": -77.04579016666666, "rental_uris": {"android": "https://dc.lft.to/lastmile_qr_scan", "ios": "https://dc.lft.to/lastmile_qr_scan"}, "lat": 38.92415833333333, "is_reserved": 0, "is_disabled": 0, "fusion_lat": 0.0}, {"fusion_lon": 0.0, "bike_id": "4c33c12bc29c73c9c7314532dc1d5ccc", "name": "4c33c12bc29c73c9c7314532dc1d5ccc", "type": "electric_scooter", "lon": -76.97820066666667, "rental_uris": {"android": "https://dc.lft.to/lastmile_qr_scan", "ios": "https://dc.lft.to/lastmile_qr_scan"}, "lat": 38.84610266666667, "is_reserved": 0, "is_disabled": 0, "fusion_lat": 0.0}, {"fusion_lon": 0.0, "bike_id": "f2aa354d9554167eb15a7b083bf6bc08", "name": "f2aa354d9554167eb15a7b083bf6bc08", "type": "electric_bike", "lon": -76.94864766666667, "rental_uris": {"android": "https://dc.lft.to/lastmile_qr_scan", "ios": "https://dc.lft.to/lastmile_qr_scan"}, "lat": 38.8896345, "is_reserved": 0, "is_disabled": 0, "fusion_lat": 0.0}, {"fusion_lon": 0.0, "bike_id": "f6b53db24162559cbbc802a608c09560", "name": "f6b53db24162559cbbc802a608c09560", "type": "electric_scooter", "lon": -77.00326333333334, "rental_uris": {"android": "https://dc.lft.to/lastmile_qr_scan", "ios": "https://dc.lft.to/lastmile_qr_scan"}, "lat": 38.902679, "is_reserved": 0, "is_disabled": 0, "fusion_lat": 0.0}, {"fusion_lon": 0.0, "bike_id": "244b98e2d8f8883001b0230f68473f20", "name": "244b98e2d8f8883001b0230f68473f20", "type": "electric_bike", "lon": -76.98519216666666, "rental_uris": {"android": "https://dc.lft.to/lastmile_qr_scan", "ios": "https://dc.lft.to/lastmile_qr_scan"}, "lat": 38.919956666666664, "is_reserved": 0, "is_disabled": 0, "fusion_lat": 0.0}, {"fusion_lon": 0.0, "bike_id": "31c614e9ee867512c47e9fd8bbfd6e49", "name": "31c614e9ee867512c47e9fd8bbfd6e49", "type": "electric_scooter", "lon": -76.99537033333333, "rental_uris": {"android": "https://dc.lft.to/lastmile_qr_scan", "ios": "https://dc.lft.to/lastmile_qr_scan"}, "lat": 38.900288, "is_reserved": 0, "is_disabled": 0, "fusion_lat": 0.0}, {"fusion_lon": 0.0, "bike_id": "e51f9fdc1af7881455b2d4f53d653b3a", "name": "e51f9fdc1af7881455b2d4f53d653b3a", "type": "electric_bike", "lon": -76.98477783333334, "rental_uris": {"android": "https://dc.lft.to/lastmile_qr_scan", "ios": "https://dc.lft.to/lastmile_qr_scan"}, "lat": 38.89144, "is_reserved": 0, "is_disabled": 0, "fusion_lat": 0.0}, {"fusion_lon": 0.0, "bike_id": "ddf217ebcb7c6255c487868221caa480", "name": "ddf217ebcb7c6255c487868221caa480", "type": "electric_scooter", "lon": -77.04099933333333, "rental_uris": {"android": "https://dc.lft.to/lastmile_qr_scan", "ios": "https://dc.lft.to/lastmile_qr_scan"}, "lat": 38.9015445, "is_reserved": 0, "is_disabled": 0, "fusion_lat": 0.0}, {"fusion_lon": 0.0, "bike_id": "2db60239f66187e0a7171dcb7bea37df", "name": "2db60239f66187e0a7171dcb7bea37df", "type": "electric_scooter", "lon": -77.03451966666667, "rental_uris": {"android": "https://dc.lft.to/lastmile_qr_scan", "ios": "https://dc.lft.to/lastmile_qr_scan"}, "lat": 38.918050666666666, "is_reserved": 0, "is_disabled": 0, "fusion_lat": 0.0}, {"fusion_lon": 0.0, "bike_id": "db2fae8869149d931dccae96d54a089b", "name": "db2fae8869149d931dccae96d54a089b", "type": "electric_scooter", "lon": -77.02220366666667, "rental_uris": {"android": "https://dc.lft.to/lastmile_qr_scan", "ios": "https://dc.lft.to/lastmile_qr_scan"}, "lat": 38.91270016666667, "is_reserved": 0, "is_disabled": 0, "fusion_lat": 0.0}, {"fusion_lon": 0.0, "bike_id": "5c065bb549f424ad30683101e211c1a4", "name": "5c065bb549f424ad30683101e211c1a4", "type": "electric_bike", "lon": -76.87777266666667, "rental_uris": {"android": "https://dc.lft.to/lastmile_qr_scan", "ios": "https://dc.lft.to/lastmile_qr_scan"}, "lat": 38.992211166666664, "is_reserved": 0, "is_disabled": 0, "fusion_lat": 0.0}, {"fusion_lon": 0.0, "bike_id": "f388fcd1ee297c6abb36a1730c68dbf2", "name": "f388fcd1ee297c6abb36a1730c68dbf2", "type": "electric_scooter", "lon": -77.02416516666666, "rental_uris": {"android": "https://dc.lft.to/lastmile_qr_scan", "ios": "https://dc.lft.to/lastmile_qr_scan"}, "lat": 38.9182765, "is_reserved": 0, "is_disabled": 0, "fusion_lat": 0.0}, {"fusion_lon": 0.0, "bike_id": "beb53dcdf7e07bee60b1fb4ddb7790e2", "name": "beb53dcdf7e07bee60b1fb4ddb7790e2", "type": "electric_bike", "lon": -76.96386416666667, "rental_uris": {"android": "https://dc.lft.to/lastmile_qr_scan", "ios": "https://dc.lft.to/lastmile_qr_scan"}, "lat": 38.9757955, "is_reserved": 0, "is_disabled": 0, "fusion_lat": 0.0}, {"fusion_lon": 0.0, "bike_id": "3e289f14d2bbf79aef0388045840ed9c", "name": "3e289f14d2bbf79aef0388045840ed9c", "type": "electric_scooter", "lon": -77.03647483333333, "rental_uris": {"android": "https://dc.lft.to/lastmile_qr_scan", "ios": "https://dc.lft.to/lastmile_qr_scan"}, "lat": 38.912129, "is_reserved": 0, "is_disabled": 0, "fusion_lat": 0.0}, {"fusion_lon": 0.0, "bike_id": "1072663d94e942d523155d581f196ca3", "name": "1072663d94e942d523155d581f196ca3", "type": "electric_scooter", "lon": -77.01432816666667, "rental_uris": {"android": "https://dc.lft.to/lastmile_qr_scan", "ios": "https://dc.lft.to/lastmile_qr_scan"}, "lat": 38.91963666666667, "is_reserved": 0, "is_disabled": 0, "fusion_lat": 0.0}, {"fusion_lon": 0.0, "bike_id": "091367a02e4dacf989b3a2d87111cc15", "name": "091367a02e4dacf989b3a2d87111cc15", "type": "electric_scooter", "lon": -77.031716, "rental_uris": {"android": "https://dc.lft.to/lastmile_qr_scan", "ios": "https://dc.lft.to/lastmile_qr_scan"}, "lat": 38.91593233333333, "is_reserved": 0, "is_disabled": 0, "fusion_lat": 0.0}, {"fusion_lon": 0.0, "bike_id": "2e9980b5fb3ee028627c11526e6c07ab", "name": "2e9980b5fb3ee028627c11526e6c07ab", "type": "electric_scooter", "lon": -77.023064, "rental_uris": {"android": "https://dc.lft.to/lastmile_qr_scan", "ios": "https://dc.lft.to/lastmile_qr_scan"}, "lat": 38.918201833333335, "is_reserved": 0, "is_disabled": 0, "fusion_lat": 0.0}, {"fusion_lon": 0.0, "bike_id": "71741d7e7149e1eb891c2c2288ceda61", "name": "71741d7e7149e1eb891c2c2288ceda61", "type": "electric_scooter", "lon": -77.07265133333334, "rental_uris": {"android": "https://dc.lft.to/lastmile_qr_scan", "ios": "https://dc.lft.to/lastmile_qr_scan"}, "lat": 38.91327016666666, "is_reserved": 0, "is_disabled": 0, "fusion_lat": 0.0}, {"fusion_lon": 0.0, "bike_id": "44065aea26b66529516f879307991d01", "name": "44065aea26b66529516f879307991d01", "type": "electric_bike", "lon": -77.09574616666667, "rental_uris": {"android": "https://dc.lft.to/lastmile_qr_scan", "ios": "https://dc.lft.to/lastmile_qr_scan"}, "lat": 38.837899, "is_reserved": 0, "is_disabled": 0, "fusion_lat": 0.0}, {"fusion_lon": 0.0, "bike_id": "d2fce0a5a3103ec89918e71ef8182c27", "name": "d2fce0a5a3103ec89918e71ef8182c27", "type": "electric_scooter", "lon": -76.952097, "rental_uris": {"android": "https://dc.lft.to/lastmile_qr_scan", "ios": "https://dc.lft.to/lastmile_qr_scan"}, "lat": 38.892503166666664, "is_reserved": 0, "is_disabled": 0, "fusion_lat": 0.0}, {"fusion_lon": 0.0, "bike_id": "ee92ae21342c292f2eeca457f2006be3", "name": "ee92ae21342c292f2eeca457f2006be3", "type": "electric_scooter", "lon": -77.00719816666667, "rental_uris": {"android": "https://dc.lft.to/lastmile_qr_scan", "ios": "https://dc.lft.to/lastmile_qr_scan"}, "lat": 38.876627, "is_reserved": 0, "is_disabled": 0, "fusion_lat": 0.0}, {"fusion_lon": 0.0, "bike_id": "23bfbeb1b47cfdd08c1aceb7936b87cb", "name": "23bfbeb1b47cfdd08c1aceb7936b87cb", "type": "electric_scooter", "lon": -77.02497316666667, "rental_uris": {"android": "https://dc.lft.to/lastmile_qr_scan", "ios": "https://dc.lft.to/lastmile_qr_scan"}, "lat": 38.91923, "is_reserved": 0, "is_disabled": 0, "fusion_lat": 0.0}, {"fusion_lon": 0.0, "bike_id": "51f9de46282e6e388f05ff7683e0462b", "name": "51f9de46282e6e388f05ff7683e0462b", "type": "electric_scooter", "lon": -77.01577866666666, "rental_uris": {"android": "https://dc.lft.to/lastmile_qr_scan", "ios": "https://dc.lft.to/lastmile_qr_scan"}, "lat": 38.876664166666664, "is_reserved": 0, "is_disabled": 0, "fusion_lat": 0.0}, {"fusion_lon": 0.0, "bike_id": "7e4fd1163576d1cb5394f5fe730de04f", "name": "7e4fd1163576d1cb5394f5fe730de04f", "type": "electric_scooter", "lon": -77.02598116666667, "rental_uris": {"android": "https://dc.lft.to/lastmile_qr_scan", "ios": "https://dc.lft.to/lastmile_qr_scan"}, "lat": 38.927979, "is_reserved": 0, "is_disabled": 0, "fusion_lat": 0.0}, {"fusion_lon": 0.0, "bike_id": "75633a8cfd134381b094ef75b70e5fa7", "name": "75633a8cfd134381b094ef75b70e5fa7", "type": "electric_scooter", "lon": -77.04327483333333, "rental_uris": {"android": "https://dc.lft.to/lastmile_qr_scan", "ios": "https://dc.lft.to/lastmile_qr_scan"}, "lat": 38.898120666666664, "is_reserved": 0, "is_disabled": 0, "fusion_lat": 0.0}, {"fusion_lon": 0.0, "bike_id": "5a2c168576cd62687bc67b3a55fa597c", "name": "5a2c168576cd62687bc67b3a55fa597c", "type": "electric_scooter", "lon": -77.02853666666667, "rental_uris": {"android": "https://dc.lft.to/lastmile_qr_scan", "ios": "https://dc.lft.to/lastmile_qr_scan"}, "lat": 38.93263433333333, "is_reserved": 0, "is_disabled": 0, "fusion_lat": 0.0}, {"fusion_lon": 0.0, "bike_id": "09d074d69cfaec4e94671976d0fc35dd", "name": "09d074d69cfaec4e94671976d0fc35dd", "type": "electric_bike", "lon": -77.105101, "rental_uris": {"android": "https://dc.lft.to/lastmile_qr_scan", "ios": "https://dc.lft.to/lastmile_qr_scan"}, "lat": 38.92850466666667, "is_reserved": 0, "is_disabled": 0, "fusion_lat": 0.0}, {"fusion_lon": 0.0, "bike_id": "791d100f755829ac47c950e44239d5f0", "name": "791d100f755829ac47c950e44239d5f0", "type": "electric_scooter", "lon": -77.0297385, "rental_uris": {"android": "https://dc.lft.to/lastmile_qr_scan", "ios": "https://dc.lft.to/lastmile_qr_scan"}, "lat": 38.916245333333336, "is_reserved": 0, "is_disabled": 0, "fusion_lat": 0.0}, {"fusion_lon": 0.0, "bike_id": "bd224c94d4625384ef60227d3dcc0709", "name": "bd224c94d4625384ef60227d3dcc0709", "type": "electric_scooter", "lon": -77.04241833333333, "rental_uris": {"android": "https://dc.lft.to/lastmile_qr_scan", "ios": "https://dc.lft.to/lastmile_qr_scan"}, "lat": 38.917859, "is_reserved": 0, "is_disabled": 0, "fusion_lat": 0.0}, {"fusion_lon": 0.0, "bike_id": "68b9cf49595f2c526b73034ee9ea5b80", "name": "68b9cf49595f2c526b73034ee9ea5b80", "type": "electric_scooter", "lon": -77.06585883333334, "rental_uris": {"android": "https://dc.lft.to/lastmile_qr_scan", "ios": "https://dc.lft.to/lastmile_qr_scan"}, "lat": 38.9034495, "is_reserved": 0, "is_disabled": 0, "fusion_lat": 0.0}, {"fusion_lon": 0.0, "bike_id": "2e9fa69fe9ebdc26655a1758ab57fe4e", "name": "2e9fa69fe9ebdc26655a1758ab57fe4e", "type": "electric_scooter", "lon": -77.02278166666666, "rental_uris": {"android": "https://dc.lft.to/lastmile_qr_scan", "ios": "https://dc.lft.to/lastmile_qr_scan"}, "lat": 38.92505716666667, "is_reserved": 0, "is_disabled": 0, "fusion_lat": 0.0}, {"fusion_lon": 0.0, "bike_id": "f068d297fb0f2b0aa30165e85079523e", "name": "f068d297fb0f2b0aa30165e85079523e", "type": "electric_scooter", "lon": -77.01038166666666, "rental_uris": {"android": "https://dc.lft.to/lastmile_qr_scan", "ios": "https://dc.lft.to/lastmile_qr_scan"}, "lat": 38.8844725, "is_reserved": 0, "is_disabled": 0, "fusion_lat": 0.0}, {"fusion_lon": 0.0, "bike_id": "a39269c6588db0669db95155d7c56cbb", "name": "a39269c6588db0669db95155d7c56cbb", "type": "electric_scooter", "lon": -77.0384365, "rental_uris": {"android": "https://dc.lft.to/lastmile_qr_scan", "ios": "https://dc.lft.to/lastmile_qr_scan"}, "lat": 38.91661766666667, "is_reserved": 0, "is_disabled": 0, "fusion_lat": 0.0}, {"fusion_lon": 0.0, "bike_id": "028a320de264970bdd0d244563a7d91c", "name": "028a320de264970bdd0d244563a7d91c", "type": "electric_scooter", "lon": -77.01351583333333, "rental_uris": {"android": "https://dc.lft.to/lastmile_qr_scan", "ios": "https://dc.lft.to/lastmile_qr_scan"}, "lat": 38.90381766666667, "is_reserved": 0, "is_disabled": 0, "fusion_lat": 0.0}, {"fusion_lon": 0.0, "bike_id": "d348b32e50e32eae1431a6c4a63f3c79", "name": "d348b32e50e32eae1431a6c4a63f3c79", "type": "electric_scooter", "lon": -77.0318555, "rental_uris": {"android": "https://dc.lft.to/lastmile_qr_scan", "ios": "https://dc.lft.to/lastmile_qr_scan"}, "lat": 38.919264166666665, "is_reserved": 0, "is_disabled": 0, "fusion_lat": 0.0}, {"fusion_lon": 0.0, "bike_id": "0af731078ac95dfaae082a831b09d5db", "name": "0af731078ac95dfaae082a831b09d5db", "type": "electric_scooter", "lon": -77.031933, "rental_uris": {"android": "https://dc.lft.to/lastmile_qr_scan", "ios": "https://dc.lft.to/lastmile_qr_scan"}, "lat": 38.90769266666667, "is_reserved": 0, "is_disabled": 0, "fusion_lat": 0.0}, {"fusion_lon": 0.0, "bike_id": "fda8cc590fc3714df90685ef347ebcfd", "name": "fda8cc590fc3714df90685ef347ebcfd", "type": "electric_scooter", "lon": -77.05264666666666, "rental_uris": {"android": "https://dc.lft.to/lastmile_qr_scan", "ios": "https://dc.lft.to/lastmile_qr_scan"}, "lat": 38.927566166666665, "is_reserved": 0, "is_disabled": 0, "fusion_lat": 0.0}, {"fusion_lon": 0.0, "bike_id": "c208d04cd43a20f31767cbf86197c130", "name": "c208d04cd43a20f31767cbf86197c130", "type": "electric_scooter", "lon": -76.98597616666666, "rental_uris": {"android": "https://dc.lft.to/lastmile_qr_scan", "ios": "https://dc.lft.to/lastmile_qr_scan"}, "lat": 38.889699666666665, "is_reserved": 0, "is_disabled": 0, "fusion_lat": 0.0}, {"fusion_lon": 0.0, "bike_id": "89880bf332473b0974ae68bb8ae87fb5", "name": "89880bf332473b0974ae68bb8ae87fb5", "type": "electric_bike", "lon": -76.87494516666666, "rental_uris": {"android": "https://dc.lft.to/lastmile_qr_scan", "ios": "https://dc.lft.to/lastmile_qr_scan"}, "lat": 38.990892333333335, "is_reserved": 0, "is_disabled": 0, "fusion_lat": 0.0}, {"fusion_lon": 0.0, "bike_id": "1f754cb1dbb2fd874b893aed60cc87c5", "name": "1f754cb1dbb2fd874b893aed60cc87c5", "type": "electric_scooter", "lon": -76.95748, "rental_uris": {"android": "https://dc.lft.to/lastmile_qr_scan", "ios": "https://dc.lft.to/lastmile_qr_scan"}, "lat": 38.88436516666667, "is_reserved": 0, "is_disabled": 0, "fusion_lat": 0.0}, {"fusion_lon": 0.0, "bike_id": "c63351620fd5d322d3844da4fb556b1c", "name": "c63351620fd5d322d3844da4fb556b1c", "type": "electric_scooter", "lon": -77.04342616666666, "rental_uris": {"android": "https://dc.lft.to/lastmile_qr_scan", "ios": "https://dc.lft.to/lastmile_qr_scan"}, "lat": 38.91361083333334, "is_reserved": 0, "is_disabled": 0, "fusion_lat": 0.0}, {"fusion_lon": 0.0, "bike_id": "5b62fc9682f7ef0572f9e213dd28eb34", "name": "5b62fc9682f7ef0572f9e213dd28eb34", "type": "electric_scooter", "lon": -77.023404, "rental_uris": {"android": "https://dc.lft.to/lastmile_qr_scan", "ios": "https://dc.lft.to/lastmile_qr_scan"}, "lat": 38.91554816666667, "is_reserved": 0, "is_disabled": 0, "fusion_lat": 0.0}, {"fusion_lon": 0.0, "bike_id": "6c2edb2c031a482fcb45135602af8c3a", "name": "6c2edb2c031a482fcb45135602af8c3a", "type": "electric_scooter", "lon": -77.01886966666666, "rental_uris": {"android": "https://dc.lft.to/lastmile_qr_scan", "ios": "https://dc.lft.to/lastmile_qr_scan"}, "lat": 38.900042, "is_reserved": 0, "is_disabled": 0, "fusion_lat": 0.0}, {"fusion_lon": 0.0, "bike_id": "5079be3fe9a5cd470cd314fab5fc2fa2", "name": "5079be3fe9a5cd470cd314fab5fc2fa2", "type": "electric_scooter", "lon": -77.05039966666666, "rental_uris": {"android": "https://dc.lft.to/lastmile_qr_scan", "ios": "https://dc.lft.to/lastmile_qr_scan"}, "lat": 38.900959666666665, "is_reserved": 0, "is_disabled": 0, "fusion_lat": 0.0}, {"fusion_lon": 0.0, "bike_id": "ce24dd6593619f5f00aaac37bc2226ed", "name": "ce24dd6593619f5f00aaac37bc2226ed", "type": "electric_scooter", "lon": -77.02488216666667, "rental_uris": {"android": "https://dc.lft.to/lastmile_qr_scan", "ios": "https://dc.lft.to/lastmile_qr_scan"}, "lat": 38.917533666666664, "is_reserved": 0, "is_disabled": 0, "fusion_lat": 0.0}, {"fusion_lon": 0.0, "bike_id": "cb026d3476cee56d6f8efb7af03ebadc", "name": "cb026d3476cee56d6f8efb7af03ebadc", "type": "electric_scooter", "lon": -77.0344155, "rental_uris": {"android": "https://dc.lft.to/lastmile_qr_scan", "ios": "https://dc.lft.to/lastmile_qr_scan"}, "lat": 38.910348166666665, "is_reserved": 0, "is_disabled": 0, "fusion_lat": 0.0}, {"fusion_lon": 0.0, "bike_id": "8096ad942dbe6378a8531e16c2724f8b", "name": "8096ad942dbe6378a8531e16c2724f8b", "type": "electric_scooter", "lon": -77.04310916666667, "rental_uris": {"android": "https://dc.lft.to/lastmile_qr_scan", "ios": "https://dc.lft.to/lastmile_qr_scan"}, "lat": 38.918726166666666, "is_reserved": 0, "is_disabled": 0, "fusion_lat": 0.0}, {"fusion_lon": 0.0, "bike_id": "522a88a502975c7aae25f628a60404a0", "name": "522a88a502975c7aae25f628a60404a0", "type": "electric_scooter", "lon": -77.02488466666667, "rental_uris": {"android": "https://dc.lft.to/lastmile_qr_scan", "ios": "https://dc.lft.to/lastmile_qr_scan"}, "lat": 38.941835166666664, "is_reserved": 0, "is_disabled": 0, "fusion_lat": 0.0}, {"fusion_lon": 0.0, "bike_id": "05ac1fa6eefe4321f648d461e0feafc6", "name": "05ac1fa6eefe4321f648d461e0feafc6", "type": "electric_bike", "lon": -76.92915033333334, "rental_uris": {"android": "https://dc.lft.to/lastmile_qr_scan", "ios": "https://dc.lft.to/lastmile_qr_scan"}, "lat": 38.980287, "is_reserved": 0, "is_disabled": 0, "fusion_lat": 0.0}, {"fusion_lon": 0.0, "bike_id": "683111f937b596f80e0f9cd09aede184", "name": "683111f937b596f80e0f9cd09aede184", "type": "electric_scooter", "lon": -76.9463705, "rental_uris": {"android": "https://dc.lft.to/lastmile_qr_scan", "ios": "https://dc.lft.to/lastmile_qr_scan"}, "lat": 38.898465333333334, "is_reserved": 0, "is_disabled": 0, "fusion_lat": 0.0}, {"fusion_lon": 0.0, "bike_id": "5b9f9d9f039187afd842d0eaa3d7279b", "name": "5b9f9d9f039187afd842d0eaa3d7279b", "type": "electric_scooter", "lon": -77.0578925, "rental_uris": {"android": "https://dc.lft.to/lastmile_qr_scan", "ios": "https://dc.lft.to/lastmile_qr_scan"}, "lat": 38.934792333333334, "is_reserved": 0, "is_disabled": 0, "fusion_lat": 0.0}, {"fusion_lon": 0.0, "bike_id": "5cffe09ccf301daf65417d389a9c41fa", "name": "5cffe09ccf301daf65417d389a9c41fa", "type": "electric_scooter", "lon": -76.99805383333333, "rental_uris": {"android": "https://dc.lft.to/lastmile_qr_scan", "ios": "https://dc.lft.to/lastmile_qr_scan"}, "lat": 38.87667366666667, "is_reserved": 0, "is_disabled": 0, "fusion_lat": 0.0}, {"fusion_lon": 0.0, "bike_id": "84fd6261d9bc7deaa4635f0e530793f7", "name": "84fd6261d9bc7deaa4635f0e530793f7", "type": "electric_scooter", "lon": -77.00297233333333, "rental_uris": {"android": "https://dc.lft.to/lastmile_qr_scan", "ios": "https://dc.lft.to/lastmile_qr_scan"}, "lat": 38.908952, "is_reserved": 0, "is_disabled": 0, "fusion_lat": 0.0}, {"fusion_lon": 0.0, "bike_id": "89985625928b4c07ed1a7a9f382265f9", "name": "89985625928b4c07ed1a7a9f382265f9", "type": "electric_scooter", "lon": -76.994128, "rental_uris": {"android": "https://dc.lft.to/lastmile_qr_scan", "ios": "https://dc.lft.to/lastmile_qr_scan"}, "lat": 38.93306366666667, "is_reserved": 0, "is_disabled": 0, "fusion_lat": 0.0}, {"fusion_lon": 0.0, "bike_id": "7760892342f399939a0efa13d84117e2", "name": "7760892342f399939a0efa13d84117e2", "type": "electric_scooter", "lon": -76.9944205, "rental_uris": {"android": "https://dc.lft.to/lastmile_qr_scan", "ios": "https://dc.lft.to/lastmile_qr_scan"}, "lat": 38.90505616666667, "is_reserved": 0, "is_disabled": 0, "fusion_lat": 0.0}, {"fusion_lon": 0.0, "bike_id": "fdc9e7b0ed5143adad65448192abea62", "name": "fdc9e7b0ed5143adad65448192abea62", "type": "electric_scooter", "lon": -77.03158033333334, "rental_uris": {"android": "https://dc.lft.to/lastmile_qr_scan", "ios": "https://dc.lft.to/lastmile_qr_scan"}, "lat": 38.915555499999996, "is_reserved": 0, "is_disabled": 0, "fusion_lat": 0.0}, {"fusion_lon": 0.0, "bike_id": "f581a2bd60fe75030313564a8843b93e", "name": "f581a2bd60fe75030313564a8843b93e", "type": "electric_scooter", "lon": -77.04489566666666, "rental_uris": {"android": "https://dc.lft.to/lastmile_qr_scan", "ios": "https://dc.lft.to/lastmile_qr_scan"}, "lat": 38.906631833333336, "is_reserved": 0, "is_disabled": 0, "fusion_lat": 0.0}, {"fusion_lon": 0.0, "bike_id": "3952f0fbbfd27a414b9e3b1d659478ee", "name": "3952f0fbbfd27a414b9e3b1d659478ee", "type": "electric_scooter", "lon": -77.04168616666666, "rental_uris": {"android": "https://dc.lft.to/lastmile_qr_scan", "ios": "https://dc.lft.to/lastmile_qr_scan"}, "lat": 38.913399166666665, "is_reserved": 0, "is_disabled": 0, "fusion_lat": 0.0}, {"fusion_lon": 0.0, "bike_id": "2b770b15a83d7a01f1f3cc4d0103e7ac", "name": "2b770b15a83d7a01f1f3cc4d0103e7ac", "type": "electric_scooter", "lon": -76.955113, "rental_uris": {"android": "https://dc.lft.to/lastmile_qr_scan", "ios": "https://dc.lft.to/lastmile_qr_scan"}, "lat": 38.89050366666667, "is_reserved": 0, "is_disabled": 0, "fusion_lat": 0.0}, {"fusion_lon": 0.0, "bike_id": "79a1ab1b08827f0eae7e2d4416dea866", "name": "79a1ab1b08827f0eae7e2d4416dea866", "type": "electric_scooter", "lon": -76.94470916666667, "rental_uris": {"android": "https://dc.lft.to/lastmile_qr_scan", "ios": "https://dc.lft.to/lastmile_qr_scan"}, "lat": 38.9028215, "is_reserved": 0, "is_disabled": 0, "fusion_lat": 0.0}, {"fusion_lon": 0.0, "bike_id": "83b4b6bd8df1b3e88ba8210ff55f661c", "name": "83b4b6bd8df1b3e88ba8210ff55f661c", "type": "electric_scooter", "lon": -77.0413835, "rental_uris": {"android": "https://dc.lft.to/lastmile_qr_scan", "ios": "https://dc.lft.to/lastmile_qr_scan"}, "lat": 38.91682983333333, "is_reserved": 0, "is_disabled": 0, "fusion_lat": 0.0}, {"fusion_lon": 0.0, "bike_id": "18c5229ad7f3a6183f66c606ab18aeca", "name": "18c5229ad7f3a6183f66c606ab18aeca", "type": "electric_scooter", "lon": -77.02599283333333, "rental_uris": {"android": "https://dc.lft.to/lastmile_qr_scan", "ios": "https://dc.lft.to/lastmile_qr_scan"}, "lat": 38.91421533333333, "is_reserved": 0, "is_disabled": 0, "fusion_lat": 0.0}, {"fusion_lon": 0.0, "bike_id": "fc9fc12404da402bb414afb0bb7343f9", "name": "fc9fc12404da402bb414afb0bb7343f9", "type": "electric_scooter", "lon": -77.0780785, "rental_uris": {"android": "https://dc.lft.to/lastmile_qr_scan", "ios": "https://dc.lft.to/lastmile_qr_scan"}, "lat": 38.924598, "is_reserved": 0, "is_disabled": 0, "fusion_lat": 0.0}, {"fusion_lon": 0.0, "bike_id": "49c95582cce1f93cd1d8288e7eaee2bf", "name": "49c95582cce1f93cd1d8288e7eaee2bf", "type": "electric_scooter", "lon": -77.03169916666667, "rental_uris": {"android": "https://dc.lft.to/lastmile_qr_scan", "ios": "https://dc.lft.to/lastmile_qr_scan"}, "lat": 38.893218833333336, "is_reserved": 0, "is_disabled": 0, "fusion_lat": 0.0}, {"fusion_lon": 0.0, "bike_id": "ddd9442fde3b024fb09a08612c61fbef", "name": "ddd9442fde3b024fb09a08612c61fbef", "type": "electric_bike", "lon": -76.90758766666667, "rental_uris": {"android": "https://dc.lft.to/lastmile_qr_scan", "ios": "https://dc.lft.to/lastmile_qr_scan"}, "lat": 38.924381, "is_reserved": 0, "is_disabled": 0, "fusion_lat": 0.0}, {"fusion_lon": 0.0, "bike_id": "302bf52065f3f3a5dee947bc5ebb7857", "name": "302bf52065f3f3a5dee947bc5ebb7857", "type": "electric_scooter", "lon": -77.02200883333333, "rental_uris": {"android": "https://dc.lft.to/lastmile_qr_scan", "ios": "https://dc.lft.to/lastmile_qr_scan"}, "lat": 38.915337666666666, "is_reserved": 0, "is_disabled": 0, "fusion_lat": 0.0}, {"fusion_lon": 0.0, "bike_id": "3d6ffde301e97c47d566fc84d85b5cf0", "name": "3d6ffde301e97c47d566fc84d85b5cf0", "type": "electric_scooter", "lon": -77.005803, "rental_uris": {"android": "https://dc.lft.to/lastmile_qr_scan", "ios": "https://dc.lft.to/lastmile_qr_scan"}, "lat": 38.8717415, "is_reserved": 0, "is_disabled": 0, "fusion_lat": 0.0}, {"fusion_lon": 0.0, "bike_id": "63e01a2447ab1ea9f1d560c390ffadb8", "name": "63e01a2447ab1ea9f1d560c390ffadb8", "type": "electric_scooter", "lon": -77.017561, "rental_uris": {"android": "https://dc.lft.to/lastmile_qr_scan", "ios": "https://dc.lft.to/lastmile_qr_scan"}, "lat": 38.90031583333333, "is_reserved": 0, "is_disabled": 0, "fusion_lat": 0.0}, {"fusion_lon": 0.0, "bike_id": "b46c31e842b959c164be718b91473d00", "name": "b46c31e842b959c164be718b91473d00", "type": "electric_scooter", "lon": -77.031897, "rental_uris": {"android": "https://dc.lft.to/lastmile_qr_scan", "ios": "https://dc.lft.to/lastmile_qr_scan"}, "lat": 38.90768666666666, "is_reserved": 0, "is_disabled": 0, "fusion_lat": 0.0}, {"fusion_lon": 0.0, "bike_id": "55a61eb8e34e6b6babcb96004571281c", "name": "55a61eb8e34e6b6babcb96004571281c", "type": "electric_scooter", "lon": -77.0326095, "rental_uris": {"android": "https://dc.lft.to/lastmile_qr_scan", "ios": "https://dc.lft.to/lastmile_qr_scan"}, "lat": 38.9351895, "is_reserved": 0, "is_disabled": 0, "fusion_lat": 0.0}, {"fusion_lon": 0.0, "bike_id": "c7333484585fcdca3550f9240f80a790", "name": "c7333484585fcdca3550f9240f80a790", "type": "electric_scooter", "lon": -77.03663966666667, "rental_uris": {"android": "https://dc.lft.to/lastmile_qr_scan", "ios": "https://dc.lft.to/lastmile_qr_scan"}, "lat": 38.911351, "is_reserved": 0, "is_disabled": 0, "fusion_lat": 0.0}, {"fusion_lon": 0.0, "bike_id": "b8f61bf980a0512aa714810646cd2b2f", "name": "b8f61bf980a0512aa714810646cd2b2f", "type": "electric_scooter", "lon": -77.00442533333333, "rental_uris": {"android": "https://dc.lft.to/lastmile_qr_scan", "ios": "https://dc.lft.to/lastmile_qr_scan"}, "lat": 38.92890633333333, "is_reserved": 0, "is_disabled": 0, "fusion_lat": 0.0}, {"fusion_lon": 0.0, "bike_id": "fd95566ad499bf2dc846b36b12ba4244", "name": "fd95566ad499bf2dc846b36b12ba4244", "type": "electric_scooter", "lon": -77.0396465, "rental_uris": {"android": "https://dc.lft.to/lastmile_qr_scan", "ios": "https://dc.lft.to/lastmile_qr_scan"}, "lat": 38.926057, "is_reserved": 0, "is_disabled": 0, "fusion_lat": 0.0}, {"fusion_lon": 0.0, "bike_id": "e01673f9d7892323f185bf5de5338e7f", "name": "e01673f9d7892323f185bf5de5338e7f", "type": "electric_scooter", "lon": -77.04788466666666, "rental_uris": {"android": "https://dc.lft.to/lastmile_qr_scan", "ios": "https://dc.lft.to/lastmile_qr_scan"}, "lat": 38.897749, "is_reserved": 0, "is_disabled": 0, "fusion_lat": 0.0}, {"fusion_lon": 0.0, "bike_id": "36a798ec494bb69ea295aaab4567a9e9", "name": "36a798ec494bb69ea295aaab4567a9e9", "type": "electric_scooter", "lon": -77.02223733333334, "rental_uris": {"android": "https://dc.lft.to/lastmile_qr_scan", "ios": "https://dc.lft.to/lastmile_qr_scan"}, "lat": 38.93550916666667, "is_reserved": 0, "is_disabled": 0, "fusion_lat": 0.0}, {"fusion_lon": 0.0, "bike_id": "afd726516afb550ae03c83ef1ca79099", "name": "afd726516afb550ae03c83ef1ca79099", "type": "electric_scooter", "lon": -77.04678366666667, "rental_uris": {"android": "https://dc.lft.to/lastmile_qr_scan", "ios": "https://dc.lft.to/lastmile_qr_scan"}, "lat": 38.9158635, "is_reserved": 0, "is_disabled": 0, "fusion_lat": 0.0}, {"fusion_lon": 0.0, "bike_id": "0b87b186720dca4e753125b50fdb5bb1", "name": "0b87b186720dca4e753125b50fdb5bb1", "type": "electric_scooter", "lon": -77.036419, "rental_uris": {"android": "https://dc.lft.to/lastmile_qr_scan", "ios": "https://dc.lft.to/lastmile_qr_scan"}, "lat": 38.936682166666664, "is_reserved": 0, "is_disabled": 0, "fusion_lat": 0.0}, {"fusion_lon": 0.0, "bike_id": "9c3bebed6d7641a6e3bb35c423b07a45", "name": "9c3bebed6d7641a6e3bb35c423b07a45", "type": "electric_scooter", "lon": -77.02797516666666, "rental_uris": {"android": "https://dc.lft.to/lastmile_qr_scan", "ios": "https://dc.lft.to/lastmile_qr_scan"}, "lat": 38.91220116666667, "is_reserved": 0, "is_disabled": 0, "fusion_lat": 0.0}, {"fusion_lon": 0.0, "bike_id": "0d0129546b4f8aa5e64c17266361ce62", "name": "0d0129546b4f8aa5e64c17266361ce62", "type": "electric_scooter", "lon": -77.03253783333334, "rental_uris": {"android": "https://dc.lft.to/lastmile_qr_scan", "ios": "https://dc.lft.to/lastmile_qr_scan"}, "lat": 38.9148425, "is_reserved": 0, "is_disabled": 0, "fusion_lat": 0.0}, {"fusion_lon": 0.0, "bike_id": "d91703ae14ea1363c45e8f525849cadd", "name": "d91703ae14ea1363c45e8f525849cadd", "type": "electric_scooter", "lon": -77.0179245, "rental_uris": {"android": "https://dc.lft.to/lastmile_qr_scan", "ios": "https://dc.lft.to/lastmile_qr_scan"}, "lat": 38.90285333333333, "is_reserved": 0, "is_disabled": 0, "fusion_lat": 0.0}, {"fusion_lon": 0.0, "bike_id": "4f0203eb9466e3709489235223059b27", "name": "4f0203eb9466e3709489235223059b27", "type": "electric_scooter", "lon": -77.06093416666667, "rental_uris": {"android": "https://dc.lft.to/lastmile_qr_scan", "ios": "https://dc.lft.to/lastmile_qr_scan"}, "lat": 38.943719, "is_reserved": 0, "is_disabled": 0, "fusion_lat": 0.0}, {"fusion_lon": 0.0, "bike_id": "a554220057c5b95e5a0cd6fd3852e585", "name": "a554220057c5b95e5a0cd6fd3852e585", "type": "electric_scooter", "lon": -77.0416405, "rental_uris": {"android": "https://dc.lft.to/lastmile_qr_scan", "ios": "https://dc.lft.to/lastmile_qr_scan"}, "lat": 38.913602, "is_reserved": 0, "is_disabled": 0, "fusion_lat": 0.0}, {"fusion_lon": 0.0, "bike_id": "0ed2f1225af540a94747c7400b452551", "name": "0ed2f1225af540a94747c7400b452551", "type": "electric_scooter", "lon": -77.03492533333333, "rental_uris": {"android": "https://dc.lft.to/lastmile_qr_scan", "ios": "https://dc.lft.to/lastmile_qr_scan"}, "lat": 38.92157733333333, "is_reserved": 0, "is_disabled": 0, "fusion_lat": 0.0}, {"fusion_lon": 0.0, "bike_id": "1da82d1a5b9994439395a257b87c3d11", "name": "1da82d1a5b9994439395a257b87c3d11", "type": "electric_scooter", "lon": -77.006206, "rental_uris": {"android": "https://dc.lft.to/lastmile_qr_scan", "ios": "https://dc.lft.to/lastmile_qr_scan"}, "lat": 38.90540433333334, "is_reserved": 0, "is_disabled": 0, "fusion_lat": 0.0}, {"fusion_lon": 0.0, "bike_id": "8cbb02a41424f93a39eed0860a02f81e", "name": "8cbb02a41424f93a39eed0860a02f81e", "type": "electric_scooter", "lon": -77.03252816666667, "rental_uris": {"android": "https://dc.lft.to/lastmile_qr_scan", "ios": "https://dc.lft.to/lastmile_qr_scan"}, "lat": 38.91822416666667, "is_reserved": 0, "is_disabled": 0, "fusion_lat": 0.0}, {"fusion_lon": 0.0, "bike_id": "824f82a29d2d0059b31c7cb3be6d5685", "name": "824f82a29d2d0059b31c7cb3be6d5685", "type": "electric_scooter", "lon": -77.030371, "rental_uris": {"android": "https://dc.lft.to/lastmile_qr_scan", "ios": "https://dc.lft.to/lastmile_qr_scan"}, "lat": 38.88393166666667, "is_reserved": 0, "is_disabled": 0, "fusion_lat": 0.0}, {"fusion_lon": 0.0, "bike_id": "955680ff877c6c147bb53b2700eb306d", "name": "955680ff877c6c147bb53b2700eb306d", "type": "electric_scooter", "lon": -77.02022933333333, "rental_uris": {"android": "https://dc.lft.to/lastmile_qr_scan", "ios": "https://dc.lft.to/lastmile_qr_scan"}, "lat": 38.9243535, "is_reserved": 0, "is_disabled": 0, "fusion_lat": 0.0}, {"fusion_lon": 0.0, "bike_id": "9e590c75f35a21e626246303c672cfae", "name": "9e590c75f35a21e626246303c672cfae", "type": "electric_scooter", "lon": -77.00816266666666, "rental_uris": {"android": "https://dc.lft.to/lastmile_qr_scan", "ios": "https://dc.lft.to/lastmile_qr_scan"}, "lat": 38.91562483333333, "is_reserved": 0, "is_disabled": 0, "fusion_lat": 0.0}, {"fusion_lon": 0.0, "bike_id": "eab187802b6f69610e2e98623f707c50", "name": "eab187802b6f69610e2e98623f707c50", "type": "electric_scooter", "lon": -77.02003133333334, "rental_uris": {"android": "https://dc.lft.to/lastmile_qr_scan", "ios": "https://dc.lft.to/lastmile_qr_scan"}, "lat": 38.91566133333333, "is_reserved": 0, "is_disabled": 0, "fusion_lat": 0.0}, {"fusion_lon": 0.0, "bike_id": "cb69b3d7dd181f49cdfd20869b308839", "name": "cb69b3d7dd181f49cdfd20869b308839", "type": "electric_scooter", "lon": -77.04665716666666, "rental_uris": {"android": "https://dc.lft.to/lastmile_qr_scan", "ios": "https://dc.lft.to/lastmile_qr_scan"}, "lat": 38.90738366666667, "is_reserved": 0, "is_disabled": 0, "fusion_lat": 0.0}, {"fusion_lon": 0.0, "bike_id": "42920f9c9fad4dce718baffffc218227", "name": "42920f9c9fad4dce718baffffc218227", "type": "electric_scooter", "lon": -76.99786833333333, "rental_uris": {"android": "https://dc.lft.to/lastmile_qr_scan", "ios": "https://dc.lft.to/lastmile_qr_scan"}, "lat": 38.94827133333333, "is_reserved": 0, "is_disabled": 0, "fusion_lat": 0.0}, {"fusion_lon": 0.0, "bike_id": "fa0a63eb6386bf967500ed99ea85267b", "name": "fa0a63eb6386bf967500ed99ea85267b", "type": "electric_scooter", "lon": -77.004883, "rental_uris": {"android": "https://dc.lft.to/lastmile_qr_scan", "ios": "https://dc.lft.to/lastmile_qr_scan"}, "lat": 38.88059333333333, "is_reserved": 0, "is_disabled": 0, "fusion_lat": 0.0}, {"fusion_lon": 0.0, "bike_id": "c8687651b3b0b8956af234794920e9c9", "name": "c8687651b3b0b8956af234794920e9c9", "type": "electric_scooter", "lon": -76.98341466666666, "rental_uris": {"android": "https://dc.lft.to/lastmile_qr_scan", "ios": "https://dc.lft.to/lastmile_qr_scan"}, "lat": 38.862518, "is_reserved": 0, "is_disabled": 0, "fusion_lat": 0.0}, {"fusion_lon": 0.0, "bike_id": "2611704055bcad5ba8f052c4e8260ea9", "name": "2611704055bcad5ba8f052c4e8260ea9", "type": "electric_scooter", "lon": -77.03464516666666, "rental_uris": {"android": "https://dc.lft.to/lastmile_qr_scan", "ios": "https://dc.lft.to/lastmile_qr_scan"}, "lat": 38.917189, "is_reserved": 0, "is_disabled": 0, "fusion_lat": 0.0}, {"fusion_lon": 0.0, "bike_id": "3fb2461f8920e10faf1a0baec55c1785", "name": "3fb2461f8920e10faf1a0baec55c1785", "type": "electric_scooter", "lon": -77.03833533333334, "rental_uris": {"android": "https://dc.lft.to/lastmile_qr_scan", "ios": "https://dc.lft.to/lastmile_qr_scan"}, "lat": 38.915637333333336, "is_reserved": 0, "is_disabled": 0, "fusion_lat": 0.0}, {"fusion_lon": 0.0, "bike_id": "5c9f949135f124cfa48b73b70f114308", "name": "5c9f949135f124cfa48b73b70f114308", "type": "electric_scooter", "lon": -76.94281966666667, "rental_uris": {"android": "https://dc.lft.to/lastmile_qr_scan", "ios": "https://dc.lft.to/lastmile_qr_scan"}, "lat": 38.8830205, "is_reserved": 0, "is_disabled": 0, "fusion_lat": 0.0}, {"fusion_lon": 0.0, "bike_id": "e79faf58342a7bbeae8e649b54c10a0e", "name": "e79faf58342a7bbeae8e649b54c10a0e", "type": "electric_bike", "lon": -77.0894235, "rental_uris": {"android": "https://dc.lft.to/lastmile_qr_scan", "ios": "https://dc.lft.to/lastmile_qr_scan"}, "lat": 38.841038166666664, "is_reserved": 0, "is_disabled": 0, "fusion_lat": 0.0},