{"data": {"bikes": [{"lat": 38.9072925, "lon": -77.03449783333333, "is_disabled": 0, "fusion_lon": 0.0, "is_reserved": 0, "name": "f86c0be2710b41ecdb304b1369134935", "type": "electric_scooter", "bike_id": "f86c0be2710b41ecdb304b1369134935", "rental_uris": {"ios": "https://dc.lft.to/lastmile_qr_scan", "android": "https://dc.lft.to/lastmile_qr_scan"}, "fusion_lat": 0.0}, {"lat": 38.916746833333335, "lon": -77.02713666666666, "is_disabled": 0, "fusion_lon": 0.0, "is_reserved": 0, "name": "92a8bd0dcee1f3093273610718830ee7", "type": "electric_scooter", "bike_id": "92a8bd0dcee1f3093273610718830ee7", "rental_uris": {"ios": "https://dc.lft.to/lastmile_qr_scan", "android": "https://dc.lft.to/lastmile_qr_scan"}, "fusion_lat": 0.0}, {"lat": 38.90273066666666, "lon": -77.0173845, "is_disabled": 0, "fusion_lon": 0.0, "is_reserved": 0, "name": "ba2babf59519166b316e4db01d6eb60b", "type": "electric_scooter", "bike_id": "ba2babf59519166b316e4db01d6eb60b", "rental_uris": {"ios": "https://dc.lft.to/lastmile_qr_scan", "android": "https://dc.lft.to/lastmile_qr_scan"}, "fusion_lat": 0.0}, {"lat": 38.899093666666666, "lon": -77.02360033333333, "is_disabled": 0, "fusion_lon": 0.0, "is_reserved": 0, "name": "8aba773e5b7debe057d104bc1b30e3c3", "type": "electric_scooter", "bike_id": "8aba773e5b7debe057d104bc1b30e3c3", "rental_uris": {"ios": "https://dc.lft.to/lastmile_qr_scan", "android": "https://dc.lft.to/lastmile_qr_scan"}, "fusion_lat": 0.0}, {"lat": 38.844284, "lon": -76.99786116666667, "is_disabled": 0, "fusion_lon": 0.0, "is_reserved": 0, "name": "b8a5a77431d7c2335e51ee8ecb9b3bf2", "type": "electric_scooter", "bike_id": "b8a5a77431d7c2335e51ee8ecb9b3bf2", "rental_uris": {"ios": "https://dc.lft.to/lastmile_qr_scan", "android": "https://dc.lft.to/lastmile_qr_scan"}, "fusion_lat": 0.0}, {"lat": 38.905206, "lon": -77.06577416666667, "is_disabled": 0, "fusion_lon": 0.0, "is_reserved": 0, "name": "735192c071a6acbadf92d53b194e34aa", "type": "electric_scooter", "bike_id": "735192c071a6acbadf92d53b194e34aa", "rental_uris": {"ios": "https://dc.lft.to/lastmile_qr_scan", "android": "https://dc.lft.to/lastmile_qr_scan"}, "fusion_lat": 0.0}, {"lat": 38.89954933333333, "lon": -77.05090883333334, "is_disabled": 0, "fusion_lon": 0.0, "is_reserved": 0, "name": "5dfcd436ba6fdf772c445fc68f9f2b1f", "type": "electric_scooter", "bike_id": "5dfcd436ba6fdf772c445fc68f9f2b1f", "rental_uris": {"ios": "https://dc.lft.to/lastmile_qr_scan", "android": "https://dc.lft.to/lastmile_qr_scan"}, "fusion_lat": 0.0}, {"lat": 38.928622, "lon": -77.0543615, "is_disabled": 0, "fusion_lon": 0.0, "is_reserved": 0, "name": "359fcb2563821a6083782c6ff0588cee", "type": "electric_scooter", "bike_id": "359fcb2563821a6083782c6ff0588cee", "rental_uris": {"ios": "https://dc.lft.to/lastmile_qr_scan", "android": "https://dc.lft.to/lastmile_qr_scan"}, "fusion_lat": 0.0}, {"lat": 38.92762466666667, "lon": -77.06997533333333, "is_disabled": 0, "fusion_lon": 0.0, "is_reserved": 0, "name": "2940cab864268c215918a436d50258d7", "type": "electric_bike", "bike_id": "2940cab864268c215918a436d50258d7", "rental_uris": {"ios": "https://dc.lft.to/lastmile_qr_scan", "android": "https://dc.lft.to/lastmile_qr_scan"}, "fusion_lat": 0.0}, {"lat": 38.85204483333333, "lon": -76.96296683333334, "is_disabled": 0, "fusion_lon": 0.0, "is_reserved": 0, "name": "c0979854250e583dab7832797198fec0", "type": "electric_bike", "bike_id": "c0979854250e583dab7832797198fec0", "rental_uris": {"ios": "https://dc.lft.to/lastmile_qr_scan", "android": "https://dc.lft.to/lastmile_qr_scan"}, "fusion_lat": 0.0}, {"lat": 38.916893, "lon": -77.02901566666667, "is_disabled": 0, "fusion_lon": 0.0, "is_reserved": 0, "name": "785cffc8cbeef6680534972360fe481c", "type": "electric_scooter", "bike_id": "785cffc8cbeef6680534972360fe481c", "rental_uris": {"ios": "https://dc.lft.to/lastmile_qr_scan", "android": "https://dc.lft.to/lastmile_qr_scan"}, "fusion_lat": 0.0}, {"lat": 38.920595166666665, "lon": -77.02392466666667, "is_disabled": 0, "fusion_lon": 0.0, "is_reserved": 0, "name": "65e6157452da0ff907b316b2d17d5648", "type": "electric_scooter", "bike_id": "65e6157452da0ff907b316b2d17d5648", "rental_uris": {"ios": "https://dc.lft.to/lastmile_qr_scan", "android": "https://dc.lft.to/lastmile_qr_scan"}, "fusion_lat": 0.0}, {"lat": 38.9282685, "lon": -77.03319883333333, "is_disabled": 0, "fusion_lon": 0.0, "is_reserved": 0, "name": "d09628131225200accbad9f918407f4d", "type": "electric_scooter", "bike_id": "d09628131225200accbad9f918407f4d", "rental_uris": {"ios": "https://dc.lft.to/lastmile_qr_scan", "android": "https://dc.lft.to/lastmile_qr_scan"}, "fusion_lat": 0.0}, {"lat": 38.9079125, "lon": -77.03862466666666, "is_disabled": 0, "fusion_lon": 0.0, "is_reserved": 0, "name": "43a155a65d992a6b2210f02345d2b831", "type": "electric_scooter", "bike_id": "43a155a65d992a6b2210f02345d2b831", "rental_uris": {"ios": "https://dc.lft.to/lastmile_qr_scan", "android": "https://dc.lft.to/lastmile_qr_scan"}, "fusion_lat": 0.0}, {"lat": 38.8973325, "lon": -77.04988166666666, "is_disabled": 0, "fusion_lon": 0.0, "is_reserved": 0, "name": "874d5a21947b28fa5e6794a3de1d1720", "type": "electric_scooter", "bike_id": "874d5a21947b28fa5e6794a3de1d1720", "rental_uris": {"ios": "https://dc.lft.to/lastmile_qr_scan", "android": "https://dc.lft.to/lastmile_qr_scan"}, "fusion_lat": 0.0}, {"lat": 38.875296, "lon": -77.0016205, "is_disabled": 0, "fusion_lon": 0.0, "is_reserved": 0, "name": "9b7146b3caa7b2b63ad8eddf54647064", "type": "electric_scooter", "bike_id": "9b7146b3caa7b2b63ad8eddf54647064", "rental_uris": {"ios": "https://dc.lft.to/lastmile_qr_scan", "android": "https://dc.lft.to/lastmile_qr_scan"}, "fusion_lat": 0.0}, {"lat": 38.88742, "lon": -77.02129783333334, "is_disabled": 0, "fusion_lon": 0.0, "is_reserved": 0, "name": "47ec1ae988c6c305c6fcc306b4b7df36", "type": "electric_scooter", "bike_id": "47ec1ae988c6c305c6fcc306b4b7df36", "rental_uris": {"ios": "https://dc.lft.to/lastmile_qr_scan", "android": "https://dc.lft.to/lastmile_qr_scan"}, "fusion_lat": 0.0}, {"lat": 38.904795, "lon": -77.03447966666667, "is_disabled": 0, "fusion_lon": 0.0, "is_reserved": 0, "name": "509f02c021ce24d56bdca4898e3a1dd2", "type": "electric_scooter", "bike_id": "509f02c021ce24d56bdca4898e3a1dd2", "rental_uris": {"ios": "https://dc.lft.to/lastmile_qr_scan", "android": "https://dc.lft.to/lastmile_qr_scan"}, "fusion_lat": 0.0}, {"lat": 38.84769683333333, "lon": -76.966294, "is_disabled": 0, "fusion_lon": 0.0, "is_reserved": 0, "name": "220f7fd31d4d7e9138763b54272f7c9c", "type": "electric_bike", "bike_id": "220f7fd31d4d7e9138763b54272f7c9c", "rental_uris": {"ios": "https://dc.lft.to/lastmile_qr_scan", "android": "https://dc.lft.to/lastmile_qr_scan"}, "fusion_lat": 0.0}, {"lat": 38.9099355, "lon": -77.02289083333334, "is_disabled": 0, "fusion_lon": 0.0, "is_reserved": 0, "name": "38ea6c3bcfe402456f3a2b47664143b7", "type": "electric_scooter", "bike_id": "38ea6c3bcfe402456f3a2b47664143b7", "rental_uris": {"ios": "https://dc.lft.to/lastmile_qr_scan", "android": "https://dc.lft.to/lastmile_qr_scan"}, "fusion_lat": 0.0}, {"lat": 38.90925983333333, "lon": -76.99982633333333, "is_disabled": 0, "fusion_lon": 0.0, "is_reserved": 0, "name": "7a999f06dd00ee39b04038c5a6dee747", "type": "electric_scooter", "bike_id": "7a999f06dd00ee39b04038c5a6dee747", "rental_uris": {"ios": "https://dc.lft.to/lastmile_qr_scan", "android": "https://dc.lft.to/lastmile_qr_scan"}, "fusion_lat": 0.0}, {"lat": 38.9056965, "lon": -77.0041, "is_disabled": 0, "fusion_lon": 0.0, "is_reserved": 0, "name": "721967efa029cb075db9f9961b11e734", "type": "electric_scooter", "bike_id": "721967efa029cb075db9f9961b11e734", "rental_uris": {"ios": "https://dc.lft.to/lastmile_qr_scan", "android": "https://dc.lft.to/lastmile_qr_scan"}, "fusion_lat": 0.0}, {"lat": 38.8753115, "lon": -77.005641, "is_disabled": 0, "fusion_lon": 0.0, "is_reserved": 0, "name": "883a30b39f523d9be1c486e05c2dec34", "type": "electric_scooter", "bike_id": "883a30b39f523d9be1c486e05c2dec34", "rental_uris": {"ios": "https://dc.lft.to/lastmile_qr_scan", "android": "https://dc.lft.to/lastmile_qr_scan"}, "fusion_lat": 0.0}, {"lat": 38.897533833333334, "lon": -77.027692, "is_disabled": 0, "fusion_lon": 0.0, "is_reserved": 0, "name": "6b6e5e532fb54056d19975f59ac23bcf", "type": "electric_scooter", "bike_id": "6b6e5e532fb54056d19975f59ac23bcf", "rental_uris": {"ios": "https://dc.lft.to/lastmile_qr_scan", "android": "https://dc.lft.to/lastmile_qr_scan"}, "fusion_lat": 0.0}, {"lat": 38.913128666666665, "lon": -77.03674733333334, "is_disabled": 0, "fusion_lon": 0.0, "is_reserved": 0, "name": "6c60ce9dc44ce7159e478ce7e51f627b", "type": "electric_scooter", "bike_id": "6c60ce9dc44ce7159e478ce7e51f627b", "rental_uris": {"ios": "https://dc.lft.to/lastmile_qr_scan", "android": "https://dc.lft.to/lastmile_qr_scan"}, "fusion_lat": 0.0}, {"lat": 38.926855333333336, "lon": -77.027767, "is_disabled": 0, "fusion_lon": 0.0, "is_reserved": 0, "name": "bcf467824c3c1f5c3dd0792f82b0ebd1", "type": "electric_scooter", "bike_id": "bcf467824c3c1f5c3dd0792f82b0ebd1", "rental_uris": {"ios": "https://dc.lft.to/lastmile_qr_scan", "android": "https://dc.lft.to/lastmile_qr_scan"}, "fusion_lat": 0.0}, {"lat": 38.91670166666667, "lon": -77.034651, "is_disabled": 0, "fusion_lon": 0.0, "is_reserved": 0, "name": "73d8daa425991b8884d9d5fefb6b2623", "type": "electric_scooter", "bike_id": "73d8daa425991b8884d9d5fefb6b2623", "rental_uris": {"ios": "https://dc.lft.to/lastmile_qr_scan", "android": "https://dc.lft.to/lastmile_qr_scan"}, "fusion_lat": 0.0}, {"lat": 38.915671333333336, "lon": -77.02519916666667, "is_disabled": 0, "fusion_lon": 0.0, "is_reserved": 0, "name": "131691a7fdadb8e028b4381fd57cc814", "type": "electric_scooter", "bike_id": "131691a7fdadb8e028b4381fd57cc814", "rental_uris": {"ios": "https://dc.lft.to/lastmile_qr_scan", "android": "https://dc.lft.to/lastmile_qr_scan"}, "fusion_lat": 0.0}, {"lat": 38.92296, "lon": -77.027099, "is_disabled": 0, "fusion_lon": 0.0, "is_reserved": 0, "name": "7fbbd0ca16e5d2326e0a1340115bcd2b", "type": "electric_scooter", "bike_id": "7fbbd0ca16e5d2326e0a1340115bcd2b", "rental_uris": {"ios": "https://dc.lft.to/lastmile_qr_scan", "android": "https://dc.lft.to/lastmile_qr_scan"}, "fusion_lat": 0.0}, {"lat": 38.921434, "lon": -77.018038, "is_disabled": 0, "fusion_lon": 0.0, "is_reserved": 0, "name": "97a993d83b6d1c0f5eb660c839e2d1e9", "type": "electric_scooter", "bike_id": "97a993d83b6d1c0f5eb660c839e2d1e9", "rental_uris": {"ios": "https://dc.lft.to/lastmile_qr_scan", "android": "https://dc.lft.to/lastmile_qr_scan"}, "fusion_lat": 0.0}, {"lat": 38.87714883333334, "lon": -77.01828966666666, "is_disabled": 0, "fusion_lon": 0.0, "is_reserved": 0, "name": "a92e614a0e7ba14db3fd8f7c262e815d", "type": "electric_scooter", "bike_id": "a92e614a0e7ba14db3fd8f7c262e815d", "rental_uris": {"ios": "https://dc.lft.to/lastmile_qr_scan", "android": "https://dc.lft.to/lastmile_qr_scan"}, "fusion_lat": 0.0}, {"lat": 38.88500283333333, "lon": -76.9973275, "is_disabled": 0, "fusion_lon": 0.0, "is_reserved": 0, "name": "74f99dc76c317635ba587d1a6b390ecb", "type": "electric_scooter", "bike_id": "74f99dc76c317635ba587d1a6b390ecb", "rental_uris": {"ios": "https://dc.lft.to/lastmile_qr_scan", "android": "https://dc.lft.to/lastmile_qr_scan"}, "fusion_lat": 0.0}, {"lat": 38.8973225, "lon": -77.05520766666666, "is_disabled": 0, "fusion_lon": 0.0, "is_reserved": 0, "name": "7fd046b2478c13179c528df8d4dc9873", "type": "electric_scooter", "bike_id": "7fd046b2478c13179c528df8d4dc9873", "rental_uris": {"ios": "https://dc.lft.to/lastmile_qr_scan", "android": "https://dc.lft.to/lastmile_qr_scan"}, "fusion_lat": 0.0}, {"lat": 38.909925666666666, "lon": -77.03202116666667, "is_disabled": 0, "fusion_lon": 0.0, "is_reserved": 0, "name": "ad9fb3e95b022531e3691a624a211e55", "type": "electric_scooter", "bike_id": "ad9fb3e95b022531e3691a624a211e55", "rental_uris": {"ios": "https://dc.lft.to/lastmile_qr_scan", "android": "https://dc.lft.to/lastmile_qr_scan"}, "fusion_lat": 0.0}, {"lat": 38.9076095, "lon": -77.00104283333333, "is_disabled": 0, "fusion_lon": 0.0, "is_reserved": 0, "name": "e646c41ccbbdd032257941c5e92942b8", "type": "electric_scooter", "bike_id": "e646c41ccbbdd032257941c5e92942b8", "rental_uris": {"ios": "https://dc.lft.to/lastmile_qr_scan", "android": "https://dc.lft.to/lastmile_qr_scan"}, "fusion_lat": 0.0}, {"lat": 38.89568083333333, "lon": -77.07832283333333, "is_disabled": 0, "fusion_lon": 0.0, "is_reserved": 0, "name": "231d54bcdb265c31027f1ec53ed08525", "type": "electric_bike", "bike_id": "231d54bcdb265c31027f1ec53ed08525", "rental_uris": {"ios": "https://dc.lft.to/lastmile_qr_scan", "android": "https://dc.lft.to/lastmile_qr_scan"}, "fusion_lat": 0.0}, {"lat": 38.901544666666666, "lon": -76.9902885, "is_disabled": 0, "fusion_lon": 0.0, "is_reserved": 0, "name": "e075c79d63968425920d3b25a18c8620", "type": "electric_scooter", "bike_id": "e075c79d63968425920d3b25a18c8620", "rental_uris": {"ios": "https://dc.lft.to/lastmile_qr_scan", "android": "https://dc.lft.to/lastmile_qr_scan"}, "fusion_lat": 0.0}, {"lat": 38.904151666666664, "lon": -77.04877616666667, "is_disabled": 0, "fusion_lon": 0.0, "is_reserved": 0, "name": "c94b63ebe21c85f4c0bb39838fc0b61e", "type": "electric_scooter", "bike_id": "c94b63ebe21c85f4c0bb39838fc0b61e", "rental_uris": {"ios": "https://dc.lft.to/lastmile_qr_scan", "android": "https://dc.lft.to/lastmile_qr_scan"}, "fusion_lat": 0.0}, {"lat": 38.91406533333333, "lon": -77.03220033333334, "is_disabled": 0, "fusion_lon": 0.0, "is_reserved": 0, "name": "136c3f3eb571c143302917d27e031643", "type": "electric_scooter", "bike_id": "136c3f3eb571c143302917d27e031643", "rental_uris": {"ios": "https://dc.lft.to/lastmile_qr_scan", "android": "https://dc.lft.to/lastmile_qr_scan"}, "fusion_lat": 0.0}, {"lat": 38.92656133333333, "lon": -77.0431505, "is_disabled": 0, "fusion_lon": 0.0, "is_reserved": 0, "name": "cc3008f0dc69d87713ee24fe9f7d4f6b", "type": "electric_scooter", "bike_id": "cc3008f0dc69d87713ee24fe9f7d4f6b", "rental_uris": {"ios": "https://dc.lft.to/lastmile_qr_scan", "android": "https://dc.lft.to/lastmile_qr_scan"}, "fusion_lat": 0.0}, {"lat": 38.92875816666667, "lon": -77.03448983333334, "is_disabled": 0, "fusion_lon": 0.0, "is_reserved": 0, "name": "a34066ca4bc74cdf5f41345c95813437", "type": "electric_scooter", "bike_id": "a34066ca4bc74cdf5f41345c95813437", "rental_uris": {"ios": "https://dc.lft.to/lastmile_qr_scan", "android": "https://dc.lft.to/lastmile_qr_scan"}, "fusion_lat": 0.0}, {"lat": 38.9228585, "lon": -77.03661433333333, "is_disabled": 0, "fusion_lon": 0.0, "is_reserved": 0, "name": "4ae7bfc9cb78ba899ec75df48b2db195", "type": "electric_scooter", "bike_id": "4ae7bfc9cb78ba899ec75df48b2db195", "rental_uris": {"ios": "https://dc.lft.to/lastmile_qr_scan", "android": "https://dc.lft.to/lastmile_qr_scan"}, "fusion_lat": 0.0}, {"lat": 38.91597216666667, "lon": -76.99363166666667, "is_disabled": 0, "fusion_lon": 0.0, "is_reserved": 0, "name": "87218350538082786102dde47b15f117", "type": "electric_scooter", "bike_id": "87218350538082786102dde47b15f117", "rental_uris": {"ios": "https://dc.lft.to/lastmile_qr_scan", "android": "https://dc.lft.to/lastmile_qr_scan"}, "fusion_lat": 0.0}, {"lat": 38.94814683333333, "lon": -77.10007183333333, "is_disabled": 0, "fusion_lon": 0.0, "is_reserved": 0, "name": "544ff346480dd8cce16da8d0e2e1f191", "type": "electric_bike", "bike_id": "544ff346480dd8cce16da8d0e2e1f191", "rental_uris": {"ios": "https://dc.lft.to/lastmile_qr_scan", "android": "https://dc.lft.to/lastmile_qr_scan"}, "fusion_lat": 0.0}, {"lat": 38.8985425, "lon": -76.93187516666667, "is_disabled": 0, "fusion_lon": 0.0, "is_reserved": 0, "name": "e94784cd410fb1c70454c327ced28325", "type": "electric_bike", "bike_id": "e94784cd410fb1c70454c327ced28325", "rental_uris": {"ios": "https://dc.lft.to/lastmile_qr_scan", "android": "https://dc.lft.to/lastmile_qr_scan"}, "fusion_lat": 0.0}, {"lat": 38.8973015, "lon": -77.055231, "is_disabled": 0, "fusion_lon": 0.0, "is_reserved": 0, "name": "f9c1b91ea5e25e43c1dce43012454894", "type": "electric_scooter", "bike_id": "f9c1b91ea5e25e43c1dce43012454894", "rental_uris": {"ios": "https://dc.lft.to/lastmile_qr_scan", "android": "https://dc.lft.to/lastmile_qr_scan"}, "fusion_lat": 0.0}, {"lat": 38.91827833333333, "lon": -77.03152866666667, "is_disabled": 0, "fusion_lon": 0.0, "is_reserved": 0, "name": "aa1b39bff9cc2e8822c46e4188449a3d", "type": "electric_scooter", "bike_id": "aa1b39bff9cc2e8822c46e4188449a3d", "rental_uris": {"ios": "https://dc.lft.to/lastmile_qr_scan", "android": "https://dc.lft.to/lastmile_qr_scan"}, "fusion_lat": 0.0}, {"lat": 38.9166535, "lon": -77.02998666666667, "is_disabled": 0, "fusion_lon": 0.0, "is_reserved": 0, "name": "ce88ab888e0da2a5e5e9f9ae93fa4796", "type": "electric_scooter", "bike_id": "ce88ab888e0da2a5e5e9f9ae93fa4796", "rental_uris": {"ios": "https://dc.lft.to/lastmile_qr_scan", "android": "https://dc.lft.to/lastmile_qr_scan"}, "fusion_lat": 0.0}, {"lat": 38.847568333333335, "lon": -76.99502733333334, "is_disabled": 0, "fusion_lon": 0.0, "is_reserved": 0, "name": "9e194bd2a70faaab9327ba7b98de53fc", "type": "electric_scooter", "bike_id": "9e194bd2a70faaab9327ba7b98de53fc", "rental_uris": {"ios": "https://dc.lft.to/lastmile_qr_scan", "android": "https://dc.lft.to/lastmile_qr_scan"}, "fusion_lat": 0.0}, {"lat": 38.91429933333333, "lon": -77.0319165, "is_disabled": 0, "fusion_lon": 0.0, "is_reserved": 0, "name": "01d6a6c26f10f0846f36da32e361d170", "type": "electric_scooter", "bike_id": "01d6a6c26f10f0846f36da32e361d170", "rental_uris": {"ios": "https://dc.lft.to/lastmile_qr_scan", "android": "https://dc.lft.to/lastmile_qr_scan"}, "fusion_lat": 0.0}, {"lat": 38.859848166666666, "lon": -76.99653916666666, "is_disabled": 0, "fusion_lon": 0.0, "is_reserved": 0, "name": "4af06bf688b7a9392b85fb92ba9ae5da", "type": "electric_scooter", "bike_id": "4af06bf688b7a9392b85fb92ba9ae5da", "rental_uris": {"ios": "https://dc.lft.to/lastmile_qr_scan", "android": "https://dc.lft.to/lastmile_qr_scan"}, "fusion_lat": 0.0}, {"lat": 38.91799733333333, "lon": -77.02485066666667, "is_disabled": 0, "fusion_lon": 0.0, "is_reserved": 0, "name": "de095128b970acb64d89f494986924e3", "type": "electric_scooter", "bike_id": "de095128b970acb64d89f494986924e3", "rental_uris": {"ios": "https://dc.lft.to/lastmile_qr_scan", "android": "https://dc.lft.to/lastmile_qr_scan"}, "fusion_lat": 0.0}, {"lat": 38.91233033333334, "lon": -77.0152685, "is_disabled": 0, "fusion_lon": 0.0, "is_reserved": 0, "name": "04da06f9b07a18874bedc8dde59167fc", "type": "electric_scooter", "bike_id": "04da06f9b07a18874bedc8dde59167fc", "rental_uris": {"ios": "https://dc.lft.to/lastmile_qr_scan", "android": "https://dc.lft.to/lastmile_qr_scan"}, "fusion_lat": 0.0}, {"lat": 38.91672233333333, "lon": -77.0471795, "is_disabled": 0, "fusion_lon": 0.0, "is_reserved": 0, "name": "cbf9d2f99c1629c9dd3f3e807faffb9e", "type": "electric_scooter", "bike_id": "cbf9d2f99c1629c9dd3f3e807faffb9e", "rental_uris": {"ios": "https://dc.lft.to/lastmile_qr_scan", "android": "https://dc.lft.to/lastmile_qr_scan"}, "fusion_lat": 0.0}, {"lat": 38.92360716666666, "lon": -77.03199216666667, "is_disabled": 0, "fusion_lon": 0.0, "is_reserved": 0, "name": "d0953a640074dc31069f39a3fc6dcf37", "type": "electric_scooter", "bike_id": "d0953a640074dc31069f39a3fc6dcf37", "rental_uris": {"ios": "https://dc.lft.to/lastmile_qr_scan", "android": "https://dc.lft.to/lastmile_qr_scan"}, "fusion_lat": 0.0}, {"lat": 38.91797, "lon": -77.027066, "is_disabled": 0, "fusion_lon": 0.0, "is_reserved": 0, "name": "d21ba8694945872b9538f616f3481ad1", "type": "electric_scooter", "bike_id": "d21ba8694945872b9538f616f3481ad1", "rental_uris": {"ios": "https://dc.lft.to/lastmile_qr_scan", "android": "https://dc.lft.to/lastmile_qr_scan"}, "fusion_lat": 0.0}, {"lat": 38.907908666666664, "lon": -77.03864516666667, "is_disabled": 0, "fusion_lon": 0.0, "is_reserved": 0, "name": "751d4526a338c32cc768b1d3a1bef03d", "type": "electric_scooter", "bike_id": "751d4526a338c32cc768b1d3a1bef03d", "rental_uris": {"ios": "https://dc.lft.to/lastmile_qr_scan", "android": "https://dc.lft.to/lastmile_qr_scan"}, "fusion_lat": 0.0}, {"lat": 38.92614716666667, "lon": -77.021645, "is_disabled": 0, "fusion_lon": 0.0, "is_reserved": 0, "name": "d7eb2b317a5ac4d45c6cc4a668d28bbb", "type": "electric_scooter", "bike_id": "d7eb2b317a5ac4d45c6cc4a668d28bbb", "rental_uris": {"ios": "https://dc.lft.to/lastmile_qr_scan", "android": "https://dc.lft.to/lastmile_qr_scan"}, "fusion_lat": 0.0}, {"lat": 38.91675433333333, "lon": -77.02383483333334, "is_disabled": 0, "fusion_lon": 0.0, "is_reserved": 0, "name": "21f6643e9fd17bf58517e6ee53d22811", "type": "electric_scooter", "bike_id": "21f6643e9fd17bf58517e6ee53d22811", "rental_uris": {"ios": "https://dc.lft.to/lastmile_qr_scan", "android": "https://dc.lft.to/lastmile_qr_scan"}, "fusion_lat": 0.0}, {"lat": 38.88758216666667, "lon": -76.99759666666667, "is_disabled": 0, "fusion_lon": 0.0, "is_reserved": 0, "name": "bb7ab26e41b68d5add840139d46354a1", "type": "electric_scooter", "bike_id": "bb7ab26e41b68d5add840139d46354a1", "rental_uris": {"ios": "https://dc.lft.to/lastmile_qr_scan", "android": "https://dc.lft.to/lastmile_qr_scan"}, "fusion_lat": 0.0}, {"lat": 38.89978633333333, "lon": -77.016385, "is_disabled": 0, "fusion_lon": 0.0, "is_reserved": 0, "name": "66844fba18692564a5b12ef2a080f12e", "type": "electric_scooter", "bike_id": "66844fba18692564a5b12ef2a080f12e", "rental_uris": {"ios": "https://dc.lft.to/lastmile_qr_scan", "android": "https://dc.lft.to/lastmile_qr_scan"}, "fusion_lat": 0.0}, {"lat": 38.8873355, "lon": -77.02381266666667, "is_disabled": 0, "fusion_lon": 0.0, "is_reserved": 0, "name": "a4774f439b959e630814a86a43dcb584", "type": "electric_scooter", "bike_id": "a4774f439b959e630814a86a43dcb584", "rental_uris": {"ios": "https://dc.lft.to/lastmile_qr_scan", "android": "https://dc.lft.to/lastmile_qr_scan"}, "fusion_lat": 0.0}, {"lat": 38.922421666666665, "lon": -77.07311366666667, "is_disabled": 0, "fusion_lon": 0.0, "is_reserved": 0, "name": "ee5a5fdc6837bec9e857b8eaa0ec291e", "type": "electric_scooter", "bike_id": "ee5a5fdc6837bec9e857b8eaa0ec291e", "rental_uris": {"ios": "https://dc.lft.to/lastmile_qr_scan", "android": "https://dc.lft.to/lastmile_qr_scan"}, "fusion_lat": 0.0}, {"lat": 38.96159166666666, "lon": -77.02777816666666, "is_disabled": 0, "fusion_lon": 0.0, "is_reserved": 0, "name": "c82ae3ad464d4cd99e9d39ef9abf0672", "type": "electric_scooter", "bike_id": "c82ae3ad464d4cd99e9d39ef9abf0672", "rental_uris": {"ios": "https://dc.lft.to/lastmile_qr_scan", "android": "https://dc.lft.to/lastmile_qr_scan"}, "fusion_lat": 0.0}, {"lat": 38.918868, "lon": -77.02954283333334, "is_disabled": 0, "fusion_lon": 0.0, "is_reserved": 0, "name": "18222b4abe8bcbce99d78fa03c0c4e22", "type": "electric_scooter", "bike_id": "18222b4abe8bcbce99d78fa03c0c4e22", "rental_uris": {"ios": "https://dc.lft.to/lastmile_qr_scan", "android": "https://dc.lft.to/lastmile_qr_scan"}, "fusion_lat": 0.0}, {"lat": 38.93245566666667, "lon": -77.0328105, "is_disabled": 0, "fusion_lon": 0.0, "is_reserved": 0, "name": "9109fe1447908955e354636614d1779f", "type": "electric_scooter", "bike_id": "9109fe1447908955e354636614d1779f", "rental_uris": {"ios": "https://dc.lft.to/lastmile_qr_scan", "android": "https://dc.lft.to/lastmile_qr_scan"}, "fusion_lat": 0.0}, {"lat": 38.931240833333334, "lon": -77.03479216666666, "is_disabled": 0, "fusion_lon": 0.0, "is_reserved": 0, "name": "ca5e8c3aafa626e21d7120e06a07513a", "type": "electric_bike", "bike_id": "ca5e8c3aafa626e21d7120e06a07513a", "rental_uris": {"ios": "https://dc.lft.to/lastmile_qr_scan", "android": "https://dc.lft.to/lastmile_qr_scan"}, "fusion_lat": 0.0}, {"lat": 38.9169265, "lon": -77.02628466666667, "is_disabled": 0, "fusion_lon": 0.0, "is_reserved": 0, "name": "be177c3c6bb4116512d1756799e8541b", "type": "electric_scooter", "bike_id": "be177c3c6bb4116512d1756799e8541b", "rental_uris": {"ios": "https://dc.lft.to/lastmile_qr_scan", "android": "https://dc.lft.to/lastmile_qr_scan"}, "fusion_lat": 0.0}, {"lat": 38.9310015, "lon": -77.02658566666666, "is_disabled": 0, "fusion_lon": 0.0, "is_reserved": 0, "name": "d1c665492e3cae47dd48eadfd34dcfea", "type": "electric_scooter", "bike_id": "d1c665492e3cae47dd48eadfd34dcfea", "rental_uris": {"ios": "https://dc.lft.to/lastmile_qr_scan", "android": "https://dc.lft.to/lastmile_qr_scan"}, "fusion_lat": 0.0}, {"lat": 38.99388033333334, "lon": -76.92881783333333, "is_disabled": 0, "fusion_lon": 0.0, "is_reserved": 0, "name": "352d2a0898032ce16e5c1bc591119bc1", "type": "electric_bike", "bike_id": "352d2a0898032ce16e5c1bc591119bc1", "rental_uris": {"ios": "https://dc.lft.to/lastmile_qr_scan", "android": "https://dc.lft.to/lastmile_qr_scan"}, "fusion_lat": 0.0}, {"lat": 38.9247475, "lon": -77.03525933333333, "is_disabled": 0, "fusion_lon": 0.0, "is_reserved": 0, "name": "66873ce818ddae6011c5efe8a16c0414", "type": "electric_scooter", "bike_id": "66873ce818ddae6011c5efe8a16c0414", "rental_uris": {"ios": "https://dc.lft.to/lastmile_qr_scan", "android": "https://dc.lft.to/lastmile_qr_scan"}, "fusion_lat": 0.0}, {"lat": 38.884617166666665, "lon": -76.95235866666667, "is_disabled": 0, "fusion_lon": 0.0, "is_reserved": 0, "name": "4895208aae666d338bcf587dbac39f47", "type": "electric_bike", "bike_id": "4895208aae666d338bcf587dbac39f47", "rental_uris": {"ios": "https://dc.lft.to/lastmile_qr_scan", "android": "https://dc.lft.to/lastmile_qr_scan"}, "fusion_lat": 0.0}, {"lat": 38.949235333333334, "lon": -77.00800633333333, "is_disabled": 0, "fusion_lon": 0.0, "is_reserved": 0, "name": "c5450c660c2058cf6b016ad72072c100", "type": "electric_bike", "bike_id": "c5450c660c2058cf6b016ad72072c100", "rental_uris": {"ios": "https://dc.lft.to/lastmile_qr_scan", "android": "https://dc.lft.to/lastmile_qr_scan"}, "fusion_lat": 0.0}, {"lat": 38.89809116666667, "lon": -76.9907555, "is_disabled": 0, "fusion_lon": 0.0, "is_reserved": 0, "name": "09f5edb8aa2fed68c93eba394a1f5851", "type": "electric_bike", "bike_id": "09f5edb8aa2fed68c93eba394a1f5851", "rental_uris": {"ios": "https://dc.lft.to/lastmile_qr_scan", "android": "https://dc.lft.to/lastmile_qr_scan"}, "fusion_lat": 0.0}, {"lat": 38.91488566666666, "lon": -77.0346845, "is_disabled": 0, "fusion_lon": 0.0, "is_reserved": 0, "name": "fd063425e112be6af436faeb0a5117c8", "type": "electric_scooter", "bike_id": "fd063425e112be6af436faeb0a5117c8", "rental_uris": {"ios": "https://dc.lft.to/lastmile_qr_scan", "android": "https://dc.lft.to/lastmile_qr_scan"}, "fusion_lat": 0.0}, {"lat": 38.896321666666665, "lon": -77.021344, "is_disabled": 0, "fusion_lon": 0.0, "is_reserved": 0, "name": "c8628ed785155a2c4048a232fcc60180", "type": "electric_scooter", "bike_id": "c8628ed785155a2c4048a232fcc60180", "rental_uris": {"ios": "https://dc.lft.to/lastmile_qr_scan", "android": "https://dc.lft.to/lastmile_qr_scan"}, "fusion_lat": 0.0}, {"lat": 38.931970166666666, "lon": -77.02821116666667, "is_disabled": 0, "fusion_lon": 0.0, "is_reserved": 0, "name": "24bac27dfee43baee62a49966b61e5fb", "type": "electric_scooter", "bike_id": "24bac27dfee43baee62a49966b61e5fb", "rental_uris": {"ios": "https://dc.lft.to/lastmile_qr_scan", "android": "https://dc.lft.to/lastmile_qr_scan"}, "fusion_lat": 0.0}, {"lat": 38.914221833333336, "lon": -77.02181066666667, "is_disabled": 0, "fusion_lon": 0.0, "is_reserved": 0, "name": "9ba98e2b53eaed9ea5e019f2b595aa51", "type": "electric_scooter", "bike_id": "9ba98e2b53eaed9ea5e019f2b595aa51", "rental_uris": {"ios": "https://dc.lft.to/lastmile_qr_scan", "android": "https://dc.lft.to/lastmile_qr_scan"}, "fusion_lat": 0.0}, {"lat": 38.938568833333335, "lon": -77.0247455, "is_disabled": 0, "fusion_lon": 0.0, "is_reserved": 0, "name": "b71ca4861713cb5c19cab745dc47a36c", "type": "electric_scooter", "bike_id": "b71ca4861713cb5c19cab745dc47a36c", "rental_uris": {"ios": "https://dc.lft.to/lastmile_qr_scan", "android": "https://dc.lft.to/lastmile_qr_scan"}, "fusion_lat": 0.0}, {"lat": 38.92064383333334, "lon": -77.0319685, "is_disabled": 0, "fusion_lon": 0.0, "is_reserved": 0, "name": "8dc2b6b6d1149536890cb0d047a7b2ea", "type": "electric_scooter", "bike_id": "8dc2b6b6d1149536890cb0d047a7b2ea", "rental_uris": {"ios": "https://dc.lft.to/lastmile_qr_scan", "android": "https://dc.lft.to/lastmile_qr_scan"}, "fusion_lat": 0.0}, {"lat": 38.963723, "lon": -76.94522916666666, "is_disabled": 0, "fusion_lon": 0.0, "is_reserved": 0, "name": "372de1ff1e0f5688c1888d2b2bf9fab2", "type": "electric_bike", "bike_id": "372de1ff1e0f5688c1888d2b2bf9fab2", "rental_uris": {"ios": "https://dc.lft.to/lastmile_qr_scan", "android": "https://dc.lft.to/lastmile_qr_scan"}, "fusion_lat": 0.0}, {"lat": 38.9072595, "lon": -77.02971916666667, "is_disabled": 0, "fusion_lon": 0.0, "is_reserved": 0, "name": "1e3815191aab4cd15b2b6d35984f58a7", "type": "electric_scooter", "bike_id": "1e3815191aab4cd15b2b6d35984f58a7", "rental_uris": {"ios": "https://dc.lft.to/lastmile_qr_scan", "android": "https://dc.lft.to/lastmile_qr_scan"}, "fusion_lat": 0.0}, {"lat": 38.923410833333335, "lon": -77.01907983333334, "is_disabled": 0, "fusion_lon": 0.0, "is_reserved": 0, "name": "2fce5cd0c5d44664e0a16a6515ad4746", "type": "electric_scooter", "bike_id": "2fce5cd0c5d44664e0a16a6515ad4746", "rental_uris": {"ios": "https://dc.lft.to/lastmile_qr_scan", "android": "https://dc.lft.to/lastmile_qr_scan"}, "fusion_lat": 0.0}, {"lat": 38.92263616666666, "lon": -77.036892, "is_disabled": 0, "fusion_lon": 0.0, "is_reserved": 0, "name": "bd545baf84dd135af55d519c61a708ed", "type": "electric_scooter", "bike_id": "bd545baf84dd135af55d519c61a708ed", "rental_uris": {"ios": "https://dc.lft.to/lastmile_qr_scan", "android": "https://dc.lft.to/lastmile_qr_scan"}, "fusion_lat": 0.0}, {"lat": 38.89572066666667, "lon": -76.983179, "is_disabled": 0, "fusion_lon": 0.0, "is_reserved": 0, "name": "1e81d0bac3980b81f457e8f96fbd07b1", "type": "electric_scooter", "bike_id": "1e81d0bac3980b81f457e8f96fbd07b1", "rental_uris": {"ios": "https://dc.lft.to/lastmile_qr_scan", "android": "https://dc.lft.to/lastmile_qr_scan"}, "fusion_lat": 0.0}, {"lat": 38.90975266666667, "lon": -77.048027, "is_disabled": 0, "fusion_lon": 0.0, "is_reserved": 0, "name": "65c86555f833eebcc2007e415963356e", "type": "electric_scooter", "bike_id": "65c86555f833eebcc2007e415963356e", "rental_uris": {"ios": "https://dc.lft.to/lastmile_qr_scan", "android": "https://dc.lft.to/lastmile_qr_scan"}, "fusion_lat": 0.0}, {"lat": 38.93467233333333, "lon": -77.04138833333333, "is_disabled": 0, "fusion_lon": 0.0, "is_reserved": 0, "name": "e5015fab761d2eeaea6686e3d3e9d803", "type": "electric_scooter", "bike_id": "e5015fab761d2eeaea6686e3d3e9d803", "rental_uris": {"ios": "https://dc.lft.to/lastmile_qr_scan", "android": "https://dc.lft.to/lastmile_qr_scan"}, "fusion_lat": 0.0}, {"lat": 38.93586883333333, "lon": -77.03498316666666, "is_disabled": 0, "fusion_lon": 0.0, "is_reserved": 0, "name": "b63ee2aa5567b4c301cbc25191a99c6f", "type": "electric_scooter", "bike_id": "b63ee2aa5567b4c301cbc25191a99c6f", "rental_uris": {"ios": "https://dc.lft.to/lastmile_qr_scan", "android": "https://dc.lft.to/lastmile_qr_scan"}, "fusion_lat": 0.0}, {"lat": 38.88703233333333, "lon": -76.993835, "is_disabled": 0, "fusion_lon": 0.0, "is_reserved": 0, "name": "8e1b786f30fad5f54a77038626a6aa19", "type": "electric_scooter", "bike_id": "8e1b786f30fad5f54a77038626a6aa19", "rental_uris": {"ios": "https://dc.lft.to/lastmile_qr_scan", "android": "https://dc.lft.to/lastmile_qr_scan"}, "fusion_lat": 0.0}, {"lat": 38.922826666666666, "lon": -77.03661666666666, "is_disabled": 0, "fusion_lon": 0.0, "is_reserved": 0, "name": "74264069b2a6d2fec89296cc2a8e93d0", "type": "electric_scooter", "bike_id": "74264069b2a6d2fec89296cc2a8e93d0", "rental_uris": {"ios": "https://dc.lft.to/lastmile_qr_scan", "android": "https://dc.lft.to/lastmile_qr_scan"}, "fusion_lat": 0.0}, {"lat": 38.915996666666665, "lon": -77.04505633333333, "is_disabled": 0, "fusion_lon": 0.0, "is_reserved": 0, "name": "f2f6ee8dde317e57140a2177528c317f", "type": "electric_scooter", "bike_id": "f2f6ee8dde317e57140a2177528c317f", "rental_uris": {"ios": "https://dc.lft.to/lastmile_qr_scan", "android": "https://dc.lft.to/lastmile_qr_scan"}, "fusion_lat": 0.0}, {"lat": 38.92556166666667, "lon": -77.052639, "is_disabled": 0, "fusion_lon": 0.0, "is_reserved": 0, "name": "e172ac99c89b0e8e4a02d276a944712b", "type": "electric_scooter", "bike_id": "e172ac99c89b0e8e4a02d276a944712b", "rental_uris": {"ios": "https://dc.lft.to/lastmile_qr_scan", "android": "https://dc.lft.to/lastmile_qr_scan"}, "fusion_lat": 0.0}, {"lat": 38.937086, "lon": -77.03523216666666, "is_disabled": 0, "fusion_lon": 0.0, "is_reserved": 0, "name": "4a185d53e9712d7749bef8d0a49af122", "type": "electric_scooter", "bike_id": "4a185d53e9712d7749bef8d0a49af122", "rental_uris": {"ios": "https://dc.lft.to/lastmile_qr_scan", "android": "https://dc.lft.to/lastmile_qr_scan"}, "fusion_lat": 0.0}, {"lat": 38.9162805, "lon": -77.04017516666667, "is_disabled": 0, "fusion_lon": 0.0, "is_reserved": 0, "name": "c2513b4779efc5d5eaf8e7ac45a705f5", "type": "electric_scooter", "bike_id": "c2513b4779efc5d5eaf8e7ac45a705f5", "rental_uris": {"ios": "https://dc.lft.to/lastmile_qr_scan", "android": "https://dc.lft.to/lastmile_qr_scan"}, "fusion_lat": 0.0}, {"lat": 38.89352266666667, "lon": -76.95232533333333, "is_disabled": 0, "fusion_lon": 0.0, "is_reserved": 0, "name": "2fe405166f271fa6809bd8330801500e", "type": "electric_scooter", "bike_id": "2fe405166f271fa6809bd8330801500e", "rental_uris": {"ios": "https://dc.lft.to/lastmile_qr_scan", "android": "https://dc.lft.to/lastmile_qr_scan"}, "fusion_lat": 0.0}, {"lat": 38.9190105, "lon": -77.03183733333333, "is_disabled": 0, "fusion_lon": 0.0, "is_reserved": 0, "name": "e527c40923dffcd34fd4e5db0b2da1b4", "type": "electric_scooter", "bike_id": "e527c40923dffcd34fd4e5db0b2da1b4", "rental_uris": {"ios": "https://dc.lft.to/lastmile_qr_scan", "android": "https://dc.lft.to/lastmile_qr_scan"}, "fusion_lat": 0.0}, {"lat": 38.896302666666664, "lon": -77.01337216666667, "is_disabled": 0, "fusion_lon": 0.0, "is_reserved": 0, "name": "a3976800af230aea7b452012b233b167", "type": "electric_scooter", "bike_id": "a3976800af230aea7b452012b233b167", "rental_uris": {"ios": "https://dc.lft.to/lastmile_qr_scan", "android": "https://dc.lft.to/lastmile_qr_scan"}, "fusion_lat": 0.0}, {"lat": 38.973500333333334, "lon": -77.02787566666667, "is_disabled": 0, "fusion_lon": 0.0, "is_reserved": 0, "name": "fd88639583798375958563d4dfba6811", "type": "electric_scooter", "bike_id": "fd88639583798375958563d4dfba6811", "rental_uris": {"ios": "https://dc.lft.to/lastmile_qr_scan", "android": "https://dc.lft.to/lastmile_qr_scan"}, "fusion_lat": 0.0}, {"lat": 38.907591833333335, "lon": -77.03306616666667, "is_disabled": 0, "fusion_lon": 0.0, "is_reserved": 0, "name": "156ef7c80e1bd2f8b76bb846ec684efe", "type": "electric_scooter", "bike_id": "156ef7c80e1bd2f8b76bb846ec684efe", "rental_uris": {"ios": "https://dc.lft.to/lastmile_qr_scan", "android": "https://dc.lft.to/lastmile_qr_scan"}, "fusion_lat": 0.0}, {"lat": 38.9080265, "lon": -77.0297245, "is_disabled": 0, "fusion_lon": 0.0, "is_reserved": 0, "name": "9bb846cc204a0800fa6ac5f6ae800961", "type": "electric_scooter", "bike_id": "9bb846cc204a0800fa6ac5f6ae800961", "rental_uris": {"ios": "https://dc.lft.to/lastmile_qr_scan", "android": "https://dc.lft.to/lastmile_qr_scan"}, "fusion_lat": 0.0}, {"lat": 38.925522666666666, "lon": -77.00069933333333, "is_disabled": 0, "fusion_lon": 0.0, "is_reserved": 0, "name": "4f67a17aa12ef442e5dae3d3b97611a8", "type": "electric_scooter", "bike_id": "4f67a17aa12ef442e5dae3d3b97611a8", "rental_uris": {"ios": "https://dc.lft.to/lastmile_qr_scan", "android": "https://dc.lft.to/lastmile_qr_scan"}, "fusion_lat": 0.0}, {"lat": 38.90562666666667, "lon": -77.02496666666667, "is_disabled": 0, "fusion_lon": 0.0, "is_reserved": 0, "name": "ca85d4170e18de31299b20edb250a82e", "type": "electric_scooter", "bike_id": "ca85d4170e18de31299b20edb250a82e", "rental_uris": {"ios": "https://dc.lft.to/lastmile_qr_scan", "android": "https://dc.lft.to/lastmile_qr_scan"}, "fusion_lat": 0.0}, {"lat": 38.92103316666667, "lon": -77.03249333333333, "is_disabled": 0, "fusion_lon": 0.0, "is_reserved": 0, "name": "25cae57163a33bc1dd7c7b541db3fcb1", "type": "electric_scooter", "bike_id": "25cae57163a33bc1dd7c7b541db3fcb1", "rental_uris": {"ios": "https://dc.lft.to/lastmile_qr_scan", "android": "https://dc.lft.to/lastmile_qr_scan"}, "fusion_lat": 0.0}, {"lat": 38.90928483333333, "lon": -76.99979816666666, "is_disabled": 0, "fusion_lon": 0.0, "is_reserved": 0, "name": "b0244267676596ba34c4f3c8cca8e434", "type": "electric_scooter", "bike_id": "b0244267676596ba34c4f3c8cca8e434", "rental_uris": {"ios": "https://dc.lft.to/lastmile_qr_scan", "android": "https://dc.lft.to/lastmile_qr_scan"}, "fusion_lat": 0.0}, {"lat": 38.91812483333333, "lon": -77.034488, "is_disabled": 0, "fusion_lon": 0.0, "is_reserved": 0, "name": "fa1d8f5dce2eea2537b46c41ec6ac48b", "type": "electric_scooter", "bike_id": "fa1d8f5dce2eea2537b46c41ec6ac48b", "rental_uris": {"ios": "https://dc.lft.to/lastmile_qr_scan", "android": "https://dc.lft.to/lastmile_qr_scan"}, "fusion_lat": 0.0}, {"lat": 38.90033183333333, "lon": -76.99855466666666, "is_disabled": 0, "fusion_lon": 0.0, "is_reserved": 0, "name": "b5fab98f426702d2f9e36fc6436d67e2", "type": "electric_scooter", "bike_id": "b5fab98f426702d2f9e36fc6436d67e2", "rental_uris": {"ios": "https://dc.lft.to/lastmile_qr_scan", "android": "https://dc.lft.to/lastmile_qr_scan"}, "fusion_lat": 0.0}, {"lat": 38.9308375, "lon": -77.02806733333334, "is_disabled": 0, "fusion_lon": 0.0, "is_reserved": 0, "name": "88afe658b3f43d64f4bcdc7a9d7a9cf2", "type": "electric_scooter", "bike_id": "88afe658b3f43d64f4bcdc7a9d7a9cf2", "rental_uris": {"ios": "https://dc.lft.to/lastmile_qr_scan", "android": "https://dc.lft.to/lastmile_qr_scan"}, "fusion_lat": 0.0}, {"lat": 38.91547716666667, "lon": -77.0384465, "is_disabled": 0, "fusion_lon": 0.0, "is_reserved": 0, "name": "47f562befef8da00627f837a02094527", "type": "electric_scooter", "bike_id": "47f562befef8da00627f837a02094527", "rental_uris": {"ios": "https://dc.lft.to/lastmile_qr_scan", "android": "https://dc.lft.to/lastmile_qr_scan"}, "fusion_lat": 0.0}, {"lat": 38.92209833333333, "lon": -77.04196683333333, "is_disabled": 0, "fusion_lon": 0.0, "is_reserved": 0, "name": "9457bb2ca067774f22466f4466f4e65b", "type": "electric_scooter", "bike_id": "9457bb2ca067774f22466f4466f4e65b", "rental_uris": {"ios": "https://dc.lft.to/lastmile_qr_scan", "android": "https://dc.lft.to/lastmile_qr_scan"}, "fusion_lat": 0.0}, {"lat": 38.89163383333333, "lon": -76.9948935, "is_disabled": 0, "fusion_lon": 0.0, "is_reserved": 0, "name": "ff6e7f9a2ecce3161f645615946f8e7c", "type": "electric_scooter", "bike_id": "ff6e7f9a2ecce3161f645615946f8e7c", "rental_uris": {"ios": "https://dc.lft.to/lastmile_qr_scan", "android": "https://dc.lft.to/lastmile_qr_scan"}, "fusion_lat": 0.0}, {"lat": 38.897443833333334, "lon": -76.992031, "is_disabled": 0, "fusion_lon": 0.0, "is_reserved": 0, "name": "03ac5334dea177af8e21e10515f1c536", "type": "electric_bike", "bike_id": "03ac5334dea177af8e21e10515f1c536", "rental_uris": {"ios": "https://dc.lft.to/lastmile_qr_scan", "android": "https://dc.lft.to/lastmile_qr_scan"}, "fusion_lat": 0.0}, {"lat": 38.873115166666665, "lon": -77.001446, "is_disabled": 0, "fusion_lon": 0.0, "is_reserved": 0, "name": "3a91350fe7f82f582d60ba61635b1a94", "type": "electric_scooter", "bike_id": "3a91350fe7f82f582d60ba61635b1a94", "rental_uris": {"ios": "https://dc.lft.to/lastmile_qr_scan", "android": "https://dc.lft.to/lastmile_qr_scan"}, "fusion_lat": 0.0}, {"lat": 38.92145983333333, "lon": -77.01807016666666, "is_disabled": 0, "fusion_lon": 0.0, "is_reserved": 0, "name": "3d46ee72c54b9eed1d92a0d5ff664db5", "type": "electric_scooter", "bike_id": "3d46ee72c54b9eed1d92a0d5ff664db5", "rental_uris": {"ios": "https://dc.lft.to/lastmile_qr_scan", "android": "https://dc.lft.to/lastmile_qr_scan"}, "fusion_lat": 0.0}, {"lat": 38.93611116666667, "lon": -77.03540116666667, "is_disabled": 0, "fusion_lon": 0.0, "is_reserved": 0, "name": "0e4db96f8406feb456a20e1c383268f6", "type": "electric_bike", "bike_id": "0e4db96f8406feb456a20e1c383268f6", "rental_uris": {"ios": "https://dc.lft.to/lastmile_qr_scan", "android": "https://dc.lft.to/lastmile_qr_scan"}, "fusion_lat": 0.0}, {"lat": 38.91043716666667, "lon": -77.03439416666667, "is_disabled": 0, "fusion_lon": 0.0, "is_reserved": 0, "name": "86adcd248c36b68a8dce7a8220b40c7e", "type": "electric_scooter", "bike_id": "86adcd248c36b68a8dce7a8220b40c7e", "rental_uris": {"ios": "https://dc.lft.to/lastmile_qr_scan", "android": "https://dc.lft.to/lastmile_qr_scan"}, "fusion_lat": 0.0}, {"lat": 38.93351033333333, "lon": -77.0620045, "is_disabled": 0, "fusion_lon": 0.0, "is_reserved": 0, "name": "0d113c603e35d8bec25c5f467448f8e8", "type": "electric_scooter", "bike_id": "0d113c603e35d8bec25c5f467448f8e8", "rental_uris": {"ios": "https://dc.lft.to/lastmile_qr_scan", "android": "https://dc.lft.to/lastmile_qr_scan"}, "fusion_lat": 0.0}, {"lat": 38.91674283333333, "lon": -77.0239235, "is_disabled": 0, "fusion_lon": 0.0, "is_reserved": 0, "name": "bc1490f0524cd5ecff54c95db359fb03", "type": "electric_scooter", "bike_id": "bc1490f0524cd5ecff54c95db359fb03", "rental_uris": {"ios": "https://dc.lft.to/lastmile_qr_scan", "android": "https://dc.lft.to/lastmile_qr_scan"}, "fusion_lat": 0.0}, {"lat": 38.9247915, "lon": -77.03555083333333, "is_disabled": 0, "fusion_lon": 0.0, "is_reserved": 0, "name": "e5a02a1e4d364d4830630dff28b46810", "type": "electric_scooter", "bike_id": "e5a02a1e4d364d4830630dff28b46810", "rental_uris": {"ios": "https://dc.lft.to/lastmile_qr_scan", "android": "https://dc.lft.to/lastmile_qr_scan"}, "fusion_lat": 0.0}, {"lat": 38.8986495, "lon": -77.02190933333333, "is_disabled": 0, "fusion_lon": 0.0, "is_reserved": 0, "name": "6d879dbbbef84f15911efba5c453bfcd", "type": "electric_scooter", "bike_id": "6d879dbbbef84f15911efba5c453bfcd", "rental_uris": {"ios": "https://dc.lft.to/lastmile_qr_scan", "android": "https://dc.lft.to/lastmile_qr_scan"}, "fusion_lat": 0.0}, {"lat": 38.91754366666667, "lon": -77.03197683333333, "is_disabled": 0, "fusion_lon": 0.0, "is_reserved": 0, "name": "3569b138ef131b2b555167af1f0ebc1b", "type": "electric_scooter", "bike_id": "3569b138ef131b2b555167af1f0ebc1b", "rental_uris": {"ios": "https://dc.lft.to/lastmile_qr_scan", "android": "https://dc.lft.to/lastmile_qr_scan"}, "fusion_lat": 0.0}, {"lat": 38.90021683333333, "lon": -76.9975925, "is_disabled": 0, "fusion_lon": 0.0, "is_reserved": 0, "name": "0f052cd9f3289d56bc45efdd669793eb", "type": "electric_scooter", "bike_id": "0f052cd9f3289d56bc45efdd669793eb", "rental_uris": {"ios": "https://dc.lft.to/lastmile_qr_scan", "android": "https://dc.lft.to/lastmile_qr_scan"}, "fusion_lat": 0.0}, {"lat": 38.92597466666667, "lon": -77.03542583333333, "is_disabled": 0, "fusion_lon": 0.0, "is_reserved": 0, "name": "09021e021b269bb930fdad50fdaa1b83", "type": "electric_scooter", "bike_id": "09021e021b269bb930fdad50fdaa1b83", "rental_uris": {"ios": "https://dc.lft.to/lastmile_qr_scan", "android": "https://dc.lft.to/lastmile_qr_scan"}, "fusion_lat": 0.0}, {"lat": 38.917149, "lon": -77.01227866666666, "is_disabled": 0, "fusion_lon": 0.0, "is_reserved": 0, "name": "819a0fa7af31c8b14cf64496c337902f", "type": "electric_scooter", "bike_id": "819a0fa7af31c8b14cf64496c337902f", "rental_uris": {"ios": "https://dc.lft.to/lastmile_qr_scan", "android": "https://dc.lft.to/lastmile_qr_scan"}, "fusion_lat": 0.0}, {"lat": 38.914129, "lon": -77.02093933333333, "is_disabled": 0, "fusion_lon": 0.0, "is_reserved": 0, "name": "9119c25ba8a0b253f7282aef03bb2cba", "type": "electric_scooter", "bike_id": "9119c25ba8a0b253f7282aef03bb2cba", "rental_uris": {"ios": "https://dc.lft.to/lastmile_qr_scan", "android": "https://dc.lft.to/lastmile_qr_scan"}, "fusion_lat": 0.0}, {"lat": 38.914818, "lon": -77.046038, "is_disabled": 0, "fusion_lon": 0.0, "is_reserved": 0, "name": "1602566293d2a6f5b2b54e5e7aece617", "type": "electric_scooter", "bike_id": "1602566293d2a6f5b2b54e5e7aece617", "rental_uris": {"ios": "https://dc.lft.to/lastmile_qr_scan", "android": "https://dc.lft.to/lastmile_qr_scan"}, "fusion_lat": 0.0}, {"lat": 38.926705166666665, "lon": -77.0212635, "is_disabled": 0, "fusion_lon": 0.0, "is_reserved": 0, "name": "7237029971d41fa4277ba3c8085a0a8d", "type": "electric_scooter", "bike_id": "7237029971d41fa4277ba3c8085a0a8d", "rental_uris": {"ios": "https://dc.lft.to/lastmile_qr_scan", "android": "https://dc.lft.to/lastmile_qr_scan"}, "fusion_lat": 0.0}, {"lat": 38.915548333333334, "lon": -77.0318375, "is_disabled": 0, "fusion_lon": 0.0, "is_reserved": 0, "name": "aab1330332994fe373cfc8b5e9ef617b", "type": "electric_scooter", "bike_id": "aab1330332994fe373cfc8b5e9ef617b", "rental_uris": {"ios": "https://dc.lft.to/lastmile_qr_scan", "android": "https://dc.lft.to/lastmile_qr_scan"}, "fusion_lat": 0.0}, {"lat": 38.9217045, "lon": -77.038296, "is_disabled": 0, "fusion_lon": 0.0, "is_reserved": 0, "name": "4623120d050ab887f633565f56d7576c", "type": "electric_scooter", "bike_id": "4623120d050ab887f633565f56d7576c", "rental_uris": {"ios": "https://dc.lft.to/lastmile_qr_scan", "android": "https://dc.lft.to/lastmile_qr_scan"}, "fusion_lat": 0.0}, {"lat": 38.901675, "lon": -76.9806425, "is_disabled": 0, "fusion_lon": 0.0, "is_reserved": 0, "name": "4b3c4cce8da0b02f407a92c893e456d0", "type": "electric_scooter", "bike_id": "4b3c4cce8da0b02f407a92c893e456d0", "rental_uris": {"ios": "https://dc.lft.to/lastmile_qr_scan", "android": "https://dc.lft.to/lastmile_qr_scan"}, "fusion_lat": 0.0}, {"lat": 38.91709816666667, "lon": -77.0354805, "is_disabled": 0, "fusion_lon": 0.0, "is_reserved": 0, "name": "3bb490da4470d5c059ca4fdefe947f5a", "type": "electric_scooter", "bike_id": "3bb490da4470d5c059ca4fdefe947f5a", "rental_uris": {"ios": "https://dc.lft.to/lastmile_qr_scan", "android": "https://dc.lft.to/lastmile_qr_scan"}, "fusion_lat": 0.0}, {"lat": 38.900776666666665, "lon": -77.05159683333333, "is_disabled": 0, "fusion_lon": 0.0, "is_reserved": 0, "name": "640bc3291408356976ab5f0988b619f4", "type": "electric_scooter", "bike_id": "640bc3291408356976ab5f0988b619f4", "rental_uris": {"ios": "https://dc.lft.to/lastmile_qr_scan", "android": "https://dc.lft.to/lastmile_qr_scan"}, "fusion_lat": 0.0}, {"lat": 38.897338166666664, "lon": -77.04814716666667, "is_disabled": 0, "fusion_lon": 0.0, "is_reserved": 0, "name": "341e4571f3a0eb85145184b35bc3992e", "type": "electric_scooter", "bike_id": "341e4571f3a0eb85145184b35bc3992e", "rental_uris": {"ios": "https://dc.lft.to/lastmile_qr_scan", "android": "https://dc.lft.to/lastmile_qr_scan"}, "fusion_lat": 0.0}, {"lat": 38.902444833333334, "lon": -77.01874383333333, "is_disabled": 0, "fusion_lon": 0.0, "is_reserved": 0, "name": "888c4d8fa04ed671aaba183b27e31079", "type": "electric_scooter", "bike_id": "888c4d8fa04ed671aaba183b27e31079", "rental_uris": {"ios": "https://dc.lft.to/lastmile_qr_scan", "android": "https://dc.lft.to/lastmile_qr_scan"}, "fusion_lat": 0.0}, {"lat": 38.9009895, "lon": -77.050491, "is_disabled": 0, "fusion_lon": 0.0, "is_reserved": 0, "name": "38ecea39d9e08e13e8177f17f1b1caf6", "type": "electric_scooter", "bike_id": "38ecea39d9e08e13e8177f17f1b1caf6", "rental_uris": {"ios": "https://dc.lft.to/lastmile_qr_scan", "android": "https://dc.lft.to/lastmile_qr_scan"}, "fusion_lat": 0.0}, {"lat": 38.968000333333336, "lon": -77.024274, "is_disabled": 0, "fusion_lon": 0.0, "is_reserved": 0, "name": "1a2f15ae4d607f0dc9c49e2d35029716", "type": "electric_scooter", "bike_id": "1a2f15ae4d607f0dc9c49e2d35029716", "rental_uris": {"ios": "https://dc.lft.to/lastmile_qr_scan", "android": "https://dc.lft.to/lastmile_qr_scan"}, "fusion_lat": 0.0}, {"lat": 38.941880833333336, "lon": -77.02488533333333, "is_disabled": 0, "fusion_lon": 0.0, "is_reserved": 0, "name": "a23ca0923e0b50eaf8387f43f3b055df", "type": "electric_scooter", "bike_id": "a23ca0923e0b50eaf8387f43f3b055df", "rental_uris": {"ios": "https://dc.lft.to/lastmile_qr_scan", "android": "https://dc.lft.to/lastmile_qr_scan"}, "fusion_lat": 0.0}, {"lat": 38.9175375, "lon": -77.02490416666667, "is_disabled": 0, "fusion_lon": 0.0, "is_reserved": 0, "name": "7453dbe7f5998a8ac79ce4905794cdfe", "type": "electric_scooter", "bike_id": "7453dbe7f5998a8ac79ce4905794cdfe", "rental_uris": {"ios": "https://dc.lft.to/lastmile_qr_scan", "android": "https://dc.lft.to/lastmile_qr_scan"}, "fusion_lat": 0.0}, {"lat": 38.895475, "lon": -76.98338933333334, "is_disabled": 0, "fusion_lon": 0.0, "is_reserved": 0, "name": "345e69416cb59b376794075f7f6b1512", "type": "electric_scooter", "bike_id": "345e69416cb59b376794075f7f6b1512", "rental_uris": {"ios": "https://dc.lft.to/lastmile_qr_scan", "android": "https://dc.lft.to/lastmile_qr_scan"}, "fusion_lat": 0.0}, {"lat": 38.900811166666664, "lon": -76.92956783333334, "is_disabled": 0, "fusion_lon": 0.0, "is_reserved": 0, "name": "67bee31bf395040fd612bc3e08a18f86", "type": "electric_scooter", "bike_id": "67bee31bf395040fd612bc3e08a18f86", "rental_uris": {"ios": "https://dc.lft.to/lastmile_qr_scan", "android": "https://dc.lft.to/lastmile_qr_scan"}, "fusion_lat": 0.0}, {"lat": 38.84280433333333, "lon": -76.98837216666666, "is_disabled": 0, "fusion_lon": 0.0, "is_reserved": 0, "name": "46896091357917f788f82400665d9e9d", "type": "electric_bike", "bike_id": "46896091357917f788f82400665d9e9d", "rental_uris": {"ios": "https://dc.lft.to/lastmile_qr_scan", "android": "https://dc.lft.to/lastmile_qr_scan"}, "fusion_lat": 0.0}, {"lat": 38.92339183333333, "lon": -77.0521725, "is_disabled": 0, "fusion_lon": 0.0, "is_reserved": 0, "name": "f9a406cb005e2d07007e84c18ab600b3", "type": "electric_scooter", "bike_id": "f9a406cb005e2d07007e84c18ab600b3", "rental_uris": {"ios": "https://dc.lft.to/lastmile_qr_scan", "android": "https://dc.lft.to/lastmile_qr_scan"}, "fusion_lat": 0.0}, {"lat": 38.900273166666665, "lon": -76.99139616666666, "is_disabled": 0, "fusion_lon": 0.0, "is_reserved": 0, "name": "ffdc073631c92039088d2ac1236f0d6f", "type": "electric_scooter", "bike_id": "ffdc073631c92039088d2ac1236f0d6f", "rental_uris": {"ios": "https://dc.lft.to/lastmile_qr_scan", "android": "https://dc.lft.to/lastmile_qr_scan"}, "fusion_lat": 0.0}, {"lat": 38.906699, "lon": -77.02704066666666, "is_disabled": 0, "fusion_lon": 0.0, "is_reserved": 0, "name": "be731ca5b3f9d05ad86d8e56098a5080", "type": "electric_scooter", "bike_id": "be731ca5b3f9d05ad86d8e56098a5080", "rental_uris": {"ios": "https://dc.lft.to/lastmile_qr_scan", "android": "https://dc.lft.to/lastmile_qr_scan"}, "fusion_lat": 0.0}, {"lat": 38.84128316666666, "lon": -77.06305016666667, "is_disabled": 0, "fusion_lon": 0.0, "is_reserved": 0, "name": "3a25eaa63d91e39fb9eb9b2311fbc7fd", "type": "electric_bike", "bike_id": "3a25eaa63d91e39fb9eb9b2311fbc7fd", "rental_uris": {"ios": "https://dc.lft.to/lastmile_qr_scan", "android": "https://dc.lft.to/lastmile_qr_scan"}, "fusion_lat": 0.0}, {"lat": 38.895866166666664, "lon": -76.983106, "is_disabled": 0, "fusion_lon": 0.0, "is_reserved": 0, "name": "71c878023d35c6f6251c876429de1b72", "type": "electric_scooter", "bike_id": "71c878023d35c6f6251c876429de1b72", "rental_uris": {"ios": "https://dc.lft.to/lastmile_qr_scan", "android": "https://dc.lft.to/lastmile_qr_scan"}, "fusion_lat": 0.0}, {"lat": 38.90142566666667, "lon": -77.01499383333334, "is_disabled": 0, "fusion_lon": 0.0, "is_reserved": 0, "name": "dbb542aa5651509fdb4ed63fa056249f", "type": "electric_scooter", "bike_id": "dbb542aa5651509fdb4ed63fa056249f", "rental_uris": {"ios": "https://dc.lft.to/lastmile_qr_scan", "android": "https://dc.lft.to/lastmile_qr_scan"}, "fusion_lat": 0.0}, {"lat": 38.87480133333333, "lon": -77.00604166666666, "is_disabled": 0, "fusion_lon": 0.0, "is_reserved": 0, "name": "dcd1f4fb4abcb76d5735bd8d40bf87de", "type": "electric_scooter", "bike_id": "dcd1f4fb4abcb76d5735bd8d40bf87de", "rental_uris": {"ios": "https://dc.lft.to/lastmile_qr_scan", "android": "https://dc.lft.to/lastmile_qr_scan"}, "fusion_lat": 0.0}, {"lat": 38.909626833333334, "lon": -77.03565483333334, "is_disabled": 0, "fusion_lon": 0.0, "is_reserved": 0, "name": "2dc9a9692905b5accd34f9bb1902e4c0", "type": "electric_scooter", "bike_id": "2dc9a9692905b5accd34f9bb1902e4c0", "rental_uris": {"ios": "https://dc.lft.to/lastmile_qr_scan", "android": "https://dc.lft.to/lastmile_qr_scan"}, "fusion_lat": 0.0}, {"lat": 38.910896666666666, "lon": -76.98480416666666, "is_disabled": 0, "fusion_lon": 0.0, "is_reserved": 0, "name": "f6aae80a662d692ee061f71c0e03809a", "type": "electric_bike", "bike_id": "f6aae80a662d692ee061f71c0e03809a", "rental_uris": {"ios": "https://dc.lft.to/lastmile_qr_scan", "android": "https://dc.lft.to/lastmile_qr_scan"}, "fusion_lat": 0.0}, {"lat": 38.93247316666667, "lon": -77.032849, "is_disabled": 0, "fusion_lon": 0.0, "is_reserved": 0, "name": "3bf8502eb0a78b823f6feffdb52d1008", "type": "electric_scooter", "bike_id": "3bf8502eb0a78b823f6feffdb52d1008", "rental_uris": {"ios": "https://dc.lft.to/lastmile_qr_scan", "android": "https://dc.lft.to/lastmile_qr_scan"}, "fusion_lat": 0.0}, {"lat": 38.80979833333333, "lon": -77.0766105, "is_disabled": 0, "fusion_lon": 0.0, "is_reserved": 0, "name": "f873618b8529c7c8ce1e2838c64c1cbc", "type": "electric_bike", "bike_id": "f873618b8529c7c8ce1e2838c64c1cbc", "rental_uris": {"ios": "https://dc.lft.to/lastmile_qr_scan", "android": "https://dc.lft.to/lastmile_qr_scan"}, "fusion_lat": 0.0}, {"lat": 38.9153645, "lon": -77.04474083333334, "is_disabled": 0, "fusion_lon": 0.0, "is_reserved": 0, "name": "6a0c5834a6ec3f0275c817399bc88a8f", "type": "electric_scooter", "bike_id": "6a0c5834a6ec3f0275c817399bc88a8f", "rental_uris": {"ios": "https://dc.lft.to/lastmile_qr_scan", "android": "https://dc.lft.to/lastmile_qr_scan"}, "fusion_lat": 0.0}, {"lat": 38.89527866666667, "lon": -77.01129183333333, "is_disabled": 0, "fusion_lon": 0.0, "is_reserved": 0, "name": "9bd2753b1b57738dc18bfa3a3295fdc1", "type": "electric_scooter", "bike_id": "9bd2753b1b57738dc18bfa3a3295fdc1", "rental_uris": {"ios": "https://dc.lft.to/lastmile_qr_scan", "android": "https://dc.lft.to/lastmile_qr_scan"}, "fusion_lat": 0.0}, {"lat": 38.961787666666666, "lon": -77.01437266666667, "is_disabled": 0, "fusion_lon": 0.0, "is_reserved": 0, "name": "4b364d7bbabb6efb07971455217b4a25", "type": "electric_scooter", "bike_id": "4b364d7bbabb6efb07971455217b4a25", "rental_uris": {"ios": "https://dc.lft.to/lastmile_qr_scan", "android": "https://dc.lft.to/lastmile_qr_scan"}, "fusion_lat": 0.0}, {"lat": 38.9209525, "lon": -77.025221, "is_disabled": 0, "fusion_lon": 0.0, "is_reserved": 0, "name": "aaab5d07fb7346eccddfde3014a19a2f", "type": "electric_scooter", "bike_id": "aaab5d07fb7346eccddfde3014a19a2f", "rental_uris": {"ios": "https://dc.lft.to/lastmile_qr_scan", "android": "https://dc.lft.to/lastmile_qr_scan"}, "fusion_lat": 0.0}, {"lat": 38.91663483333333, "lon": -77.0246575, "is_disabled": 0, "fusion_lon": 0.0, "is_reserved": 0, "name": "3e46417db4f70dfbe21ab56ca4435fb9", "type": "electric_scooter", "bike_id": "3e46417db4f70dfbe21ab56ca4435fb9", "rental_uris": {"ios": "https://dc.lft.to/lastmile_qr_scan", "android": "https://dc.lft.to/lastmile_qr_scan"}, "fusion_lat": 0.0}, {"lat": 38.900341833333336, "lon": -76.98941033333334, "is_disabled": 0, "fusion_lon": 0.0, "is_reserved": 0, "name": "f5272043e8ce785065e88db735326eca", "type": "electric_scooter", "bike_id": "f5272043e8ce785065e88db735326eca", "rental_uris": {"ios": "https://dc.lft.to/lastmile_qr_scan", "android": "https://dc.lft.to/lastmile_qr_scan"}, "fusion_lat": 0.0}, {"lat": 38.900505333333335, "lon": -77.00065666666667, "is_disabled": 0, "fusion_lon": 0.0, "is_reserved": 0, "name": "8b9d4a81fd5c3f05aed7d9edc8dee1db", "type": "electric_scooter", "bike_id": "8b9d4a81fd5c3f05aed7d9edc8dee1db", "rental_uris": {"ios": "https://dc.lft.to/lastmile_qr_scan", "android": "https://dc.lft.to/lastmile_qr_scan"}, "fusion_lat": 0.0}, {"lat": 38.94962183333333, "lon": -77.0665985, "is_disabled": 0, "fusion_lon": 0.0, "is_reserved": 0, "name": "e6ce767eee2319552835eb32ffb71b0b", "type": "electric_scooter", "bike_id": "e6ce767eee2319552835eb32ffb71b0b", "rental_uris": {"ios": "https://dc.lft.to/lastmile_qr_scan", "android": "https://dc.lft.to/lastmile_qr_scan"}, "fusion_lat": 0.0}, {"lat": 38.877145, "lon": -77.0173845, "is_disabled": 0, "fusion_lon": 0.0, "is_reserved": 0, "name": "f9eab00d1198b810c4935657efc2438b", "type": "electric_scooter", "bike_id": "f9eab00d1198b810c4935657efc2438b", "rental_uris": {"ios": "https://dc.lft.to/lastmile_qr_scan", "android": "https://dc.lft.to/lastmile_qr_scan"}, "fusion_lat": 0.0}, {"lat": 38.918876, "lon": -77.034992, "is_disabled": 0, "fusion_lon": 0.0, "is_reserved": 0, "name": "0b7472c598657136980f06309d08c443", "type": "electric_scooter", "bike_id": "0b7472c598657136980f06309d08c443", "rental_uris": {"ios": "https://dc.lft.to/lastmile_qr_scan", "android": "https://dc.lft.to/lastmile_qr_scan"}, "fusion_lat": 0.0}, {"lat": 38.95733083333333, "lon": -77.02400983333334, "is_disabled": 0, "fusion_lon": 0.0, "is_reserved": 0, "name": "b6b69e3e2b80fbf8c967a77f5691eb53", "type": "electric_scooter", "bike_id": "b6b69e3e2b80fbf8c967a77f5691eb53", "rental_uris": {"ios": "https://dc.lft.to/lastmile_qr_scan", "android": "https://dc.lft.to/lastmile_qr_scan"}, "fusion_lat": 0.0}, {"lat": 38.916594, "lon": -77.03854283333334, "is_disabled": 0, "fusion_lon": 0.0, "is_reserved": 0, "name": "870938e626b25e6322b252686f5896d8", "type": "electric_scooter", "bike_id": "870938e626b25e6322b252686f5896d8", "rental_uris": {"ios": "https://dc.lft.to/lastmile_qr_scan", "android": "https://dc.lft.to/lastmile_qr_scan"}, "fusion_lat": 0.0}, {"lat": 38.920772166666666, "lon": -77.02314716666666, "is_disabled": 0, "fusion_lon": 0.0, "is_reserved": 0, "name": "c99ff30c23a3af6ff6229badb4d98dbc", "type": "electric_scooter", "bike_id": "c99ff30c23a3af6ff6229badb4d98dbc", "rental_uris": {"ios": "https://dc.lft.to/lastmile_qr_scan", "android": "https://dc.lft.to/lastmile_qr_scan"}, "fusion_lat": 0.0}, {"lat": 38.87826416666667, "lon": -76.99609283333334, "is_disabled": 0, "fusion_lon": 0.0, "is_reserved": 0, "name": "af76b55fdbdf39d97801b8009bbedf8c", "type": "electric_scooter", "bike_id": "af76b55fdbdf39d97801b8009bbedf8c", "rental_uris": {"ios": "https://dc.lft.to/lastmile_qr_scan", "android": "https://dc.lft.to/lastmile_qr_scan"}, "fusion_lat": 0.0}, {"lat": 38.88735066666667, "lon": -77.02383883333333, "is_disabled": 0, "fusion_lon": 0.0, "is_reserved": 0, "name": "1105352f439514ba4d0ca9a7da0a85bd", "type": "electric_scooter", "bike_id": "1105352f439514ba4d0ca9a7da0a85bd", "rental_uris": {"ios": "https://dc.lft.to/lastmile_qr_scan", "android": "https://dc.lft.to/lastmile_qr_scan"}, "fusion_lat": 0.0}, {"lat": 38.920283, "lon": -77.07159983333334, "is_disabled": 0, "fusion_lon": 0.0, "is_reserved": 0, "name": "f0ad41b03eaceef58d0e322b16ecdd2a", "type": "electric_scooter", "bike_id": "f0ad41b03eaceef58d0e322b16ecdd2a", "rental_uris": {"ios": "https://dc.lft.to/lastmile_qr_scan", "android": "https://dc.lft.to/lastmile_qr_scan"}, "fusion_lat": 0.0}, {"lat": 38.911159833333336, "lon": -77.0383225, "is_disabled": 0, "fusion_lon": 0.0, "is_reserved": 0, "name": "b484ee7ba190cb2c12f38e2f6385b3ad", "type": "electric_scooter", "bike_id": "b484ee7ba190cb2c12f38e2f6385b3ad", "rental_uris": {"ios": "https://dc.lft.to/lastmile_qr_scan", "android": "https://dc.lft.to/lastmile_qr_scan"}, "fusion_lat": 0.0}, {"lat": 38.8315885, "lon": -76.99572716666667, "is_disabled": 0, "fusion_lon": 0.0, "is_reserved": 0, "name": "94fbc354d133c7dd7a7a41e410ef4496", "type": "electric_bike", "bike_id": "94fbc354d133c7dd7a7a41e410ef4496", "rental_uris": {"ios": "https://dc.lft.to/lastmile_qr_scan", "android": "https://dc.lft.to/lastmile_qr_scan"}, "fusion_lat": 0.0}, {"lat": 38.918229333333336, "lon": -77.0121165, "is_disabled": 0, "fusion_lon": 0.0, "is_reserved": 0, "name": "6eb8d455cae25449d9c5b6f98b946dda", "type": "electric_scooter", "bike_id": "6eb8d455cae25449d9c5b6f98b946dda", "rental_uris": {"ios": "https://dc.lft.to/lastmile_qr_scan", "android": "https://dc.lft.to/lastmile_qr_scan"}, "fusion_lat": 0.0}, {"lat": 38.90719333333333, "lon": -77.02984166666667, "is_disabled": 0, "fusion_lon": 0.0, "is_reserved": 0, "name": "9104a38b9c16fcda939875c8c152712b", "type": "electric_scooter", "bike_id": "9104a38b9c16fcda939875c8c152712b", "rental_uris": {"ios": "https://dc.lft.to/lastmile_qr_scan", "android": "https://dc.lft.to/lastmile_qr_scan"}, "fusion_lat": 0.0}, {"lat": 38.874087833333334, "lon": -77.00204983333333, "is_disabled": 0, "fusion_lon": 0.0, "is_reserved": 0, "name": "36c2a039e9f95043c1b0db6d97a32156", "type": "electric_scooter", "bike_id": "36c2a039e9f95043c1b0db6d97a32156", "rental_uris": {"ios": "https://dc.lft.to/lastmile_qr_scan", "android": "https://dc.lft.to/lastmile_qr_scan"}, "fusion_lat": 0.0}, {"lat": 38.916042166666664, "lon": -77.04908766666667, "is_disabled": 0, "fusion_lon": 0.0, "is_reserved": 0, "name": "9022018f4851ea0d8e46fccc59658bae", "type": "electric_scooter", "bike_id": "9022018f4851ea0d8e46fccc59658bae", "rental_uris": {"ios": "https://dc.lft.to/lastmile_qr_scan", "android": "https://dc.lft.to/lastmile_qr_scan"}, "fusion_lat": 0.0}, {"lat": 38.92840483333333, "lon": -77.054214, "is_disabled": 0, "fusion_lon": 0.0, "is_reserved": 0, "name": "f2af72cc3cb3ca61ff12e361bb9b5b39", "type": "electric_scooter", "bike_id": "f2af72cc3cb3ca61ff12e361bb9b5b39", "rental_uris": {"ios": "https://dc.lft.to/lastmile_qr_scan", "android": "https://dc.lft.to/lastmile_qr_scan"}, "fusion_lat": 0.0}, {"lat": 38.906785666666664, "lon": -77.00576783333334, "is_disabled": 0, "fusion_lon": 0.0, "is_reserved": 0, "name": "0916a7f5e4838ba26e5887c5e980150d", "type": "electric_scooter", "bike_id": "0916a7f5e4838ba26e5887c5e980150d", "rental_uris": {"ios": "https://dc.lft.to/lastmile_qr_scan", "android": "https://dc.lft.to/lastmile_qr_scan"}, "fusion_lat": 0.0}, {"lat": 38.91848266666667, "lon": -76.9654095, "is_disabled": 0, "fusion_lon": 0.0, "is_reserved": 0, "name": "c11f48f6e5c30315ad21a5ef8e798de0", "type": "electric_scooter", "bike_id": "c11f48f6e5c30315ad21a5ef8e798de0", "rental_uris": {"ios": "https://dc.lft.to/lastmile_qr_scan", "android": "https://dc.lft.to/lastmile_qr_scan"}, "fusion_lat": 0.0}, {"lat": 38.89988133333333, "lon": -77.02212366666667, "is_disabled": 0, "fusion_lon": 0.0, "is_reserved": 0, "name": "915d3358d7a202fad0bc6a31164b2131", "type": "electric_scooter", "bike_id": "915d3358d7a202fad0bc6a31164b2131", "rental_uris": {"ios": "https://dc.lft.to/lastmile_qr_scan", "android": "https://dc.lft.to/lastmile_qr_scan"}, "fusion_lat": 0.0}, {"lat": 38.898520166666664, "lon": -76.990339, "is_disabled": 0, "fusion_lon": 0.0, "is_reserved": 0, "name": "43de06400a2e4f5e5526f3bf2450e8e3", "type": "electric_scooter", "bike_id": "43de06400a2e4f5e5526f3bf2450e8e3", "rental_uris": {"ios": "https://dc.lft.to/lastmile_qr_scan", "android": "https://dc.lft.to/lastmile_qr_scan"}, "fusion_lat": 0.0}, {"lat": 38.9181725, "lon": -77.04556366666667, "is_disabled": 0, "fusion_lon": 0.0, "is_reserved": 0, "name": "ffdfc1202ce71b31c5a10da1b32075d0", "type": "electric_scooter", "bike_id": "ffdfc1202ce71b31c5a10da1b32075d0", "rental_uris": {"ios": "https://dc.lft.to/lastmile_qr_scan", "android": "https://dc.lft.to/lastmile_qr_scan"}, "fusion_lat": 0.0}, {"lat": 38.925086666666665, "lon": -77.037928, "is_disabled": 0, "fusion_lon": 0.0, "is_reserved": 0, "name": "51dc70d14a041fb06d037e0e0726515e", "type": "electric_scooter", "bike_id": "51dc70d14a041fb06d037e0e0726515e", "rental_uris": {"ios": "https://dc.lft.to/lastmile_qr_scan", "android": "https://dc.lft.to/lastmile_qr_scan"}, "fusion_lat": 0.0}, {"lat": 38.926530666666665, "lon": -77.0383865, "is_disabled": 0, "fusion_lon": 0.0, "is_reserved": 0, "name": "d51deb3c4dc0ff8347d7ed2b0cf06cce", "type": "electric_scooter", "bike_id": "d51deb3c4dc0ff8347d7ed2b0cf06cce", "rental_uris": {"ios": "https://dc.lft.to/lastmile_qr_scan", "android": "https://dc.lft.to/lastmile_qr_scan"}, "fusion_lat": 0.0}, {"lat": 38.8996465, "lon": -77.02851933333334, "is_disabled": 0, "fusion_lon": 0.0, "is_reserved": 0, "name": "b2c5d3a76502e5e236ddf428bbca2837", "type": "electric_scooter", "bike_id": "b2c5d3a76502e5e236ddf428bbca2837", "rental_uris": {"ios": "https://dc.lft.to/lastmile_qr_scan", "android": "https://dc.lft.to/lastmile_qr_scan"}, "fusion_lat": 0.0}, {"lat": 38.89888283333333, "lon": -77.019544, "is_disabled": 0, "fusion_lon": 0.0, "is_reserved": 0, "name": "d5e89dfc21576c03d872a279852c6ddf", "type": "electric_scooter", "bike_id": "d5e89dfc21576c03d872a279852c6ddf", "rental_uris": {"ios": "https://dc.lft.to/lastmile_qr_scan", "android": "https://dc.lft.to/lastmile_qr_scan"}, "fusion_lat": 0.0}, {"lat": 39.09969, "lon": -77.18307166666666, "is_disabled": 0, "fusion_lon": 0.0, "is_reserved": 0, "name": "1d57ef095638d16b4ae61e99858ff8a3", "type": "electric_bike", "bike_id": "1d57ef095638d16b4ae61e99858ff8a3", "rental_uris": {"ios": "https://dc.lft.to/lastmile_qr_scan", "android": "https://dc.lft.to/lastmile_qr_scan"}, "fusion_lat": 0.0}, {"lat": 38.92485283333333, "lon": -77.02653516666666, "is_disabled": 0, "fusion_lon": 0.0, "is_reserved": 0, "name": "3d7a88bda9891e61e724d53094794003", "type": "electric_scooter", "bike_id": "3d7a88bda9891e61e724d53094794003", "rental_uris": {"ios": "https://dc.lft.to/lastmile_qr_scan", "android": "https://dc.lft.to/lastmile_qr_scan"}, "fusion_lat": 0.0}, {"lat": 38.924813, "lon": -77.02845866666667, "is_disabled": 0, "fusion_lon": 0.0, "is_reserved": 0, "name": "ed57a7585d2b6a1c47a4285102e8d1e2", "type": "electric_scooter", "bike_id": "ed57a7585d2b6a1c47a4285102e8d1e2", "rental_uris": {"ios": "https://dc.lft.to/lastmile_qr_scan", "android": "https://dc.lft.to/lastmile_qr_scan"}, "fusion_lat": 0.0}, {"lat": 38.902536, "lon": -77.01763316666667, "is_disabled": 0, "fusion_lon": 0.0, "is_reserved": 0, "name": "a32ce2645c046ffb7638b0e132b7e8c9", "type": "electric_scooter", "bike_id": "a32ce2645c046ffb7638b0e132b7e8c9", "rental_uris": {"ios": "https://dc.lft.to/lastmile_qr_scan", "android": "https://dc.lft.to/lastmile_qr_scan"}, "fusion_lat": 0.0}, {"lat": 38.911202, "lon": -77.04467466666667, "is_disabled": 0, "fusion_lon": 0.0, "is_reserved": 0, "name": "49d3c78ccccc16d60bdeaf4c2e4df967", "type": "electric_scooter", "bike_id": "49d3c78ccccc16d60bdeaf4c2e4df967", "rental_uris": {"ios": "https://dc.lft.to/lastmile_qr_scan", "android": "https://dc.lft.to/lastmile_qr_scan"}, "fusion_lat": 0.0}, {"lat": 38.912188666666665, "lon": -77.03182183333334, "is_disabled": 0, "fusion_lon": 0.0, "is_reserved": 0, "name": "e4f7c73b254d47c0891920cf7959084f", "type": "electric_scooter", "bike_id": "e4f7c73b254d47c0891920cf7959084f", "rental_uris": {"ios": "https://dc.lft.to/lastmile_qr_scan", "android": "https://dc.lft.to/lastmile_qr_scan"}, "fusion_lat": 0.0}, {"lat": 38.916365, "lon": -77.031804, "is_disabled": 0, "fusion_lon": 0.0, "is_reserved": 0, "name": "b123ca945b261b7d7682b7304f8662fb", "type": "electric_scooter", "bike_id": "b123ca945b261b7d7682b7304f8662fb", "rental_uris": {"ios": "https://dc.lft.to/lastmile_qr_scan", "android": "https://dc.lft.to/lastmile_qr_scan"}, "fusion_lat": 0.0}, {"lat": 38.91404333333333, "lon": -77.03954016666667, "is_disabled": 0, "fusion_lon": 0.0, "is_reserved": 0, "name": "a4054a919dcb9eb0f796f0f758e8dedf", "type": "electric_scooter", "bike_id": "a4054a919dcb9eb0f796f0f758e8dedf", "rental_uris": {"ios": "https://dc.lft.to/lastmile_qr_scan", "android": "https://dc.lft.to/lastmile_qr_scan"}, "fusion_lat": 0.0}, {"lat": 38.887434166666665, "lon": -76.9937225, "is_disabled": 0, "fusion_lon": 0.0, "is_reserved": 0, "name": "2f59bf860e66b1288736051d0a1f9aae", "type": "electric_scooter", "bike_id": "2f59bf860e66b1288736051d0a1f9aae", "rental_uris": {"ios": "https://dc.lft.to/lastmile_qr_scan", "android": "https://dc.lft.to/lastmile_qr_scan"}, "fusion_lat": 0.0}, {"lat": 38.934847833333336, "lon": -77.07273433333333, "is_disabled": 0, "fusion_lon": 0.0, "is_reserved": 0, "name": "f3c392cb9673467e518c8c4a97e1c1f2", "type": "electric_scooter", "bike_id": "f3c392cb9673467e518c8c4a97e1c1f2", "rental_uris": {"ios": "https://dc.lft.to/lastmile_qr_scan", "android": "https://dc.lft.to/lastmile_qr_scan"}, "fusion_lat": 0.0}, {"lat": 38.899342, "lon": -77.019652, "is_disabled": 0, "fusion_lon": 0.0, "is_reserved": 0, "name": "a71dd209c92360aa71c446c848da9a5b", "type": "electric_scooter", "bike_id": "a71dd209c92360aa71c446c848da9a5b", "rental_uris": {"ios": "https://dc.lft.to/lastmile_qr_scan", "android": "https://dc.lft.to/lastmile_qr_scan"}, "fusion_lat": 0.0}, {"lat": 38.89716466666667, "lon": -77.0789445, "is_disabled": 0, "fusion_lon": 0.0, "is_reserved": 0, "name": "8e5ae76e3c633f770bed50cad54373cc", "type": "electric_scooter", "bike_id": "8e5ae76e3c633f770bed50cad54373cc", "rental_uris": {"ios": "https://dc.lft.to/lastmile_qr_scan", "android": "https://dc.lft.to/lastmile_qr_scan"}, "fusion_lat": 0.0}, {"lat": 38.96144666666667, "lon": -77.02789333333334, "is_disabled": 0, "fusion_lon": 0.0, "is_reserved": 0, "name": "7f4c9d4c655b3d5ec039aa24e045305d", "type": "electric_scooter", "bike_id": "7f4c9d4c655b3d5ec039aa24e045305d", "rental_uris": {"ios": "https://dc.lft.to/lastmile_qr_scan", "android": "https://dc.lft.to/lastmile_qr_scan"}, "fusion_lat": 0.0}, {"lat": 38.90788466666667, "lon": -77.02181533333334, "is_disabled": 0, "fusion_lon": 0.0, "is_reserved": 0, "name": "12a9ceb16184b7aeef268efc9e171978", "type": "electric_scooter", "bike_id": "12a9ceb16184b7aeef268efc9e171978", "rental_uris": {"ios": "https://dc.lft.to/lastmile_qr_scan", "android": "https://dc.lft.to/lastmile_qr_scan"}, "fusion_lat": 0.0}, {"lat": 38.89224016666667, "lon": -77.032169, "is_disabled": 0, "fusion_lon": 0.0, "is_reserved": 0, "name": "4da5aaa77b4e38e887d26e04dc08fe39", "type": "electric_scooter", "bike_id": "4da5aaa77b4e38e887d26e04dc08fe39", "rental_uris": {"ios": "https://dc.lft.to/lastmile_qr_scan", "android": "https://dc.lft.to/lastmile_qr_scan"}, "fusion_lat": 0.0}, {"lat": 38.899895, "lon": -76.99489916666667, "is_disabled": 0, "fusion_lon": 0.0, "is_reserved": 0, "name": "06194f908011dc4afa472c1d063304bd", "type": "electric_scooter", "bike_id": "06194f908011dc4afa472c1d063304bd", "rental_uris": {"ios": "https://dc.lft.to/lastmile_qr_scan", "android": "https://dc.lft.to/lastmile_qr_scan"}, "fusion_lat": 0.0}, {"lat": 38.892444833333336, "lon": -77.03183466666667, "is_disabled": 0, "fusion_lon": 0.0, "is_reserved": 0, "name": "9f276c121a3775b02c82d078f24fd891", "type": "electric_scooter", "bike_id": "9f276c121a3775b02c82d078f24fd891", "rental_uris": {"ios": "https://dc.lft.to/lastmile_qr_scan", "android": "https://dc.lft.to/lastmile_qr_scan"}, "fusion_lat": 0.0}, {"lat": 38.88979883333333, "lon": -76.99470816666667, "is_disabled": 0, "fusion_lon": 0.0, "is_reserved": 0, "name": "f01fd3847e3be010f2ee7b7f0a610c0b", "type": "electric_scooter", "bike_id": "f01fd3847e3be010f2ee7b7f0a610c0b", "rental_uris": {"ios": "https://dc.lft.to/lastmile_qr_scan", "android": "https://dc.lft.to/lastmile_qr_scan"}, "fusion_lat": 0.0}, {"lat": 38.92485383333333, "lon": -77.02600533333333, "is_disabled": 0, "fusion_lon": 0.0, "is_reserved": 0, "name": "67d1936df039cf76f558216c5ce6637d", "type": "electric_scooter", "bike_id": "67d1936df039cf76f558216c5ce6637d", "rental_uris": {"ios": "https://dc.lft.to/lastmile_qr_scan", "android": "https://dc.lft.to/lastmile_qr_scan"}, "fusion_lat": 0.0}, {"lat": 38.90369966666667, "lon": -77.050391, "is_disabled": 0, "fusion_lon": 0.0, "is_reserved": 0, "name": "b27ed3cc7efc5e2430ed117c6898ea37", "type": "electric_scooter", "bike_id": "b27ed3cc7efc5e2430ed117c6898ea37", "rental_uris": {"ios": "https://dc.lft.to/lastmile_qr_scan", "android": "https://dc.lft.to/lastmile_qr_scan"}, "fusion_lat": 0.0}, {"lat": 38.920351333333336, "lon": -77.02585916666666, "is_disabled": 0, "fusion_lon": 0.0, "is_reserved": 0, "name": "f680b79ffcae4ec75709386d0f13bc4b", "type": "electric_scooter", "bike_id": "f680b79ffcae4ec75709386d0f13bc4b", "rental_uris": {"ios": "https://dc.lft.to/lastmile_qr_scan", "android": "https://dc.lft.to/lastmile_qr_scan"}, "fusion_lat": 0.0}, {"lat": 38.98957216666667, "lon": -77.09537116666667, "is_disabled": 0, "fusion_lon": 0.0, "is_reserved": 0, "name": "8ac6f6e3314b400a89854dc86bb11c8a", "type": "electric_bike", "bike_id": "8ac6f6e3314b400a89854dc86bb11c8a", "rental_uris": {"ios": "https://dc.lft.to/lastmile_qr_scan", "android": "https://dc.lft.to/lastmile_qr_scan"}, "fusion_lat": 0.0}, {"lat": 38.89565966666667, "lon": -77.12737533333333, "is_disabled": 0, "fusion_lon": 0.0, "is_reserved": 0, "name": "72a933fba438632e506db39340726312", "type": "electric_bike", "bike_id": "72a933fba438632e506db39340726312", "rental_uris": {"ios": "https://dc.lft.to/lastmile_qr_scan", "android": "https://dc.lft.to/lastmile_qr_scan"}, "fusion_lat": 0.0}, {"lat": 38.92346, "lon": -77.032189, "is_disabled": 0, "fusion_lon": 0.0, "is_reserved": 0, "name": "880131667283334830fd1a9393d5e772", "type": "electric_scooter", "bike_id": "880131667283334830fd1a9393d5e772", "rental_uris": {"ios": "https://dc.lft.to/lastmile_qr_scan", "android": "https://dc.lft.to/lastmile_qr_scan"}, "fusion_lat": 0.0}, {"lat": 38.91259816666667, "lon": -77.03053533333333, "is_disabled": 0, "fusion_lon": 0.0, "is_reserved": 0, "name": "d467bc5b742e709844091f9975c93794", "type": "electric_scooter", "bike_id": "d467bc5b742e709844091f9975c93794", "rental_uris": {"ios": "https://dc.lft.to/lastmile_qr_scan", "android": "https://dc.lft.to/lastmile_qr_scan"}, "fusion_lat": 0.0}, {"lat": 38.91867466666667, "lon": -77.02761366666667, "is_disabled": 0, "fusion_lon": 0.0, "is_reserved": 0, "name": "3bacb14bef35555f412a81390a540252", "type": "electric_bike", "bike_id": "3bacb14bef35555f412a81390a540252", "rental_uris": {"ios": "https://dc.lft.to/lastmile_qr_scan", "android": "https://dc.lft.to/lastmile_qr_scan"}, "fusion_lat": 0.0}, {"lat": 38.8786465, "lon": -77.00729433333333, "is_disabled": 0, "fusion_lon": 0.0, "is_reserved": 0, "name": "6018ebb15323a2be73449d40f9d542f2", "type": "electric_scooter", "bike_id": "6018ebb15323a2be73449d40f9d542f2", "rental_uris": {"ios": "https://dc.lft.to/lastmile_qr_scan", "android": "https://dc.lft.to/lastmile_qr_scan"}, "fusion_lat": 0.0}, {"lat": 38.934009333333336, "lon": -77.02730383333333, "is_disabled": 0, "fusion_lon": 0.0, "is_reserved": 0, "name": "9dd08a9486185b282fadd2d33eefb6b6", "type": "electric_scooter", "bike_id": "9dd08a9486185b282fadd2d33eefb6b6", "rental_uris": {"ios": "https://dc.lft.to/lastmile_qr_scan", "android": "https://dc.lft.to/lastmile_qr_scan"}, "fusion_lat": 0.0}, {"lat": 38.87363333333333, "lon": -77.000586, "is_disabled": 0, "fusion_lon": 0.0, "is_reserved": 0, "name": "49fbccae742355a3a865b8911fc28f2c", "type": "electric_scooter", "bike_id": "49fbccae742355a3a865b8911fc28f2c", "rental_uris": {"ios": "https://dc.lft.to/lastmile_qr_scan", "android": "https://dc.lft.to/lastmile_qr_scan"}, "fusion_lat": 0.0}, {"lat": 38.875458, "lon": -77.00534783333333, "is_disabled": 0, "fusion_lon": 0.0, "is_reserved": 0, "name": "68626eee4c195a37b6c396f6704c9b58", "type": "electric_scooter", "bike_id": "68626eee4c195a37b6c396f6704c9b58", "rental_uris": {"ios": "https://dc.lft.to/lastmile_qr_scan", "android": "https://dc.lft.to/lastmile_qr_scan"}, "fusion_lat": 0.0}, {"lat": 38.918162833333334, "lon": -77.034448, "is_disabled": 0, "fusion_lon": 0.0, "is_reserved": 0, "name": "f13bb3a94a7ed9e06bc38079f25b99c0", "type": "electric_scooter", "bike_id": "f13bb3a94a7ed9e06bc38079f25b99c0", "rental_uris": {"ios": "https://dc.lft.to/lastmile_qr_scan", "android": "https://dc.lft.to/lastmile_qr_scan"}, "fusion_lat": 0.0}, {"lat": 38.915525333333335, "lon": -77.03846916666667, "is_disabled": 0, "fusion_lon": 0.0, "is_reserved": 0, "name": "f993f285bac8346035447129aa7a2664", "type": "electric_scooter", "bike_id": "f993f285bac8346035447129aa7a2664", "rental_uris": {"ios": "https://dc.lft.to/lastmile_qr_scan", "android": "https://dc.lft.to/lastmile_qr_scan"}, "fusion_lat": 0.0}, {"lat": 38.90513966666666, "lon": -77.06024633333334, "is_disabled": 0, "fusion_lon": 0.0, "is_reserved": 0, "name": "47194bdd342a5887b7882a75b2bc85d9", "type": "electric_scooter", "bike_id": "47194bdd342a5887b7882a75b2bc85d9", "rental_uris": {"ios": "https://dc.lft.to/lastmile_qr_scan", "android": "https://dc.lft.to/lastmile_qr_scan"}, "fusion_lat": 0.0}, {"lat": 39.014184666666665, "lon": -77.044961, "is_disabled": 0, "fusion_lon": 0.0, "is_reserved": 0, "name": "8c1dadbb88c0a8248b2be63867b185da", "type": "electric_bike", "bike_id": "8c1dadbb88c0a8248b2be63867b185da", "rental_uris": {"ios": "https://dc.lft.to/lastmile_qr_scan", "android": "https://dc.lft.to/lastmile_qr_scan"}, "fusion_lat": 0.0}, {"lat": 38.8738405, "lon": -77.0016315, "is_disabled": 0, "fusion_lon": 0.0, "is_reserved": 0, "name": "30ca796db1db565b1b44a5baa6092855", "type": "electric_scooter", "bike_id": "30ca796db1db565b1b44a5baa6092855", "rental_uris": {"ios": "https://dc.lft.to/lastmile_qr_scan", "android": "https://dc.lft.to/lastmile_qr_scan"}, "fusion_lat": 0.0}, {"lat": 38.90691016666667, "lon": -77.06342233333334, "is_disabled": 0, "fusion_lon": 0.0, "is_reserved": 0, "name": "26b2e254febf913bb9161cf2c02338db", "type": "electric_scooter", "bike_id": "26b2e254febf913bb9161cf2c02338db", "rental_uris": {"ios": "https://dc.lft.to/lastmile_qr_scan", "android": "https://dc.lft.to/lastmile_qr_scan"}, "fusion_lat": 0.0}, {"lat": 38.914242333333334, "lon": -77.0318515, "is_disabled": 0, "fusion_lon": 0.0, "is_reserved": 0, "name": "88a43ed0bc1830d7fb5bca2b96dac466", "type": "electric_scooter", "bike_id": "88a43ed0bc1830d7fb5bca2b96dac466", "rental_uris": {"ios": "https://dc.lft.to/lastmile_qr_scan", "android": "https://dc.lft.to/lastmile_qr_scan"}, "fusion_lat": 0.0}, {"lat": 38.92479433333333, "lon": -77.026561, "is_disabled": 0, "fusion_lon": 0.0, "is_reserved": 0, "name": "e124cc4333d7243208fee0a11b559fd2", "type": "electric_scooter", "bike_id": "e124cc4333d7243208fee0a11b559fd2", "rental_uris": {"ios": "https://dc.lft.to/lastmile_qr_scan", "android": "https://dc.lft.to/lastmile_qr_scan"}, "fusion_lat": 0.0}, {"lat": 38.916512, "lon": -77.00948316666667, "is_disabled": 0, "fusion_lon": 0.0, "is_reserved": 0, "name": "814c6f2252be861809558ba64566290b", "type": "electric_scooter", "bike_id": "814c6f2252be861809558ba64566290b", "rental_uris": {"ios": "https://dc.lft.to/lastmile_qr_scan", "android": "https://dc.lft.to/lastmile_qr_scan"}, "fusion_lat": 0.0}, {"lat": 38.89222933333333, "lon": -77.02758483333334, "is_disabled": 0, "fusion_lon": 0.0, "is_reserved": 0, "name": "e239173799789e1307e595d3d00cb8ea", "type": "electric_scooter", "bike_id": "e239173799789e1307e595d3d00cb8ea", "rental_uris": {"ios": "https://dc.lft.to/lastmile_qr_scan", "android": "https://dc.lft.to/lastmile_qr_scan"}, "fusion_lat": 0.0}, {"lat": 38.90147116666667, "lon": -77.04426816666667, "is_disabled": 0, "fusion_lon": 0.0, "is_reserved": 0, "name": "05a033e173d416ea5711921a67c95f04", "type": "electric_scooter", "bike_id": "05a033e173d416ea5711921a67c95f04", "rental_uris": {"ios": "https://dc.lft.to/lastmile_qr_scan", "android": "https://dc.lft.to/lastmile_qr_scan"}, "fusion_lat": 0.0}, {"lat": 38.923456, "lon": -77.05178933333333, "is_disabled": 0, "fusion_lon": 0.0, "is_reserved": 0, "name": "d2947470625681e9e1d94855b6b8051b", "type": "electric_scooter", "bike_id": "d2947470625681e9e1d94855b6b8051b", "rental_uris": {"ios": "https://dc.lft.to/lastmile_qr_scan", "android": "https://dc.lft.to/lastmile_qr_scan"}, "fusion_lat": 0.0}, {"lat": 38.931028, "lon": -77.0247845, "is_disabled": 0, "fusion_lon": 0.0, "is_reserved": 0, "name": "24e46338df20ce4c62a613cab7f8d213", "type": "electric_scooter", "bike_id": "24e46338df20ce4c62a613cab7f8d213", "rental_uris": {"ios": "https://dc.lft.to/lastmile_qr_scan", "android": "https://dc.lft.to/lastmile_qr_scan"}, "fusion_lat": 0.0}, {"lat": 38.919244166666665, "lon": -77.03419016666666, "is_disabled": 0, "fusion_lon": 0.0, "is_reserved": 0, "name": "c5093de5e4cba7821393db0cd392760a", "type": "electric_scooter", "bike_id": "c5093de5e4cba7821393db0cd392760a", "rental_uris": {"ios": "https://dc.lft.to/lastmile_qr_scan", "android": "https://dc.lft.to/lastmile_qr_scan"}, "fusion_lat": 0.0}, {"lat": 38.93913583333333, "lon": -77.02468816666666, "is_disabled": 0, "fusion_lon": 0.0, "is_reserved": 0, "name": "0a57a3ce591bd888e19e36fe80921f04", "type": "electric_scooter", "bike_id": "0a57a3ce591bd888e19e36fe80921f04", "rental_uris": {"ios": "https://dc.lft.to/lastmile_qr_scan", "android": "https://dc.lft.to/lastmile_qr_scan"}, "fusion_lat": 0.0}, {"lat": 38.914809166666664, "lon": -77.0461, "is_disabled": 0, "fusion_lon": 0.0, "is_reserved": 0, "name": "3c156d41209bbdc5e33cba20dc00a74d", "type": "electric_scooter", "bike_id": "3c156d41209bbdc5e33cba20dc00a74d", "rental_uris": {"ios": "https://dc.lft.to/lastmile_qr_scan", "android": "https://dc.lft.to/lastmile_qr_scan"}, "fusion_lat": 0.0}, {"lat": 38.89211066666667, "lon": -76.99571816666666, "is_disabled": 0, "fusion_lon": 0.0, "is_reserved": 0, "name": "1a27b5aed787416a496aaad6ced04585", "type": "electric_bike", "bike_id": "1a27b5aed787416a496aaad6ced04585", "rental_uris": {"ios": "https://dc.lft.to/lastmile_qr_scan", "android": "https://dc.lft.to/lastmile_qr_scan"}, "fusion_lat": 0.0}, {"lat": 38.922816166666664, "lon": -76.99766183333334, "is_disabled": 0, "fusion_lon": 0.0, "is_reserved": 0, "name": "66055dd411ca1d15e005109f010ac970", "type": "electric_scooter", "bike_id": "66055dd411ca1d15e005109f010ac970", "rental_uris": {"ios": "https://dc.lft.to/lastmile_qr_scan", "android": "https://dc.lft.to/lastmile_qr_scan"}, "fusion_lat": 0.0}, {"lat": 38.91405133333333, "lon": -77.03953066666666, "is_disabled": 0, "fusion_lon": 0.0, "is_reserved": 0, "name": "fa934011ec6abac7f3595f479c80886c", "type": "electric_scooter", "bike_id": "fa934011ec6abac7f3595f479c80886c", "rental_uris": {"ios": "https://dc.lft.to/lastmile_qr_scan", "android": "https://dc.lft.to/lastmile_qr_scan"}, "fusion_lat": 0.0}, {"lat": 38.92122966666667, "lon": -77.0365975, "is_disabled": 0, "fusion_lon": 0.0, "is_reserved": 0, "name": "55fee649186d48ca25ec9d8df173803e", "type": "electric_scooter", "bike_id": "55fee649186d48ca25ec9d8df173803e", "rental_uris": {"ios": "https://dc.lft.to/lastmile_qr_scan", "android": "https://dc.lft.to/lastmile_qr_scan"}, "fusion_lat": 0.0}, {"lat": 38.90350316666667, "lon": -77.00561766666667, "is_disabled": 0, "fusion_lon": 0.0, "is_reserved": 0, "name": "6f98d4fec833dc2215e83320d3d3dd07", "type": "electric_scooter", "bike_id": "6f98d4fec833dc2215e83320d3d3dd07", "rental_uris": {"ios": "https://dc.lft.to/lastmile_qr_scan", "android": "https://dc.lft.to/lastmile_qr_scan"}, "fusion_lat": 0.0}, {"lat": 38.90106266666667, "lon": -76.9938545, "is_disabled": 0, "fusion_lon": 0.0, "is_reserved": 0, "name": "0c2f026532fd698b17dd880d4a478719", "type": "electric_scooter", "bike_id": "0c2f026532fd698b17dd880d4a478719", "rental_uris": {"ios": "https://dc.lft.to/lastmile_qr_scan", "android": "https://dc.lft.to/lastmile_qr_scan"}, "fusion_lat": 0.0}, {"lat": 38.90132716666667, "lon": -77.01659066666667, "is_disabled": 0, "fusion_lon": 0.0, "is_reserved": 0, "name": "a7486a26109023e5f49a384f9309803a", "type": "electric_scooter", "bike_id": "a7486a26109023e5f49a384f9309803a", "rental_uris": {"ios": "https://dc.lft.to/lastmile_qr_scan", "android": "https://dc.lft.to/lastmile_qr_scan"}, "fusion_lat": 0.0}, {"lat": 38.93430016666667, "lon": -77.04004983333333, "is_disabled": 0, "fusion_lon": 0.0, "is_reserved": 0, "name": "802412b7be91cba8148d244a11ab573d", "type": "electric_scooter", "bike_id": "802412b7be91cba8148d244a11ab573d", "rental_uris": {"ios": "https://dc.lft.to/lastmile_qr_scan", "android": "https://dc.lft.to/lastmile_qr_scan"}, "fusion_lat": 0.0}, {"lat": 38.9135015, "lon": -77.01227166666666, "is_disabled": 0, "fusion_lon": 0.0, "is_reserved": 0, "name": "79ea91cf415f27b13b0ad314943a8db0", "type": "electric_scooter", "bike_id": "79ea91cf415f27b13b0ad314943a8db0", "rental_uris": {"ios": "https://dc.lft.to/lastmile_qr_scan", "android": "https://dc.lft.to/lastmile_qr_scan"}, "fusion_lat": 0.0}, {"lat": 38.924154333333334, "lon": -77.06526983333333, "is_disabled": 0, "fusion_lon": 0.0, "is_reserved": 0, "name": "f59da018fb3356334f1972eb496cd80f", "type": "electric_scooter", "bike_id": "f59da018fb3356334f1972eb496cd80f", "rental_uris": {"ios": "https://dc.lft.to/lastmile_qr_scan", "android": "https://dc.lft.to/lastmile_qr_scan"}, "fusion_lat": 0.0}, {"lat": 38.9644725, "lon": -77.0224095, "is_disabled": 0, "fusion_lon": 0.0, "is_reserved": 0, "name": "f6809b381ca2dbd40f52ccfabb66fd42", "type": "electric_bike", "bike_id": "f6809b381ca2dbd40f52ccfabb66fd42", "rental_uris": {"ios": "https://dc.lft.to/lastmile_qr_scan", "android": "https://dc.lft.to/lastmile_qr_scan"}, "fusion_lat": 0.0}, {"lat": 38.916979833333336, "lon": -77.032157, "is_disabled": 0, "fusion_lon": 0.0, "is_reserved": 0, "name": "ca853444769f1e5e5a69b0faa729a7c9", "type": "electric_scooter", "bike_id": "ca853444769f1e5e5a69b0faa729a7c9", "rental_uris": {"ios": "https://dc.lft.to/lastmile_qr_scan", "android": "https://dc.lft.to/lastmile_qr_scan"}, "fusion_lat": 0.0}, {"lat": 38.873975, "lon": -77.01451516666667, "is_disabled": 0, "fusion_lon": 0.0, "is_reserved": 0, "name": "65879de5610a3ff61da078db3abb67eb", "type": "electric_scooter", "bike_id": "65879de5610a3ff61da078db3abb67eb", "rental_uris": {"ios": "https://dc.lft.to/lastmile_qr_scan", "android": "https://dc.lft.to/lastmile_qr_scan"}, "fusion_lat": 0.0}, {"lat": 38.90723083333334, "lon": -77.0347425, "is_disabled": 0, "fusion_lon": 0.0, "is_reserved": 0, "name": "2dae255ae147d327dbcaa1355f190ab7", "type": "electric_scooter", "bike_id": "2dae255ae147d327dbcaa1355f190ab7", "rental_uris": {"ios": "https://dc.lft.to/lastmile_qr_scan", "android": "https://dc.lft.to/lastmile_qr_scan"}, "fusion_lat": 0.0}, {"lat": 38.903606833333335, "lon": -77.016056, "is_disabled": 0, "fusion_lon": 0.0, "is_reserved": 0, "name": "8b6b68c358ad2c6621d6bb54c160e989", "type": "electric_scooter", "bike_id": "8b6b68c358ad2c6621d6bb54c160e989", "rental_uris": {"ios": "https://dc.lft.to/lastmile_qr_scan", "android": "https://dc.lft.to/lastmile_qr_scan"}, "fusion_lat": 0.0}, {"lat": 38.88437583333334, "lon": -77.02583166666666, "is_disabled": 0, "fusion_lon": 0.0, "is_reserved": 0, "name": "bd2d0daecaa5a96b8f0edd4dd2588f14", "type": "electric_scooter", "bike_id": "bd2d0daecaa5a96b8f0edd4dd2588f14", "rental_uris": {"ios": "https://dc.lft.to/lastmile_qr_scan", "android": "https://dc.lft.to/lastmile_qr_scan"}, "fusion_lat": 0.0}, {"lat": 38.9099505, "lon": -77.0318615, "is_disabled": 0, "fusion_lon": 0.0, "is_reserved": 0, "name": "47aee5f4066fc12828218868deefa5e2", "type": "electric_scooter", "bike_id": "47aee5f4066fc12828218868deefa5e2", "rental_uris": {"ios": "https://dc.lft.to/lastmile_qr_scan", "android": "https://dc.lft.to/lastmile_qr_scan"}, "fusion_lat": 0.0}, {"lat": 38.910244, "lon": -77.03858433333333, "is_disabled": 0, "fusion_lon": 0.0, "is_reserved": 0, "name": "ff05792c265e6b68a69b2d605da44926", "type": "electric_scooter", "bike_id": "ff05792c265e6b68a69b2d605da44926", "rental_uris": {"ios": "https://dc.lft.to/lastmile_qr_scan", "android": "https://dc.lft.to/lastmile_qr_scan"}, "fusion_lat": 0.0}, {"lat": 38.92327433333333, "lon": -77.0461735, "is_disabled": 0, "fusion_lon": 0.0, "is_reserved": 0, "name": "78336190d4d6bdaccb968778db537f24", "type": "electric_scooter", "bike_id": "78336190d4d6bdaccb968778db537f24", "rental_uris": {"ios": "https://dc.lft.to/lastmile_qr_scan", "android": "https://dc.lft.to/lastmile_qr_scan"}, "fusion_lat": 0.0}, {"lat": 38.92544433333333, "lon": -77.03386533333334, "is_disabled": 0, "fusion_lon": 0.0, "is_reserved": 0, "name": "ba454aa54c1a5028161a852cf63228db", "type": "electric_scooter", "bike_id": "ba454aa54c1a5028161a852cf63228db", "rental_uris": {"ios": "https://dc.lft.to/lastmile_qr_scan", "android": "https://dc.lft.to/lastmile_qr_scan"}, "fusion_lat": 0.0}, {"lat": 38.905631666666665, "lon": -77.02219066666666, "is_disabled": 0, "fusion_lon": 0.0, "is_reserved": 0, "name": "d096e7e1884373a97b5aab4b30319b87", "type": "electric_scooter", "bike_id": "d096e7e1884373a97b5aab4b30319b87", "rental_uris": {"ios": "https://dc.lft.to/lastmile_qr_scan", "android": "https://dc.lft.to/lastmile_qr_scan"}, "fusion_lat": 0.0}, {"lat": 38.90032733333334, "lon": -76.99881266666667, "is_disabled": 0, "fusion_lon": 0.0, "is_reserved": 0, "name": "acd0d98fc323e6e4b5c3663232adb8ec", "type": "electric_scooter", "bike_id": "acd0d98fc323e6e4b5c3663232adb8ec", "rental_uris": {"ios": "https://dc.lft.to/lastmile_qr_scan", "android": "https://dc.lft.to/lastmile_qr_scan"}, "fusion_lat": 0.0}, {"lat": 38.92069, "lon": -77.0207665, "is_disabled": 0, "fusion_lon": 0.0, "is_reserved": 0, "name": "2f008cab4b5747a63c5f6b4cb6ed4913", "type": "electric_scooter", "bike_id": "2f008cab4b5747a63c5f6b4cb6ed4913", "rental_uris": {"ios": "https://dc.lft.to/lastmile_qr_scan", "android": "https://dc.lft.to/lastmile_qr_scan"}, "fusion_lat": 0.0}, {"lat": 38.86826083333333, "lon": -77.00987433333333, "is_disabled": 0, "fusion_lon": 0.0, "is_reserved": 0, "name": "ede57c1efc08c1c88eb657923bfbfc5a", "type": "electric_scooter", "bike_id": "ede57c1efc08c1c88eb657923bfbfc5a", "rental_uris": {"ios": "https://dc.lft.to/lastmile_qr_scan", "android": "https://dc.lft.to/lastmile_qr_scan"}, "fusion_lat": 0.0}, {"lat": 38.914147166666666, "lon": -77.018723, "is_disabled": 0, "fusion_lon": 0.0, "is_reserved": 0, "name": "d6a5ea513bd76059b8897b39e5b5dced", "type": "electric_scooter", "bike_id": "d6a5ea513bd76059b8897b39e5b5dced", "rental_uris": {"ios": "https://dc.lft.to/lastmile_qr_scan", "android": "https://dc.lft.to/lastmile_qr_scan"}, "fusion_lat": 0.0}, {"lat": 38.873371166666665, "lon": -77.00066866666667, "is_disabled": 0, "fusion_lon": 0.0, "is_reserved": 0, "name": "64b8dbb5742a678d8dece64ecbb8c5be", "type": "electric_scooter", "bike_id": "64b8dbb5742a678d8dece64ecbb8c5be", "rental_uris": {"ios": "https://dc.lft.to/lastmile_qr_scan", "android": "https://dc.lft.to/lastmile_qr_scan"}, "fusion_lat": 0.0}, {"lat": 38.90422233333334, "lon": -77.0531345, "is_disabled": 0, "fusion_lon": 0.0, "is_reserved": 0, "name": "a403b49851981f04aa6ae24a4ab57f9b", "type": "electric_scooter", "bike_id": "a403b49851981f04aa6ae24a4ab57f9b", "rental_uris": {"ios": "https://dc.lft.to/lastmile_qr_scan", "android": "https://dc.lft.to/lastmile_qr_scan"}, "fusion_lat": 0.0}, {"lat": 38.899654166666664, "lon": -76.9949385, "is_disabled": 0, "fusion_lon": 0.0, "is_reserved": 0, "name": "e788d427886756a431e5ba06ab887da6", "type": "electric_scooter", "bike_id": "e788d427886756a431e5ba06ab887da6", "rental_uris": {"ios": "https://dc.lft.to/lastmile_qr_scan", "android": "https://dc.lft.to/lastmile_qr_scan"}, "fusion_lat": 0.0}, {"lat": 38.89840383333333, "lon": -77.03039483333333, "is_disabled": 0, "fusion_lon": 0.0, "is_reserved": 0, "name": "61f944065640bd78911190d3f52c463a", "type": "electric_scooter", "bike_id": "61f944065640bd78911190d3f52c463a", "rental_uris": {"ios": "https://dc.lft.to/lastmile_qr_scan", "android": "https://dc.lft.to/lastmile_qr_scan"}, "fusion_lat": 0.0}, {"lat": 38.89801, "lon": -77.02204333333333, "is_disabled": 0, "fusion_lon": 0.0, "is_reserved": 0, "name": "3281ece7f74a65625446777b90328bfc", "type": "electric_scooter", "bike_id": "3281ece7f74a65625446777b90328bfc", "rental_uris": {"ios": "https://dc.lft.to/lastmile_qr_scan", "android": "https://dc.lft.to/lastmile_qr_scan"}, "fusion_lat": 0.0}, {"lat": 38.919634333333335, "lon": -77.01436816666667, "is_disabled": 0, "fusion_lon": 0.0, "is_reserved": 0, "name": "92ba8291fd57156d43196fcd4d0fceca", "type": "electric_scooter", "bike_id": "92ba8291fd57156d43196fcd4d0fceca", "rental_uris": {"ios": "https://dc.lft.to/lastmile_qr_scan", "android": "https://dc.lft.to/lastmile_qr_scan"}, "fusion_lat": 0.0}, {"lat": 38.90409666666667, "lon": -77.02582366666667, "is_disabled": 0, "fusion_lon": 0.0, "is_reserved": 0, "name": "c11f6a43eda9696380ae24d4af87a367", "type": "electric_scooter", "bike_id": "c11f6a43eda9696380ae24d4af87a367", "rental_uris": {"ios": "https://dc.lft.to/lastmile_qr_scan", "android": "https://dc.lft.to/lastmile_qr_scan"}, "fusion_lat": 0.0}, {"lat": 38.93429283333333, "lon": -77.040058, "is_disabled": 0, "fusion_lon": 0.0, "is_reserved": 0, "name": "599cbefd64ac1649046eccc6be0caa43", "type": "electric_scooter", "bike_id": "599cbefd64ac1649046eccc6be0caa43", "rental_uris": {"ios": "https://dc.lft.to/lastmile_qr_scan", "android": "https://dc.lft.to/lastmile_qr_scan"}, "fusion_lat": 0.0}, {"lat": 38.86196983333333, "lon": -77.076091, "is_disabled": 0, "fusion_lon": 0.0, "is_reserved": 0, "name": "065a5096e0aae58ebe32b755603fc31c", "type": "electric_bike", "bike_id": "065a5096e0aae58ebe32b755603fc31c", "rental_uris": {"ios": "https://dc.lft.to/lastmile_qr_scan", "android": "https://dc.lft.to/lastmile_qr_scan"}, "fusion_lat": 0.0}, {"lat": 38.902651, "lon": -77.02779466666667, "is_disabled": 0, "fusion_lon": 0.0, "is_reserved": 0, "name": "c99a6a1546b08ee78f2c95689da93f0d", "type": "electric_scooter", "bike_id": "c99a6a1546b08ee78f2c95689da93f0d", "rental_uris": {"ios": "https://dc.lft.to/lastmile_qr_scan", "android": "https://dc.lft.to/lastmile_qr_scan"}, "fusion_lat": 0.0}, {"lat": 38.908739833333335, "lon": -77.04332233333334, "is_disabled": 0, "fusion_lon": 0.0, "is_reserved": 0, "name": "9e81c3133ee356f9f389af6b62072c5c", "type": "electric_scooter", "bike_id": "9e81c3133ee356f9f389af6b62072c5c", "rental_uris": {"ios": "https://dc.lft.to/lastmile_qr_scan", "android": "https://dc.lft.to/lastmile_qr_scan"}, "fusion_lat": 0.0}, {"lat": 38.866674333333336, "lon": -76.98908733333333, "is_disabled": 0, "fusion_lon": 0.0, "is_reserved": 0, "name": "7eb7303988032e0a4f59f194280b590a", "type": "electric_scooter", "bike_id": "7eb7303988032e0a4f59f194280b590a", "rental_uris": {"ios": "https://dc.lft.to/lastmile_qr_scan", "android": "https://dc.lft.to/lastmile_qr_scan"}, "fusion_lat": 0.0}, {"lat": 38.91478433333333, "lon": -77.0426625, "is_disabled": 0, "fusion_lon": 0.0, "is_reserved": 0, "name": "5979b8e5c30f1f7ce19a65147d9b2520", "type": "electric_scooter", "bike_id": "5979b8e5c30f1f7ce19a65147d9b2520", "rental_uris": {"ios": "https://dc.lft.to/lastmile_qr_scan", "android": "https://dc.lft.to/lastmile_qr_scan"}, "fusion_lat": 0.0}, {"lat": 38.929989666666664, "lon": -77.03800883333334, "is_disabled": 0, "fusion_lon": 0.0, "is_reserved": 0, "name": "876dd79d9aafed940367be4e6f434d57", "type": "electric_scooter", "bike_id": "876dd79d9aafed940367be4e6f434d57", "rental_uris": {"ios": "https://dc.lft.to/lastmile_qr_scan", "android": "https://dc.lft.to/lastmile_qr_scan"}, "fusion_lat": 0.0}, {"lat": 38.898293833333334, "lon": -77.03357033333333, "is_disabled": 0, "fusion_lon": 0.0, "is_reserved": 0, "name": "3f80808f0b089655d2c9267ac287ee7f", "type": "electric_scooter", "bike_id": "3f80808f0b089655d2c9267ac287ee7f", "rental_uris": {"ios": "https://dc.lft.to/lastmile_qr_scan", "android": "https://dc.lft.to/lastmile_qr_scan"}, "fusion_lat": 0.0}, {"lat": 38.940214, "lon": -76.97610116666667, "is_disabled": 0, "fusion_lon": 0.0, "is_reserved": 0, "name": "555bb007da35ab6b87c4b8b5edfc381c", "type": "electric_bike", "bike_id": "555bb007da35ab6b87c4b8b5edfc381c", "rental_uris": {"ios": "https://dc.lft.to/lastmile_qr_scan", "android": "https://dc.lft.to/lastmile_qr_scan"}, "fusion_lat": 0.0}, {"lat": 38.916832666666664, "lon": -77.02954666666666, "is_disabled": 0, "fusion_lon": 0.0, "is_reserved": 0, "name": "e5a56630cbdadac318ea02c51e4b1159", "type": "electric_scooter", "bike_id": "e5a56630cbdadac318ea02c51e4b1159", "rental_uris": {"ios": "https://dc.lft.to/lastmile_qr_scan", "android": "https://dc.lft.to/lastmile_qr_scan"}, "fusion_lat": 0.0}, {"lat": 38.956306, "lon": -77.02833283333334, "is_disabled": 0, "fusion_lon": 0.0, "is_reserved": 0, "name": "004a8022b0b5915cac9060f790663f10", "type": "electric_scooter", "bike_id": "004a8022b0b5915cac9060f790663f10", "rental_uris": {"ios": "https://dc.lft.to/lastmile_qr_scan", "android": "https://dc.lft.to/lastmile_qr_scan"}, "fusion_lat": 0.0}, {"lat": 38.92345266666667, "lon": -77.0522725, "is_disabled": 0, "fusion_lon": 0.0, "is_reserved": 0, "name": "426c75c375bade3430db7895dca280b3", "type": "electric_scooter", "bike_id": "426c75c375bade3430db7895dca280b3", "rental_uris": {"ios": "https://dc.lft.to/lastmile_qr_scan", "android": "https://dc.lft.to/lastmile_qr_scan"}, "fusion_lat": 0.0}, {"lat": 38.9165965, "lon": -77.0385715, "is_disabled": 0, "fusion_lon": 0.0, "is_reserved": 0, "name": "cb075f5b399789aa6b845998f5232d0e", "type": "electric_scooter", "bike_id": "cb075f5b399789aa6b845998f5232d0e", "rental_uris": {"ios": "https://dc.lft.to/lastmile_qr_scan", "android": "https://dc.lft.to/lastmile_qr_scan"}, "fusion_lat": 0.0}, {"lat": 38.9097525, "lon": -77.03377433333333, "is_disabled": 0, "fusion_lon": 0.0, "is_reserved": 0, "name": "b7a5a4b577ad03a8dfadb10fd13560d1", "type": "electric_scooter", "bike_id": "b7a5a4b577ad03a8dfadb10fd13560d1", "rental_uris": {"ios": "https://dc.lft.to/lastmile_qr_scan", "android": "https://dc.lft.to/lastmile_qr_scan"}, "fusion_lat": 0.0}, {"lat": 38.92479316666667, "lon": -77.026554, "is_disabled": 0, "fusion_lon": 0.0, "is_reserved": 0, "name": "d66d18682f096c8547512dadef815522", "type": "electric_scooter", "bike_id": "d66d18682f096c8547512dadef815522", "rental_uris": {"ios": "https://dc.lft.to/lastmile_qr_scan", "android": "https://dc.lft.to/lastmile_qr_scan"}, "fusion_lat": 0.0}, {"lat": 38.78449616666666, "lon": -77.01637566666666, "is_disabled": 0, "fusion_lon": 0.0, "is_reserved": 0, "name": "2380a6d01a11f25b70a1ef53f063f0f9", "type": "electric_bike", "bike_id": "2380a6d01a11f25b70a1ef53f063f0f9", "rental_uris": {"ios": "https://dc.lft.to/lastmile_qr_scan", "android": "https://dc.lft.to/lastmile_qr_scan"}, "fusion_lat": 0.0}, {"lat": 38.908378166666665, "lon": -77.03954166666666, "is_disabled": 0, "fusion_lon": 0.0, "is_reserved": 0, "name": "1ebfffe2fc8165e983adf2108800167b", "type": "electric_scooter", "bike_id": "1ebfffe2fc8165e983adf2108800167b", "rental_uris": {"ios": "https://dc.lft.to/lastmile_qr_scan", "android": "https://dc.lft.to/lastmile_qr_scan"}, "fusion_lat": 0.0}, {"lat": 38.874952, "lon": -76.99974116666667, "is_disabled": 0, "fusion_lon": 0.0, "is_reserved": 0, "name": "1b43a1f3019f224f7a3824ed6a62c019", "type": "electric_scooter", "bike_id": "1b43a1f3019f224f7a3824ed6a62c019", "rental_uris": {"ios": "https://dc.lft.to/lastmile_qr_scan", "android": "https://dc.lft.to/lastmile_qr_scan"}, "fusion_lat": 0.0}, {"lat": 38.93367333333333, "lon": -77.057279, "is_disabled": 0, "fusion_lon": 0.0, "is_reserved": 0, "name": "cc4ac9a70ff780db2ea00ae511bf58ab", "type": "electric_scooter", "bike_id": "cc4ac9a70ff780db2ea00ae511bf58ab", "rental_uris": {"ios": "https://dc.lft.to/lastmile_qr_scan", "android": "https://dc.lft.to/lastmile_qr_scan"}, "fusion_lat": 0.0}, {"lat": 38.94474233333333, "lon": -77.02242466666667, "is_disabled": 0, "fusion_lon": 0.0, "is_reserved": 0, "name": "75c240c7a66bfae2c4705c1402efdfcc", "type": "electric_bike", "bike_id": "75c240c7a66bfae2c4705c1402efdfcc", "rental_uris": {"ios": "https://dc.lft.to/lastmile_qr_scan", "android": "https://dc.lft.to/lastmile_qr_scan"}, "fusion_lat": 0.0}, {"lat": 38.90493766666667, "lon": -76.9744735, "is_disabled": 0, "fusion_lon": 0.0, "is_reserved": 0, "name": "2888a67171980fe7ec9ecac594eff39d", "type": "electric_bike", "bike_id": "2888a67171980fe7ec9ecac594eff39d", "rental_uris": {"ios": "https://dc.lft.to/lastmile_qr_scan", "android": "https://dc.lft.to/lastmile_qr_scan"}, "fusion_lat": 0.0},