{"data": {"bikes": [{"is_disabled": 0, "fusion_lon": 0.0, "fusion_lat": 0.0, "lat": 38.89826766666667, "type": "electric_scooter", "lon": -76.946549, "bike_id": "9eec834ed56a17c4adbf5fbb188118d9", "rental_uris": {"android": "https://dc.lft.to/lastmile_qr_scan", "ios": "https://dc.lft.to/lastmile_qr_scan"}, "name": "9eec834ed56a17c4adbf5fbb188118d9", "is_reserved": 0}, {"is_disabled": 0, "fusion_lon": 0.0, "fusion_lat": 0.0, "lat": 38.90273783333333, "type": "electric_scooter", "lon": -77.03452416666667, "bike_id": "c1c4f0970ecb04f3a99bd4b1a0496bea", "rental_uris": {"android": "https://dc.lft.to/lastmile_qr_scan", "ios": "https://dc.lft.to/lastmile_qr_scan"}, "name": "c1c4f0970ecb04f3a99bd4b1a0496bea", "is_reserved": 0}, {"is_disabled": 0, "fusion_lon": 0.0, "fusion_lat": 0.0, "lat": 38.92460616666666, "type": "electric_scooter", "lon": -77.029635, "bike_id": "82979f369fe7b4764a857b7be203d065", "rental_uris": {"android": "https://dc.lft.to/lastmile_qr_scan", "ios": "https://dc.lft.to/lastmile_qr_scan"}, "name": "82979f369fe7b4764a857b7be203d065", "is_reserved": 0}, {"is_disabled": 0, "fusion_lon": 0.0, "fusion_lat": 0.0, "lat": 38.910512833333335, "type": "electric_scooter", "lon": -77.02281233333333, "bike_id": "8c234f1469bd77f4edd90ba0107aaac2", "rental_uris": {"android": "https://dc.lft.to/lastmile_qr_scan", "ios": "https://dc.lft.to/lastmile_qr_scan"}, "name": "8c234f1469bd77f4edd90ba0107aaac2", "is_reserved": 0}, {"is_disabled": 0, "fusion_lon": 0.0, "fusion_lat": 0.0, "lat": 38.9170455, "type": "electric_scooter", "lon": -77.03313516666667, "bike_id": "368af544ae3e673b3f5059a99a6e0d5e", "rental_uris": {"android": "https://dc.lft.to/lastmile_qr_scan", "ios": "https://dc.lft.to/lastmile_qr_scan"}, "name": "368af544ae3e673b3f5059a99a6e0d5e", "is_reserved": 0}, {"is_disabled": 0, "fusion_lon": 0.0, "fusion_lat": 0.0, "lat": 38.90388816666667, "type": "electric_scooter", "lon": -76.9900045, "bike_id": "098fe9653fef9fc6c0fb4581133daa25", "rental_uris": {"android": "https://dc.lft.to/lastmile_qr_scan", "ios": "https://dc.lft.to/lastmile_qr_scan"}, "name": "098fe9653fef9fc6c0fb4581133daa25", "is_reserved": 0}, {"is_disabled": 0, "fusion_lon": 0.0, "fusion_lat": 0.0, "lat": 38.9518575, "type": "electric_scooter", "lon": -77.02611683333333, "bike_id": "b9a7fd2981955c108ab1d8d9d05761d3", "rental_uris": {"android": "https://dc.lft.to/lastmile_qr_scan", "ios": "https://dc.lft.to/lastmile_qr_scan"}, "name": "b9a7fd2981955c108ab1d8d9d05761d3", "is_reserved": 0}, {"is_disabled": 0, "fusion_lon": 0.0, "fusion_lat": 0.0, "lat": 38.94625383333333, "type": "electric_bike", "lon": -76.93413666666666, "bike_id": "f6bef352b6a4a139ef7f06da3bbf8287", "rental_uris": {"android": "https://dc.lft.to/lastmile_qr_scan", "ios": "https://dc.lft.to/lastmile_qr_scan"}, "name": "f6bef352b6a4a139ef7f06da3bbf8287", "is_reserved": 0}, {"is_disabled": 0, "fusion_lon": 0.0, "fusion_lat": 0.0, "lat": 38.88111516666667, "type": "electric_bike", "lon": -77.01668133333334, "bike_id": "d2ba8cbff4bb0ea67721a367700c64ab", "rental_uris": {"android": "https://dc.lft.to/lastmile_qr_scan", "ios": "https://dc.lft.to/lastmile_qr_scan"}, "name": "d2ba8cbff4bb0ea67721a367700c64ab", "is_reserved": 0}, {"is_disabled": 0, "fusion_lon": 0.0, "fusion_lat": 0.0, "lat": 38.928058, "type": "electric_scooter", "lon": -77.03629966666666, "bike_id": "07401de083e15d3f804e317086112dd2", "rental_uris": {"android": "https://dc.lft.to/lastmile_qr_scan", "ios": "https://dc.lft.to/lastmile_qr_scan"}, "name": "07401de083e15d3f804e317086112dd2", "is_reserved": 0}, {"is_disabled": 0, "fusion_lon": 0.0, "fusion_lat": 0.0, "lat": 38.9126785, "type": "electric_scooter", "lon": -77.0336585, "bike_id": "c7380ce2b382d2f601d84503b8c6830a", "rental_uris": {"android": "https://dc.lft.to/lastmile_qr_scan", "ios": "https://dc.lft.to/lastmile_qr_scan"}, "name": "c7380ce2b382d2f601d84503b8c6830a", "is_reserved": 0}, {"is_disabled": 0, "fusion_lon": 0.0, "fusion_lat": 0.0, "lat": 38.94977516666667, "type": "electric_scooter", "lon": -77.09437083333333, "bike_id": "578faf91dfe35aa98eb7a9c903ad457e", "rental_uris": {"android": "https://dc.lft.to/lastmile_qr_scan", "ios": "https://dc.lft.to/lastmile_qr_scan"}, "name": "578faf91dfe35aa98eb7a9c903ad457e", "is_reserved": 0}, {"is_disabled": 0, "fusion_lon": 0.0, "fusion_lat": 0.0, "lat": 38.87828016666667, "type": "electric_scooter", "lon": -76.96316933333334, "bike_id": "28a84c75a8094d75d9a03dbd96637bf9", "rental_uris": {"android": "https://dc.lft.to/lastmile_qr_scan", "ios": "https://dc.lft.to/lastmile_qr_scan"}, "name": "28a84c75a8094d75d9a03dbd96637bf9", "is_reserved": 0}, {"is_disabled": 0, "fusion_lon": 0.0, "fusion_lat": 0.0, "lat": 38.950011833333335, "type": "electric_bike", "lon": -77.353113, "bike_id": "b65962cdfe12570a8ebc9f0a93cc5218", "rental_uris": {"android": "https://dc.lft.to/lastmile_qr_scan", "ios": "https://dc.lft.to/lastmile_qr_scan"}, "name": "b65962cdfe12570a8ebc9f0a93cc5218", "is_reserved": 0}, {"is_disabled": 0, "fusion_lon": 0.0, "fusion_lat": 0.0, "lat": 38.8767265, "type": "electric_scooter", "lon": -76.93197183333334, "bike_id": "e11ca2f7bdeafc997c355fc21b39819b", "rental_uris": {"android": "https://dc.lft.to/lastmile_qr_scan", "ios": "https://dc.lft.to/lastmile_qr_scan"}, "name": "e11ca2f7bdeafc997c355fc21b39819b", "is_reserved": 0}, {"is_disabled": 0, "fusion_lon": 0.0, "fusion_lat": 0.0, "lat": 38.93097816666667, "type": "electric_scooter", "lon": -77.02499116666667, "bike_id": "0bc8af18b85d61549ce43b2a9ebfb856", "rental_uris": {"android": "https://dc.lft.to/lastmile_qr_scan", "ios": "https://dc.lft.to/lastmile_qr_scan"}, "name": "0bc8af18b85d61549ce43b2a9ebfb856", "is_reserved": 0}, {"is_disabled": 0, "fusion_lon": 0.0, "fusion_lat": 0.0, "lat": 38.90876766666667, "type": "electric_scooter", "lon": -77.07635666666667, "bike_id": "fe2d44b0d8328e2614ac437eb62bac46", "rental_uris": {"android": "https://dc.lft.to/lastmile_qr_scan", "ios": "https://dc.lft.to/lastmile_qr_scan"}, "name": "fe2d44b0d8328e2614ac437eb62bac46", "is_reserved": 0}, {"is_disabled": 0, "fusion_lon": 0.0, "fusion_lat": 0.0, "lat": 38.8974595, "type": "electric_scooter", "lon": -77.00322216666666, "bike_id": "e5c353314771cb7f814e90c2c4af0a35", "rental_uris": {"android": "https://dc.lft.to/lastmile_qr_scan", "ios": "https://dc.lft.to/lastmile_qr_scan"}, "name": "e5c353314771cb7f814e90c2c4af0a35", "is_reserved": 0}, {"is_disabled": 0, "fusion_lon": 0.0, "fusion_lat": 0.0, "lat": 38.90953583333334, "type": "electric_scooter", "lon": -77.02183216666667, "bike_id": "d95a05fe07e3e081f25dd78b89ae453a", "rental_uris": {"android": "https://dc.lft.to/lastmile_qr_scan", "ios": "https://dc.lft.to/lastmile_qr_scan"}, "name": "d95a05fe07e3e081f25dd78b89ae453a", "is_reserved": 0}, {"is_disabled": 0, "fusion_lon": 0.0, "fusion_lat": 0.0, "lat": 38.92743816666667, "type": "electric_scooter", "lon": -77.02479616666666, "bike_id": "874dff2dee741acdf9777d8ce5cbf4b7", "rental_uris": {"android": "https://dc.lft.to/lastmile_qr_scan", "ios": "https://dc.lft.to/lastmile_qr_scan"}, "name": "874dff2dee741acdf9777d8ce5cbf4b7", "is_reserved": 0}, {"is_disabled": 0, "fusion_lon": 0.0, "fusion_lat": 0.0, "lat": 38.929167, "type": "electric_scooter", "lon": -77.02155216666667, "bike_id": "f936516227c24fa5c888e9a291c21098", "rental_uris": {"android": "https://dc.lft.to/lastmile_qr_scan", "ios": "https://dc.lft.to/lastmile_qr_scan"}, "name": "f936516227c24fa5c888e9a291c21098", "is_reserved": 0}, {"is_disabled": 0, "fusion_lon": 0.0, "fusion_lat": 0.0, "lat": 38.918898166666665, "type": "electric_scooter", "lon": -77.0711625, "bike_id": "cae32e91ef255fca80cf4cde6a912554", "rental_uris": {"android": "https://dc.lft.to/lastmile_qr_scan", "ios": "https://dc.lft.to/lastmile_qr_scan"}, "name": "cae32e91ef255fca80cf4cde6a912554", "is_reserved": 0}, {"is_disabled": 0, "fusion_lon": 0.0, "fusion_lat": 0.0, "lat": 38.91934066666666, "type": "electric_bike", "lon": -76.97502983333334, "bike_id": "59c78e1d76b8cb14a67cf4663ce52319", "rental_uris": {"android": "https://dc.lft.to/lastmile_qr_scan", "ios": "https://dc.lft.to/lastmile_qr_scan"}, "name": "59c78e1d76b8cb14a67cf4663ce52319", "is_reserved": 0}, {"is_disabled": 0, "fusion_lon": 0.0, "fusion_lat": 0.0, "lat": 38.94304066666667, "type": "electric_scooter", "lon": -77.02761366666667, "bike_id": "fb188f3011149d35185b412c3b83ed3c", "rental_uris": {"android": "https://dc.lft.to/lastmile_qr_scan", "ios": "https://dc.lft.to/lastmile_qr_scan"}, "name": "fb188f3011149d35185b412c3b83ed3c", "is_reserved": 0}, {"is_disabled": 0, "fusion_lon": 0.0, "fusion_lat": 0.0, "lat": 38.90516483333333, "type": "electric_scooter", "lon": -77.05311433333334, "bike_id": "672b6f59fc89b2811a31181e895449b1", "rental_uris": {"android": "https://dc.lft.to/lastmile_qr_scan", "ios": "https://dc.lft.to/lastmile_qr_scan"}, "name": "672b6f59fc89b2811a31181e895449b1", "is_reserved": 0}, {"is_disabled": 0, "fusion_lon": 0.0, "fusion_lat": 0.0, "lat": 38.910080666666666, "type": "electric_scooter", "lon": -77.080873, "bike_id": "4b7648b60a8f4cef9a9969be001b7132", "rental_uris": {"android": "https://dc.lft.to/lastmile_qr_scan", "ios": "https://dc.lft.to/lastmile_qr_scan"}, "name": "4b7648b60a8f4cef9a9969be001b7132", "is_reserved": 0}, {"is_disabled": 0, "fusion_lon": 0.0, "fusion_lat": 0.0, "lat": 38.920675333333335, "type": "electric_scooter", "lon": -77.04374933333334, "bike_id": "67b0c183619ac7e57abfc3ce53176e38", "rental_uris": {"android": "https://dc.lft.to/lastmile_qr_scan", "ios": "https://dc.lft.to/lastmile_qr_scan"}, "name": "67b0c183619ac7e57abfc3ce53176e38", "is_reserved": 0}, {"is_disabled": 0, "fusion_lon": 0.0, "fusion_lat": 0.0, "lat": 38.8940925, "type": "electric_scooter", "lon": -77.01089916666666, "bike_id": "01ba2e7091ea28437946c4e3f2e91247", "rental_uris": {"android": "https://dc.lft.to/lastmile_qr_scan", "ios": "https://dc.lft.to/lastmile_qr_scan"}, "name": "01ba2e7091ea28437946c4e3f2e91247", "is_reserved": 0}, {"is_disabled": 0, "fusion_lon": 0.0, "fusion_lat": 0.0, "lat": 38.92335666666666, "type": "electric_scooter", "lon": -77.04191933333334, "bike_id": "893f9d21033f1ac06424d474ea6fcac1", "rental_uris": {"android": "https://dc.lft.to/lastmile_qr_scan", "ios": "https://dc.lft.to/lastmile_qr_scan"}, "name": "893f9d21033f1ac06424d474ea6fcac1", "is_reserved": 0}, {"is_disabled": 0, "fusion_lon": 0.0, "fusion_lat": 0.0, "lat": 38.86960083333334, "type": "electric_scooter", "lon": -76.9603465, "bike_id": "7e5a36ee9dc7c179dd705d4531fbd588", "rental_uris": {"android": "https://dc.lft.to/lastmile_qr_scan", "ios": "https://dc.lft.to/lastmile_qr_scan"}, "name": "7e5a36ee9dc7c179dd705d4531fbd588", "is_reserved": 0}, {"is_disabled": 0, "fusion_lon": 0.0, "fusion_lat": 0.0, "lat": 38.9001515, "type": "electric_scooter", "lon": -77.0331885, "bike_id": "a371a149afc4ec85096b106168bbcd12", "rental_uris": {"android": "https://dc.lft.to/lastmile_qr_scan", "ios": "https://dc.lft.to/lastmile_qr_scan"}, "name": "a371a149afc4ec85096b106168bbcd12", "is_reserved": 0}, {"is_disabled": 0, "fusion_lon": 0.0, "fusion_lat": 0.0, "lat": 38.909613666666665, "type": "electric_scooter", "lon": -77.02382666666666, "bike_id": "2b75f7c7c429ba452d9695faeff5e223", "rental_uris": {"android": "https://dc.lft.to/lastmile_qr_scan", "ios": "https://dc.lft.to/lastmile_qr_scan"}, "name": "2b75f7c7c429ba452d9695faeff5e223", "is_reserved": 0}, {"is_disabled": 0, "fusion_lon": 0.0, "fusion_lat": 0.0, "lat": 38.8102905, "type": "electric_bike", "lon": -77.08432666666667, "bike_id": "c6870b5020d873c4bb363d7a5aa9917a", "rental_uris": {"android": "https://dc.lft.to/lastmile_qr_scan", "ios": "https://dc.lft.to/lastmile_qr_scan"}, "name": "c6870b5020d873c4bb363d7a5aa9917a", "is_reserved": 0}, {"is_disabled": 0, "fusion_lon": 0.0, "fusion_lat": 0.0, "lat": 38.919131, "type": "electric_scooter", "lon": -77.031779, "bike_id": "0bfde087a90ff3fb5236f9a3bb2860e8", "rental_uris": {"android": "https://dc.lft.to/lastmile_qr_scan", "ios": "https://dc.lft.to/lastmile_qr_scan"}, "name": "0bfde087a90ff3fb5236f9a3bb2860e8", "is_reserved": 0}, {"is_disabled": 0, "fusion_lon": 0.0, "fusion_lat": 0.0, "lat": 38.908455000000004, "type": "electric_scooter", "lon": -77.00403883333334, "bike_id": "ea48a99b4433f6cbf8ab4d6e6f6965e6", "rental_uris": {"android": "https://dc.lft.to/lastmile_qr_scan", "ios": "https://dc.lft.to/lastmile_qr_scan"}, "name": "ea48a99b4433f6cbf8ab4d6e6f6965e6", "is_reserved": 0}, {"is_disabled": 0, "fusion_lon": 0.0, "fusion_lat": 0.0, "lat": 38.905980166666666, "type": "electric_scooter", "lon": -77.073126, "bike_id": "fe0b7ff4496b4a085a135fa200471196", "rental_uris": {"android": "https://dc.lft.to/lastmile_qr_scan", "ios": "https://dc.lft.to/lastmile_qr_scan"}, "name": "fe0b7ff4496b4a085a135fa200471196", "is_reserved": 0}, {"is_disabled": 0, "fusion_lon": 0.0, "fusion_lat": 0.0, "lat": 39.00017883333334, "type": "electric_bike", "lon": -76.8728655, "bike_id": "6dd5ecc67989651166130237d93a0af9", "rental_uris": {"android": "https://dc.lft.to/lastmile_qr_scan", "ios": "https://dc.lft.to/lastmile_qr_scan"}, "name": "6dd5ecc67989651166130237d93a0af9", "is_reserved": 0}, {"is_disabled": 0, "fusion_lon": 0.0, "fusion_lat": 0.0, "lat": 38.905768333333334, "type": "electric_scooter", "lon": -77.021994, "bike_id": "cc1a502e5bbff75a862e5a1680eb24b0", "rental_uris": {"android": "https://dc.lft.to/lastmile_qr_scan", "ios": "https://dc.lft.to/lastmile_qr_scan"}, "name": "cc1a502e5bbff75a862e5a1680eb24b0", "is_reserved": 0}, {"is_disabled": 0, "fusion_lon": 0.0, "fusion_lat": 0.0, "lat": 38.8287275, "type": "electric_bike", "lon": -77.1122285, "bike_id": "b439c3ee2944fb1f2d61294609ba4acb", "rental_uris": {"android": "https://dc.lft.to/lastmile_qr_scan", "ios": "https://dc.lft.to/lastmile_qr_scan"}, "name": "b439c3ee2944fb1f2d61294609ba4acb", "is_reserved": 0}, {"is_disabled": 0, "fusion_lon": 0.0, "fusion_lat": 0.0, "lat": 38.912875, "type": "electric_scooter", "lon": -77.02070383333333, "bike_id": "39c1ef8f75a937b0e54fe5963d4f6371", "rental_uris": {"android": "https://dc.lft.to/lastmile_qr_scan", "ios": "https://dc.lft.to/lastmile_qr_scan"}, "name": "39c1ef8f75a937b0e54fe5963d4f6371", "is_reserved": 0}, {"is_disabled": 0, "fusion_lon": 0.0, "fusion_lat": 0.0, "lat": 38.919238, "type": "electric_scooter", "lon": -77.033923, "bike_id": "1c85682a754aea53632b8d185dd98afb", "rental_uris": {"android": "https://dc.lft.to/lastmile_qr_scan", "ios": "https://dc.lft.to/lastmile_qr_scan"}, "name": "1c85682a754aea53632b8d185dd98afb", "is_reserved": 0}, {"is_disabled": 0, "fusion_lon": 0.0, "fusion_lat": 0.0, "lat": 38.9038625, "type": "electric_scooter", "lon": -77.01641333333333, "bike_id": "302862b40005c09fba24c23d61f2d60b", "rental_uris": {"android": "https://dc.lft.to/lastmile_qr_scan", "ios": "https://dc.lft.to/lastmile_qr_scan"}, "name": "302862b40005c09fba24c23d61f2d60b", "is_reserved": 0}, {"is_disabled": 0, "fusion_lon": 0.0, "fusion_lat": 0.0, "lat": 38.9726005, "type": "electric_bike", "lon": -76.99168566666667, "bike_id": "acaf225775ad12eaa88924d8d983317e", "rental_uris": {"android": "https://dc.lft.to/lastmile_qr_scan", "ios": "https://dc.lft.to/lastmile_qr_scan"}, "name": "acaf225775ad12eaa88924d8d983317e", "is_reserved": 0}, {"is_disabled": 0, "fusion_lon": 0.0, "fusion_lat": 0.0, "lat": 38.8952095, "type": "electric_scooter", "lon": -77.01105566666666, "bike_id": "a226ef6f7effe429495320a1c44b43b4", "rental_uris": {"android": "https://dc.lft.to/lastmile_qr_scan", "ios": "https://dc.lft.to/lastmile_qr_scan"}, "name": "a226ef6f7effe429495320a1c44b43b4", "is_reserved": 0}, {"is_disabled": 0, "fusion_lon": 0.0, "fusion_lat": 0.0, "lat": 38.9177185, "type": "electric_scooter", "lon": -77.0474675, "bike_id": "19ce11e9ea66041e1b7966f3919c574b", "rental_uris": {"android": "https://dc.lft.to/lastmile_qr_scan", "ios": "https://dc.lft.to/lastmile_qr_scan"}, "name": "19ce11e9ea66041e1b7966f3919c574b", "is_reserved": 0}, {"is_disabled": 0, "fusion_lon": 0.0, "fusion_lat": 0.0, "lat": 38.897335166666664, "type": "electric_scooter", "lon": -77.01001083333334, "bike_id": "6ad327645c7983ebec08842c1a44cfa5", "rental_uris": {"android": "https://dc.lft.to/lastmile_qr_scan", "ios": "https://dc.lft.to/lastmile_qr_scan"}, "name": "6ad327645c7983ebec08842c1a44cfa5", "is_reserved": 0}, {"is_disabled": 0, "fusion_lon": 0.0, "fusion_lat": 0.0, "lat": 38.8392835, "type": "electric_bike", "lon": -77.0790425, "bike_id": "58038a5bf13c06c35871f1c449316b26", "rental_uris": {"android": "https://dc.lft.to/lastmile_qr_scan", "ios": "https://dc.lft.to/lastmile_qr_scan"}, "name": "58038a5bf13c06c35871f1c449316b26", "is_reserved": 0}, {"is_disabled": 0, "fusion_lon": 0.0, "fusion_lat": 0.0, "lat": 38.934690333333336, "type": "electric_scooter", "lon": -77.068796, "bike_id": "739d19dd7b8af697ac82b6acfb1d5f4b", "rental_uris": {"android": "https://dc.lft.to/lastmile_qr_scan", "ios": "https://dc.lft.to/lastmile_qr_scan"}, "name": "739d19dd7b8af697ac82b6acfb1d5f4b", "is_reserved": 0}, {"is_disabled": 0, "fusion_lon": 0.0, "fusion_lat": 0.0, "lat": 38.8942945, "type": "electric_scooter", "lon": -77.01091583333333, "bike_id": "8c452c735f3ed509fd0de3bae7b0c493", "rental_uris": {"android": "https://dc.lft.to/lastmile_qr_scan", "ios": "https://dc.lft.to/lastmile_qr_scan"}, "name": "8c452c735f3ed509fd0de3bae7b0c493", "is_reserved": 0}, {"is_disabled": 0, "fusion_lon": 0.0, "fusion_lat": 0.0, "lat": 39.054562, "type": "electric_bike", "lon": -77.14325666666667, "bike_id": "2ed791d8ffaa807da1d9d4ceffd3ed26", "rental_uris": {"android": "https://dc.lft.to/lastmile_qr_scan", "ios": "https://dc.lft.to/lastmile_qr_scan"}, "name": "2ed791d8ffaa807da1d9d4ceffd3ed26", "is_reserved": 0}, {"is_disabled": 0, "fusion_lon": 0.0, "fusion_lat": 0.0, "lat": 38.896131, "type": "electric_scooter", "lon": -77.00927366666667, "bike_id": "4070afa720bffd962a5f54158da8ea1b", "rental_uris": {"android": "https://dc.lft.to/lastmile_qr_scan", "ios": "https://dc.lft.to/lastmile_qr_scan"}, "name": "4070afa720bffd962a5f54158da8ea1b", "is_reserved": 0}, {"is_disabled": 0, "fusion_lon": 0.0, "fusion_lat": 0.0, "lat": 38.90858266666667, "type": "electric_scooter", "lon": -77.05507266666666, "bike_id": "c53d9697b2afbb6e80ca0f6c89fe14de", "rental_uris": {"android": "https://dc.lft.to/lastmile_qr_scan", "ios": "https://dc.lft.to/lastmile_qr_scan"}, "name": "c53d9697b2afbb6e80ca0f6c89fe14de", "is_reserved": 0}, {"is_disabled": 0, "fusion_lon": 0.0, "fusion_lat": 0.0, "lat": 38.888520166666666, "type": "electric_bike", "lon": -76.97703516666667, "bike_id": "5ffaa8166b6aa2071f1521328dfca0a2", "rental_uris": {"android": "https://dc.lft.to/lastmile_qr_scan", "ios": "https://dc.lft.to/lastmile_qr_scan"}, "name": "5ffaa8166b6aa2071f1521328dfca0a2", "is_reserved": 0}, {"is_disabled": 0, "fusion_lon": 0.0, "fusion_lat": 0.0, "lat": 38.902642666666665, "type": "electric_scooter", "lon": -77.003341, "bike_id": "fe0c9149ae1e5e8e2038df3a07ed54e2", "rental_uris": {"android": "https://dc.lft.to/lastmile_qr_scan", "ios": "https://dc.lft.to/lastmile_qr_scan"}, "name": "fe0c9149ae1e5e8e2038df3a07ed54e2", "is_reserved": 0}, {"is_disabled": 0, "fusion_lon": 0.0, "fusion_lat": 0.0, "lat": 38.8874645, "type": "electric_scooter", "lon": -77.0143215, "bike_id": "c792b1bf63ab5a26eb48b99e988417e3", "rental_uris": {"android": "https://dc.lft.to/lastmile_qr_scan", "ios": "https://dc.lft.to/lastmile_qr_scan"}, "name": "c792b1bf63ab5a26eb48b99e988417e3", "is_reserved": 0}, {"is_disabled": 0, "fusion_lon": 0.0, "fusion_lat": 0.0, "lat": 38.884372666666664, "type": "electric_scooter", "lon": -77.02966766666667, "bike_id": "296bbf64609cd98b09afc2c284616bab", "rental_uris": {"android": "https://dc.lft.to/lastmile_qr_scan", "ios": "https://dc.lft.to/lastmile_qr_scan"}, "name": "296bbf64609cd98b09afc2c284616bab", "is_reserved": 0}, {"is_disabled": 0, "fusion_lon": 0.0, "fusion_lat": 0.0, "lat": 38.89386433333333, "type": "electric_scooter", "lon": -76.9499335, "bike_id": "5038021f845cd017aefd40342646c084", "rental_uris": {"android": "https://dc.lft.to/lastmile_qr_scan", "ios": "https://dc.lft.to/lastmile_qr_scan"}, "name": "5038021f845cd017aefd40342646c084", "is_reserved": 0}, {"is_disabled": 0, "fusion_lon": 0.0, "fusion_lat": 0.0, "lat": 38.90556316666667, "type": "electric_scooter", "lon": -76.98143483333334, "bike_id": "6bc5a0d9b0cc48481877b9cc4fdae6d7", "rental_uris": {"android": "https://dc.lft.to/lastmile_qr_scan", "ios": "https://dc.lft.to/lastmile_qr_scan"}, "name": "6bc5a0d9b0cc48481877b9cc4fdae6d7", "is_reserved": 0}, {"is_disabled": 0, "fusion_lon": 0.0, "fusion_lat": 0.0, "lat": 38.945890166666665, "type": "electric_bike", "lon": -77.344149, "bike_id": "4090bba64061e83b8a1e9767bdad8e02", "rental_uris": {"android": "https://dc.lft.to/lastmile_qr_scan", "ios": "https://dc.lft.to/lastmile_qr_scan"}, "name": "4090bba64061e83b8a1e9767bdad8e02", "is_reserved": 0}, {"is_disabled": 0, "fusion_lon": 0.0, "fusion_lat": 0.0, "lat": 38.90029, "type": "electric_scooter", "lon": -77.04675666666667, "bike_id": "0d7134f0e0e49ef96ea239dc5bf11c6f", "rental_uris": {"android": "https://dc.lft.to/lastmile_qr_scan", "ios": "https://dc.lft.to/lastmile_qr_scan"}, "name": "0d7134f0e0e49ef96ea239dc5bf11c6f", "is_reserved": 0}, {"is_disabled": 0, "fusion_lon": 0.0, "fusion_lat": 0.0, "lat": 38.92480783333333, "type": "electric_scooter", "lon": -77.03778933333334, "bike_id": "53aa0bc0816b42d103fac53ba734e8a1", "rental_uris": {"android": "https://dc.lft.to/lastmile_qr_scan", "ios": "https://dc.lft.to/lastmile_qr_scan"}, "name": "53aa0bc0816b42d103fac53ba734e8a1", "is_reserved": 0}, {"is_disabled": 0, "fusion_lon": 0.0, "fusion_lat": 0.0, "lat": 38.94130883333333, "type": "electric_scooter", "lon": -77.01817533333333, "bike_id": "82ddd96aab86d2e0d31117908df70b4e", "rental_uris": {"android": "https://dc.lft.to/lastmile_qr_scan", "ios": "https://dc.lft.to/lastmile_qr_scan"}, "name": "82ddd96aab86d2e0d31117908df70b4e", "is_reserved": 0}, {"is_disabled": 0, "fusion_lon": 0.0, "fusion_lat": 0.0, "lat": 38.931371666666664, "type": "electric_scooter", "lon": -77.03454833333333, "bike_id": "3f331ee897acb41a2868e187d9dcbe25", "rental_uris": {"android": "https://dc.lft.to/lastmile_qr_scan", "ios": "https://dc.lft.to/lastmile_qr_scan"}, "name": "3f331ee897acb41a2868e187d9dcbe25", "is_reserved": 0}, {"is_disabled": 0, "fusion_lon": 0.0, "fusion_lat": 0.0, "lat": 38.890066166666664, "type": "electric_scooter", "lon": -77.04895, "bike_id": "5833eff912cde497bf7152ab5a3da0c3", "rental_uris": {"android": "https://dc.lft.to/lastmile_qr_scan", "ios": "https://dc.lft.to/lastmile_qr_scan"}, "name": "5833eff912cde497bf7152ab5a3da0c3", "is_reserved": 0}, {"is_disabled": 0, "fusion_lon": 0.0, "fusion_lat": 0.0, "lat": 38.860613, "type": "electric_scooter", "lon": -76.98511066666667, "bike_id": "3b33391f8940e6b9e36afa410fffe8ae", "rental_uris": {"android": "https://dc.lft.to/lastmile_qr_scan", "ios": "https://dc.lft.to/lastmile_qr_scan"}, "name": "3b33391f8940e6b9e36afa410fffe8ae", "is_reserved": 0}, {"is_disabled": 0, "fusion_lon": 0.0, "fusion_lat": 0.0, "lat": 38.90073833333334, "type": "electric_scooter", "lon": -77.0128535, "bike_id": "aa7b546a8a6ef672de7b01819f891369", "rental_uris": {"android": "https://dc.lft.to/lastmile_qr_scan", "ios": "https://dc.lft.to/lastmile_qr_scan"}, "name": "aa7b546a8a6ef672de7b01819f891369", "is_reserved": 0}, {"is_disabled": 0, "fusion_lon": 0.0, "fusion_lat": 0.0, "lat": 38.89475866666667, "type": "electric_scooter", "lon": -76.93302183333333, "bike_id": "5dc302ad7b9edea1f5f7317f425907f1", "rental_uris": {"android": "https://dc.lft.to/lastmile_qr_scan", "ios": "https://dc.lft.to/lastmile_qr_scan"}, "name": "5dc302ad7b9edea1f5f7317f425907f1", "is_reserved": 0}, {"is_disabled": 0, "fusion_lon": 0.0, "fusion_lat": 0.0, "lat": 38.931227666666665, "type": "electric_scooter", "lon": -77.01987016666666, "bike_id": "e4cb15c8d115a35e8e076c5f1d78b46f", "rental_uris": {"android": "https://dc.lft.to/lastmile_qr_scan", "ios": "https://dc.lft.to/lastmile_qr_scan"}, "name": "e4cb15c8d115a35e8e076c5f1d78b46f", "is_reserved": 0}, {"is_disabled": 0, "fusion_lon": 0.0, "fusion_lat": 0.0, "lat": 38.908278833333334, "type": "electric_scooter", "lon": -77.04170016666667, "bike_id": "8a97258cb4b24f8f5e71699b5f0656be", "rental_uris": {"android": "https://dc.lft.to/lastmile_qr_scan", "ios": "https://dc.lft.to/lastmile_qr_scan"}, "name": "8a97258cb4b24f8f5e71699b5f0656be", "is_reserved": 0}, {"is_disabled": 0, "fusion_lon": 0.0, "fusion_lat": 0.0, "lat": 38.896271, "type": "electric_scooter", "lon": -77.02914183333333, "bike_id": "24813a33f972da9cef6baeb0aefd26fd", "rental_uris": {"android": "https://dc.lft.to/lastmile_qr_scan", "ios": "https://dc.lft.to/lastmile_qr_scan"}, "name": "24813a33f972da9cef6baeb0aefd26fd", "is_reserved": 0}, {"is_disabled": 0, "fusion_lon": 0.0, "fusion_lat": 0.0, "lat": 38.904985, "type": "electric_scooter", "lon": -77.02954733333333, "bike_id": "037f1b18790a965a59ae5772be6da36a", "rental_uris": {"android": "https://dc.lft.to/lastmile_qr_scan", "ios": "https://dc.lft.to/lastmile_qr_scan"}, "name": "037f1b18790a965a59ae5772be6da36a", "is_reserved": 0}, {"is_disabled": 0, "fusion_lon": 0.0, "fusion_lat": 0.0, "lat": 38.921028166666666, "type": "electric_scooter", "lon": -77.030479, "bike_id": "52cf9d1d2b8e274a9a5fc777b9a79645", "rental_uris": {"android": "https://dc.lft.to/lastmile_qr_scan", "ios": "https://dc.lft.to/lastmile_qr_scan"}, "name": "52cf9d1d2b8e274a9a5fc777b9a79645", "is_reserved": 0}, {"is_disabled": 0, "fusion_lon": 0.0, "fusion_lat": 0.0, "lat": 38.928759166666666, "type": "electric_scooter", "lon": -77.04128283333333, "bike_id": "e8fd0c867660abf14c6d129854802b5c", "rental_uris": {"android": "https://dc.lft.to/lastmile_qr_scan", "ios": "https://dc.lft.to/lastmile_qr_scan"}, "name": "e8fd0c867660abf14c6d129854802b5c", "is_reserved": 0}, {"is_disabled": 0, "fusion_lon": 0.0, "fusion_lat": 0.0, "lat": 38.8972655, "type": "electric_scooter", "lon": -77.00926983333333, "bike_id": "b3f8322acd23e0ced95ba1c91685a872", "rental_uris": {"android": "https://dc.lft.to/lastmile_qr_scan", "ios": "https://dc.lft.to/lastmile_qr_scan"}, "name": "b3f8322acd23e0ced95ba1c91685a872", "is_reserved": 0}, {"is_disabled": 0, "fusion_lon": 0.0, "fusion_lat": 0.0, "lat": 38.9563345, "type": "electric_scooter", "lon": -77.02980633333334, "bike_id": "70e175528c4ef173b547efba7c584c67", "rental_uris": {"android": "https://dc.lft.to/lastmile_qr_scan", "ios": "https://dc.lft.to/lastmile_qr_scan"}, "name": "70e175528c4ef173b547efba7c584c67", "is_reserved": 0}, {"is_disabled": 0, "fusion_lon": 0.0, "fusion_lat": 0.0, "lat": 38.88160666666667, "type": "electric_scooter", "lon": -77.00897066666667, "bike_id": "06ccfe1d8fe1ee6ef6084cf8b5ef289e", "rental_uris": {"android": "https://dc.lft.to/lastmile_qr_scan", "ios": "https://dc.lft.to/lastmile_qr_scan"}, "name": "06ccfe1d8fe1ee6ef6084cf8b5ef289e", "is_reserved": 0}, {"is_disabled": 0, "fusion_lon": 0.0, "fusion_lat": 0.0, "lat": 38.9274105, "type": "electric_bike", "lon": -76.99363583333333, "bike_id": "9d61904f197c1f7a48720aaff8c6ff36", "rental_uris": {"android": "https://dc.lft.to/lastmile_qr_scan", "ios": "https://dc.lft.to/lastmile_qr_scan"}, "name": "9d61904f197c1f7a48720aaff8c6ff36", "is_reserved": 0}, {"is_disabled": 0, "fusion_lon": 0.0, "fusion_lat": 0.0, "lat": 38.859721666666665, "type": "electric_scooter", "lon": -76.98409983333333, "bike_id": "ab032b6f5bfde066c1958f0851580ec8", "rental_uris": {"android": "https://dc.lft.to/lastmile_qr_scan", "ios": "https://dc.lft.to/lastmile_qr_scan"}, "name": "ab032b6f5bfde066c1958f0851580ec8", "is_reserved": 0}, {"is_disabled": 0, "fusion_lon": 0.0, "fusion_lat": 0.0, "lat": 38.850684, "type": "electric_bike", "lon": -76.97330433333333, "bike_id": "b2cbd4276b565a9ce7adaeda19e3050c", "rental_uris": {"android": "https://dc.lft.to/lastmile_qr_scan", "ios": "https://dc.lft.to/lastmile_qr_scan"}, "name": "b2cbd4276b565a9ce7adaeda19e3050c", "is_reserved": 0}, {"is_disabled": 0, "fusion_lon": 0.0, "fusion_lat": 0.0, "lat": 38.919059, "type": "electric_scooter", "lon": -77.027567, "bike_id": "f44403ddd57a87a918d3b7e99fa68de8", "rental_uris": {"android": "https://dc.lft.to/lastmile_qr_scan", "ios": "https://dc.lft.to/lastmile_qr_scan"}, "name": "f44403ddd57a87a918d3b7e99fa68de8", "is_reserved": 0}, {"is_disabled": 0, "fusion_lon": 0.0, "fusion_lat": 0.0, "lat": 38.91801733333333, "type": "electric_scooter", "lon": -77.035525, "bike_id": "be3fe9ca9cb4c5af64b4e736029f0dc1", "rental_uris": {"android": "https://dc.lft.to/lastmile_qr_scan", "ios": "https://dc.lft.to/lastmile_qr_scan"}, "name": "be3fe9ca9cb4c5af64b4e736029f0dc1", "is_reserved": 0}, {"is_disabled": 0, "fusion_lon": 0.0, "fusion_lat": 0.0, "lat": 38.92796533333333, "type": "electric_scooter", "lon": -77.02295033333333, "bike_id": "752d33ce1216c884a7b1ceee57836cda", "rental_uris": {"android": "https://dc.lft.to/lastmile_qr_scan", "ios": "https://dc.lft.to/lastmile_qr_scan"}, "name": "752d33ce1216c884a7b1ceee57836cda", "is_reserved": 0}, {"is_disabled": 0, "fusion_lon": 0.0, "fusion_lat": 0.0, "lat": 38.90508716666667, "type": "electric_scooter", "lon": -77.02943483333334, "bike_id": "a833a57dee7926e5c0d88b2ac9e9f657", "rental_uris": {"android": "https://dc.lft.to/lastmile_qr_scan", "ios": "https://dc.lft.to/lastmile_qr_scan"}, "name": "a833a57dee7926e5c0d88b2ac9e9f657", "is_reserved": 0}, {"is_disabled": 0, "fusion_lon": 0.0, "fusion_lat": 0.0, "lat": 38.905190833333336, "type": "electric_scooter", "lon": -77.051532, "bike_id": "a7556ce79cfb05789f8c7655bcd3e5f1", "rental_uris": {"android": "https://dc.lft.to/lastmile_qr_scan", "ios": "https://dc.lft.to/lastmile_qr_scan"}, "name": "a7556ce79cfb05789f8c7655bcd3e5f1", "is_reserved": 0}, {"is_disabled": 0, "fusion_lon": 0.0, "fusion_lat": 0.0, "lat": 38.8997235, "type": "electric_scooter", "lon": -77.01611483333333, "bike_id": "6ca24d33d1597f125ac36d926873b974", "rental_uris": {"android": "https://dc.lft.to/lastmile_qr_scan", "ios": "https://dc.lft.to/lastmile_qr_scan"}, "name": "6ca24d33d1597f125ac36d926873b974", "is_reserved": 0}, {"is_disabled": 0, "fusion_lon": 0.0, "fusion_lat": 0.0, "lat": 38.900346666666664, "type": "electric_scooter", "lon": -77.00201616666666, "bike_id": "16e60b734b8fd0b6d6fc12500928c27f", "rental_uris": {"android": "https://dc.lft.to/lastmile_qr_scan", "ios": "https://dc.lft.to/lastmile_qr_scan"}, "name": "16e60b734b8fd0b6d6fc12500928c27f", "is_reserved": 0}, {"is_disabled": 0, "fusion_lon": 0.0, "fusion_lat": 0.0, "lat": 38.949846, "type": "electric_scooter", "lon": -77.027024, "bike_id": "f12d53fa1abc464d96403aa11e4175de", "rental_uris": {"android": "https://dc.lft.to/lastmile_qr_scan", "ios": "https://dc.lft.to/lastmile_qr_scan"}, "name": "f12d53fa1abc464d96403aa11e4175de", "is_reserved": 0}, {"is_disabled": 0, "fusion_lon": 0.0, "fusion_lat": 0.0, "lat": 38.91531666666667, "type": "electric_scooter", "lon": -77.0184585, "bike_id": "27fe032082d1e25ec2d1b0d3fc75edaf", "rental_uris": {"android": "https://dc.lft.to/lastmile_qr_scan", "ios": "https://dc.lft.to/lastmile_qr_scan"}, "name": "27fe032082d1e25ec2d1b0d3fc75edaf", "is_reserved": 0}, {"is_disabled": 0, "fusion_lon": 0.0, "fusion_lat": 0.0, "lat": 38.935453833333334, "type": "electric_scooter", "lon": -77.034191, "bike_id": "90bb326f986ce5e097b4f643e7cf52c1", "rental_uris": {"android": "https://dc.lft.to/lastmile_qr_scan", "ios": "https://dc.lft.to/lastmile_qr_scan"}, "name": "90bb326f986ce5e097b4f643e7cf52c1", "is_reserved": 0}, {"is_disabled": 0, "fusion_lon": 0.0, "fusion_lat": 0.0, "lat": 38.9119815, "type": "electric_scooter", "lon": -77.00428616666666, "bike_id": "464c3cd6a024b1974d2041828da2fb0c", "rental_uris": {"android": "https://dc.lft.to/lastmile_qr_scan", "ios": "https://dc.lft.to/lastmile_qr_scan"}, "name": "464c3cd6a024b1974d2041828da2fb0c", "is_reserved": 0}, {"is_disabled": 0, "fusion_lon": 0.0, "fusion_lat": 0.0, "lat": 38.92065066666667, "type": "electric_scooter", "lon": -77.04357216666666, "bike_id": "056f25a638d6a55e9a0d077e346764f1", "rental_uris": {"android": "https://dc.lft.to/lastmile_qr_scan", "ios": "https://dc.lft.to/lastmile_qr_scan"}, "name": "056f25a638d6a55e9a0d077e346764f1", "is_reserved": 0}, {"is_disabled": 0, "fusion_lon": 0.0, "fusion_lat": 0.0, "lat": 38.895520833333336, "type": "electric_scooter", "lon": -77.0110545, "bike_id": "a43a6c58f6e73e4ffdfa2014642d2690", "rental_uris": {"android": "https://dc.lft.to/lastmile_qr_scan", "ios": "https://dc.lft.to/lastmile_qr_scan"}, "name": "a43a6c58f6e73e4ffdfa2014642d2690", "is_reserved": 0}, {"is_disabled": 0, "fusion_lon": 0.0, "fusion_lat": 0.0, "lat": 38.919147833333334, "type": "electric_scooter", "lon": -77.03022433333334, "bike_id": "882b0c2a7710335a06a586cb343f58b2", "rental_uris": {"android": "https://dc.lft.to/lastmile_qr_scan", "ios": "https://dc.lft.to/lastmile_qr_scan"}, "name": "882b0c2a7710335a06a586cb343f58b2", "is_reserved": 0}, {"is_disabled": 0, "fusion_lon": 0.0, "fusion_lat": 0.0, "lat": 38.90516016666667, "type": "electric_scooter", "lon": -77.02974466666667, "bike_id": "74d14bb6a84d600edb43ad3ded6d7ab7", "rental_uris": {"android": "https://dc.lft.to/lastmile_qr_scan", "ios": "https://dc.lft.to/lastmile_qr_scan"}, "name": "74d14bb6a84d600edb43ad3ded6d7ab7", "is_reserved": 0}, {"is_disabled": 0, "fusion_lon": 0.0, "fusion_lat": 0.0, "lat": 38.8847285, "type": "electric_scooter", "lon": -76.95224316666666, "bike_id": "c21dcd7bbe2b52a692cb15ea4a1d434f", "rental_uris": {"android": "https://dc.lft.to/lastmile_qr_scan", "ios": "https://dc.lft.to/lastmile_qr_scan"}, "name": "c21dcd7bbe2b52a692cb15ea4a1d434f", "is_reserved": 0}, {"is_disabled": 0, "fusion_lon": 0.0, "fusion_lat": 0.0, "lat": 38.94707316666667, "type": "electric_scooter", "lon": -77.0193745, "bike_id": "45eaf2a1830b9d34d8310ab286155349", "rental_uris": {"android": "https://dc.lft.to/lastmile_qr_scan", "ios": "https://dc.lft.to/lastmile_qr_scan"}, "name": "45eaf2a1830b9d34d8310ab286155349", "is_reserved": 0}, {"is_disabled": 0, "fusion_lon": 0.0, "fusion_lat": 0.0, "lat": 38.926728, "type": "electric_scooter", "lon": -77.10310483333333, "bike_id": "c622b6e05fbf2dfc1b53f03d7b2ce2e0", "rental_uris": {"android": "https://dc.lft.to/lastmile_qr_scan", "ios": "https://dc.lft.to/lastmile_qr_scan"}, "name": "c622b6e05fbf2dfc1b53f03d7b2ce2e0", "is_reserved": 0}, {"is_disabled": 0, "fusion_lon": 0.0, "fusion_lat": 0.0, "lat": 38.906149166666665, "type": "electric_scooter", "lon": -77.057261, "bike_id": "bb514b67aaf8e3fcf6819e8a74261b8d", "rental_uris": {"android": "https://dc.lft.to/lastmile_qr_scan", "ios": "https://dc.lft.to/lastmile_qr_scan"}, "name": "bb514b67aaf8e3fcf6819e8a74261b8d", "is_reserved": 0}, {"is_disabled": 0, "fusion_lon": 0.0, "fusion_lat": 0.0, "lat": 38.91960683333333, "type": "electric_scooter", "lon": -77.02712733333334, "bike_id": "0bd80890080ea28ffff9a64b71a58b3e", "rental_uris": {"android": "https://dc.lft.to/lastmile_qr_scan", "ios": "https://dc.lft.to/lastmile_qr_scan"}, "name": "0bd80890080ea28ffff9a64b71a58b3e", "is_reserved": 0}, {"is_disabled": 0, "fusion_lon": 0.0, "fusion_lat": 0.0, "lat": 38.921761000000004, "type": "electric_scooter", "lon": -77.05529016666667, "bike_id": "ddf7849eedfe9345d2574a41f9b13274", "rental_uris": {"android": "https://dc.lft.to/lastmile_qr_scan", "ios": "https://dc.lft.to/lastmile_qr_scan"}, "name": "ddf7849eedfe9345d2574a41f9b13274", "is_reserved": 0}, {"is_disabled": 0, "fusion_lon": 0.0, "fusion_lat": 0.0, "lat": 38.9239285, "type": "electric_scooter", "lon": -77.02963283333334, "bike_id": "0f10560c1a923aed4ec0c29f6c280066", "rental_uris": {"android": "https://dc.lft.to/lastmile_qr_scan", "ios": "https://dc.lft.to/lastmile_qr_scan"}, "name": "0f10560c1a923aed4ec0c29f6c280066", "is_reserved": 0}, {"is_disabled": 0, "fusion_lon": 0.0, "fusion_lat": 0.0, "lat": 38.90065883333333, "type": "electric_scooter", "lon": -77.04918833333333, "bike_id": "527f7eedc1908d83774d525cc4dcf21d", "rental_uris": {"android": "https://dc.lft.to/lastmile_qr_scan", "ios": "https://dc.lft.to/lastmile_qr_scan"}, "name": "527f7eedc1908d83774d525cc4dcf21d", "is_reserved": 0}, {"is_disabled": 0, "fusion_lon": 0.0, "fusion_lat": 0.0, "lat": 38.92229916666667, "type": "electric_scooter", "lon": -76.97528133333333, "bike_id": "f2213a06c19beb42351ab5f178bd8398", "rental_uris": {"android": "https://dc.lft.to/lastmile_qr_scan", "ios": "https://dc.lft.to/lastmile_qr_scan"}, "name": "f2213a06c19beb42351ab5f178bd8398", "is_reserved": 0}, {"is_disabled": 0, "fusion_lon": 0.0, "fusion_lat": 0.0, "lat": 38.910839833333334, "type": "electric_scooter", "lon": -77.01510266666666, "bike_id": "deb052505d9e0bf29e26a357833efebc", "rental_uris": {"android": "https://dc.lft.to/lastmile_qr_scan", "ios": "https://dc.lft.to/lastmile_qr_scan"}, "name": "deb052505d9e0bf29e26a357833efebc", "is_reserved": 0}, {"is_disabled": 0, "fusion_lon": 0.0, "fusion_lat": 0.0, "lat": 38.92463566666667, "type": "electric_scooter", "lon": -77.02161216666667, "bike_id": "7025da4cc49cafdca8e7dbf5c73b88d6", "rental_uris": {"android": "https://dc.lft.to/lastmile_qr_scan", "ios": "https://dc.lft.to/lastmile_qr_scan"}, "name": "7025da4cc49cafdca8e7dbf5c73b88d6", "is_reserved": 0}, {"is_disabled": 0, "fusion_lon": 0.0, "fusion_lat": 0.0, "lat": 38.9122375, "type": "electric_scooter", "lon": -76.98466466666666, "bike_id": "819c91f4fce683c1d51e70f8f4242b3f", "rental_uris": {"android": "https://dc.lft.to/lastmile_qr_scan", "ios": "https://dc.lft.to/lastmile_qr_scan"}, "name": "819c91f4fce683c1d51e70f8f4242b3f", "is_reserved": 0}, {"is_disabled": 0, "fusion_lon": 0.0, "fusion_lat": 0.0, "lat": 38.964489, "type": "electric_bike", "lon": -76.97721083333333, "bike_id": "1ba732db3313fdb8bafbe27c4b91ed74", "rental_uris": {"android": "https://dc.lft.to/lastmile_qr_scan", "ios": "https://dc.lft.to/lastmile_qr_scan"}, "name": "1ba732db3313fdb8bafbe27c4b91ed74", "is_reserved": 0}, {"is_disabled": 0, "fusion_lon": 0.0, "fusion_lat": 0.0, "lat": 38.93414416666667, "type": "electric_bike", "lon": -77.02506916666667, "bike_id": "09bb58fd83c46685ea6469751be216c2", "rental_uris": {"android": "https://dc.lft.to/lastmile_qr_scan", "ios": "https://dc.lft.to/lastmile_qr_scan"}, "name": "09bb58fd83c46685ea6469751be216c2", "is_reserved": 0}, {"is_disabled": 0, "fusion_lon": 0.0, "fusion_lat": 0.0, "lat": 38.866007833333335, "type": "electric_bike", "lon": -76.974519, "bike_id": "db7f04d76f1835070c542987bcb7b50a", "rental_uris": {"android": "https://dc.lft.to/lastmile_qr_scan", "ios": "https://dc.lft.to/lastmile_qr_scan"}, "name": "db7f04d76f1835070c542987bcb7b50a", "is_reserved": 0}, {"is_disabled": 0, "fusion_lon": 0.0, "fusion_lat": 0.0, "lat": 38.85852216666667, "type": "electric_bike", "lon": -77.09750883333334, "bike_id": "20e27d5cc1c44ef73a52b3d3cda9b29e", "rental_uris": {"android": "https://dc.lft.to/lastmile_qr_scan", "ios": "https://dc.lft.to/lastmile_qr_scan"}, "name": "20e27d5cc1c44ef73a52b3d3cda9b29e", "is_reserved": 0}, {"is_disabled": 0, "fusion_lon": 0.0, "fusion_lat": 0.0, "lat": 39.029987166666665, "type": "electric_bike", "lon": -77.10651483333334, "bike_id": "22aa1f4b6907a949a477eee32ef42d66", "rental_uris": {"android": "https://dc.lft.to/lastmile_qr_scan", "ios": "https://dc.lft.to/lastmile_qr_scan"}, "name": "22aa1f4b6907a949a477eee32ef42d66", "is_reserved": 0}, {"is_disabled": 0, "fusion_lon": 0.0, "fusion_lat": 0.0, "lat": 38.842941833333335, "type": "electric_scooter", "lon": -76.999457, "bike_id": "88c4e2cddba1f9cf62c1c50ed15ac659", "rental_uris": {"android": "https://dc.lft.to/lastmile_qr_scan", "ios": "https://dc.lft.to/lastmile_qr_scan"}, "name": "88c4e2cddba1f9cf62c1c50ed15ac659", "is_reserved": 0}, {"is_disabled": 0, "fusion_lon": 0.0, "fusion_lat": 0.0, "lat": 38.88744233333333, "type": "electric_scooter", "lon": -77.01600016666667, "bike_id": "f18d4101864b52eb7a71a14ef6ae84b8", "rental_uris": {"android": "https://dc.lft.to/lastmile_qr_scan", "ios": "https://dc.lft.to/lastmile_qr_scan"}, "name": "f18d4101864b52eb7a71a14ef6ae84b8", "is_reserved": 0}, {"is_disabled": 0, "fusion_lon": 0.0, "fusion_lat": 0.0, "lat": 38.94049416666667, "type": "electric_scooter", "lon": -77.02494266666666, "bike_id": "855465ed622fa498df42145156e8609f", "rental_uris": {"android": "https://dc.lft.to/lastmile_qr_scan", "ios": "https://dc.lft.to/lastmile_qr_scan"}, "name": "855465ed622fa498df42145156e8609f", "is_reserved": 0}, {"is_disabled": 0, "fusion_lon": 0.0, "fusion_lat": 0.0, "lat": 38.899542, "type": "electric_scooter", "lon": -77.05202016666667, "bike_id": "e615de4f393035b4b252d84eff744e0f", "rental_uris": {"android": "https://dc.lft.to/lastmile_qr_scan", "ios": "https://dc.lft.to/lastmile_qr_scan"}, "name": "e615de4f393035b4b252d84eff744e0f", "is_reserved": 0}, {"is_disabled": 0, "fusion_lon": 0.0, "fusion_lat": 0.0, "lat": 38.920237166666666, "type": "electric_scooter", "lon": -77.03117783333333, "bike_id": "03c691a98b3650ef2e18fd709428e3de", "rental_uris": {"android": "https://dc.lft.to/lastmile_qr_scan", "ios": "https://dc.lft.to/lastmile_qr_scan"}, "name": "03c691a98b3650ef2e18fd709428e3de", "is_reserved": 0}, {"is_disabled": 0, "fusion_lon": 0.0, "fusion_lat": 0.0, "lat": 38.899128, "type": "electric_scooter", "lon": -76.9338815, "bike_id": "0872d8ee88823a809e871fcb4a5df71c", "rental_uris": {"android": "https://dc.lft.to/lastmile_qr_scan", "ios": "https://dc.lft.to/lastmile_qr_scan"}, "name": "0872d8ee88823a809e871fcb4a5df71c", "is_reserved": 0}, {"is_disabled": 0, "fusion_lon": 0.0, "fusion_lat": 0.0, "lat": 38.94273366666667, "type": "electric_scooter", "lon": -77.03261166666667, "bike_id": "6b217179d533b9d4ad3813157cca751b", "rental_uris": {"android": "https://dc.lft.to/lastmile_qr_scan", "ios": "https://dc.lft.to/lastmile_qr_scan"}, "name": "6b217179d533b9d4ad3813157cca751b", "is_reserved": 0}, {"is_disabled": 0, "fusion_lon": 0.0, "fusion_lat": 0.0, "lat": 38.92890216666667, "type": "electric_scooter", "lon": -77.02311133333333, "bike_id": "18165cbe455815e5835f510d3e28ab7e", "rental_uris": {"android": "https://dc.lft.to/lastmile_qr_scan", "ios": "https://dc.lft.to/lastmile_qr_scan"}, "name": "18165cbe455815e5835f510d3e28ab7e", "is_reserved": 0}, {"is_disabled": 0, "fusion_lon": 0.0, "fusion_lat": 0.0, "lat": 38.88513366666667, "type": "electric_scooter", "lon": -76.99848066666667, "bike_id": "07abf39c589718d914a2263a0695d740", "rental_uris": {"android": "https://dc.lft.to/lastmile_qr_scan", "ios": "https://dc.lft.to/lastmile_qr_scan"}, "name": "07abf39c589718d914a2263a0695d740", "is_reserved": 0}, {"is_disabled": 0, "fusion_lon": 0.0, "fusion_lat": 0.0, "lat": 38.87926983333333, "type": "electric_scooter", "lon": -77.01339233333333, "bike_id": "b2112e2a0de2fc06e29f8f6a98a989ae", "rental_uris": {"android": "https://dc.lft.to/lastmile_qr_scan", "ios": "https://dc.lft.to/lastmile_qr_scan"}, "name": "b2112e2a0de2fc06e29f8f6a98a989ae", "is_reserved": 0}, {"is_disabled": 0, "fusion_lon": 0.0, "fusion_lat": 0.0, "lat": 38.988236, "type": "electric_bike", "lon": -76.98749516666666, "bike_id": "29a2136192b9dc0dcf58e497ce6b7798", "rental_uris": {"android": "https://dc.lft.to/lastmile_qr_scan", "ios": "https://dc.lft.to/lastmile_qr_scan"}, "name": "29a2136192b9dc0dcf58e497ce6b7798", "is_reserved": 0}, {"is_disabled": 0, "fusion_lon": 0.0, "fusion_lat": 0.0, "lat": 38.909681666666664, "type": "electric_scooter", "lon": -77.02279066666667, "bike_id": "82809664e6ffde1e1263e3ea0e164a4d", "rental_uris": {"android": "https://dc.lft.to/lastmile_qr_scan", "ios": "https://dc.lft.to/lastmile_qr_scan"}, "name": "82809664e6ffde1e1263e3ea0e164a4d", "is_reserved": 0}, {"is_disabled": 0, "fusion_lon": 0.0, "fusion_lat": 0.0, "lat": 38.92032233333333, "type": "electric_scooter", "lon": -77.03877866666667, "bike_id": "f6fe3f9a3fe4c0e9d95204a6f4c9db74", "rental_uris": {"android": "https://dc.lft.to/lastmile_qr_scan", "ios": "https://dc.lft.to/lastmile_qr_scan"}, "name": "f6fe3f9a3fe4c0e9d95204a6f4c9db74", "is_reserved": 0}, {"is_disabled": 0, "fusion_lon": 0.0, "fusion_lat": 0.0, "lat": 38.90708133333333, "type": "electric_scooter", "lon": -77.026998, "bike_id": "747dde854e6c65cb8863a74e802e1d83", "rental_uris": {"android": "https://dc.lft.to/lastmile_qr_scan", "ios": "https://dc.lft.to/lastmile_qr_scan"}, "name": "747dde854e6c65cb8863a74e802e1d83", "is_reserved": 0}, {"is_disabled": 0, "fusion_lon": 0.0, "fusion_lat": 0.0, "lat": 38.931074, "type": "electric_scooter", "lon": -77.024524, "bike_id": "b68c0d49dace9f5e69ac5e809eef57c3", "rental_uris": {"android": "https://dc.lft.to/lastmile_qr_scan", "ios": "https://dc.lft.to/lastmile_qr_scan"}, "name": "b68c0d49dace9f5e69ac5e809eef57c3", "is_reserved": 0}, {"is_disabled": 0, "fusion_lon": 0.0, "fusion_lat": 0.0, "lat": 38.920335333333334, "type": "electric_scooter", "lon": -77.02584283333333, "bike_id": "98444b8e70bc9c6fd08d95c1f1dba480", "rental_uris": {"android": "https://dc.lft.to/lastmile_qr_scan", "ios": "https://dc.lft.to/lastmile_qr_scan"}, "name": "98444b8e70bc9c6fd08d95c1f1dba480", "is_reserved": 0}, {"is_disabled": 0, "fusion_lon": 0.0, "fusion_lat": 0.0, "lat": 38.919137666666664, "type": "electric_scooter", "lon": -77.0480125, "bike_id": "c7d17c028e8a608edba460f591548ebb", "rental_uris": {"android": "https://dc.lft.to/lastmile_qr_scan", "ios": "https://dc.lft.to/lastmile_qr_scan"}, "name": "c7d17c028e8a608edba460f591548ebb", "is_reserved": 0}, {"is_disabled": 0, "fusion_lon": 0.0, "fusion_lat": 0.0, "lat": 38.908707, "type": "electric_scooter", "lon": -77.03544833333333, "bike_id": "867d23a798730eee2efe2457205e3a57", "rental_uris": {"android": "https://dc.lft.to/lastmile_qr_scan", "ios": "https://dc.lft.to/lastmile_qr_scan"}, "name": "867d23a798730eee2efe2457205e3a57", "is_reserved": 0}, {"is_disabled": 0, "fusion_lon": 0.0, "fusion_lat": 0.0, "lat": 38.8762065, "type": "electric_scooter", "lon": -76.96536166666667, "bike_id": "6b28286fded63d8d058b90ff0987ec63", "rental_uris": {"android": "https://dc.lft.to/lastmile_qr_scan", "ios": "https://dc.lft.to/lastmile_qr_scan"}, "name": "6b28286fded63d8d058b90ff0987ec63", "is_reserved": 0}, {"is_disabled": 0, "fusion_lon": 0.0, "fusion_lat": 0.0, "lat": 38.852083666666665, "type": "electric_bike", "lon": -77.1012975, "bike_id": "a959e19d435988d076e3af8dbe860820", "rental_uris": {"android": "https://dc.lft.to/lastmile_qr_scan", "ios": "https://dc.lft.to/lastmile_qr_scan"}, "name": "a959e19d435988d076e3af8dbe860820", "is_reserved": 0}, {"is_disabled": 0, "fusion_lon": 0.0, "fusion_lat": 0.0, "lat": 38.920026166666666, "type": "electric_scooter", "lon": -76.98492516666667, "bike_id": "3707ebc32fb994a26e0eb1ab791d3b1b", "rental_uris": {"android": "https://dc.lft.to/lastmile_qr_scan", "ios": "https://dc.lft.to/lastmile_qr_scan"}, "name": "3707ebc32fb994a26e0eb1ab791d3b1b", "is_reserved": 0}, {"is_disabled": 0, "fusion_lon": 0.0, "fusion_lat": 0.0, "lat": 38.90519166666667, "type": "electric_scooter", "lon": -77.043673, "bike_id": "46ea5a4628dcdd73404a25a1475de82b", "rental_uris": {"android": "https://dc.lft.to/lastmile_qr_scan", "ios": "https://dc.lft.to/lastmile_qr_scan"}, "name": "46ea5a4628dcdd73404a25a1475de82b", "is_reserved": 0}, {"is_disabled": 0, "fusion_lon": 0.0, "fusion_lat": 0.0, "lat": 38.95691566666667, "type": "electric_scooter", "lon": -77.0239835, "bike_id": "ecb0d8dae2cfb4d6c1b63e83c1962629", "rental_uris": {"android": "https://dc.lft.to/lastmile_qr_scan", "ios": "https://dc.lft.to/lastmile_qr_scan"}, "name": "ecb0d8dae2cfb4d6c1b63e83c1962629", "is_reserved": 0}, {"is_disabled": 0, "fusion_lon": 0.0, "fusion_lat": 0.0, "lat": 38.91820383333334, "type": "electric_scooter", "lon": -77.03808016666666, "bike_id": "a80d0748d0b6049a14608e6f63e336ae", "rental_uris": {"android": "https://dc.lft.to/lastmile_qr_scan", "ios": "https://dc.lft.to/lastmile_qr_scan"}, "name": "a80d0748d0b6049a14608e6f63e336ae", "is_reserved": 0}, {"is_disabled": 0, "fusion_lon": 0.0, "fusion_lat": 0.0, "lat": 38.9418005, "type": "electric_scooter", "lon": -77.036536, "bike_id": "8c497b6f2a42af1ad526a4b95a48be13", "rental_uris": {"android": "https://dc.lft.to/lastmile_qr_scan", "ios": "https://dc.lft.to/lastmile_qr_scan"}, "name": "8c497b6f2a42af1ad526a4b95a48be13", "is_reserved": 0}, {"is_disabled": 0, "fusion_lon": 0.0, "fusion_lat": 0.0, "lat": 38.9076525, "type": "electric_scooter", "lon": -77.00772133333334, "bike_id": "5856bad00d309e1195674dc4bf236b33", "rental_uris": {"android": "https://dc.lft.to/lastmile_qr_scan", "ios": "https://dc.lft.to/lastmile_qr_scan"}, "name": "5856bad00d309e1195674dc4bf236b33", "is_reserved": 0}, {"is_disabled": 0, "fusion_lon": 0.0, "fusion_lat": 0.0, "lat": 38.92917816666667, "type": "electric_scooter", "lon": -77.03184333333333, "bike_id": "856e4739782a37ae12626219165d14e8", "rental_uris": {"android": "https://dc.lft.to/lastmile_qr_scan", "ios": "https://dc.lft.to/lastmile_qr_scan"}, "name": "856e4739782a37ae12626219165d14e8", "is_reserved": 0}, {"is_disabled": 0, "fusion_lon": 0.0, "fusion_lat": 0.0, "lat": 38.9564645, "type": "electric_scooter", "lon": -77.014977, "bike_id": "6ba1640a2a412657b4c3c3e30fc4d7ef", "rental_uris": {"android": "https://dc.lft.to/lastmile_qr_scan", "ios": "https://dc.lft.to/lastmile_qr_scan"}, "name": "6ba1640a2a412657b4c3c3e30fc4d7ef", "is_reserved": 0}, {"is_disabled": 0, "fusion_lon": 0.0, "fusion_lat": 0.0, "lat": 38.876767, "type": "electric_bike", "lon": -77.01454166666667, "bike_id": "1876c28d8ef3f00912e678071d030e02", "rental_uris": {"android": "https://dc.lft.to/lastmile_qr_scan", "ios": "https://dc.lft.to/lastmile_qr_scan"}, "name": "1876c28d8ef3f00912e678071d030e02", "is_reserved": 0}, {"is_disabled": 0, "fusion_lon": 0.0, "fusion_lat": 0.0, "lat": 38.928998666666665, "type": "electric_scooter", "lon": -77.0240405, "bike_id": "764d5492b93585f3891b762c3ebf4d7a", "rental_uris": {"android": "https://dc.lft.to/lastmile_qr_scan", "ios": "https://dc.lft.to/lastmile_qr_scan"}, "name": "764d5492b93585f3891b762c3ebf4d7a", "is_reserved": 0}, {"is_disabled": 0, "fusion_lon": 0.0, "fusion_lat": 0.0, "lat": 38.8966205, "type": "electric_scooter", "lon": -77.04344066666667, "bike_id": "4978937e0c1f726f1051faaf18f05bdc", "rental_uris": {"android": "https://dc.lft.to/lastmile_qr_scan", "ios": "https://dc.lft.to/lastmile_qr_scan"}, "name": "4978937e0c1f726f1051faaf18f05bdc", "is_reserved": 0}, {"is_disabled": 0, "fusion_lon": 0.0, "fusion_lat": 0.0, "lat": 38.92534233333333, "type": "electric_scooter", "lon": -77.07329116666666, "bike_id": "082cf9be80022b088c3812826830a0a4", "rental_uris": {"android": "https://dc.lft.to/lastmile_qr_scan", "ios": "https://dc.lft.to/lastmile_qr_scan"}, "name": "082cf9be80022b088c3812826830a0a4", "is_reserved": 0}, {"is_disabled": 0, "fusion_lon": 0.0, "fusion_lat": 0.0, "lat": 38.897802666666664, "type": "electric_scooter", "lon": -77.02472566666667, "bike_id": "54ced2c89aea1dfd6545c4f0dc7b6c15", "rental_uris": {"android": "https://dc.lft.to/lastmile_qr_scan", "ios": "https://dc.lft.to/lastmile_qr_scan"}, "name": "54ced2c89aea1dfd6545c4f0dc7b6c15", "is_reserved": 0}, {"is_disabled": 0, "fusion_lon": 0.0, "fusion_lat": 0.0, "lat": 38.944941, "type": "electric_bike", "lon": -76.9866305, "bike_id": "8ffb95df5914331a1982ac2da49aa6b0", "rental_uris": {"android": "https://dc.lft.to/lastmile_qr_scan", "ios": "https://dc.lft.to/lastmile_qr_scan"}, "name": "8ffb95df5914331a1982ac2da49aa6b0", "is_reserved": 0}, {"is_disabled": 0, "fusion_lon": 0.0, "fusion_lat": 0.0, "lat": 38.93061633333333, "type": "electric_scooter", "lon": -77.0280545, "bike_id": "c364abdc9546f82007752ab0628bfbd7", "rental_uris": {"android": "https://dc.lft.to/lastmile_qr_scan", "ios": "https://dc.lft.to/lastmile_qr_scan"}, "name": "c364abdc9546f82007752ab0628bfbd7", "is_reserved": 0}, {"is_disabled": 0, "fusion_lon": 0.0, "fusion_lat": 0.0, "lat": 38.935457166666666, "type": "electric_scooter", "lon": -77.0581305, "bike_id": "7b86072387d3d77e0f8dbc4bb8938ec7", "rental_uris": {"android": "https://dc.lft.to/lastmile_qr_scan", "ios": "https://dc.lft.to/lastmile_qr_scan"}, "name": "7b86072387d3d77e0f8dbc4bb8938ec7", "is_reserved": 0}, {"is_disabled": 0, "fusion_lon": 0.0, "fusion_lat": 0.0, "lat": 38.885774, "type": "electric_scooter", "lon": -76.91909066666666, "bike_id": "bf9214a9196dfe437868f5fdea9b8d25", "rental_uris": {"android": "https://dc.lft.to/lastmile_qr_scan", "ios": "https://dc.lft.to/lastmile_qr_scan"}, "name": "bf9214a9196dfe437868f5fdea9b8d25", "is_reserved": 0}, {"is_disabled": 0, "fusion_lon": 0.0, "fusion_lat": 0.0, "lat": 38.91781833333334, "type": "electric_scooter", "lon": -77.042993, "bike_id": "1e628178c732c7dbda334e2cb42bc025", "rental_uris": {"android": "https://dc.lft.to/lastmile_qr_scan", "ios": "https://dc.lft.to/lastmile_qr_scan"}, "name": "1e628178c732c7dbda334e2cb42bc025", "is_reserved": 0}, {"is_disabled": 0, "fusion_lon": 0.0, "fusion_lat": 0.0, "lat": 38.913958666666666, "type": "electric_scooter", "lon": -77.00331166666666, "bike_id": "ba0bb9d0ece3356e19f835470430656f", "rental_uris": {"android": "https://dc.lft.to/lastmile_qr_scan", "ios": "https://dc.lft.to/lastmile_qr_scan"}, "name": "ba0bb9d0ece3356e19f835470430656f", "is_reserved": 0}, {"is_disabled": 0, "fusion_lon": 0.0, "fusion_lat": 0.0, "lat": 38.908420666666665, "type": "electric_scooter", "lon": -77.026925, "bike_id": "59dd5e8a7fc9b5280c60bac2418065f3", "rental_uris": {"android": "https://dc.lft.to/lastmile_qr_scan", "ios": "https://dc.lft.to/lastmile_qr_scan"}, "name": "59dd5e8a7fc9b5280c60bac2418065f3", "is_reserved": 0}, {"is_disabled": 0, "fusion_lon": 0.0, "fusion_lat": 0.0, "lat": 38.893511333333336, "type": "electric_scooter", "lon": -76.98470733333333, "bike_id": "8b57a228a0a8b1d2299f3adbff504c92", "rental_uris": {"android": "https://dc.lft.to/lastmile_qr_scan", "ios": "https://dc.lft.to/lastmile_qr_scan"}, "name": "8b57a228a0a8b1d2299f3adbff504c92", "is_reserved": 0}, {"is_disabled": 0, "fusion_lon": 0.0, "fusion_lat": 0.0, "lat": 38.8999735, "type": "electric_scooter", "lon": -76.99262816666666, "bike_id": "2409fe70ca247d808305b88e8067d889", "rental_uris": {"android": "https://dc.lft.to/lastmile_qr_scan", "ios": "https://dc.lft.to/lastmile_qr_scan"}, "name": "2409fe70ca247d808305b88e8067d889", "is_reserved": 0}, {"is_disabled": 0, "fusion_lon": 0.0, "fusion_lat": 0.0, "lat": 38.9396345, "type": "electric_scooter", "lon": -77.02753783333333, "bike_id": "467773b0e9ec5ff2fd1e15f6dc31949d", "rental_uris": {"android": "https://dc.lft.to/lastmile_qr_scan", "ios": "https://dc.lft.to/lastmile_qr_scan"}, "name": "467773b0e9ec5ff2fd1e15f6dc31949d", "is_reserved": 0}, {"is_disabled": 0, "fusion_lon": 0.0, "fusion_lat": 0.0, "lat": 38.9013855, "type": "electric_scooter", "lon": -77.017643, "bike_id": "5eb852653bbbba1359485a92410f8cce", "rental_uris": {"android": "https://dc.lft.to/lastmile_qr_scan", "ios": "https://dc.lft.to/lastmile_qr_scan"}, "name": "5eb852653bbbba1359485a92410f8cce", "is_reserved": 0}, {"is_disabled": 0, "fusion_lon": 0.0, "fusion_lat": 0.0, "lat": 38.880215666666665, "type": "electric_scooter", "lon": -76.98237816666666, "bike_id": "301f2cba896aad59e300daa5932d1c7c", "rental_uris": {"android": "https://dc.lft.to/lastmile_qr_scan", "ios": "https://dc.lft.to/lastmile_qr_scan"}, "name": "301f2cba896aad59e300daa5932d1c7c", "is_reserved": 0}, {"is_disabled": 0, "fusion_lon": 0.0, "fusion_lat": 0.0, "lat": 38.914966666666665, "type": "electric_scooter", "lon": -77.032077, "bike_id": "671d08b580ba239f17ce21eaa34f5cd1", "rental_uris": {"android": "https://dc.lft.to/lastmile_qr_scan", "ios": "https://dc.lft.to/lastmile_qr_scan"}, "name": "671d08b580ba239f17ce21eaa34f5cd1", "is_reserved": 0}, {"is_disabled": 0, "fusion_lon": 0.0, "fusion_lat": 0.0, "lat": 38.8832845, "type": "electric_scooter", "lon": -77.01676183333333, "bike_id": "6fad3df5f79ee6e37d5b427012a094c6", "rental_uris": {"android": "https://dc.lft.to/lastmile_qr_scan", "ios": "https://dc.lft.to/lastmile_qr_scan"}, "name": "6fad3df5f79ee6e37d5b427012a094c6", "is_reserved": 0}, {"is_disabled": 0, "fusion_lon": 0.0, "fusion_lat": 0.0, "lat": 38.971661166666664, "type": "electric_bike", "lon": -76.98024833333334, "bike_id": "ff0a782759052877a7135fa2d725f715", "rental_uris": {"android": "https://dc.lft.to/lastmile_qr_scan", "ios": "https://dc.lft.to/lastmile_qr_scan"}, "name": "ff0a782759052877a7135fa2d725f715", "is_reserved": 0}, {"is_disabled": 0, "fusion_lon": 0.0, "fusion_lat": 0.0, "lat": 38.90134466666667, "type": "electric_scooter", "lon": -77.03991483333333, "bike_id": "77cb93e7956afe7981029ed3d3600e10", "rental_uris": {"android": "https://dc.lft.to/lastmile_qr_scan", "ios": "https://dc.lft.to/lastmile_qr_scan"}, "name": "77cb93e7956afe7981029ed3d3600e10", "is_reserved": 0}, {"is_disabled": 0, "fusion_lon": 0.0, "fusion_lat": 0.0, "lat": 38.940860666666666, "type": "electric_scooter", "lon": -77.03817966666666, "bike_id": "04ab41ff6928f6f67d289799f522a3d5", "rental_uris": {"android": "https://dc.lft.to/lastmile_qr_scan", "ios": "https://dc.lft.to/lastmile_qr_scan"}, "name": "04ab41ff6928f6f67d289799f522a3d5", "is_reserved": 0}, {"is_disabled": 0, "fusion_lon": 0.0, "fusion_lat": 0.0, "lat": 38.935333, "type": "electric_scooter", "lon": -77.023796, "bike_id": "c7f33a8b054d3dd0c24dec10e157146d", "rental_uris": {"android": "https://dc.lft.to/lastmile_qr_scan", "ios": "https://dc.lft.to/lastmile_qr_scan"}, "name": "c7f33a8b054d3dd0c24dec10e157146d", "is_reserved": 0}, {"is_disabled": 0, "fusion_lon": 0.0, "fusion_lat": 0.0, "lat": 38.89229733333333, "type": "electric_scooter", "lon": -77.043627, "bike_id": "329ffa1aba2c9947b0f66b13a9656080", "rental_uris": {"android": "https://dc.lft.to/lastmile_qr_scan", "ios": "https://dc.lft.to/lastmile_qr_scan"}, "name": "329ffa1aba2c9947b0f66b13a9656080", "is_reserved": 0}, {"is_disabled": 0, "fusion_lon": 0.0, "fusion_lat": 0.0, "lat": 38.89651416666667, "type": "electric_scooter", "lon": -77.04333883333334, "bike_id": "d7db83b57a4974d56198c824c83f9b99", "rental_uris": {"android": "https://dc.lft.to/lastmile_qr_scan", "ios": "https://dc.lft.to/lastmile_qr_scan"}, "name": "d7db83b57a4974d56198c824c83f9b99", "is_reserved": 0}, {"is_disabled": 0, "fusion_lon": 0.0, "fusion_lat": 0.0, "lat": 38.91198516666667, "type": "electric_scooter", "lon": -77.01209133333333, "bike_id": "e90b16c7fc98566195993a59bf5e6c2a", "rental_uris": {"android": "https://dc.lft.to/lastmile_qr_scan", "ios": "https://dc.lft.to/lastmile_qr_scan"}, "name": "e90b16c7fc98566195993a59bf5e6c2a", "is_reserved": 0}, {"is_disabled": 0, "fusion_lon": 0.0, "fusion_lat": 0.0, "lat": 38.90676633333333, "type": "electric_scooter", "lon": -77.02722483333334, "bike_id": "79fe579525ba800c2e9be0d7c74223aa", "rental_uris": {"android": "https://dc.lft.to/lastmile_qr_scan", "ios": "https://dc.lft.to/lastmile_qr_scan"}, "name": "79fe579525ba800c2e9be0d7c74223aa", "is_reserved": 0}, {"is_disabled": 0, "fusion_lon": 0.0, "fusion_lat": 0.0, "lat": 38.90621466666666, "type": "electric_scooter", "lon": -77.02801766666667, "bike_id": "25e3799d8b8629b197440cc6ccdee289", "rental_uris": {"android": "https://dc.lft.to/lastmile_qr_scan", "ios": "https://dc.lft.to/lastmile_qr_scan"}, "name": "25e3799d8b8629b197440cc6ccdee289", "is_reserved": 0}, {"is_disabled": 0, "fusion_lon": 0.0, "fusion_lat": 0.0, "lat": 38.920845, "type": "electric_bike", "lon": -77.00339416666667, "bike_id": "daed6fc67132d84bd0801d95cb9e24dc", "rental_uris": {"android": "https://dc.lft.to/lastmile_qr_scan", "ios": "https://dc.lft.to/lastmile_qr_scan"}, "name": "daed6fc67132d84bd0801d95cb9e24dc", "is_reserved": 0}, {"is_disabled": 0, "fusion_lon": 0.0, "fusion_lat": 0.0, "lat": 38.8273055, "type": "electric_bike", "lon": -77.00863316666667, "bike_id": "1db5c200c183290ed1acba088775317d", "rental_uris": {"android": "https://dc.lft.to/lastmile_qr_scan", "ios": "https://dc.lft.to/lastmile_qr_scan"}, "name": "1db5c200c183290ed1acba088775317d", "is_reserved": 0}, {"is_disabled": 0, "fusion_lon": 0.0, "fusion_lat": 0.0, "lat": 38.89366533333333, "type": "electric_scooter", "lon": -77.02265433333334, "bike_id": "ce5bca4ca223f2af3307a61ed8e7ae44", "rental_uris": {"android": "https://dc.lft.to/lastmile_qr_scan", "ios": "https://dc.lft.to/lastmile_qr_scan"}, "name": "ce5bca4ca223f2af3307a61ed8e7ae44", "is_reserved": 0}, {"is_disabled": 0, "fusion_lon": 0.0, "fusion_lat": 0.0, "lat": 38.90583433333333, "type": "electric_scooter", "lon": -77.03008233333334, "bike_id": "2d80a0029d4a0775b93fc4b975d265b2", "rental_uris": {"android": "https://dc.lft.to/lastmile_qr_scan", "ios": "https://dc.lft.to/lastmile_qr_scan"}, "name": "2d80a0029d4a0775b93fc4b975d265b2", "is_reserved": 0}, {"is_disabled": 0, "fusion_lon": 0.0, "fusion_lat": 0.0, "lat": 38.90723916666666, "type": "electric_scooter", "lon": -77.03062133333333, "bike_id": "5b7ed30004a8374a2e276d55f3a49e82", "rental_uris": {"android": "https://dc.lft.to/lastmile_qr_scan", "ios": "https://dc.lft.to/lastmile_qr_scan"}, "name": "5b7ed30004a8374a2e276d55f3a49e82", "is_reserved": 0}, {"is_disabled": 0, "fusion_lon": 0.0, "fusion_lat": 0.0, "lat": 38.8999985, "type": "electric_scooter", "lon": -76.9926285, "bike_id": "1e14eec5649dac4b998fcac3bb315db8", "rental_uris": {"android": "https://dc.lft.to/lastmile_qr_scan", "ios": "https://dc.lft.to/lastmile_qr_scan"}, "name": "1e14eec5649dac4b998fcac3bb315db8", "is_reserved": 0}, {"is_disabled": 0, "fusion_lon": 0.0, "fusion_lat": 0.0, "lat": 38.88863333333333, "type": "electric_scooter", "lon": -76.9773805, "bike_id": "3e459a33194f317767b19666b65c8345", "rental_uris": {"android": "https://dc.lft.to/lastmile_qr_scan", "ios": "https://dc.lft.to/lastmile_qr_scan"}, "name": "3e459a33194f317767b19666b65c8345", "is_reserved": 0}, {"is_disabled": 0, "fusion_lon": 0.0, "fusion_lat": 0.0, "lat": 38.93128866666667, "type": "electric_scooter", "lon": -77.05706583333334, "bike_id": "edd02b3be2266506fd9996bec428b4d3", "rental_uris": {"android": "https://dc.lft.to/lastmile_qr_scan", "ios": "https://dc.lft.to/lastmile_qr_scan"}, "name": "edd02b3be2266506fd9996bec428b4d3", "is_reserved": 0}, {"is_disabled": 0, "fusion_lon": 0.0, "fusion_lat": 0.0, "lat": 38.9013595, "type": "electric_scooter", "lon": -77.03970433333333, "bike_id": "6be23dc9aedb59b4684a04311f98bcf8", "rental_uris": {"android": "https://dc.lft.to/lastmile_qr_scan", "ios": "https://dc.lft.to/lastmile_qr_scan"}, "name": "6be23dc9aedb59b4684a04311f98bcf8", "is_reserved": 0}, {"is_disabled": 0, "fusion_lon": 0.0, "fusion_lat": 0.0, "lat": 38.8813645, "type": "electric_scooter", "lon": -77.02082433333334, "bike_id": "d0eee6376d5667f4856a64ed50529255", "rental_uris": {"android": "https://dc.lft.to/lastmile_qr_scan", "ios": "https://dc.lft.to/lastmile_qr_scan"}, "name": "d0eee6376d5667f4856a64ed50529255", "is_reserved": 0}, {"is_disabled": 0, "fusion_lon": 0.0, "fusion_lat": 0.0, "lat": 38.907297166666666, "type": "electric_scooter", "lon": -77.02247583333333, "bike_id": "269e4c7716dce1d0b1efacaa4bc573af", "rental_uris": {"android": "https://dc.lft.to/lastmile_qr_scan", "ios": "https://dc.lft.to/lastmile_qr_scan"}, "name": "269e4c7716dce1d0b1efacaa4bc573af", "is_reserved": 0}, {"is_disabled": 0, "fusion_lon": 0.0, "fusion_lat": 0.0, "lat": 38.92350833333333, "type": "electric_bike", "lon": -76.99255616666667, "bike_id": "f3766ca12ebf1778f121b8f9a8e2e9b0", "rental_uris": {"android": "https://dc.lft.to/lastmile_qr_scan", "ios": "https://dc.lft.to/lastmile_qr_scan"}, "name": "f3766ca12ebf1778f121b8f9a8e2e9b0", "is_reserved": 0}, {"is_disabled": 0, "fusion_lon": 0.0, "fusion_lat": 0.0, "lat": 38.99075333333333, "type": "electric_bike", "lon": -77.02380716666667, "bike_id": "d4a542452b2370382f2d93fc0974773d", "rental_uris": {"android": "https://dc.lft.to/lastmile_qr_scan", "ios": "https://dc.lft.to/lastmile_qr_scan"}, "name": "d4a542452b2370382f2d93fc0974773d", "is_reserved": 0}, {"is_disabled": 0, "fusion_lon": 0.0, "fusion_lat": 0.0, "lat": 38.9178805, "type": "electric_scooter", "lon": -77.04353766666667, "bike_id": "bebc0949fc80747190ea5d3198ba5d71", "rental_uris": {"android": "https://dc.lft.to/lastmile_qr_scan", "ios": "https://dc.lft.to/lastmile_qr_scan"}, "name": "bebc0949fc80747190ea5d3198ba5d71", "is_reserved": 0}, {"is_disabled": 0, "fusion_lon": 0.0, "fusion_lat": 0.0, "lat": 38.911140333333336, "type": "electric_scooter", "lon": -77.0450365, "bike_id": "6190f422ca49609adfbe06c4df8c5b1e", "rental_uris": {"android": "https://dc.lft.to/lastmile_qr_scan", "ios": "https://dc.lft.to/lastmile_qr_scan"}, "name": "6190f422ca49609adfbe06c4df8c5b1e", "is_reserved": 0}, {"is_disabled": 0, "fusion_lon": 0.0, "fusion_lat": 0.0, "lat": 38.9086, "type": "electric_scooter", "lon": -77.0634745, "bike_id": "228ad9010744427a2d7887089dc77784", "rental_uris": {"android": "https://dc.lft.to/lastmile_qr_scan", "ios": "https://dc.lft.to/lastmile_qr_scan"}, "name": "228ad9010744427a2d7887089dc77784", "is_reserved": 0}, {"is_disabled": 0, "fusion_lon": 0.0, "fusion_lat": 0.0, "lat": 38.909438333333334, "type": "electric_scooter", "lon": -77.0344525, "bike_id": "7c10b2d424b0c345789dac13fcf162d9", "rental_uris": {"android": "https://dc.lft.to/lastmile_qr_scan", "ios": "https://dc.lft.to/lastmile_qr_scan"}, "name": "7c10b2d424b0c345789dac13fcf162d9", "is_reserved": 0}, {"is_disabled": 0, "fusion_lon": 0.0, "fusion_lat": 0.0, "lat": 38.8966695, "type": "electric_scooter", "lon": -77.01170933333333, "bike_id": "e26ae514aa81b4b9b568d4c56df5195f", "rental_uris": {"android": "https://dc.lft.to/lastmile_qr_scan", "ios": "https://dc.lft.to/lastmile_qr_scan"}, "name": "e26ae514aa81b4b9b568d4c56df5195f", "is_reserved": 0}, {"is_disabled": 0, "fusion_lon": 0.0, "fusion_lat": 0.0, "lat": 38.916602166666664, "type": "electric_scooter", "lon": -77.02796, "bike_id": "e27bd614fed920b61f6cd7db427e89b3", "rental_uris": {"android": "https://dc.lft.to/lastmile_qr_scan", "ios": "https://dc.lft.to/lastmile_qr_scan"}, "name": "e27bd614fed920b61f6cd7db427e89b3", "is_reserved": 0}, {"is_disabled": 0, "fusion_lon": 0.0, "fusion_lat": 0.0, "lat": 38.84509466666667, "type": "electric_bike", "lon": -76.97214283333334, "bike_id": "b05646d409cbdb9790e95e46d0e7e37d", "rental_uris": {"android": "https://dc.lft.to/lastmile_qr_scan", "ios": "https://dc.lft.to/lastmile_qr_scan"}, "name": "b05646d409cbdb9790e95e46d0e7e37d", "is_reserved": 0}, {"is_disabled": 0, "fusion_lon": 0.0, "fusion_lat": 0.0, "lat": 38.9071315, "type": "electric_scooter", "lon": -77.02712683333333, "bike_id": "e91e2223e0b88497370f02cea52fef7d", "rental_uris": {"android": "https://dc.lft.to/lastmile_qr_scan", "ios": "https://dc.lft.to/lastmile_qr_scan"}, "name": "e91e2223e0b88497370f02cea52fef7d", "is_reserved": 0}, {"is_disabled": 0, "fusion_lon": 0.0, "fusion_lat": 0.0, "lat": 38.9362325, "type": "electric_scooter", "lon": -77.0246395, "bike_id": "210cf99807eb3b40ae1a097e4bf60e04", "rental_uris": {"android": "https://dc.lft.to/lastmile_qr_scan", "ios": "https://dc.lft.to/lastmile_qr_scan"}, "name": "210cf99807eb3b40ae1a097e4bf60e04", "is_reserved": 0}, {"is_disabled": 0, "fusion_lon": 0.0, "fusion_lat": 0.0, "lat": 38.91010333333333, "type": "electric_scooter", "lon": -77.021047, "bike_id": "1200eefb7a3330a07ebfa343edfc86cb", "rental_uris": {"android": "https://dc.lft.to/lastmile_qr_scan", "ios": "https://dc.lft.to/lastmile_qr_scan"}, "name": "1200eefb7a3330a07ebfa343edfc86cb", "is_reserved": 0}, {"is_disabled": 0, "fusion_lon": 0.0, "fusion_lat": 0.0, "lat": 38.92093716666667, "type": "electric_scooter", "lon": -77.02590033333334, "bike_id": "977ea47dc6bbb8b4862195fff0b07bed", "rental_uris": {"android": "https://dc.lft.to/lastmile_qr_scan", "ios": "https://dc.lft.to/lastmile_qr_scan"}, "name": "977ea47dc6bbb8b4862195fff0b07bed", "is_reserved": 0}, {"is_disabled": 0, "fusion_lon": 0.0, "fusion_lat": 0.0, "lat": 38.88450066666667, "type": "electric_scooter", "lon": -76.95096466666666, "bike_id": "ac0d1a21c1604c113fb1f73b542ee852", "rental_uris": {"android": "https://dc.lft.to/lastmile_qr_scan", "ios": "https://dc.lft.to/lastmile_qr_scan"}, "name": "ac0d1a21c1604c113fb1f73b542ee852", "is_reserved": 0}, {"is_disabled": 0, "fusion_lon": 0.0, "fusion_lat": 0.0, "lat": 38.89791366666667, "type": "electric_scooter", "lon": -77.04755483333334, "bike_id": "40adee0f29ab269abe2d0fe20861a835", "rental_uris": {"android": "https://dc.lft.to/lastmile_qr_scan", "ios": "https://dc.lft.to/lastmile_qr_scan"}, "name": "40adee0f29ab269abe2d0fe20861a835", "is_reserved": 0}, {"is_disabled": 0, "fusion_lon": 0.0, "fusion_lat": 0.0, "lat": 38.91029266666666, "type": "electric_scooter", "lon": -77.04250433333333, "bike_id": "c113658cd61ccac106b46741cb9632c2", "rental_uris": {"android": "https://dc.lft.to/lastmile_qr_scan", "ios": "https://dc.lft.to/lastmile_qr_scan"}, "name": "c113658cd61ccac106b46741cb9632c2", "is_reserved": 0}, {"is_disabled": 0, "fusion_lon": 0.0, "fusion_lat": 0.0, "lat": 38.92354666666667, "type": "electric_scooter", "lon": -77.03906883333333, "bike_id": "ca105b04ae83c510db6888f48f7d6f01", "rental_uris": {"android": "https://dc.lft.to/lastmile_qr_scan", "ios": "https://dc.lft.to/lastmile_qr_scan"}, "name": "ca105b04ae83c510db6888f48f7d6f01", "is_reserved": 0}, {"is_disabled": 0, "fusion_lon": 0.0, "fusion_lat": 0.0, "lat": 38.934103, "type": "electric_scooter", "lon": -77.04271966666667, "bike_id": "f9a66d2eb9e3fdcbe4d03e217b584c50", "rental_uris": {"android": "https://dc.lft.to/lastmile_qr_scan", "ios": "https://dc.lft.to/lastmile_qr_scan"}, "name": "f9a66d2eb9e3fdcbe4d03e217b584c50", "is_reserved": 0}, {"is_disabled": 0, "fusion_lon": 0.0, "fusion_lat": 0.0, "lat": 38.920482166666666, "type": "electric_scooter", "lon": -77.03440783333333, "bike_id": "929836aee8cc418055239a9fc96ca996", "rental_uris": {"android": "https://dc.lft.to/lastmile_qr_scan", "ios": "https://dc.lft.to/lastmile_qr_scan"}, "name": "929836aee8cc418055239a9fc96ca996", "is_reserved": 0}, {"is_disabled": 0, "fusion_lon": 0.0, "fusion_lat": 0.0, "lat": 38.8957935, "type": "electric_bike", "lon": -76.97614816666666, "bike_id": "5cb4185ad8f331b87e21bde237168a72", "rental_uris": {"android": "https://dc.lft.to/lastmile_qr_scan", "ios": "https://dc.lft.to/lastmile_qr_scan"}, "name": "5cb4185ad8f331b87e21bde237168a72", "is_reserved": 0}, {"is_disabled": 0, "fusion_lon": 0.0, "fusion_lat": 0.0, "lat": 38.90689733333333, "type": "electric_scooter", "lon": -77.06283883333333, "bike_id": "65b9d55174096bbd66c03e143edcf822", "rental_uris": {"android": "https://dc.lft.to/lastmile_qr_scan", "ios": "https://dc.lft.to/lastmile_qr_scan"}, "name": "65b9d55174096bbd66c03e143edcf822", "is_reserved": 0}, {"is_disabled": 0, "fusion_lon": 0.0, "fusion_lat": 0.0, "lat": 38.9382805, "type": "electric_scooter", "lon": -77.0279435, "bike_id": "51b3031276eb66b2ae12a2674274ad8c", "rental_uris": {"android": "https://dc.lft.to/lastmile_qr_scan", "ios": "https://dc.lft.to/lastmile_qr_scan"}, "name": "51b3031276eb66b2ae12a2674274ad8c", "is_reserved": 0}, {"is_disabled": 0, "fusion_lon": 0.0, "fusion_lat": 0.0, "lat": 38.929084833333334, "type": "electric_scooter", "lon": -77.02266833333333, "bike_id": "3a5c94e6460df60349c5c1dc5300002f", "rental_uris": {"android": "https://dc.lft.to/lastmile_qr_scan", "ios": "https://dc.lft.to/lastmile_qr_scan"}, "name": "3a5c94e6460df60349c5c1dc5300002f", "is_reserved": 0}, {"is_disabled": 0, "fusion_lon": 0.0, "fusion_lat": 0.0, "lat": 38.9042155, "type": "electric_scooter", "lon": -76.98547433333333, "bike_id": "6bbc24eac43035f2f70a95c022c4acd4", "rental_uris": {"android": "https://dc.lft.to/lastmile_qr_scan", "ios": "https://dc.lft.to/lastmile_qr_scan"}, "name": "6bbc24eac43035f2f70a95c022c4acd4", "is_reserved": 0}, {"is_disabled": 0, "fusion_lon": 0.0, "fusion_lat": 0.0, "lat": 38.93704683333333, "type": "electric_scooter", "lon": -77.06101333333334, "bike_id": "247f87190efda5e677d48832a2e12ddb", "rental_uris": {"android": "https://dc.lft.to/lastmile_qr_scan", "ios": "https://dc.lft.to/lastmile_qr_scan"}, "name": "247f87190efda5e677d48832a2e12ddb", "is_reserved": 0}, {"is_disabled": 0, "fusion_lon": 0.0, "fusion_lat": 0.0, "lat": 38.9185225, "type": "electric_bike", "lon": -76.96090716666667, "bike_id": "f5dd9787cf172d837f80d7e3464ca3c6", "rental_uris": {"android": "https://dc.lft.to/lastmile_qr_scan", "ios": "https://dc.lft.to/lastmile_qr_scan"}, "name": "f5dd9787cf172d837f80d7e3464ca3c6", "is_reserved": 0}, {"is_disabled": 0, "fusion_lon": 0.0, "fusion_lat": 0.0, "lat": 38.89209, "type": "electric_scooter", "lon": -76.9879815, "bike_id": "97f81bc57b53e5ada40eb449aac07148", "rental_uris": {"android": "https://dc.lft.to/lastmile_qr_scan", "ios": "https://dc.lft.to/lastmile_qr_scan"}, "name": "97f81bc57b53e5ada40eb449aac07148", "is_reserved": 0}, {"is_disabled": 0, "fusion_lon": 0.0, "fusion_lat": 0.0, "lat": 38.89822866666667, "type": "electric_scooter", "lon": -77.03150983333333, "bike_id": "0e92588835441e224d98208028eb82bc", "rental_uris": {"android": "https://dc.lft.to/lastmile_qr_scan", "ios": "https://dc.lft.to/lastmile_qr_scan"}, "name": "0e92588835441e224d98208028eb82bc", "is_reserved": 0}, {"is_disabled": 0, "fusion_lon": 0.0, "fusion_lat": 0.0, "lat": 38.9242255, "type": "electric_scooter", "lon": -77.05619483333334, "bike_id": "3c966f961b3ca8f61d4112b39a447af5", "rental_uris": {"android": "https://dc.lft.to/lastmile_qr_scan", "ios": "https://dc.lft.to/lastmile_qr_scan"}, "name": "3c966f961b3ca8f61d4112b39a447af5", "is_reserved": 0}, {"is_disabled": 0, "fusion_lon": 0.0, "fusion_lat": 0.0, "lat": 38.918543, "type": "electric_scooter", "lon": -77.029516, "bike_id": "8f6fa565d0e8033e1a50d3b214c0fe1a", "rental_uris": {"android": "https://dc.lft.to/lastmile_qr_scan", "ios": "https://dc.lft.to/lastmile_qr_scan"}, "name": "8f6fa565d0e8033e1a50d3b214c0fe1a", "is_reserved": 0}, {"is_disabled": 0, "fusion_lon": 0.0, "fusion_lat": 0.0, "lat": 38.91481683333333, "type": "electric_scooter", "lon": -77.0439155, "bike_id": "bcf134485978c98ae69a7643fe195650", "rental_uris": {"android": "https://dc.lft.to/lastmile_qr_scan", "ios": "https://dc.lft.to/lastmile_qr_scan"}, "name": "bcf134485978c98ae69a7643fe195650", "is_reserved": 0}, {"is_disabled": 0, "fusion_lon": 0.0, "fusion_lat": 0.0, "lat": 38.986649, "type": "electric_scooter", "lon": -77.02644283333333, "bike_id": "9a62ea2df672855fd8b9ead067a198c0", "rental_uris": {"android": "https://dc.lft.to/lastmile_qr_scan", "ios": "https://dc.lft.to/lastmile_qr_scan"}, "name": "9a62ea2df672855fd8b9ead067a198c0", "is_reserved": 0}, {"is_disabled": 0, "fusion_lon": 0.0, "fusion_lat": 0.0, "lat": 38.888818, "type": "electric_scooter", "lon": -77.02860416666667, "bike_id": "61e26a1c575277a4af09e50e60028c1b", "rental_uris": {"android": "https://dc.lft.to/lastmile_qr_scan", "ios": "https://dc.lft.to/lastmile_qr_scan"}, "name": "61e26a1c575277a4af09e50e60028c1b", "is_reserved": 0}, {"is_disabled": 0, "fusion_lon": 0.0, "fusion_lat": 0.0, "lat": 38.836087666666664, "type": "electric_bike", "lon": -77.0038025, "bike_id": "397fea2f145cb8ff82335e4e6dec8d58", "rental_uris": {"android": "https://dc.lft.to/lastmile_qr_scan", "ios": "https://dc.lft.to/lastmile_qr_scan"}, "name": "397fea2f145cb8ff82335e4e6dec8d58", "is_reserved": 0}, {"is_disabled": 0, "fusion_lon": 0.0, "fusion_lat": 0.0, "lat": 38.91659216666667, "type": "electric_scooter", "lon": -77.03441116666667, "bike_id": "220249e854e098cb66b38405365386ca", "rental_uris": {"android": "https://dc.lft.to/lastmile_qr_scan", "ios": "https://dc.lft.to/lastmile_qr_scan"}, "name": "220249e854e098cb66b38405365386ca", "is_reserved": 0}, {"is_disabled": 0, "fusion_lon": 0.0, "fusion_lat": 0.0, "lat": 38.905677, "type": "electric_scooter", "lon": -77.00697733333334, "bike_id": "8c2f27a38078f4201256ce8bd48ee6ae", "rental_uris": {"android": "https://dc.lft.to/lastmile_qr_scan", "ios": "https://dc.lft.to/lastmile_qr_scan"}, "name": "8c2f27a38078f4201256ce8bd48ee6ae", "is_reserved": 0}, {"is_disabled": 0, "fusion_lon": 0.0, "fusion_lat": 0.0, "lat": 38.905565833333334, "type": "electric_scooter", "lon": -77.02004716666667, "bike_id": "010e096f5bcb9d6c4d232c3569588b68", "rental_uris": {"android": "https://dc.lft.to/lastmile_qr_scan", "ios": "https://dc.lft.to/lastmile_qr_scan"}, "name": "010e096f5bcb9d6c4d232c3569588b68", "is_reserved": 0}, {"is_disabled": 0, "fusion_lon": 0.0, "fusion_lat": 0.0, "lat": 38.9128685, "type": "electric_scooter", "lon": -76.98690966666666, "bike_id": "4cc6104d74ed9dc3d9d374c9d497b54c", "rental_uris": {"android": "https://dc.lft.to/lastmile_qr_scan", "ios": "https://dc.lft.to/lastmile_qr_scan"}, "name": "4cc6104d74ed9dc3d9d374c9d497b54c", "is_reserved": 0}, {"is_disabled": 0, "fusion_lon": 0.0, "fusion_lat": 0.0, "lat": 38.90540516666667, "type": "electric_scooter", "lon": -77.0569355, "bike_id": "3828c5e0bb52051196bf406e0391ee27", "rental_uris": {"android": "https://dc.lft.to/lastmile_qr_scan", "ios": "https://dc.lft.to/lastmile_qr_scan"}, "name": "3828c5e0bb52051196bf406e0391ee27", "is_reserved": 0}, {"is_disabled": 0, "fusion_lon": 0.0, "fusion_lat": 0.0, "lat": 38.91196816666667, "type": "electric_scooter", "lon": -77.03928966666666, "bike_id": "729a38e2289c9d8dc3ab8b0d3ea9df90", "rental_uris": {"android": "https://dc.lft.to/lastmile_qr_scan", "ios": "https://dc.lft.to/lastmile_qr_scan"}, "name": "729a38e2289c9d8dc3ab8b0d3ea9df90", "is_reserved": 0}, {"is_disabled": 0, "fusion_lon": 0.0, "fusion_lat": 0.0, "lat": 38.8990775, "type": "electric_scooter", "lon": -76.93389433333333, "bike_id": "7591c2a95f8fe2d0ee823535403f579b", "rental_uris": {"android": "https://dc.lft.to/lastmile_qr_scan", "ios": "https://dc.lft.to/lastmile_qr_scan"}, "name": "7591c2a95f8fe2d0ee823535403f579b", "is_reserved": 0}, {"is_disabled": 0, "fusion_lon": 0.0, "fusion_lat": 0.0, "lat": 38.900421, "type": "electric_scooter", "lon": -76.99143866666667, "bike_id": "c21b745d4339b9252dad0747466f7fff", "rental_uris": {"android": "https://dc.lft.to/lastmile_qr_scan", "ios": "https://dc.lft.to/lastmile_qr_scan"}, "name": "c21b745d4339b9252dad0747466f7fff", "is_reserved": 0}, {"is_disabled": 0, "fusion_lon": 0.0, "fusion_lat": 0.0, "lat": 38.925122333333334, "type": "electric_scooter", "lon": -77.04087666666666, "bike_id": "c315cc8db4cb1a55eb3d660f53f4c336", "rental_uris": {"android": "https://dc.lft.to/lastmile_qr_scan", "ios": "https://dc.lft.to/lastmile_qr_scan"}, "name": "c315cc8db4cb1a55eb3d660f53f4c336", "is_reserved": 0}, {"is_disabled": 0, "fusion_lon": 0.0, "fusion_lat": 0.0, "lat": 38.930328833333334, "type": "electric_scooter", "lon": -77.01948716666666, "bike_id": "777696a8f9ab78b9f925dda2404567a8", "rental_uris": {"android": "https://dc.lft.to/lastmile_qr_scan", "ios": "https://dc.lft.to/lastmile_qr_scan"}, "name": "777696a8f9ab78b9f925dda2404567a8", "is_reserved": 0}, {"is_disabled": 0, "fusion_lon": 0.0, "fusion_lat": 0.0, "lat": 38.8952045, "type": "electric_bike", "lon": -76.94941183333333, "bike_id": "e96a2739b1e16247f9c67580f6d2cd9a", "rental_uris": {"android": "https://dc.lft.to/lastmile_qr_scan", "ios": "https://dc.lft.to/lastmile_qr_scan"}, "name": "e96a2739b1e16247f9c67580f6d2cd9a", "is_reserved": 0}, {"is_disabled": 0, "fusion_lon": 0.0, "fusion_lat": 0.0, "lat": 38.91955733333333, "type": "electric_scooter", "lon": -77.01653283333333, "bike_id": "0e0d35d9d6a1d50e9afea2c8d6bdad3a", "rental_uris": {"android": "https://dc.lft.to/lastmile_qr_scan", "ios": "https://dc.lft.to/lastmile_qr_scan"}, "name": "0e0d35d9d6a1d50e9afea2c8d6bdad3a", "is_reserved": 0}, {"is_disabled": 0, "fusion_lon": 0.0, "fusion_lat": 0.0, "lat": 38.863408666666665, "type": "electric_bike", "lon": -76.98711516666667, "bike_id": "2afd8395cd97f0d11b409ac823ea909a", "rental_uris": {"android": "https://dc.lft.to/lastmile_qr_scan", "ios": "https://dc.lft.to/lastmile_qr_scan"}, "name": "2afd8395cd97f0d11b409ac823ea909a", "is_reserved": 0}, {"is_disabled": 0, "fusion_lon": 0.0, "fusion_lat": 0.0, "lat": 38.936479166666665, "type": "electric_scooter", "lon": -77.020858, "bike_id": "c3bc65f5c25d1bb0df1cbfcc1a9b5848", "rental_uris": {"android": "https://dc.lft.to/lastmile_qr_scan", "ios": "https://dc.lft.to/lastmile_qr_scan"}, "name": "c3bc65f5c25d1bb0df1cbfcc1a9b5848", "is_reserved": 0}, {"is_disabled": 0, "fusion_lon": 0.0, "fusion_lat": 0.0, "lat": 38.88588516666667, "type": "electric_scooter", "lon": -77.03110083333333, "bike_id": "2dc585c5881eaf9d7357c7b9dd6c69e5", "rental_uris": {"android": "https://dc.lft.to/lastmile_qr_scan", "ios": "https://dc.lft.to/lastmile_qr_scan"}, "name": "2dc585c5881eaf9d7357c7b9dd6c69e5", "is_reserved": 0}, {"is_disabled": 0, "fusion_lon": 0.0, "fusion_lat": 0.0, "lat": 38.932314, "type": "electric_scooter", "lon": -77.02025816666666, "bike_id": "eaa442a0a6a2825468ceaee600e0f590", "rental_uris": {"android": "https://dc.lft.to/lastmile_qr_scan", "ios": "https://dc.lft.to/lastmile_qr_scan"}, "name": "eaa442a0a6a2825468ceaee600e0f590", "is_reserved": 0}, {"is_disabled": 0, "fusion_lon": 0.0, "fusion_lat": 0.0, "lat": 38.90068, "type": "electric_scooter", "lon": -77.05342233333333, "bike_id": "b12beddc4829285877af0dc4288af633", "rental_uris": {"android": "https://dc.lft.to/lastmile_qr_scan", "ios": "https://dc.lft.to/lastmile_qr_scan"}, "name": "b12beddc4829285877af0dc4288af633", "is_reserved": 0}, {"is_disabled": 0, "fusion_lon": 0.0, "fusion_lat": 0.0, "lat": 38.90687533333333, "type": "electric_bike", "lon": -76.95195733333334, "bike_id": "0a6d699ebe62fd34a578cac9232e613f", "rental_uris": {"android": "https://dc.lft.to/lastmile_qr_scan", "ios": "https://dc.lft.to/lastmile_qr_scan"}, "name": "0a6d699ebe62fd34a578cac9232e613f", "is_reserved": 0}, {"is_disabled": 0, "fusion_lon": 0.0, "fusion_lat": 0.0, "lat": 38.90063033333333, "type": "electric_scooter", "lon": -76.93476166666667, "bike_id": "3234af87f70dbebb869203e5c8f53dc7", "rental_uris": {"android": "https://dc.lft.to/lastmile_qr_scan", "ios": "https://dc.lft.to/lastmile_qr_scan"}, "name": "3234af87f70dbebb869203e5c8f53dc7", "is_reserved": 0}, {"is_disabled": 0, "fusion_lon": 0.0, "fusion_lat": 0.0, "lat": 38.922652666666664, "type": "electric_scooter", "lon": -77.04137533333333, "bike_id": "ca4204c58f37c81d9fe6d5d942197d8b", "rental_uris": {"android": "https://dc.lft.to/lastmile_qr_scan", "ios": "https://dc.lft.to/lastmile_qr_scan"}, "name": "ca4204c58f37c81d9fe6d5d942197d8b", "is_reserved": 0}, {"is_disabled": 0, "fusion_lon": 0.0, "fusion_lat": 0.0, "lat": 38.91954783333333, "type": "electric_scooter", "lon": -77.0007325, "bike_id": "1941a958715feb9b00ed20c874855950", "rental_uris": {"android": "https://dc.lft.to/lastmile_qr_scan", "ios": "https://dc.lft.to/lastmile_qr_scan"}, "name": "1941a958715feb9b00ed20c874855950", "is_reserved": 0}, {"is_disabled": 0, "fusion_lon": 0.0, "fusion_lat": 0.0, "lat": 38.906722, "type": "electric_scooter", "lon": -77.02713433333334, "bike_id": "b2554c71bbf0f8aa879f2981430d1a3d", "rental_uris": {"android": "https://dc.lft.to/lastmile_qr_scan", "ios": "https://dc.lft.to/lastmile_qr_scan"}, "name": "b2554c71bbf0f8aa879f2981430d1a3d", "is_reserved": 0}, {"is_disabled": 0, "fusion_lon": 0.0, "fusion_lat": 0.0, "lat": 38.880459333333334, "type": "electric_scooter", "lon": -77.00371016666666, "bike_id": "bc456513ae03368f82cac21c9c36f772", "rental_uris": {"android": "https://dc.lft.to/lastmile_qr_scan", "ios": "https://dc.lft.to/lastmile_qr_scan"}, "name": "bc456513ae03368f82cac21c9c36f772", "is_reserved": 0}, {"is_disabled": 0, "fusion_lon": 0.0, "fusion_lat": 0.0, "lat": 38.9492345, "type": "electric_scooter", "lon": -77.0229705, "bike_id": "4136fc1359ca93bd9a5f7b93863e3385", "rental_uris": {"android": "https://dc.lft.to/lastmile_qr_scan", "ios": "https://dc.lft.to/lastmile_qr_scan"}, "name": "4136fc1359ca93bd9a5f7b93863e3385", "is_reserved": 0}, {"is_disabled": 0, "fusion_lon": 0.0, "fusion_lat": 0.0, "lat": 38.930771666666665, "type": "electric_scooter", "lon": -77.05818, "bike_id": "0c06a0f707b12a9d09da36fabf792649", "rental_uris": {"android": "https://dc.lft.to/lastmile_qr_scan", "ios": "https://dc.lft.to/lastmile_qr_scan"}, "name": "0c06a0f707b12a9d09da36fabf792649", "is_reserved": 0}, {"is_disabled": 0, "fusion_lon": 0.0, "fusion_lat": 0.0, "lat": 38.90005266666667, "type": "electric_scooter", "lon": -77.03952866666667, "bike_id": "15bc111c29c69a123359c479633972c8", "rental_uris": {"android": "https://dc.lft.to/lastmile_qr_scan", "ios": "https://dc.lft.to/lastmile_qr_scan"}, "name": "15bc111c29c69a123359c479633972c8", "is_reserved": 0}, {"is_disabled": 0, "fusion_lon": 0.0, "fusion_lat": 0.0, "lat": 38.90565483333334, "type": "electric_scooter", "lon": -77.04668633333333, "bike_id": "4ac199eea4298dbfffce94292431e044", "rental_uris": {"android": "https://dc.lft.to/lastmile_qr_scan", "ios": "https://dc.lft.to/lastmile_qr_scan"}, "name": "4ac199eea4298dbfffce94292431e044", "is_reserved": 0}, {"is_disabled": 0, "fusion_lon": 0.0, "fusion_lat": 0.0, "lat": 38.917985, "type": "electric_scooter", "lon": -77.0239525, "bike_id": "8ad754f697769759e3f5afebc9b6a205", "rental_uris": {"android": "https://dc.lft.to/lastmile_qr_scan", "ios": "https://dc.lft.to/lastmile_qr_scan"}, "name": "8ad754f697769759e3f5afebc9b6a205", "is_reserved": 0}, {"is_disabled": 0, "fusion_lon": 0.0, "fusion_lat": 0.0, "lat": 38.8958865, "type": "electric_scooter", "lon": -77.02317083333334, "bike_id": "636d3ad1516c0f7aedd655635921d3af", "rental_uris": {"android": "https://dc.lft.to/lastmile_qr_scan", "ios": "https://dc.lft.to/lastmile_qr_scan"}, "name": "636d3ad1516c0f7aedd655635921d3af", "is_reserved": 0}, {"is_disabled": 0, "fusion_lon": 0.0, "fusion_lat": 0.0, "lat": 38.923648, "type": "electric_scooter", "lon": -77.04385033333334, "bike_id": "f4c0b5262108d3f83101bf75055b5687", "rental_uris": {"android": "https://dc.lft.to/lastmile_qr_scan", "ios": "https://dc.lft.to/lastmile_qr_scan"}, "name": "f4c0b5262108d3f83101bf75055b5687", "is_reserved": 0}, {"is_disabled": 0, "fusion_lon": 0.0, "fusion_lat": 0.0, "lat": 38.90313483333333, "type": "electric_scooter", "lon": -77.03659466666667, "bike_id": "fe796b6668bb730cb864ccc7c26d5e83", "rental_uris": {"android": "https://dc.lft.to/lastmile_qr_scan", "ios": "https://dc.lft.to/lastmile_qr_scan"}, "name": "fe796b6668bb730cb864ccc7c26d5e83", "is_reserved": 0}, {"is_disabled": 0, "fusion_lon": 0.0, "fusion_lat": 0.0, "lat": 38.89745533333333, "type": "electric_scooter", "lon": -77.02186283333333, "bike_id": "8ec6b8937963704935bfa80682f3fa79", "rental_uris": {"android": "https://dc.lft.to/lastmile_qr_scan", "ios": "https://dc.lft.to/lastmile_qr_scan"}, "name": "8ec6b8937963704935bfa80682f3fa79", "is_reserved": 0}, {"is_disabled": 0, "fusion_lon": 0.0, "fusion_lat": 0.0, "lat": 38.92846133333333, "type": "electric_scooter", "lon": -77.0140565, "bike_id": "f5a5da677fc7cfea34ee6d514f3fd81f", "rental_uris": {"android": "https://dc.lft.to/lastmile_qr_scan", "ios": "https://dc.lft.to/lastmile_qr_scan"}, "name": "f5a5da677fc7cfea34ee6d514f3fd81f", "is_reserved": 0}, {"is_disabled": 0, "fusion_lon": 0.0, "fusion_lat": 0.0, "lat": 38.90149783333333, "type": "electric_scooter", "lon": -77.02926516666666, "bike_id": "85c529c4dd8eae17dfc65493afe49c4b", "rental_uris": {"android": "https://dc.lft.to/lastmile_qr_scan", "ios": "https://dc.lft.to/lastmile_qr_scan"}, "name": "85c529c4dd8eae17dfc65493afe49c4b", "is_reserved": 0}, {"is_disabled": 0, "fusion_lon": 0.0, "fusion_lat": 0.0, "lat": 38.934718333333336, "type": "electric_scooter", "lon": -77.07222266666666, "bike_id": "8ac90e64d38d80d95aa0bb0d0f075369", "rental_uris": {"android": "https://dc.lft.to/lastmile_qr_scan", "ios": "https://dc.lft.to/lastmile_qr_scan"}, "name": "8ac90e64d38d80d95aa0bb0d0f075369", "is_reserved": 0}, {"is_disabled": 0, "fusion_lon": 0.0, "fusion_lat": 0.0, "lat": 38.900447, "type": "electric_scooter", "lon": -76.92271966666667, "bike_id": "4a55fd0555ce1c658a70fbb3c02350ba", "rental_uris": {"android": "https://dc.lft.to/lastmile_qr_scan", "ios": "https://dc.lft.to/lastmile_qr_scan"}, "name": "4a55fd0555ce1c658a70fbb3c02350ba", "is_reserved": 0}, {"is_disabled": 0, "fusion_lon": 0.0, "fusion_lat": 0.0, "lat": 38.92705766666667, "type": "electric_scooter", "lon": -77.02327916666667, "bike_id": "104c9cebac4a3c1a6dd8290f32ea4bd3", "rental_uris": {"android": "https://dc.lft.to/lastmile_qr_scan", "ios": "https://dc.lft.to/lastmile_qr_scan"}, "name": "104c9cebac4a3c1a6dd8290f32ea4bd3", "is_reserved": 0}, {"is_disabled": 0, "fusion_lon": 0.0, "fusion_lat": 0.0, "lat": 38.93682866666666, "type": "electric_scooter", "lon": -77.0246345, "bike_id": "7d56a41668791f67286a43fe0a938490", "rental_uris": {"android": "https://dc.lft.to/lastmile_qr_scan", "ios": "https://dc.lft.to/lastmile_qr_scan"}, "name": "7d56a41668791f67286a43fe0a938490", "is_reserved": 0}, {"is_disabled": 0, "fusion_lon": 0.0, "fusion_lat": 0.0, "lat": 38.92732133333333, "type": "electric_scooter", "lon": -77.0224865, "bike_id": "a43aa18b306cbc7e730a37db6fbe0afa", "rental_uris": {"android": "https://dc.lft.to/lastmile_qr_scan", "ios": "https://dc.lft.to/lastmile_qr_scan"}, "name": "a43aa18b306cbc7e730a37db6fbe0afa", "is_reserved": 0}, {"is_disabled": 0, "fusion_lon": 0.0, "fusion_lat": 0.0, "lat": 38.897321166666664, "type": "electric_scooter", "lon": -77.04943283333333, "bike_id": "8c1522e466214b915730c36ea1f761f5", "rental_uris": {"android": "https://dc.lft.to/lastmile_qr_scan", "ios": "https://dc.lft.to/lastmile_qr_scan"}, "name": "8c1522e466214b915730c36ea1f761f5", "is_reserved": 0}, {"is_disabled": 0, "fusion_lon": 0.0, "fusion_lat": 0.0, "lat": 38.86133266666667, "type": "electric_scooter", "lon": -76.98529583333334, "bike_id": "251b03706014389e1d63d0c057952eda", "rental_uris": {"android": "https://dc.lft.to/lastmile_qr_scan", "ios": "https://dc.lft.to/lastmile_qr_scan"}, "name": "251b03706014389e1d63d0c057952eda", "is_reserved": 0}, {"is_disabled": 0, "fusion_lon": 0.0, "fusion_lat": 0.0, "lat": 38.9118675, "type": "electric_scooter", "lon": -77.034999, "bike_id": "86f9a4ebdb5dcb8da3fb7df2b4ddcf5e", "rental_uris": {"android": "https://dc.lft.to/lastmile_qr_scan", "ios": "https://dc.lft.to/lastmile_qr_scan"}, "name": "86f9a4ebdb5dcb8da3fb7df2b4ddcf5e", "is_reserved": 0}, {"is_disabled": 0, "fusion_lon": 0.0, "fusion_lat": 0.0, "lat": 38.8904445, "type": "electric_scooter", "lon": -76.952479, "bike_id": "ba8670703d1eddf76c061967ddd98967", "rental_uris": {"android": "https://dc.lft.to/lastmile_qr_scan", "ios": "https://dc.lft.to/lastmile_qr_scan"}, "name": "ba8670703d1eddf76c061967ddd98967", "is_reserved": 0}, {"is_disabled": 0, "fusion_lon": 0.0, "fusion_lat": 0.0, "lat": 38.89369416666667, "type": "electric_scooter", "lon": -76.94998383333333, "bike_id": "2377c9e3fda819ca0b5b45e5ebfbd320", "rental_uris": {"android": "https://dc.lft.to/lastmile_qr_scan", "ios": "https://dc.lft.to/lastmile_qr_scan"}, "name": "2377c9e3fda819ca0b5b45e5ebfbd320", "is_reserved": 0}, {"is_disabled": 0, "fusion_lon": 0.0, "fusion_lat": 0.0, "lat": 38.9362115, "type": "electric_scooter", "lon": -77.059054, "bike_id": "dd0dbd7eab5bfef6d56067bd47cab9a1", "rental_uris": {"android": "https://dc.lft.to/lastmile_qr_scan", "ios": "https://dc.lft.to/lastmile_qr_scan"}, "name": "dd0dbd7eab5bfef6d56067bd47cab9a1", "is_reserved": 0}, {"is_disabled": 0, "fusion_lon": 0.0, "fusion_lat": 0.0, "lat": 38.93179533333333, "type": "electric_scooter", "lon": -77.023432, "bike_id": "c137363042c3cefb17b7d8271db8f394", "rental_uris": {"android": "https://dc.lft.to/lastmile_qr_scan", "ios": "https://dc.lft.to/lastmile_qr_scan"}, "name": "c137363042c3cefb17b7d8271db8f394", "is_reserved": 0}, {"is_disabled": 0, "fusion_lon": 0.0, "fusion_lat": 0.0, "lat": 38.896784333333336, "type": "electric_scooter", "lon": -76.99787716666667, "bike_id": "2aad51361f535a165749df22bca5f59a", "rental_uris": {"android": "https://dc.lft.to/lastmile_qr_scan", "ios": "https://dc.lft.to/lastmile_qr_scan"}, "name": "2aad51361f535a165749df22bca5f59a", "is_reserved": 0}, {"is_disabled": 0, "fusion_lon": 0.0, "fusion_lat": 0.0, "lat": 38.94893283333333, "type": "electric_bike", "lon": -76.9637205, "bike_id": "a7333653d25420c5703b9ab7e0185781", "rental_uris": {"android": "https://dc.lft.to/lastmile_qr_scan", "ios": "https://dc.lft.to/lastmile_qr_scan"}, "name": "a7333653d25420c5703b9ab7e0185781", "is_reserved": 0}, {"is_disabled": 0, "fusion_lon": 0.0, "fusion_lat": 0.0, "lat": 39.05264283333333, "type": "electric_bike", "lon": -77.04382666666666, "bike_id": "c868a85f9b8625e1f49fe9d4cbc1296d", "rental_uris": {"android": "https://dc.lft.to/lastmile_qr_scan", "ios": "https://dc.lft.to/lastmile_qr_scan"}, "name": "c868a85f9b8625e1f49fe9d4cbc1296d", "is_reserved": 0}, {"is_disabled": 0, "fusion_lon": 0.0, "fusion_lat": 0.0, "lat": 38.91633983333333, "type": "electric_scooter", "lon": -77.02286266666667, "bike_id": "04c726649f6318db724af91f5265f69e", "rental_uris": {"android": "https://dc.lft.to/lastmile_qr_scan", "ios": "https://dc.lft.to/lastmile_qr_scan"}, "name": "04c726649f6318db724af91f5265f69e", "is_reserved": 0}, {"is_disabled": 0, "fusion_lon": 0.0, "fusion_lat": 0.0, "lat": 38.91594716666667, "type": "electric_scooter", "lon": -77.07277566666667, "bike_id": "b0b2f350beede97ff9af99d4eb4e752c", "rental_uris": {"android": "https://dc.lft.to/lastmile_qr_scan", "ios": "https://dc.lft.to/lastmile_qr_scan"}, "name": "b0b2f350beede97ff9af99d4eb4e752c", "is_reserved": 0}, {"is_disabled": 0, "fusion_lon": 0.0, "fusion_lat": 0.0, "lat": 38.908538, "type": "electric_scooter", "lon": -77.03848216666667, "bike_id": "2b08f918b4d33adb77450378deb6115b", "rental_uris": {"android": "https://dc.lft.to/lastmile_qr_scan", "ios": "https://dc.lft.to/lastmile_qr_scan"}, "name": "2b08f918b4d33adb77450378deb6115b", "is_reserved": 0}, {"is_disabled": 0, "fusion_lon": 0.0, "fusion_lat": 0.0, "lat": 38.8721465, "type": "electric_bike", "lon": -77.016203, "bike_id": "05c9399961050133aeb867a3e80ec09c", "rental_uris": {"android": "https://dc.lft.to/lastmile_qr_scan", "ios": "https://dc.lft.to/lastmile_qr_scan"}, "name": "05c9399961050133aeb867a3e80ec09c", "is_reserved": 0}, {"is_disabled": 0, "fusion_lon": 0.0, "fusion_lat": 0.0, "lat": 38.935765, "type": "electric_bike", "lon": -77.03656133333334, "bike_id": "22084879976a68e82d9e156af97b94ca", "rental_uris": {"android": "https://dc.lft.to/lastmile_qr_scan", "ios": "https://dc.lft.to/lastmile_qr_scan"}, "name": "22084879976a68e82d9e156af97b94ca", "is_reserved": 0}, {"is_disabled": 0, "fusion_lon": 0.0, "fusion_lat": 0.0, "lat": 38.87851533333333, "type": "electric_bike", "lon": -77.01768233333334, "bike_id": "e511190c59ee354794b36249ca094409", "rental_uris": {"android": "https://dc.lft.to/lastmile_qr_scan", "ios": "https://dc.lft.to/lastmile_qr_scan"}, "name": "e511190c59ee354794b36249ca094409", "is_reserved": 0}, {"is_disabled": 0, "fusion_lon": 0.0, "fusion_lat": 0.0, "lat": 38.90525433333333, "type": "electric_scooter", "lon": -77.05011366666666, "bike_id": "c3488a74baffc87834e4c414c2726124", "rental_uris": {"android": "https://dc.lft.to/lastmile_qr_scan", "ios": "https://dc.lft.to/lastmile_qr_scan"}, "name": "c3488a74baffc87834e4c414c2726124", "is_reserved": 0}, {"is_disabled": 0, "fusion_lon": 0.0, "fusion_lat": 0.0, "lat": 38.93701033333333, "type": "electric_scooter", "lon": -77.05597316666666, "bike_id": "52942c33846a8fce9c56a411a206b69d", "rental_uris": {"android": "https://dc.lft.to/lastmile_qr_scan", "ios": "https://dc.lft.to/lastmile_qr_scan"}, "name": "52942c33846a8fce9c56a411a206b69d", "is_reserved": 0}, {"is_disabled": 0, "fusion_lon": 0.0, "fusion_lat": 0.0, "lat": 38.88455116666667, "type": "electric_bike", "lon": -76.91638733333333, "bike_id": "1342ee3a3aaa19f73521936d7e466d6b", "rental_uris": {"android": "https://dc.lft.to/lastmile_qr_scan", "ios": "https://dc.lft.to/lastmile_qr_scan"}, "name": "1342ee3a3aaa19f73521936d7e466d6b", "is_reserved": 0}, {"is_disabled": 0, "fusion_lon": 0.0, "fusion_lat": 0.0, "lat": 38.91707383333333, "type": "electric_scooter", "lon": -77.00116016666666, "bike_id": "425f76f1dda7a032d0e22a68a7f67fcb", "rental_uris": {"android": "https://dc.lft.to/lastmile_qr_scan", "ios": "https://dc.lft.to/lastmile_qr_scan"}, "name": "425f76f1dda7a032d0e22a68a7f67fcb", "is_reserved": 0}, {"is_disabled": 0, "fusion_lon": 0.0, "fusion_lat": 0.0, "lat": 38.897428, "type": "electric_scooter", "lon": -77.02188483333333, "bike_id": "66a93bfce06040b98a69df6d6ea0651d", "rental_uris": {"android": "https://dc.lft.to/lastmile_qr_scan", "ios": "https://dc.lft.to/lastmile_qr_scan"}, "name": "66a93bfce06040b98a69df6d6ea0651d", "is_reserved": 0}, {"is_disabled": 0, "fusion_lon": 0.0, "fusion_lat": 0.0, "lat": 38.85984933333334, "type": "electric_bike", "lon": -76.970555, "bike_id": "e09f3b8668dcb447a2eb0dbb1e87c4f1", "rental_uris": {"android": "https://dc.lft.to/lastmile_qr_scan", "ios": "https://dc.lft.to/lastmile_qr_scan"}, "name": "e09f3b8668dcb447a2eb0dbb1e87c4f1", "is_reserved": 0}, {"is_disabled": 0, "fusion_lon": 0.0, "fusion_lat": 0.0, "lat": 38.9256455, "type": "electric_scooter", "lon": -77.02276666666667, "bike_id": "e86ce4061cb834b147e670e2d17bc9e6", "rental_uris": {"android": "https://dc.lft.to/lastmile_qr_scan", "ios": "https://dc.lft.to/lastmile_qr_scan"}, "name": "e86ce4061cb834b147e670e2d17bc9e6", "is_reserved": 0}, {"is_disabled": 0, "fusion_lon": 0.0, "fusion_lat": 0.0, "lat": 38.994559, "type": "electric_bike", "lon": -76.9081565, "bike_id": "60b76804f2f9df212339c53471e39d72", "rental_uris": {"android": "https://dc.lft.to/lastmile_qr_scan", "ios": "https://dc.lft.to/lastmile_qr_scan"}, "name": "60b76804f2f9df212339c53471e39d72", "is_reserved": 0}, {"is_disabled": 0, "fusion_lon": 0.0, "fusion_lat": 0.0, "lat": 38.86891833333333, "type": "electric_scooter", "lon": -76.98316133333333, "bike_id": "a50f0d29358c42dbd215d4e705a953e8", "rental_uris": {"android": "https://dc.lft.to/lastmile_qr_scan", "ios": "https://dc.lft.to/lastmile_qr_scan"}, "name": "a50f0d29358c42dbd215d4e705a953e8", "is_reserved": 0}, {"is_disabled": 0, "fusion_lon": 0.0, "fusion_lat": 0.0, "lat": 38.917040666666665, "type": "electric_scooter", "lon": -77.04170516666667, "bike_id": "84b0f6cdf3cad5e04cbbc988afe61f5f", "rental_uris": {"android": "https://dc.lft.to/lastmile_qr_scan", "ios": "https://dc.lft.to/lastmile_qr_scan"}, "name": "84b0f6cdf3cad5e04cbbc988afe61f5f", "is_reserved": 0}, {"is_disabled": 0, "fusion_lon": 0.0, "fusion_lat": 0.0, "lat": 38.9146995, "type": "electric_scooter", "lon": -77.0280345, "bike_id": "931e26240d5c2f99131130b84aaad488", "rental_uris": {"android": "https://dc.lft.to/lastmile_qr_scan", "ios": "https://dc.lft.to/lastmile_qr_scan"}, "name": "931e26240d5c2f99131130b84aaad488", "is_reserved": 0}, {"is_disabled": 0, "fusion_lon": 0.0, "fusion_lat": 0.0, "lat": 38.905771, "type": "electric_scooter", "lon": -77.02200716666667, "bike_id": "ddb1b6a774f0495fc85a217de218f5af", "rental_uris": {"android": "https://dc.lft.to/lastmile_qr_scan", "ios": "https://dc.lft.to/lastmile_qr_scan"}, "name": "ddb1b6a774f0495fc85a217de218f5af", "is_reserved": 0}, {"is_disabled": 0, "fusion_lon": 0.0, "fusion_lat": 0.0, "lat": 38.883764166666666, "type": "electric_scooter", "lon": -76.98570483333333, "bike_id": "735abb2812bd2c999669bd27a02b8ff9", "rental_uris": {"android": "https://dc.lft.to/lastmile_qr_scan", "ios": "https://dc.lft.to/lastmile_qr_scan"}, "name": "735abb2812bd2c999669bd27a02b8ff9", "is_reserved": 0}, {"is_disabled": 0, "fusion_lon": 0.0, "fusion_lat": 0.0, "lat": 38.93252533333333, "type": "electric_scooter", "lon": -77.03282383333334, "bike_id": "008de8e4b5555e1e7c1f758a62cbee6c", "rental_uris": {"android": "https://dc.lft.to/lastmile_qr_scan", "ios": "https://dc.lft.to/lastmile_qr_scan"}, "name": "008de8e4b5555e1e7c1f758a62cbee6c", "is_reserved": 0}, {"is_disabled": 0, "fusion_lon": 0.0, "fusion_lat": 0.0, "lat": 38.895374, "type": "electric_bike", "lon": -77.04059383333333, "bike_id": "25031ba3b0b8989d8c5d0549693a5019", "rental_uris": {"android": "https://dc.lft.to/lastmile_qr_scan", "ios": "https://dc.lft.to/lastmile_qr_scan"}, "name": "25031ba3b0b8989d8c5d0549693a5019", "is_reserved": 0},