{"data": {"bikes": [{"bike_id": "35d62adc47b3ad6c2ef8d909f2aad854", "is_reserved": 0, "name": "35d62adc47b3ad6c2ef8d909f2aad854", "lat": 38.90137816666667, "fusion_lat": 0.0, "lon": -77.046199, "is_disabled": 0, "fusion_lon": 0.0, "rental_uris": {"android": "https://dc.lft.to/lastmile_qr_scan", "ios": "https://dc.lft.to/lastmile_qr_scan"}, "type": "electric_scooter"}, {"bike_id": "0beaf2c93d4360fff1802ff584c95e4c", "is_reserved": 0, "name": "0beaf2c93d4360fff1802ff584c95e4c", "lat": 38.81329366666667, "fusion_lat": 0.0, "lon": -77.05080566666666, "is_disabled": 0, "fusion_lon": 0.0, "rental_uris": {"android": "https://dc.lft.to/lastmile_qr_scan", "ios": "https://dc.lft.to/lastmile_qr_scan"}, "type": "electric_bike"}, {"bike_id": "973488557f9becc35dcede957574a8db", "is_reserved": 0, "name": "973488557f9becc35dcede957574a8db", "lat": 38.8992545, "fusion_lat": 0.0, "lon": -76.97969883333333, "is_disabled": 0, "fusion_lon": 0.0, "rental_uris": {"android": "https://dc.lft.to/lastmile_qr_scan", "ios": "https://dc.lft.to/lastmile_qr_scan"}, "type": "electric_bike"}, {"bike_id": "4e300172948a6ba2c21301ee615a7b17", "is_reserved": 0, "name": "4e300172948a6ba2c21301ee615a7b17", "lat": 38.889982833333335, "fusion_lat": 0.0, "lon": -76.95431716666667, "is_disabled": 0, "fusion_lon": 0.0, "rental_uris": {"android": "https://dc.lft.to/lastmile_qr_scan", "ios": "https://dc.lft.to/lastmile_qr_scan"}, "type": "electric_scooter"}, {"bike_id": "a2d3be46302c38874c49b3acc0bcb0ab", "is_reserved": 0, "name": "a2d3be46302c38874c49b3acc0bcb0ab", "lat": 38.89824933333333, "fusion_lat": 0.0, "lon": -77.02790866666666, "is_disabled": 0, "fusion_lon": 0.0, "rental_uris": {"android": "https://dc.lft.to/lastmile_qr_scan", "ios": "https://dc.lft.to/lastmile_qr_scan"}, "type": "electric_scooter"}, {"bike_id": "f489eba709bbf08008cbe1bffd6d9664", "is_reserved": 0, "name": "f489eba709bbf08008cbe1bffd6d9664", "lat": 38.83514916666667, "fusion_lat": 0.0, "lon": -76.98675166666666, "is_disabled": 0, "fusion_lon": 0.0, "rental_uris": {"android": "https://dc.lft.to/lastmile_qr_scan", "ios": "https://dc.lft.to/lastmile_qr_scan"}, "type": "electric_bike"}, {"bike_id": "d186f7f7842bdf508657197332cb3e2f", "is_reserved": 0, "name": "d186f7f7842bdf508657197332cb3e2f", "lat": 38.88746, "fusion_lat": 0.0, "lon": -77.0177855, "is_disabled": 0, "fusion_lon": 0.0, "rental_uris": {"android": "https://dc.lft.to/lastmile_qr_scan", "ios": "https://dc.lft.to/lastmile_qr_scan"}, "type": "electric_scooter"}, {"bike_id": "bfac4557125d60c6043cd4a5061cc8e4", "is_reserved": 0, "name": "bfac4557125d60c6043cd4a5061cc8e4", "lat": 38.90319133333333, "fusion_lat": 0.0, "lon": -77.02449716666666, "is_disabled": 0, "fusion_lon": 0.0, "rental_uris": {"android": "https://dc.lft.to/lastmile_qr_scan", "ios": "https://dc.lft.to/lastmile_qr_scan"}, "type": "electric_scooter"}, {"bike_id": "ca29f80c427db81d9abb5e355e3b6dec", "is_reserved": 0, "name": "ca29f80c427db81d9abb5e355e3b6dec", "lat": 38.9025895, "fusion_lat": 0.0, "lon": -77.01867483333334, "is_disabled": 0, "fusion_lon": 0.0, "rental_uris": {"android": "https://dc.lft.to/lastmile_qr_scan", "ios": "https://dc.lft.to/lastmile_qr_scan"}, "type": "electric_scooter"}, {"bike_id": "baf4160104e1da8fb326e4299229cedd", "is_reserved": 0, "name": "baf4160104e1da8fb326e4299229cedd", "lat": 38.942720666666666, "fusion_lat": 0.0, "lon": -77.03257133333334, "is_disabled": 0, "fusion_lon": 0.0, "rental_uris": {"android": "https://dc.lft.to/lastmile_qr_scan", "ios": "https://dc.lft.to/lastmile_qr_scan"}, "type": "electric_scooter"}, {"bike_id": "4dcd3f714e5ab22522a92f638ce949a2", "is_reserved": 0, "name": "4dcd3f714e5ab22522a92f638ce949a2", "lat": 38.90803916666667, "fusion_lat": 0.0, "lon": -77.04338883333334, "is_disabled": 0, "fusion_lon": 0.0, "rental_uris": {"android": "https://dc.lft.to/lastmile_qr_scan", "ios": "https://dc.lft.to/lastmile_qr_scan"}, "type": "electric_scooter"}, {"bike_id": "4f029dc9f4487f3cd7d92491306a4b51", "is_reserved": 0, "name": "4f029dc9f4487f3cd7d92491306a4b51", "lat": 38.89008483333333, "fusion_lat": 0.0, "lon": -76.93697416666667, "is_disabled": 0, "fusion_lon": 0.0, "rental_uris": {"android": "https://dc.lft.to/lastmile_qr_scan", "ios": "https://dc.lft.to/lastmile_qr_scan"}, "type": "electric_scooter"}, {"bike_id": "a94a4e155833efc69818be1ded9c5f80", "is_reserved": 0, "name": "a94a4e155833efc69818be1ded9c5f80", "lat": 38.8922275, "fusion_lat": 0.0, "lon": -77.04321683333333, "is_disabled": 0, "fusion_lon": 0.0, "rental_uris": {"android": "https://dc.lft.to/lastmile_qr_scan", "ios": "https://dc.lft.to/lastmile_qr_scan"}, "type": "electric_scooter"}, {"bike_id": "5f365bf315d68143babb696f048d77f9", "is_reserved": 0, "name": "5f365bf315d68143babb696f048d77f9", "lat": 38.914091, "fusion_lat": 0.0, "lon": -77.02983983333333, "is_disabled": 0, "fusion_lon": 0.0, "rental_uris": {"android": "https://dc.lft.to/lastmile_qr_scan", "ios": "https://dc.lft.to/lastmile_qr_scan"}, "type": "electric_scooter"}, {"bike_id": "79fcf8d82ad6085da7ecdbfb6b135d0a", "is_reserved": 0, "name": "79fcf8d82ad6085da7ecdbfb6b135d0a", "lat": 38.919249666666666, "fusion_lat": 0.0, "lon": -77.03260866666666, "is_disabled": 0, "fusion_lon": 0.0, "rental_uris": {"android": "https://dc.lft.to/lastmile_qr_scan", "ios": "https://dc.lft.to/lastmile_qr_scan"}, "type": "electric_scooter"}, {"bike_id": "b1d92805445ee43808e9ed60a25425bb", "is_reserved": 0, "name": "b1d92805445ee43808e9ed60a25425bb", "lat": 38.90394366666666, "fusion_lat": 0.0, "lon": -77.02977166666666, "is_disabled": 0, "fusion_lon": 0.0, "rental_uris": {"android": "https://dc.lft.to/lastmile_qr_scan", "ios": "https://dc.lft.to/lastmile_qr_scan"}, "type": "electric_scooter"}, {"bike_id": "e785c1e082a756266d58127eabc7eec7", "is_reserved": 0, "name": "e785c1e082a756266d58127eabc7eec7", "lat": 38.870255666666665, "fusion_lat": 0.0, "lon": -77.22893533333334, "is_disabled": 0, "fusion_lon": 0.0, "rental_uris": {"android": "https://dc.lft.to/lastmile_qr_scan", "ios": "https://dc.lft.to/lastmile_qr_scan"}, "type": "electric_bike"}, {"bike_id": "6386f1a1cbc1aee2682a02787bc5eee3", "is_reserved": 0, "name": "6386f1a1cbc1aee2682a02787bc5eee3", "lat": 38.9234565, "fusion_lat": 0.0, "lon": -77.03901016666667, "is_disabled": 0, "fusion_lon": 0.0, "rental_uris": {"android": "https://dc.lft.to/lastmile_qr_scan", "ios": "https://dc.lft.to/lastmile_qr_scan"}, "type": "electric_scooter"}, {"bike_id": "33afec2ee24d073c0a845ab7cb88547b", "is_reserved": 0, "name": "33afec2ee24d073c0a845ab7cb88547b", "lat": 38.902671833333336, "fusion_lat": 0.0, "lon": -77.036294, "is_disabled": 0, "fusion_lon": 0.0, "rental_uris": {"android": "https://dc.lft.to/lastmile_qr_scan", "ios": "https://dc.lft.to/lastmile_qr_scan"}, "type": "electric_scooter"}, {"bike_id": "ffa11b5816a763b78301c3cd8403cd12", "is_reserved": 0, "name": "ffa11b5816a763b78301c3cd8403cd12", "lat": 38.942711, "fusion_lat": 0.0, "lon": -77.032545, "is_disabled": 0, "fusion_lon": 0.0, "rental_uris": {"android": "https://dc.lft.to/lastmile_qr_scan", "ios": "https://dc.lft.to/lastmile_qr_scan"}, "type": "electric_scooter"}, {"bike_id": "968d749d8490d094973e035859eade50", "is_reserved": 0, "name": "968d749d8490d094973e035859eade50", "lat": 38.9171365, "fusion_lat": 0.0, "lon": -77.03337, "is_disabled": 0, "fusion_lon": 0.0, "rental_uris": {"android": "https://dc.lft.to/lastmile_qr_scan", "ios": "https://dc.lft.to/lastmile_qr_scan"}, "type": "electric_scooter"}, {"bike_id": "abdcdeb49481a426064412c459407e1b", "is_reserved": 0, "name": "abdcdeb49481a426064412c459407e1b", "lat": 38.93488333333333, "fusion_lat": 0.0, "lon": -77.07272616666667, "is_disabled": 0, "fusion_lon": 0.0, "rental_uris": {"android": "https://dc.lft.to/lastmile_qr_scan", "ios": "https://dc.lft.to/lastmile_qr_scan"}, "type": "electric_scooter"}, {"bike_id": "4f38abf77268af022288de13ca236cbf", "is_reserved": 0, "name": "4f38abf77268af022288de13ca236cbf", "lat": 38.89790583333333, "fusion_lat": 0.0, "lon": -76.9473005, "is_disabled": 0, "fusion_lon": 0.0, "rental_uris": {"android": "https://dc.lft.to/lastmile_qr_scan", "ios": "https://dc.lft.to/lastmile_qr_scan"}, "type": "electric_scooter"}, {"bike_id": "bce96e5240a5b560f7d997ae193c7527", "is_reserved": 0, "name": "bce96e5240a5b560f7d997ae193c7527", "lat": 38.9106235, "fusion_lat": 0.0, "lon": -77.04399166666667, "is_disabled": 0, "fusion_lon": 0.0, "rental_uris": {"android": "https://dc.lft.to/lastmile_qr_scan", "ios": "https://dc.lft.to/lastmile_qr_scan"}, "type": "electric_scooter"}, {"bike_id": "73f736504273f60f2cd8de65d2f8a240", "is_reserved": 0, "name": "73f736504273f60f2cd8de65d2f8a240", "lat": 38.91712783333333, "fusion_lat": 0.0, "lon": -77.0407175, "is_disabled": 0, "fusion_lon": 0.0, "rental_uris": {"android": "https://dc.lft.to/lastmile_qr_scan", "ios": "https://dc.lft.to/lastmile_qr_scan"}, "type": "electric_scooter"}, {"bike_id": "3e1f3c3359854d636c2f82b9b6d8b8ce", "is_reserved": 0, "name": "3e1f3c3359854d636c2f82b9b6d8b8ce", "lat": 38.896719833333336, "fusion_lat": 0.0, "lon": -77.01156816666666, "is_disabled": 0, "fusion_lon": 0.0, "rental_uris": {"android": "https://dc.lft.to/lastmile_qr_scan", "ios": "https://dc.lft.to/lastmile_qr_scan"}, "type": "electric_scooter"}, {"bike_id": "a4d8192350afecc7368f9faaf274b7df", "is_reserved": 0, "name": "a4d8192350afecc7368f9faaf274b7df", "lat": 38.903716333333335, "fusion_lat": 0.0, "lon": -77.03872733333333, "is_disabled": 0, "fusion_lon": 0.0, "rental_uris": {"android": "https://dc.lft.to/lastmile_qr_scan", "ios": "https://dc.lft.to/lastmile_qr_scan"}, "type": "electric_scooter"}, {"bike_id": "18bf3edaa8114eace8d1eb84b7cb32ea", "is_reserved": 0, "name": "18bf3edaa8114eace8d1eb84b7cb32ea", "lat": 38.92881783333333, "fusion_lat": 0.0, "lon": -77.0137185, "is_disabled": 0, "fusion_lon": 0.0, "rental_uris": {"android": "https://dc.lft.to/lastmile_qr_scan", "ios": "https://dc.lft.to/lastmile_qr_scan"}, "type": "electric_scooter"}, {"bike_id": "8c7adba3ed2d3bb903e5cbea02772c9b", "is_reserved": 0, "name": "8c7adba3ed2d3bb903e5cbea02772c9b", "lat": 38.901103166666665, "fusion_lat": 0.0, "lon": -76.97425316666667, "is_disabled": 0, "fusion_lon": 0.0, "rental_uris": {"android": "https://dc.lft.to/lastmile_qr_scan", "ios": "https://dc.lft.to/lastmile_qr_scan"}, "type": "electric_scooter"}, {"bike_id": "d67bd165c2d96649aec2e02d545c2d36", "is_reserved": 0, "name": "d67bd165c2d96649aec2e02d545c2d36", "lat": 38.92299783333333, "fusion_lat": 0.0, "lon": -77.02327033333333, "is_disabled": 0, "fusion_lon": 0.0, "rental_uris": {"android": "https://dc.lft.to/lastmile_qr_scan", "ios": "https://dc.lft.to/lastmile_qr_scan"}, "type": "electric_scooter"}, {"bike_id": "9bdaa52e469c31f2094178502e514fc1", "is_reserved": 0, "name": "9bdaa52e469c31f2094178502e514fc1", "lat": 38.91258466666667, "fusion_lat": 0.0, "lon": -77.03298866666667, "is_disabled": 0, "fusion_lon": 0.0, "rental_uris": {"android": "https://dc.lft.to/lastmile_qr_scan", "ios": "https://dc.lft.to/lastmile_qr_scan"}, "type": "electric_scooter"}, {"bike_id": "0378f8abe233d3ddbb7e7bad37468321", "is_reserved": 0, "name": "0378f8abe233d3ddbb7e7bad37468321", "lat": 38.908136, "fusion_lat": 0.0, "lon": -77.03449383333333, "is_disabled": 0, "fusion_lon": 0.0, "rental_uris": {"android": "https://dc.lft.to/lastmile_qr_scan", "ios": "https://dc.lft.to/lastmile_qr_scan"}, "type": "electric_scooter"}, {"bike_id": "f7dc3237da009f4e5abfdafbad1d4079", "is_reserved": 0, "name": "f7dc3237da009f4e5abfdafbad1d4079", "lat": 38.9193095, "fusion_lat": 0.0, "lon": -77.0253585, "is_disabled": 0, "fusion_lon": 0.0, "rental_uris": {"android": "https://dc.lft.to/lastmile_qr_scan", "ios": "https://dc.lft.to/lastmile_qr_scan"}, "type": "electric_scooter"}, {"bike_id": "c997c5bbb18fd23a0ba67700134bfae0", "is_reserved": 0, "name": "c997c5bbb18fd23a0ba67700134bfae0", "lat": 38.91814883333333, "fusion_lat": 0.0, "lon": -77.03252433333333, "is_disabled": 0, "fusion_lon": 0.0, "rental_uris": {"android": "https://dc.lft.to/lastmile_qr_scan", "ios": "https://dc.lft.to/lastmile_qr_scan"}, "type": "electric_scooter"}, {"bike_id": "5850597d20d75a53145e5555296c52cd", "is_reserved": 0, "name": "5850597d20d75a53145e5555296c52cd", "lat": 38.92265833333333, "fusion_lat": 0.0, "lon": -77.01875683333333, "is_disabled": 0, "fusion_lon": 0.0, "rental_uris": {"android": "https://dc.lft.to/lastmile_qr_scan", "ios": "https://dc.lft.to/lastmile_qr_scan"}, "type": "electric_scooter"}, {"bike_id": "522d418f5131a4248d6372b1c5a5b26f", "is_reserved": 0, "name": "522d418f5131a4248d6372b1c5a5b26f", "lat": 38.898028833333335, "fusion_lat": 0.0, "lon": -77.0293665, "is_disabled": 0, "fusion_lon": 0.0, "rental_uris": {"android": "https://dc.lft.to/lastmile_qr_scan", "ios": "https://dc.lft.to/lastmile_qr_scan"}, "type": "electric_scooter"}, {"bike_id": "bde5c5e046eac3b7c8498ae3e630451b", "is_reserved": 0, "name": "bde5c5e046eac3b7c8498ae3e630451b", "lat": 38.89615516666667, "fusion_lat": 0.0, "lon": -77.04424533333334, "is_disabled": 0, "fusion_lon": 0.0, "rental_uris": {"android": "https://dc.lft.to/lastmile_qr_scan", "ios": "https://dc.lft.to/lastmile_qr_scan"}, "type": "electric_scooter"}, {"bike_id": "5b10cab2862c8c5c3f1cf4cbf8a8bbf4", "is_reserved": 0, "name": "5b10cab2862c8c5c3f1cf4cbf8a8bbf4", "lat": 38.926112, "fusion_lat": 0.0, "lon": -77.0756825, "is_disabled": 0, "fusion_lon": 0.0, "rental_uris": {"android": "https://dc.lft.to/lastmile_qr_scan", "ios": "https://dc.lft.to/lastmile_qr_scan"}, "type": "electric_scooter"}, {"bike_id": "5896428f7907e1d27f840e8b911b4a77", "is_reserved": 0, "name": "5896428f7907e1d27f840e8b911b4a77", "lat": 38.89225666666667, "fusion_lat": 0.0, "lon": -77.04896, "is_disabled": 0, "fusion_lon": 0.0, "rental_uris": {"android": "https://dc.lft.to/lastmile_qr_scan", "ios": "https://dc.lft.to/lastmile_qr_scan"}, "type": "electric_scooter"}, {"bike_id": "18e5134dddd78119b066fa0f93188d84", "is_reserved": 0, "name": "18e5134dddd78119b066fa0f93188d84", "lat": 38.923386, "fusion_lat": 0.0, "lon": -77.05300416666667, "is_disabled": 0, "fusion_lon": 0.0, "rental_uris": {"android": "https://dc.lft.to/lastmile_qr_scan", "ios": "https://dc.lft.to/lastmile_qr_scan"}, "type": "electric_scooter"}, {"bike_id": "cf056bc0e13f2b241f342e55c7479796", "is_reserved": 0, "name": "cf056bc0e13f2b241f342e55c7479796", "lat": 38.892682, "fusion_lat": 0.0, "lon": -77.0465715, "is_disabled": 0, "fusion_lon": 0.0, "rental_uris": {"android": "https://dc.lft.to/lastmile_qr_scan", "ios": "https://dc.lft.to/lastmile_qr_scan"}, "type": "electric_scooter"}, {"bike_id": "8528024375ff9381d3ba184be7cb95d2", "is_reserved": 0, "name": "8528024375ff9381d3ba184be7cb95d2", "lat": 38.89599416666667, "fusion_lat": 0.0, "lon": -77.02350916666667, "is_disabled": 0, "fusion_lon": 0.0, "rental_uris": {"android": "https://dc.lft.to/lastmile_qr_scan", "ios": "https://dc.lft.to/lastmile_qr_scan"}, "type": "electric_scooter"}, {"bike_id": "b93f661fac705d97e4e767e80bcef533", "is_reserved": 0, "name": "b93f661fac705d97e4e767e80bcef533", "lat": 38.90671, "fusion_lat": 0.0, "lon": -77.02700666666667, "is_disabled": 0, "fusion_lon": 0.0, "rental_uris": {"android": "https://dc.lft.to/lastmile_qr_scan", "ios": "https://dc.lft.to/lastmile_qr_scan"}, "type": "electric_scooter"}, {"bike_id": "823b390a73e2cf38c61a3d03e50847bf", "is_reserved": 0, "name": "823b390a73e2cf38c61a3d03e50847bf", "lat": 38.901514666666664, "fusion_lat": 0.0, "lon": -77.01512466666667, "is_disabled": 0, "fusion_lon": 0.0, "rental_uris": {"android": "https://dc.lft.to/lastmile_qr_scan", "ios": "https://dc.lft.to/lastmile_qr_scan"}, "type": "electric_scooter"}, {"bike_id": "7b69b444dca570e19738e268c8071e9f", "is_reserved": 0, "name": "7b69b444dca570e19738e268c8071e9f", "lat": 38.875739, "fusion_lat": 0.0, "lon": -77.00543233333333, "is_disabled": 0, "fusion_lon": 0.0, "rental_uris": {"android": "https://dc.lft.to/lastmile_qr_scan", "ios": "https://dc.lft.to/lastmile_qr_scan"}, "type": "electric_scooter"}, {"bike_id": "b6b12b3c0ecdb79e40f763883473a258", "is_reserved": 0, "name": "b6b12b3c0ecdb79e40f763883473a258", "lat": 38.91661833333333, "fusion_lat": 0.0, "lon": -77.024665, "is_disabled": 0, "fusion_lon": 0.0, "rental_uris": {"android": "https://dc.lft.to/lastmile_qr_scan", "ios": "https://dc.lft.to/lastmile_qr_scan"}, "type": "electric_scooter"}, {"bike_id": "ae416cabe267037ea09ab9269b7c46f6", "is_reserved": 0, "name": "ae416cabe267037ea09ab9269b7c46f6", "lat": 38.874817666666665, "fusion_lat": 0.0, "lon": -77.00589883333333, "is_disabled": 0, "fusion_lon": 0.0, "rental_uris": {"android": "https://dc.lft.to/lastmile_qr_scan", "ios": "https://dc.lft.to/lastmile_qr_scan"}, "type": "electric_scooter"}, {"bike_id": "78986c247759da4158c81d84c720cf63", "is_reserved": 0, "name": "78986c247759da4158c81d84c720cf63", "lat": 38.895812666666664, "fusion_lat": 0.0, "lon": -76.98313816666666, "is_disabled": 0, "fusion_lon": 0.0, "rental_uris": {"android": "https://dc.lft.to/lastmile_qr_scan", "ios": "https://dc.lft.to/lastmile_qr_scan"}, "type": "electric_scooter"}, {"bike_id": "079cdfeeb5e4c5ee82a1a0361944f9af", "is_reserved": 0, "name": "079cdfeeb5e4c5ee82a1a0361944f9af", "lat": 38.94565016666667, "fusion_lat": 0.0, "lon": -77.07958516666666, "is_disabled": 0, "fusion_lon": 0.0, "rental_uris": {"android": "https://dc.lft.to/lastmile_qr_scan", "ios": "https://dc.lft.to/lastmile_qr_scan"}, "type": "electric_scooter"}, {"bike_id": "e191d52155fe186529aa58441ca99e42", "is_reserved": 0, "name": "e191d52155fe186529aa58441ca99e42", "lat": 38.92101, "fusion_lat": 0.0, "lon": -77.02514, "is_disabled": 0, "fusion_lon": 0.0, "rental_uris": {"android": "https://dc.lft.to/lastmile_qr_scan", "ios": "https://dc.lft.to/lastmile_qr_scan"}, "type": "electric_scooter"}, {"bike_id": "9370653d1e43c49ee5be838c06aa574a", "is_reserved": 0, "name": "9370653d1e43c49ee5be838c06aa574a", "lat": 38.92975416666667, "fusion_lat": 0.0, "lon": -77.02820233333334, "is_disabled": 0, "fusion_lon": 0.0, "rental_uris": {"android": "https://dc.lft.to/lastmile_qr_scan", "ios": "https://dc.lft.to/lastmile_qr_scan"}, "type": "electric_scooter"}, {"bike_id": "dee5d564ee70be24ea25b64313cf308e", "is_reserved": 0, "name": "dee5d564ee70be24ea25b64313cf308e", "lat": 38.903777166666664, "fusion_lat": 0.0, "lon": -77.03638, "is_disabled": 0, "fusion_lon": 0.0, "rental_uris": {"android": "https://dc.lft.to/lastmile_qr_scan", "ios": "https://dc.lft.to/lastmile_qr_scan"}, "type": "electric_bike"}, {"bike_id": "24e6bcdcc09b9c4e1c27654f4c86ba9f", "is_reserved": 0, "name": "24e6bcdcc09b9c4e1c27654f4c86ba9f", "lat": 38.918429333333336, "fusion_lat": 0.0, "lon": -77.03211916666666, "is_disabled": 0, "fusion_lon": 0.0, "rental_uris": {"android": "https://dc.lft.to/lastmile_qr_scan", "ios": "https://dc.lft.to/lastmile_qr_scan"}, "type": "electric_scooter"}, {"bike_id": "c122b93bd2451a5e3a84657700e23943", "is_reserved": 0, "name": "c122b93bd2451a5e3a84657700e23943", "lat": 38.9046275, "fusion_lat": 0.0, "lon": -77.02824166666667, "is_disabled": 0, "fusion_lon": 0.0, "rental_uris": {"android": "https://dc.lft.to/lastmile_qr_scan", "ios": "https://dc.lft.to/lastmile_qr_scan"}, "type": "electric_scooter"}, {"bike_id": "255d2c94defb4609df7981f7a0065c07", "is_reserved": 0, "name": "255d2c94defb4609df7981f7a0065c07", "lat": 38.89672433333333, "fusion_lat": 0.0, "lon": -77.0119675, "is_disabled": 0, "fusion_lon": 0.0, "rental_uris": {"android": "https://dc.lft.to/lastmile_qr_scan", "ios": "https://dc.lft.to/lastmile_qr_scan"}, "type": "electric_scooter"}, {"bike_id": "a24c3e57de90ab072df3068593a683b9", "is_reserved": 0, "name": "a24c3e57de90ab072df3068593a683b9", "lat": 38.90221016666667, "fusion_lat": 0.0, "lon": -77.022126, "is_disabled": 0, "fusion_lon": 0.0, "rental_uris": {"android": "https://dc.lft.to/lastmile_qr_scan", "ios": "https://dc.lft.to/lastmile_qr_scan"}, "type": "electric_scooter"}, {"bike_id": "5d4ffd535ec570d43d36af8dd68d7c04", "is_reserved": 0, "name": "5d4ffd535ec570d43d36af8dd68d7c04", "lat": 38.961793166666666, "fusion_lat": 0.0, "lon": -77.01437316666667, "is_disabled": 0, "fusion_lon": 0.0, "rental_uris": {"android": "https://dc.lft.to/lastmile_qr_scan", "ios": "https://dc.lft.to/lastmile_qr_scan"}, "type": "electric_scooter"}, {"bike_id": "a34bb546f7a602ea6b5de71e58064904", "is_reserved": 0, "name": "a34bb546f7a602ea6b5de71e58064904", "lat": 38.900488833333334, "fusion_lat": 0.0, "lon": -77.00073666666667, "is_disabled": 0, "fusion_lon": 0.0, "rental_uris": {"android": "https://dc.lft.to/lastmile_qr_scan", "ios": "https://dc.lft.to/lastmile_qr_scan"}, "type": "electric_scooter"}, {"bike_id": "346040b3ca82df0fc32562f9ae0a6435", "is_reserved": 0, "name": "346040b3ca82df0fc32562f9ae0a6435", "lat": 38.911207833333336, "fusion_lat": 0.0, "lon": -77.04404066666666, "is_disabled": 0, "fusion_lon": 0.0, "rental_uris": {"android": "https://dc.lft.to/lastmile_qr_scan", "ios": "https://dc.lft.to/lastmile_qr_scan"}, "type": "electric_scooter"}, {"bike_id": "3913840b9b069ab93612a6acf480a8dc", "is_reserved": 0, "name": "3913840b9b069ab93612a6acf480a8dc", "lat": 38.904579, "fusion_lat": 0.0, "lon": -77.00170083333333, "is_disabled": 0, "fusion_lon": 0.0, "rental_uris": {"android": "https://dc.lft.to/lastmile_qr_scan", "ios": "https://dc.lft.to/lastmile_qr_scan"}, "type": "electric_scooter"}, {"bike_id": "0c6afb1886cc2d16ff8e7361181d2255", "is_reserved": 0, "name": "0c6afb1886cc2d16ff8e7361181d2255", "lat": 38.922515, "fusion_lat": 0.0, "lon": -77.03523783333333, "is_disabled": 0, "fusion_lon": 0.0, "rental_uris": {"android": "https://dc.lft.to/lastmile_qr_scan", "ios": "https://dc.lft.to/lastmile_qr_scan"}, "type": "electric_scooter"}, {"bike_id": "7b14e29b56f4009f589a6e866d1c5c7c", "is_reserved": 0, "name": "7b14e29b56f4009f589a6e866d1c5c7c", "lat": 38.90813416666667, "fusion_lat": 0.0, "lon": -77.03951483333333, "is_disabled": 0, "fusion_lon": 0.0, "rental_uris": {"android": "https://dc.lft.to/lastmile_qr_scan", "ios": "https://dc.lft.to/lastmile_qr_scan"}, "type": "electric_scooter"}, {"bike_id": "6c2306b39277b840cd0c270a6ac6ae38", "is_reserved": 0, "name": "6c2306b39277b840cd0c270a6ac6ae38", "lat": 38.88539516666667, "fusion_lat": 0.0, "lon": -77.00063566666667, "is_disabled": 0, "fusion_lon": 0.0, "rental_uris": {"android": "https://dc.lft.to/lastmile_qr_scan", "ios": "https://dc.lft.to/lastmile_qr_scan"}, "type": "electric_scooter"}, {"bike_id": "992e0f3b83b909546b464a31634b947d", "is_reserved": 0, "name": "992e0f3b83b909546b464a31634b947d", "lat": 38.885386, "fusion_lat": 0.0, "lon": -77.00062783333334, "is_disabled": 0, "fusion_lon": 0.0, "rental_uris": {"android": "https://dc.lft.to/lastmile_qr_scan", "ios": "https://dc.lft.to/lastmile_qr_scan"}, "type": "electric_scooter"}, {"bike_id": "bf25435936ddb293730b41409d855652", "is_reserved": 0, "name": "bf25435936ddb293730b41409d855652", "lat": 38.91701483333333, "fusion_lat": 0.0, "lon": -77.02345566666666, "is_disabled": 0, "fusion_lon": 0.0, "rental_uris": {"android": "https://dc.lft.to/lastmile_qr_scan", "ios": "https://dc.lft.to/lastmile_qr_scan"}, "type": "electric_scooter"}, {"bike_id": "0ea35f0bc90ab267f9de7d6f040c3a2b", "is_reserved": 0, "name": "0ea35f0bc90ab267f9de7d6f040c3a2b", "lat": 38.90459083333333, "fusion_lat": 0.0, "lon": -77.0628465, "is_disabled": 0, "fusion_lon": 0.0, "rental_uris": {"android": "https://dc.lft.to/lastmile_qr_scan", "ios": "https://dc.lft.to/lastmile_qr_scan"}, "type": "electric_scooter"}, {"bike_id": "d37990e1bd66eb52952a629e28b703e9", "is_reserved": 0, "name": "d37990e1bd66eb52952a629e28b703e9", "lat": 38.88727816666667, "fusion_lat": 0.0, "lon": -77.0176775, "is_disabled": 0, "fusion_lon": 0.0, "rental_uris": {"android": "https://dc.lft.to/lastmile_qr_scan", "ios": "https://dc.lft.to/lastmile_qr_scan"}, "type": "electric_scooter"}, {"bike_id": "59cfaa64b727e75e74777eec74510776", "is_reserved": 0, "name": "59cfaa64b727e75e74777eec74510776", "lat": 38.892234, "fusion_lat": 0.0, "lon": -77.026291, "is_disabled": 0, "fusion_lon": 0.0, "rental_uris": {"android": "https://dc.lft.to/lastmile_qr_scan", "ios": "https://dc.lft.to/lastmile_qr_scan"}, "type": "electric_scooter"}, {"bike_id": "b1b524b6dbd3f6651f2d356a0d661255", "is_reserved": 0, "name": "b1b524b6dbd3f6651f2d356a0d661255", "lat": 38.90391483333333, "fusion_lat": 0.0, "lon": -77.0680215, "is_disabled": 0, "fusion_lon": 0.0, "rental_uris": {"android": "https://dc.lft.to/lastmile_qr_scan", "ios": "https://dc.lft.to/lastmile_qr_scan"}, "type": "electric_scooter"}, {"bike_id": "8df92ced22a1698d3dfd0ace2d3f63ac", "is_reserved": 0, "name": "8df92ced22a1698d3dfd0ace2d3f63ac", "lat": 38.90036, "fusion_lat": 0.0, "lon": -76.9805565, "is_disabled": 0, "fusion_lon": 0.0, "rental_uris": {"android": "https://dc.lft.to/lastmile_qr_scan", "ios": "https://dc.lft.to/lastmile_qr_scan"}, "type": "electric_bike"}, {"bike_id": "1d8c2a1fd4af55238119b28a85453883", "is_reserved": 0, "name": "1d8c2a1fd4af55238119b28a85453883", "lat": 38.907771, "fusion_lat": 0.0, "lon": -77.071625, "is_disabled": 0, "fusion_lon": 0.0, "rental_uris": {"android": "https://dc.lft.to/lastmile_qr_scan", "ios": "https://dc.lft.to/lastmile_qr_scan"}, "type": "electric_scooter"}, {"bike_id": "9274cfbd02986316683dafde0e8682ea", "is_reserved": 0, "name": "9274cfbd02986316683dafde0e8682ea", "lat": 38.89801, "fusion_lat": 0.0, "lon": -76.98455816666667, "is_disabled": 0, "fusion_lon": 0.0, "rental_uris": {"android": "https://dc.lft.to/lastmile_qr_scan", "ios": "https://dc.lft.to/lastmile_qr_scan"}, "type": "electric_scooter"}, {"bike_id": "cd9ad1b051bacb6bac56e857858dfef1", "is_reserved": 0, "name": "cd9ad1b051bacb6bac56e857858dfef1", "lat": 38.90916983333334, "fusion_lat": 0.0, "lon": -77.04203816666667, "is_disabled": 0, "fusion_lon": 0.0, "rental_uris": {"android": "https://dc.lft.to/lastmile_qr_scan", "ios": "https://dc.lft.to/lastmile_qr_scan"}, "type": "electric_scooter"}, {"bike_id": "da5241be1f08bfc554ac3d461e2a2393", "is_reserved": 0, "name": "da5241be1f08bfc554ac3d461e2a2393", "lat": 38.857365333333334, "fusion_lat": 0.0, "lon": -77.0981135, "is_disabled": 0, "fusion_lon": 0.0, "rental_uris": {"android": "https://dc.lft.to/lastmile_qr_scan", "ios": "https://dc.lft.to/lastmile_qr_scan"}, "type": "electric_bike"}, {"bike_id": "11020c9a4d01418cdca6355cfceeee8e", "is_reserved": 0, "name": "11020c9a4d01418cdca6355cfceeee8e", "lat": 38.866674, "fusion_lat": 0.0, "lon": -76.98903733333333, "is_disabled": 0, "fusion_lon": 0.0, "rental_uris": {"android": "https://dc.lft.to/lastmile_qr_scan", "ios": "https://dc.lft.to/lastmile_qr_scan"}, "type": "electric_scooter"}, {"bike_id": "8044d7155a9b13c3e42b8bd2863d364c", "is_reserved": 0, "name": "8044d7155a9b13c3e42b8bd2863d364c", "lat": 38.892863, "fusion_lat": 0.0, "lon": -77.01232416666667, "is_disabled": 0, "fusion_lon": 0.0, "rental_uris": {"android": "https://dc.lft.to/lastmile_qr_scan", "ios": "https://dc.lft.to/lastmile_qr_scan"}, "type": "electric_scooter"}, {"bike_id": "1fe9c5ca7d7ca70a3369d4a4bae42ef4", "is_reserved": 0, "name": "1fe9c5ca7d7ca70a3369d4a4bae42ef4", "lat": 38.89994816666667, "fusion_lat": 0.0, "lon": -77.0225275, "is_disabled": 0, "fusion_lon": 0.0, "rental_uris": {"android": "https://dc.lft.to/lastmile_qr_scan", "ios": "https://dc.lft.to/lastmile_qr_scan"}, "type": "electric_scooter"}, {"bike_id": "dba296d40822fc40e6792319cc281efa", "is_reserved": 0, "name": "dba296d40822fc40e6792319cc281efa", "lat": 38.92147333333333, "fusion_lat": 0.0, "lon": -77.03866733333334, "is_disabled": 0, "fusion_lon": 0.0, "rental_uris": {"android": "https://dc.lft.to/lastmile_qr_scan", "ios": "https://dc.lft.to/lastmile_qr_scan"}, "type": "electric_scooter"}, {"bike_id": "88b2f7c2e1cadde77a7be462dd22f3e7", "is_reserved": 0, "name": "88b2f7c2e1cadde77a7be462dd22f3e7", "lat": 38.924119, "fusion_lat": 0.0, "lon": -77.0354405, "is_disabled": 0, "fusion_lon": 0.0, "rental_uris": {"android": "https://dc.lft.to/lastmile_qr_scan", "ios": "https://dc.lft.to/lastmile_qr_scan"}, "type": "electric_scooter"}, {"bike_id": "e1aa60baaeaa649eb820562764328808", "is_reserved": 0, "name": "e1aa60baaeaa649eb820562764328808", "lat": 38.934296833333335, "fusion_lat": 0.0, "lon": -77.04003783333333, "is_disabled": 0, "fusion_lon": 0.0, "rental_uris": {"android": "https://dc.lft.to/lastmile_qr_scan", "ios": "https://dc.lft.to/lastmile_qr_scan"}, "type": "electric_scooter"}, {"bike_id": "744f8884593aad6b9017b826795fb80d", "is_reserved": 0, "name": "744f8884593aad6b9017b826795fb80d", "lat": 38.91678683333333, "fusion_lat": 0.0, "lon": -77.038435, "is_disabled": 0, "fusion_lon": 0.0, "rental_uris": {"android": "https://dc.lft.to/lastmile_qr_scan", "ios": "https://dc.lft.to/lastmile_qr_scan"}, "type": "electric_scooter"}, {"bike_id": "f77886d2ab6aed407bbc393287ed16e4", "is_reserved": 0, "name": "f77886d2ab6aed407bbc393287ed16e4", "lat": 38.904108, "fusion_lat": 0.0, "lon": -77.025844, "is_disabled": 0, "fusion_lon": 0.0, "rental_uris": {"android": "https://dc.lft.to/lastmile_qr_scan", "ios": "https://dc.lft.to/lastmile_qr_scan"}, "type": "electric_scooter"}, {"bike_id": "1168c99e134bd390423c5f127fe6343e", "is_reserved": 0, "name": "1168c99e134bd390423c5f127fe6343e", "lat": 38.89837983333334, "fusion_lat": 0.0, "lon": -77.03034466666666, "is_disabled": 0, "fusion_lon": 0.0, "rental_uris": {"android": "https://dc.lft.to/lastmile_qr_scan", "ios": "https://dc.lft.to/lastmile_qr_scan"}, "type": "electric_scooter"}, {"bike_id": "70a7f4db060022b97380b176a9fa0ffb", "is_reserved": 0, "name": "70a7f4db060022b97380b176a9fa0ffb", "lat": 38.871641, "fusion_lat": 0.0, "lon": -77.0056855, "is_disabled": 0, "fusion_lon": 0.0, "rental_uris": {"android": "https://dc.lft.to/lastmile_qr_scan", "ios": "https://dc.lft.to/lastmile_qr_scan"}, "type": "electric_scooter"}, {"bike_id": "6d82f94c6f578580abc08e422d0427d7", "is_reserved": 0, "name": "6d82f94c6f578580abc08e422d0427d7", "lat": 38.89967866666667, "fusion_lat": 0.0, "lon": -76.99478833333333, "is_disabled": 0, "fusion_lon": 0.0, "rental_uris": {"android": "https://dc.lft.to/lastmile_qr_scan", "ios": "https://dc.lft.to/lastmile_qr_scan"}, "type": "electric_scooter"}, {"bike_id": "945b9718df222300c063897454f46b95", "is_reserved": 0, "name": "945b9718df222300c063897454f46b95", "lat": 38.9179445, "fusion_lat": 0.0, "lon": -77.03449166666667, "is_disabled": 0, "fusion_lon": 0.0, "rental_uris": {"android": "https://dc.lft.to/lastmile_qr_scan", "ios": "https://dc.lft.to/lastmile_qr_scan"}, "type": "electric_scooter"}, {"bike_id": "c844c8f726f94cff4f7dade03b17002f", "is_reserved": 0, "name": "c844c8f726f94cff4f7dade03b17002f", "lat": 38.9077575, "fusion_lat": 0.0, "lon": -76.997146, "is_disabled": 0, "fusion_lon": 0.0, "rental_uris": {"android": "https://dc.lft.to/lastmile_qr_scan", "ios": "https://dc.lft.to/lastmile_qr_scan"}, "type": "electric_scooter"}, {"bike_id": "50f1b8b322bfae3858e9996e229fc03e", "is_reserved": 0, "name": "50f1b8b322bfae3858e9996e229fc03e", "lat": 38.91405833333334, "fusion_lat": 0.0, "lon": -77.03164566666666, "is_disabled": 0, "fusion_lon": 0.0, "rental_uris": {"android": "https://dc.lft.to/lastmile_qr_scan", "ios": "https://dc.lft.to/lastmile_qr_scan"}, "type": "electric_scooter"}, {"bike_id": "41b3ee325b0535a66cddc14fbce9d76e", "is_reserved": 0, "name": "41b3ee325b0535a66cddc14fbce9d76e", "lat": 38.941148, "fusion_lat": 0.0, "lon": -77.00038533333333, "is_disabled": 0, "fusion_lon": 0.0, "rental_uris": {"android": "https://dc.lft.to/lastmile_qr_scan", "ios": "https://dc.lft.to/lastmile_qr_scan"}, "type": "electric_scooter"}, {"bike_id": "c6756d904678cc95790ba779d43c1eac", "is_reserved": 0, "name": "c6756d904678cc95790ba779d43c1eac", "lat": 38.9225835, "fusion_lat": 0.0, "lon": -77.04287683333334, "is_disabled": 0, "fusion_lon": 0.0, "rental_uris": {"android": "https://dc.lft.to/lastmile_qr_scan", "ios": "https://dc.lft.to/lastmile_qr_scan"}, "type": "electric_scooter"}, {"bike_id": "6357803126ba8e74249d05c56c3e1a42", "is_reserved": 0, "name": "6357803126ba8e74249d05c56c3e1a42", "lat": 38.90088433333333, "fusion_lat": 0.0, "lon": -77.04761333333333, "is_disabled": 0, "fusion_lon": 0.0, "rental_uris": {"android": "https://dc.lft.to/lastmile_qr_scan", "ios": "https://dc.lft.to/lastmile_qr_scan"}, "type": "electric_scooter"}, {"bike_id": "51ab49cd78b5d958630b7e6d3e4192a0", "is_reserved": 0, "name": "51ab49cd78b5d958630b7e6d3e4192a0", "lat": 38.944939166666664, "fusion_lat": 0.0, "lon": -77.00681666666667, "is_disabled": 0, "fusion_lon": 0.0, "rental_uris": {"android": "https://dc.lft.to/lastmile_qr_scan", "ios": "https://dc.lft.to/lastmile_qr_scan"}, "type": "electric_bike"}, {"bike_id": "4645cc269712a9e01163151b6602f627", "is_reserved": 0, "name": "4645cc269712a9e01163151b6602f627", "lat": 38.862535666666666, "fusion_lat": 0.0, "lon": -76.9949495, "is_disabled": 0, "fusion_lon": 0.0, "rental_uris": {"android": "https://dc.lft.to/lastmile_qr_scan", "ios": "https://dc.lft.to/lastmile_qr_scan"}, "type": "electric_scooter"}, {"bike_id": "3bb9fbfaebe6680cef74d16e0c60f01d", "is_reserved": 0, "name": "3bb9fbfaebe6680cef74d16e0c60f01d", "lat": 38.93772116666667, "fusion_lat": 0.0, "lon": -77.019097, "is_disabled": 0, "fusion_lon": 0.0, "rental_uris": {"android": "https://dc.lft.to/lastmile_qr_scan", "ios": "https://dc.lft.to/lastmile_qr_scan"}, "type": "electric_bike"}, {"bike_id": "f14da0bc36e7dad1588f2c8f33668368", "is_reserved": 0, "name": "f14da0bc36e7dad1588f2c8f33668368", "lat": 38.937558, "fusion_lat": 0.0, "lon": -76.95821533333333, "is_disabled": 0, "fusion_lon": 0.0, "rental_uris": {"android": "https://dc.lft.to/lastmile_qr_scan", "ios": "https://dc.lft.to/lastmile_qr_scan"}, "type": "electric_bike"}, {"bike_id": "f30a3fb669a4cef229295394c47d6765", "is_reserved": 0, "name": "f30a3fb669a4cef229295394c47d6765", "lat": 38.90399466666667, "fusion_lat": 0.0, "lon": -77.001897, "is_disabled": 0, "fusion_lon": 0.0, "rental_uris": {"android": "https://dc.lft.to/lastmile_qr_scan", "ios": "https://dc.lft.to/lastmile_qr_scan"}, "type": "electric_scooter"}, {"bike_id": "bcc8cf7525c6f9ea2c69a89f13f703ba", "is_reserved": 0, "name": "bcc8cf7525c6f9ea2c69a89f13f703ba", "lat": 38.91796566666667, "fusion_lat": 0.0, "lon": -77.041718, "is_disabled": 0, "fusion_lon": 0.0, "rental_uris": {"android": "https://dc.lft.to/lastmile_qr_scan", "ios": "https://dc.lft.to/lastmile_qr_scan"}, "type": "electric_scooter"}, {"bike_id": "7c5c23b47bfa5b5b5e2926d2597acc56", "is_reserved": 0, "name": "7c5c23b47bfa5b5b5e2926d2597acc56", "lat": 38.8900735, "fusion_lat": 0.0, "lon": -76.93748216666667, "is_disabled": 0, "fusion_lon": 0.0, "rental_uris": {"android": "https://dc.lft.to/lastmile_qr_scan", "ios": "https://dc.lft.to/lastmile_qr_scan"}, "type": "electric_scooter"}, {"bike_id": "081b649f84b798266a1c6d07e97f6d20", "is_reserved": 0, "name": "081b649f84b798266a1c6d07e97f6d20", "lat": 38.902048, "fusion_lat": 0.0, "lon": -77.02368733333333, "is_disabled": 0, "fusion_lon": 0.0, "rental_uris": {"android": "https://dc.lft.to/lastmile_qr_scan", "ios": "https://dc.lft.to/lastmile_qr_scan"}, "type": "electric_scooter"}, {"bike_id": "d5266b7559adc678091a2f112254c508", "is_reserved": 0, "name": "d5266b7559adc678091a2f112254c508", "lat": 38.90512666666667, "fusion_lat": 0.0, "lon": -77.06545933333334, "is_disabled": 0, "fusion_lon": 0.0, "rental_uris": {"android": "https://dc.lft.to/lastmile_qr_scan", "ios": "https://dc.lft.to/lastmile_qr_scan"}, "type": "electric_scooter"}, {"bike_id": "e3d654c15b8eb1f7b066f3b5c58e9c26", "is_reserved": 0, "name": "e3d654c15b8eb1f7b066f3b5c58e9c26", "lat": 38.88137716666667, "fusion_lat": 0.0, "lon": -76.9961635, "is_disabled": 0, "fusion_lon": 0.0, "rental_uris": {"android": "https://dc.lft.to/lastmile_qr_scan", "ios": "https://dc.lft.to/lastmile_qr_scan"}, "type": "electric_scooter"}, {"bike_id": "82741907c9fcf629f9ca082298e98082", "is_reserved": 0, "name": "82741907c9fcf629f9ca082298e98082", "lat": 38.919950166666666, "fusion_lat": 0.0, "lon": -77.04763683333333, "is_disabled": 0, "fusion_lon": 0.0, "rental_uris": {"android": "https://dc.lft.to/lastmile_qr_scan", "ios": "https://dc.lft.to/lastmile_qr_scan"}, "type": "electric_scooter"}, {"bike_id": "dd3bf7dab09d8c71955aa66814de5662", "is_reserved": 0, "name": "dd3bf7dab09d8c71955aa66814de5662", "lat": 38.883734, "fusion_lat": 0.0, "lon": -76.99518033333334, "is_disabled": 0, "fusion_lon": 0.0, "rental_uris": {"android": "https://dc.lft.to/lastmile_qr_scan", "ios": "https://dc.lft.to/lastmile_qr_scan"}, "type": "electric_scooter"}, {"bike_id": "5f431c557b32f43af9dd4c14f5eb4a3f", "is_reserved": 0, "name": "5f431c557b32f43af9dd4c14f5eb4a3f", "lat": 38.89249233333334, "fusion_lat": 0.0, "lon": -77.03958316666667, "is_disabled": 0, "fusion_lon": 0.0, "rental_uris": {"android": "https://dc.lft.to/lastmile_qr_scan", "ios": "https://dc.lft.to/lastmile_qr_scan"}, "type": "electric_scooter"}, {"bike_id": "2f58debbc681c77a7ff12f22c90b9f37", "is_reserved": 0, "name": "2f58debbc681c77a7ff12f22c90b9f37", "lat": 38.94830266666666, "fusion_lat": 0.0, "lon": -77.09996116666667, "is_disabled": 0, "fusion_lon": 0.0, "rental_uris": {"android": "https://dc.lft.to/lastmile_qr_scan", "ios": "https://dc.lft.to/lastmile_qr_scan"}, "type": "electric_scooter"}, {"bike_id": "9ccfff96e522ac6170c7cc31e1b7961f", "is_reserved": 0, "name": "9ccfff96e522ac6170c7cc31e1b7961f", "lat": 38.902626, "fusion_lat": 0.0, "lon": -77.039154, "is_disabled": 0, "fusion_lon": 0.0, "rental_uris": {"android": "https://dc.lft.to/lastmile_qr_scan", "ios": "https://dc.lft.to/lastmile_qr_scan"}, "type": "electric_scooter"}, {"bike_id": "fc0ac408ad852e984a399061bf8b9ed8", "is_reserved": 0, "name": "fc0ac408ad852e984a399061bf8b9ed8", "lat": 38.893631666666664, "fusion_lat": 0.0, "lon": -77.00338116666667, "is_disabled": 0, "fusion_lon": 0.0, "rental_uris": {"android": "https://dc.lft.to/lastmile_qr_scan", "ios": "https://dc.lft.to/lastmile_qr_scan"}, "type": "electric_scooter"}, {"bike_id": "9102bd3f0028e9402432a28e4305b47a", "is_reserved": 0, "name": "9102bd3f0028e9402432a28e4305b47a", "lat": 38.92319633333334, "fusion_lat": 0.0, "lon": -77.04023016666666, "is_disabled": 0, "fusion_lon": 0.0, "rental_uris": {"android": "https://dc.lft.to/lastmile_qr_scan", "ios": "https://dc.lft.to/lastmile_qr_scan"}, "type": "electric_scooter"}, {"bike_id": "48abca65675532d0e7c297accdf8af45", "is_reserved": 0, "name": "48abca65675532d0e7c297accdf8af45", "lat": 38.911233, "fusion_lat": 0.0, "lon": -77.00759033333334, "is_disabled": 0, "fusion_lon": 0.0, "rental_uris": {"android": "https://dc.lft.to/lastmile_qr_scan", "ios": "https://dc.lft.to/lastmile_qr_scan"}, "type": "electric_scooter"}, {"bike_id": "156ccfd3333650f0b0146366f0dbd487", "is_reserved": 0, "name": "156ccfd3333650f0b0146366f0dbd487", "lat": 38.907185, "fusion_lat": 0.0, "lon": -77.043372, "is_disabled": 0, "fusion_lon": 0.0, "rental_uris": {"android": "https://dc.lft.to/lastmile_qr_scan", "ios": "https://dc.lft.to/lastmile_qr_scan"}, "type": "electric_scooter"}, {"bike_id": "11fefd3954cd564a70de97c6f2aeb4bb", "is_reserved": 0, "name": "11fefd3954cd564a70de97c6f2aeb4bb", "lat": 38.923711833333336, "fusion_lat": 0.0, "lon": -77.03160566666666, "is_disabled": 0, "fusion_lon": 0.0, "rental_uris": {"android": "https://dc.lft.to/lastmile_qr_scan", "ios": "https://dc.lft.to/lastmile_qr_scan"}, "type": "electric_scooter"}, {"bike_id": "94e2e9d607027cc312b51fab4b464197", "is_reserved": 0, "name": "94e2e9d607027cc312b51fab4b464197", "lat": 38.93479466666667, "fusion_lat": 0.0, "lon": -77.0726695, "is_disabled": 0, "fusion_lon": 0.0, "rental_uris": {"android": "https://dc.lft.to/lastmile_qr_scan", "ios": "https://dc.lft.to/lastmile_qr_scan"}, "type": "electric_scooter"}, {"bike_id": "0fcaa0e009a277035885943af012c995", "is_reserved": 0, "name": "0fcaa0e009a277035885943af012c995", "lat": 38.905621833333335, "fusion_lat": 0.0, "lon": -77.00533966666667, "is_disabled": 0, "fusion_lon": 0.0, "rental_uris": {"android": "https://dc.lft.to/lastmile_qr_scan", "ios": "https://dc.lft.to/lastmile_qr_scan"}, "type": "electric_scooter"}, {"bike_id": "1976bc06c371e919d3900ec333e18979", "is_reserved": 0, "name": "1976bc06c371e919d3900ec333e18979", "lat": 38.898756166666665, "fusion_lat": 0.0, "lon": -76.93180666666666, "is_disabled": 0, "fusion_lon": 0.0, "rental_uris": {"android": "https://dc.lft.to/lastmile_qr_scan", "ios": "https://dc.lft.to/lastmile_qr_scan"}, "type": "electric_scooter"}, {"bike_id": "6f1e2457bb8b0ca2a7424ac2588f0c9d", "is_reserved": 0, "name": "6f1e2457bb8b0ca2a7424ac2588f0c9d", "lat": 38.8874505, "fusion_lat": 0.0, "lon": -77.025699, "is_disabled": 0, "fusion_lon": 0.0, "rental_uris": {"android": "https://dc.lft.to/lastmile_qr_scan", "ios": "https://dc.lft.to/lastmile_qr_scan"}, "type": "electric_scooter"}, {"bike_id": "4d78fd3c1a5fefcec91b0be1946f4dc1", "is_reserved": 0, "name": "4d78fd3c1a5fefcec91b0be1946f4dc1", "lat": 38.92880383333333, "fusion_lat": 0.0, "lon": -77.013645, "is_disabled": 0, "fusion_lon": 0.0, "rental_uris": {"android": "https://dc.lft.to/lastmile_qr_scan", "ios": "https://dc.lft.to/lastmile_qr_scan"}, "type": "electric_scooter"}, {"bike_id": "97524545f720e45e40ea9b98d3587446", "is_reserved": 0, "name": "97524545f720e45e40ea9b98d3587446", "lat": 38.90314816666667, "fusion_lat": 0.0, "lon": -77.05809583333334, "is_disabled": 0, "fusion_lon": 0.0, "rental_uris": {"android": "https://dc.lft.to/lastmile_qr_scan", "ios": "https://dc.lft.to/lastmile_qr_scan"}, "type": "electric_scooter"}, {"bike_id": "e7bc0cad95f825e4015b8f707448f6d4", "is_reserved": 0, "name": "e7bc0cad95f825e4015b8f707448f6d4", "lat": 38.907268, "fusion_lat": 0.0, "lon": -77.0288705, "is_disabled": 0, "fusion_lon": 0.0, "rental_uris": {"android": "https://dc.lft.to/lastmile_qr_scan", "ios": "https://dc.lft.to/lastmile_qr_scan"}, "type": "electric_scooter"}, {"bike_id": "70bcd38b4b58c4e74aae15d765e7425d", "is_reserved": 0, "name": "70bcd38b4b58c4e74aae15d765e7425d", "lat": 38.86013533333333, "fusion_lat": 0.0, "lon": -76.96707966666666, "is_disabled": 0, "fusion_lon": 0.0, "rental_uris": {"android": "https://dc.lft.to/lastmile_qr_scan", "ios": "https://dc.lft.to/lastmile_qr_scan"}, "type": "electric_scooter"}, {"bike_id": "d10fe65c63513b165d3e2191ab80c160", "is_reserved": 0, "name": "d10fe65c63513b165d3e2191ab80c160", "lat": 38.923413333333336, "fusion_lat": 0.0, "lon": -77.05216266666666, "is_disabled": 0, "fusion_lon": 0.0, "rental_uris": {"android": "https://dc.lft.to/lastmile_qr_scan", "ios": "https://dc.lft.to/lastmile_qr_scan"}, "type": "electric_scooter"}, {"bike_id": "591270172eba85e7727478e615edee23", "is_reserved": 0, "name": "591270172eba85e7727478e615edee23", "lat": 38.892234333333334, "fusion_lat": 0.0, "lon": -77.04327866666667, "is_disabled": 0, "fusion_lon": 0.0, "rental_uris": {"android": "https://dc.lft.to/lastmile_qr_scan", "ios": "https://dc.lft.to/lastmile_qr_scan"}, "type": "electric_scooter"}, {"bike_id": "ceb377dbfa2bffb02aa3c1f92da9fac2", "is_reserved": 0, "name": "ceb377dbfa2bffb02aa3c1f92da9fac2", "lat": 38.91796466666667, "fusion_lat": 0.0, "lon": -77.03188466666667, "is_disabled": 0, "fusion_lon": 0.0, "rental_uris": {"android": "https://dc.lft.to/lastmile_qr_scan", "ios": "https://dc.lft.to/lastmile_qr_scan"}, "type": "electric_scooter"}, {"bike_id": "dc1264958f95fc540446a819ffd6ffff", "is_reserved": 0, "name": "dc1264958f95fc540446a819ffd6ffff", "lat": 38.916540166666664, "fusion_lat": 0.0, "lon": -77.041754, "is_disabled": 0, "fusion_lon": 0.0, "rental_uris": {"android": "https://dc.lft.to/lastmile_qr_scan", "ios": "https://dc.lft.to/lastmile_qr_scan"}, "type": "electric_scooter"}, {"bike_id": "5728c701303de2310e105afe04e48f35", "is_reserved": 0, "name": "5728c701303de2310e105afe04e48f35", "lat": 38.906797, "fusion_lat": 0.0, "lon": -77.03809433333333, "is_disabled": 0, "fusion_lon": 0.0, "rental_uris": {"android": "https://dc.lft.to/lastmile_qr_scan", "ios": "https://dc.lft.to/lastmile_qr_scan"}, "type": "electric_scooter"}, {"bike_id": "0aed85145a0e986499d75794413d649e", "is_reserved": 0, "name": "0aed85145a0e986499d75794413d649e", "lat": 38.894225666666664, "fusion_lat": 0.0, "lon": -77.02169466666666, "is_disabled": 0, "fusion_lon": 0.0, "rental_uris": {"android": "https://dc.lft.to/lastmile_qr_scan", "ios": "https://dc.lft.to/lastmile_qr_scan"}, "type": "electric_scooter"}, {"bike_id": "18ad7e1c76a0b617b819a63cc808503f", "is_reserved": 0, "name": "18ad7e1c76a0b617b819a63cc808503f", "lat": 38.9211775, "fusion_lat": 0.0, "lon": -77.02137766666667, "is_disabled": 0, "fusion_lon": 0.0, "rental_uris": {"android": "https://dc.lft.to/lastmile_qr_scan", "ios": "https://dc.lft.to/lastmile_qr_scan"}, "type": "electric_scooter"}, {"bike_id": "552876dcd449feacbfc3e28b659c7886", "is_reserved": 0, "name": "552876dcd449feacbfc3e28b659c7886", "lat": 38.9078925, "fusion_lat": 0.0, "lon": -77.04242016666667, "is_disabled": 0, "fusion_lon": 0.0, "rental_uris": {"android": "https://dc.lft.to/lastmile_qr_scan", "ios": "https://dc.lft.to/lastmile_qr_scan"}, "type": "electric_scooter"}, {"bike_id": "7b0f17a6786137bd5200a8daadef0204", "is_reserved": 0, "name": "7b0f17a6786137bd5200a8daadef0204", "lat": 38.91013933333333, "fusion_lat": 0.0, "lon": -77.03432533333333, "is_disabled": 0, "fusion_lon": 0.0, "rental_uris": {"android": "https://dc.lft.to/lastmile_qr_scan", "ios": "https://dc.lft.to/lastmile_qr_scan"}, "type": "electric_scooter"}, {"bike_id": "86609f93e2985eedce8d8c4502314b20", "is_reserved": 0, "name": "86609f93e2985eedce8d8c4502314b20", "lat": 38.92317416666667, "fusion_lat": 0.0, "lon": -77.04040416666666, "is_disabled": 0, "fusion_lon": 0.0, "rental_uris": {"android": "https://dc.lft.to/lastmile_qr_scan", "ios": "https://dc.lft.to/lastmile_qr_scan"}, "type": "electric_scooter"}, {"bike_id": "1da93144cab7b6dc83edb3cf72d42566", "is_reserved": 0, "name": "1da93144cab7b6dc83edb3cf72d42566", "lat": 38.901051, "fusion_lat": 0.0, "lon": -76.930481, "is_disabled": 0, "fusion_lon": 0.0, "rental_uris": {"android": "https://dc.lft.to/lastmile_qr_scan", "ios": "https://dc.lft.to/lastmile_qr_scan"}, "type": "electric_scooter"}, {"bike_id": "695ddf408994cb4513cc6fe9f217c021", "is_reserved": 0, "name": "695ddf408994cb4513cc6fe9f217c021", "lat": 38.9120505, "fusion_lat": 0.0, "lon": -77.01174883333333, "is_disabled": 0, "fusion_lon": 0.0, "rental_uris": {"android": "https://dc.lft.to/lastmile_qr_scan", "ios": "https://dc.lft.to/lastmile_qr_scan"}, "type": "electric_scooter"}, {"bike_id": "b788b5d4031222ba43f7ad225541ff33", "is_reserved": 0, "name": "b788b5d4031222ba43f7ad225541ff33", "lat": 38.9247115, "fusion_lat": 0.0, "lon": -77.02073566666667, "is_disabled": 0, "fusion_lon": 0.0, "rental_uris": {"android": "https://dc.lft.to/lastmile_qr_scan", "ios": "https://dc.lft.to/lastmile_qr_scan"}, "type": "electric_scooter"}, {"bike_id": "577376d5715358d77da985c0fcef5d0c", "is_reserved": 0, "name": "577376d5715358d77da985c0fcef5d0c", "lat": 38.89943616666667, "fusion_lat": 0.0, "lon": -77.0218705, "is_disabled": 0, "fusion_lon": 0.0, "rental_uris": {"android": "https://dc.lft.to/lastmile_qr_scan", "ios": "https://dc.lft.to/lastmile_qr_scan"}, "type": "electric_scooter"}, {"bike_id": "eb398aec596db0ba6691a51b0d8d93cb", "is_reserved": 0, "name": "eb398aec596db0ba6691a51b0d8d93cb", "lat": 38.91928516666667, "fusion_lat": 0.0, "lon": -77.02409983333334, "is_disabled": 0, "fusion_lon": 0.0, "rental_uris": {"android": "https://dc.lft.to/lastmile_qr_scan", "ios": "https://dc.lft.to/lastmile_qr_scan"}, "type": "electric_scooter"}, {"bike_id": "0fa0e66c6ff4d48a556e0095ad7606d8", "is_reserved": 0, "name": "0fa0e66c6ff4d48a556e0095ad7606d8", "lat": 38.928538833333334, "fusion_lat": 0.0, "lon": -77.0343775, "is_disabled": 0, "fusion_lon": 0.0, "rental_uris": {"android": "https://dc.lft.to/lastmile_qr_scan", "ios": "https://dc.lft.to/lastmile_qr_scan"}, "type": "electric_scooter"}, {"bike_id": "c3e6e0e62aaa1d7cab4e997b6b2dbc65", "is_reserved": 0, "name": "c3e6e0e62aaa1d7cab4e997b6b2dbc65", "lat": 38.827971, "fusion_lat": 0.0, "lon": -77.12490966666667, "is_disabled": 0, "fusion_lon": 0.0, "rental_uris": {"android": "https://dc.lft.to/lastmile_qr_scan", "ios": "https://dc.lft.to/lastmile_qr_scan"}, "type": "electric_bike"}, {"bike_id": "77289c53514c8a72f72fbf1a1a40cc85", "is_reserved": 0, "name": "77289c53514c8a72f72fbf1a1a40cc85", "lat": 38.887668833333336, "fusion_lat": 0.0, "lon": -77.013043, "is_disabled": 0, "fusion_lon": 0.0, "rental_uris": {"android": "https://dc.lft.to/lastmile_qr_scan", "ios": "https://dc.lft.to/lastmile_qr_scan"}, "type": "electric_scooter"}, {"bike_id": "982a302284c020f3d147acf44d2db40a", "is_reserved": 0, "name": "982a302284c020f3d147acf44d2db40a", "lat": 38.87490833333333, "fusion_lat": 0.0, "lon": -77.000212, "is_disabled": 0, "fusion_lon": 0.0, "rental_uris": {"android": "https://dc.lft.to/lastmile_qr_scan", "ios": "https://dc.lft.to/lastmile_qr_scan"}, "type": "electric_scooter"}, {"bike_id": "8172a153bf60bebda5571a6c74afb64c", "is_reserved": 0, "name": "8172a153bf60bebda5571a6c74afb64c", "lat": 38.899553, "fusion_lat": 0.0, "lon": -77.03900633333333, "is_disabled": 0, "fusion_lon": 0.0, "rental_uris": {"android": "https://dc.lft.to/lastmile_qr_scan", "ios": "https://dc.lft.to/lastmile_qr_scan"}, "type": "electric_scooter"}, {"bike_id": "35347f3ee2da400d616cdde3d48be4ec", "is_reserved": 0, "name": "35347f3ee2da400d616cdde3d48be4ec", "lat": 38.9111285, "fusion_lat": 0.0, "lon": -77.04539666666666, "is_disabled": 0, "fusion_lon": 0.0, "rental_uris": {"android": "https://dc.lft.to/lastmile_qr_scan", "ios": "https://dc.lft.to/lastmile_qr_scan"}, "type": "electric_scooter"}, {"bike_id": "f344c271df30116dbd5ae3971c263c73", "is_reserved": 0, "name": "f344c271df30116dbd5ae3971c263c73", "lat": 38.926948, "fusion_lat": 0.0, "lon": -77.02183416666666, "is_disabled": 0, "fusion_lon": 0.0, "rental_uris": {"android": "https://dc.lft.to/lastmile_qr_scan", "ios": "https://dc.lft.to/lastmile_qr_scan"}, "type": "electric_scooter"}, {"bike_id": "db116eda0859b6c96d8ebc00cd5883c6", "is_reserved": 0, "name": "db116eda0859b6c96d8ebc00cd5883c6", "lat": 38.914476, "fusion_lat": 0.0, "lon": -77.02196716666667, "is_disabled": 0, "fusion_lon": 0.0, "rental_uris": {"android": "https://dc.lft.to/lastmile_qr_scan", "ios": "https://dc.lft.to/lastmile_qr_scan"}, "type": "electric_scooter"}, {"bike_id": "4a0470a4d5f63c1ecea3202450e774e7", "is_reserved": 0, "name": "4a0470a4d5f63c1ecea3202450e774e7", "lat": 38.91588183333333, "fusion_lat": 0.0, "lon": -77.01722233333334, "is_disabled": 0, "fusion_lon": 0.0, "rental_uris": {"android": "https://dc.lft.to/lastmile_qr_scan", "ios": "https://dc.lft.to/lastmile_qr_scan"}, "type": "electric_scooter"}, {"bike_id": "fe56ebfdee31ac3a5d23e4859445e2fe", "is_reserved": 0, "name": "fe56ebfdee31ac3a5d23e4859445e2fe", "lat": 38.908550166666664, "fusion_lat": 0.0, "lon": -77.02723666666667, "is_disabled": 0, "fusion_lon": 0.0, "rental_uris": {"android": "https://dc.lft.to/lastmile_qr_scan", "ios": "https://dc.lft.to/lastmile_qr_scan"}, "type": "electric_scooter"}, {"bike_id": "37ee86f33eddfeaaf169c9e2d7818c7d", "is_reserved": 0, "name": "37ee86f33eddfeaaf169c9e2d7818c7d", "lat": 38.900143666666665, "fusion_lat": 0.0, "lon": -77.000662, "is_disabled": 0, "fusion_lon": 0.0, "rental_uris": {"android": "https://dc.lft.to/lastmile_qr_scan", "ios": "https://dc.lft.to/lastmile_qr_scan"}, "type": "electric_scooter"}, {"bike_id": "9d206fd29481955a5a0fd8c5ce46a1d0", "is_reserved": 0, "name": "9d206fd29481955a5a0fd8c5ce46a1d0", "lat": 38.88520183333333, "fusion_lat": 0.0, "lon": -76.98208116666666, "is_disabled": 0, "fusion_lon": 0.0, "rental_uris": {"android": "https://dc.lft.to/lastmile_qr_scan", "ios": "https://dc.lft.to/lastmile_qr_scan"}, "type": "electric_scooter"}, {"bike_id": "83d3f2b711c94b487de32dc024c5537e", "is_reserved": 0, "name": "83d3f2b711c94b487de32dc024c5537e", "lat": 38.91953133333333, "fusion_lat": 0.0, "lon": -77.07846116666667, "is_disabled": 0, "fusion_lon": 0.0, "rental_uris": {"android": "https://dc.lft.to/lastmile_qr_scan", "ios": "https://dc.lft.to/lastmile_qr_scan"}, "type": "electric_scooter"}, {"bike_id": "6435a45fe5c9bdef2f09a6a6482b3a61", "is_reserved": 0, "name": "6435a45fe5c9bdef2f09a6a6482b3a61", "lat": 38.892214833333334, "fusion_lat": 0.0, "lon": -77.0265625, "is_disabled": 0, "fusion_lon": 0.0, "rental_uris": {"android": "https://dc.lft.to/lastmile_qr_scan", "ios": "https://dc.lft.to/lastmile_qr_scan"}, "type": "electric_scooter"}, {"bike_id": "7c790517697e66abaef5f4a22c8e373d", "is_reserved": 0, "name": "7c790517697e66abaef5f4a22c8e373d", "lat": 38.90350733333333, "fusion_lat": 0.0, "lon": -76.98664833333333, "is_disabled": 0, "fusion_lon": 0.0, "rental_uris": {"android": "https://dc.lft.to/lastmile_qr_scan", "ios": "https://dc.lft.to/lastmile_qr_scan"}, "type": "electric_bike"}, {"bike_id": "839d5e41326d0b3095565379479d11d9", "is_reserved": 0, "name": "839d5e41326d0b3095565379479d11d9", "lat": 38.87393466666666, "fusion_lat": 0.0, "lon": -77.01451666666667, "is_disabled": 0, "fusion_lon": 0.0, "rental_uris": {"android": "https://dc.lft.to/lastmile_qr_scan", "ios": "https://dc.lft.to/lastmile_qr_scan"}, "type": "electric_scooter"}, {"bike_id": "bde59615716798d7f89c22ce0547ad32", "is_reserved": 0, "name": "bde59615716798d7f89c22ce0547ad32", "lat": 38.932945, "fusion_lat": 0.0, "lon": -77.02853416666666, "is_disabled": 0, "fusion_lon": 0.0, "rental_uris": {"android": "https://dc.lft.to/lastmile_qr_scan", "ios": "https://dc.lft.to/lastmile_qr_scan"}, "type": "electric_scooter"}, {"bike_id": "5ddbc872d07805d1c71785532c2ef567", "is_reserved": 0, "name": "5ddbc872d07805d1c71785532c2ef567", "lat": 38.9296295, "fusion_lat": 0.0, "lon": -77.01147933333333, "is_disabled": 0, "fusion_lon": 0.0, "rental_uris": {"android": "https://dc.lft.to/lastmile_qr_scan", "ios": "https://dc.lft.to/lastmile_qr_scan"}, "type": "electric_scooter"}, {"bike_id": "040ca43576bb50446755dcadc5dd9371", "is_reserved": 0, "name": "040ca43576bb50446755dcadc5dd9371", "lat": 38.8993635, "fusion_lat": 0.0, "lon": -77.01277, "is_disabled": 0, "fusion_lon": 0.0, "rental_uris": {"android": "https://dc.lft.to/lastmile_qr_scan", "ios": "https://dc.lft.to/lastmile_qr_scan"}, "type": "electric_scooter"}, {"bike_id": "4f42c07059a501a56c54b034804c4d43", "is_reserved": 0, "name": "4f42c07059a501a56c54b034804c4d43", "lat": 38.900223833333335, "fusion_lat": 0.0, "lon": -76.99973216666666, "is_disabled": 0, "fusion_lon": 0.0, "rental_uris": {"android": "https://dc.lft.to/lastmile_qr_scan", "ios": "https://dc.lft.to/lastmile_qr_scan"}, "type": "electric_scooter"}, {"bike_id": "0f282237f5408470d9787e75b05c5714", "is_reserved": 0, "name": "0f282237f5408470d9787e75b05c5714", "lat": 38.92695416666667, "fusion_lat": 0.0, "lon": -76.997668, "is_disabled": 0, "fusion_lon": 0.0, "rental_uris": {"android": "https://dc.lft.to/lastmile_qr_scan", "ios": "https://dc.lft.to/lastmile_qr_scan"}, "type": "electric_scooter"}, {"bike_id": "3b519b7fabfecdbb0371da90d9ab728d", "is_reserved": 0, "name": "3b519b7fabfecdbb0371da90d9ab728d", "lat": 38.92608, "fusion_lat": 0.0, "lon": -77.06423883333333, "is_disabled": 0, "fusion_lon": 0.0, "rental_uris": {"android": "https://dc.lft.to/lastmile_qr_scan", "ios": "https://dc.lft.to/lastmile_qr_scan"}, "type": "electric_bike"}, {"bike_id": "ca7a6ac3b195843dfe52270b6f4414a2", "is_reserved": 0, "name": "ca7a6ac3b195843dfe52270b6f4414a2", "lat": 38.912786, "fusion_lat": 0.0, "lon": -77.03851033333333, "is_disabled": 0, "fusion_lon": 0.0, "rental_uris": {"android": "https://dc.lft.to/lastmile_qr_scan", "ios": "https://dc.lft.to/lastmile_qr_scan"}, "type": "electric_scooter"}, {"bike_id": "043b24c7822c99948e680368e1d335c2", "is_reserved": 0, "name": "043b24c7822c99948e680368e1d335c2", "lat": 38.8923425, "fusion_lat": 0.0, "lon": -77.04872466666667, "is_disabled": 0, "fusion_lon": 0.0, "rental_uris": {"android": "https://dc.lft.to/lastmile_qr_scan", "ios": "https://dc.lft.to/lastmile_qr_scan"}, "type": "electric_scooter"}, {"bike_id": "e562b70f80dab6654de01c98f96450c2", "is_reserved": 0, "name": "e562b70f80dab6654de01c98f96450c2", "lat": 38.9035015, "fusion_lat": 0.0, "lon": -77.036422, "is_disabled": 0, "fusion_lon": 0.0, "rental_uris": {"android": "https://dc.lft.to/lastmile_qr_scan", "ios": "https://dc.lft.to/lastmile_qr_scan"}, "type": "electric_scooter"}, {"bike_id": "5bdf1c1023dec650bbc800d268d51b88", "is_reserved": 0, "name": "5bdf1c1023dec650bbc800d268d51b88", "lat": 38.914064, "fusion_lat": 0.0, "lon": -77.02207583333333, "is_disabled": 0, "fusion_lon": 0.0, "rental_uris": {"android": "https://dc.lft.to/lastmile_qr_scan", "ios": "https://dc.lft.to/lastmile_qr_scan"}, "type": "electric_scooter"}, {"bike_id": "745ed7733a12ce42680ae791d4e0b4be", "is_reserved": 0, "name": "745ed7733a12ce42680ae791d4e0b4be", "lat": 38.992177, "fusion_lat": 0.0, "lon": -76.94428916666666, "is_disabled": 0, "fusion_lon": 0.0, "rental_uris": {"android": "https://dc.lft.to/lastmile_qr_scan", "ios": "https://dc.lft.to/lastmile_qr_scan"}, "type": "electric_bike"}, {"bike_id": "a7b1b84194eb9451220212207d2ce6fb", "is_reserved": 0, "name": "a7b1b84194eb9451220212207d2ce6fb", "lat": 38.907871666666665, "fusion_lat": 0.0, "lon": -77.02967966666667, "is_disabled": 0, "fusion_lon": 0.0, "rental_uris": {"android": "https://dc.lft.to/lastmile_qr_scan", "ios": "https://dc.lft.to/lastmile_qr_scan"}, "type": "electric_scooter"}, {"bike_id": "30bc6f8984045f88070f23446b86f55d", "is_reserved": 0, "name": "30bc6f8984045f88070f23446b86f55d", "lat": 38.92325966666667, "fusion_lat": 0.0, "lon": -77.02889283333333, "is_disabled": 0, "fusion_lon": 0.0, "rental_uris": {"android": "https://dc.lft.to/lastmile_qr_scan", "ios": "https://dc.lft.to/lastmile_qr_scan"}, "type": "electric_scooter"}, {"bike_id": "f5e5dce243a7fb78dfbeac563e394307", "is_reserved": 0, "name": "f5e5dce243a7fb78dfbeac563e394307", "lat": 38.929809, "fusion_lat": 0.0, "lon": -77.03652616666666, "is_disabled": 0, "fusion_lon": 0.0, "rental_uris": {"android": "https://dc.lft.to/lastmile_qr_scan", "ios": "https://dc.lft.to/lastmile_qr_scan"}, "type": "electric_scooter"}, {"bike_id": "8c201ce55bb351a4207b6b2901ec49ec", "is_reserved": 0, "name": "8c201ce55bb351a4207b6b2901ec49ec", "lat": 38.905349, "fusion_lat": 0.0, "lon": -77.05640083333333, "is_disabled": 0, "fusion_lon": 0.0, "rental_uris": {"android": "https://dc.lft.to/lastmile_qr_scan", "ios": "https://dc.lft.to/lastmile_qr_scan"}, "type": "electric_scooter"}, {"bike_id": "54e7716cd1666b1b5a5d37d2754b04b8", "is_reserved": 0, "name": "54e7716cd1666b1b5a5d37d2754b04b8", "lat": 38.919174166666664, "fusion_lat": 0.0, "lon": -77.03125966666667, "is_disabled": 0, "fusion_lon": 0.0, "rental_uris": {"android": "https://dc.lft.to/lastmile_qr_scan", "ios": "https://dc.lft.to/lastmile_qr_scan"}, "type": "electric_scooter"}, {"bike_id": "ddb6faf0eb7ff8bdc3d55d2153974c6c", "is_reserved": 0, "name": "ddb6faf0eb7ff8bdc3d55d2153974c6c", "lat": 38.877336666666665, "fusion_lat": 0.0, "lon": -76.97030033333333, "is_disabled": 0, "fusion_lon": 0.0, "rental_uris": {"android": "https://dc.lft.to/lastmile_qr_scan", "ios": "https://dc.lft.to/lastmile_qr_scan"}, "type": "electric_scooter"}, {"bike_id": "03b292c86c5e9826122031633f613834", "is_reserved": 0, "name": "03b292c86c5e9826122031633f613834", "lat": 38.871585333333336, "fusion_lat": 0.0, "lon": -77.13146866666666, "is_disabled": 0, "fusion_lon": 0.0, "rental_uris": {"android": "https://dc.lft.to/lastmile_qr_scan", "ios": "https://dc.lft.to/lastmile_qr_scan"}, "type": "electric_bike"}, {"bike_id": "a0d55987e14f1f9a9a76c0383e210fe7", "is_reserved": 0, "name": "a0d55987e14f1f9a9a76c0383e210fe7", "lat": 38.875561, "fusion_lat": 0.0, "lon": -77.00602016666667, "is_disabled": 0, "fusion_lon": 0.0, "rental_uris": {"android": "https://dc.lft.to/lastmile_qr_scan", "ios": "https://dc.lft.to/lastmile_qr_scan"}, "type": "electric_scooter"}, {"bike_id": "75f4137ea64ccbdf717040a1c78d9ad1", "is_reserved": 0, "name": "75f4137ea64ccbdf717040a1c78d9ad1", "lat": 38.89841883333333, "fusion_lat": 0.0, "lon": -77.02200316666666, "is_disabled": 0, "fusion_lon": 0.0, "rental_uris": {"android": "https://dc.lft.to/lastmile_qr_scan", "ios": "https://dc.lft.to/lastmile_qr_scan"}, "type": "electric_scooter"}, {"bike_id": "84accbb562b6838a8fb2454db44fae2a", "is_reserved": 0, "name": "84accbb562b6838a8fb2454db44fae2a", "lat": 38.915669666666666, "fusion_lat": 0.0, "lon": -77.02172366666667, "is_disabled": 0, "fusion_lon": 0.0, "rental_uris": {"android": "https://dc.lft.to/lastmile_qr_scan", "ios": "https://dc.lft.to/lastmile_qr_scan"}, "type": "electric_scooter"}, {"bike_id": "c72121067f34031178891ba83b41de81", "is_reserved": 0, "name": "c72121067f34031178891ba83b41de81", "lat": 38.911109833333335, "fusion_lat": 0.0, "lon": -77.04540383333334, "is_disabled": 0, "fusion_lon": 0.0, "rental_uris": {"android": "https://dc.lft.to/lastmile_qr_scan", "ios": "https://dc.lft.to/lastmile_qr_scan"}, "type": "electric_scooter"}, {"bike_id": "4a6574a6eb693a4139076f3ab59811dc", "is_reserved": 0, "name": "4a6574a6eb693a4139076f3ab59811dc", "lat": 38.90540033333333, "fusion_lat": 0.0, "lon": -77.044962, "is_disabled": 0, "fusion_lon": 0.0, "rental_uris": {"android": "https://dc.lft.to/lastmile_qr_scan", "ios": "https://dc.lft.to/lastmile_qr_scan"}, "type": "electric_scooter"}, {"bike_id": "d517d5678b4ec0bb4af5d6cce08410cc", "is_reserved": 0, "name": "d517d5678b4ec0bb4af5d6cce08410cc", "lat": 38.9026825, "fusion_lat": 0.0, "lon": -77.03420066666666, "is_disabled": 0, "fusion_lon": 0.0, "rental_uris": {"android": "https://dc.lft.to/lastmile_qr_scan", "ios": "https://dc.lft.to/lastmile_qr_scan"}, "type": "electric_scooter"}, {"bike_id": "2400694b2e6d9b07e1ec1154aef86efe", "is_reserved": 0, "name": "2400694b2e6d9b07e1ec1154aef86efe", "lat": 38.924330833333336, "fusion_lat": 0.0, "lon": -77.04008066666667, "is_disabled": 0, "fusion_lon": 0.0, "rental_uris": {"android": "https://dc.lft.to/lastmile_qr_scan", "ios": "https://dc.lft.to/lastmile_qr_scan"}, "type": "electric_scooter"}, {"bike_id": "c77b23f71696afda487b5b9bcb15e2c7", "is_reserved": 0, "name": "c77b23f71696afda487b5b9bcb15e2c7", "lat": 38.900813, "fusion_lat": 0.0, "lon": -77.0232905, "is_disabled": 0, "fusion_lon": 0.0, "rental_uris": {"android": "https://dc.lft.to/lastmile_qr_scan", "ios": "https://dc.lft.to/lastmile_qr_scan"}, "type": "electric_scooter"}, {"bike_id": "5139ef13aea5658a61a45dd485cb978f", "is_reserved": 0, "name": "5139ef13aea5658a61a45dd485cb978f", "lat": 38.8922365, "fusion_lat": 0.0, "lon": -77.04504533333333, "is_disabled": 0, "fusion_lon": 0.0, "rental_uris": {"android": "https://dc.lft.to/lastmile_qr_scan", "ios": "https://dc.lft.to/lastmile_qr_scan"}, "type": "electric_scooter"}, {"bike_id": "289d4b3aa32d3747b549e07f02b2b6e1", "is_reserved": 0, "name": "289d4b3aa32d3747b549e07f02b2b6e1", "lat": 38.90987416666667, "fusion_lat": 0.0, "lon": -77.04667083333334, "is_disabled": 0, "fusion_lon": 0.0, "rental_uris": {"android": "https://dc.lft.to/lastmile_qr_scan", "ios": "https://dc.lft.to/lastmile_qr_scan"}, "type": "electric_scooter"}, {"bike_id": "f6d59d14ea02aa96372e6b45e1f59c08", "is_reserved": 0, "name": "f6d59d14ea02aa96372e6b45e1f59c08", "lat": 38.992083666666666, "fusion_lat": 0.0, "lon": -77.03212383333333, "is_disabled": 0, "fusion_lon": 0.0, "rental_uris": {"android": "https://dc.lft.to/lastmile_qr_scan", "ios": "https://dc.lft.to/lastmile_qr_scan"}, "type": "electric_bike"}, {"bike_id": "42b1bebce3c58b7fb09bb537cdda943e", "is_reserved": 0, "name": "42b1bebce3c58b7fb09bb537cdda943e", "lat": 38.89971216666667, "fusion_lat": 0.0, "lon": -76.92617433333334, "is_disabled": 0, "fusion_lon": 0.0, "rental_uris": {"android": "https://dc.lft.to/lastmile_qr_scan", "ios": "https://dc.lft.to/lastmile_qr_scan"}, "type": "electric_scooter"}, {"bike_id": "7235544c5313ba1175f06f92f1e8638b", "is_reserved": 0, "name": "7235544c5313ba1175f06f92f1e8638b", "lat": 38.918308, "fusion_lat": 0.0, "lon": -77.032082, "is_disabled": 0, "fusion_lon": 0.0, "rental_uris": {"android": "https://dc.lft.to/lastmile_qr_scan", "ios": "https://dc.lft.to/lastmile_qr_scan"}, "type": "electric_scooter"}, {"bike_id": "b3aba057b9664ae577b7153abd36a748", "is_reserved": 0, "name": "b3aba057b9664ae577b7153abd36a748", "lat": 38.93846816666667, "fusion_lat": 0.0, "lon": -77.0722995, "is_disabled": 0, "fusion_lon": 0.0, "rental_uris": {"android": "https://dc.lft.to/lastmile_qr_scan", "ios": "https://dc.lft.to/lastmile_qr_scan"}, "type": "electric_scooter"}, {"bike_id": "863851643b8c72d76135409115458552", "is_reserved": 0, "name": "863851643b8c72d76135409115458552", "lat": 38.90222766666667, "fusion_lat": 0.0, "lon": -77.05330366666666, "is_disabled": 0, "fusion_lon": 0.0, "rental_uris": {"android": "https://dc.lft.to/lastmile_qr_scan", "ios": "https://dc.lft.to/lastmile_qr_scan"}, "type": "electric_scooter"}, {"bike_id": "b267c7d2843586458ffb486e03cfa841", "is_reserved": 0, "name": "b267c7d2843586458ffb486e03cfa841", "lat": 38.902468999999996, "fusion_lat": 0.0, "lon": -77.017962, "is_disabled": 0, "fusion_lon": 0.0, "rental_uris": {"android": "https://dc.lft.to/lastmile_qr_scan", "ios": "https://dc.lft.to/lastmile_qr_scan"}, "type": "electric_scooter"}, {"bike_id": "615f212f6a31ee53d0f76ada9b817f6b", "is_reserved": 0, "name": "615f212f6a31ee53d0f76ada9b817f6b", "lat": 38.935434666666666, "fusion_lat": 0.0, "lon": -77.05740916666667, "is_disabled": 0, "fusion_lon": 0.0, "rental_uris": {"android": "https://dc.lft.to/lastmile_qr_scan", "ios": "https://dc.lft.to/lastmile_qr_scan"}, "type": "electric_scooter"}, {"bike_id": "e136ac8914d5bde4016c4651517ae3a4", "is_reserved": 0, "name": "e136ac8914d5bde4016c4651517ae3a4", "lat": 38.91692533333333, "fusion_lat": 0.0, "lon": -77.03383483333333, "is_disabled": 0, "fusion_lon": 0.0, "rental_uris": {"android": "https://dc.lft.to/lastmile_qr_scan", "ios": "https://dc.lft.to/lastmile_qr_scan"}, "type": "electric_scooter"}, {"bike_id": "3735479a4545c907cf12f429ab107397", "is_reserved": 0, "name": "3735479a4545c907cf12f429ab107397", "lat": 38.89292066666667, "fusion_lat": 0.0, "lon": -77.01223483333334, "is_disabled": 0, "fusion_lon": 0.0, "rental_uris": {"android": "https://dc.lft.to/lastmile_qr_scan", "ios": "https://dc.lft.to/lastmile_qr_scan"}, "type": "electric_scooter"}, {"bike_id": "b9381d384b84f348a1cfb48ff2e94b79", "is_reserved": 0, "name": "b9381d384b84f348a1cfb48ff2e94b79", "lat": 38.892242333333336, "fusion_lat": 0.0, "lon": -77.04325266666666, "is_disabled": 0, "fusion_lon": 0.0, "rental_uris": {"android": "https://dc.lft.to/lastmile_qr_scan", "ios": "https://dc.lft.to/lastmile_qr_scan"}, "type": "electric_scooter"}, {"bike_id": "f9064f050203f870dc9efa5d46322b7c", "is_reserved": 0, "name": "f9064f050203f870dc9efa5d46322b7c", "lat": 38.921478, "fusion_lat": 0.0, "lon": -76.99358733333334, "is_disabled": 0, "fusion_lon": 0.0, "rental_uris": {"android": "https://dc.lft.to/lastmile_qr_scan", "ios": "https://dc.lft.to/lastmile_qr_scan"}, "type": "electric_scooter"}, {"bike_id": "2340781537af04fe141500df352d1e67", "is_reserved": 0, "name": "2340781537af04fe141500df352d1e67", "lat": 38.92759016666667, "fusion_lat": 0.0, "lon": -77.0525825, "is_disabled": 0, "fusion_lon": 0.0, "rental_uris": {"android": "https://dc.lft.to/lastmile_qr_scan", "ios": "https://dc.lft.to/lastmile_qr_scan"}, "type": "electric_scooter"}, {"bike_id": "5b662e7ede91353d063bf661f52dcecc", "is_reserved": 0, "name": "5b662e7ede91353d063bf661f52dcecc", "lat": 38.90003433333333, "fusion_lat": 0.0, "lon": -77.045047, "is_disabled": 0, "fusion_lon": 0.0, "rental_uris": {"android": "https://dc.lft.to/lastmile_qr_scan", "ios": "https://dc.lft.to/lastmile_qr_scan"}, "type": "electric_scooter"}, {"bike_id": "6db6f25ba2fce1502b8804f2a62b104d", "is_reserved": 0, "name": "6db6f25ba2fce1502b8804f2a62b104d", "lat": 38.8199345, "fusion_lat": 0.0, "lon": -76.99809366666666, "is_disabled": 0, "fusion_lon": 0.0, "rental_uris": {"android": "https://dc.lft.to/lastmile_qr_scan", "ios": "https://dc.lft.to/lastmile_qr_scan"}, "type": "electric_bike"}, {"bike_id": "19baa189ed3470aaacfa3fa53fbf31d5", "is_reserved": 0, "name": "19baa189ed3470aaacfa3fa53fbf31d5", "lat": 38.927982, "fusion_lat": 0.0, "lon": -77.0210925, "is_disabled": 0, "fusion_lon": 0.0, "rental_uris": {"android": "https://dc.lft.to/lastmile_qr_scan", "ios": "https://dc.lft.to/lastmile_qr_scan"}, "type": "electric_scooter"}, {"bike_id": "e057aa95baffb7d8c157f12d270ca65d", "is_reserved": 0, "name": "e057aa95baffb7d8c157f12d270ca65d", "lat": 38.92139566666667, "fusion_lat": 0.0, "lon": -77.01921283333333, "is_disabled": 0, "fusion_lon": 0.0, "rental_uris": {"android": "https://dc.lft.to/lastmile_qr_scan", "ios": "https://dc.lft.to/lastmile_qr_scan"}, "type": "electric_scooter"}, {"bike_id": "bbd36ecf2088a6109d3815fe092c8961", "is_reserved": 0, "name": "bbd36ecf2088a6109d3815fe092c8961", "lat": 38.90362016666667, "fusion_lat": 0.0, "lon": -77.03917116666666, "is_disabled": 0, "fusion_lon": 0.0, "rental_uris": {"android": "https://dc.lft.to/lastmile_qr_scan", "ios": "https://dc.lft.to/lastmile_qr_scan"}, "type": "electric_scooter"}, {"bike_id": "1d98556670ba7bb7a90a45977326b3ef", "is_reserved": 0, "name": "1d98556670ba7bb7a90a45977326b3ef", "lat": 38.90103833333333, "fusion_lat": 0.0, "lon": -77.02604466666666, "is_disabled": 0, "fusion_lon": 0.0, "rental_uris": {"android": "https://dc.lft.to/lastmile_qr_scan", "ios": "https://dc.lft.to/lastmile_qr_scan"}, "type": "electric_scooter"}, {"bike_id": "b4f473a60ae8c321aa2de03a3c6e76d7", "is_reserved": 0, "name": "b4f473a60ae8c321aa2de03a3c6e76d7", "lat": 38.92787033333333, "fusion_lat": 0.0, "lon": -77.0531245, "is_disabled": 0, "fusion_lon": 0.0, "rental_uris": {"android": "https://dc.lft.to/lastmile_qr_scan", "ios": "https://dc.lft.to/lastmile_qr_scan"}, "type": "electric_scooter"}, {"bike_id": "857682028c6f24959aacc892d163ce39", "is_reserved": 0, "name": "857682028c6f24959aacc892d163ce39", "lat": 38.925224166666666, "fusion_lat": 0.0, "lon": -77.05041533333333, "is_disabled": 0, "fusion_lon": 0.0, "rental_uris": {"android": "https://dc.lft.to/lastmile_qr_scan", "ios": "https://dc.lft.to/lastmile_qr_scan"}, "type": "electric_scooter"}, {"bike_id": "63767a97a05ba562a1e56e36a2015d35", "is_reserved": 0, "name": "63767a97a05ba562a1e56e36a2015d35", "lat": 38.92924333333333, "fusion_lat": 0.0, "lon": -77.03248483333333, "is_disabled": 0, "fusion_lon": 0.0, "rental_uris": {"android": "https://dc.lft.to/lastmile_qr_scan", "ios": "https://dc.lft.to/lastmile_qr_scan"}, "type": "electric_scooter"}, {"bike_id": "99bd821012dc2721010d90b18c15a378", "is_reserved": 0, "name": "99bd821012dc2721010d90b18c15a378", "lat": 38.919118, "fusion_lat": 0.0, "lon": -77.02504416666666, "is_disabled": 0, "fusion_lon": 0.0, "rental_uris": {"android": "https://dc.lft.to/lastmile_qr_scan", "ios": "https://dc.lft.to/lastmile_qr_scan"}, "type": "electric_scooter"}, {"bike_id": "78c0c352d32a35e59723bd001c033453", "is_reserved": 0, "name": "78c0c352d32a35e59723bd001c033453", "lat": 38.9081425, "fusion_lat": 0.0, "lon": -77.04170833333333, "is_disabled": 0, "fusion_lon": 0.0, "rental_uris": {"android": "https://dc.lft.to/lastmile_qr_scan", "ios": "https://dc.lft.to/lastmile_qr_scan"}, "type": "electric_scooter"}, {"bike_id": "df1e8f89bbcc2cb3c5444e9dec481b96", "is_reserved": 0, "name": "df1e8f89bbcc2cb3c5444e9dec481b96", "lat": 38.91809383333333, "fusion_lat": 0.0, "lon": -77.03178516666667, "is_disabled": 0, "fusion_lon": 0.0, "rental_uris": {"android": "https://dc.lft.to/lastmile_qr_scan", "ios": "https://dc.lft.to/lastmile_qr_scan"}, "type": "electric_scooter"}, {"bike_id": "936e0afb2bb598bdb25f2fd86eb42523", "is_reserved": 0, "name": "936e0afb2bb598bdb25f2fd86eb42523", "lat": 38.90305083333333, "fusion_lat": 0.0, "lon": -77.00584933333333, "is_disabled": 0, "fusion_lon": 0.0, "rental_uris": {"android": "https://dc.lft.to/lastmile_qr_scan", "ios": "https://dc.lft.to/lastmile_qr_scan"}, "type": "electric_scooter"}, {"bike_id": "98c865c6921e59dad2580b1a62b3db67", "is_reserved": 0, "name": "98c865c6921e59dad2580b1a62b3db67", "lat": 38.89174833333333, "fusion_lat": 0.0, "lon": -76.92649116666666, "is_disabled": 0, "fusion_lon": 0.0, "rental_uris": {"android": "https://dc.lft.to/lastmile_qr_scan", "ios": "https://dc.lft.to/lastmile_qr_scan"}, "type": "electric_scooter"}, {"bike_id": "84fcc163ed9921b07e53234f56b97101", "is_reserved": 0, "name": "84fcc163ed9921b07e53234f56b97101", "lat": 38.911176, "fusion_lat": 0.0, "lon": -77.0448245, "is_disabled": 0, "fusion_lon": 0.0, "rental_uris": {"android": "https://dc.lft.to/lastmile_qr_scan", "ios": "https://dc.lft.to/lastmile_qr_scan"}, "type": "electric_scooter"}, {"bike_id": "b2ac2ff5b04b0ea66a000abbd6f41343", "is_reserved": 0, "name": "b2ac2ff5b04b0ea66a000abbd6f41343", "lat": 38.90970466666667, "fusion_lat": 0.0, "lon": -77.03865883333333, "is_disabled": 0, "fusion_lon": 0.0, "rental_uris": {"android": "https://dc.lft.to/lastmile_qr_scan", "ios": "https://dc.lft.to/lastmile_qr_scan"}, "type": "electric_scooter"}, {"bike_id": "9505c064d0d4c78d8eed5e2269e79fed", "is_reserved": 0, "name": "9505c064d0d4c78d8eed5e2269e79fed", "lat": 38.92322716666666, "fusion_lat": 0.0, "lon": -77.026939, "is_disabled": 0, "fusion_lon": 0.0, "rental_uris": {"android": "https://dc.lft.to/lastmile_qr_scan", "ios": "https://dc.lft.to/lastmile_qr_scan"}, "type": "electric_scooter"}, {"bike_id": "4caf49d030af9b0312dce9226531924c", "is_reserved": 0, "name": "4caf49d030af9b0312dce9226531924c", "lat": 38.91839, "fusion_lat": 0.0, "lon": -77.01613616666667, "is_disabled": 0, "fusion_lon": 0.0, "rental_uris": {"android": "https://dc.lft.to/lastmile_qr_scan", "ios": "https://dc.lft.to/lastmile_qr_scan"}, "type": "electric_scooter"}, {"bike_id": "6429315f7031b93042bf7fcca252f624", "is_reserved": 0, "name": "6429315f7031b93042bf7fcca252f624", "lat": 38.874805333333335, "fusion_lat": 0.0, "lon": -77.00853183333334, "is_disabled": 0, "fusion_lon": 0.0, "rental_uris": {"android": "https://dc.lft.to/lastmile_qr_scan", "ios": "https://dc.lft.to/lastmile_qr_scan"}, "type": "electric_scooter"}, {"bike_id": "fa3e107a6c64fecb2a8a28efa8b5aaee", "is_reserved": 0, "name": "fa3e107a6c64fecb2a8a28efa8b5aaee", "lat": 38.9038335, "fusion_lat": 0.0, "lon": -77.03864833333333, "is_disabled": 0, "fusion_lon": 0.0, "rental_uris": {"android": "https://dc.lft.to/lastmile_qr_scan", "ios": "https://dc.lft.to/lastmile_qr_scan"}, "type": "electric_scooter"}, {"bike_id": "e3941126557c420a69d773fbed849af1", "is_reserved": 0, "name": "e3941126557c420a69d773fbed849af1", "lat": 38.920584166666664, "fusion_lat": 0.0, "lon": -77.03207833333333, "is_disabled": 0, "fusion_lon": 0.0, "rental_uris": {"android": "https://dc.lft.to/lastmile_qr_scan", "ios": "https://dc.lft.to/lastmile_qr_scan"}, "type": "electric_scooter"}, {"bike_id": "bdb68b68df369ca0e9be0527e57c8f87", "is_reserved": 0, "name": "bdb68b68df369ca0e9be0527e57c8f87", "lat": 38.91702033333333, "fusion_lat": 0.0, "lon": -77.02437283333333, "is_disabled": 0, "fusion_lon": 0.0, "rental_uris": {"android": "https://dc.lft.to/lastmile_qr_scan", "ios": "https://dc.lft.to/lastmile_qr_scan"}, "type": "electric_scooter"}, {"bike_id": "e285daa1cd7a67485b8882041b128013", "is_reserved": 0, "name": "e285daa1cd7a67485b8882041b128013", "lat": 38.91808566666667, "fusion_lat": 0.0, "lon": -77.02682633333333, "is_disabled": 0, "fusion_lon": 0.0, "rental_uris": {"android": "https://dc.lft.to/lastmile_qr_scan", "ios": "https://dc.lft.to/lastmile_qr_scan"}, "type": "electric_scooter"}, {"bike_id": "a3865457762096c4e1e1046de8caa754", "is_reserved": 0, "name": "a3865457762096c4e1e1046de8caa754", "lat": 38.84924633333333, "fusion_lat": 0.0, "lon": -77.07766766666667, "is_disabled": 0, "fusion_lon": 0.0, "rental_uris": {"android": "https://dc.lft.to/lastmile_qr_scan", "ios": "https://dc.lft.to/lastmile_qr_scan"}, "type": "electric_bike"}, {"bike_id": "c47e3aa5f490064a2b140d55cd4bfc88", "is_reserved": 0, "name": "c47e3aa5f490064a2b140d55cd4bfc88", "lat": 38.89518366666667, "fusion_lat": 0.0, "lon": -77.00361783333334, "is_disabled": 0, "fusion_lon": 0.0, "rental_uris": {"android": "https://dc.lft.to/lastmile_qr_scan", "ios": "https://dc.lft.to/lastmile_qr_scan"}, "type": "electric_scooter"}, {"bike_id": "9d6460748406724bbfdac0e171bf4e62", "is_reserved": 0, "name": "9d6460748406724bbfdac0e171bf4e62", "lat": 38.887342833333335, "fusion_lat": 0.0, "lon": -77.023839, "is_disabled": 0, "fusion_lon": 0.0, "rental_uris": {"android": "https://dc.lft.to/lastmile_qr_scan", "ios": "https://dc.lft.to/lastmile_qr_scan"}, "type": "electric_scooter"}, {"bike_id": "2a1b2f641f5ac43b12182d381beec119", "is_reserved": 0, "name": "2a1b2f641f5ac43b12182d381beec119", "lat": 38.89908666666667, "fusion_lat": 0.0, "lon": -77.03973483333333, "is_disabled": 0, "fusion_lon": 0.0, "rental_uris": {"android": "https://dc.lft.to/lastmile_qr_scan", "ios": "https://dc.lft.to/lastmile_qr_scan"}, "type": "electric_scooter"}, {"bike_id": "f3bd547d1625bc2e94bd298ffb03c3b6", "is_reserved": 0, "name": "f3bd547d1625bc2e94bd298ffb03c3b6", "lat": 38.8945235, "fusion_lat": 0.0, "lon": -76.97804033333334, "is_disabled": 0, "fusion_lon": 0.0, "rental_uris": {"android": "https://dc.lft.to/lastmile_qr_scan", "ios": "https://dc.lft.to/lastmile_qr_scan"}, "type": "electric_scooter"}, {"bike_id": "d23176f4aabf9690bd141b47fa68d4dc", "is_reserved": 0, "name": "d23176f4aabf9690bd141b47fa68d4dc", "lat": 38.928770666666665, "fusion_lat": 0.0, "lon": -77.03268316666667, "is_disabled": 0, "fusion_lon": 0.0, "rental_uris": {"android": "https://dc.lft.to/lastmile_qr_scan", "ios": "https://dc.lft.to/lastmile_qr_scan"}, "type": "electric_scooter"}, {"bike_id": "c5e281697106677264b0db0f7bd87a99", "is_reserved": 0, "name": "c5e281697106677264b0db0f7bd87a99", "lat": 38.902597666666665, "fusion_lat": 0.0, "lon": -77.053212, "is_disabled": 0, "fusion_lon": 0.0, "rental_uris": {"android": "https://dc.lft.to/lastmile_qr_scan", "ios": "https://dc.lft.to/lastmile_qr_scan"}, "type": "electric_scooter"}, {"bike_id": "bb8ea62cd9c816ce4916911e4c73f066", "is_reserved": 0, "name": "bb8ea62cd9c816ce4916911e4c73f066", "lat": 38.905642666666665, "fusion_lat": 0.0, "lon": -77.00598866666667, "is_disabled": 0, "fusion_lon": 0.0, "rental_uris": {"android": "https://dc.lft.to/lastmile_qr_scan", "ios": "https://dc.lft.to/lastmile_qr_scan"}, "type": "electric_scooter"}, {"bike_id": "0a53b60456ad6b7764175fc2d839fee5", "is_reserved": 0, "name": "0a53b60456ad6b7764175fc2d839fee5", "lat": 38.917982, "fusion_lat": 0.0, "lon": -77.02710166666667, "is_disabled": 0, "fusion_lon": 0.0, "rental_uris": {"android": "https://dc.lft.to/lastmile_qr_scan", "ios": "https://dc.lft.to/lastmile_qr_scan"}, "type": "electric_scooter"}, {"bike_id": "a6dfa1ac3e721390567b37a000205021", "is_reserved": 0, "name": "a6dfa1ac3e721390567b37a000205021", "lat": 38.919291, "fusion_lat": 0.0, "lon": -77.0303915, "is_disabled": 0, "fusion_lon": 0.0, "rental_uris": {"android": "https://dc.lft.to/lastmile_qr_scan", "ios": "https://dc.lft.to/lastmile_qr_scan"}, "type": "electric_scooter"}, {"bike_id": "6755eecc2922793a97aec6caa627adf9", "is_reserved": 0, "name": "6755eecc2922793a97aec6caa627adf9", "lat": 38.90200983333333, "fusion_lat": 0.0, "lon": -77.0506835, "is_disabled": 0, "fusion_lon": 0.0, "rental_uris": {"android": "https://dc.lft.to/lastmile_qr_scan", "ios": "https://dc.lft.to/lastmile_qr_scan"}, "type": "electric_scooter"}, {"bike_id": "d66b18f3a1a997d01df332ea4b013418", "is_reserved": 0, "name": "d66b18f3a1a997d01df332ea4b013418", "lat": 38.922400333333336, "fusion_lat": 0.0, "lon": -77.073124, "is_disabled": 0, "fusion_lon": 0.0, "rental_uris": {"android": "https://dc.lft.to/lastmile_qr_scan", "ios": "https://dc.lft.to/lastmile_qr_scan"}, "type": "electric_scooter"}, {"bike_id": "d79273fb0439267e0588ec3dc6af6fab", "is_reserved": 0, "name": "d79273fb0439267e0588ec3dc6af6fab", "lat": 38.916712, "fusion_lat": 0.0, "lon": -77.02400033333333, "is_disabled": 0, "fusion_lon": 0.0, "rental_uris": {"android": "https://dc.lft.to/lastmile_qr_scan", "ios": "https://dc.lft.to/lastmile_qr_scan"}, "type": "electric_scooter"}, {"bike_id": "810dee7d8ed357fb46f07a6a2cef794b", "is_reserved": 0, "name": "810dee7d8ed357fb46f07a6a2cef794b", "lat": 38.9328645, "fusion_lat": 0.0, "lon": -77.04083866666667, "is_disabled": 0, "fusion_lon": 0.0, "rental_uris": {"android": "https://dc.lft.to/lastmile_qr_scan", "ios": "https://dc.lft.to/lastmile_qr_scan"}, "type": "electric_scooter"}, {"bike_id": "9b0f668286e45acc42565f9729fcab56", "is_reserved": 0, "name": "9b0f668286e45acc42565f9729fcab56", "lat": 38.914740333333334, "fusion_lat": 0.0, "lon": -77.03836516666667, "is_disabled": 0, "fusion_lon": 0.0, "rental_uris": {"android": "https://dc.lft.to/lastmile_qr_scan", "ios": "https://dc.lft.to/lastmile_qr_scan"}, "type": "electric_scooter"}, {"bike_id": "796107daf31a051c862a6059460764f5", "is_reserved": 0, "name": "796107daf31a051c862a6059460764f5", "lat": 38.900321, "fusion_lat": 0.0, "lon": -77.035016, "is_disabled": 0, "fusion_lon": 0.0, "rental_uris": {"android": "https://dc.lft.to/lastmile_qr_scan", "ios": "https://dc.lft.to/lastmile_qr_scan"}, "type": "electric_scooter"}, {"bike_id": "a25693cb2ad6767f8a2a1cbc31e2471a", "is_reserved": 0, "name": "a25693cb2ad6767f8a2a1cbc31e2471a", "lat": 38.9072795, "fusion_lat": 0.0, "lon": -77.041518, "is_disabled": 0, "fusion_lon": 0.0, "rental_uris": {"android": "https://dc.lft.to/lastmile_qr_scan", "ios": "https://dc.lft.to/lastmile_qr_scan"}, "type": "electric_scooter"}, {"bike_id": "524290e658e1a0976387fd96bb3cc4c5", "is_reserved": 0, "name": "524290e658e1a0976387fd96bb3cc4c5", "lat": 38.905745833333334, "fusion_lat": 0.0, "lon": -77.02209483333333, "is_disabled": 0, "fusion_lon": 0.0, "rental_uris": {"android": "https://dc.lft.to/lastmile_qr_scan", "ios": "https://dc.lft.to/lastmile_qr_scan"}, "type": "electric_scooter"}, {"bike_id": "12920a466b5f64830c747b72ba332126", "is_reserved": 0, "name": "12920a466b5f64830c747b72ba332126", "lat": 38.902709333333334, "fusion_lat": 0.0, "lon": -77.05313416666667, "is_disabled": 0, "fusion_lon": 0.0, "rental_uris": {"android": "https://dc.lft.to/lastmile_qr_scan", "ios": "https://dc.lft.to/lastmile_qr_scan"}, "type": "electric_scooter"}, {"bike_id": "e9e12fba31108238575a1736eed4e57f", "is_reserved": 0, "name": "e9e12fba31108238575a1736eed4e57f", "lat": 38.902593833333334, "fusion_lat": 0.0, "lon": -77.03422166666667, "is_disabled": 0, "fusion_lon": 0.0, "rental_uris": {"android": "https://dc.lft.to/lastmile_qr_scan", "ios": "https://dc.lft.to/lastmile_qr_scan"}, "type": "electric_scooter"}, {"bike_id": "52f161e238f6042d1ad823ccf9032ab1", "is_reserved": 0, "name": "52f161e238f6042d1ad823ccf9032ab1", "lat": 38.9164315, "fusion_lat": 0.0, "lon": -77.023838, "is_disabled": 0, "fusion_lon": 0.0, "rental_uris": {"android": "https://dc.lft.to/lastmile_qr_scan", "ios": "https://dc.lft.to/lastmile_qr_scan"}, "type": "electric_scooter"}, {"bike_id": "114099b86dbd9c74231a29c7d6132f94", "is_reserved": 0, "name": "114099b86dbd9c74231a29c7d6132f94", "lat": 38.899337, "fusion_lat": 0.0, "lon": -77.0127825, "is_disabled": 0, "fusion_lon": 0.0, "rental_uris": {"android": "https://dc.lft.to/lastmile_qr_scan", "ios": "https://dc.lft.to/lastmile_qr_scan"}, "type": "electric_scooter"}, {"bike_id": "ff0d4eee794da1b5bdd80327741c402f", "is_reserved": 0, "name": "ff0d4eee794da1b5bdd80327741c402f", "lat": 38.89549816666667, "fusion_lat": 0.0, "lon": -77.00919833333333, "is_disabled": 0, "fusion_lon": 0.0, "rental_uris": {"android": "https://dc.lft.to/lastmile_qr_scan", "ios": "https://dc.lft.to/lastmile_qr_scan"}, "type": "electric_scooter"}, {"bike_id": "c739116154d26ab2d2bbf7919339d268", "is_reserved": 0, "name": "c739116154d26ab2d2bbf7919339d268", "lat": 38.957322, "fusion_lat": 0.0, "lon": -77.024041, "is_disabled": 0, "fusion_lon": 0.0, "rental_uris": {"android": "https://dc.lft.to/lastmile_qr_scan", "ios": "https://dc.lft.to/lastmile_qr_scan"}, "type": "electric_scooter"}, {"bike_id": "c7d20a455693dadd2679a2781952b0c8", "is_reserved": 0, "name": "c7d20a455693dadd2679a2781952b0c8", "lat": 38.941922166666664, "fusion_lat": 0.0, "lon": -77.041136, "is_disabled": 0, "fusion_lon": 0.0, "rental_uris": {"android": "https://dc.lft.to/lastmile_qr_scan", "ios": "https://dc.lft.to/lastmile_qr_scan"}, "type": "electric_scooter"}, {"bike_id": "b9acf6472bde235768aaa1c02e4a0258", "is_reserved": 0, "name": "b9acf6472bde235768aaa1c02e4a0258", "lat": 38.89837966666666, "fusion_lat": 0.0, "lon": -77.02194966666667, "is_disabled": 0, "fusion_lon": 0.0, "rental_uris": {"android": "https://dc.lft.to/lastmile_qr_scan", "ios": "https://dc.lft.to/lastmile_qr_scan"}, "type": "electric_scooter"}, {"bike_id": "d55fc31d6e2381bd668b56ee308d314f", "is_reserved": 0, "name": "d55fc31d6e2381bd668b56ee308d314f", "lat": 38.9804645, "fusion_lat": 0.0, "lon": -76.95787733333333, "is_disabled": 0, "fusion_lon": 0.0, "rental_uris": {"android": "https://dc.lft.to/lastmile_qr_scan", "ios": "https://dc.lft.to/lastmile_qr_scan"}, "type": "electric_bike"}, {"bike_id": "9b749f4df8b46d842e953851d4fd7852", "is_reserved": 0, "name": "9b749f4df8b46d842e953851d4fd7852", "lat": 38.91914633333333, "fusion_lat": 0.0, "lon": -77.03254216666667, "is_disabled": 0, "fusion_lon": 0.0, "rental_uris": {"android": "https://dc.lft.to/lastmile_qr_scan", "ios": "https://dc.lft.to/lastmile_qr_scan"}, "type": "electric_scooter"}, {"bike_id": "66f43ec5342b955e2ffc0befe6c865fc", "is_reserved": 0, "name": "66f43ec5342b955e2ffc0befe6c865fc", "lat": 38.91475, "fusion_lat": 0.0, "lon": -77.03873266666666, "is_disabled": 0, "fusion_lon": 0.0, "rental_uris": {"android": "https://dc.lft.to/lastmile_qr_scan", "ios": "https://dc.lft.to/lastmile_qr_scan"}, "type": "electric_scooter"}, {"bike_id": "bf3e58e3ae2f64fd7f05b140aea1d249", "is_reserved": 0, "name": "bf3e58e3ae2f64fd7f05b140aea1d249", "lat": 38.9160405, "fusion_lat": 0.0, "lon": -77.0321375, "is_disabled": 0, "fusion_lon": 0.0, "rental_uris": {"android": "https://dc.lft.to/lastmile_qr_scan", "ios": "https://dc.lft.to/lastmile_qr_scan"}, "type": "electric_scooter"}, {"bike_id": "047ac8cd8547f30d2a998529df025782", "is_reserved": 0, "name": "047ac8cd8547f30d2a998529df025782", "lat": 38.914782, "fusion_lat": 0.0, "lon": -77.04606933333334, "is_disabled": 0, "fusion_lon": 0.0, "rental_uris": {"android": "https://dc.lft.to/lastmile_qr_scan", "ios": "https://dc.lft.to/lastmile_qr_scan"}, "type": "electric_scooter"}, {"bike_id": "c2673c3e274bbe33bfd20944c4bad25b", "is_reserved": 0, "name": "c2673c3e274bbe33bfd20944c4bad25b", "lat": 38.917012666666665, "fusion_lat": 0.0, "lon": -77.02738266666667, "is_disabled": 0, "fusion_lon": 0.0, "rental_uris": {"android": "https://dc.lft.to/lastmile_qr_scan", "ios": "https://dc.lft.to/lastmile_qr_scan"}, "type": "electric_scooter"}, {"bike_id": "468819a55748e4b7c9ac215e7e057cb0", "is_reserved": 0, "name": "468819a55748e4b7c9ac215e7e057cb0", "lat": 38.93249633333333, "fusion_lat": 0.0, "lon": -77.029701, "is_disabled": 0, "fusion_lon": 0.0, "rental_uris": {"android": "https://dc.lft.to/lastmile_qr_scan", "ios": "https://dc.lft.to/lastmile_qr_scan"}, "type": "electric_scooter"}, {"bike_id": "9bd90c0f6455221250c6b5bf9acf5b52", "is_reserved": 0, "name": "9bd90c0f6455221250c6b5bf9acf5b52", "lat": 38.91857066666667, "fusion_lat": 0.0, "lon": -77.0416035, "is_disabled": 0, "fusion_lon": 0.0, "rental_uris": {"android": "https://dc.lft.to/lastmile_qr_scan", "ios": "https://dc.lft.to/lastmile_qr_scan"}, "type": "electric_scooter"}, {"bike_id": "c36c65e90f9a460ae57fd1e2b12acfa0", "is_reserved": 0, "name": "c36c65e90f9a460ae57fd1e2b12acfa0", "lat": 38.88735583333333, "fusion_lat": 0.0, "lon": -77.021212, "is_disabled": 0, "fusion_lon": 0.0, "rental_uris": {"android": "https://dc.lft.to/lastmile_qr_scan", "ios": "https://dc.lft.to/lastmile_qr_scan"}, "type": "electric_scooter"}, {"bike_id": "ffc0ece31098033d8234304cbb9dab52", "is_reserved": 0, "name": "ffc0ece31098033d8234304cbb9dab52", "lat": 38.901324833333334, "fusion_lat": 0.0, "lon": -77.0417655, "is_disabled": 0, "fusion_lon": 0.0, "rental_uris": {"android": "https://dc.lft.to/lastmile_qr_scan", "ios": "https://dc.lft.to/lastmile_qr_scan"}, "type": "electric_scooter"}, {"bike_id": "306aa37faf8672398b3eaabffc55b250", "is_reserved": 0, "name": "306aa37faf8672398b3eaabffc55b250", "lat": 38.898876333333334, "fusion_lat": 0.0, "lon": -77.04454316666667, "is_disabled": 0, "fusion_lon": 0.0, "rental_uris": {"android": "https://dc.lft.to/lastmile_qr_scan", "ios": "https://dc.lft.to/lastmile_qr_scan"}, "type": "electric_scooter"}, {"bike_id": "a1d17988e68929f1efcc65e6e8993a00", "is_reserved": 0, "name": "a1d17988e68929f1efcc65e6e8993a00", "lat": 38.91417166666667, "fusion_lat": 0.0, "lon": -77.0248415, "is_disabled": 0, "fusion_lon": 0.0, "rental_uris": {"android": "https://dc.lft.to/lastmile_qr_scan", "ios": "https://dc.lft.to/lastmile_qr_scan"}, "type": "electric_scooter"}, {"bike_id": "e46f4908c1caa96c44ed835163813708", "is_reserved": 0, "name": "e46f4908c1caa96c44ed835163813708", "lat": 38.92031516666667, "fusion_lat": 0.0, "lon": -76.98995516666666, "is_disabled": 0, "fusion_lon": 0.0, "rental_uris": {"android": "https://dc.lft.to/lastmile_qr_scan", "ios": "https://dc.lft.to/lastmile_qr_scan"}, "type": "electric_scooter"}, {"bike_id": "88d3cf5042a3ccca7afc914578a78572", "is_reserved": 0, "name": "88d3cf5042a3ccca7afc914578a78572", "lat": 38.91693333333333, "fusion_lat": 0.0, "lon": -77.0264605, "is_disabled": 0, "fusion_lon": 0.0, "rental_uris": {"android": "https://dc.lft.to/lastmile_qr_scan", "ios": "https://dc.lft.to/lastmile_qr_scan"}, "type": "electric_scooter"}, {"bike_id": "fa91720a99169e471a99ef65755adac0", "is_reserved": 0, "name": "fa91720a99169e471a99ef65755adac0", "lat": 38.9071205, "fusion_lat": 0.0, "lon": -77.027163, "is_disabled": 0, "fusion_lon": 0.0, "rental_uris": {"android": "https://dc.lft.to/lastmile_qr_scan", "ios": "https://dc.lft.to/lastmile_qr_scan"}, "type": "electric_scooter"}, {"bike_id": "290c103451093ecb86b354ab65d01d0a", "is_reserved": 0, "name": "290c103451093ecb86b354ab65d01d0a", "lat": 38.909555, "fusion_lat": 0.0, "lon": -77.03291, "is_disabled": 0, "fusion_lon": 0.0, "rental_uris": {"android": "https://dc.lft.to/lastmile_qr_scan", "ios": "https://dc.lft.to/lastmile_qr_scan"}, "type": "electric_scooter"}, {"bike_id": "f432748b03ecba75ecf02ef60e414e70", "is_reserved": 0, "name": "f432748b03ecba75ecf02ef60e414e70", "lat": 38.90344483333333, "fusion_lat": 0.0, "lon": -77.034332, "is_disabled": 0, "fusion_lon": 0.0, "rental_uris": {"android": "https://dc.lft.to/lastmile_qr_scan", "ios": "https://dc.lft.to/lastmile_qr_scan"}, "type": "electric_scooter"}, {"bike_id": "40e5ac0acda7872ac0356cf10636d296", "is_reserved": 0, "name": "40e5ac0acda7872ac0356cf10636d296", "lat": 38.897247666666665, "fusion_lat": 0.0, "lon": -77.00209833333334, "is_disabled": 0, "fusion_lon": 0.0, "rental_uris": {"android": "https://dc.lft.to/lastmile_qr_scan", "ios": "https://dc.lft.to/lastmile_qr_scan"}, "type": "electric_scooter"}, {"bike_id": "c6a53568522ab06e01995a50e91f0a23", "is_reserved": 0, "name": "c6a53568522ab06e01995a50e91f0a23", "lat": 38.90564833333333, "fusion_lat": 0.0, "lon": -77.00597066666667, "is_disabled": 0, "fusion_lon": 0.0, "rental_uris": {"android": "https://dc.lft.to/lastmile_qr_scan", "ios": "https://dc.lft.to/lastmile_qr_scan"}, "type": "electric_scooter"}, {"bike_id": "b2d89123aba8f08007fc43a563a8e278", "is_reserved": 0, "name": "b2d89123aba8f08007fc43a563a8e278", "lat": 38.93450216666667, "fusion_lat": 0.0, "lon": -77.03874716666667, "is_disabled": 0, "fusion_lon": 0.0, "rental_uris": {"android": "https://dc.lft.to/lastmile_qr_scan", "ios": "https://dc.lft.to/lastmile_qr_scan"}, "type": "electric_scooter"}, {"bike_id": "9a85b66ec75970d206c7ea75e9a27638", "is_reserved": 0, "name": "9a85b66ec75970d206c7ea75e9a27638", "lat": 38.9285425, "fusion_lat": 0.0, "lon": -77.03280816666667, "is_disabled": 0, "fusion_lon": 0.0, "rental_uris": {"android": "https://dc.lft.to/lastmile_qr_scan", "ios": "https://dc.lft.to/lastmile_qr_scan"}, "type": "electric_scooter"}, {"bike_id": "9a0089328ca50a52edbe959a9391de30", "is_reserved": 0, "name": "9a0089328ca50a52edbe959a9391de30", "lat": 38.962318833333335, "fusion_lat": 0.0, "lon": -76.92793783333333, "is_disabled": 0, "fusion_lon": 0.0, "rental_uris": {"android": "https://dc.lft.to/lastmile_qr_scan", "ios": "https://dc.lft.to/lastmile_qr_scan"}, "type": "electric_bike"}, {"bike_id": "f83b4bc15d0b4685f6394490e45cefc2", "is_reserved": 0, "name": "f83b4bc15d0b4685f6394490e45cefc2", "lat": 38.892230833333336, "fusion_lat": 0.0, "lon": -77.0450225, "is_disabled": 0, "fusion_lon": 0.0, "rental_uris": {"android": "https://dc.lft.to/lastmile_qr_scan", "ios": "https://dc.lft.to/lastmile_qr_scan"}, "type": "electric_scooter"}, {"bike_id": "7d1011df4900bd3eb068bb521a4b1f3c", "is_reserved": 0, "name": "7d1011df4900bd3eb068bb521a4b1f3c", "lat": 38.89728083333333, "fusion_lat": 0.0, "lon": -77.01866366666667, "is_disabled": 0, "fusion_lon": 0.0, "rental_uris": {"android": "https://dc.lft.to/lastmile_qr_scan", "ios": "https://dc.lft.to/lastmile_qr_scan"}, "type": "electric_scooter"}, {"bike_id": "a2094979da4926a4a05f4b96241742eb", "is_reserved": 0, "name": "a2094979da4926a4a05f4b96241742eb", "lat": 38.900321166666664, "fusion_lat": 0.0, "lon": -76.9913345, "is_disabled": 0, "fusion_lon": 0.0, "rental_uris": {"android": "https://dc.lft.to/lastmile_qr_scan", "ios": "https://dc.lft.to/lastmile_qr_scan"}, "type": "electric_scooter"}, {"bike_id": "73a927a17776916e80344919fe1ade4c", "is_reserved": 0, "name": "73a927a17776916e80344919fe1ade4c", "lat": 38.9027175, "fusion_lat": 0.0, "lon": -77.03852216666667, "is_disabled": 0, "fusion_lon": 0.0, "rental_uris": {"android": "https://dc.lft.to/lastmile_qr_scan", "ios": "https://dc.lft.to/lastmile_qr_scan"}, "type": "electric_scooter"}, {"bike_id": "e2bc771bca352e421b464415c939bb78", "is_reserved": 0, "name": "e2bc771bca352e421b464415c939bb78", "lat": 38.90850283333333, "fusion_lat": 0.0, "lon": -77.04411733333333, "is_disabled": 0, "fusion_lon": 0.0, "rental_uris": {"android": "https://dc.lft.to/lastmile_qr_scan", "ios": "https://dc.lft.to/lastmile_qr_scan"}, "type": "electric_bike"}, {"bike_id": "bfa953d32a0c65d28037e62817b3effa", "is_reserved": 0, "name": "bfa953d32a0c65d28037e62817b3effa", "lat": 38.88746483333333, "fusion_lat": 0.0, "lon": -77.0177985, "is_disabled": 0, "fusion_lon": 0.0, "rental_uris": {"android": "https://dc.lft.to/lastmile_qr_scan", "ios": "https://dc.lft.to/lastmile_qr_scan"}, "type": "electric_scooter"}, {"bike_id": "2617871b0c63e11b004cb0e93e68e7cb", "is_reserved": 0, "name": "2617871b0c63e11b004cb0e93e68e7cb", "lat": 38.940214, "fusion_lat": 0.0, "lon": -77.025559, "is_disabled": 0, "fusion_lon": 0.0, "rental_uris": {"android": "https://dc.lft.to/lastmile_qr_scan", "ios": "https://dc.lft.to/lastmile_qr_scan"}, "type": "electric_scooter"}, {"bike_id": "8f73c014fa3817003fa741b7057a51b6", "is_reserved": 0, "name": "8f73c014fa3817003fa741b7057a51b6", "lat": 38.90949766666667, "fusion_lat": 0.0, "lon": -77.02713233333333, "is_disabled": 0, "fusion_lon": 0.0, "rental_uris": {"android": "https://dc.lft.to/lastmile_qr_scan", "ios": "https://dc.lft.to/lastmile_qr_scan"}, "type": "electric_scooter"}, {"bike_id": "ae3b848d98e71514be69e91ffc982aa9", "is_reserved": 0, "name": "ae3b848d98e71514be69e91ffc982aa9", "lat": 38.9467605, "fusion_lat": 0.0, "lon": -76.9566865, "is_disabled": 0, "fusion_lon": 0.0, "rental_uris": {"android": "https://dc.lft.to/lastmile_qr_scan", "ios": "https://dc.lft.to/lastmile_qr_scan"}, "type": "electric_bike"}, {"bike_id": "22b4e39f92fc1d3b33f578736fc064b1", "is_reserved": 0, "name": "22b4e39f92fc1d3b33f578736fc064b1", "lat": 38.91758166666666, "fusion_lat": 0.0, "lon": -77.022946, "is_disabled": 0, "fusion_lon": 0.0, "rental_uris": {"android": "https://dc.lft.to/lastmile_qr_scan", "ios": "https://dc.lft.to/lastmile_qr_scan"}, "type": "electric_scooter"}, {"bike_id": "9bb022eecfc97b04a178daac18efcb00", "is_reserved": 0, "name": "9bb022eecfc97b04a178daac18efcb00", "lat": 38.92316266666667, "fusion_lat": 0.0, "lon": -77.04346016666666, "is_disabled": 0, "fusion_lon": 0.0, "rental_uris": {"android": "https://dc.lft.to/lastmile_qr_scan", "ios": "https://dc.lft.to/lastmile_qr_scan"}, "type": "electric_scooter"}, {"bike_id": "8ff539693f8ffbabe65e9e807a269718", "is_reserved": 0, "name": "8ff539693f8ffbabe65e9e807a269718", "lat": 38.92863216666667, "fusion_lat": 0.0, "lon": -77.0323575, "is_disabled": 0, "fusion_lon": 0.0, "rental_uris": {"android": "https://dc.lft.to/lastmile_qr_scan", "ios": "https://dc.lft.to/lastmile_qr_scan"}, "type": "electric_scooter"}, {"bike_id": "190a5b8ed3f406ed231ed5a2cb1f0da2", "is_reserved": 0, "name": "190a5b8ed3f406ed231ed5a2cb1f0da2", "lat": 38.8606425, "fusion_lat": 0.0, "lon": -76.96710633333333, "is_disabled": 0, "fusion_lon": 0.0, "rental_uris": {"android": "https://dc.lft.to/lastmile_qr_scan", "ios": "https://dc.lft.to/lastmile_qr_scan"}, "type": "electric_scooter"}, {"bike_id": "805db3eded330bb753062d3b073f3652", "is_reserved": 0, "name": "805db3eded330bb753062d3b073f3652", "lat": 38.90251266666667, "fusion_lat": 0.0, "lon": -77.03272916666667, "is_disabled": 0, "fusion_lon": 0.0, "rental_uris": {"android": "https://dc.lft.to/lastmile_qr_scan", "ios": "https://dc.lft.to/lastmile_qr_scan"}, "type": "electric_scooter"}, {"bike_id": "255198a4ce1d46c7a1a767521e071383", "is_reserved": 0, "name": "255198a4ce1d46c7a1a767521e071383", "lat": 38.8872545, "fusion_lat": 0.0, "lon": -77.0258305, "is_disabled": 0, "fusion_lon": 0.0, "rental_uris": {"android": "https://dc.lft.to/lastmile_qr_scan", "ios": "https://dc.lft.to/lastmile_qr_scan"}, "type": "electric_scooter"}, {"bike_id": "989b6313f7bf2802b573d59e9f97c9e3", "is_reserved": 0, "name": "989b6313f7bf2802b573d59e9f97c9e3", "lat": 38.868878, "fusion_lat": 0.0, "lon": -76.99002666666667, "is_disabled": 0, "fusion_lon": 0.0, "rental_uris": {"android": "https://dc.lft.to/lastmile_qr_scan", "ios": "https://dc.lft.to/lastmile_qr_scan"}, "type": "electric_scooter"}, {"bike_id": "c9b96bc12cd1a627c27d74e0d1b8c015", "is_reserved": 0, "name": "c9b96bc12cd1a627c27d74e0d1b8c015", "lat": 39.034159333333335, "fusion_lat": 0.0, "lon": -77.04297083333333, "is_disabled": 0, "fusion_lon": 0.0, "rental_uris": {"android": "https://dc.lft.to/lastmile_qr_scan", "ios": "https://dc.lft.to/lastmile_qr_scan"}, "type": "electric_bike"}, {"bike_id": "d43923322bf2855702f1320fd6c2feb1", "is_reserved": 0, "name": "d43923322bf2855702f1320fd6c2feb1", "lat": 38.911236333333335, "fusion_lat": 0.0, "lon": -77.02197883333334, "is_disabled": 0, "fusion_lon": 0.0, "rental_uris": {"android": "https://dc.lft.to/lastmile_qr_scan", "ios": "https://dc.lft.to/lastmile_qr_scan"}, "type": "electric_scooter"}, {"bike_id": "5c0a5a471886850810dab6f08c1bcc38", "is_reserved": 0, "name": "5c0a5a471886850810dab6f08c1bcc38", "lat": 38.853608, "fusion_lat": 0.0, "lon": -77.11502566666667, "is_disabled": 0, "fusion_lon": 0.0, "rental_uris": {"android": "https://dc.lft.to/lastmile_qr_scan", "ios": "https://dc.lft.to/lastmile_qr_scan"}, "type": "electric_bike"}, {"bike_id": "7ae84d65d9fa048c5664fecd77238ee9", "is_reserved": 0, "name": "7ae84d65d9fa048c5664fecd77238ee9", "lat": 38.900135166666665, "fusion_lat": 0.0, "lon": -77.01180866666667, "is_disabled": 0, "fusion_lon": 0.0, "rental_uris": {"android": "https://dc.lft.to/lastmile_qr_scan", "ios": "https://dc.lft.to/lastmile_qr_scan"}, "type": "electric_scooter"}, {"bike_id": "63a0404d25a24ec6b69c3fe784054f88", "is_reserved": 0, "name": "63a0404d25a24ec6b69c3fe784054f88", "lat": 38.873786, "fusion_lat": 0.0, "lon": -77.00038366666666, "is_disabled": 0, "fusion_lon": 0.0, "rental_uris": {"android": "https://dc.lft.to/lastmile_qr_scan", "ios": "https://dc.lft.to/lastmile_qr_scan"}, "type": "electric_scooter"},