{"data": {"bikes": [{"bike_id": "b4e09eb9384a38c55b7c562d1e56132b", "type": "electric_bike", "is_disabled": 0, "lat": 38.87103666666667, "rental_uris": {"ios": "https://dc.lft.to/lastmile_qr_scan", "android": "https://dc.lft.to/lastmile_qr_scan"}, "is_reserved": 0, "fusion_lon": 0.0, "fusion_lat": 0.0, "lon": -77.012157, "name": "b4e09eb9384a38c55b7c562d1e56132b"}, {"bike_id": "ef11d16f787f973927cff3d461f3cd3c", "type": "electric_scooter", "is_disabled": 0, "lat": 38.90235716666667, "rental_uris": {"ios": "https://dc.lft.to/lastmile_qr_scan", "android": "https://dc.lft.to/lastmile_qr_scan"}, "is_reserved": 0, "fusion_lon": 0.0, "fusion_lat": 0.0, "lon": -77.0020715, "name": "ef11d16f787f973927cff3d461f3cd3c"}, {"bike_id": "d4944cd0fde866de426459f0ff4d022c", "type": "electric_scooter", "is_disabled": 0, "lat": 38.9072105, "rental_uris": {"ios": "https://dc.lft.to/lastmile_qr_scan", "android": "https://dc.lft.to/lastmile_qr_scan"}, "is_reserved": 0, "fusion_lon": 0.0, "fusion_lat": 0.0, "lon": -77.04201266666666, "name": "d4944cd0fde866de426459f0ff4d022c"}, {"bike_id": "669b7c040d1889b95d4ebf7773bf6788", "type": "electric_bike", "is_disabled": 0, "lat": 38.95783683333333, "rental_uris": {"ios": "https://dc.lft.to/lastmile_qr_scan", "android": "https://dc.lft.to/lastmile_qr_scan"}, "is_reserved": 0, "fusion_lon": 0.0, "fusion_lat": 0.0, "lon": -77.02003983333333, "name": "669b7c040d1889b95d4ebf7773bf6788"}, {"bike_id": "56af39478b269fadedc607e0e562064e", "type": "electric_scooter", "is_disabled": 0, "lat": 38.90676033333333, "rental_uris": {"ios": "https://dc.lft.to/lastmile_qr_scan", "android": "https://dc.lft.to/lastmile_qr_scan"}, "is_reserved": 0, "fusion_lon": 0.0, "fusion_lat": 0.0, "lon": -77.03828016666667, "name": "56af39478b269fadedc607e0e562064e"}, {"bike_id": "698ccc2bc0bd657cf3d096048f9dd902", "type": "electric_scooter", "is_disabled": 0, "lat": 38.945566166666666, "rental_uris": {"ios": "https://dc.lft.to/lastmile_qr_scan", "android": "https://dc.lft.to/lastmile_qr_scan"}, "is_reserved": 0, "fusion_lon": 0.0, "fusion_lat": 0.0, "lon": -77.071259, "name": "698ccc2bc0bd657cf3d096048f9dd902"}, {"bike_id": "a128d5abb3420b65484f018283a96376", "type": "electric_scooter", "is_disabled": 0, "lat": 38.9041065, "rental_uris": {"ios": "https://dc.lft.to/lastmile_qr_scan", "android": "https://dc.lft.to/lastmile_qr_scan"}, "is_reserved": 0, "fusion_lon": 0.0, "fusion_lat": 0.0, "lon": -76.97333216666667, "name": "a128d5abb3420b65484f018283a96376"}, {"bike_id": "b3aace65b47459f5aa57cd791c81376a", "type": "electric_scooter", "is_disabled": 0, "lat": 38.8844905, "rental_uris": {"ios": "https://dc.lft.to/lastmile_qr_scan", "android": "https://dc.lft.to/lastmile_qr_scan"}, "is_reserved": 0, "fusion_lon": 0.0, "fusion_lat": 0.0, "lon": -76.95100216666667, "name": "b3aace65b47459f5aa57cd791c81376a"}, {"bike_id": "b0d484c690673301bd1ca0ca4e2b6ea2", "type": "electric_scooter", "is_disabled": 0, "lat": 38.90577, "rental_uris": {"ios": "https://dc.lft.to/lastmile_qr_scan", "android": "https://dc.lft.to/lastmile_qr_scan"}, "is_reserved": 0, "fusion_lon": 0.0, "fusion_lat": 0.0, "lon": -77.00625533333333, "name": "b0d484c690673301bd1ca0ca4e2b6ea2"}, {"bike_id": "4b4a665b6a6b20a0b871a78bcf67a669", "type": "electric_scooter", "is_disabled": 0, "lat": 38.91536266666667, "rental_uris": {"ios": "https://dc.lft.to/lastmile_qr_scan", "android": "https://dc.lft.to/lastmile_qr_scan"}, "is_reserved": 0, "fusion_lon": 0.0, "fusion_lat": 0.0, "lon": -77.03218933333333, "name": "4b4a665b6a6b20a0b871a78bcf67a669"}, {"bike_id": "5ab6d48ba28d40040dc87c548d455f84", "type": "electric_scooter", "is_disabled": 0, "lat": 38.919193, "rental_uris": {"ios": "https://dc.lft.to/lastmile_qr_scan", "android": "https://dc.lft.to/lastmile_qr_scan"}, "is_reserved": 0, "fusion_lon": 0.0, "fusion_lat": 0.0, "lon": -77.04181366666667, "name": "5ab6d48ba28d40040dc87c548d455f84"}, {"bike_id": "41259bfc2988cd92feab1596131868c9", "type": "electric_scooter", "is_disabled": 0, "lat": 38.89970366666667, "rental_uris": {"ios": "https://dc.lft.to/lastmile_qr_scan", "android": "https://dc.lft.to/lastmile_qr_scan"}, "is_reserved": 0, "fusion_lon": 0.0, "fusion_lat": 0.0, "lon": -76.98299533333333, "name": "41259bfc2988cd92feab1596131868c9"}, {"bike_id": "20f977519e4ca6ef451275e36cbc2220", "type": "electric_scooter", "is_disabled": 0, "lat": 38.904880166666665, "rental_uris": {"ios": "https://dc.lft.to/lastmile_qr_scan", "android": "https://dc.lft.to/lastmile_qr_scan"}, "is_reserved": 0, "fusion_lon": 0.0, "fusion_lat": 0.0, "lon": -76.98975066666667, "name": "20f977519e4ca6ef451275e36cbc2220"}, {"bike_id": "9f8d4e7d7ef574956876bf8f82c2086f", "type": "electric_bike", "is_disabled": 0, "lat": 38.85892066666667, "rental_uris": {"ios": "https://dc.lft.to/lastmile_qr_scan", "android": "https://dc.lft.to/lastmile_qr_scan"}, "is_reserved": 0, "fusion_lon": 0.0, "fusion_lat": 0.0, "lon": -77.11870583333334, "name": "9f8d4e7d7ef574956876bf8f82c2086f"}, {"bike_id": "266e861b4c82b54a3718e5e8c80ad009", "type": "electric_scooter", "is_disabled": 0, "lat": 38.91817983333333, "rental_uris": {"ios": "https://dc.lft.to/lastmile_qr_scan", "android": "https://dc.lft.to/lastmile_qr_scan"}, "is_reserved": 0, "fusion_lon": 0.0, "fusion_lat": 0.0, "lon": -77.04006383333333, "name": "266e861b4c82b54a3718e5e8c80ad009"}, {"bike_id": "768cf143af1399d79cb11646a3ba07e6", "type": "electric_scooter", "is_disabled": 0, "lat": 38.917057166666666, "rental_uris": {"ios": "https://dc.lft.to/lastmile_qr_scan", "android": "https://dc.lft.to/lastmile_qr_scan"}, "is_reserved": 0, "fusion_lon": 0.0, "fusion_lat": 0.0, "lon": -77.09582616666667, "name": "768cf143af1399d79cb11646a3ba07e6"}, {"bike_id": "102a93f8cb46c7db7db1caaafb7d9833", "type": "electric_scooter", "is_disabled": 0, "lat": 38.91034166666667, "rental_uris": {"ios": "https://dc.lft.to/lastmile_qr_scan", "android": "https://dc.lft.to/lastmile_qr_scan"}, "is_reserved": 0, "fusion_lon": 0.0, "fusion_lat": 0.0, "lon": -77.0384075, "name": "102a93f8cb46c7db7db1caaafb7d9833"}, {"bike_id": "88e7a83b258141119625cbe7d75c4cac", "type": "electric_bike", "is_disabled": 0, "lat": 38.9489395, "rental_uris": {"ios": "https://dc.lft.to/lastmile_qr_scan", "android": "https://dc.lft.to/lastmile_qr_scan"}, "is_reserved": 0, "fusion_lon": 0.0, "fusion_lat": 0.0, "lon": -76.96381066666666, "name": "88e7a83b258141119625cbe7d75c4cac"}, {"bike_id": "7186fd5f18b54501f49d677fd17bbb00", "type": "electric_scooter", "is_disabled": 0, "lat": 38.90649666666667, "rental_uris": {"ios": "https://dc.lft.to/lastmile_qr_scan", "android": "https://dc.lft.to/lastmile_qr_scan"}, "is_reserved": 0, "fusion_lon": 0.0, "fusion_lat": 0.0, "lon": -77.025049, "name": "7186fd5f18b54501f49d677fd17bbb00"}, {"bike_id": "983b1fc35d096b6598037f0c62609396", "type": "electric_scooter", "is_disabled": 0, "lat": 38.92320466666666, "rental_uris": {"ios": "https://dc.lft.to/lastmile_qr_scan", "android": "https://dc.lft.to/lastmile_qr_scan"}, "is_reserved": 0, "fusion_lon": 0.0, "fusion_lat": 0.0, "lon": -77.02142233333333, "name": "983b1fc35d096b6598037f0c62609396"}, {"bike_id": "2498c8db415a8a6e856baaae89293c01", "type": "electric_scooter", "is_disabled": 0, "lat": 38.92384783333333, "rental_uris": {"ios": "https://dc.lft.to/lastmile_qr_scan", "android": "https://dc.lft.to/lastmile_qr_scan"}, "is_reserved": 0, "fusion_lon": 0.0, "fusion_lat": 0.0, "lon": -77.0447395, "name": "2498c8db415a8a6e856baaae89293c01"}, {"bike_id": "6895e0fc31775b44dc2dfc571eff4297", "type": "electric_scooter", "is_disabled": 0, "lat": 38.9219005, "rental_uris": {"ios": "https://dc.lft.to/lastmile_qr_scan", "android": "https://dc.lft.to/lastmile_qr_scan"}, "is_reserved": 0, "fusion_lon": 0.0, "fusion_lat": 0.0, "lon": -77.024097, "name": "6895e0fc31775b44dc2dfc571eff4297"}, {"bike_id": "fbefd4805b824a5a3e8329ec82ad620c", "type": "electric_scooter", "is_disabled": 0, "lat": 38.93913633333333, "rental_uris": {"ios": "https://dc.lft.to/lastmile_qr_scan", "android": "https://dc.lft.to/lastmile_qr_scan"}, "is_reserved": 0, "fusion_lon": 0.0, "fusion_lat": 0.0, "lon": -77.03263766666667, "name": "fbefd4805b824a5a3e8329ec82ad620c"}, {"bike_id": "ebc62021565d1d0f4647b10d4a3fa7cf", "type": "electric_scooter", "is_disabled": 0, "lat": 38.922815666666665, "rental_uris": {"ios": "https://dc.lft.to/lastmile_qr_scan", "android": "https://dc.lft.to/lastmile_qr_scan"}, "is_reserved": 0, "fusion_lon": 0.0, "fusion_lat": 0.0, "lon": -76.9944965, "name": "ebc62021565d1d0f4647b10d4a3fa7cf"}, {"bike_id": "6aad0997bb2df9e4efd84f9d918e2214", "type": "electric_scooter", "is_disabled": 0, "lat": 38.95733583333333, "rental_uris": {"ios": "https://dc.lft.to/lastmile_qr_scan", "android": "https://dc.lft.to/lastmile_qr_scan"}, "is_reserved": 0, "fusion_lon": 0.0, "fusion_lat": 0.0, "lon": -77.02407333333333, "name": "6aad0997bb2df9e4efd84f9d918e2214"}, {"bike_id": "61d6b3674a4192e57cacdb315edbe56a", "type": "electric_scooter", "is_disabled": 0, "lat": 38.927716333333336, "rental_uris": {"ios": "https://dc.lft.to/lastmile_qr_scan", "android": "https://dc.lft.to/lastmile_qr_scan"}, "is_reserved": 0, "fusion_lon": 0.0, "fusion_lat": 0.0, "lon": -76.987579, "name": "61d6b3674a4192e57cacdb315edbe56a"}, {"bike_id": "906681b9a8679ec67eb3e1dda0c9dd33", "type": "electric_scooter", "is_disabled": 0, "lat": 38.920276666666666, "rental_uris": {"ios": "https://dc.lft.to/lastmile_qr_scan", "android": "https://dc.lft.to/lastmile_qr_scan"}, "is_reserved": 0, "fusion_lon": 0.0, "fusion_lat": 0.0, "lon": -76.99565333333334, "name": "906681b9a8679ec67eb3e1dda0c9dd33"}, {"bike_id": "4890eedd54df8c18f8f4b85fdeb7871d", "type": "electric_scooter", "is_disabled": 0, "lat": 38.86686183333333, "rental_uris": {"ios": "https://dc.lft.to/lastmile_qr_scan", "android": "https://dc.lft.to/lastmile_qr_scan"}, "is_reserved": 0, "fusion_lon": 0.0, "fusion_lat": 0.0, "lon": -76.98589366666667, "name": "4890eedd54df8c18f8f4b85fdeb7871d"}, {"bike_id": "7ce0c978d9a23417c69a97981e7a747e", "type": "electric_scooter", "is_disabled": 0, "lat": 38.91417533333333, "rental_uris": {"ios": "https://dc.lft.to/lastmile_qr_scan", "android": "https://dc.lft.to/lastmile_qr_scan"}, "is_reserved": 0, "fusion_lon": 0.0, "fusion_lat": 0.0, "lon": -77.0481575, "name": "7ce0c978d9a23417c69a97981e7a747e"}, {"bike_id": "dd17f7baf5a7313f0e572157acb72f88", "type": "electric_scooter", "is_disabled": 0, "lat": 38.92150816666667, "rental_uris": {"ios": "https://dc.lft.to/lastmile_qr_scan", "android": "https://dc.lft.to/lastmile_qr_scan"}, "is_reserved": 0, "fusion_lon": 0.0, "fusion_lat": 0.0, "lon": -77.03535466666666, "name": "dd17f7baf5a7313f0e572157acb72f88"}, {"bike_id": "e33c5675a09ce48e12f4fd14d35df595", "type": "electric_scooter", "is_disabled": 0, "lat": 38.9478855, "rental_uris": {"ios": "https://dc.lft.to/lastmile_qr_scan", "android": "https://dc.lft.to/lastmile_qr_scan"}, "is_reserved": 0, "fusion_lon": 0.0, "fusion_lat": 0.0, "lon": -77.02134583333333, "name": "e33c5675a09ce48e12f4fd14d35df595"}, {"bike_id": "cb9ed20ffa12c83e88a852952820a3ef", "type": "electric_scooter", "is_disabled": 0, "lat": 38.9137125, "rental_uris": {"ios": "https://dc.lft.to/lastmile_qr_scan", "android": "https://dc.lft.to/lastmile_qr_scan"}, "is_reserved": 0, "fusion_lon": 0.0, "fusion_lat": 0.0, "lon": -77.07267833333333, "name": "cb9ed20ffa12c83e88a852952820a3ef"}, {"bike_id": "14d49fea9fb638c7ccae49f26cd2aefc", "type": "electric_scooter", "is_disabled": 0, "lat": 38.86981516666667, "rental_uris": {"ios": "https://dc.lft.to/lastmile_qr_scan", "android": "https://dc.lft.to/lastmile_qr_scan"}, "is_reserved": 0, "fusion_lon": 0.0, "fusion_lat": 0.0, "lon": -76.98177516666667, "name": "14d49fea9fb638c7ccae49f26cd2aefc"}, {"bike_id": "ffca2ba710048c6e0c8d367f7b90406c", "type": "electric_bike", "is_disabled": 0, "lat": 38.910156, "rental_uris": {"ios": "https://dc.lft.to/lastmile_qr_scan", "android": "https://dc.lft.to/lastmile_qr_scan"}, "is_reserved": 0, "fusion_lon": 0.0, "fusion_lat": 0.0, "lon": -77.22813633333334, "name": "ffca2ba710048c6e0c8d367f7b90406c"}, {"bike_id": "e8a00f7c3e20879fa6eb65755ff99342", "type": "electric_scooter", "is_disabled": 0, "lat": 38.8821905, "rental_uris": {"ios": "https://dc.lft.to/lastmile_qr_scan", "android": "https://dc.lft.to/lastmile_qr_scan"}, "is_reserved": 0, "fusion_lon": 0.0, "fusion_lat": 0.0, "lon": -76.92672233333333, "name": "e8a00f7c3e20879fa6eb65755ff99342"}, {"bike_id": "12c19aebf43919b1ecad88cecc0de900", "type": "electric_scooter", "is_disabled": 0, "lat": 38.935307, "rental_uris": {"ios": "https://dc.lft.to/lastmile_qr_scan", "android": "https://dc.lft.to/lastmile_qr_scan"}, "is_reserved": 0, "fusion_lon": 0.0, "fusion_lat": 0.0, "lon": -77.02358416666667, "name": "12c19aebf43919b1ecad88cecc0de900"}, {"bike_id": "7d117add9f271c79caeaf54af70d8ad5", "type": "electric_scooter", "is_disabled": 0, "lat": 38.9282305, "rental_uris": {"ios": "https://dc.lft.to/lastmile_qr_scan", "android": "https://dc.lft.to/lastmile_qr_scan"}, "is_reserved": 0, "fusion_lon": 0.0, "fusion_lat": 0.0, "lon": -77.00605933333334, "name": "7d117add9f271c79caeaf54af70d8ad5"}, {"bike_id": "899acd560948657b15fae69731d03252", "type": "electric_scooter", "is_disabled": 0, "lat": 38.92191716666667, "rental_uris": {"ios": "https://dc.lft.to/lastmile_qr_scan", "android": "https://dc.lft.to/lastmile_qr_scan"}, "is_reserved": 0, "fusion_lon": 0.0, "fusion_lat": 0.0, "lon": -77.042458, "name": "899acd560948657b15fae69731d03252"}, {"bike_id": "e0d6a9f3987bae9051bb90f36582037f", "type": "electric_bike", "is_disabled": 0, "lat": 38.91363783333333, "rental_uris": {"ios": "https://dc.lft.to/lastmile_qr_scan", "android": "https://dc.lft.to/lastmile_qr_scan"}, "is_reserved": 0, "fusion_lon": 0.0, "fusion_lat": 0.0, "lon": -76.98546966666666, "name": "e0d6a9f3987bae9051bb90f36582037f"}, {"bike_id": "8c5ac55f51914cca78d5aa6a0e5a822b", "type": "electric_scooter", "is_disabled": 0, "lat": 38.905576333333336, "rental_uris": {"ios": "https://dc.lft.to/lastmile_qr_scan", "android": "https://dc.lft.to/lastmile_qr_scan"}, "is_reserved": 0, "fusion_lon": 0.0, "fusion_lat": 0.0, "lon": -77.03825716666667, "name": "8c5ac55f51914cca78d5aa6a0e5a822b"}, {"bike_id": "a9b16dbc88bc81fae812b033799b1aab", "type": "electric_scooter", "is_disabled": 0, "lat": 38.9052845, "rental_uris": {"ios": "https://dc.lft.to/lastmile_qr_scan", "android": "https://dc.lft.to/lastmile_qr_scan"}, "is_reserved": 0, "fusion_lon": 0.0, "fusion_lat": 0.0, "lon": -77.04182866666666, "name": "a9b16dbc88bc81fae812b033799b1aab"}, {"bike_id": "3c13199c037d86c6f85ec12a12cde6eb", "type": "electric_bike", "is_disabled": 0, "lat": 38.8805805, "rental_uris": {"ios": "https://dc.lft.to/lastmile_qr_scan", "android": "https://dc.lft.to/lastmile_qr_scan"}, "is_reserved": 0, "fusion_lon": 0.0, "fusion_lat": 0.0, "lon": -76.96244883333334, "name": "3c13199c037d86c6f85ec12a12cde6eb"}, {"bike_id": "addfb437721b65618ed46a751289b6dc", "type": "electric_scooter", "is_disabled": 0, "lat": 38.9228665, "rental_uris": {"ios": "https://dc.lft.to/lastmile_qr_scan", "android": "https://dc.lft.to/lastmile_qr_scan"}, "is_reserved": 0, "fusion_lon": 0.0, "fusion_lat": 0.0, "lon": -77.04286816666666, "name": "addfb437721b65618ed46a751289b6dc"}, {"bike_id": "8565e535027c6c06c724f8e06ed4cbe4", "type": "electric_scooter", "is_disabled": 0, "lat": 38.956537833333336, "rental_uris": {"ios": "https://dc.lft.to/lastmile_qr_scan", "android": "https://dc.lft.to/lastmile_qr_scan"}, "is_reserved": 0, "fusion_lon": 0.0, "fusion_lat": 0.0, "lon": -77.01317066666667, "name": "8565e535027c6c06c724f8e06ed4cbe4"}, {"bike_id": "68823c1ffcb424d11bda01a4531c7320", "type": "electric_scooter", "is_disabled": 0, "lat": 38.9285325, "rental_uris": {"ios": "https://dc.lft.to/lastmile_qr_scan", "android": "https://dc.lft.to/lastmile_qr_scan"}, "is_reserved": 0, "fusion_lon": 0.0, "fusion_lat": 0.0, "lon": -77.01952266666666, "name": "68823c1ffcb424d11bda01a4531c7320"}, {"bike_id": "7a055578c821a4e3e101b642db517dd3", "type": "electric_scooter", "is_disabled": 0, "lat": 38.90744516666667, "rental_uris": {"ios": "https://dc.lft.to/lastmile_qr_scan", "android": "https://dc.lft.to/lastmile_qr_scan"}, "is_reserved": 0, "fusion_lon": 0.0, "fusion_lat": 0.0, "lon": -77.00078983333333, "name": "7a055578c821a4e3e101b642db517dd3"}, {"bike_id": "d30e905f802f29c45d2c21f771000a78", "type": "electric_scooter", "is_disabled": 0, "lat": 38.866812833333334, "rental_uris": {"ios": "https://dc.lft.to/lastmile_qr_scan", "android": "https://dc.lft.to/lastmile_qr_scan"}, "is_reserved": 0, "fusion_lon": 0.0, "fusion_lat": 0.0, "lon": -76.98580066666666, "name": "d30e905f802f29c45d2c21f771000a78"}, {"bike_id": "9df4ace972923ee2f7b8787560db74bc", "type": "electric_scooter", "is_disabled": 0, "lat": 38.91074066666667, "rental_uris": {"ios": "https://dc.lft.to/lastmile_qr_scan", "android": "https://dc.lft.to/lastmile_qr_scan"}, "is_reserved": 0, "fusion_lon": 0.0, "fusion_lat": 0.0, "lon": -77.03859233333333, "name": "9df4ace972923ee2f7b8787560db74bc"}, {"bike_id": "5711f130f0ff7eb0257648c7d34f9e5f", "type": "electric_scooter", "is_disabled": 0, "lat": 38.91698866666667, "rental_uris": {"ios": "https://dc.lft.to/lastmile_qr_scan", "android": "https://dc.lft.to/lastmile_qr_scan"}, "is_reserved": 0, "fusion_lon": 0.0, "fusion_lat": 0.0, "lon": -77.0315695, "name": "5711f130f0ff7eb0257648c7d34f9e5f"}, {"bike_id": "04e4413ccdb007f76870b56cfc2ccb60", "type": "electric_scooter", "is_disabled": 0, "lat": 38.924732166666665, "rental_uris": {"ios": "https://dc.lft.to/lastmile_qr_scan", "android": "https://dc.lft.to/lastmile_qr_scan"}, "is_reserved": 0, "fusion_lon": 0.0, "fusion_lat": 0.0, "lon": -77.05220616666666, "name": "04e4413ccdb007f76870b56cfc2ccb60"}, {"bike_id": "db762e24b9c51e85196c381fefbf45b4", "type": "electric_scooter", "is_disabled": 0, "lat": 38.873806, "rental_uris": {"ios": "https://dc.lft.to/lastmile_qr_scan", "android": "https://dc.lft.to/lastmile_qr_scan"}, "is_reserved": 0, "fusion_lon": 0.0, "fusion_lat": 0.0, "lon": -77.04347566666667, "name": "db762e24b9c51e85196c381fefbf45b4"}, {"bike_id": "5071b7a8947f8b7cc08fc4be7e13bb00", "type": "electric_scooter", "is_disabled": 0, "lat": 38.900269333333334, "rental_uris": {"ios": "https://dc.lft.to/lastmile_qr_scan", "android": "https://dc.lft.to/lastmile_qr_scan"}, "is_reserved": 0, "fusion_lon": 0.0, "fusion_lat": 0.0, "lon": -77.03652183333334, "name": "5071b7a8947f8b7cc08fc4be7e13bb00"}, {"bike_id": "59fc5247bfa63cf09282bbd80392eb74", "type": "electric_scooter", "is_disabled": 0, "lat": 38.90875783333333, "rental_uris": {"ios": "https://dc.lft.to/lastmile_qr_scan", "android": "https://dc.lft.to/lastmile_qr_scan"}, "is_reserved": 0, "fusion_lon": 0.0, "fusion_lat": 0.0, "lon": -77.03465833333334, "name": "59fc5247bfa63cf09282bbd80392eb74"}, {"bike_id": "98bcc4dc3d26430d80b65010e2aa49dc", "type": "electric_scooter", "is_disabled": 0, "lat": 38.885184833333334, "rental_uris": {"ios": "https://dc.lft.to/lastmile_qr_scan", "android": "https://dc.lft.to/lastmile_qr_scan"}, "is_reserved": 0, "fusion_lon": 0.0, "fusion_lat": 0.0, "lon": -77.01590016666667, "name": "98bcc4dc3d26430d80b65010e2aa49dc"}, {"bike_id": "b51c979dac27c1fac92ddab9832b46bf", "type": "electric_scooter", "is_disabled": 0, "lat": 38.924318166666666, "rental_uris": {"ios": "https://dc.lft.to/lastmile_qr_scan", "android": "https://dc.lft.to/lastmile_qr_scan"}, "is_reserved": 0, "fusion_lon": 0.0, "fusion_lat": 0.0, "lon": -77.0407535, "name": "b51c979dac27c1fac92ddab9832b46bf"}, {"bike_id": "7059b4588ed042b00f5c2d68d6bb79ab", "type": "electric_scooter", "is_disabled": 0, "lat": 38.938355, "rental_uris": {"ios": "https://dc.lft.to/lastmile_qr_scan", "android": "https://dc.lft.to/lastmile_qr_scan"}, "is_reserved": 0, "fusion_lon": 0.0, "fusion_lat": 0.0, "lon": -77.03388466666667, "name": "7059b4588ed042b00f5c2d68d6bb79ab"}, {"bike_id": "a872ecc782d39906f1bf3a479c54e367", "type": "electric_scooter", "is_disabled": 0, "lat": 38.906194166666666, "rental_uris": {"ios": "https://dc.lft.to/lastmile_qr_scan", "android": "https://dc.lft.to/lastmile_qr_scan"}, "is_reserved": 0, "fusion_lon": 0.0, "fusion_lat": 0.0, "lon": -77.005953, "name": "a872ecc782d39906f1bf3a479c54e367"}, {"bike_id": "5a435f8f39babd30c6c90e14d17e785a", "type": "electric_scooter", "is_disabled": 0, "lat": 38.862098, "rental_uris": {"ios": "https://dc.lft.to/lastmile_qr_scan", "android": "https://dc.lft.to/lastmile_qr_scan"}, "is_reserved": 0, "fusion_lon": 0.0, "fusion_lat": 0.0, "lon": -76.99472816666666, "name": "5a435f8f39babd30c6c90e14d17e785a"}, {"bike_id": "908837f8e357d985465166afed17be59", "type": "electric_scooter", "is_disabled": 0, "lat": 38.89538983333333, "rental_uris": {"ios": "https://dc.lft.to/lastmile_qr_scan", "android": "https://dc.lft.to/lastmile_qr_scan"}, "is_reserved": 0, "fusion_lon": 0.0, "fusion_lat": 0.0, "lon": -76.94934833333333, "name": "908837f8e357d985465166afed17be59"}, {"bike_id": "b12beb8ce8062cb39059f0f2e9a2eba3", "type": "electric_bike", "is_disabled": 0, "lat": 38.94361383333333, "rental_uris": {"ios": "https://dc.lft.to/lastmile_qr_scan", "android": "https://dc.lft.to/lastmile_qr_scan"}, "is_reserved": 0, "fusion_lon": 0.0, "fusion_lat": 0.0, "lon": -76.967858, "name": "b12beb8ce8062cb39059f0f2e9a2eba3"}, {"bike_id": "3142267240e304200152773f83513881", "type": "electric_scooter", "is_disabled": 0, "lat": 38.9245675, "rental_uris": {"ios": "https://dc.lft.to/lastmile_qr_scan", "android": "https://dc.lft.to/lastmile_qr_scan"}, "is_reserved": 0, "fusion_lon": 0.0, "fusion_lat": 0.0, "lon": -77.03270766666667, "name": "3142267240e304200152773f83513881"}, {"bike_id": "6344fc835504f73ee2824b1b4fe02d58", "type": "electric_scooter", "is_disabled": 0, "lat": 38.9231005, "rental_uris": {"ios": "https://dc.lft.to/lastmile_qr_scan", "android": "https://dc.lft.to/lastmile_qr_scan"}, "is_reserved": 0, "fusion_lon": 0.0, "fusion_lat": 0.0, "lon": -77.0420235, "name": "6344fc835504f73ee2824b1b4fe02d58"}, {"bike_id": "28b493e4738eafc264514fa2ac5b1367", "type": "electric_scooter", "is_disabled": 0, "lat": 38.906731, "rental_uris": {"ios": "https://dc.lft.to/lastmile_qr_scan", "android": "https://dc.lft.to/lastmile_qr_scan"}, "is_reserved": 0, "fusion_lon": 0.0, "fusion_lat": 0.0, "lon": -77.03830116666667, "name": "28b493e4738eafc264514fa2ac5b1367"}, {"bike_id": "f9db317182acf2dcd1afe8024e0e3887", "type": "electric_scooter", "is_disabled": 0, "lat": 38.862084, "rental_uris": {"ios": "https://dc.lft.to/lastmile_qr_scan", "android": "https://dc.lft.to/lastmile_qr_scan"}, "is_reserved": 0, "fusion_lon": 0.0, "fusion_lat": 0.0, "lon": -76.994756, "name": "f9db317182acf2dcd1afe8024e0e3887"}, {"bike_id": "40950fd992424ed2f636ba26b7103f07", "type": "electric_scooter", "is_disabled": 0, "lat": 38.933727166666664, "rental_uris": {"ios": "https://dc.lft.to/lastmile_qr_scan", "android": "https://dc.lft.to/lastmile_qr_scan"}, "is_reserved": 0, "fusion_lon": 0.0, "fusion_lat": 0.0, "lon": -77.05738433333333, "name": "40950fd992424ed2f636ba26b7103f07"}, {"bike_id": "77c5bf067fcad07a1bf990096e6a9e21", "type": "electric_scooter", "is_disabled": 0, "lat": 38.9110865, "rental_uris": {"ios": "https://dc.lft.to/lastmile_qr_scan", "android": "https://dc.lft.to/lastmile_qr_scan"}, "is_reserved": 0, "fusion_lon": 0.0, "fusion_lat": 0.0, "lon": -77.02443183333334, "name": "77c5bf067fcad07a1bf990096e6a9e21"}, {"bike_id": "1cae11be7bd90d226fa51db3468bb853", "type": "electric_scooter", "is_disabled": 0, "lat": 38.927823333333336, "rental_uris": {"ios": "https://dc.lft.to/lastmile_qr_scan", "android": "https://dc.lft.to/lastmile_qr_scan"}, "is_reserved": 0, "fusion_lon": 0.0, "fusion_lat": 0.0, "lon": -77.052644, "name": "1cae11be7bd90d226fa51db3468bb853"}, {"bike_id": "44bb1c146c8ac43ba69a3367c9d4eb67", "type": "electric_scooter", "is_disabled": 0, "lat": 38.903768666666664, "rental_uris": {"ios": "https://dc.lft.to/lastmile_qr_scan", "android": "https://dc.lft.to/lastmile_qr_scan"}, "is_reserved": 0, "fusion_lon": 0.0, "fusion_lat": 0.0, "lon": -77.008925, "name": "44bb1c146c8ac43ba69a3367c9d4eb67"}, {"bike_id": "65ad17a59d7b080268075ef2c106053e", "type": "electric_scooter", "is_disabled": 0, "lat": 38.94712233333333, "rental_uris": {"ios": "https://dc.lft.to/lastmile_qr_scan", "android": "https://dc.lft.to/lastmile_qr_scan"}, "is_reserved": 0, "fusion_lon": 0.0, "fusion_lat": 0.0, "lon": -77.02780216666666, "name": "65ad17a59d7b080268075ef2c106053e"}, {"bike_id": "bc9d3ed8341df20dd06c63561756d9d4", "type": "electric_scooter", "is_disabled": 0, "lat": 38.86205833333333, "rental_uris": {"ios": "https://dc.lft.to/lastmile_qr_scan", "android": "https://dc.lft.to/lastmile_qr_scan"}, "is_reserved": 0, "fusion_lon": 0.0, "fusion_lat": 0.0, "lon": -76.99468066666667, "name": "bc9d3ed8341df20dd06c63561756d9d4"}, {"bike_id": "84c47b09a328dbba60ea82ecbf9cebf9", "type": "electric_scooter", "is_disabled": 0, "lat": 38.90966483333333, "rental_uris": {"ios": "https://dc.lft.to/lastmile_qr_scan", "android": "https://dc.lft.to/lastmile_qr_scan"}, "is_reserved": 0, "fusion_lon": 0.0, "fusion_lat": 0.0, "lon": -77.02296516666667, "name": "84c47b09a328dbba60ea82ecbf9cebf9"}, {"bike_id": "b84db9fdf953035d84d3e2630eb74b28", "type": "electric_scooter", "is_disabled": 0, "lat": 38.88400633333333, "rental_uris": {"ios": "https://dc.lft.to/lastmile_qr_scan", "android": "https://dc.lft.to/lastmile_qr_scan"}, "is_reserved": 0, "fusion_lon": 0.0, "fusion_lat": 0.0, "lon": -76.98592916666666, "name": "b84db9fdf953035d84d3e2630eb74b28"}, {"bike_id": "9af32c4cc95a04e054bb59c7f64cb49b", "type": "electric_scooter", "is_disabled": 0, "lat": 38.86694983333334, "rental_uris": {"ios": "https://dc.lft.to/lastmile_qr_scan", "android": "https://dc.lft.to/lastmile_qr_scan"}, "is_reserved": 0, "fusion_lon": 0.0, "fusion_lat": 0.0, "lon": -76.98713183333334, "name": "9af32c4cc95a04e054bb59c7f64cb49b"}, {"bike_id": "ea217e611c7666490f0f6fe14e7f5d5b", "type": "electric_scooter", "is_disabled": 0, "lat": 38.9381715, "rental_uris": {"ios": "https://dc.lft.to/lastmile_qr_scan", "android": "https://dc.lft.to/lastmile_qr_scan"}, "is_reserved": 0, "fusion_lon": 0.0, "fusion_lat": 0.0, "lon": -77.0272095, "name": "ea217e611c7666490f0f6fe14e7f5d5b"}, {"bike_id": "3d7942731f44a74990ce343514a6fee5", "type": "electric_scooter", "is_disabled": 0, "lat": 38.913329, "rental_uris": {"ios": "https://dc.lft.to/lastmile_qr_scan", "android": "https://dc.lft.to/lastmile_qr_scan"}, "is_reserved": 0, "fusion_lon": 0.0, "fusion_lat": 0.0, "lon": -77.03175383333334, "name": "3d7942731f44a74990ce343514a6fee5"}, {"bike_id": "8b956f7fe38937f1efdcb9b54b74e018", "type": "electric_scooter", "is_disabled": 0, "lat": 38.925085, "rental_uris": {"ios": "https://dc.lft.to/lastmile_qr_scan", "android": "https://dc.lft.to/lastmile_qr_scan"}, "is_reserved": 0, "fusion_lon": 0.0, "fusion_lat": 0.0, "lon": -77.00888283333333, "name": "8b956f7fe38937f1efdcb9b54b74e018"}, {"bike_id": "df59c839cd3ee6ba68d559bd28ca4057", "type": "electric_scooter", "is_disabled": 0, "lat": 38.9182925, "rental_uris": {"ios": "https://dc.lft.to/lastmile_qr_scan", "android": "https://dc.lft.to/lastmile_qr_scan"}, "is_reserved": 0, "fusion_lon": 0.0, "fusion_lat": 0.0, "lon": -77.045626, "name": "df59c839cd3ee6ba68d559bd28ca4057"}, {"bike_id": "54c502d16efdf8c851696dfd562e8ad6", "type": "electric_scooter", "is_disabled": 0, "lat": 38.93131433333333, "rental_uris": {"ios": "https://dc.lft.to/lastmile_qr_scan", "android": "https://dc.lft.to/lastmile_qr_scan"}, "is_reserved": 0, "fusion_lon": 0.0, "fusion_lat": 0.0, "lon": -77.05728016666667, "name": "54c502d16efdf8c851696dfd562e8ad6"}, {"bike_id": "2dd1c733acade4b718d95a77b66c9e8e", "type": "electric_scooter", "is_disabled": 0, "lat": 38.8667495, "rental_uris": {"ios": "https://dc.lft.to/lastmile_qr_scan", "android": "https://dc.lft.to/lastmile_qr_scan"}, "is_reserved": 0, "fusion_lon": 0.0, "fusion_lat": 0.0, "lon": -76.985275, "name": "2dd1c733acade4b718d95a77b66c9e8e"}, {"bike_id": "e38033713599721b5d21f871b45fab7f", "type": "electric_scooter", "is_disabled": 0, "lat": 38.9239415, "rental_uris": {"ios": "https://dc.lft.to/lastmile_qr_scan", "android": "https://dc.lft.to/lastmile_qr_scan"}, "is_reserved": 0, "fusion_lon": 0.0, "fusion_lat": 0.0, "lon": -77.0505725, "name": "e38033713599721b5d21f871b45fab7f"}, {"bike_id": "2c4653f02a3ff4d53f4d3fad06b91c7c", "type": "electric_scooter", "is_disabled": 0, "lat": 38.917306333333336, "rental_uris": {"ios": "https://dc.lft.to/lastmile_qr_scan", "android": "https://dc.lft.to/lastmile_qr_scan"}, "is_reserved": 0, "fusion_lon": 0.0, "fusion_lat": 0.0, "lon": -77.041801, "name": "2c4653f02a3ff4d53f4d3fad06b91c7c"}, {"bike_id": "0ac91a2dbbd3aab5f03031b89096bb37", "type": "electric_scooter", "is_disabled": 0, "lat": 38.928831, "rental_uris": {"ios": "https://dc.lft.to/lastmile_qr_scan", "android": "https://dc.lft.to/lastmile_qr_scan"}, "is_reserved": 0, "fusion_lon": 0.0, "fusion_lat": 0.0, "lon": -77.03262916666667, "name": "0ac91a2dbbd3aab5f03031b89096bb37"}, {"bike_id": "0b0980aab8fa8ecdf4fa886d68b58d0f", "type": "electric_scooter", "is_disabled": 0, "lat": 38.929094666666664, "rental_uris": {"ios": "https://dc.lft.to/lastmile_qr_scan", "android": "https://dc.lft.to/lastmile_qr_scan"}, "is_reserved": 0, "fusion_lon": 0.0, "fusion_lat": 0.0, "lon": -77.03179966666667, "name": "0b0980aab8fa8ecdf4fa886d68b58d0f"}, {"bike_id": "327aae80b54cf3d4f388b76a733c30e5", "type": "electric_scooter", "is_disabled": 0, "lat": 38.95527283333333, "rental_uris": {"ios": "https://dc.lft.to/lastmile_qr_scan", "android": "https://dc.lft.to/lastmile_qr_scan"}, "is_reserved": 0, "fusion_lon": 0.0, "fusion_lat": 0.0, "lon": -77.02783966666667, "name": "327aae80b54cf3d4f388b76a733c30e5"}, {"bike_id": "607414778c79011a2ca4df156174e0d3", "type": "electric_bike", "is_disabled": 0, "lat": 38.83784716666667, "rental_uris": {"ios": "https://dc.lft.to/lastmile_qr_scan", "android": "https://dc.lft.to/lastmile_qr_scan"}, "is_reserved": 0, "fusion_lon": 0.0, "fusion_lat": 0.0, "lon": -77.0935455, "name": "607414778c79011a2ca4df156174e0d3"}, {"bike_id": "5d77a30e0bb287c5081e2cb3ced2438b", "type": "electric_scooter", "is_disabled": 0, "lat": 38.965466166666666, "rental_uris": {"ios": "https://dc.lft.to/lastmile_qr_scan", "android": "https://dc.lft.to/lastmile_qr_scan"}, "is_reserved": 0, "fusion_lon": 0.0, "fusion_lat": 0.0, "lon": -77.03628733333333, "name": "5d77a30e0bb287c5081e2cb3ced2438b"}, {"bike_id": "6300ece38e553f7391b21dae9599b97e", "type": "electric_scooter", "is_disabled": 0, "lat": 38.917043166666666, "rental_uris": {"ios": "https://dc.lft.to/lastmile_qr_scan", "android": "https://dc.lft.to/lastmile_qr_scan"}, "is_reserved": 0, "fusion_lon": 0.0, "fusion_lat": 0.0, "lon": -77.04611616666666, "name": "6300ece38e553f7391b21dae9599b97e"}, {"bike_id": "1e9b0ee16f90312f7b6754c700389d11", "type": "electric_scooter", "is_disabled": 0, "lat": 38.8688645, "rental_uris": {"ios": "https://dc.lft.to/lastmile_qr_scan", "android": "https://dc.lft.to/lastmile_qr_scan"}, "is_reserved": 0, "fusion_lon": 0.0, "fusion_lat": 0.0, "lon": -76.98451233333333, "name": "1e9b0ee16f90312f7b6754c700389d11"}, {"bike_id": "0b1f0216951ad595e5ba8547642ca86c", "type": "electric_scooter", "is_disabled": 0, "lat": 38.90686733333333, "rental_uris": {"ios": "https://dc.lft.to/lastmile_qr_scan", "android": "https://dc.lft.to/lastmile_qr_scan"}, "is_reserved": 0, "fusion_lon": 0.0, "fusion_lat": 0.0, "lon": -77.053256, "name": "0b1f0216951ad595e5ba8547642ca86c"}, {"bike_id": "f9d42710a00cc2619a4f73101564501f", "type": "electric_bike", "is_disabled": 0, "lat": 38.809043, "rental_uris": {"ios": "https://dc.lft.to/lastmile_qr_scan", "android": "https://dc.lft.to/lastmile_qr_scan"}, "is_reserved": 0, "fusion_lon": 0.0, "fusion_lat": 0.0, "lon": -77.08660466666667, "name": "f9d42710a00cc2619a4f73101564501f"}, {"bike_id": "15740549dcc3ab70948e3b532b402786", "type": "electric_scooter", "is_disabled": 0, "lat": 38.92086783333333, "rental_uris": {"ios": "https://dc.lft.to/lastmile_qr_scan", "android": "https://dc.lft.to/lastmile_qr_scan"}, "is_reserved": 0, "fusion_lon": 0.0, "fusion_lat": 0.0, "lon": -77.02538133333333, "name": "15740549dcc3ab70948e3b532b402786"}, {"bike_id": "8f8691bca1232411f366de3a37d52cb1", "type": "electric_scooter", "is_disabled": 0, "lat": 38.904975, "rental_uris": {"ios": "https://dc.lft.to/lastmile_qr_scan", "android": "https://dc.lft.to/lastmile_qr_scan"}, "is_reserved": 0, "fusion_lon": 0.0, "fusion_lat": 0.0, "lon": -77.0281635, "name": "8f8691bca1232411f366de3a37d52cb1"}, {"bike_id": "0ff47bc8f0eaa3d0f690f3f2814f82dc", "type": "electric_scooter", "is_disabled": 0, "lat": 38.9242445, "rental_uris": {"ios": "https://dc.lft.to/lastmile_qr_scan", "android": "https://dc.lft.to/lastmile_qr_scan"}, "is_reserved": 0, "fusion_lon": 0.0, "fusion_lat": 0.0, "lon": -77.02976683333333, "name": "0ff47bc8f0eaa3d0f690f3f2814f82dc"}, {"bike_id": "9a077f814a29b59086dd724a4044d310", "type": "electric_bike", "is_disabled": 0, "lat": 38.91110666666667, "rental_uris": {"ios": "https://dc.lft.to/lastmile_qr_scan", "android": "https://dc.lft.to/lastmile_qr_scan"}, "is_reserved": 0, "fusion_lon": 0.0, "fusion_lat": 0.0, "lon": -77.03256383333333, "name": "9a077f814a29b59086dd724a4044d310"}, {"bike_id": "10a65489d4843108d6bdb749d5d4a60e", "type": "electric_scooter", "is_disabled": 0, "lat": 38.916769333333335, "rental_uris": {"ios": "https://dc.lft.to/lastmile_qr_scan", "android": "https://dc.lft.to/lastmile_qr_scan"}, "is_reserved": 0, "fusion_lon": 0.0, "fusion_lat": 0.0, "lon": -77.0297915, "name": "10a65489d4843108d6bdb749d5d4a60e"}, {"bike_id": "44a5fe738805d06388c8b314fcc8dfd4", "type": "electric_scooter", "is_disabled": 0, "lat": 38.898853333333335, "rental_uris": {"ios": "https://dc.lft.to/lastmile_qr_scan", "android": "https://dc.lft.to/lastmile_qr_scan"}, "is_reserved": 0, "fusion_lon": 0.0, "fusion_lat": 0.0, "lon": -76.93175983333333, "name": "44a5fe738805d06388c8b314fcc8dfd4"}, {"bike_id": "0fa7953315425ca624de979a9ad44b86", "type": "electric_scooter", "is_disabled": 0, "lat": 38.902764, "rental_uris": {"ios": "https://dc.lft.to/lastmile_qr_scan", "android": "https://dc.lft.to/lastmile_qr_scan"}, "is_reserved": 0, "fusion_lon": 0.0, "fusion_lat": 0.0, "lon": -77.0035485, "name": "0fa7953315425ca624de979a9ad44b86"}, {"bike_id": "71abb3a5167719ef6476ee7fd83912f5", "type": "electric_scooter", "is_disabled": 0, "lat": 38.908140833333334, "rental_uris": {"ios": "https://dc.lft.to/lastmile_qr_scan", "android": "https://dc.lft.to/lastmile_qr_scan"}, "is_reserved": 0, "fusion_lon": 0.0, "fusion_lat": 0.0, "lon": -77.06374516666666, "name": "71abb3a5167719ef6476ee7fd83912f5"}, {"bike_id": "bbd7e2bf85dad6b64ea9afbf70a01ef2", "type": "electric_scooter", "is_disabled": 0, "lat": 38.933762, "rental_uris": {"ios": "https://dc.lft.to/lastmile_qr_scan", "android": "https://dc.lft.to/lastmile_qr_scan"}, "is_reserved": 0, "fusion_lon": 0.0, "fusion_lat": 0.0, "lon": -77.05746783333333, "name": "bbd7e2bf85dad6b64ea9afbf70a01ef2"}, {"bike_id": "1ffe7ae0bbbbd42606a7eedab0f6c02f", "type": "electric_scooter", "is_disabled": 0, "lat": 38.92581333333333, "rental_uris": {"ios": "https://dc.lft.to/lastmile_qr_scan", "android": "https://dc.lft.to/lastmile_qr_scan"}, "is_reserved": 0, "fusion_lon": 0.0, "fusion_lat": 0.0, "lon": -77.03058766666666, "name": "1ffe7ae0bbbbd42606a7eedab0f6c02f"}, {"bike_id": "07f9eaa16b54af88ad37734b6916e076", "type": "electric_scooter", "is_disabled": 0, "lat": 38.90847866666667, "rental_uris": {"ios": "https://dc.lft.to/lastmile_qr_scan", "android": "https://dc.lft.to/lastmile_qr_scan"}, "is_reserved": 0, "fusion_lon": 0.0, "fusion_lat": 0.0, "lon": -77.0223425, "name": "07f9eaa16b54af88ad37734b6916e076"}, {"bike_id": "50af04f58e3c69f8bacfeea12361e905", "type": "electric_scooter", "is_disabled": 0, "lat": 38.920425, "rental_uris": {"ios": "https://dc.lft.to/lastmile_qr_scan", "android": "https://dc.lft.to/lastmile_qr_scan"}, "is_reserved": 0, "fusion_lon": 0.0, "fusion_lat": 0.0, "lon": -77.071844, "name": "50af04f58e3c69f8bacfeea12361e905"}, {"bike_id": "6984afb674d7547e1e77b36ef23e08d8", "type": "electric_scooter", "is_disabled": 0, "lat": 38.90030266666667, "rental_uris": {"ios": "https://dc.lft.to/lastmile_qr_scan", "android": "https://dc.lft.to/lastmile_qr_scan"}, "is_reserved": 0, "fusion_lon": 0.0, "fusion_lat": 0.0, "lon": -77.02595616666666, "name": "6984afb674d7547e1e77b36ef23e08d8"}, {"bike_id": "caa94fc0ac9db77f7d111ec4ca73c35d", "type": "electric_scooter", "is_disabled": 0, "lat": 38.892168166666664, "rental_uris": {"ios": "https://dc.lft.to/lastmile_qr_scan", "android": "https://dc.lft.to/lastmile_qr_scan"}, "is_reserved": 0, "fusion_lon": 0.0, "fusion_lat": 0.0, "lon": -77.02792366666667, "name": "caa94fc0ac9db77f7d111ec4ca73c35d"}, {"bike_id": "17cf1d6fb7d112f1461687c3bfe5d046", "type": "electric_scooter", "is_disabled": 0, "lat": 38.928889, "rental_uris": {"ios": "https://dc.lft.to/lastmile_qr_scan", "android": "https://dc.lft.to/lastmile_qr_scan"}, "is_reserved": 0, "fusion_lon": 0.0, "fusion_lat": 0.0, "lon": -77.03290183333333, "name": "17cf1d6fb7d112f1461687c3bfe5d046"}, {"bike_id": "a41419af8705a43b916f475b62c534bf", "type": "electric_scooter", "is_disabled": 0, "lat": 38.8662905, "rental_uris": {"ios": "https://dc.lft.to/lastmile_qr_scan", "android": "https://dc.lft.to/lastmile_qr_scan"}, "is_reserved": 0, "fusion_lon": 0.0, "fusion_lat": 0.0, "lon": -76.98714283333334, "name": "a41419af8705a43b916f475b62c534bf"}, {"bike_id": "4d97795bc26a218b78eda66c1656f5ae", "type": "electric_scooter", "is_disabled": 0, "lat": 38.922428333333336, "rental_uris": {"ios": "https://dc.lft.to/lastmile_qr_scan", "android": "https://dc.lft.to/lastmile_qr_scan"}, "is_reserved": 0, "fusion_lon": 0.0, "fusion_lat": 0.0, "lon": -77.0314005, "name": "4d97795bc26a218b78eda66c1656f5ae"}, {"bike_id": "e3f77edda59a859687d58e9602b8786c", "type": "electric_scooter", "is_disabled": 0, "lat": 38.924836666666664, "rental_uris": {"ios": "https://dc.lft.to/lastmile_qr_scan", "android": "https://dc.lft.to/lastmile_qr_scan"}, "is_reserved": 0, "fusion_lon": 0.0, "fusion_lat": 0.0, "lon": -77.05775483333333, "name": "e3f77edda59a859687d58e9602b8786c"}, {"bike_id": "067eee24791e1f2de8405a9b927e93ea", "type": "electric_scooter", "is_disabled": 0, "lat": 38.89971083333333, "rental_uris": {"ios": "https://dc.lft.to/lastmile_qr_scan", "android": "https://dc.lft.to/lastmile_qr_scan"}, "is_reserved": 0, "fusion_lon": 0.0, "fusion_lat": 0.0, "lon": -76.9262505, "name": "067eee24791e1f2de8405a9b927e93ea"}, {"bike_id": "e0a8169f732da29945853b853bde9aad", "type": "electric_scooter", "is_disabled": 0, "lat": 38.9048685, "rental_uris": {"ios": "https://dc.lft.to/lastmile_qr_scan", "android": "https://dc.lft.to/lastmile_qr_scan"}, "is_reserved": 0, "fusion_lon": 0.0, "fusion_lat": 0.0, "lon": -77.06794816666667, "name": "e0a8169f732da29945853b853bde9aad"}, {"bike_id": "a05bc7ec36aed9397da9ae41b93a8818", "type": "electric_scooter", "is_disabled": 0, "lat": 38.94170966666667, "rental_uris": {"ios": "https://dc.lft.to/lastmile_qr_scan", "android": "https://dc.lft.to/lastmile_qr_scan"}, "is_reserved": 0, "fusion_lon": 0.0, "fusion_lat": 0.0, "lon": -77.0329005, "name": "a05bc7ec36aed9397da9ae41b93a8818"}, {"bike_id": "496a765578971483d2cac97e854f4846", "type": "electric_scooter", "is_disabled": 0, "lat": 38.912964333333335, "rental_uris": {"ios": "https://dc.lft.to/lastmile_qr_scan", "android": "https://dc.lft.to/lastmile_qr_scan"}, "is_reserved": 0, "fusion_lon": 0.0, "fusion_lat": 0.0, "lon": -77.01695766666667, "name": "496a765578971483d2cac97e854f4846"}, {"bike_id": "982ea9213573d6ae4da111054fa200ec", "type": "electric_bike", "is_disabled": 0, "lat": 38.882419666666664, "rental_uris": {"ios": "https://dc.lft.to/lastmile_qr_scan", "android": "https://dc.lft.to/lastmile_qr_scan"}, "is_reserved": 0, "fusion_lon": 0.0, "fusion_lat": 0.0, "lon": -76.96267383333333, "name": "982ea9213573d6ae4da111054fa200ec"}, {"bike_id": "ad9bdfd3219e26ae37c6d01ba59bb92e", "type": "electric_scooter", "is_disabled": 0, "lat": 38.916387, "rental_uris": {"ios": "https://dc.lft.to/lastmile_qr_scan", "android": "https://dc.lft.to/lastmile_qr_scan"}, "is_reserved": 0, "fusion_lon": 0.0, "fusion_lat": 0.0, "lon": -77.022767, "name": "ad9bdfd3219e26ae37c6d01ba59bb92e"}, {"bike_id": "fee5219f2ec95c672acb43242647197c", "type": "electric_scooter", "is_disabled": 0, "lat": 38.9294715, "rental_uris": {"ios": "https://dc.lft.to/lastmile_qr_scan", "android": "https://dc.lft.to/lastmile_qr_scan"}, "is_reserved": 0, "fusion_lon": 0.0, "fusion_lat": 0.0, "lon": -77.0440415, "name": "fee5219f2ec95c672acb43242647197c"}, {"bike_id": "65c0e70b78c8b3121bab520a602aa491", "type": "electric_scooter", "is_disabled": 0, "lat": 38.93199033333333, "rental_uris": {"ios": "https://dc.lft.to/lastmile_qr_scan", "android": "https://dc.lft.to/lastmile_qr_scan"}, "is_reserved": 0, "fusion_lon": 0.0, "fusion_lat": 0.0, "lon": -77.02394183333334, "name": "65c0e70b78c8b3121bab520a602aa491"}, {"bike_id": "050818a3dc52c149bcbc29924444d55b", "type": "electric_scooter", "is_disabled": 0, "lat": 38.92100333333333, "rental_uris": {"ios": "https://dc.lft.to/lastmile_qr_scan", "android": "https://dc.lft.to/lastmile_qr_scan"}, "is_reserved": 0, "fusion_lon": 0.0, "fusion_lat": 0.0, "lon": -77.03180433333333, "name": "050818a3dc52c149bcbc29924444d55b"}, {"bike_id": "bd04d2073457be757cd2fb1acf65a13b", "type": "electric_scooter", "is_disabled": 0, "lat": 38.904643, "rental_uris": {"ios": "https://dc.lft.to/lastmile_qr_scan", "android": "https://dc.lft.to/lastmile_qr_scan"}, "is_reserved": 0, "fusion_lon": 0.0, "fusion_lat": 0.0, "lon": -76.97609716666666, "name": "bd04d2073457be757cd2fb1acf65a13b"}, {"bike_id": "93477f3f609b4816389cd9f1f5038c6a", "type": "electric_scooter", "is_disabled": 0, "lat": 38.9341105, "rental_uris": {"ios": "https://dc.lft.to/lastmile_qr_scan", "android": "https://dc.lft.to/lastmile_qr_scan"}, "is_reserved": 0, "fusion_lon": 0.0, "fusion_lat": 0.0, "lon": -77.04153833333334, "name": "93477f3f609b4816389cd9f1f5038c6a"}, {"bike_id": "a97fe40de8217c5be39e01b8a546c2be", "type": "electric_scooter", "is_disabled": 0, "lat": 38.900063333333335, "rental_uris": {"ios": "https://dc.lft.to/lastmile_qr_scan", "android": "https://dc.lft.to/lastmile_qr_scan"}, "is_reserved": 0, "fusion_lon": 0.0, "fusion_lat": 0.0, "lon": -77.00380466666667, "name": "a97fe40de8217c5be39e01b8a546c2be"}, {"bike_id": "090195f4018bb6fbed1102ed1c80e280", "type": "electric_scooter", "is_disabled": 0, "lat": 38.92260383333333, "rental_uris": {"ios": "https://dc.lft.to/lastmile_qr_scan", "android": "https://dc.lft.to/lastmile_qr_scan"}, "is_reserved": 0, "fusion_lon": 0.0, "fusion_lat": 0.0, "lon": -77.04217483333333, "name": "090195f4018bb6fbed1102ed1c80e280"}, {"bike_id": "772d040e088212f910b50cc30822ecfd", "type": "electric_scooter", "is_disabled": 0, "lat": 38.862101833333334, "rental_uris": {"ios": "https://dc.lft.to/lastmile_qr_scan", "android": "https://dc.lft.to/lastmile_qr_scan"}, "is_reserved": 0, "fusion_lon": 0.0, "fusion_lat": 0.0, "lon": -76.99473716666667, "name": "772d040e088212f910b50cc30822ecfd"}, {"bike_id": "b6c6dc11883946a2b9884079eaa3f7f0", "type": "electric_scooter", "is_disabled": 0, "lat": 38.934532, "rental_uris": {"ios": "https://dc.lft.to/lastmile_qr_scan", "android": "https://dc.lft.to/lastmile_qr_scan"}, "is_reserved": 0, "fusion_lon": 0.0, "fusion_lat": 0.0, "lon": -77.0280075, "name": "b6c6dc11883946a2b9884079eaa3f7f0"}, {"bike_id": "9ca1de3539ab1a0ac3fe684530dcf41f", "type": "electric_scooter", "is_disabled": 0, "lat": 38.947602333333336, "rental_uris": {"ios": "https://dc.lft.to/lastmile_qr_scan", "android": "https://dc.lft.to/lastmile_qr_scan"}, "is_reserved": 0, "fusion_lon": 0.0, "fusion_lat": 0.0, "lon": -77.06570816666667, "name": "9ca1de3539ab1a0ac3fe684530dcf41f"}, {"bike_id": "5ded97729192e747f334d034ac5febb3", "type": "electric_bike", "is_disabled": 0, "lat": 38.9322635, "rental_uris": {"ios": "https://dc.lft.to/lastmile_qr_scan", "android": "https://dc.lft.to/lastmile_qr_scan"}, "is_reserved": 0, "fusion_lon": 0.0, "fusion_lat": 0.0, "lon": -77.1812445, "name": "5ded97729192e747f334d034ac5febb3"}, {"bike_id": "19e1d195fad13f6949a2178335808984", "type": "electric_scooter", "is_disabled": 0, "lat": 38.90486533333333, "rental_uris": {"ios": "https://dc.lft.to/lastmile_qr_scan", "android": "https://dc.lft.to/lastmile_qr_scan"}, "is_reserved": 0, "fusion_lon": 0.0, "fusion_lat": 0.0, "lon": -77.0565925, "name": "19e1d195fad13f6949a2178335808984"}, {"bike_id": "f5cb448d22ec61d0f600ac5eac1afe7d", "type": "electric_scooter", "is_disabled": 0, "lat": 38.87174783333333, "rental_uris": {"ios": "https://dc.lft.to/lastmile_qr_scan", "android": "https://dc.lft.to/lastmile_qr_scan"}, "is_reserved": 0, "fusion_lon": 0.0, "fusion_lat": 0.0, "lon": -77.00616133333334, "name": "f5cb448d22ec61d0f600ac5eac1afe7d"}, {"bike_id": "24c193f481c215c153ee2d820a7ea78c", "type": "electric_scooter", "is_disabled": 0, "lat": 38.91425983333333, "rental_uris": {"ios": "https://dc.lft.to/lastmile_qr_scan", "android": "https://dc.lft.to/lastmile_qr_scan"}, "is_reserved": 0, "fusion_lon": 0.0, "fusion_lat": 0.0, "lon": -77.03215466666667, "name": "24c193f481c215c153ee2d820a7ea78c"}, {"bike_id": "e619d66463af6e8babdcdf38ffdef935", "type": "electric_scooter", "is_disabled": 0, "lat": 38.924752166666664, "rental_uris": {"ios": "https://dc.lft.to/lastmile_qr_scan", "android": "https://dc.lft.to/lastmile_qr_scan"}, "is_reserved": 0, "fusion_lon": 0.0, "fusion_lat": 0.0, "lon": -77.0284375, "name": "e619d66463af6e8babdcdf38ffdef935"}, {"bike_id": "0607e71246d23f3def51076b4f6c374a", "type": "electric_scooter", "is_disabled": 0, "lat": 38.91911916666667, "rental_uris": {"ios": "https://dc.lft.to/lastmile_qr_scan", "android": "https://dc.lft.to/lastmile_qr_scan"}, "is_reserved": 0, "fusion_lon": 0.0, "fusion_lat": 0.0, "lon": -77.0424835, "name": "0607e71246d23f3def51076b4f6c374a"}, {"bike_id": "9ff6f526d7a455e75769045d785e6075", "type": "electric_scooter", "is_disabled": 0, "lat": 38.903555833333336, "rental_uris": {"ios": "https://dc.lft.to/lastmile_qr_scan", "android": "https://dc.lft.to/lastmile_qr_scan"}, "is_reserved": 0, "fusion_lon": 0.0, "fusion_lat": 0.0, "lon": -77.06017516666667, "name": "9ff6f526d7a455e75769045d785e6075"}, {"bike_id": "a06b45ad99f2ed2540db7d6db91c1827", "type": "electric_scooter", "is_disabled": 0, "lat": 38.863735, "rental_uris": {"ios": "https://dc.lft.to/lastmile_qr_scan", "android": "https://dc.lft.to/lastmile_qr_scan"}, "is_reserved": 0, "fusion_lon": 0.0, "fusion_lat": 0.0, "lon": -76.99064066666666, "name": "a06b45ad99f2ed2540db7d6db91c1827"}, {"bike_id": "e13c7306b52b211dfcb78c7c70dfcc43", "type": "electric_scooter", "is_disabled": 0, "lat": 38.87868733333333, "rental_uris": {"ios": "https://dc.lft.to/lastmile_qr_scan", "android": "https://dc.lft.to/lastmile_qr_scan"}, "is_reserved": 0, "fusion_lon": 0.0, "fusion_lat": 0.0, "lon": -77.00602283333333, "name": "e13c7306b52b211dfcb78c7c70dfcc43"}, {"bike_id": "806cd993668842352dc62987dff5f348", "type": "electric_scooter", "is_disabled": 0, "lat": 38.86686866666667, "rental_uris": {"ios": "https://dc.lft.to/lastmile_qr_scan", "android": "https://dc.lft.to/lastmile_qr_scan"}, "is_reserved": 0, "fusion_lon": 0.0, "fusion_lat": 0.0, "lon": -76.98556966666666, "name": "806cd993668842352dc62987dff5f348"}, {"bike_id": "c0ee683600a4f3b7f0d5253990a6eb80", "type": "electric_scooter", "is_disabled": 0, "lat": 38.898418, "rental_uris": {"ios": "https://dc.lft.to/lastmile_qr_scan", "android": "https://dc.lft.to/lastmile_qr_scan"}, "is_reserved": 0, "fusion_lon": 0.0, "fusion_lat": 0.0, "lon": -76.94637433333334, "name": "c0ee683600a4f3b7f0d5253990a6eb80"}, {"bike_id": "b3cab8601a21ed9657d706fd6728196b", "type": "electric_scooter", "is_disabled": 0, "lat": 38.918193333333335, "rental_uris": {"ios": "https://dc.lft.to/lastmile_qr_scan", "android": "https://dc.lft.to/lastmile_qr_scan"}, "is_reserved": 0, "fusion_lon": 0.0, "fusion_lat": 0.0, "lon": -77.04948466666667, "name": "b3cab8601a21ed9657d706fd6728196b"}, {"bike_id": "bee5b202dadcbaeaaec93f1baa6b9990", "type": "electric_scooter", "is_disabled": 0, "lat": 38.92225633333334, "rental_uris": {"ios": "https://dc.lft.to/lastmile_qr_scan", "android": "https://dc.lft.to/lastmile_qr_scan"}, "is_reserved": 0, "fusion_lon": 0.0, "fusion_lat": 0.0, "lon": -77.0328915, "name": "bee5b202dadcbaeaaec93f1baa6b9990"}, {"bike_id": "b6193eddf4ad84dedc0cbe0f8de3c159", "type": "electric_scooter", "is_disabled": 0, "lat": 38.897452666666666, "rental_uris": {"ios": "https://dc.lft.to/lastmile_qr_scan", "android": "https://dc.lft.to/lastmile_qr_scan"}, "is_reserved": 0, "fusion_lon": 0.0, "fusion_lat": 0.0, "lon": -77.02693966666666, "name": "b6193eddf4ad84dedc0cbe0f8de3c159"}, {"bike_id": "3c9134f74b7eea315fbea7401c0611b9", "type": "electric_scooter", "is_disabled": 0, "lat": 38.919199, "rental_uris": {"ios": "https://dc.lft.to/lastmile_qr_scan", "android": "https://dc.lft.to/lastmile_qr_scan"}, "is_reserved": 0, "fusion_lon": 0.0, "fusion_lat": 0.0, "lon": -77.03363316666666, "name": "3c9134f74b7eea315fbea7401c0611b9"}, {"bike_id": "afaddff121ff9d6ed676912c089ae5ad", "type": "electric_scooter", "is_disabled": 0, "lat": 38.927796, "rental_uris": {"ios": "https://dc.lft.to/lastmile_qr_scan", "android": "https://dc.lft.to/lastmile_qr_scan"}, "is_reserved": 0, "fusion_lon": 0.0, "fusion_lat": 0.0, "lon": -77.04321716666666, "name": "afaddff121ff9d6ed676912c089ae5ad"}, {"bike_id": "f66c4717114abddcc436afe288ecf534", "type": "electric_scooter", "is_disabled": 0, "lat": 38.9140265, "rental_uris": {"ios": "https://dc.lft.to/lastmile_qr_scan", "android": "https://dc.lft.to/lastmile_qr_scan"}, "is_reserved": 0, "fusion_lon": 0.0, "fusion_lat": 0.0, "lon": -77.03178433333333, "name": "f66c4717114abddcc436afe288ecf534"}, {"bike_id": "e1c0574d1cad27f4156154abdaf15ec2", "type": "electric_scooter", "is_disabled": 0, "lat": 38.96418233333333, "rental_uris": {"ios": "https://dc.lft.to/lastmile_qr_scan", "android": "https://dc.lft.to/lastmile_qr_scan"}, "is_reserved": 0, "fusion_lon": 0.0, "fusion_lat": 0.0, "lon": -77.02427166666666, "name": "e1c0574d1cad27f4156154abdaf15ec2"}, {"bike_id": "8d71e7114c2b756fa81e21369309f7ed", "type": "electric_scooter", "is_disabled": 0, "lat": 38.920857166666664, "rental_uris": {"ios": "https://dc.lft.to/lastmile_qr_scan", "android": "https://dc.lft.to/lastmile_qr_scan"}, "is_reserved": 0, "fusion_lon": 0.0, "fusion_lat": 0.0, "lon": -77.0238785, "name": "8d71e7114c2b756fa81e21369309f7ed"}, {"bike_id": "97ad2d1cbcd5e747ad9d8a665782f1e1", "type": "electric_scooter", "is_disabled": 0, "lat": 38.906855666666665, "rental_uris": {"ios": "https://dc.lft.to/lastmile_qr_scan", "android": "https://dc.lft.to/lastmile_qr_scan"}, "is_reserved": 0, "fusion_lon": 0.0, "fusion_lat": 0.0, "lon": -77.0367865, "name": "97ad2d1cbcd5e747ad9d8a665782f1e1"}, {"bike_id": "dda17f94dd7b759d38ef3bd443005dd7", "type": "electric_scooter", "is_disabled": 0, "lat": 38.924479833333336, "rental_uris": {"ios": "https://dc.lft.to/lastmile_qr_scan", "android": "https://dc.lft.to/lastmile_qr_scan"}, "is_reserved": 0, "fusion_lon": 0.0, "fusion_lat": 0.0, "lon": -77.04206683333334, "name": "dda17f94dd7b759d38ef3bd443005dd7"}, {"bike_id": "a47e47157baaf89d6d51f94c6144aff4", "type": "electric_scooter", "is_disabled": 0, "lat": 38.909884, "rental_uris": {"ios": "https://dc.lft.to/lastmile_qr_scan", "android": "https://dc.lft.to/lastmile_qr_scan"}, "is_reserved": 0, "fusion_lon": 0.0, "fusion_lat": 0.0, "lon": -77.04272583333334, "name": "a47e47157baaf89d6d51f94c6144aff4"}, {"bike_id": "49392ac77cb4c61e0563ab9056c44ba0", "type": "electric_bike", "is_disabled": 0, "lat": 38.897399666666665, "rental_uris": {"ios": "https://dc.lft.to/lastmile_qr_scan", "android": "https://dc.lft.to/lastmile_qr_scan"}, "is_reserved": 0, "fusion_lon": 0.0, "fusion_lat": 0.0, "lon": -76.92050483333334, "name": "49392ac77cb4c61e0563ab9056c44ba0"}, {"bike_id": "947f8ceeb65724faeb9c51f61cb67020", "type": "electric_scooter", "is_disabled": 0, "lat": 38.905587833333335, "rental_uris": {"ios": "https://dc.lft.to/lastmile_qr_scan", "android": "https://dc.lft.to/lastmile_qr_scan"}, "is_reserved": 0, "fusion_lon": 0.0, "fusion_lat": 0.0, "lon": -77.0382195, "name": "947f8ceeb65724faeb9c51f61cb67020"}, {"bike_id": "b639fc778a3b8f615f6b9c53e8ec10f6", "type": "electric_scooter", "is_disabled": 0, "lat": 38.90554066666667, "rental_uris": {"ios": "https://dc.lft.to/lastmile_qr_scan", "android": "https://dc.lft.to/lastmile_qr_scan"}, "is_reserved": 0, "fusion_lon": 0.0, "fusion_lat": 0.0, "lon": -77.05709983333334, "name": "b639fc778a3b8f615f6b9c53e8ec10f6"}, {"bike_id": "7b4cb24b60dbece9eea0c39453999c6e", "type": "electric_scooter", "is_disabled": 0, "lat": 38.9142075, "rental_uris": {"ios": "https://dc.lft.to/lastmile_qr_scan", "android": "https://dc.lft.to/lastmile_qr_scan"}, "is_reserved": 0, "fusion_lon": 0.0, "fusion_lat": 0.0, "lon": -77.0326215, "name": "7b4cb24b60dbece9eea0c39453999c6e"}, {"bike_id": "a4eb792bda1083f1ee19b5ce9a3c225e", "type": "electric_scooter", "is_disabled": 0, "lat": 38.92361233333333, "rental_uris": {"ios": "https://dc.lft.to/lastmile_qr_scan", "android": "https://dc.lft.to/lastmile_qr_scan"}, "is_reserved": 0, "fusion_lon": 0.0, "fusion_lat": 0.0, "lon": -77.05132616666667, "name": "a4eb792bda1083f1ee19b5ce9a3c225e"}, {"bike_id": "c038a602c62e6b81617034c7ca527438", "type": "electric_scooter", "is_disabled": 0, "lat": 38.922197, "rental_uris": {"ios": "https://dc.lft.to/lastmile_qr_scan", "android": "https://dc.lft.to/lastmile_qr_scan"}, "is_reserved": 0, "fusion_lon": 0.0, "fusion_lat": 0.0, "lon": -77.0267005, "name": "c038a602c62e6b81617034c7ca527438"}, {"bike_id": "c4d3161caa71f137e01b13feb4173ed9", "type": "electric_scooter", "is_disabled": 0, "lat": 38.89169016666666, "rental_uris": {"ios": "https://dc.lft.to/lastmile_qr_scan", "android": "https://dc.lft.to/lastmile_qr_scan"}, "is_reserved": 0, "fusion_lon": 0.0, "fusion_lat": 0.0, "lon": -77.01540966666667, "name": "c4d3161caa71f137e01b13feb4173ed9"}, {"bike_id": "f093a086c8939e2a40d6dcd9fdce6c3f", "type": "electric_scooter", "is_disabled": 0, "lat": 38.928404666666665, "rental_uris": {"ios": "https://dc.lft.to/lastmile_qr_scan", "android": "https://dc.lft.to/lastmile_qr_scan"}, "is_reserved": 0, "fusion_lon": 0.0, "fusion_lat": 0.0, "lon": -77.03287666666667, "name": "f093a086c8939e2a40d6dcd9fdce6c3f"}, {"bike_id": "db4b4ba30d47a8245f163ad2f1d55c40", "type": "electric_scooter", "is_disabled": 0, "lat": 38.91691266666667, "rental_uris": {"ios": "https://dc.lft.to/lastmile_qr_scan", "android": "https://dc.lft.to/lastmile_qr_scan"}, "is_reserved": 0, "fusion_lon": 0.0, "fusion_lat": 0.0, "lon": -77.01060516666666, "name": "db4b4ba30d47a8245f163ad2f1d55c40"}, {"bike_id": "e0390d90cc5266133f2933a472f653b9", "type": "electric_scooter", "is_disabled": 0, "lat": 38.909698666666664, "rental_uris": {"ios": "https://dc.lft.to/lastmile_qr_scan", "android": "https://dc.lft.to/lastmile_qr_scan"}, "is_reserved": 0, "fusion_lon": 0.0, "fusion_lat": 0.0, "lon": -77.04523533333334, "name": "e0390d90cc5266133f2933a472f653b9"}, {"bike_id": "70197024b0b36d4a1c36e27401ec1a2c", "type": "electric_scooter", "is_disabled": 0, "lat": 38.900403833333336, "rental_uris": {"ios": "https://dc.lft.to/lastmile_qr_scan", "android": "https://dc.lft.to/lastmile_qr_scan"}, "is_reserved": 0, "fusion_lon": 0.0, "fusion_lat": 0.0, "lon": -77.0241445, "name": "70197024b0b36d4a1c36e27401ec1a2c"}, {"bike_id": "8ac5295a968801f590ec25281519a06a", "type": "electric_scooter", "is_disabled": 0, "lat": 38.92119133333333, "rental_uris": {"ios": "https://dc.lft.to/lastmile_qr_scan", "android": "https://dc.lft.to/lastmile_qr_scan"}, "is_reserved": 0, "fusion_lon": 0.0, "fusion_lat": 0.0, "lon": -77.04218333333333, "name": "8ac5295a968801f590ec25281519a06a"}, {"bike_id": "0a6c295d981f80e8da4ff8104f8aa46c", "type": "electric_scooter", "is_disabled": 0, "lat": 38.90561566666667, "rental_uris": {"ios": "https://dc.lft.to/lastmile_qr_scan", "android": "https://dc.lft.to/lastmile_qr_scan"}, "is_reserved": 0, "fusion_lon": 0.0, "fusion_lat": 0.0, "lon": -77.05160733333334, "name": "0a6c295d981f80e8da4ff8104f8aa46c"}, {"bike_id": "094be5b3499014ebacb8820c0ddcb0eb", "type": "electric_scooter", "is_disabled": 0, "lat": 38.914959, "rental_uris": {"ios": "https://dc.lft.to/lastmile_qr_scan", "android": "https://dc.lft.to/lastmile_qr_scan"}, "is_reserved": 0, "fusion_lon": 0.0, "fusion_lat": 0.0, "lon": -77.03211416666667, "name": "094be5b3499014ebacb8820c0ddcb0eb"}, {"bike_id": "47064856ae525efa0a38f42310db3835", "type": "electric_scooter", "is_disabled": 0, "lat": 38.906914666666665, "rental_uris": {"ios": "https://dc.lft.to/lastmile_qr_scan", "android": "https://dc.lft.to/lastmile_qr_scan"}, "is_reserved": 0, "fusion_lon": 0.0, "fusion_lat": 0.0, "lon": -77.07546116666667, "name": "47064856ae525efa0a38f42310db3835"}, {"bike_id": "1a9ba4fb35d5f215e3d02f6e10993029", "type": "electric_scooter", "is_disabled": 0, "lat": 38.9228425, "rental_uris": {"ios": "https://dc.lft.to/lastmile_qr_scan", "android": "https://dc.lft.to/lastmile_qr_scan"}, "is_reserved": 0, "fusion_lon": 0.0, "fusion_lat": 0.0, "lon": -77.04222083333333, "name": "1a9ba4fb35d5f215e3d02f6e10993029"}, {"bike_id": "72c21ea53b1eee3a06de64af25de1168", "type": "electric_bike", "is_disabled": 0, "lat": 38.85936183333333, "rental_uris": {"ios": "https://dc.lft.to/lastmile_qr_scan", "android": "https://dc.lft.to/lastmile_qr_scan"}, "is_reserved": 0, "fusion_lon": 0.0, "fusion_lat": 0.0, "lon": -77.11833816666666, "name": "72c21ea53b1eee3a06de64af25de1168"}, {"bike_id": "e45cf15b77f4686eee9b68cd00d2dc18", "type": "electric_bike", "is_disabled": 0, "lat": 38.82368016666667, "rental_uris": {"ios": "https://dc.lft.to/lastmile_qr_scan", "android": "https://dc.lft.to/lastmile_qr_scan"}, "is_reserved": 0, "fusion_lon": 0.0, "fusion_lat": 0.0, "lon": -77.002193, "name": "e45cf15b77f4686eee9b68cd00d2dc18"}, {"bike_id": "01f2b7d7cb10c5e6510aa9a284edd1ac", "type": "electric_scooter", "is_disabled": 0, "lat": 38.9078445, "rental_uris": {"ios": "https://dc.lft.to/lastmile_qr_scan", "android": "https://dc.lft.to/lastmile_qr_scan"}, "is_reserved": 0, "fusion_lon": 0.0, "fusion_lat": 0.0, "lon": -77.03476166666667, "name": "01f2b7d7cb10c5e6510aa9a284edd1ac"}, {"bike_id": "64f63857961ec07e9b9e0304df54cb2b", "type": "electric_bike", "is_disabled": 0, "lat": 38.884137833333334, "rental_uris": {"ios": "https://dc.lft.to/lastmile_qr_scan", "android": "https://dc.lft.to/lastmile_qr_scan"}, "is_reserved": 0, "fusion_lon": 0.0, "fusion_lat": 0.0, "lon": -76.99537316666667, "name": "64f63857961ec07e9b9e0304df54cb2b"}, {"bike_id": "bb9b40a671e0de6a5edc467e20af0a0e", "type": "electric_scooter", "is_disabled": 0, "lat": 38.900835, "rental_uris": {"ios": "https://dc.lft.to/lastmile_qr_scan", "android": "https://dc.lft.to/lastmile_qr_scan"}, "is_reserved": 0, "fusion_lon": 0.0, "fusion_lat": 0.0, "lon": -77.03877383333334, "name": "bb9b40a671e0de6a5edc467e20af0a0e"}, {"bike_id": "99374f220edcf7ab88467d62be9070e4", "type": "electric_scooter", "is_disabled": 0, "lat": 38.911349333333334, "rental_uris": {"ios": "https://dc.lft.to/lastmile_qr_scan", "android": "https://dc.lft.to/lastmile_qr_scan"}, "is_reserved": 0, "fusion_lon": 0.0, "fusion_lat": 0.0, "lon": -77.02813966666666, "name": "99374f220edcf7ab88467d62be9070e4"}, {"bike_id": "d9b85d4a420f5f1a2f176d289b7c6625", "type": "electric_scooter", "is_disabled": 0, "lat": 38.84313016666667, "rental_uris": {"ios": "https://dc.lft.to/lastmile_qr_scan", "android": "https://dc.lft.to/lastmile_qr_scan"}, "is_reserved": 0, "fusion_lon": 0.0, "fusion_lat": 0.0, "lon": -76.99935933333333, "name": "d9b85d4a420f5f1a2f176d289b7c6625"}, {"bike_id": "dd2c6bff45f4f1fe87d218506e9a4805", "type": "electric_scooter", "is_disabled": 0, "lat": 38.91885883333333, "rental_uris": {"ios": "https://dc.lft.to/lastmile_qr_scan", "android": "https://dc.lft.to/lastmile_qr_scan"}, "is_reserved": 0, "fusion_lon": 0.0, "fusion_lat": 0.0, "lon": -77.04619233333334, "name": "dd2c6bff45f4f1fe87d218506e9a4805"}, {"bike_id": "14734fc80e51f1c42f65276b8e944196", "type": "electric_scooter", "is_disabled": 0, "lat": 38.8911425, "rental_uris": {"ios": "https://dc.lft.to/lastmile_qr_scan", "android": "https://dc.lft.to/lastmile_qr_scan"}, "is_reserved": 0, "fusion_lon": 0.0, "fusion_lat": 0.0, "lon": -76.9916485, "name": "14734fc80e51f1c42f65276b8e944196"}, {"bike_id": "89546902ceb91bec79f443c1d7c5ff16", "type": "electric_scooter", "is_disabled": 0, "lat": 38.912594, "rental_uris": {"ios": "https://dc.lft.to/lastmile_qr_scan", "android": "https://dc.lft.to/lastmile_qr_scan"}, "is_reserved": 0, "fusion_lon": 0.0, "fusion_lat": 0.0, "lon": -77.06797433333334, "name": "89546902ceb91bec79f443c1d7c5ff16"}, {"bike_id": "5c2bb76649c0b9ec2e79f8dadb5d4ea7", "type": "electric_scooter", "is_disabled": 0, "lat": 38.8930325, "rental_uris": {"ios": "https://dc.lft.to/lastmile_qr_scan", "android": "https://dc.lft.to/lastmile_qr_scan"}, "is_reserved": 0, "fusion_lon": 0.0, "fusion_lat": 0.0, "lon": -77.046761, "name": "5c2bb76649c0b9ec2e79f8dadb5d4ea7"}, {"bike_id": "1d9baa0c64f182db34d61874aad4a5f0", "type": "electric_scooter", "is_disabled": 0, "lat": 38.914772666666664, "rental_uris": {"ios": "https://dc.lft.to/lastmile_qr_scan", "android": "https://dc.lft.to/lastmile_qr_scan"}, "is_reserved": 0, "fusion_lon": 0.0, "fusion_lat": 0.0, "lon": -77.00287783333333, "name": "1d9baa0c64f182db34d61874aad4a5f0"}, {"bike_id": "def0938b91a01ab16f62f3cdb56a10b1", "type": "electric_scooter", "is_disabled": 0, "lat": 38.864697166666666, "rental_uris": {"ios": "https://dc.lft.to/lastmile_qr_scan", "android": "https://dc.lft.to/lastmile_qr_scan"}, "is_reserved": 0, "fusion_lon": 0.0, "fusion_lat": 0.0, "lon": -77.00013716666666, "name": "def0938b91a01ab16f62f3cdb56a10b1"}, {"bike_id": "58debe531ebba0644b29c01c7b6f364a", "type": "electric_scooter", "is_disabled": 0, "lat": 38.93957866666667, "rental_uris": {"ios": "https://dc.lft.to/lastmile_qr_scan", "android": "https://dc.lft.to/lastmile_qr_scan"}, "is_reserved": 0, "fusion_lon": 0.0, "fusion_lat": 0.0, "lon": -77.07245233333333, "name": "58debe531ebba0644b29c01c7b6f364a"}, {"bike_id": "275107f68edb19354f2caf81546adc6d", "type": "electric_scooter", "is_disabled": 0, "lat": 38.9084915, "rental_uris": {"ios": "https://dc.lft.to/lastmile_qr_scan", "android": "https://dc.lft.to/lastmile_qr_scan"}, "is_reserved": 0, "fusion_lon": 0.0, "fusion_lat": 0.0, "lon": -76.999629, "name": "275107f68edb19354f2caf81546adc6d"}, {"bike_id": "f107d3145bbdf5530f942b5f60e9151c", "type": "electric_scooter", "is_disabled": 0, "lat": 38.922653833333335, "rental_uris": {"ios": "https://dc.lft.to/lastmile_qr_scan", "android": "https://dc.lft.to/lastmile_qr_scan"}, "is_reserved": 0, "fusion_lon": 0.0, "fusion_lat": 0.0, "lon": -77.01883116666667, "name": "f107d3145bbdf5530f942b5f60e9151c"}, {"bike_id": "e50b97a6f234dcb6222caeb8c3be62e6", "type": "electric_scooter", "is_disabled": 0, "lat": 38.916506, "rental_uris": {"ios": "https://dc.lft.to/lastmile_qr_scan", "android": "https://dc.lft.to/lastmile_qr_scan"}, "is_reserved": 0, "fusion_lon": 0.0, "fusion_lat": 0.0, "lon": -77.02888416666667, "name": "e50b97a6f234dcb6222caeb8c3be62e6"}, {"bike_id": "0a6f89a6502854c6f5938457490b6b40", "type": "electric_scooter", "is_disabled": 0, "lat": 38.888537666666664, "rental_uris": {"ios": "https://dc.lft.to/lastmile_qr_scan", "android": "https://dc.lft.to/lastmile_qr_scan"}, "is_reserved": 0, "fusion_lon": 0.0, "fusion_lat": 0.0, "lon": -77.00051883333333, "name": "0a6f89a6502854c6f5938457490b6b40"}, {"bike_id": "f592a21cb80fd3b84dc6e51c5dd24e71", "type": "electric_scooter", "is_disabled": 0, "lat": 38.887442166666666, "rental_uris": {"ios": "https://dc.lft.to/lastmile_qr_scan", "android": "https://dc.lft.to/lastmile_qr_scan"}, "is_reserved": 0, "fusion_lon": 0.0, "fusion_lat": 0.0, "lon": -76.9962725, "name": "f592a21cb80fd3b84dc6e51c5dd24e71"}, {"bike_id": "b2c2bac396411744beefc67c36ab3a29", "type": "electric_scooter", "is_disabled": 0, "lat": 38.923938166666666, "rental_uris": {"ios": "https://dc.lft.to/lastmile_qr_scan", "android": "https://dc.lft.to/lastmile_qr_scan"}, "is_reserved": 0, "fusion_lon": 0.0, "fusion_lat": 0.0, "lon": -77.04300766666667, "name": "b2c2bac396411744beefc67c36ab3a29"}, {"bike_id": "3f6cc31672da79a2fe474e11448be668", "type": "electric_scooter", "is_disabled": 0, "lat": 38.92282433333333, "rental_uris": {"ios": "https://dc.lft.to/lastmile_qr_scan", "android": "https://dc.lft.to/lastmile_qr_scan"}, "is_reserved": 0, "fusion_lon": 0.0, "fusion_lat": 0.0, "lon": -77.04193766666667, "name": "3f6cc31672da79a2fe474e11448be668"}, {"bike_id": "c5d4dd50dbf1a98245551a71f5d064f1", "type": "electric_scooter", "is_disabled": 0, "lat": 38.92480666666667, "rental_uris": {"ios": "https://dc.lft.to/lastmile_qr_scan", "android": "https://dc.lft.to/lastmile_qr_scan"}, "is_reserved": 0, "fusion_lon": 0.0, "fusion_lat": 0.0, "lon": -77.05211, "name": "c5d4dd50dbf1a98245551a71f5d064f1"}, {"bike_id": "33aecb74e40ec9f6ebfe95fb5e250b95", "type": "electric_scooter", "is_disabled": 0, "lat": 38.9151295, "rental_uris": {"ios": "https://dc.lft.to/lastmile_qr_scan", "android": "https://dc.lft.to/lastmile_qr_scan"}, "is_reserved": 0, "fusion_lon": 0.0, "fusion_lat": 0.0, "lon": -77.02182216666667, "name": "33aecb74e40ec9f6ebfe95fb5e250b95"}, {"bike_id": "b484337b40a2646d85c1ac5e9b22d6c3", "type": "electric_bike", "is_disabled": 0, "lat": 38.8910305, "rental_uris": {"ios": "https://dc.lft.to/lastmile_qr_scan", "android": "https://dc.lft.to/lastmile_qr_scan"}, "is_reserved": 0, "fusion_lon": 0.0, "fusion_lat": 0.0, "lon": -76.93480266666667, "name": "b484337b40a2646d85c1ac5e9b22d6c3"}, {"bike_id": "017f128e6a50ed809987557f8b361f26", "type": "electric_scooter", "is_disabled": 0, "lat": 38.880544666666665, "rental_uris": {"ios": "https://dc.lft.to/lastmile_qr_scan", "android": "https://dc.lft.to/lastmile_qr_scan"}, "is_reserved": 0, "fusion_lon": 0.0, "fusion_lat": 0.0, "lon": -76.9321185, "name": "017f128e6a50ed809987557f8b361f26"}, {"bike_id": "ed2f81cc7cead1529848e7efa6fd71d1", "type": "electric_scooter", "is_disabled": 0, "lat": 38.914038166666664, "rental_uris": {"ios": "https://dc.lft.to/lastmile_qr_scan", "android": "https://dc.lft.to/lastmile_qr_scan"}, "is_reserved": 0, "fusion_lon": 0.0, "fusion_lat": 0.0, "lon": -77.03263316666667, "name": "ed2f81cc7cead1529848e7efa6fd71d1"}, {"bike_id": "117fb41bf595ef16ed2d7a58bff84768", "type": "electric_scooter", "is_disabled": 0, "lat": 38.919048833333335, "rental_uris": {"ios": "https://dc.lft.to/lastmile_qr_scan", "android": "https://dc.lft.to/lastmile_qr_scan"}, "is_reserved": 0, "fusion_lon": 0.0, "fusion_lat": 0.0, "lon": -77.07080733333333, "name": "117fb41bf595ef16ed2d7a58bff84768"}, {"bike_id": "f24994e619a19a8b7160284678cefe12", "type": "electric_scooter", "is_disabled": 0, "lat": 38.95682466666667, "rental_uris": {"ios": "https://dc.lft.to/lastmile_qr_scan", "android": "https://dc.lft.to/lastmile_qr_scan"}, "is_reserved": 0, "fusion_lon": 0.0, "fusion_lat": 0.0, "lon": -77.02401783333333, "name": "f24994e619a19a8b7160284678cefe12"}, {"bike_id": "65becb50ef1f1aa2e1c3f61bbc278209", "type": "electric_scooter", "is_disabled": 0, "lat": 38.90726133333333, "rental_uris": {"ios": "https://dc.lft.to/lastmile_qr_scan", "android": "https://dc.lft.to/lastmile_qr_scan"}, "is_reserved": 0, "fusion_lon": 0.0, "fusion_lat": 0.0, "lon": -77.0532995, "name": "65becb50ef1f1aa2e1c3f61bbc278209"}, {"bike_id": "ed48448dea5a74269c2593f967ecdc56", "type": "electric_scooter", "is_disabled": 0, "lat": 38.9213555, "rental_uris": {"ios": "https://dc.lft.to/lastmile_qr_scan", "android": "https://dc.lft.to/lastmile_qr_scan"}, "is_reserved": 0, "fusion_lon": 0.0, "fusion_lat": 0.0, "lon": -77.01809616666667, "name": "ed48448dea5a74269c2593f967ecdc56"}, {"bike_id": "8556bdbc8457db3a6300d0f13e47b328", "type": "electric_scooter", "is_disabled": 0, "lat": 38.93235466666667, "rental_uris": {"ios": "https://dc.lft.to/lastmile_qr_scan", "android": "https://dc.lft.to/lastmile_qr_scan"}, "is_reserved": 0, "fusion_lon": 0.0, "fusion_lat": 0.0, "lon": -77.035926, "name": "8556bdbc8457db3a6300d0f13e47b328"}, {"bike_id": "209c11d84e9ed39a3938afb242a510fc", "type": "electric_scooter", "is_disabled": 0, "lat": 38.92060383333333, "rental_uris": {"ios": "https://dc.lft.to/lastmile_qr_scan", "android": "https://dc.lft.to/lastmile_qr_scan"}, "is_reserved": 0, "fusion_lon": 0.0, "fusion_lat": 0.0, "lon": -77.03468283333333, "name": "209c11d84e9ed39a3938afb242a510fc"}, {"bike_id": "8844762414259d2ee633330c09453930", "type": "electric_scooter", "is_disabled": 0, "lat": 38.884893, "rental_uris": {"ios": "https://dc.lft.to/lastmile_qr_scan", "android": "https://dc.lft.to/lastmile_qr_scan"}, "is_reserved": 0, "fusion_lon": 0.0, "fusion_lat": 0.0, "lon": -77.01506216666667, "name": "8844762414259d2ee633330c09453930"}, {"bike_id": "c401406de389633c419ca8b877b224ed", "type": "electric_scooter", "is_disabled": 0, "lat": 38.926875833333334, "rental_uris": {"ios": "https://dc.lft.to/lastmile_qr_scan", "android": "https://dc.lft.to/lastmile_qr_scan"}, "is_reserved": 0, "fusion_lon": 0.0, "fusion_lat": 0.0, "lon": -77.02162833333334, "name": "c401406de389633c419ca8b877b224ed"}, {"bike_id": "36558985ab82d3040dd2d806bcd90258", "type": "electric_scooter", "is_disabled": 0, "lat": 38.91971016666667, "rental_uris": {"ios": "https://dc.lft.to/lastmile_qr_scan", "android": "https://dc.lft.to/lastmile_qr_scan"}, "is_reserved": 0, "fusion_lon": 0.0, "fusion_lat": 0.0, "lon": -77.0333165, "name": "36558985ab82d3040dd2d806bcd90258"}, {"bike_id": "33dd4d5a2e2591c89b4674d2bc5a6201", "type": "electric_scooter", "is_disabled": 0, "lat": 38.933526, "rental_uris": {"ios": "https://dc.lft.to/lastmile_qr_scan", "android": "https://dc.lft.to/lastmile_qr_scan"}, "is_reserved": 0, "fusion_lon": 0.0, "fusion_lat": 0.0, "lon": -77.023849, "name": "33dd4d5a2e2591c89b4674d2bc5a6201"}, {"bike_id": "42a676b29ede854755f153b63fdeabf5", "type": "electric_scooter", "is_disabled": 0, "lat": 38.905213, "rental_uris": {"ios": "https://dc.lft.to/lastmile_qr_scan", "android": "https://dc.lft.to/lastmile_qr_scan"}, "is_reserved": 0, "fusion_lon": 0.0, "fusion_lat": 0.0, "lon": -77.06103133333333, "name": "42a676b29ede854755f153b63fdeabf5"}, {"bike_id": "a7a7248dacaaa43af43cb9f868ef1508", "type": "electric_scooter", "is_disabled": 0, "lat": 38.901585, "rental_uris": {"ios": "https://dc.lft.to/lastmile_qr_scan", "android": "https://dc.lft.to/lastmile_qr_scan"}, "is_reserved": 0, "fusion_lon": 0.0, "fusion_lat": 0.0, "lon": -77.0258505, "name": "a7a7248dacaaa43af43cb9f868ef1508"}, {"bike_id": "b4436ffaa8c2b3da92cbbaf18618e759", "type": "electric_scooter", "is_disabled": 0, "lat": 38.899866333333335, "rental_uris": {"ios": "https://dc.lft.to/lastmile_qr_scan", "android": "https://dc.lft.to/lastmile_qr_scan"}, "is_reserved": 0, "fusion_lon": 0.0, "fusion_lat": 0.0, "lon": -76.95002433333333, "name": "b4436ffaa8c2b3da92cbbaf18618e759"}, {"bike_id": "4ce42e8f8bdefe2d425355eb013a98e7", "type": "electric_scooter", "is_disabled": 0, "lat": 38.878127666666664, "rental_uris": {"ios": "https://dc.lft.to/lastmile_qr_scan", "android": "https://dc.lft.to/lastmile_qr_scan"}, "is_reserved": 0, "fusion_lon": 0.0, "fusion_lat": 0.0, "lon": -76.97175266666666, "name": "4ce42e8f8bdefe2d425355eb013a98e7"}, {"bike_id": "fbe1d945e236cc4f946bbaee5dfc4ca7", "type": "electric_scooter", "is_disabled": 0, "lat": 38.93766433333333, "rental_uris": {"ios": "https://dc.lft.to/lastmile_qr_scan", "android": "https://dc.lft.to/lastmile_qr_scan"}, "is_reserved": 0, "fusion_lon": 0.0, "fusion_lat": 0.0, "lon": -77.01973433333333, "name": "fbe1d945e236cc4f946bbaee5dfc4ca7"}, {"bike_id": "ad176db6915993ec7d9ab880a404429e", "type": "electric_bike", "is_disabled": 0, "lat": 38.8636795, "rental_uris": {"ios": "https://dc.lft.to/lastmile_qr_scan", "android": "https://dc.lft.to/lastmile_qr_scan"}, "is_reserved": 0, "fusion_lon": 0.0, "fusion_lat": 0.0, "lon": -76.97022416666667, "name": "ad176db6915993ec7d9ab880a404429e"}, {"bike_id": "c00482140ecf1f2c0e72368b743e79cd", "type": "electric_scooter", "is_disabled": 0, "lat": 38.85891, "rental_uris": {"ios": "https://dc.lft.to/lastmile_qr_scan", "android": "https://dc.lft.to/lastmile_qr_scan"}, "is_reserved": 0, "fusion_lon": 0.0, "fusion_lat": 0.0, "lon": -76.99728733333333, "name": "c00482140ecf1f2c0e72368b743e79cd"}, {"bike_id": "232c90ba140bad370056b477fc84fd47", "type": "electric_scooter", "is_disabled": 0, "lat": 38.92177866666667, "rental_uris": {"ios": "https://dc.lft.to/lastmile_qr_scan", "android": "https://dc.lft.to/lastmile_qr_scan"}, "is_reserved": 0, "fusion_lon": 0.0, "fusion_lat": 0.0, "lon": -76.99793416666667, "name": "232c90ba140bad370056b477fc84fd47"}, {"bike_id": "4c0b807a9d08c7dd444d2d61ee87697a", "type": "electric_bike", "is_disabled": 0, "lat": 38.863215, "rental_uris": {"ios": "https://dc.lft.to/lastmile_qr_scan", "android": "https://dc.lft.to/lastmile_qr_scan"}, "is_reserved": 0, "fusion_lon": 0.0, "fusion_lat": 0.0, "lon": -76.98717066666667, "name": "4c0b807a9d08c7dd444d2d61ee87697a"}, {"bike_id": "8eaa227367bef5b2910800ccbe9cc2df", "type": "electric_scooter", "is_disabled": 0, "lat": 38.944613833333335, "rental_uris": {"ios": "https://dc.lft.to/lastmile_qr_scan", "android": "https://dc.lft.to/lastmile_qr_scan"}, "is_reserved": 0, "fusion_lon": 0.0, "fusion_lat": 0.0, "lon": -77.00658466666667, "name": "8eaa227367bef5b2910800ccbe9cc2df"}, {"bike_id": "05d75b1f4596942c2cf11dd50af3e8ea", "type": "electric_scooter", "is_disabled": 0, "lat": 38.90193166666667, "rental_uris": {"ios": "https://dc.lft.to/lastmile_qr_scan", "android": "https://dc.lft.to/lastmile_qr_scan"}, "is_reserved": 0, "fusion_lon": 0.0, "fusion_lat": 0.0, "lon": -76.98846233333333, "name": "05d75b1f4596942c2cf11dd50af3e8ea"}, {"bike_id": "3309e50ab0ca1c95bc8ae1b64876e9ca", "type": "electric_scooter", "is_disabled": 0, "lat": 38.9020555, "rental_uris": {"ios": "https://dc.lft.to/lastmile_qr_scan", "android": "https://dc.lft.to/lastmile_qr_scan"}, "is_reserved": 0, "fusion_lon": 0.0, "fusion_lat": 0.0, "lon": -77.034019, "name": "3309e50ab0ca1c95bc8ae1b64876e9ca"}, {"bike_id": "6a1ed4fbdaa50f10cc00db465a95be07", "type": "electric_scooter", "is_disabled": 0, "lat": 38.90057483333333, "rental_uris": {"ios": "https://dc.lft.to/lastmile_qr_scan", "android": "https://dc.lft.to/lastmile_qr_scan"}, "is_reserved": 0, "fusion_lon": 0.0, "fusion_lat": 0.0, "lon": -77.01363733333334, "name": "6a1ed4fbdaa50f10cc00db465a95be07"}, {"bike_id": "5d6e73d717ccbedca3fee6f10b588203", "type": "electric_scooter", "is_disabled": 0, "lat": 38.919638, "rental_uris": {"ios": "https://dc.lft.to/lastmile_qr_scan", "android": "https://dc.lft.to/lastmile_qr_scan"}, "is_reserved": 0, "fusion_lon": 0.0, "fusion_lat": 0.0, "lon": -77.03952533333333, "name": "5d6e73d717ccbedca3fee6f10b588203"}, {"bike_id": "035daa604feb519423a4810b522789e7", "type": "electric_scooter", "is_disabled": 0, "lat": 38.897359, "rental_uris": {"ios": "https://dc.lft.to/lastmile_qr_scan", "android": "https://dc.lft.to/lastmile_qr_scan"}, "is_reserved": 0, "fusion_lon": 0.0, "fusion_lat": 0.0, "lon": -76.947249, "name": "035daa604feb519423a4810b522789e7"}, {"bike_id": "17c76f1f1900651cd32a1132edf96b23", "type": "electric_scooter", "is_disabled": 0, "lat": 38.875784333333335, "rental_uris": {"ios": "https://dc.lft.to/lastmile_qr_scan", "android": "https://dc.lft.to/lastmile_qr_scan"}, "is_reserved": 0, "fusion_lon": 0.0, "fusion_lat": 0.0, "lon": -77.01274966666666, "name": "17c76f1f1900651cd32a1132edf96b23"}, {"bike_id": "d427f19cec66a4bd2886fafaac160f6c", "type": "electric_scooter", "is_disabled": 0, "lat": 38.9319625, "rental_uris": {"ios": "https://dc.lft.to/lastmile_qr_scan", "android": "https://dc.lft.to/lastmile_qr_scan"}, "is_reserved": 0, "fusion_lon": 0.0, "fusion_lat": 0.0, "lon": -77.02774, "name": "d427f19cec66a4bd2886fafaac160f6c"}, {"bike_id": "5e30d9b8bcbd7147f87be191081d610e", "type": "electric_scooter", "is_disabled": 0, "lat": 38.893807, "rental_uris": {"ios": "https://dc.lft.to/lastmile_qr_scan", "android": "https://dc.lft.to/lastmile_qr_scan"}, "is_reserved": 0, "fusion_lon": 0.0, "fusion_lat": 0.0, "lon": -77.02433416666666, "name": "5e30d9b8bcbd7147f87be191081d610e"}, {"bike_id": "6bb81a524d389f8c5262f608db61d546", "type": "electric_bike", "is_disabled": 0, "lat": 38.88925666666667, "rental_uris": {"ios": "https://dc.lft.to/lastmile_qr_scan", "android": "https://dc.lft.to/lastmile_qr_scan"}, "is_reserved": 0, "fusion_lon": 0.0, "fusion_lat": 0.0, "lon": -76.99175866666667, "name": "6bb81a524d389f8c5262f608db61d546"}, {"bike_id": "98dbd7493aa770e3b459501d8079513d", "type": "electric_scooter", "is_disabled": 0, "lat": 38.9234125, "rental_uris": {"ios": "https://dc.lft.to/lastmile_qr_scan", "android": "https://dc.lft.to/lastmile_qr_scan"}, "is_reserved": 0, "fusion_lon": 0.0, "fusion_lat": 0.0, "lon": -77.0509935, "name": "98dbd7493aa770e3b459501d8079513d"}, {"bike_id": "eaf2d02f84f54c41af58a6c396494807", "type": "electric_scooter", "is_disabled": 0, "lat": 38.937468, "rental_uris": {"ios": "https://dc.lft.to/lastmile_qr_scan", "android": "https://dc.lft.to/lastmile_qr_scan"}, "is_reserved": 0, "fusion_lon": 0.0, "fusion_lat": 0.0, "lon": -77.02456633333334, "name": "eaf2d02f84f54c41af58a6c396494807"}, {"bike_id": "c178729bd3869d30822ff54601a32c79", "type": "electric_scooter", "is_disabled": 0, "lat": 38.902837, "rental_uris": {"ios": "https://dc.lft.to/lastmile_qr_scan", "android": "https://dc.lft.to/lastmile_qr_scan"}, "is_reserved": 0, "fusion_lon": 0.0, "fusion_lat": 0.0, "lon": -77.04478833333333, "name": "c178729bd3869d30822ff54601a32c79"}, {"bike_id": "293f467f9772dfeba9ecd81980159225", "type": "electric_scooter", "is_disabled": 0, "lat": 38.9208255, "rental_uris": {"ios": "https://dc.lft.to/lastmile_qr_scan", "android": "https://dc.lft.to/lastmile_qr_scan"}, "is_reserved": 0, "fusion_lon": 0.0, "fusion_lat": 0.0, "lon": -77.023844, "name": "293f467f9772dfeba9ecd81980159225"}, {"bike_id": "f6d38e789a399f2b80cccc7db14348a1", "type": "electric_scooter", "is_disabled": 0, "lat": 38.90500516666667, "rental_uris": {"ios": "https://dc.lft.to/lastmile_qr_scan", "android": "https://dc.lft.to/lastmile_qr_scan"}, "is_reserved": 0, "fusion_lon": 0.0, "fusion_lat": 0.0, "lon": -77.06887583333334, "name": "f6d38e789a399f2b80cccc7db14348a1"}, {"bike_id": "a917f6e133f5f86dcd931f3c76317933", "type": "electric_scooter", "is_disabled": 0, "lat": 38.87627166666667, "rental_uris": {"ios": "https://dc.lft.to/lastmile_qr_scan", "android": "https://dc.lft.to/lastmile_qr_scan"}, "is_reserved": 0, "fusion_lon": 0.0, "fusion_lat": 0.0, "lon": -76.9652855, "name": "a917f6e133f5f86dcd931f3c76317933"}, {"bike_id": "097e3d118c3e28164d01b2415b8b6a3e", "type": "electric_scooter", "is_disabled": 0, "lat": 38.9005985, "rental_uris": {"ios": "https://dc.lft.to/lastmile_qr_scan", "android": "https://dc.lft.to/lastmile_qr_scan"}, "is_reserved": 0, "fusion_lon": 0.0, "fusion_lat": 0.0, "lon": -76.92741783333334, "name": "097e3d118c3e28164d01b2415b8b6a3e"}, {"bike_id": "f13f9434a6e2535ad43e7009544e1bce", "type": "electric_scooter", "is_disabled": 0, "lat": 38.913529, "rental_uris": {"ios": "https://dc.lft.to/lastmile_qr_scan", "android": "https://dc.lft.to/lastmile_qr_scan"}, "is_reserved": 0, "fusion_lon": 0.0, "fusion_lat": 0.0, "lon": -77.0319065, "name": "f13f9434a6e2535ad43e7009544e1bce"}, {"bike_id": "8dfdd6648baeb4d05c257ef02eefeafb", "type": "electric_scooter", "is_disabled": 0, "lat": 38.956407666666664, "rental_uris": {"ios": "https://dc.lft.to/lastmile_qr_scan", "android": "https://dc.lft.to/lastmile_qr_scan"}, "is_reserved": 0, "fusion_lon": 0.0, "fusion_lat": 0.0, "lon": -77.01152316666666, "name": "8dfdd6648baeb4d05c257ef02eefeafb"}, {"bike_id": "ae2b108414cdbfda19987cdb1d01a558", "type": "electric_scooter", "is_disabled": 0, "lat": 38.956474666666665, "rental_uris": {"ios": "https://dc.lft.to/lastmile_qr_scan", "android": "https://dc.lft.to/lastmile_qr_scan"}, "is_reserved": 0, "fusion_lon": 0.0, "fusion_lat": 0.0, "lon": -77.01015483333333, "name": "ae2b108414cdbfda19987cdb1d01a558"}, {"bike_id": "1d4537de480fb3a48636b1c03f964708", "type": "electric_scooter", "is_disabled": 0, "lat": 38.900539333333334, "rental_uris": {"ios": "https://dc.lft.to/lastmile_qr_scan", "android": "https://dc.lft.to/lastmile_qr_scan"}, "is_reserved": 0, "fusion_lon": 0.0, "fusion_lat": 0.0, "lon": -77.04903833333333, "name": "1d4537de480fb3a48636b1c03f964708"}, {"bike_id": "309665ca44c18243986785d075260919", "type": "electric_scooter", "is_disabled": 0, "lat": 38.88736383333333, "rental_uris": {"ios": "https://dc.lft.to/lastmile_qr_scan", "android": "https://dc.lft.to/lastmile_qr_scan"}, "is_reserved": 0, "fusion_lon": 0.0, "fusion_lat": 0.0, "lon": -77.01536166666666, "name": "309665ca44c18243986785d075260919"}, {"bike_id": "86db53415230b5f07314e2a500d9e4f9", "type": "electric_bike", "is_disabled": 0, "lat": 38.874742, "rental_uris": {"ios": "https://dc.lft.to/lastmile_qr_scan", "android": "https://dc.lft.to/lastmile_qr_scan"}, "is_reserved": 0, "fusion_lon": 0.0, "fusion_lat": 0.0, "lon": -76.9653975, "name": "86db53415230b5f07314e2a500d9e4f9"}, {"bike_id": "389118a55364a33526e3fe9fd309aae0", "type": "electric_scooter", "is_disabled": 0, "lat": 38.932377, "rental_uris": {"ios": "https://dc.lft.to/lastmile_qr_scan", "android": "https://dc.lft.to/lastmile_qr_scan"}, "is_reserved": 0, "fusion_lon": 0.0, "fusion_lat": 0.0, "lon": -77.03891016666667, "name": "389118a55364a33526e3fe9fd309aae0"}, {"bike_id": "648c7ff9faecaaed74b23d8a69d6ff06", "type": "electric_scooter", "is_disabled": 0, "lat": 38.925371, "rental_uris": {"ios": "https://dc.lft.to/lastmile_qr_scan", "android": "https://dc.lft.to/lastmile_qr_scan"}, "is_reserved": 0, "fusion_lon": 0.0, "fusion_lat": 0.0, "lon": -77.0426405, "name": "648c7ff9faecaaed74b23d8a69d6ff06"}, {"bike_id": "bf44f2c8a5aafe6cc9ff89d17aa97b7f", "type": "electric_bike", "is_disabled": 0, "lat": 38.813062, "rental_uris": {"ios": "https://dc.lft.to/lastmile_qr_scan", "android": "https://dc.lft.to/lastmile_qr_scan"}, "is_reserved": 0, "fusion_lon": 0.0, "fusion_lat": 0.0, "lon": -77.10968483333333, "name": "bf44f2c8a5aafe6cc9ff89d17aa97b7f"}, {"bike_id": "e41c9fa4212af18a88935ee46eff3676", "type": "electric_scooter", "is_disabled": 0, "lat": 38.90869516666667, "rental_uris": {"ios": "https://dc.lft.to/lastmile_qr_scan", "android": "https://dc.lft.to/lastmile_qr_scan"}, "is_reserved": 0, "fusion_lon": 0.0, "fusion_lat": 0.0, "lon": -76.99836616666667, "name": "e41c9fa4212af18a88935ee46eff3676"}, {"bike_id": "903eafeedaea0d771a8acea4a997bca0", "type": "electric_scooter", "is_disabled": 0, "lat": 38.90677933333333, "rental_uris": {"ios": "https://dc.lft.to/lastmile_qr_scan", "android": "https://dc.lft.to/lastmile_qr_scan"}, "is_reserved": 0, "fusion_lon": 0.0, "fusion_lat": 0.0, "lon": -77.06268766666666, "name": "903eafeedaea0d771a8acea4a997bca0"}, {"bike_id": "2d0472e15cea74eae7fd4d3e920edd8f", "type": "electric_scooter", "is_disabled": 0, "lat": 38.88696183333333, "rental_uris": {"ios": "https://dc.lft.to/lastmile_qr_scan", "android": "https://dc.lft.to/lastmile_qr_scan"}, "is_reserved": 0, "fusion_lon": 0.0, "fusion_lat": 0.0, "lon": -76.99616916666666, "name": "2d0472e15cea74eae7fd4d3e920edd8f"}, {"bike_id": "757c228c233ccb923c52b1cbe36adc83", "type": "electric_scooter", "is_disabled": 0, "lat": 38.911781833333336, "rental_uris": {"ios": "https://dc.lft.to/lastmile_qr_scan", "android": "https://dc.lft.to/lastmile_qr_scan"}, "is_reserved": 0, "fusion_lon": 0.0, "fusion_lat": 0.0, "lon": -77.001965, "name": "757c228c233ccb923c52b1cbe36adc83"}, {"bike_id": "d12cfae5d81a515d93437b3f76a46bc8", "type": "electric_scooter", "is_disabled": 0, "lat": 38.935365, "rental_uris": {"ios": "https://dc.lft.to/lastmile_qr_scan", "android": "https://dc.lft.to/lastmile_qr_scan"}, "is_reserved": 0, "fusion_lon": 0.0, "fusion_lat": 0.0, "lon": -77.05829383333334, "name": "d12cfae5d81a515d93437b3f76a46bc8"}, {"bike_id": "723187ef99303d3959ee8841ba3b8ee1", "type": "electric_scooter", "is_disabled": 0, "lat": 38.901701, "rental_uris": {"ios": "https://dc.lft.to/lastmile_qr_scan", "android": "https://dc.lft.to/lastmile_qr_scan"}, "is_reserved": 0, "fusion_lon": 0.0, "fusion_lat": 0.0, "lon": -76.93028466666667, "name": "723187ef99303d3959ee8841ba3b8ee1"}, {"bike_id": "9eeab1861fdb56c98e5b622d119ef362", "type": "electric_scooter", "is_disabled": 0, "lat": 38.93026116666667, "rental_uris": {"ios": "https://dc.lft.to/lastmile_qr_scan", "android": "https://dc.lft.to/lastmile_qr_scan"}, "is_reserved": 0, "fusion_lon": 0.0, "fusion_lat": 0.0, "lon": -77.03811333333333, "name": "9eeab1861fdb56c98e5b622d119ef362"}, {"bike_id": "617112835bd65022a5af602c88fededb", "type": "electric_scooter", "is_disabled": 0, "lat": 38.8961105, "rental_uris": {"ios": "https://dc.lft.to/lastmile_qr_scan", "android": "https://dc.lft.to/lastmile_qr_scan"}, "is_reserved": 0, "fusion_lon": 0.0, "fusion_lat": 0.0, "lon": -77.00030883333334, "name": "617112835bd65022a5af602c88fededb"}, {"bike_id": "069c41c1ea61a8f9be0d400fe19efc1b", "type": "electric_bike", "is_disabled": 0, "lat": 38.836094833333334, "rental_uris": {"ios": "https://dc.lft.to/lastmile_qr_scan", "android": "https://dc.lft.to/lastmile_qr_scan"}, "is_reserved": 0, "fusion_lon": 0.0, "fusion_lat": 0.0, "lon": -77.00384466666667, "name": "069c41c1ea61a8f9be0d400fe19efc1b"}, {"bike_id": "a23d0bd212007e8bfdea5133385a0967", "type": "electric_scooter", "is_disabled": 0, "lat": 38.907529, "rental_uris": {"ios": "https://dc.lft.to/lastmile_qr_scan", "android": "https://dc.lft.to/lastmile_qr_scan"}, "is_reserved": 0, "fusion_lon": 0.0, "fusion_lat": 0.0, "lon": -77.03606333333333, "name": "a23d0bd212007e8bfdea5133385a0967"}, {"bike_id": "0ed72812c6aab9eec80cd3fb6a5f2c61", "type": "electric_bike", "is_disabled": 0, "lat": 38.87134366666667, "rental_uris": {"ios": "https://dc.lft.to/lastmile_qr_scan", "android": "https://dc.lft.to/lastmile_qr_scan"}, "is_reserved": 0, "fusion_lon": 0.0, "fusion_lat": 0.0, "lon": -77.10026366666666, "name": "0ed72812c6aab9eec80cd3fb6a5f2c61"}, {"bike_id": "09c6edb35e33f5fcdc8aa41279762023", "type": "electric_scooter", "is_disabled": 0, "lat": 38.89913883333333, "rental_uris": {"ios": "https://dc.lft.to/lastmile_qr_scan", "android": "https://dc.lft.to/lastmile_qr_scan"}, "is_reserved": 0, "fusion_lon": 0.0, "fusion_lat": 0.0, "lon": -76.9337065, "name": "09c6edb35e33f5fcdc8aa41279762023"}, {"bike_id": "3596cafe012843e8c9dddde3171bc443", "type": "electric_scooter", "is_disabled": 0, "lat": 38.90781833333333, "rental_uris": {"ios": "https://dc.lft.to/lastmile_qr_scan", "android": "https://dc.lft.to/lastmile_qr_scan"}, "is_reserved": 0, "fusion_lon": 0.0, "fusion_lat": 0.0, "lon": -77.06436616666667, "name": "3596cafe012843e8c9dddde3171bc443"}, {"bike_id": "08208280ccced57cc3db95b899b91475", "type": "electric_scooter", "is_disabled": 0, "lat": 38.9205505, "rental_uris": {"ios": "https://dc.lft.to/lastmile_qr_scan", "android": "https://dc.lft.to/lastmile_qr_scan"}, "is_reserved": 0, "fusion_lon": 0.0, "fusion_lat": 0.0, "lon": -77.024036, "name": "08208280ccced57cc3db95b899b91475"}, {"bike_id": "1fcfde722f43c8a1b67a2ac923ac4b74", "type": "electric_scooter", "is_disabled": 0, "lat": 38.906546166666665, "rental_uris": {"ios": "https://dc.lft.to/lastmile_qr_scan", "android": "https://dc.lft.to/lastmile_qr_scan"}, "is_reserved": 0, "fusion_lon": 0.0, "fusion_lat": 0.0, "lon": -77.0486085, "name": "1fcfde722f43c8a1b67a2ac923ac4b74"}, {"bike_id": "067cf6c0db755e3e189828d4b0ecc420", "type": "electric_scooter", "is_disabled": 0, "lat": 38.921076, "rental_uris": {"ios": "https://dc.lft.to/lastmile_qr_scan", "android": "https://dc.lft.to/lastmile_qr_scan"}, "is_reserved": 0, "fusion_lon": 0.0, "fusion_lat": 0.0, "lon": -77.02203066666667, "name": "067cf6c0db755e3e189828d4b0ecc420"}, {"bike_id": "0877f470eceed26c45f651b04820ffac", "type": "electric_scooter", "is_disabled": 0, "lat": 38.91876, "rental_uris": {"ios": "https://dc.lft.to/lastmile_qr_scan", "android": "https://dc.lft.to/lastmile_qr_scan"}, "is_reserved": 0, "fusion_lon": 0.0, "fusion_lat": 0.0, "lon": -77.04459866666667, "name": "0877f470eceed26c45f651b04820ffac"}, {"bike_id": "f881ae4ca215c21a1551f38dd0fdfaf7", "type": "electric_scooter", "is_disabled": 0, "lat": 38.90675683333333, "rental_uris": {"ios": "https://dc.lft.to/lastmile_qr_scan", "android": "https://dc.lft.to/lastmile_qr_scan"}, "is_reserved": 0, "fusion_lon": 0.0, "fusion_lat": 0.0, "lon": -77.01052833333334, "name": "f881ae4ca215c21a1551f38dd0fdfaf7"}, {"bike_id": "0f525c7d7eb9d73ac66234d9c2cbfa45", "type": "electric_scooter", "is_disabled": 0, "lat": 38.91701316666666, "rental_uris": {"ios": "https://dc.lft.to/lastmile_qr_scan", "android": "https://dc.lft.to/lastmile_qr_scan"}, "is_reserved": 0, "fusion_lon": 0.0, "fusion_lat": 0.0, "lon": -77.0107645, "name": "0f525c7d7eb9d73ac66234d9c2cbfa45"}, {"bike_id": "2188fee105005ddfed1351ccf8181e0e", "type": "electric_scooter", "is_disabled": 0, "lat": 38.86373966666667, "rental_uris": {"ios": "https://dc.lft.to/lastmile_qr_scan", "android": "https://dc.lft.to/lastmile_qr_scan"}, "is_reserved": 0, "fusion_lon": 0.0, "fusion_lat": 0.0, "lon": -76.990616, "name": "2188fee105005ddfed1351ccf8181e0e"}, {"bike_id": "eeebdc1137084de2fc98a573fde592b0", "type": "electric_scooter", "is_disabled": 0, "lat": 38.925597833333335, "rental_uris": {"ios": "https://dc.lft.to/lastmile_qr_scan", "android": "https://dc.lft.to/lastmile_qr_scan"}, "is_reserved": 0, "fusion_lon": 0.0, "fusion_lat": 0.0, "lon": -77.0228965, "name": "eeebdc1137084de2fc98a573fde592b0"}, {"bike_id": "89440708dcf374b2d4f15be19dee326d", "type": "electric_scooter", "is_disabled": 0, "lat": 38.879377, "rental_uris": {"ios": "https://dc.lft.to/lastmile_qr_scan", "android": "https://dc.lft.to/lastmile_qr_scan"}, "is_reserved": 0, "fusion_lon": 0.0, "fusion_lat": 0.0, "lon": -77.00377316666666, "name": "89440708dcf374b2d4f15be19dee326d"}, {"bike_id": "e325c8bb482c2ce55e442ec72869b2bd", "type": "electric_scooter", "is_disabled": 0, "lat": 38.91692533333333, "rental_uris": {"ios": "https://dc.lft.to/lastmile_qr_scan", "android": "https://dc.lft.to/lastmile_qr_scan"}, "is_reserved": 0, "fusion_lon": 0.0, "fusion_lat": 0.0, "lon": -77.028932, "name": "e325c8bb482c2ce55e442ec72869b2bd"}, {"bike_id": "f1a27d467d3f0b1758159e50ed9f6f47", "type": "electric_scooter", "is_disabled": 0, "lat": 38.90599816666667, "rental_uris": {"ios": "https://dc.lft.to/lastmile_qr_scan", "android": "https://dc.lft.to/lastmile_qr_scan"}, "is_reserved": 0, "fusion_lon": 0.0, "fusion_lat": 0.0, "lon": -77.04126, "name": "f1a27d467d3f0b1758159e50ed9f6f47"}, {"bike_id": "5e309d90c41715a6c1c0dc76accd76da", "type": "electric_scooter", "is_disabled": 0, "lat": 38.908051666666665, "rental_uris": {"ios": "https://dc.lft.to/lastmile_qr_scan", "android": "https://dc.lft.to/lastmile_qr_scan"}, "is_reserved": 0, "fusion_lon": 0.0, "fusion_lat": 0.0, "lon": -77.02041233333334, "name": "5e309d90c41715a6c1c0dc76accd76da"}, {"bike_id": "3e2811bfd369c57b412ffeda03326014", "type": "electric_bike", "is_disabled": 0, "lat": 38.908283833333336, "rental_uris": {"ios": "https://dc.lft.to/lastmile_qr_scan", "android": "https://dc.lft.to/lastmile_qr_scan"}, "is_reserved": 0, "fusion_lon": 0.0, "fusion_lat": 0.0, "lon": -76.94161283333334, "name": "3e2811bfd369c57b412ffeda03326014"}, {"bike_id": "d418b3bd93179ff5002533f2111407b5", "type": "electric_scooter", "is_disabled": 0, "lat": 38.93286466666667, "rental_uris": {"ios": "https://dc.lft.to/lastmile_qr_scan", "android": "https://dc.lft.to/lastmile_qr_scan"}, "is_reserved": 0, "fusion_lon": 0.0, "fusion_lat": 0.0, "lon": -77.0404115, "name": "d418b3bd93179ff5002533f2111407b5"}, {"bike_id": "73fcc5ad51cbb9ad63604967448b46b5", "type": "electric_scooter", "is_disabled": 0, "lat": 38.921338, "rental_uris": {"ios": "https://dc.lft.to/lastmile_qr_scan", "android": "https://dc.lft.to/lastmile_qr_scan"}, "is_reserved": 0, "fusion_lon": 0.0, "fusion_lat": 0.0, "lon": -77.018163, "name": "73fcc5ad51cbb9ad63604967448b46b5"}, {"bike_id": "3ef76dd5dc2eb60daebbdae8bf02f75a", "type": "electric_scooter", "is_disabled": 0, "lat": 38.90685916666666, "rental_uris": {"ios": "https://dc.lft.to/lastmile_qr_scan", "android": "https://dc.lft.to/lastmile_qr_scan"}, "is_reserved": 0, "fusion_lon": 0.0, "fusion_lat": 0.0, "lon": -77.05329033333334, "name": "3ef76dd5dc2eb60daebbdae8bf02f75a"}, {"bike_id": "b664f658a49b63fe248e40d2269a97f3", "type": "electric_scooter", "is_disabled": 0, "lat": 38.888395, "rental_uris": {"ios": "https://dc.lft.to/lastmile_qr_scan", "android": "https://dc.lft.to/lastmile_qr_scan"}, "is_reserved": 0, "fusion_lon": 0.0, "fusion_lat": 0.0, "lon": -76.98920566666666, "name": "b664f658a49b63fe248e40d2269a97f3"}, {"bike_id": "dcc096f9aa149a0f39092f90fd005399", "type": "electric_scooter", "is_disabled": 0, "lat": 38.932095833333335, "rental_uris": {"ios": "https://dc.lft.to/lastmile_qr_scan", "android": "https://dc.lft.to/lastmile_qr_scan"}, "is_reserved": 0, "fusion_lon": 0.0, "fusion_lat": 0.0, "lon": -77.035145, "name": "dcc096f9aa149a0f39092f90fd005399"}, {"bike_id": "60013fddcf7deb81a055a25fd3e1e0e4", "type": "electric_scooter", "is_disabled": 0, "lat": 38.911461833333334, "rental_uris": {"ios": "https://dc.lft.to/lastmile_qr_scan", "android": "https://dc.lft.to/lastmile_qr_scan"}, "is_reserved": 0, "fusion_lon": 0.0, "fusion_lat": 0.0, "lon": -77.03849966666667, "name": "60013fddcf7deb81a055a25fd3e1e0e4"}, {"bike_id": "d8f62f7d982c87b411ab7d9015305a14", "type": "electric_scooter", "is_disabled": 0, "lat": 38.9367905, "rental_uris": {"ios": "https://dc.lft.to/lastmile_qr_scan", "android": "https://dc.lft.to/lastmile_qr_scan"}, "is_reserved": 0, "fusion_lon": 0.0, "fusion_lat": 0.0, "lon": -77.02470766666667, "name": "d8f62f7d982c87b411ab7d9015305a14"}, {"bike_id": "5f247edb2a10e0810d62cc95affd96fe", "type": "electric_scooter", "is_disabled": 0, "lat": 38.8985985, "rental_uris": {"ios": "https://dc.lft.to/lastmile_qr_scan", "android": "https://dc.lft.to/lastmile_qr_scan"}, "is_reserved": 0, "fusion_lon": 0.0, "fusion_lat": 0.0, "lon": -77.040807, "name": "5f247edb2a10e0810d62cc95affd96fe"}, {"bike_id": "71da2ff7ff4e7a90d9aa7abc581863e5", "type": "electric_scooter", "is_disabled": 0, "lat": 38.913887833333334, "rental_uris": {"ios": "https://dc.lft.to/lastmile_qr_scan", "android": "https://dc.lft.to/lastmile_qr_scan"}, "is_reserved": 0, "fusion_lon": 0.0, "fusion_lat": 0.0, "lon": -77.03213933333333, "name": "71da2ff7ff4e7a90d9aa7abc581863e5"}, {"bike_id": "b93d7d76341b40f8b236b974d316122f", "type": "electric_scooter", "is_disabled": 0, "lat": 38.9105275, "rental_uris": {"ios": "https://dc.lft.to/lastmile_qr_scan", "android": "https://dc.lft.to/lastmile_qr_scan"}, "is_reserved": 0, "fusion_lon": 0.0, "fusion_lat": 0.0, "lon": -77.05465116666667, "name": "b93d7d76341b40f8b236b974d316122f"}, {"bike_id": "c268af3981a7f7d1bb42724c5b985204", "type": "electric_scooter", "is_disabled": 0, "lat": 38.914074666666664, "rental_uris": {"ios": "https://dc.lft.to/lastmile_qr_scan", "android": "https://dc.lft.to/lastmile_qr_scan"}, "is_reserved": 0, "fusion_lon": 0.0, "fusion_lat": 0.0, "lon": -77.0326135, "name": "c268af3981a7f7d1bb42724c5b985204"}, {"bike_id": "c4255e978c182785a27eec52ef84b169", "type": "electric_scooter", "is_disabled": 0, "lat": 38.923193166666664, "rental_uris": {"ios": "https://dc.lft.to/lastmile_qr_scan", "android": "https://dc.lft.to/lastmile_qr_scan"}, "is_reserved": 0, "fusion_lon": 0.0, "fusion_lat": 0.0, "lon": -77.021609, "name": "c4255e978c182785a27eec52ef84b169"}, {"bike_id": "1580dbf45250141c1dca511b46f56424", "type": "electric_scooter", "is_disabled": 0, "lat": 38.92939766666667, "rental_uris": {"ios": "https://dc.lft.to/lastmile_qr_scan", "android": "https://dc.lft.to/lastmile_qr_scan"}, "is_reserved": 0, "fusion_lon": 0.0, "fusion_lat": 0.0, "lon": -77.0327055, "name": "1580dbf45250141c1dca511b46f56424"}, {"bike_id": "46e2f30baff44bcccd8e5809eab2f0ae", "type": "electric_bike", "is_disabled": 0, "lat": 38.845228166666665, "rental_uris": {"ios": "https://dc.lft.to/lastmile_qr_scan", "android": "https://dc.lft.to/lastmile_qr_scan"}, "is_reserved": 0, "fusion_lon": 0.0, "fusion_lat": 0.0, "lon": -76.974049, "name": "46e2f30baff44bcccd8e5809eab2f0ae"}, {"bike_id": "210f8956ce99c3e3789a754a4694bb59", "type": "electric_scooter", "is_disabled": 0, "lat": 38.86244816666667, "rental_uris": {"ios": "https://dc.lft.to/lastmile_qr_scan", "android": "https://dc.lft.to/lastmile_qr_scan"}, "is_reserved": 0, "fusion_lon": 0.0, "fusion_lat": 0.0, "lon": -76.995058, "name": "210f8956ce99c3e3789a754a4694bb59"}, {"bike_id": "5033c581ccb248f0e90d79663816e3b2", "type": "electric_scooter", "is_disabled": 0, "lat": 38.9177285, "rental_uris": {"ios": "https://dc.lft.to/lastmile_qr_scan", "android": "https://dc.lft.to/lastmile_qr_scan"}, "is_reserved": 0, "fusion_lon": 0.0, "fusion_lat": 0.0, "lon": -77.02415533333334, "name": "5033c581ccb248f0e90d79663816e3b2"}, {"bike_id": "2342396b35b997cded704c78a6669be9", "type": "electric_scooter", "is_disabled": 0, "lat": 38.9310835, "rental_uris": {"ios": "https://dc.lft.to/lastmile_qr_scan", "android": "https://dc.lft.to/lastmile_qr_scan"}, "is_reserved": 0, "fusion_lon": 0.0, "fusion_lat": 0.0, "lon": -77.03023066666667, "name": "2342396b35b997cded704c78a6669be9"}, {"bike_id": "175f6a69349fe78dda296ddb958b5ba0", "type": "electric_scooter", "is_disabled": 0, "lat": 38.909418333333335, "rental_uris": {"ios": "https://dc.lft.to/lastmile_qr_scan", "android": "https://dc.lft.to/lastmile_qr_scan"}, "is_reserved": 0, "fusion_lon": 0.0, "fusion_lat": 0.0, "lon": -77.03213533333333, "name": "175f6a69349fe78dda296ddb958b5ba0"}, {"bike_id": "ce68d342cc6f520e45b1a84f28bb00ba", "type": "electric_scooter", "is_disabled": 0, "lat": 38.92132766666667, "rental_uris": {"ios": "https://dc.lft.to/lastmile_qr_scan", "android": "https://dc.lft.to/lastmile_qr_scan"}, "is_reserved": 0, "fusion_lon": 0.0, "fusion_lat": 0.0, "lon": -77.01811633333334, "name": "ce68d342cc6f520e45b1a84f28bb00ba"}, {"bike_id": "7aea20c10c1a6a6262839a8663183180", "type": "electric_scooter", "is_disabled": 0, "lat": 38.88055516666667, "rental_uris": {"ios": "https://dc.lft.to/lastmile_qr_scan", "android": "https://dc.lft.to/lastmile_qr_scan"}, "is_reserved": 0, "fusion_lon": 0.0, "fusion_lat": 0.0, "lon": -76.93214866666666, "name": "7aea20c10c1a6a6262839a8663183180"}, {"bike_id": "e1440c5612c053525ea34ebe8380f589", "type": "electric_scooter", "is_disabled": 0, "lat": 38.92382083333333, "rental_uris": {"ios": "https://dc.lft.to/lastmile_qr_scan", "android": "https://dc.lft.to/lastmile_qr_scan"}, "is_reserved": 0, "fusion_lon": 0.0, "fusion_lat": 0.0, "lon": -77.0308495, "name": "e1440c5612c053525ea34ebe8380f589"}, {"bike_id": "88a9d6bf68a9f1b1dea433b16f77724a", "type": "electric_scooter", "is_disabled": 0, "lat": 38.9059235, "rental_uris": {"ios": "https://dc.lft.to/lastmile_qr_scan", "android": "https://dc.lft.to/lastmile_qr_scan"}, "is_reserved": 0, "fusion_lon": 0.0, "fusion_lat": 0.0, "lon": -77.0700725, "name": "88a9d6bf68a9f1b1dea433b16f77724a"}, {"bike_id": "9c02256796761271fb609cfa389146f1", "type": "electric_scooter", "is_disabled": 0, "lat": 38.906871333333335, "rental_uris": {"ios": "https://dc.lft.to/lastmile_qr_scan", "android": "https://dc.lft.to/lastmile_qr_scan"}, "is_reserved": 0, "fusion_lon": 0.0, "fusion_lat": 0.0, "lon": -77.03677866666666, "name": "9c02256796761271fb609cfa389146f1"},