{"data": {"bikes": [{"type": "electric_scooter", "name": "5324f9378f354753645542c6938ef5fd", "fusion_lat": 0.0, "fusion_lon": 0.0, "lon": -77.01147766666666, "is_disabled": 0, "bike_id": "5324f9378f354753645542c6938ef5fd", "is_reserved": 0, "rental_uris": {"android": "https://dc.lft.to/lastmile_qr_scan", "ios": "https://dc.lft.to/lastmile_qr_scan"}, "lat": 38.92962966666666}, {"type": "electric_scooter", "name": "7d4fc54622a5106a884b2503e898a74f", "fusion_lat": 0.0, "fusion_lon": 0.0, "lon": -77.05992433333333, "is_disabled": 0, "bike_id": "7d4fc54622a5106a884b2503e898a74f", "is_reserved": 0, "rental_uris": {"android": "https://dc.lft.to/lastmile_qr_scan", "ios": "https://dc.lft.to/lastmile_qr_scan"}, "lat": 38.938251666666666}, {"type": "electric_bike", "name": "51447b52299cffdd4ef231da19ea52cf", "fusion_lat": 0.0, "fusion_lon": 0.0, "lon": -77.0343375, "is_disabled": 0, "bike_id": "51447b52299cffdd4ef231da19ea52cf", "is_reserved": 0, "rental_uris": {"android": "https://dc.lft.to/lastmile_qr_scan", "ios": "https://dc.lft.to/lastmile_qr_scan"}, "lat": 38.9661985}, {"type": "electric_scooter", "name": "d376e660d27f8605ece3f7a0def5f850", "fusion_lat": 0.0, "fusion_lon": 0.0, "lon": -77.04153783333334, "is_disabled": 0, "bike_id": "d376e660d27f8605ece3f7a0def5f850", "is_reserved": 0, "rental_uris": {"android": "https://dc.lft.to/lastmile_qr_scan", "ios": "https://dc.lft.to/lastmile_qr_scan"}, "lat": 38.92354983333333}, {"type": "electric_bike", "name": "e1381254ef8fc0eed12e5b2813217aa0", "fusion_lat": 0.0, "fusion_lon": 0.0, "lon": -76.90306083333333, "is_disabled": 0, "bike_id": "e1381254ef8fc0eed12e5b2813217aa0", "is_reserved": 0, "rental_uris": {"android": "https://dc.lft.to/lastmile_qr_scan", "ios": "https://dc.lft.to/lastmile_qr_scan"}, "lat": 39.0029485}, {"type": "electric_scooter", "name": "ff1de0d0f146aba23ba6d5dcc5cb6a0e", "fusion_lat": 0.0, "fusion_lon": 0.0, "lon": -77.03669566666666, "is_disabled": 0, "bike_id": "ff1de0d0f146aba23ba6d5dcc5cb6a0e", "is_reserved": 0, "rental_uris": {"android": "https://dc.lft.to/lastmile_qr_scan", "ios": "https://dc.lft.to/lastmile_qr_scan"}, "lat": 38.9212475}, {"type": "electric_scooter", "name": "d9ac297fbe7aabc34b4a927c4a0cd3f6", "fusion_lat": 0.0, "fusion_lon": 0.0, "lon": -76.994098, "is_disabled": 0, "bike_id": "d9ac297fbe7aabc34b4a927c4a0cd3f6", "is_reserved": 0, "rental_uris": {"android": "https://dc.lft.to/lastmile_qr_scan", "ios": "https://dc.lft.to/lastmile_qr_scan"}, "lat": 38.8779365}, {"type": "electric_scooter", "name": "f005565bae0784977d3f18743fd3f2cc", "fusion_lat": 0.0, "fusion_lon": 0.0, "lon": -77.0032045, "is_disabled": 0, "bike_id": "f005565bae0784977d3f18743fd3f2cc", "is_reserved": 0, "rental_uris": {"android": "https://dc.lft.to/lastmile_qr_scan", "ios": "https://dc.lft.to/lastmile_qr_scan"}, "lat": 38.91342933333333}, {"type": "electric_scooter", "name": "45fd473eb100ae7e5ab3724cc43a775a", "fusion_lat": 0.0, "fusion_lon": 0.0, "lon": -77.04666516666667, "is_disabled": 0, "bike_id": "45fd473eb100ae7e5ab3724cc43a775a", "is_reserved": 0, "rental_uris": {"android": "https://dc.lft.to/lastmile_qr_scan", "ios": "https://dc.lft.to/lastmile_qr_scan"}, "lat": 38.89751}, {"type": "electric_scooter", "name": "bc7eeaefdd48b152eab42db35c81c161", "fusion_lat": 0.0, "fusion_lon": 0.0, "lon": -76.99842583333333, "is_disabled": 0, "bike_id": "bc7eeaefdd48b152eab42db35c81c161", "is_reserved": 0, "rental_uris": {"android": "https://dc.lft.to/lastmile_qr_scan", "ios": "https://dc.lft.to/lastmile_qr_scan"}, "lat": 38.906476}, {"type": "electric_scooter", "name": "5a7ad5addd63f04d3663395eaf847d4f", "fusion_lat": 0.0, "fusion_lon": 0.0, "lon": -77.02328016666667, "is_disabled": 0, "bike_id": "5a7ad5addd63f04d3663395eaf847d4f", "is_reserved": 0, "rental_uris": {"android": "https://dc.lft.to/lastmile_qr_scan", "ios": "https://dc.lft.to/lastmile_qr_scan"}, "lat": 38.9306255}, {"type": "electric_scooter", "name": "d45cd6b7ba82994d69c82b34325f1a57", "fusion_lat": 0.0, "fusion_lon": 0.0, "lon": -76.99962266666667, "is_disabled": 0, "bike_id": "d45cd6b7ba82994d69c82b34325f1a57", "is_reserved": 0, "rental_uris": {"android": "https://dc.lft.to/lastmile_qr_scan", "ios": "https://dc.lft.to/lastmile_qr_scan"}, "lat": 38.901086666666664}, {"type": "electric_scooter", "name": "8e734ed20a2aaff9fe2f645f97ece891", "fusion_lat": 0.0, "fusion_lon": 0.0, "lon": -77.03447783333333, "is_disabled": 0, "bike_id": "8e734ed20a2aaff9fe2f645f97ece891", "is_reserved": 0, "rental_uris": {"android": "https://dc.lft.to/lastmile_qr_scan", "ios": "https://dc.lft.to/lastmile_qr_scan"}, "lat": 38.92045}, {"type": "electric_scooter", "name": "d121b9295f2be48b4b06bfe41edca350", "fusion_lat": 0.0, "fusion_lon": 0.0, "lon": -77.0383895, "is_disabled": 0, "bike_id": "d121b9295f2be48b4b06bfe41edca350", "is_reserved": 0, "rental_uris": {"android": "https://dc.lft.to/lastmile_qr_scan", "ios": "https://dc.lft.to/lastmile_qr_scan"}, "lat": 38.90987466666667}, {"type": "electric_scooter", "name": "002e55ff6739224d863ba2e36958be0d", "fusion_lat": 0.0, "fusion_lon": 0.0, "lon": -77.02580383333333, "is_disabled": 0, "bike_id": "002e55ff6739224d863ba2e36958be0d", "is_reserved": 0, "rental_uris": {"android": "https://dc.lft.to/lastmile_qr_scan", "ios": "https://dc.lft.to/lastmile_qr_scan"}, "lat": 38.925232}, {"type": "electric_scooter", "name": "9404cf383b0044e4230188856f3bb6e3", "fusion_lat": 0.0, "fusion_lon": 0.0, "lon": -77.04142133333333, "is_disabled": 0, "bike_id": "9404cf383b0044e4230188856f3bb6e3", "is_reserved": 0, "rental_uris": {"android": "https://dc.lft.to/lastmile_qr_scan", "ios": "https://dc.lft.to/lastmile_qr_scan"}, "lat": 38.93069066666666}, {"type": "electric_scooter", "name": "9c0a69128c1fed0f08eb62aa62803e39", "fusion_lat": 0.0, "fusion_lon": 0.0, "lon": -77.03523533333333, "is_disabled": 0, "bike_id": "9c0a69128c1fed0f08eb62aa62803e39", "is_reserved": 0, "rental_uris": {"android": "https://dc.lft.to/lastmile_qr_scan", "ios": "https://dc.lft.to/lastmile_qr_scan"}, "lat": 38.902495}, {"type": "electric_scooter", "name": "6cd9d7bcdd58c87a632435f1de79f6c7", "fusion_lat": 0.0, "fusion_lon": 0.0, "lon": -77.00069766666667, "is_disabled": 0, "bike_id": "6cd9d7bcdd58c87a632435f1de79f6c7", "is_reserved": 0, "rental_uris": {"android": "https://dc.lft.to/lastmile_qr_scan", "ios": "https://dc.lft.to/lastmile_qr_scan"}, "lat": 38.88116466666666}, {"type": "electric_scooter", "name": "5a3ee72a30ee322dc2f4c44c56347551", "fusion_lat": 0.0, "fusion_lon": 0.0, "lon": -77.01335816666666, "is_disabled": 0, "bike_id": "5a3ee72a30ee322dc2f4c44c56347551", "is_reserved": 0, "rental_uris": {"android": "https://dc.lft.to/lastmile_qr_scan", "ios": "https://dc.lft.to/lastmile_qr_scan"}, "lat": 38.88123783333333}, {"type": "electric_scooter", "name": "0532fa13a719d75c6f21f04ba7fe1f1f", "fusion_lat": 0.0, "fusion_lon": 0.0, "lon": -77.0329375, "is_disabled": 0, "bike_id": "0532fa13a719d75c6f21f04ba7fe1f1f", "is_reserved": 0, "rental_uris": {"android": "https://dc.lft.to/lastmile_qr_scan", "ios": "https://dc.lft.to/lastmile_qr_scan"}, "lat": 38.9245585}, {"type": "electric_bike", "name": "348aea648747ede394d295126c8f51b0", "fusion_lat": 0.0, "fusion_lon": 0.0, "lon": -77.05349583333333, "is_disabled": 0, "bike_id": "348aea648747ede394d295126c8f51b0", "is_reserved": 0, "rental_uris": {"android": "https://dc.lft.to/lastmile_qr_scan", "ios": "https://dc.lft.to/lastmile_qr_scan"}, "lat": 38.83445283333333}, {"type": "electric_scooter", "name": "4dd6e81cadc69235adf66bec5eae621f", "fusion_lat": 0.0, "fusion_lon": 0.0, "lon": -77.02286566666666, "is_disabled": 0, "bike_id": "4dd6e81cadc69235adf66bec5eae621f", "is_reserved": 0, "rental_uris": {"android": "https://dc.lft.to/lastmile_qr_scan", "ios": "https://dc.lft.to/lastmile_qr_scan"}, "lat": 38.926888166666664}, {"type": "electric_scooter", "name": "fc4c35bbb8e3bfeaeb655c3b8df61b9b", "fusion_lat": 0.0, "fusion_lon": 0.0, "lon": -77.05599066666667, "is_disabled": 0, "bike_id": "fc4c35bbb8e3bfeaeb655c3b8df61b9b", "is_reserved": 0, "rental_uris": {"android": "https://dc.lft.to/lastmile_qr_scan", "ios": "https://dc.lft.to/lastmile_qr_scan"}, "lat": 38.894213666666666}, {"type": "electric_scooter", "name": "f25f356703340f626030461d86cae038", "fusion_lat": 0.0, "fusion_lon": 0.0, "lon": -76.96541983333333, "is_disabled": 0, "bike_id": "f25f356703340f626030461d86cae038", "is_reserved": 0, "rental_uris": {"android": "https://dc.lft.to/lastmile_qr_scan", "ios": "https://dc.lft.to/lastmile_qr_scan"}, "lat": 38.91846916666667}, {"type": "electric_scooter", "name": "2d2db7316f9e86d12f1e833c431dfc88", "fusion_lat": 0.0, "fusion_lon": 0.0, "lon": -77.03554383333334, "is_disabled": 0, "bike_id": "2d2db7316f9e86d12f1e833c431dfc88", "is_reserved": 0, "rental_uris": {"android": "https://dc.lft.to/lastmile_qr_scan", "ios": "https://dc.lft.to/lastmile_qr_scan"}, "lat": 38.91720733333333}, {"type": "electric_scooter", "name": "70f3690af72f8741343922019fd0817e", "fusion_lat": 0.0, "fusion_lon": 0.0, "lon": -77.02005633333333, "is_disabled": 0, "bike_id": "70f3690af72f8741343922019fd0817e", "is_reserved": 0, "rental_uris": {"android": "https://dc.lft.to/lastmile_qr_scan", "ios": "https://dc.lft.to/lastmile_qr_scan"}, "lat": 38.89867683333333}, {"type": "electric_bike", "name": "d3a6f45d41e02b10f66c5564773ff1b7", "fusion_lat": 0.0, "fusion_lon": 0.0, "lon": -77.08317416666667, "is_disabled": 0, "bike_id": "d3a6f45d41e02b10f66c5564773ff1b7", "is_reserved": 0, "rental_uris": {"android": "https://dc.lft.to/lastmile_qr_scan", "ios": "https://dc.lft.to/lastmile_qr_scan"}, "lat": 38.93341083333333}, {"type": "electric_scooter", "name": "2427268975974dca7f735863e2f96267", "fusion_lat": 0.0, "fusion_lon": 0.0, "lon": -77.04157583333334, "is_disabled": 0, "bike_id": "2427268975974dca7f735863e2f96267", "is_reserved": 0, "rental_uris": {"android": "https://dc.lft.to/lastmile_qr_scan", "ios": "https://dc.lft.to/lastmile_qr_scan"}, "lat": 38.915470666666664}, {"type": "electric_scooter", "name": "aea5f8c43bfc7da821cb1cade0e4ce84", "fusion_lat": 0.0, "fusion_lon": 0.0, "lon": -77.0247575, "is_disabled": 0, "bike_id": "aea5f8c43bfc7da821cb1cade0e4ce84", "is_reserved": 0, "rental_uris": {"android": "https://dc.lft.to/lastmile_qr_scan", "ios": "https://dc.lft.to/lastmile_qr_scan"}, "lat": 38.9182055}, {"type": "electric_scooter", "name": "d038c8e6bf4b537b41971cd3d9ef65ac", "fusion_lat": 0.0, "fusion_lon": 0.0, "lon": -77.03771183333333, "is_disabled": 0, "bike_id": "d038c8e6bf4b537b41971cd3d9ef65ac", "is_reserved": 0, "rental_uris": {"android": "https://dc.lft.to/lastmile_qr_scan", "ios": "https://dc.lft.to/lastmile_qr_scan"}, "lat": 38.90726933333333}, {"type": "electric_scooter", "name": "76a42d6034732d3eaa0719f058ed2ff1", "fusion_lat": 0.0, "fusion_lon": 0.0, "lon": -77.02258333333333, "is_disabled": 0, "bike_id": "76a42d6034732d3eaa0719f058ed2ff1", "is_reserved": 0, "rental_uris": {"android": "https://dc.lft.to/lastmile_qr_scan", "ios": "https://dc.lft.to/lastmile_qr_scan"}, "lat": 38.8937115}, {"type": "electric_scooter", "name": "46447d1c99cf23fb8c5924e28999dbae", "fusion_lat": 0.0, "fusion_lon": 0.0, "lon": -77.01413266666667, "is_disabled": 0, "bike_id": "46447d1c99cf23fb8c5924e28999dbae", "is_reserved": 0, "rental_uris": {"android": "https://dc.lft.to/lastmile_qr_scan", "ios": "https://dc.lft.to/lastmile_qr_scan"}, "lat": 38.927945333333334}, {"type": "electric_scooter", "name": "0fc313e48498134d7bf3a65b1d51b357", "fusion_lat": 0.0, "fusion_lon": 0.0, "lon": -77.02528233333334, "is_disabled": 0, "bike_id": "0fc313e48498134d7bf3a65b1d51b357", "is_reserved": 0, "rental_uris": {"android": "https://dc.lft.to/lastmile_qr_scan", "ios": "https://dc.lft.to/lastmile_qr_scan"}, "lat": 38.920802}, {"type": "electric_scooter", "name": "3d8880b3d2bd57849ff766850d228799", "fusion_lat": 0.0, "fusion_lon": 0.0, "lon": -77.02178116666667, "is_disabled": 0, "bike_id": "3d8880b3d2bd57849ff766850d228799", "is_reserved": 0, "rental_uris": {"android": "https://dc.lft.to/lastmile_qr_scan", "ios": "https://dc.lft.to/lastmile_qr_scan"}, "lat": 38.89226583333333}, {"type": "electric_bike", "name": "0f07a167951dae5ffc913a0d5dc4203b", "fusion_lat": 0.0, "fusion_lon": 0.0, "lon": -77.05462933333334, "is_disabled": 0, "bike_id": "0f07a167951dae5ffc913a0d5dc4203b", "is_reserved": 0, "rental_uris": {"android": "https://dc.lft.to/lastmile_qr_scan", "ios": "https://dc.lft.to/lastmile_qr_scan"}, "lat": 38.86472533333333}, {"type": "electric_scooter", "name": "6693bd4606c13dad073d3fe4f18ce654", "fusion_lat": 0.0, "fusion_lon": 0.0, "lon": -77.02667083333333, "is_disabled": 0, "bike_id": "6693bd4606c13dad073d3fe4f18ce654", "is_reserved": 0, "rental_uris": {"android": "https://dc.lft.to/lastmile_qr_scan", "ios": "https://dc.lft.to/lastmile_qr_scan"}, "lat": 38.92219033333333}, {"type": "electric_scooter", "name": "4b40697f1c3ad1359c16c404b1d35367", "fusion_lat": 0.0, "fusion_lon": 0.0, "lon": -77.03150983333333, "is_disabled": 0, "bike_id": "4b40697f1c3ad1359c16c404b1d35367", "is_reserved": 0, "rental_uris": {"android": "https://dc.lft.to/lastmile_qr_scan", "ios": "https://dc.lft.to/lastmile_qr_scan"}, "lat": 38.92784316666667}, {"type": "electric_scooter", "name": "d9b0b19777f5e85366e5e315dc9c0ed4", "fusion_lat": 0.0, "fusion_lon": 0.0, "lon": -76.98707666666667, "is_disabled": 0, "bike_id": "d9b0b19777f5e85366e5e315dc9c0ed4", "is_reserved": 0, "rental_uris": {"android": "https://dc.lft.to/lastmile_qr_scan", "ios": "https://dc.lft.to/lastmile_qr_scan"}, "lat": 38.86544}, {"type": "electric_scooter", "name": "47a3fea6281d2fa0d31e310d24facdb5", "fusion_lat": 0.0, "fusion_lon": 0.0, "lon": -77.03373783333333, "is_disabled": 0, "bike_id": "47a3fea6281d2fa0d31e310d24facdb5", "is_reserved": 0, "rental_uris": {"android": "https://dc.lft.to/lastmile_qr_scan", "ios": "https://dc.lft.to/lastmile_qr_scan"}, "lat": 38.91028566666667}, {"type": "electric_scooter", "name": "7004de9f4de3a7a190b553c8939f5f6e", "fusion_lat": 0.0, "fusion_lon": 0.0, "lon": -77.04457616666667, "is_disabled": 0, "bike_id": "7004de9f4de3a7a190b553c8939f5f6e", "is_reserved": 0, "rental_uris": {"android": "https://dc.lft.to/lastmile_qr_scan", "ios": "https://dc.lft.to/lastmile_qr_scan"}, "lat": 38.923223}, {"type": "electric_scooter", "name": "9e85a85b491d9e2c34933ac46762af42", "fusion_lat": 0.0, "fusion_lon": 0.0, "lon": -77.024755, "is_disabled": 0, "bike_id": "9e85a85b491d9e2c34933ac46762af42", "is_reserved": 0, "rental_uris": {"android": "https://dc.lft.to/lastmile_qr_scan", "ios": "https://dc.lft.to/lastmile_qr_scan"}, "lat": 38.9387145}, {"type": "electric_bike", "name": "a8b2826a01d84acccfb3538b941d1156", "fusion_lat": 0.0, "fusion_lon": 0.0, "lon": -77.02010566666667, "is_disabled": 0, "bike_id": "a8b2826a01d84acccfb3538b941d1156", "is_reserved": 0, "rental_uris": {"android": "https://dc.lft.to/lastmile_qr_scan", "ios": "https://dc.lft.to/lastmile_qr_scan"}, "lat": 38.964421333333334}, {"type": "electric_scooter", "name": "a2270cb147e3662a5989cfbcbc1b417b", "fusion_lat": 0.0, "fusion_lon": 0.0, "lon": -76.97891, "is_disabled": 0, "bike_id": "a2270cb147e3662a5989cfbcbc1b417b", "is_reserved": 0, "rental_uris": {"android": "https://dc.lft.to/lastmile_qr_scan", "ios": "https://dc.lft.to/lastmile_qr_scan"}, "lat": 38.885394}, {"type": "electric_scooter", "name": "af474c46dbc2660c256b523a5ada5a76", "fusion_lat": 0.0, "fusion_lon": 0.0, "lon": -77.02654083333333, "is_disabled": 0, "bike_id": "af474c46dbc2660c256b523a5ada5a76", "is_reserved": 0, "rental_uris": {"android": "https://dc.lft.to/lastmile_qr_scan", "ios": "https://dc.lft.to/lastmile_qr_scan"}, "lat": 38.910574833333335}, {"type": "electric_scooter", "name": "19f6be72fa0b2867ed454fb27dce80c6", "fusion_lat": 0.0, "fusion_lon": 0.0, "lon": -77.01580216666666, "is_disabled": 0, "bike_id": "19f6be72fa0b2867ed454fb27dce80c6", "is_reserved": 0, "rental_uris": {"android": "https://dc.lft.to/lastmile_qr_scan", "ios": "https://dc.lft.to/lastmile_qr_scan"}, "lat": 38.87647}, {"type": "electric_bike", "name": "b7bbad04d6fa313d1540768bf088ca91", "fusion_lat": 0.0, "fusion_lon": 0.0, "lon": -77.06054583333334, "is_disabled": 0, "bike_id": "b7bbad04d6fa313d1540768bf088ca91", "is_reserved": 0, "rental_uris": {"android": "https://dc.lft.to/lastmile_qr_scan", "ios": "https://dc.lft.to/lastmile_qr_scan"}, "lat": 38.943430166666666}, {"type": "electric_scooter", "name": "9a2953c3449b35f291379ec07db78beb", "fusion_lat": 0.0, "fusion_lon": 0.0, "lon": -77.0460625, "is_disabled": 0, "bike_id": "9a2953c3449b35f291379ec07db78beb", "is_reserved": 0, "rental_uris": {"android": "https://dc.lft.to/lastmile_qr_scan", "ios": "https://dc.lft.to/lastmile_qr_scan"}, "lat": 38.9329095}, {"type": "electric_scooter", "name": "a3a340e7b81a72d501d3ecdebcafe4de", "fusion_lat": 0.0, "fusion_lon": 0.0, "lon": -77.03670716666667, "is_disabled": 0, "bike_id": "a3a340e7b81a72d501d3ecdebcafe4de", "is_reserved": 0, "rental_uris": {"android": "https://dc.lft.to/lastmile_qr_scan", "ios": "https://dc.lft.to/lastmile_qr_scan"}, "lat": 38.91814166666666}, {"type": "electric_scooter", "name": "46463099c4786dfcd8fb9eaa5e236cd0", "fusion_lat": 0.0, "fusion_lon": 0.0, "lon": -77.07272633333334, "is_disabled": 0, "bike_id": "46463099c4786dfcd8fb9eaa5e236cd0", "is_reserved": 0, "rental_uris": {"android": "https://dc.lft.to/lastmile_qr_scan", "ios": "https://dc.lft.to/lastmile_qr_scan"}, "lat": 38.93473816666667}, {"type": "electric_scooter", "name": "375d857b95ab265bee31ebaf216ae8ce", "fusion_lat": 0.0, "fusion_lon": 0.0, "lon": -77.0340265, "is_disabled": 0, "bike_id": "375d857b95ab265bee31ebaf216ae8ce", "is_reserved": 0, "rental_uris": {"android": "https://dc.lft.to/lastmile_qr_scan", "ios": "https://dc.lft.to/lastmile_qr_scan"}, "lat": 38.924422666666665}, {"type": "electric_scooter", "name": "038bcba0bd937de1f5f35bef50eda361", "fusion_lat": 0.0, "fusion_lon": 0.0, "lon": -77.021798, "is_disabled": 0, "bike_id": "038bcba0bd937de1f5f35bef50eda361", "is_reserved": 0, "rental_uris": {"android": "https://dc.lft.to/lastmile_qr_scan", "ios": "https://dc.lft.to/lastmile_qr_scan"}, "lat": 38.90779883333333}, {"type": "electric_scooter", "name": "c653d7a07f517232202823000d6962d7", "fusion_lat": 0.0, "fusion_lon": 0.0, "lon": -77.03657466666667, "is_disabled": 0, "bike_id": "c653d7a07f517232202823000d6962d7", "is_reserved": 0, "rental_uris": {"android": "https://dc.lft.to/lastmile_qr_scan", "ios": "https://dc.lft.to/lastmile_qr_scan"}, "lat": 38.9132445}, {"type": "electric_scooter", "name": "f4a3c3939b6b7d863f2ec29fec2211c0", "fusion_lat": 0.0, "fusion_lon": 0.0, "lon": -77.03474816666666, "is_disabled": 0, "bike_id": "f4a3c3939b6b7d863f2ec29fec2211c0", "is_reserved": 0, "rental_uris": {"android": "https://dc.lft.to/lastmile_qr_scan", "ios": "https://dc.lft.to/lastmile_qr_scan"}, "lat": 38.93538916666667}, {"type": "electric_scooter", "name": "63d8e2109d4da32cc284d54059d9a955", "fusion_lat": 0.0, "fusion_lon": 0.0, "lon": -77.05503366666667, "is_disabled": 0, "bike_id": "63d8e2109d4da32cc284d54059d9a955", "is_reserved": 0, "rental_uris": {"android": "https://dc.lft.to/lastmile_qr_scan", "ios": "https://dc.lft.to/lastmile_qr_scan"}, "lat": 38.928408166666664}, {"type": "electric_scooter", "name": "c9d7ce3a963d251786c74e0cdd3c6795", "fusion_lat": 0.0, "fusion_lon": 0.0, "lon": -77.0345165, "is_disabled": 0, "bike_id": "c9d7ce3a963d251786c74e0cdd3c6795", "is_reserved": 0, "rental_uris": {"android": "https://dc.lft.to/lastmile_qr_scan", "ios": "https://dc.lft.to/lastmile_qr_scan"}, "lat": 38.916063333333334}, {"type": "electric_scooter", "name": "1dc37c8932306aaa816bbedb6ee5bcf6", "fusion_lat": 0.0, "fusion_lon": 0.0, "lon": -77.03929383333333, "is_disabled": 0, "bike_id": "1dc37c8932306aaa816bbedb6ee5bcf6", "is_reserved": 0, "rental_uris": {"android": "https://dc.lft.to/lastmile_qr_scan", "ios": "https://dc.lft.to/lastmile_qr_scan"}, "lat": 38.9028765}, {"type": "electric_scooter", "name": "2e940d130563b660a09956c0c58842cb", "fusion_lat": 0.0, "fusion_lon": 0.0, "lon": -77.00053866666667, "is_disabled": 0, "bike_id": "2e940d130563b660a09956c0c58842cb", "is_reserved": 0, "rental_uris": {"android": "https://dc.lft.to/lastmile_qr_scan", "ios": "https://dc.lft.to/lastmile_qr_scan"}, "lat": 38.8788455}, {"type": "electric_scooter", "name": "2b5c04c4364bae763af82a171190fc30", "fusion_lat": 0.0, "fusion_lon": 0.0, "lon": -76.9447005, "is_disabled": 0, "bike_id": "2b5c04c4364bae763af82a171190fc30", "is_reserved": 0, "rental_uris": {"android": "https://dc.lft.to/lastmile_qr_scan", "ios": "https://dc.lft.to/lastmile_qr_scan"}, "lat": 38.890295}, {"type": "electric_scooter", "name": "ab588e1bae3045127df769773b924d5a", "fusion_lat": 0.0, "fusion_lon": 0.0, "lon": -77.02665083333333, "is_disabled": 0, "bike_id": "ab588e1bae3045127df769773b924d5a", "is_reserved": 0, "rental_uris": {"android": "https://dc.lft.to/lastmile_qr_scan", "ios": "https://dc.lft.to/lastmile_qr_scan"}, "lat": 38.92190333333333}, {"type": "electric_scooter", "name": "5d6c4fcf3587d2b05b2367f52ebdf97d", "fusion_lat": 0.0, "fusion_lon": 0.0, "lon": -77.03382083333334, "is_disabled": 0, "bike_id": "5d6c4fcf3587d2b05b2367f52ebdf97d", "is_reserved": 0, "rental_uris": {"android": "https://dc.lft.to/lastmile_qr_scan", "ios": "https://dc.lft.to/lastmile_qr_scan"}, "lat": 38.924690166666664}, {"type": "electric_scooter", "name": "688d7208d7b4b20a20cb032da51a3814", "fusion_lat": 0.0, "fusion_lon": 0.0, "lon": -77.028104, "is_disabled": 0, "bike_id": "688d7208d7b4b20a20cb032da51a3814", "is_reserved": 0, "rental_uris": {"android": "https://dc.lft.to/lastmile_qr_scan", "ios": "https://dc.lft.to/lastmile_qr_scan"}, "lat": 38.9174975}, {"type": "electric_scooter", "name": "c0128768575ca4a1256e90b8ad41627a", "fusion_lat": 0.0, "fusion_lon": 0.0, "lon": -77.02933933333334, "is_disabled": 0, "bike_id": "c0128768575ca4a1256e90b8ad41627a", "is_reserved": 0, "rental_uris": {"android": "https://dc.lft.to/lastmile_qr_scan", "ios": "https://dc.lft.to/lastmile_qr_scan"}, "lat": 38.90720366666667}, {"type": "electric_scooter", "name": "9e696f38f47ceb145e7faf0e158bcbca", "fusion_lat": 0.0, "fusion_lon": 0.0, "lon": -77.03427483333333, "is_disabled": 0, "bike_id": "9e696f38f47ceb145e7faf0e158bcbca", "is_reserved": 0, "rental_uris": {"android": "https://dc.lft.to/lastmile_qr_scan", "ios": "https://dc.lft.to/lastmile_qr_scan"}, "lat": 38.909713333333336}, {"type": "electric_scooter", "name": "d3a00aa1be67ffbb7d5107d4e7888130", "fusion_lat": 0.0, "fusion_lon": 0.0, "lon": -77.073109, "is_disabled": 0, "bike_id": "d3a00aa1be67ffbb7d5107d4e7888130", "is_reserved": 0, "rental_uris": {"android": "https://dc.lft.to/lastmile_qr_scan", "ios": "https://dc.lft.to/lastmile_qr_scan"}, "lat": 38.9219935}, {"type": "electric_bike", "name": "e904380e3e19c8905e5df3bfdf72b349", "fusion_lat": 0.0, "fusion_lon": 0.0, "lon": -77.07752383333333, "is_disabled": 0, "bike_id": "e904380e3e19c8905e5df3bfdf72b349", "is_reserved": 0, "rental_uris": {"android": "https://dc.lft.to/lastmile_qr_scan", "ios": "https://dc.lft.to/lastmile_qr_scan"}, "lat": 38.8420245}, {"type": "electric_scooter", "name": "e4ec73d226d9a925aaaad32d2c8ff7a3", "fusion_lat": 0.0, "fusion_lon": 0.0, "lon": -77.04227983333334, "is_disabled": 0, "bike_id": "e4ec73d226d9a925aaaad32d2c8ff7a3", "is_reserved": 0, "rental_uris": {"android": "https://dc.lft.to/lastmile_qr_scan", "ios": "https://dc.lft.to/lastmile_qr_scan"}, "lat": 38.92280866666667}, {"type": "electric_scooter", "name": "7c9f28678efc40030408f307aadd3a44", "fusion_lat": 0.0, "fusion_lon": 0.0, "lon": -77.01800566666667, "is_disabled": 0, "bike_id": "7c9f28678efc40030408f307aadd3a44", "is_reserved": 0, "rental_uris": {"android": "https://dc.lft.to/lastmile_qr_scan", "ios": "https://dc.lft.to/lastmile_qr_scan"}, "lat": 38.92029266666667}, {"type": "electric_scooter", "name": "20f80bd17b9a919a9eac30a0e8312b8a", "fusion_lat": 0.0, "fusion_lon": 0.0, "lon": -76.9837245, "is_disabled": 0, "bike_id": "20f80bd17b9a919a9eac30a0e8312b8a", "is_reserved": 0, "rental_uris": {"android": "https://dc.lft.to/lastmile_qr_scan", "ios": "https://dc.lft.to/lastmile_qr_scan"}, "lat": 38.89264716666667}, {"type": "electric_scooter", "name": "95c5864058e07809c422f6550e9bbadc", "fusion_lat": 0.0, "fusion_lon": 0.0, "lon": -77.02973916666667, "is_disabled": 0, "bike_id": "95c5864058e07809c422f6550e9bbadc", "is_reserved": 0, "rental_uris": {"android": "https://dc.lft.to/lastmile_qr_scan", "ios": "https://dc.lft.to/lastmile_qr_scan"}, "lat": 38.9244825}, {"type": "electric_scooter", "name": "be2de9b1273d064ed2a2037b91d95eab", "fusion_lat": 0.0, "fusion_lon": 0.0, "lon": -77.01268333333333, "is_disabled": 0, "bike_id": "be2de9b1273d064ed2a2037b91d95eab", "is_reserved": 0, "rental_uris": {"android": "https://dc.lft.to/lastmile_qr_scan", "ios": "https://dc.lft.to/lastmile_qr_scan"}, "lat": 38.914145}, {"type": "electric_scooter", "name": "5927bc60623e9f33a528081391cc1c53", "fusion_lat": 0.0, "fusion_lon": 0.0, "lon": -77.022008, "is_disabled": 0, "bike_id": "5927bc60623e9f33a528081391cc1c53", "is_reserved": 0, "rental_uris": {"android": "https://dc.lft.to/lastmile_qr_scan", "ios": "https://dc.lft.to/lastmile_qr_scan"}, "lat": 38.89988183333333}, {"type": "electric_scooter", "name": "1f42a3dfd3fbe5fc70a34adfa00c34b3", "fusion_lat": 0.0, "fusion_lon": 0.0, "lon": -77.042479, "is_disabled": 0, "bike_id": "1f42a3dfd3fbe5fc70a34adfa00c34b3", "is_reserved": 0, "rental_uris": {"android": "https://dc.lft.to/lastmile_qr_scan", "ios": "https://dc.lft.to/lastmile_qr_scan"}, "lat": 38.90343583333333}, {"type": "electric_scooter", "name": "d5dfc6114634c55af69d98da72f2e6cd", "fusion_lat": 0.0, "fusion_lon": 0.0, "lon": -76.95740483333333, "is_disabled": 0, "bike_id": "d5dfc6114634c55af69d98da72f2e6cd", "is_reserved": 0, "rental_uris": {"android": "https://dc.lft.to/lastmile_qr_scan", "ios": "https://dc.lft.to/lastmile_qr_scan"}, "lat": 38.883900833333335}, {"type": "electric_scooter", "name": "dffdf37c4b8dd5191d6c9518cd537536", "fusion_lat": 0.0, "fusion_lon": 0.0, "lon": -76.98857666666666, "is_disabled": 0, "bike_id": "dffdf37c4b8dd5191d6c9518cd537536", "is_reserved": 0, "rental_uris": {"android": "https://dc.lft.to/lastmile_qr_scan", "ios": "https://dc.lft.to/lastmile_qr_scan"}, "lat": 38.90026483333333}, {"type": "electric_scooter", "name": "37d34def35d70beb1ef33c6a1a619b3c", "fusion_lat": 0.0, "fusion_lon": 0.0, "lon": -77.027858, "is_disabled": 0, "bike_id": "37d34def35d70beb1ef33c6a1a619b3c", "is_reserved": 0, "rental_uris": {"android": "https://dc.lft.to/lastmile_qr_scan", "ios": "https://dc.lft.to/lastmile_qr_scan"}, "lat": 38.93184883333333}, {"type": "electric_bike", "name": "85f0be08890a2f79787d13ad55fb62d9", "fusion_lat": 0.0, "fusion_lon": 0.0, "lon": -76.95702633333333, "is_disabled": 0, "bike_id": "85f0be08890a2f79787d13ad55fb62d9", "is_reserved": 0, "rental_uris": {"android": "https://dc.lft.to/lastmile_qr_scan", "ios": "https://dc.lft.to/lastmile_qr_scan"}, "lat": 38.850908}, {"type": "electric_scooter", "name": "8518c9be7a24a8b138f49eeb57564a58", "fusion_lat": 0.0, "fusion_lon": 0.0, "lon": -77.03378483333333, "is_disabled": 0, "bike_id": "8518c9be7a24a8b138f49eeb57564a58", "is_reserved": 0, "rental_uris": {"android": "https://dc.lft.to/lastmile_qr_scan", "ios": "https://dc.lft.to/lastmile_qr_scan"}, "lat": 38.900265}, {"type": "electric_scooter", "name": "99b983517c5403001436ffc619e09258", "fusion_lat": 0.0, "fusion_lon": 0.0, "lon": -77.01798116666667, "is_disabled": 0, "bike_id": "99b983517c5403001436ffc619e09258", "is_reserved": 0, "rental_uris": {"android": "https://dc.lft.to/lastmile_qr_scan", "ios": "https://dc.lft.to/lastmile_qr_scan"}, "lat": 38.91943283333333}, {"type": "electric_scooter", "name": "4518b58e0e0921cf3ed42903f4e4720b", "fusion_lat": 0.0, "fusion_lon": 0.0, "lon": -77.006108, "is_disabled": 0, "bike_id": "4518b58e0e0921cf3ed42903f4e4720b", "is_reserved": 0, "rental_uris": {"android": "https://dc.lft.to/lastmile_qr_scan", "ios": "https://dc.lft.to/lastmile_qr_scan"}, "lat": 38.905686333333335}, {"type": "electric_scooter", "name": "87bc9774e1a30f4c708ddb435d5df9e8", "fusion_lat": 0.0, "fusion_lon": 0.0, "lon": -76.95741683333334, "is_disabled": 0, "bike_id": "87bc9774e1a30f4c708ddb435d5df9e8", "is_reserved": 0, "rental_uris": {"android": "https://dc.lft.to/lastmile_qr_scan", "ios": "https://dc.lft.to/lastmile_qr_scan"}, "lat": 38.883933999999996}, {"type": "electric_bike", "name": "cf53763570b509846e31d955d2ec4958", "fusion_lat": 0.0, "fusion_lon": 0.0, "lon": -77.09012666666666, "is_disabled": 0, "bike_id": "cf53763570b509846e31d955d2ec4958", "is_reserved": 0, "rental_uris": {"android": "https://dc.lft.to/lastmile_qr_scan", "ios": "https://dc.lft.to/lastmile_qr_scan"}, "lat": 38.92646516666667}, {"type": "electric_scooter", "name": "c12de021e926c9eb36e7af35e82532be", "fusion_lat": 0.0, "fusion_lon": 0.0, "lon": -77.014675, "is_disabled": 0, "bike_id": "c12de021e926c9eb36e7af35e82532be", "is_reserved": 0, "rental_uris": {"android": "https://dc.lft.to/lastmile_qr_scan", "ios": "https://dc.lft.to/lastmile_qr_scan"}, "lat": 38.91757666666667}, {"type": "electric_scooter", "name": "7562519e8f30aa0933042c358870610c", "fusion_lat": 0.0, "fusion_lon": 0.0, "lon": -77.039983, "is_disabled": 0, "bike_id": "7562519e8f30aa0933042c358870610c", "is_reserved": 0, "rental_uris": {"android": "https://dc.lft.to/lastmile_qr_scan", "ios": "https://dc.lft.to/lastmile_qr_scan"}, "lat": 38.906017166666665}, {"type": "electric_scooter", "name": "a7f25337927836e7f053d73eac65b186", "fusion_lat": 0.0, "fusion_lon": 0.0, "lon": -77.025648, "is_disabled": 0, "bike_id": "a7f25337927836e7f053d73eac65b186", "is_reserved": 0, "rental_uris": {"android": "https://dc.lft.to/lastmile_qr_scan", "ios": "https://dc.lft.to/lastmile_qr_scan"}, "lat": 38.90142783333334}, {"type": "electric_scooter", "name": "b78a5a04722f7a2f3ad551f47fe95894", "fusion_lat": 0.0, "fusion_lon": 0.0, "lon": -77.02301183333333, "is_disabled": 0, "bike_id": "b78a5a04722f7a2f3ad551f47fe95894", "is_reserved": 0, "rental_uris": {"android": "https://dc.lft.to/lastmile_qr_scan", "ios": "https://dc.lft.to/lastmile_qr_scan"}, "lat": 38.91698733333333}, {"type": "electric_scooter", "name": "30eb3fa5e02324e1f02559356865eccf", "fusion_lat": 0.0, "fusion_lon": 0.0, "lon": -77.02233283333334, "is_disabled": 0, "bike_id": "30eb3fa5e02324e1f02559356865eccf", "is_reserved": 0, "rental_uris": {"android": "https://dc.lft.to/lastmile_qr_scan", "ios": "https://dc.lft.to/lastmile_qr_scan"}, "lat": 38.90876}, {"type": "electric_scooter", "name": "bc18a526b8c690bc64fa6ce767fa9390", "fusion_lat": 0.0, "fusion_lon": 0.0, "lon": -76.99912316666666, "is_disabled": 0, "bike_id": "bc18a526b8c690bc64fa6ce767fa9390", "is_reserved": 0, "rental_uris": {"android": "https://dc.lft.to/lastmile_qr_scan", "ios": "https://dc.lft.to/lastmile_qr_scan"}, "lat": 38.924641333333334}, {"type": "electric_scooter", "name": "bbc14ae4caf45415f112b7e7a0fcd8e5", "fusion_lat": 0.0, "fusion_lon": 0.0, "lon": -76.988542, "is_disabled": 0, "bike_id": "bbc14ae4caf45415f112b7e7a0fcd8e5", "is_reserved": 0, "rental_uris": {"android": "https://dc.lft.to/lastmile_qr_scan", "ios": "https://dc.lft.to/lastmile_qr_scan"}, "lat": 38.891669}, {"type": "electric_bike", "name": "e76911ed4a218cf2fa4602597a7f49c3", "fusion_lat": 0.0, "fusion_lon": 0.0, "lon": -77.1273225, "is_disabled": 0, "bike_id": "e76911ed4a218cf2fa4602597a7f49c3", "is_reserved": 0, "rental_uris": {"android": "https://dc.lft.to/lastmile_qr_scan", "ios": "https://dc.lft.to/lastmile_qr_scan"}, "lat": 38.895708}, {"type": "electric_scooter", "name": "bf5774a1973776dd6d2bc3b06c30f8bd", "fusion_lat": 0.0, "fusion_lon": 0.0, "lon": -77.02952016666667, "is_disabled": 0, "bike_id": "bf5774a1973776dd6d2bc3b06c30f8bd", "is_reserved": 0, "rental_uris": {"android": "https://dc.lft.to/lastmile_qr_scan", "ios": "https://dc.lft.to/lastmile_qr_scan"}, "lat": 38.91690466666667}, {"type": "electric_scooter", "name": "4365031fd9d5c63115694f305f131720", "fusion_lat": 0.0, "fusion_lon": 0.0, "lon": -77.04235266666667, "is_disabled": 0, "bike_id": "4365031fd9d5c63115694f305f131720", "is_reserved": 0, "rental_uris": {"android": "https://dc.lft.to/lastmile_qr_scan", "ios": "https://dc.lft.to/lastmile_qr_scan"}, "lat": 38.91114066666667}, {"type": "electric_bike", "name": "9ffe2c1f8bda5cb08d1488202ded390e", "fusion_lat": 0.0, "fusion_lon": 0.0, "lon": -77.03496683333333, "is_disabled": 0, "bike_id": "9ffe2c1f8bda5cb08d1488202ded390e", "is_reserved": 0, "rental_uris": {"android": "https://dc.lft.to/lastmile_qr_scan", "ios": "https://dc.lft.to/lastmile_qr_scan"}, "lat": 38.93160116666667}, {"type": "electric_scooter", "name": "886757e37c6dca367fe7ad294ba61987", "fusion_lat": 0.0, "fusion_lon": 0.0, "lon": -77.02562433333334, "is_disabled": 0, "bike_id": "886757e37c6dca367fe7ad294ba61987", "is_reserved": 0, "rental_uris": {"android": "https://dc.lft.to/lastmile_qr_scan", "ios": "https://dc.lft.to/lastmile_qr_scan"}, "lat": 38.887467}, {"type": "electric_scooter", "name": "45628d44ab5681f71e09d4c124ecc6f1", "fusion_lat": 0.0, "fusion_lon": 0.0, "lon": -77.02951916666666, "is_disabled": 0, "bike_id": "45628d44ab5681f71e09d4c124ecc6f1", "is_reserved": 0, "rental_uris": {"android": "https://dc.lft.to/lastmile_qr_scan", "ios": "https://dc.lft.to/lastmile_qr_scan"}, "lat": 38.90547183333334}, {"type": "electric_scooter", "name": "b741adc4487e9f04fc8f6c7e929581f0", "fusion_lat": 0.0, "fusion_lon": 0.0, "lon": -77.042275, "is_disabled": 0, "bike_id": "b741adc4487e9f04fc8f6c7e929581f0", "is_reserved": 0, "rental_uris": {"android": "https://dc.lft.to/lastmile_qr_scan", "ios": "https://dc.lft.to/lastmile_qr_scan"}, "lat": 38.921743166666666}, {"type": "electric_scooter", "name": "de72a0e685713a8bede54f8668e8aab0", "fusion_lat": 0.0, "fusion_lon": 0.0, "lon": -77.0187445, "is_disabled": 0, "bike_id": "de72a0e685713a8bede54f8668e8aab0", "is_reserved": 0, "rental_uris": {"android": "https://dc.lft.to/lastmile_qr_scan", "ios": "https://dc.lft.to/lastmile_qr_scan"}, "lat": 38.91419766666667}, {"type": "electric_scooter", "name": "82a027dfc8139efcffe0fa93ee400c3e", "fusion_lat": 0.0, "fusion_lon": 0.0, "lon": -77.026985, "is_disabled": 0, "bike_id": "82a027dfc8139efcffe0fa93ee400c3e", "is_reserved": 0, "rental_uris": {"android": "https://dc.lft.to/lastmile_qr_scan", "ios": "https://dc.lft.to/lastmile_qr_scan"}, "lat": 38.9232315}, {"type": "electric_scooter", "name": "e161291a95a56b861a375426c0dbada1", "fusion_lat": 0.0, "fusion_lon": 0.0, "lon": -77.06337233333333, "is_disabled": 0, "bike_id": "e161291a95a56b861a375426c0dbada1", "is_reserved": 0, "rental_uris": {"android": "https://dc.lft.to/lastmile_qr_scan", "ios": "https://dc.lft.to/lastmile_qr_scan"}, "lat": 38.921511333333335}, {"type": "electric_scooter", "name": "291859e5f3994e3918874a45b3644fac", "fusion_lat": 0.0, "fusion_lon": 0.0, "lon": -77.04180083333334, "is_disabled": 0, "bike_id": "291859e5f3994e3918874a45b3644fac", "is_reserved": 0, "rental_uris": {"android": "https://dc.lft.to/lastmile_qr_scan", "ios": "https://dc.lft.to/lastmile_qr_scan"}, "lat": 38.9182195}, {"type": "electric_scooter", "name": "14d70ab48c13af47c31e244d30d19940", "fusion_lat": 0.0, "fusion_lon": 0.0, "lon": -77.0273315, "is_disabled": 0, "bike_id": "14d70ab48c13af47c31e244d30d19940", "is_reserved": 0, "rental_uris": {"android": "https://dc.lft.to/lastmile_qr_scan", "ios": "https://dc.lft.to/lastmile_qr_scan"}, "lat": 38.92482833333333}, {"type": "electric_scooter", "name": "2e5f83d89797981374f129e2ec47996e", "fusion_lat": 0.0, "fusion_lon": 0.0, "lon": -77.0403345, "is_disabled": 0, "bike_id": "2e5f83d89797981374f129e2ec47996e", "is_reserved": 0, "rental_uris": {"android": "https://dc.lft.to/lastmile_qr_scan", "ios": "https://dc.lft.to/lastmile_qr_scan"}, "lat": 38.91812916666667}, {"type": "electric_bike", "name": "409dfe8b6ecf8e4a903f38b46efc0574", "fusion_lat": 0.0, "fusion_lon": 0.0, "lon": -77.08982316666666, "is_disabled": 0, "bike_id": "409dfe8b6ecf8e4a903f38b46efc0574", "is_reserved": 0, "rental_uris": {"android": "https://dc.lft.to/lastmile_qr_scan", "ios": "https://dc.lft.to/lastmile_qr_scan"}, "lat": 38.91174683333333}, {"type": "electric_scooter", "name": "c254ac9ea0c9c243cf502df260cd8ddd", "fusion_lat": 0.0, "fusion_lon": 0.0, "lon": -77.02813466666667, "is_disabled": 0, "bike_id": "c254ac9ea0c9c243cf502df260cd8ddd", "is_reserved": 0, "rental_uris": {"android": "https://dc.lft.to/lastmile_qr_scan", "ios": "https://dc.lft.to/lastmile_qr_scan"}, "lat": 38.90929666666667}, {"type": "electric_scooter", "name": "e5c892d9ca631b3ae82f9d994152cc9e", "fusion_lat": 0.0, "fusion_lon": 0.0, "lon": -77.02811883333334, "is_disabled": 0, "bike_id": "e5c892d9ca631b3ae82f9d994152cc9e", "is_reserved": 0, "rental_uris": {"android": "https://dc.lft.to/lastmile_qr_scan", "ios": "https://dc.lft.to/lastmile_qr_scan"}, "lat": 38.89640166666667}, {"type": "electric_scooter", "name": "65a3753ddf888931fbbebc3e132ffdc1", "fusion_lat": 0.0, "fusion_lon": 0.0, "lon": -77.02705916666666, "is_disabled": 0, "bike_id": "65a3753ddf888931fbbebc3e132ffdc1", "is_reserved": 0, "rental_uris": {"android": "https://dc.lft.to/lastmile_qr_scan", "ios": "https://dc.lft.to/lastmile_qr_scan"}, "lat": 38.900848}, {"type": "electric_scooter", "name": "7f5b3298365e79522c62e1c4835b341e", "fusion_lat": 0.0, "fusion_lon": 0.0, "lon": -77.03262183333334, "is_disabled": 0, "bike_id": "7f5b3298365e79522c62e1c4835b341e", "is_reserved": 0, "rental_uris": {"android": "https://dc.lft.to/lastmile_qr_scan", "ios": "https://dc.lft.to/lastmile_qr_scan"}, "lat": 38.91397933333333}, {"type": "electric_scooter", "name": "de4de0492e84fd4861edfa953fb34f29", "fusion_lat": 0.0, "fusion_lon": 0.0, "lon": -76.98568366666666, "is_disabled": 0, "bike_id": "de4de0492e84fd4861edfa953fb34f29", "is_reserved": 0, "rental_uris": {"android": "https://dc.lft.to/lastmile_qr_scan", "ios": "https://dc.lft.to/lastmile_qr_scan"}, "lat": 38.896230833333334}, {"type": "electric_scooter", "name": "54f300c1ddea4ae25635aa0faf161331", "fusion_lat": 0.0, "fusion_lon": 0.0, "lon": -77.02907, "is_disabled": 0, "bike_id": "54f300c1ddea4ae25635aa0faf161331", "is_reserved": 0, "rental_uris": {"android": "https://dc.lft.to/lastmile_qr_scan", "ios": "https://dc.lft.to/lastmile_qr_scan"}, "lat": 38.952983}, {"type": "electric_scooter", "name": "01a957bf4efe115008b4c31a8d25ade5", "fusion_lat": 0.0, "fusion_lon": 0.0, "lon": -77.073815, "is_disabled": 0, "bike_id": "01a957bf4efe115008b4c31a8d25ade5", "is_reserved": 0, "rental_uris": {"android": "https://dc.lft.to/lastmile_qr_scan", "ios": "https://dc.lft.to/lastmile_qr_scan"}, "lat": 38.89576433333333}, {"type": "electric_scooter", "name": "83432673880a09b8462d52e5c45b5a19", "fusion_lat": 0.0, "fusion_lon": 0.0, "lon": -77.0250735, "is_disabled": 0, "bike_id": "83432673880a09b8462d52e5c45b5a19", "is_reserved": 0, "rental_uris": {"android": "https://dc.lft.to/lastmile_qr_scan", "ios": "https://dc.lft.to/lastmile_qr_scan"}, "lat": 38.92079833333333}, {"type": "electric_scooter", "name": "c491a7202c68e855aa8c47d99dd6596b", "fusion_lat": 0.0, "fusion_lon": 0.0, "lon": -76.9837505, "is_disabled": 0, "bike_id": "c491a7202c68e855aa8c47d99dd6596b", "is_reserved": 0, "rental_uris": {"android": "https://dc.lft.to/lastmile_qr_scan", "ios": "https://dc.lft.to/lastmile_qr_scan"}, "lat": 38.892683}, {"type": "electric_scooter", "name": "b3cc3ffe3c6972d52adf837e7ce73afd", "fusion_lat": 0.0, "fusion_lon": 0.0, "lon": -77.03629266666667, "is_disabled": 0, "bike_id": "b3cc3ffe3c6972d52adf837e7ce73afd", "is_reserved": 0, "rental_uris": {"android": "https://dc.lft.to/lastmile_qr_scan", "ios": "https://dc.lft.to/lastmile_qr_scan"}, "lat": 38.903766}, {"type": "electric_bike", "name": "0df22daca597b2a73df34f1928643631", "fusion_lat": 0.0, "fusion_lon": 0.0, "lon": -77.02811416666667, "is_disabled": 0, "bike_id": "0df22daca597b2a73df34f1928643631", "is_reserved": 0, "rental_uris": {"android": "https://dc.lft.to/lastmile_qr_scan", "ios": "https://dc.lft.to/lastmile_qr_scan"}, "lat": 38.96605866666667}, {"type": "electric_scooter", "name": "acf9d1e8fd824e6321333abe26e248fe", "fusion_lat": 0.0, "fusion_lon": 0.0, "lon": -77.03183166666666, "is_disabled": 0, "bike_id": "acf9d1e8fd824e6321333abe26e248fe", "is_reserved": 0, "rental_uris": {"android": "https://dc.lft.to/lastmile_qr_scan", "ios": "https://dc.lft.to/lastmile_qr_scan"}, "lat": 38.913442}, {"type": "electric_scooter", "name": "83647cafbccc78e24ce4134bcaaca78d", "fusion_lat": 0.0, "fusion_lon": 0.0, "lon": -77.01998933333333, "is_disabled": 0, "bike_id": "83647cafbccc78e24ce4134bcaaca78d", "is_reserved": 0, "rental_uris": {"android": "https://dc.lft.to/lastmile_qr_scan", "ios": "https://dc.lft.to/lastmile_qr_scan"}, "lat": 38.91159566666666}, {"type": "electric_scooter", "name": "1262997178cb4c4a95e4c0e98f1ff8a4", "fusion_lat": 0.0, "fusion_lon": 0.0, "lon": -76.948868, "is_disabled": 0, "bike_id": "1262997178cb4c4a95e4c0e98f1ff8a4", "is_reserved": 0, "rental_uris": {"android": "https://dc.lft.to/lastmile_qr_scan", "ios": "https://dc.lft.to/lastmile_qr_scan"}, "lat": 38.895368}, {"type": "electric_bike", "name": "2888bf602588576dd901e53b8c6c018a", "fusion_lat": 0.0, "fusion_lon": 0.0, "lon": -77.00200483333333, "is_disabled": 0, "bike_id": "2888bf602588576dd901e53b8c6c018a", "is_reserved": 0, "rental_uris": {"android": "https://dc.lft.to/lastmile_qr_scan", "ios": "https://dc.lft.to/lastmile_qr_scan"}, "lat": 38.988489666666666}, {"type": "electric_scooter", "name": "e3ada84729724aad986ec35abc255312", "fusion_lat": 0.0, "fusion_lon": 0.0, "lon": -77.0297215, "is_disabled": 0, "bike_id": "e3ada84729724aad986ec35abc255312", "is_reserved": 0, "rental_uris": {"android": "https://dc.lft.to/lastmile_qr_scan", "ios": "https://dc.lft.to/lastmile_qr_scan"}, "lat": 38.90423}, {"type": "electric_scooter", "name": "dfa86e73a432ad1bedf26d24b33cbe0b", "fusion_lat": 0.0, "fusion_lon": 0.0, "lon": -77.021751, "is_disabled": 0, "bike_id": "dfa86e73a432ad1bedf26d24b33cbe0b", "is_reserved": 0, "rental_uris": {"android": "https://dc.lft.to/lastmile_qr_scan", "ios": "https://dc.lft.to/lastmile_qr_scan"}, "lat": 38.911120833333335}, {"type": "electric_scooter", "name": "e58e91f5d63a371aa4bd3bc490d18774", "fusion_lat": 0.0, "fusion_lon": 0.0, "lon": -77.001001, "is_disabled": 0, "bike_id": "e58e91f5d63a371aa4bd3bc490d18774", "is_reserved": 0, "rental_uris": {"android": "https://dc.lft.to/lastmile_qr_scan", "ios": "https://dc.lft.to/lastmile_qr_scan"}, "lat": 38.87656416666667}, {"type": "electric_scooter", "name": "23892919e707538087223cbc573cc891", "fusion_lat": 0.0, "fusion_lon": 0.0, "lon": -77.02804833333333, "is_disabled": 0, "bike_id": "23892919e707538087223cbc573cc891", "is_reserved": 0, "rental_uris": {"android": "https://dc.lft.to/lastmile_qr_scan", "ios": "https://dc.lft.to/lastmile_qr_scan"}, "lat": 38.923291166666665}, {"type": "electric_scooter", "name": "a55be33ea2cf4ed80ea87632c70266ab", "fusion_lat": 0.0, "fusion_lon": 0.0, "lon": -77.00598483333333, "is_disabled": 0, "bike_id": "a55be33ea2cf4ed80ea87632c70266ab", "is_reserved": 0, "rental_uris": {"android": "https://dc.lft.to/lastmile_qr_scan", "ios": "https://dc.lft.to/lastmile_qr_scan"}, "lat": 38.875869}, {"type": "electric_scooter", "name": "275aef8773be2918f14d6145aaa55fe7", "fusion_lat": 0.0, "fusion_lon": 0.0, "lon": -77.03306816666667, "is_disabled": 0, "bike_id": "275aef8773be2918f14d6145aaa55fe7", "is_reserved": 0, "rental_uris": {"android": "https://dc.lft.to/lastmile_qr_scan", "ios": "https://dc.lft.to/lastmile_qr_scan"}, "lat": 38.9265215}, {"type": "electric_scooter", "name": "389ca362923003af788f9a7ba7ffc58e", "fusion_lat": 0.0, "fusion_lon": 0.0, "lon": -77.040086, "is_disabled": 0, "bike_id": "389ca362923003af788f9a7ba7ffc58e", "is_reserved": 0, "rental_uris": {"android": "https://dc.lft.to/lastmile_qr_scan", "ios": "https://dc.lft.to/lastmile_qr_scan"}, "lat": 38.90998583333333}, {"type": "electric_scooter", "name": "16d3554176e047a13b668f6a05d2884c", "fusion_lat": 0.0, "fusion_lon": 0.0, "lon": -76.94949433333333, "is_disabled": 0, "bike_id": "16d3554176e047a13b668f6a05d2884c", "is_reserved": 0, "rental_uris": {"android": "https://dc.lft.to/lastmile_qr_scan", "ios": "https://dc.lft.to/lastmile_qr_scan"}, "lat": 38.895473}, {"type": "electric_scooter", "name": "8bc1c48dc0f7a32802fe4bc2030eaa6b", "fusion_lat": 0.0, "fusion_lon": 0.0, "lon": -77.01389483333334, "is_disabled": 0, "bike_id": "8bc1c48dc0f7a32802fe4bc2030eaa6b", "is_reserved": 0, "rental_uris": {"android": "https://dc.lft.to/lastmile_qr_scan", "ios": "https://dc.lft.to/lastmile_qr_scan"}, "lat": 38.87897366666667}, {"type": "electric_scooter", "name": "1852970aaf535d16891293ec3b95d5e1", "fusion_lat": 0.0, "fusion_lon": 0.0, "lon": -77.03969383333333, "is_disabled": 0, "bike_id": "1852970aaf535d16891293ec3b95d5e1", "is_reserved": 0, "rental_uris": {"android": "https://dc.lft.to/lastmile_qr_scan", "ios": "https://dc.lft.to/lastmile_qr_scan"}, "lat": 38.899961}, {"type": "electric_bike", "name": "4258a9557b0419dea04aa858956db989", "fusion_lat": 0.0, "fusion_lon": 0.0, "lon": -77.03269333333333, "is_disabled": 0, "bike_id": "4258a9557b0419dea04aa858956db989", "is_reserved": 0, "rental_uris": {"android": "https://dc.lft.to/lastmile_qr_scan", "ios": "https://dc.lft.to/lastmile_qr_scan"}, "lat": 38.96126233333333}, {"type": "electric_scooter", "name": "db5201ee4975fcf27da9daa22c83391c", "fusion_lat": 0.0, "fusion_lon": 0.0, "lon": -77.03265333333333, "is_disabled": 0, "bike_id": "db5201ee4975fcf27da9daa22c83391c", "is_reserved": 0, "rental_uris": {"android": "https://dc.lft.to/lastmile_qr_scan", "ios": "https://dc.lft.to/lastmile_qr_scan"}, "lat": 38.937337}, {"type": "electric_scooter", "name": "ae272e460473639c3c084bfbd830e64d", "fusion_lat": 0.0, "fusion_lon": 0.0, "lon": -76.99252283333334, "is_disabled": 0, "bike_id": "ae272e460473639c3c084bfbd830e64d", "is_reserved": 0, "rental_uris": {"android": "https://dc.lft.to/lastmile_qr_scan", "ios": "https://dc.lft.to/lastmile_qr_scan"}, "lat": 38.919787666666664}, {"type": "electric_scooter", "name": "7241c5d3c85286591915fd101d4c669a", "fusion_lat": 0.0, "fusion_lon": 0.0, "lon": -77.01188316666666, "is_disabled": 0, "bike_id": "7241c5d3c85286591915fd101d4c669a", "is_reserved": 0, "rental_uris": {"android": "https://dc.lft.to/lastmile_qr_scan", "ios": "https://dc.lft.to/lastmile_qr_scan"}, "lat": 38.90030516666667}, {"type": "electric_scooter", "name": "8f25bf7aae1df712d4cb26c706690aad", "fusion_lat": 0.0, "fusion_lon": 0.0, "lon": -77.03093716666666, "is_disabled": 0, "bike_id": "8f25bf7aae1df712d4cb26c706690aad", "is_reserved": 0, "rental_uris": {"android": "https://dc.lft.to/lastmile_qr_scan", "ios": "https://dc.lft.to/lastmile_qr_scan"}, "lat": 38.895456333333335}, {"type": "electric_scooter", "name": "677bb7daced82117615c1ae3e9baa74a", "fusion_lat": 0.0, "fusion_lon": 0.0, "lon": -77.02546716666667, "is_disabled": 0, "bike_id": "677bb7daced82117615c1ae3e9baa74a", "is_reserved": 0, "rental_uris": {"android": "https://dc.lft.to/lastmile_qr_scan", "ios": "https://dc.lft.to/lastmile_qr_scan"}, "lat": 38.935207}, {"type": "electric_scooter", "name": "9794bd0a4021a72d73729dade2953f35", "fusion_lat": 0.0, "fusion_lon": 0.0, "lon": -77.02975, "is_disabled": 0, "bike_id": "9794bd0a4021a72d73729dade2953f35", "is_reserved": 0, "rental_uris": {"android": "https://dc.lft.to/lastmile_qr_scan", "ios": "https://dc.lft.to/lastmile_qr_scan"}, "lat": 38.926345166666664}, {"type": "electric_scooter", "name": "b39901eb75af68217642b3872ed9e61d", "fusion_lat": 0.0, "fusion_lon": 0.0, "lon": -77.00426116666667, "is_disabled": 0, "bike_id": "b39901eb75af68217642b3872ed9e61d", "is_reserved": 0, "rental_uris": {"android": "https://dc.lft.to/lastmile_qr_scan", "ios": "https://dc.lft.to/lastmile_qr_scan"}, "lat": 38.92952183333333}, {"type": "electric_scooter", "name": "fb642a07424e50e90990c2e87452c699", "fusion_lat": 0.0, "fusion_lon": 0.0, "lon": -77.0366445, "is_disabled": 0, "bike_id": "fb642a07424e50e90990c2e87452c699", "is_reserved": 0, "rental_uris": {"android": "https://dc.lft.to/lastmile_qr_scan", "ios": "https://dc.lft.to/lastmile_qr_scan"}, "lat": 38.91068966666667}, {"type": "electric_scooter", "name": "1bda7154cf4e942f7805fa3dd74cd342", "fusion_lat": 0.0, "fusion_lon": 0.0, "lon": -77.0569375, "is_disabled": 0, "bike_id": "1bda7154cf4e942f7805fa3dd74cd342", "is_reserved": 0, "rental_uris": {"android": "https://dc.lft.to/lastmile_qr_scan", "ios": "https://dc.lft.to/lastmile_qr_scan"}, "lat": 38.937212333333335}, {"type": "electric_scooter", "name": "f0b19c3c4e6d25bbda456743f1cac111", "fusion_lat": 0.0, "fusion_lon": 0.0, "lon": -76.98377683333334, "is_disabled": 0, "bike_id": "f0b19c3c4e6d25bbda456743f1cac111", "is_reserved": 0, "rental_uris": {"android": "https://dc.lft.to/lastmile_qr_scan", "ios": "https://dc.lft.to/lastmile_qr_scan"}, "lat": 38.912845833333336}, {"type": "electric_scooter", "name": "042762a4e1967b83f6f2625cbb21c720", "fusion_lat": 0.0, "fusion_lon": 0.0, "lon": -77.03709216666667, "is_disabled": 0, "bike_id": "042762a4e1967b83f6f2625cbb21c720", "is_reserved": 0, "rental_uris": {"android": "https://dc.lft.to/lastmile_qr_scan", "ios": "https://dc.lft.to/lastmile_qr_scan"}, "lat": 38.91477183333333}, {"type": "electric_scooter", "name": "199ed8b219f6817232d6e247d51331d3", "fusion_lat": 0.0, "fusion_lon": 0.0, "lon": -77.03042683333334, "is_disabled": 0, "bike_id": "199ed8b219f6817232d6e247d51331d3", "is_reserved": 0, "rental_uris": {"android": "https://dc.lft.to/lastmile_qr_scan", "ios": "https://dc.lft.to/lastmile_qr_scan"}, "lat": 38.990324333333334}, {"type": "electric_scooter", "name": "be13b6df499afbd7f339fddf773ca7bc", "fusion_lat": 0.0, "fusion_lon": 0.0, "lon": -77.02576366666666, "is_disabled": 0, "bike_id": "be13b6df499afbd7f339fddf773ca7bc", "is_reserved": 0, "rental_uris": {"android": "https://dc.lft.to/lastmile_qr_scan", "ios": "https://dc.lft.to/lastmile_qr_scan"}, "lat": 38.912592}, {"type": "electric_scooter", "name": "25eac30dd7975025ca0dbbfee732b2cb", "fusion_lat": 0.0, "fusion_lon": 0.0, "lon": -77.03658566666667, "is_disabled": 0, "bike_id": "25eac30dd7975025ca0dbbfee732b2cb", "is_reserved": 0, "rental_uris": {"android": "https://dc.lft.to/lastmile_qr_scan", "ios": "https://dc.lft.to/lastmile_qr_scan"}, "lat": 38.93634566666667}, {"type": "electric_scooter", "name": "da46c6dc28c4ff9aa51c1183b8854e67", "fusion_lat": 0.0, "fusion_lon": 0.0, "lon": -77.0550435, "is_disabled": 0, "bike_id": "da46c6dc28c4ff9aa51c1183b8854e67", "is_reserved": 0, "rental_uris": {"android": "https://dc.lft.to/lastmile_qr_scan", "ios": "https://dc.lft.to/lastmile_qr_scan"}, "lat": 38.92844766666666}, {"type": "electric_scooter", "name": "eee1cfefb4a7d011f0700fc8b1f507fb", "fusion_lat": 0.0, "fusion_lon": 0.0, "lon": -77.044992, "is_disabled": 0, "bike_id": "eee1cfefb4a7d011f0700fc8b1f507fb", "is_reserved": 0, "rental_uris": {"android": "https://dc.lft.to/lastmile_qr_scan", "ios": "https://dc.lft.to/lastmile_qr_scan"}, "lat": 38.908553833333336}, {"type": "electric_scooter", "name": "3520dfe24023646f9dd00ab2c4163868", "fusion_lat": 0.0, "fusion_lon": 0.0, "lon": -77.049988, "is_disabled": 0, "bike_id": "3520dfe24023646f9dd00ab2c4163868", "is_reserved": 0, "rental_uris": {"android": "https://dc.lft.to/lastmile_qr_scan", "ios": "https://dc.lft.to/lastmile_qr_scan"}, "lat": 38.901217}, {"type": "electric_bike", "name": "eb3c373d735d16769a06331959e2e337", "fusion_lat": 0.0, "fusion_lon": 0.0, "lon": -76.98547566666667, "is_disabled": 0, "bike_id": "eb3c373d735d16769a06331959e2e337", "is_reserved": 0, "rental_uris": {"android": "https://dc.lft.to/lastmile_qr_scan", "ios": "https://dc.lft.to/lastmile_qr_scan"}, "lat": 38.8925015}, {"type": "electric_scooter", "name": "572cbce411bea19b155ed548e2394719", "fusion_lat": 0.0, "fusion_lon": 0.0, "lon": -77.03478733333333, "is_disabled": 0, "bike_id": "572cbce411bea19b155ed548e2394719", "is_reserved": 0, "rental_uris": {"android": "https://dc.lft.to/lastmile_qr_scan", "ios": "https://dc.lft.to/lastmile_qr_scan"}, "lat": 38.905464333333335}, {"type": "electric_scooter", "name": "1dd13a01e797a674355a143e5da7211e", "fusion_lat": 0.0, "fusion_lon": 0.0, "lon": -77.02591316666667, "is_disabled": 0, "bike_id": "1dd13a01e797a674355a143e5da7211e", "is_reserved": 0, "rental_uris": {"android": "https://dc.lft.to/lastmile_qr_scan", "ios": "https://dc.lft.to/lastmile_qr_scan"}, "lat": 38.90492066666667}, {"type": "electric_scooter", "name": "f1b3e1d0eb136b5f63eecae0469592ee", "fusion_lat": 0.0, "fusion_lon": 0.0, "lon": -76.98378166666667, "is_disabled": 0, "bike_id": "f1b3e1d0eb136b5f63eecae0469592ee", "is_reserved": 0, "rental_uris": {"android": "https://dc.lft.to/lastmile_qr_scan", "ios": "https://dc.lft.to/lastmile_qr_scan"}, "lat": 38.879484}, {"type": "electric_bike", "name": "6c8e1adee64de443393e88cb849070da", "fusion_lat": 0.0, "fusion_lon": 0.0, "lon": -76.98143383333333, "is_disabled": 0, "bike_id": "6c8e1adee64de443393e88cb849070da", "is_reserved": 0, "rental_uris": {"android": "https://dc.lft.to/lastmile_qr_scan", "ios": "https://dc.lft.to/lastmile_qr_scan"}, "lat": 38.9349715}, {"type": "electric_scooter", "name": "70dbb1aaa5937ac8d6468e1f40396aa0", "fusion_lat": 0.0, "fusion_lon": 0.0, "lon": -77.0453865, "is_disabled": 0, "bike_id": "70dbb1aaa5937ac8d6468e1f40396aa0", "is_reserved": 0, "rental_uris": {"android": "https://dc.lft.to/lastmile_qr_scan", "ios": "https://dc.lft.to/lastmile_qr_scan"}, "lat": 38.9006855}, {"type": "electric_scooter", "name": "7febb686ab000c6f534db671ce70b1ee", "fusion_lat": 0.0, "fusion_lon": 0.0, "lon": -77.01607366666667, "is_disabled": 0, "bike_id": "7febb686ab000c6f534db671ce70b1ee", "is_reserved": 0, "rental_uris": {"android": "https://dc.lft.to/lastmile_qr_scan", "ios": "https://dc.lft.to/lastmile_qr_scan"}, "lat": 38.910715}, {"type": "electric_scooter", "name": "4821211e509a09e6b880e090879e87e6", "fusion_lat": 0.0, "fusion_lon": 0.0, "lon": -77.02406166666667, "is_disabled": 0, "bike_id": "4821211e509a09e6b880e090879e87e6", "is_reserved": 0, "rental_uris": {"android": "https://dc.lft.to/lastmile_qr_scan", "ios": "https://dc.lft.to/lastmile_qr_scan"}, "lat": 38.91715266666667}, {"type": "electric_scooter", "name": "8be66de0727dbcaf382220acdaecb94d", "fusion_lat": 0.0, "fusion_lon": 0.0, "lon": -77.00599233333334, "is_disabled": 0, "bike_id": "8be66de0727dbcaf382220acdaecb94d", "is_reserved": 0, "rental_uris": {"android": "https://dc.lft.to/lastmile_qr_scan", "ios": "https://dc.lft.to/lastmile_qr_scan"}, "lat": 38.90555633333334}, {"type": "electric_scooter", "name": "cbdcb0d203049fc673d6594c4485b18e", "fusion_lat": 0.0, "fusion_lon": 0.0, "lon": -77.01099933333333, "is_disabled": 0, "bike_id": "cbdcb0d203049fc673d6594c4485b18e", "is_reserved": 0, "rental_uris": {"android": "https://dc.lft.to/lastmile_qr_scan", "ios": "https://dc.lft.to/lastmile_qr_scan"}, "lat": 38.88545466666667}, {"type": "electric_scooter", "name": "9822c3fd12dbfe748f8adf78fe372155", "fusion_lat": 0.0, "fusion_lon": 0.0, "lon": -77.069774, "is_disabled": 0, "bike_id": "9822c3fd12dbfe748f8adf78fe372155", "is_reserved": 0, "rental_uris": {"android": "https://dc.lft.to/lastmile_qr_scan", "ios": "https://dc.lft.to/lastmile_qr_scan"}, "lat": 38.952322}, {"type": "electric_scooter", "name": "ec18d7caad1e28a732314cde3b222dea", "fusion_lat": 0.0, "fusion_lon": 0.0, "lon": -77.0360565, "is_disabled": 0, "bike_id": "ec18d7caad1e28a732314cde3b222dea", "is_reserved": 0, "rental_uris": {"android": "https://dc.lft.to/lastmile_qr_scan", "ios": "https://dc.lft.to/lastmile_qr_scan"}, "lat": 38.928625833333335}, {"type": "electric_scooter", "name": "a0def4f4fc5472757c633aa3954671c8", "fusion_lat": 0.0, "fusion_lon": 0.0, "lon": -77.03420416666667, "is_disabled": 0, "bike_id": "a0def4f4fc5472757c633aa3954671c8", "is_reserved": 0, "rental_uris": {"android": "https://dc.lft.to/lastmile_qr_scan", "ios": "https://dc.lft.to/lastmile_qr_scan"}, "lat": 38.91926216666667}, {"type": "electric_scooter", "name": "eb26927d162ae839231fd33f75a5256e", "fusion_lat": 0.0, "fusion_lon": 0.0, "lon": -77.04017466666667, "is_disabled": 0, "bike_id": "eb26927d162ae839231fd33f75a5256e", "is_reserved": 0, "rental_uris": {"android": "https://dc.lft.to/lastmile_qr_scan", "ios": "https://dc.lft.to/lastmile_qr_scan"}, "lat": 38.89813216666667}, {"type": "electric_scooter", "name": "137a6a9850029200b90569f514bb93bc", "fusion_lat": 0.0, "fusion_lon": 0.0, "lon": -77.0313335, "is_disabled": 0, "bike_id": "137a6a9850029200b90569f514bb93bc", "is_reserved": 0, "rental_uris": {"android": "https://dc.lft.to/lastmile_qr_scan", "ios": "https://dc.lft.to/lastmile_qr_scan"}, "lat": 38.9237115}, {"type": "electric_scooter", "name": "cc94bf8ca9cb4255d6e396f30c7d57de", "fusion_lat": 0.0, "fusion_lon": 0.0, "lon": -77.039017, "is_disabled": 0, "bike_id": "cc94bf8ca9cb4255d6e396f30c7d57de", "is_reserved": 0, "rental_uris": {"android": "https://dc.lft.to/lastmile_qr_scan", "ios": "https://dc.lft.to/lastmile_qr_scan"}, "lat": 38.90157133333334}, {"type": "electric_scooter", "name": "16ecd681a3913e2db8c5252c070f952f", "fusion_lat": 0.0, "fusion_lon": 0.0, "lon": -77.02306066666667, "is_disabled": 0, "bike_id": "16ecd681a3913e2db8c5252c070f952f", "is_reserved": 0, "rental_uris": {"android": "https://dc.lft.to/lastmile_qr_scan", "ios": "https://dc.lft.to/lastmile_qr_scan"}, "lat": 38.91614766666667}, {"type": "electric_scooter", "name": "179ce1e250d56b9cb7a5dfa6e6c4a313", "fusion_lat": 0.0, "fusion_lon": 0.0, "lon": -77.01866783333334, "is_disabled": 0, "bike_id": "179ce1e250d56b9cb7a5dfa6e6c4a313", "is_reserved": 0, "rental_uris": {"android": "https://dc.lft.to/lastmile_qr_scan", "ios": "https://dc.lft.to/lastmile_qr_scan"}, "lat": 38.951555}, {"type": "electric_scooter", "name": "9d337dde8e5419e53bc99b71201d9a18", "fusion_lat": 0.0, "fusion_lon": 0.0, "lon": -77.02645183333334, "is_disabled": 0, "bike_id": "9d337dde8e5419e53bc99b71201d9a18", "is_reserved": 0, "rental_uris": {"android": "https://dc.lft.to/lastmile_qr_scan", "ios": "https://dc.lft.to/lastmile_qr_scan"}, "lat": 38.93098666666667}, {"type": "electric_scooter", "name": "98524c544c783e931d98cf0159680181", "fusion_lat": 0.0, "fusion_lon": 0.0, "lon": -77.02094583333333, "is_disabled": 0, "bike_id": "98524c544c783e931d98cf0159680181", "is_reserved": 0, "rental_uris": {"android": "https://dc.lft.to/lastmile_qr_scan", "ios": "https://dc.lft.to/lastmile_qr_scan"}, "lat": 38.91635766666667}, {"type": "electric_bike", "name": "730f7fe6ce051f921958ad5da3165ff5", "fusion_lat": 0.0, "fusion_lon": 0.0, "lon": -77.03760183333333, "is_disabled": 0, "bike_id": "730f7fe6ce051f921958ad5da3165ff5", "is_reserved": 0, "rental_uris": {"android": "https://dc.lft.to/lastmile_qr_scan", "ios": "https://dc.lft.to/lastmile_qr_scan"}, "lat": 38.93972983333333}, {"type": "electric_scooter", "name": "60716545ca622b17c100e8128399c7a8", "fusion_lat": 0.0, "fusion_lon": 0.0, "lon": -77.02579233333333, "is_disabled": 0, "bike_id": "60716545ca622b17c100e8128399c7a8", "is_reserved": 0, "rental_uris": {"android": "https://dc.lft.to/lastmile_qr_scan", "ios": "https://dc.lft.to/lastmile_qr_scan"}, "lat": 38.925264}, {"type": "electric_scooter", "name": "40e5da26e57b5c393ca7dc7b01d27f07", "fusion_lat": 0.0, "fusion_lon": 0.0, "lon": -77.00559266666667, "is_disabled": 0, "bike_id": "40e5da26e57b5c393ca7dc7b01d27f07", "is_reserved": 0, "rental_uris": {"android": "https://dc.lft.to/lastmile_qr_scan", "ios": "https://dc.lft.to/lastmile_qr_scan"}, "lat": 38.90573}, {"type": "electric_scooter", "name": "de102adcb2f50ae3d6eacffc8bcadf6e", "fusion_lat": 0.0, "fusion_lon": 0.0, "lon": -77.0074195, "is_disabled": 0, "bike_id": "de102adcb2f50ae3d6eacffc8bcadf6e", "is_reserved": 0, "rental_uris": {"android": "https://dc.lft.to/lastmile_qr_scan", "ios": "https://dc.lft.to/lastmile_qr_scan"}, "lat": 38.907606}, {"type": "electric_scooter", "name": "4062a2d64284946113358e63d75d9869", "fusion_lat": 0.0, "fusion_lon": 0.0, "lon": -77.033456, "is_disabled": 0, "bike_id": "4062a2d64284946113358e63d75d9869", "is_reserved": 0, "rental_uris": {"android": "https://dc.lft.to/lastmile_qr_scan", "ios": "https://dc.lft.to/lastmile_qr_scan"}, "lat": 38.923511}, {"type": "electric_bike", "name": "300d89bc2192781a944660e5cbed9d88", "fusion_lat": 0.0, "fusion_lon": 0.0, "lon": -76.9844225, "is_disabled": 0, "bike_id": "300d89bc2192781a944660e5cbed9d88", "is_reserved": 0, "rental_uris": {"android": "https://dc.lft.to/lastmile_qr_scan", "ios": "https://dc.lft.to/lastmile_qr_scan"}, "lat": 38.85533316666667}, {"type": "electric_scooter", "name": "64aad506d582cf74f8708ef269286f83", "fusion_lat": 0.0, "fusion_lon": 0.0, "lon": -77.03672766666666, "is_disabled": 0, "bike_id": "64aad506d582cf74f8708ef269286f83", "is_reserved": 0, "rental_uris": {"android": "https://dc.lft.to/lastmile_qr_scan", "ios": "https://dc.lft.to/lastmile_qr_scan"}, "lat": 38.92333566666667}, {"type": "electric_scooter", "name": "18a56912d04d685c681847c48f3cc2a9", "fusion_lat": 0.0, "fusion_lon": 0.0, "lon": -77.02193166666666, "is_disabled": 0, "bike_id": "18a56912d04d685c681847c48f3cc2a9", "is_reserved": 0, "rental_uris": {"android": "https://dc.lft.to/lastmile_qr_scan", "ios": "https://dc.lft.to/lastmile_qr_scan"}, "lat": 38.905565833333334}, {"type": "electric_scooter", "name": "3ddfb48b1e25583a8cc4e83b771fade5", "fusion_lat": 0.0, "fusion_lon": 0.0, "lon": -76.98336216666667, "is_disabled": 0, "bike_id": "3ddfb48b1e25583a8cc4e83b771fade5", "is_reserved": 0, "rental_uris": {"android": "https://dc.lft.to/lastmile_qr_scan", "ios": "https://dc.lft.to/lastmile_qr_scan"}, "lat": 38.89550116666667}, {"type": "electric_scooter", "name": "f2c79397cc7c2381af3380a651fd1ed4", "fusion_lat": 0.0, "fusion_lon": 0.0, "lon": -77.01775666666667, "is_disabled": 0, "bike_id": "f2c79397cc7c2381af3380a651fd1ed4", "is_reserved": 0, "rental_uris": {"android": "https://dc.lft.to/lastmile_qr_scan", "ios": "https://dc.lft.to/lastmile_qr_scan"}, "lat": 38.91988583333333}, {"type": "electric_scooter", "name": "4c93aad6d303676d50e5c5d58e8f3b44", "fusion_lat": 0.0, "fusion_lon": 0.0, "lon": -77.05007816666667, "is_disabled": 0, "bike_id": "4c93aad6d303676d50e5c5d58e8f3b44", "is_reserved": 0, "rental_uris": {"android": "https://dc.lft.to/lastmile_qr_scan", "ios": "https://dc.lft.to/lastmile_qr_scan"}, "lat": 38.906313}, {"type": "electric_scooter", "name": "d52818e10cc0fb421b64ce72c20fcd93", "fusion_lat": 0.0, "fusion_lon": 0.0, "lon": -77.00346366666666, "is_disabled": 0, "bike_id": "d52818e10cc0fb421b64ce72c20fcd93", "is_reserved": 0, "rental_uris": {"android": "https://dc.lft.to/lastmile_qr_scan", "ios": "https://dc.lft.to/lastmile_qr_scan"}, "lat": 38.916243333333334}, {"type": "electric_scooter", "name": "3a3f2ada07132f8ad98b50f3f37830da", "fusion_lat": 0.0, "fusion_lon": 0.0, "lon": -77.01796633333333, "is_disabled": 0, "bike_id": "3a3f2ada07132f8ad98b50f3f37830da", "is_reserved": 0, "rental_uris": {"android": "https://dc.lft.to/lastmile_qr_scan", "ios": "https://dc.lft.to/lastmile_qr_scan"}, "lat": 38.919407}, {"type": "electric_scooter", "name": "f6c5a985b27523d04538aa6f9a0fcb19", "fusion_lat": 0.0, "fusion_lon": 0.0, "lon": -77.022036, "is_disabled": 0, "bike_id": "f6c5a985b27523d04538aa6f9a0fcb19", "is_reserved": 0, "rental_uris": {"android": "https://dc.lft.to/lastmile_qr_scan", "ios": "https://dc.lft.to/lastmile_qr_scan"}, "lat": 38.91439916666667}, {"type": "electric_scooter", "name": "64da57e55bd921affa27e160371301a7", "fusion_lat": 0.0, "fusion_lon": 0.0, "lon": -77.04322816666667, "is_disabled": 0, "bike_id": "64da57e55bd921affa27e160371301a7", "is_reserved": 0, "rental_uris": {"android": "https://dc.lft.to/lastmile_qr_scan", "ios": "https://dc.lft.to/lastmile_qr_scan"}, "lat": 38.93405083333333}, {"type": "electric_scooter", "name": "6deaed4937312d17f576017be9c4c74d", "fusion_lat": 0.0, "fusion_lon": 0.0, "lon": -77.0062125, "is_disabled": 0, "bike_id": "6deaed4937312d17f576017be9c4c74d", "is_reserved": 0, "rental_uris": {"android": "https://dc.lft.to/lastmile_qr_scan", "ios": "https://dc.lft.to/lastmile_qr_scan"}, "lat": 38.8719885}, {"type": "electric_bike", "name": "1d95d9838b14021dd68181c61a0ef61e", "fusion_lat": 0.0, "fusion_lon": 0.0, "lon": -77.11408633333333, "is_disabled": 0, "bike_id": "1d95d9838b14021dd68181c61a0ef61e", "is_reserved": 0, "rental_uris": {"android": "https://dc.lft.to/lastmile_qr_scan", "ios": "https://dc.lft.to/lastmile_qr_scan"}, "lat": 38.8732005}, {"type": "electric_scooter", "name": "3f1f0ee0cde9b97d762c3ba5944d89e6", "fusion_lat": 0.0, "fusion_lon": 0.0, "lon": -77.04870333333334, "is_disabled": 0, "bike_id": "3f1f0ee0cde9b97d762c3ba5944d89e6", "is_reserved": 0, "rental_uris": {"android": "https://dc.lft.to/lastmile_qr_scan", "ios": "https://dc.lft.to/lastmile_qr_scan"}, "lat": 38.91056}, {"type": "electric_scooter", "name": "32ad8903b1f6b97721a8680ed7c446d0", "fusion_lat": 0.0, "fusion_lon": 0.0, "lon": -77.02299533333333, "is_disabled": 0, "bike_id": "32ad8903b1f6b97721a8680ed7c446d0", "is_reserved": 0, "rental_uris": {"android": "https://dc.lft.to/lastmile_qr_scan", "ios": "https://dc.lft.to/lastmile_qr_scan"}, "lat": 38.91700083333333}, {"type": "electric_scooter", "name": "31ba8e82710ecdc2033da4426291f0f5", "fusion_lat": 0.0, "fusion_lon": 0.0, "lon": -77.0670415, "is_disabled": 0, "bike_id": "31ba8e82710ecdc2033da4426291f0f5", "is_reserved": 0, "rental_uris": {"android": "https://dc.lft.to/lastmile_qr_scan", "ios": "https://dc.lft.to/lastmile_qr_scan"}, "lat": 38.95011433333333}, {"type": "electric_scooter", "name": "15cd499f4993f57bcb5aa29d2cdc43ce", "fusion_lat": 0.0, "fusion_lon": 0.0, "lon": -76.98372816666667, "is_disabled": 0, "bike_id": "15cd499f4993f57bcb5aa29d2cdc43ce", "is_reserved": 0, "rental_uris": {"android": "https://dc.lft.to/lastmile_qr_scan", "ios": "https://dc.lft.to/lastmile_qr_scan"}, "lat": 38.891390333333334}, {"type": "electric_scooter", "name": "7d9d037dfea43c8e93c0f847e80cbc48", "fusion_lat": 0.0, "fusion_lon": 0.0, "lon": -77.04862866666667, "is_disabled": 0, "bike_id": "7d9d037dfea43c8e93c0f847e80cbc48", "is_reserved": 0, "rental_uris": {"android": "https://dc.lft.to/lastmile_qr_scan", "ios": "https://dc.lft.to/lastmile_qr_scan"}, "lat": 38.912680333333334}, {"type": "electric_bike", "name": "16a2608a4bafe4622ebc3473a1cac457", "fusion_lat": 0.0, "fusion_lon": 0.0, "lon": -76.993999, "is_disabled": 0, "bike_id": "16a2608a4bafe4622ebc3473a1cac457", "is_reserved": 0, "rental_uris": {"android": "https://dc.lft.to/lastmile_qr_scan", "ios": "https://dc.lft.to/lastmile_qr_scan"}, "lat": 38.910084166666664}, {"type": "electric_scooter", "name": "3f27f6187569a57d5d48fa9cf9b231b9", "fusion_lat": 0.0, "fusion_lon": 0.0, "lon": -77.03607133333334, "is_disabled": 0, "bike_id": "3f27f6187569a57d5d48fa9cf9b231b9", "is_reserved": 0, "rental_uris": {"android": "https://dc.lft.to/lastmile_qr_scan", "ios": "https://dc.lft.to/lastmile_qr_scan"}, "lat": 38.934837}, {"type": "electric_scooter", "name": "2168141f041a607dcb904c6d0c803671", "fusion_lat": 0.0, "fusion_lon": 0.0, "lon": -77.02177033333334, "is_disabled": 0, "bike_id": "2168141f041a607dcb904c6d0c803671", "is_reserved": 0, "rental_uris": {"android": "https://dc.lft.to/lastmile_qr_scan", "ios": "https://dc.lft.to/lastmile_qr_scan"}, "lat": 38.91109633333333}, {"type": "electric_bike", "name": "3b8010d8ce8eefc583b19a6f410371a6", "fusion_lat": 0.0, "fusion_lon": 0.0, "lon": -77.23409433333333, "is_disabled": 0, "bike_id": "3b8010d8ce8eefc583b19a6f410371a6", "is_reserved": 0, "rental_uris": {"android": "https://dc.lft.to/lastmile_qr_scan", "ios": "https://dc.lft.to/lastmile_qr_scan"}, "lat": 38.8757955}, {"type": "electric_scooter", "name": "76bc9ca341a7531bffdc8c4d110cbd64", "fusion_lat": 0.0, "fusion_lon": 0.0, "lon": -77.03268183333333, "is_disabled": 0, "bike_id": "76bc9ca341a7531bffdc8c4d110cbd64", "is_reserved": 0, "rental_uris": {"android": "https://dc.lft.to/lastmile_qr_scan", "ios": "https://dc.lft.to/lastmile_qr_scan"}, "lat": 38.93311933333333}, {"type": "electric_scooter", "name": "4b0f34170e5fade1554b3f244e8927ea", "fusion_lat": 0.0, "fusion_lon": 0.0, "lon": -77.0734465, "is_disabled": 0, "bike_id": "4b0f34170e5fade1554b3f244e8927ea", "is_reserved": 0, "rental_uris": {"android": "https://dc.lft.to/lastmile_qr_scan", "ios": "https://dc.lft.to/lastmile_qr_scan"}, "lat": 38.94320583333333}, {"type": "electric_scooter", "name": "8a43ceb94022ca46e724896fb7037673", "fusion_lat": 0.0, "fusion_lon": 0.0, "lon": -77.03853516666666, "is_disabled": 0, "bike_id": "8a43ceb94022ca46e724896fb7037673", "is_reserved": 0, "rental_uris": {"android": "https://dc.lft.to/lastmile_qr_scan", "ios": "https://dc.lft.to/lastmile_qr_scan"}, "lat": 38.91545766666667}, {"type": "electric_scooter", "name": "5eeb06c1009ba4200fd0763b61418a3d", "fusion_lat": 0.0, "fusion_lon": 0.0, "lon": -77.066557, "is_disabled": 0, "bike_id": "5eeb06c1009ba4200fd0763b61418a3d", "is_reserved": 0, "rental_uris": {"android": "https://dc.lft.to/lastmile_qr_scan", "ios": "https://dc.lft.to/lastmile_qr_scan"}, "lat": 38.9506125}, {"type": "electric_scooter", "name": "0102ad3b74b9fb8082d3a4eb6cbf6603", "fusion_lat": 0.0, "fusion_lon": 0.0, "lon": -77.0503175, "is_disabled": 0, "bike_id": "0102ad3b74b9fb8082d3a4eb6cbf6603", "is_reserved": 0, "rental_uris": {"android": "https://dc.lft.to/lastmile_qr_scan", "ios": "https://dc.lft.to/lastmile_qr_scan"}, "lat": 38.902061833333335}, {"type": "electric_scooter", "name": "30560a8e7fca3f6ffafa8001beac5315", "fusion_lat": 0.0, "fusion_lon": 0.0, "lon": -77.021875, "is_disabled": 0, "bike_id": "30560a8e7fca3f6ffafa8001beac5315", "is_reserved": 0, "rental_uris": {"android": "https://dc.lft.to/lastmile_qr_scan", "ios": "https://dc.lft.to/lastmile_qr_scan"}, "lat": 38.91488283333333}, {"type": "electric_scooter", "name": "398e024274513db647e87968afb88411", "fusion_lat": 0.0, "fusion_lon": 0.0, "lon": -77.04184266666667, "is_disabled": 0, "bike_id": "398e024274513db647e87968afb88411", "is_reserved": 0, "rental_uris": {"android": "https://dc.lft.to/lastmile_qr_scan", "ios": "https://dc.lft.to/lastmile_qr_scan"}, "lat": 38.920186}, {"type": "electric_scooter", "name": "e3d5fbdd9062f9cb06cc8712996b140c", "fusion_lat": 0.0, "fusion_lon": 0.0, "lon": -77.04871583333333, "is_disabled": 0, "bike_id": "e3d5fbdd9062f9cb06cc8712996b140c", "is_reserved": 0, "rental_uris": {"android": "https://dc.lft.to/lastmile_qr_scan", "ios": "https://dc.lft.to/lastmile_qr_scan"}, "lat": 38.909079}, {"type": "electric_scooter", "name": "b127aabb96a009fa130c7554ee06b5e9", "fusion_lat": 0.0, "fusion_lon": 0.0, "lon": -77.02227866666667, "is_disabled": 0, "bike_id": "b127aabb96a009fa130c7554ee06b5e9", "is_reserved": 0, "rental_uris": {"android": "https://dc.lft.to/lastmile_qr_scan", "ios": "https://dc.lft.to/lastmile_qr_scan"}, "lat": 38.9126815}, {"type": "electric_scooter", "name": "9577b3dacc0238fd0d7c6572c893c583", "fusion_lat": 0.0, "fusion_lon": 0.0, "lon": -77.01758266666667, "is_disabled": 0, "bike_id": "9577b3dacc0238fd0d7c6572c893c583", "is_reserved": 0, "rental_uris": {"android": "https://dc.lft.to/lastmile_qr_scan", "ios": "https://dc.lft.to/lastmile_qr_scan"}, "lat": 38.9026305}, {"type": "electric_scooter", "name": "28ffaf099bfd20863ef6c67d54af73ea", "fusion_lat": 0.0, "fusion_lon": 0.0, "lon": -76.983588, "is_disabled": 0, "bike_id": "28ffaf099bfd20863ef6c67d54af73ea", "is_reserved": 0, "rental_uris": {"android": "https://dc.lft.to/lastmile_qr_scan", "ios": "https://dc.lft.to/lastmile_qr_scan"}, "lat": 38.887491833333335}, {"type": "electric_scooter", "name": "270ae4a8d785495299c236ad5e16bef5", "fusion_lat": 0.0, "fusion_lon": 0.0, "lon": -77.03385266666666, "is_disabled": 0, "bike_id": "270ae4a8d785495299c236ad5e16bef5", "is_reserved": 0, "rental_uris": {"android": "https://dc.lft.to/lastmile_qr_scan", "ios": "https://dc.lft.to/lastmile_qr_scan"}, "lat": 38.9012605}, {"type": "electric_scooter", "name": "dc0be97e560cc0b05325d9bc8cefea56", "fusion_lat": 0.0, "fusion_lon": 0.0, "lon": -77.02264333333333, "is_disabled": 0, "bike_id": "dc0be97e560cc0b05325d9bc8cefea56", "is_reserved": 0, "rental_uris": {"android": "https://dc.lft.to/lastmile_qr_scan", "ios": "https://dc.lft.to/lastmile_qr_scan"}, "lat": 38.894797}, {"type": "electric_scooter", "name": "939bdc32c40e37e174ce37f98486bf15", "fusion_lat": 0.0, "fusion_lon": 0.0, "lon": -76.9990645, "is_disabled": 0, "bike_id": "939bdc32c40e37e174ce37f98486bf15", "is_reserved": 0, "rental_uris": {"android": "https://dc.lft.to/lastmile_qr_scan", "ios": "https://dc.lft.to/lastmile_qr_scan"}, "lat": 38.93748566666667}, {"type": "electric_scooter", "name": "5fe97a9fbd4b73b22f101bf9147426f0", "fusion_lat": 0.0, "fusion_lon": 0.0, "lon": -77.048736, "is_disabled": 0, "bike_id": "5fe97a9fbd4b73b22f101bf9147426f0", "is_reserved": 0, "rental_uris": {"android": "https://dc.lft.to/lastmile_qr_scan", "ios": "https://dc.lft.to/lastmile_qr_scan"}, "lat": 38.9111165}, {"type": "electric_bike", "name": "1c61e8c459a066b6589dab8ded960efd", "fusion_lat": 0.0, "fusion_lon": 0.0, "lon": -76.98688533333333, "is_disabled": 0, "bike_id": "1c61e8c459a066b6589dab8ded960efd", "is_reserved": 0, "rental_uris": {"android": "https://dc.lft.to/lastmile_qr_scan", "ios": "https://dc.lft.to/lastmile_qr_scan"}, "lat": 38.9447505}, {"type": "electric_scooter", "name": "76aa70e8aad16da5c41f2d2bdce9ad0f", "fusion_lat": 0.0, "fusion_lon": 0.0, "lon": -77.02321516666666, "is_disabled": 0, "bike_id": "76aa70e8aad16da5c41f2d2bdce9ad0f", "is_reserved": 0, "rental_uris": {"android": "https://dc.lft.to/lastmile_qr_scan", "ios": "https://dc.lft.to/lastmile_qr_scan"}, "lat": 38.930617166666664}, {"type": "electric_scooter", "name": "b27f4e8d0af36af443fc32a0b331a011", "fusion_lat": 0.0, "fusion_lon": 0.0, "lon": -77.034668, "is_disabled": 0, "bike_id": "b27f4e8d0af36af443fc32a0b331a011", "is_reserved": 0, "rental_uris": {"android": "https://dc.lft.to/lastmile_qr_scan", "ios": "https://dc.lft.to/lastmile_qr_scan"}, "lat": 38.91722016666667}, {"type": "electric_scooter", "name": "e12509e22f58d531e22d965ac1fc55d4", "fusion_lat": 0.0, "fusion_lon": 0.0, "lon": -77.003573, "is_disabled": 0, "bike_id": "e12509e22f58d531e22d965ac1fc55d4", "is_reserved": 0, "rental_uris": {"android": "https://dc.lft.to/lastmile_qr_scan", "ios": "https://dc.lft.to/lastmile_qr_scan"}, "lat": 38.8771385}, {"type": "electric_scooter", "name": "283e7eef41335050f3b9edad14277a2c", "fusion_lat": 0.0, "fusion_lon": 0.0, "lon": -77.02046, "is_disabled": 0, "bike_id": "283e7eef41335050f3b9edad14277a2c", "is_reserved": 0, "rental_uris": {"android": "https://dc.lft.to/lastmile_qr_scan", "ios": "https://dc.lft.to/lastmile_qr_scan"}, "lat": 38.923429666666664}, {"type": "electric_scooter", "name": "828483e011f774e6de80b201ceabb295", "fusion_lat": 0.0, "fusion_lon": 0.0, "lon": -77.032928, "is_disabled": 0, "bike_id": "828483e011f774e6de80b201ceabb295", "is_reserved": 0, "rental_uris": {"android": "https://dc.lft.to/lastmile_qr_scan", "ios": "https://dc.lft.to/lastmile_qr_scan"}, "lat": 38.927544833333336}, {"type": "electric_scooter", "name": "60840cf3bf6878d1d8b02ba3c91b5e25", "fusion_lat": 0.0, "fusion_lon": 0.0, "lon": -77.04873483333333, "is_disabled": 0, "bike_id": "60840cf3bf6878d1d8b02ba3c91b5e25", "is_reserved": 0, "rental_uris": {"android": "https://dc.lft.to/lastmile_qr_scan", "ios": "https://dc.lft.to/lastmile_qr_scan"}, "lat": 38.90633966666667}, {"type": "electric_scooter", "name": "be51fb920fda9d37f96cfe3402c055ba", "fusion_lat": 0.0, "fusion_lon": 0.0, "lon": -77.08220333333334, "is_disabled": 0, "bike_id": "be51fb920fda9d37f96cfe3402c055ba", "is_reserved": 0, "rental_uris": {"android": "https://dc.lft.to/lastmile_qr_scan", "ios": "https://dc.lft.to/lastmile_qr_scan"}, "lat": 38.891389833333335}, {"type": "electric_bike", "name": "693e080543671958fb3b63f2b7c9bed0", "fusion_lat": 0.0, "fusion_lon": 0.0, "lon": -77.0408125, "is_disabled": 0, "bike_id": "693e080543671958fb3b63f2b7c9bed0", "is_reserved": 0, "rental_uris": {"android": "https://dc.lft.to/lastmile_qr_scan", "ios": "https://dc.lft.to/lastmile_qr_scan"}, "lat": 38.83065233333333}, {"type": "electric_scooter", "name": "ee3dca1faa42adc5070835412c9b290d", "fusion_lat": 0.0, "fusion_lon": 0.0, "lon": -77.05810533333333, "is_disabled": 0, "bike_id": "ee3dca1faa42adc5070835412c9b290d", "is_reserved": 0, "rental_uris": {"android": "https://dc.lft.to/lastmile_qr_scan", "ios": "https://dc.lft.to/lastmile_qr_scan"}, "lat": 38.929139666666664}, {"type": "electric_scooter", "name": "a4ae676ec64bb30df99b94355b96b118", "fusion_lat": 0.0, "fusion_lon": 0.0, "lon": -77.034447, "is_disabled": 0, "bike_id": "a4ae676ec64bb30df99b94355b96b118", "is_reserved": 0, "rental_uris": {"android": "https://dc.lft.to/lastmile_qr_scan", "ios": "https://dc.lft.to/lastmile_qr_scan"}, "lat": 38.910222166666664}, {"type": "electric_scooter", "name": "30ab269fde25379afb3e2a1f40f7a946", "fusion_lat": 0.0, "fusion_lon": 0.0, "lon": -77.01886133333333, "is_disabled": 0, "bike_id": "30ab269fde25379afb3e2a1f40f7a946", "is_reserved": 0, "rental_uris": {"android": "https://dc.lft.to/lastmile_qr_scan", "ios": "https://dc.lft.to/lastmile_qr_scan"}, "lat": 38.897481166666665}, {"type": "electric_scooter", "name": "35a95f0f20b6a3541032fd32cf980813", "fusion_lat": 0.0, "fusion_lon": 0.0, "lon": -77.01297766666667, "is_disabled": 0, "bike_id": "35a95f0f20b6a3541032fd32cf980813", "is_reserved": 0, "rental_uris": {"android": "https://dc.lft.to/lastmile_qr_scan", "ios": "https://dc.lft.to/lastmile_qr_scan"}, "lat": 38.87769616666667}, {"type": "electric_scooter", "name": "34010ef0d8b703f2def80626f10ef7ae", "fusion_lat": 0.0, "fusion_lon": 0.0, "lon": -77.02093083333334, "is_disabled": 0, "bike_id": "34010ef0d8b703f2def80626f10ef7ae", "is_reserved": 0, "rental_uris": {"android": "https://dc.lft.to/lastmile_qr_scan", "ios": "https://dc.lft.to/lastmile_qr_scan"}, "lat": 38.927083}, {"type": "electric_scooter", "name": "11f0e896b1eaea7991ea5c438742faaa", "fusion_lat": 0.0, "fusion_lon": 0.0, "lon": -77.01765816666666, "is_disabled": 0, "bike_id": "11f0e896b1eaea7991ea5c438742faaa", "is_reserved": 0, "rental_uris": {"android": "https://dc.lft.to/lastmile_qr_scan", "ios": "https://dc.lft.to/lastmile_qr_scan"}, "lat": 38.900303}, {"type": "electric_scooter", "name": "3da708a80cad9d3b2c08330be8de2f69", "fusion_lat": 0.0, "fusion_lon": 0.0, "lon": -76.99728166666667, "is_disabled": 0, "bike_id": "3da708a80cad9d3b2c08330be8de2f69", "is_reserved": 0, "rental_uris": {"android": "https://dc.lft.to/lastmile_qr_scan", "ios": "https://dc.lft.to/lastmile_qr_scan"}, "lat": 38.845473166666665}, {"type": "electric_scooter", "name": "8f8d4e4d2f96a0ff5ebfdf6dc8786e3b", "fusion_lat": 0.0, "fusion_lon": 0.0, "lon": -77.036063, "is_disabled": 0, "bike_id": "8f8d4e4d2f96a0ff5ebfdf6dc8786e3b", "is_reserved": 0, "rental_uris": {"android": "https://dc.lft.to/lastmile_qr_scan", "ios": "https://dc.lft.to/lastmile_qr_scan"}, "lat": 38.931567333333334}, {"type": "electric_scooter", "name": "7f3be3489609cabfa54412a9459cd6b4", "fusion_lat": 0.0, "fusion_lon": 0.0, "lon": -77.0463115, "is_disabled": 0, "bike_id": "7f3be3489609cabfa54412a9459cd6b4", "is_reserved": 0, "rental_uris": {"android": "https://dc.lft.to/lastmile_qr_scan", "ios": "https://dc.lft.to/lastmile_qr_scan"}, "lat": 38.906671833333334}, {"type": "electric_scooter", "name": "fde3a32eef4792ad79e1014df925f491", "fusion_lat": 0.0, "fusion_lon": 0.0, "lon": -77.035407, "is_disabled": 0, "bike_id": "fde3a32eef4792ad79e1014df925f491", "is_reserved": 0, "rental_uris": {"android": "https://dc.lft.to/lastmile_qr_scan", "ios": "https://dc.lft.to/lastmile_qr_scan"}, "lat": 38.923366}, {"type": "electric_bike", "name": "b7ba467c5e2649b4bd73b6fd900af005", "fusion_lat": 0.0, "fusion_lon": 0.0, "lon": -76.96058633333334, "is_disabled": 0, "bike_id": "b7ba467c5e2649b4bd73b6fd900af005", "is_reserved": 0, "rental_uris": {"android": "https://dc.lft.to/lastmile_qr_scan", "ios": "https://dc.lft.to/lastmile_qr_scan"}, "lat": 38.883301333333335}, {"type": "electric_scooter", "name": "8a062c0d989340634961c45816ed1272", "fusion_lat": 0.0, "fusion_lon": 0.0, "lon": -76.97548833333333, "is_disabled": 0, "bike_id": "8a062c0d989340634961c45816ed1272", "is_reserved": 0, "rental_uris": {"android": "https://dc.lft.to/lastmile_qr_scan", "ios": "https://dc.lft.to/lastmile_qr_scan"}, "lat": 38.8757755}, {"type": "electric_scooter", "name": "38605226a10ab4aa314d1f67473874f1", "fusion_lat": 0.0, "fusion_lon": 0.0, "lon": -77.03020116666667, "is_disabled": 0, "bike_id": "38605226a10ab4aa314d1f67473874f1", "is_reserved": 0, "rental_uris": {"android": "https://dc.lft.to/lastmile_qr_scan", "ios": "https://dc.lft.to/lastmile_qr_scan"}, "lat": 38.926738666666665}, {"type": "electric_bike", "name": "b7b05e9c3d48f7fb918fe37be0a06b3d", "fusion_lat": 0.0, "fusion_lon": 0.0, "lon": -77.09523233333333, "is_disabled": 0, "bike_id": "b7b05e9c3d48f7fb918fe37be0a06b3d", "is_reserved": 0, "rental_uris": {"android": "https://dc.lft.to/lastmile_qr_scan", "ios": "https://dc.lft.to/lastmile_qr_scan"}, "lat": 38.838105166666665}, {"type": "electric_scooter", "name": "7d436229d894869f29223a9220d0d142", "fusion_lat": 0.0, "fusion_lon": 0.0, "lon": -77.04035233333333, "is_disabled": 0, "bike_id": "7d436229d894869f29223a9220d0d142", "is_reserved": 0, "rental_uris": {"android": "https://dc.lft.to/lastmile_qr_scan", "ios": "https://dc.lft.to/lastmile_qr_scan"}, "lat": 38.91190233333333}, {"type": "electric_scooter", "name": "407cbab5123d3a14b897a42454a310a0", "fusion_lat": 0.0, "fusion_lon": 0.0, "lon": -76.9300725, "is_disabled": 0, "bike_id": "407cbab5123d3a14b897a42454a310a0", "is_reserved": 0, "rental_uris": {"android": "https://dc.lft.to/lastmile_qr_scan", "ios": "https://dc.lft.to/lastmile_qr_scan"}, "lat": 38.907188166666664}, {"type": "electric_scooter", "name": "99b79a1ace110640fdb1d9641c3b99b2", "fusion_lat": 0.0, "fusion_lon": 0.0, "lon": -77.02851233333334, "is_disabled": 0, "bike_id": "99b79a1ace110640fdb1d9641c3b99b2", "is_reserved": 0, "rental_uris": {"android": "https://dc.lft.to/lastmile_qr_scan", "ios": "https://dc.lft.to/lastmile_qr_scan"}, "lat": 38.90221366666667}, {"type": "electric_scooter", "name": "875ee4b7aa241da8f0c9b4f5bae52a7e", "fusion_lat": 0.0, "fusion_lon": 0.0, "lon": -77.05031266666667, "is_disabled": 0, "bike_id": "875ee4b7aa241da8f0c9b4f5bae52a7e", "is_reserved": 0, "rental_uris": {"android": "https://dc.lft.to/lastmile_qr_scan", "ios": "https://dc.lft.to/lastmile_qr_scan"}, "lat": 38.905330666666664}, {"type": "electric_scooter", "name": "bfa3739f4348697c11b630ad1f5a23fa", "fusion_lat": 0.0, "fusion_lon": 0.0, "lon": -76.94382816666666, "is_disabled": 0, "bike_id": "bfa3739f4348697c11b630ad1f5a23fa", "is_reserved": 0, "rental_uris": {"android": "https://dc.lft.to/lastmile_qr_scan", "ios": "https://dc.lft.to/lastmile_qr_scan"}, "lat": 38.891173}, {"type": "electric_scooter", "name": "e525d1c4eacea5663dc63ef4325ba563", "fusion_lat": 0.0, "fusion_lon": 0.0, "lon": -77.0283395, "is_disabled": 0, "bike_id": "e525d1c4eacea5663dc63ef4325ba563", "is_reserved": 0, "rental_uris": {"android": "https://dc.lft.to/lastmile_qr_scan", "ios": "https://dc.lft.to/lastmile_qr_scan"}, "lat": 38.893465}, {"type": "electric_scooter", "name": "6a24fcf888128d779e1925066c51cdbf", "fusion_lat": 0.0, "fusion_lon": 0.0, "lon": -76.98857966666667, "is_disabled": 0, "bike_id": "6a24fcf888128d779e1925066c51cdbf", "is_reserved": 0, "rental_uris": {"android": "https://dc.lft.to/lastmile_qr_scan", "ios": "https://dc.lft.to/lastmile_qr_scan"}, "lat": 38.90025516666667}, {"type": "electric_scooter", "name": "a363e1688150f1443562e079eea1768d", "fusion_lat": 0.0, "fusion_lon": 0.0, "lon": -77.042251, "is_disabled": 0, "bike_id": "a363e1688150f1443562e079eea1768d", "is_reserved": 0, "rental_uris": {"android": "https://dc.lft.to/lastmile_qr_scan", "ios": "https://dc.lft.to/lastmile_qr_scan"}, "lat": 38.921617166666664}, {"type": "electric_scooter", "name": "7d76c6ac2184b736ab8f9d9326c8fdd4", "fusion_lat": 0.0, "fusion_lon": 0.0, "lon": -77.03847933333333, "is_disabled": 0, "bike_id": "7d76c6ac2184b736ab8f9d9326c8fdd4", "is_reserved": 0, "rental_uris": {"android": "https://dc.lft.to/lastmile_qr_scan", "ios": "https://dc.lft.to/lastmile_qr_scan"}, "lat": 38.910078}, {"type": "electric_scooter", "name": "c50286fab1747315a394c76353648f74", "fusion_lat": 0.0, "fusion_lon": 0.0, "lon": -77.0371555, "is_disabled": 0, "bike_id": "c50286fab1747315a394c76353648f74", "is_reserved": 0, "rental_uris": {"android": "https://dc.lft.to/lastmile_qr_scan", "ios": "https://dc.lft.to/lastmile_qr_scan"}, "lat": 38.91565283333333}, {"type": "electric_scooter", "name": "4e24894461711f11802780cbfa903d47", "fusion_lat": 0.0, "fusion_lon": 0.0, "lon": -77.03832616666666, "is_disabled": 0, "bike_id": "4e24894461711f11802780cbfa903d47", "is_reserved": 0, "rental_uris": {"android": "https://dc.lft.to/lastmile_qr_scan", "ios": "https://dc.lft.to/lastmile_qr_scan"}, "lat": 38.91187883333333}, {"type": "electric_scooter", "name": "e935d65fac482e21d138b0ddc54ba6a1", "fusion_lat": 0.0, "fusion_lon": 0.0, "lon": -77.03667516666667, "is_disabled": 0, "bike_id": "e935d65fac482e21d138b0ddc54ba6a1", "is_reserved": 0, "rental_uris": {"android": "https://dc.lft.to/lastmile_qr_scan", "ios": "https://dc.lft.to/lastmile_qr_scan"}, "lat": 38.92331216666667}, {"type": "electric_bike", "name": "64be96b9a238a082fc4bd9bc46582554", "fusion_lat": 0.0, "fusion_lon": 0.0, "lon": -77.08958616666666, "is_disabled": 0, "bike_id": "64be96b9a238a082fc4bd9bc46582554", "is_reserved": 0, "rental_uris": {"android": "https://dc.lft.to/lastmile_qr_scan", "ios": "https://dc.lft.to/lastmile_qr_scan"}, "lat": 38.841118}, {"type": "electric_scooter", "name": "5d535749f48dfca159ef7e26d4209175", "fusion_lat": 0.0, "fusion_lon": 0.0, "lon": -76.998881, "is_disabled": 0, "bike_id": "5d535749f48dfca159ef7e26d4209175", "is_reserved": 0, "rental_uris": {"android": "https://dc.lft.to/lastmile_qr_scan", "ios": "https://dc.lft.to/lastmile_qr_scan"}, "lat": 38.90755166666667}, {"type": "electric_scooter", "name": "451b8000904fe1c59876b960203f512e", "fusion_lat": 0.0, "fusion_lon": 0.0, "lon": -76.94715016666666, "is_disabled": 0, "bike_id": "451b8000904fe1c59876b960203f512e", "is_reserved": 0, "rental_uris": {"android": "https://dc.lft.to/lastmile_qr_scan", "ios": "https://dc.lft.to/lastmile_qr_scan"}, "lat": 38.89085566666667}, {"type": "electric_scooter", "name": "ea6c8383ec0741fe37b0eabee46bb5dd", "fusion_lat": 0.0, "fusion_lon": 0.0, "lon": -77.00631166666666, "is_disabled": 0, "bike_id": "ea6c8383ec0741fe37b0eabee46bb5dd", "is_reserved": 0, "rental_uris": {"android": "https://dc.lft.to/lastmile_qr_scan", "ios": "https://dc.lft.to/lastmile_qr_scan"}, "lat": 38.8787935}, {"type": "electric_scooter", "name": "8451a4f5ce61c67ecbd74519b5ebbb54", "fusion_lat": 0.0, "fusion_lon": 0.0, "lon": -76.98360866666667, "is_disabled": 0, "bike_id": "8451a4f5ce61c67ecbd74519b5ebbb54", "is_reserved": 0, "rental_uris": {"android": "https://dc.lft.to/lastmile_qr_scan", "ios": "https://dc.lft.to/lastmile_qr_scan"}, "lat": 38.887314833333335}, {"type": "electric_bike", "name": "5f69f122a0cf7451f0dee9e6ab35814f", "fusion_lat": 0.0, "fusion_lon": 0.0, "lon": -77.082062, "is_disabled": 0, "bike_id": "5f69f122a0cf7451f0dee9e6ab35814f", "is_reserved": 0, "rental_uris": {"android": "https://dc.lft.to/lastmile_qr_scan", "ios": "https://dc.lft.to/lastmile_qr_scan"}, "lat": 38.922063333333334}, {"type": "electric_scooter", "name": "605529e82514ccc2ee4855c6be2b80fc", "fusion_lat": 0.0, "fusion_lon": 0.0, "lon": -77.04363883333333, "is_disabled": 0, "bike_id": "605529e82514ccc2ee4855c6be2b80fc", "is_reserved": 0, "rental_uris": {"android": "https://dc.lft.to/lastmile_qr_scan", "ios": "https://dc.lft.to/lastmile_qr_scan"}, "lat": 38.9013865}, {"type": "electric_bike", "name": "74363f30848ab654c7b0b475d15bd5dd", "fusion_lat": 0.0, "fusion_lon": 0.0, "lon": -76.957435, "is_disabled": 0, "bike_id": "74363f30848ab654c7b0b475d15bd5dd", "is_reserved": 0, "rental_uris": {"android": "https://dc.lft.to/lastmile_qr_scan", "ios": "https://dc.lft.to/lastmile_qr_scan"}, "lat": 38.88859016666667}, {"type": "electric_scooter", "name": "0bd4be827accb635c709bd1497e7a19e", "fusion_lat": 0.0, "fusion_lon": 0.0, "lon": -77.02588733333333, "is_disabled": 0, "bike_id": "0bd4be827accb635c709bd1497e7a19e", "is_reserved": 0, "rental_uris": {"android": "https://dc.lft.to/lastmile_qr_scan", "ios": "https://dc.lft.to/lastmile_qr_scan"}, "lat": 38.92037766666667}, {"type": "electric_scooter", "name": "fdc605aeb06eca0ea123ca037c631bb0", "fusion_lat": 0.0, "fusion_lon": 0.0, "lon": -77.04464, "is_disabled": 0, "bike_id": "fdc605aeb06eca0ea123ca037c631bb0", "is_reserved": 0, "rental_uris": {"android": "https://dc.lft.to/lastmile_qr_scan", "ios": "https://dc.lft.to/lastmile_qr_scan"}, "lat": 38.92468433333333}, {"type": "electric_scooter", "name": "a2c8c044221f54bc96f3429887c733b7", "fusion_lat": 0.0, "fusion_lon": 0.0, "lon": -76.9837775, "is_disabled": 0, "bike_id": "a2c8c044221f54bc96f3429887c733b7", "is_reserved": 0, "rental_uris": {"android": "https://dc.lft.to/lastmile_qr_scan", "ios": "https://dc.lft.to/lastmile_qr_scan"}, "lat": 38.899799333333334}, {"type": "electric_scooter", "name": "1491e63478c35d9119a443bd48a897cd", "fusion_lat": 0.0, "fusion_lon": 0.0, "lon": -77.02948033333334, "is_disabled": 0, "bike_id": "1491e63478c35d9119a443bd48a897cd", "is_reserved": 0, "rental_uris": {"android": "https://dc.lft.to/lastmile_qr_scan", "ios": "https://dc.lft.to/lastmile_qr_scan"}, "lat": 38.904950666666664}, {"type": "electric_scooter", "name": "4cfb4191dc8ce2c0929177e500e8834a", "fusion_lat": 0.0, "fusion_lon": 0.0, "lon": -77.02550666666667, "is_disabled": 0, "bike_id": "4cfb4191dc8ce2c0929177e500e8834a", "is_reserved": 0, "rental_uris": {"android": "https://dc.lft.to/lastmile_qr_scan", "ios": "https://dc.lft.to/lastmile_qr_scan"}, "lat": 38.91630766666667}, {"type": "electric_bike", "name": "12365582b27d471ad1f8f223a8895317", "fusion_lat": 0.0, "fusion_lon": 0.0, "lon": -76.98774833333333, "is_disabled": 0, "bike_id": "12365582b27d471ad1f8f223a8895317", "is_reserved": 0, "rental_uris": {"android": "https://dc.lft.to/lastmile_qr_scan", "ios": "https://dc.lft.to/lastmile_qr_scan"}, "lat": 38.85773783333333}, {"type": "electric_bike", "name": "509c67a71fa684ca1e9c027c966286cc", "fusion_lat": 0.0, "fusion_lon": 0.0, "lon": -77.03024916666666, "is_disabled": 0, "bike_id": "509c67a71fa684ca1e9c027c966286cc", "is_reserved": 0, "rental_uris": {"android": "https://dc.lft.to/lastmile_qr_scan", "ios": "https://dc.lft.to/lastmile_qr_scan"}, "lat": 38.934877166666666}, {"type": "electric_scooter", "name": "dc0a0e99b0077c1273838ae194c8b300", "fusion_lat": 0.0, "fusion_lon": 0.0, "lon": -77.01082033333333, "is_disabled": 0, "bike_id": "dc0a0e99b0077c1273838ae194c8b300", "is_reserved": 0, "rental_uris": {"android": "https://dc.lft.to/lastmile_qr_scan", "ios": "https://dc.lft.to/lastmile_qr_scan"}, "lat": 38.895347666666666}, {"type": "electric_scooter", "name": "422e58eb4c53f517c580c46bbd73d610", "fusion_lat": 0.0, "fusion_lon": 0.0, "lon": -77.0386545, "is_disabled": 0, "bike_id": "422e58eb4c53f517c580c46bbd73d610", "is_reserved": 0, "rental_uris": {"android": "https://dc.lft.to/lastmile_qr_scan", "ios": "https://dc.lft.to/lastmile_qr_scan"}, "lat": 38.917161}, {"type": "electric_scooter", "name": "7632ea7520cd44bb5cfba66f4bf05b1c", "fusion_lat": 0.0, "fusion_lon": 0.0, "lon": -77.026951, "is_disabled": 0, "bike_id": "7632ea7520cd44bb5cfba66f4bf05b1c", "is_reserved": 0, "rental_uris": {"android": "https://dc.lft.to/lastmile_qr_scan", "ios": "https://dc.lft.to/lastmile_qr_scan"}, "lat": 38.9087195}, {"type": "electric_scooter", "name": "5d9c8dd777d130c0f70c0234bcde2bf6", "fusion_lat": 0.0, "fusion_lon": 0.0, "lon": -77.03504983333333, "is_disabled": 0, "bike_id": "5d9c8dd777d130c0f70c0234bcde2bf6", "is_reserved": 0, "rental_uris": {"android": "https://dc.lft.to/lastmile_qr_scan", "ios": "https://dc.lft.to/lastmile_qr_scan"}, "lat": 38.918799166666666}, {"type": "electric_scooter", "name": "6e6352b69512a21496ca3a714efd1ee4", "fusion_lat": 0.0, "fusion_lon": 0.0, "lon": -77.034608, "is_disabled": 0, "bike_id": "6e6352b69512a21496ca3a714efd1ee4", "is_reserved": 0, "rental_uris": {"android": "https://dc.lft.to/lastmile_qr_scan", "ios": "https://dc.lft.to/lastmile_qr_scan"}, "lat": 38.908378}, {"type": "electric_scooter", "name": "8a671768eaaef7c45bd59e00f774f6aa", "fusion_lat": 0.0, "fusion_lon": 0.0, "lon": -77.06301083333334, "is_disabled": 0, "bike_id": "8a671768eaaef7c45bd59e00f774f6aa", "is_reserved": 0, "rental_uris": {"android": "https://dc.lft.to/lastmile_qr_scan", "ios": "https://dc.lft.to/lastmile_qr_scan"}, "lat": 38.904001666666666}, {"type": "electric_scooter", "name": "f8546e4dcbd21dd5e575ed38fbb5ba8b", "fusion_lat": 0.0, "fusion_lon": 0.0, "lon": -77.04792316666666, "is_disabled": 0, "bike_id": "f8546e4dcbd21dd5e575ed38fbb5ba8b", "is_reserved": 0, "rental_uris": {"android": "https://dc.lft.to/lastmile_qr_scan", "ios": "https://dc.lft.to/lastmile_qr_scan"}, "lat": 38.899287}, {"type": "electric_scooter", "name": "88ed92b6611ebd7c6e89ea0b974a4b40", "fusion_lat": 0.0, "fusion_lon": 0.0, "lon": -77.03456266666667, "is_disabled": 0, "bike_id": "88ed92b6611ebd7c6e89ea0b974a4b40", "is_reserved": 0, "rental_uris": {"android": "https://dc.lft.to/lastmile_qr_scan", "ios": "https://dc.lft.to/lastmile_qr_scan"}, "lat": 38.904430166666664}, {"type": "electric_bike", "name": "b98235db2cf1a8e6a596fc05ba9de9c7", "fusion_lat": 0.0, "fusion_lon": 0.0, "lon": -77.01201183333333, "is_disabled": 0, "bike_id": "b98235db2cf1a8e6a596fc05ba9de9c7", "is_reserved": 0, "rental_uris": {"android": "https://dc.lft.to/lastmile_qr_scan", "ios": "https://dc.lft.to/lastmile_qr_scan"}, "lat": 38.950808333333335}, {"type": "electric_scooter", "name": "ecab1249cc9afead6afa7bbb129e6d5c", "fusion_lat": 0.0, "fusion_lon": 0.0, "lon": -77.04349083333334, "is_disabled": 0, "bike_id": "ecab1249cc9afead6afa7bbb129e6d5c", "is_reserved": 0, "rental_uris": {"android": "https://dc.lft.to/lastmile_qr_scan", "ios": "https://dc.lft.to/lastmile_qr_scan"}, "lat": 38.90399033333333}, {"type": "electric_scooter", "name": "7dc95305fd5cc9322ccf4d2834c9b3e2", "fusion_lat": 0.0, "fusion_lon": 0.0, "lon": -77.01983566666667, "is_disabled": 0, "bike_id": "7dc95305fd5cc9322ccf4d2834c9b3e2", "is_reserved": 0, "rental_uris": {"android": "https://dc.lft.to/lastmile_qr_scan", "ios": "https://dc.lft.to/lastmile_qr_scan"}, "lat": 38.88719566666666}, {"type": "electric_bike", "name": "82c425598516956adcdb3662702e6f79", "fusion_lat": 0.0, "fusion_lon": 0.0, "lon": -76.96888616666666, "is_disabled": 0, "bike_id": "82c425598516956adcdb3662702e6f79", "is_reserved": 0, "rental_uris": {"android": "https://dc.lft.to/lastmile_qr_scan", "ios": "https://dc.lft.to/lastmile_qr_scan"}, "lat": 38.86984266666666}, {"type": "electric_scooter", "name": "4abc34c7224d72b1576e00c616cc5241", "fusion_lat": 0.0, "fusion_lon": 0.0, "lon": -77.04380433333333, "is_disabled": 0, "bike_id": "4abc34c7224d72b1576e00c616cc5241", "is_reserved": 0, "rental_uris": {"android": "https://dc.lft.to/lastmile_qr_scan", "ios": "https://dc.lft.to/lastmile_qr_scan"}, "lat": 38.9100015}, {"type": "electric_scooter", "name": "2e0c1dd705338b271f3815f1bdfe69f6", "fusion_lat": 0.0, "fusion_lon": 0.0, "lon": -77.01659516666666, "is_disabled": 0, "bike_id": "2e0c1dd705338b271f3815f1bdfe69f6", "is_reserved": 0, "rental_uris": {"android": "https://dc.lft.to/lastmile_qr_scan", "ios": "https://dc.lft.to/lastmile_qr_scan"}, "lat": 38.902651666666664}, {"type": "electric_scooter", "name": "85f5f613bba9134e4f4d57872088c50f", "fusion_lat": 0.0, "fusion_lon": 0.0, "lon": -76.99642616666667, "is_disabled": 0, "bike_id": "85f5f613bba9134e4f4d57872088c50f", "is_reserved": 0, "rental_uris": {"android": "https://dc.lft.to/lastmile_qr_scan", "ios": "https://dc.lft.to/lastmile_qr_scan"}, "lat": 38.877334166666664}, {"type": "electric_scooter", "name": "8ea42310881215ecbcea9283754b0542", "fusion_lat": 0.0, "fusion_lon": 0.0, "lon": -77.00924666666667, "is_disabled": 0, "bike_id": "8ea42310881215ecbcea9283754b0542", "is_reserved": 0, "rental_uris": {"android": "https://dc.lft.to/lastmile_qr_scan", "ios": "https://dc.lft.to/lastmile_qr_scan"}, "lat": 38.87454416666667}, {"type": "electric_scooter", "name": "35fec9b47e380edf371cf2530e769c70", "fusion_lat": 0.0, "fusion_lon": 0.0, "lon": -77.01985016666667, "is_disabled": 0, "bike_id": "35fec9b47e380edf371cf2530e769c70", "is_reserved": 0, "rental_uris": {"android": "https://dc.lft.to/lastmile_qr_scan", "ios": "https://dc.lft.to/lastmile_qr_scan"}, "lat": 38.901923333333336}, {"type": "electric_scooter", "name": "02172a2e58f3f1048be093e3e0855cd5", "fusion_lat": 0.0, "fusion_lon": 0.0, "lon": -77.0504615, "is_disabled": 0, "bike_id": "02172a2e58f3f1048be093e3e0855cd5", "is_reserved": 0, "rental_uris": {"android": "https://dc.lft.to/lastmile_qr_scan", "ios": "https://dc.lft.to/lastmile_qr_scan"}, "lat": 38.902863833333335}, {"type": "electric_scooter", "name": "d70a82e7f88599b4f374ee5be840085b", "fusion_lat": 0.0, "fusion_lon": 0.0, "lon": -77.04001566666666, "is_disabled": 0, "bike_id": "d70a82e7f88599b4f374ee5be840085b", "is_reserved": 0, "rental_uris": {"android": "https://dc.lft.to/lastmile_qr_scan", "ios": "https://dc.lft.to/lastmile_qr_scan"}, "lat": 38.93429166666667}, {"type": "electric_scooter", "name": "a8b596ad79865cb7e7260efae116e5f4", "fusion_lat": 0.0, "fusion_lon": 0.0, "lon": -76.99143, "is_disabled": 0, "bike_id": "a8b596ad79865cb7e7260efae116e5f4", "is_reserved": 0, "rental_uris": {"android": "https://dc.lft.to/lastmile_qr_scan", "ios": "https://dc.lft.to/lastmile_qr_scan"}, "lat": 38.873404}, {"type": "electric_scooter", "name": "586bd394fe0fd602ec1f969faea979d9", "fusion_lat": 0.0, "fusion_lon": 0.0, "lon": -77.02652483333334, "is_disabled": 0, "bike_id": "586bd394fe0fd602ec1f969faea979d9", "is_reserved": 0, "rental_uris": {"android": "https://dc.lft.to/lastmile_qr_scan", "ios": "https://dc.lft.to/lastmile_qr_scan"}, "lat": 38.9238935}, {"type": "electric_scooter", "name": "e2b9ba5b079e0f53236d261e75c5cec3", "fusion_lat": 0.0, "fusion_lon": 0.0, "lon": -77.04241916666666, "is_disabled": 0, "bike_id": "e2b9ba5b079e0f53236d261e75c5cec3", "is_reserved": 0, "rental_uris": {"android": "https://dc.lft.to/lastmile_qr_scan", "ios": "https://dc.lft.to/lastmile_qr_scan"}, "lat": 38.90705533333333}, {"type": "electric_bike", "name": "42dfaeabf27d7df5e66592a5b16e85b2", "fusion_lat": 0.0, "fusion_lon": 0.0, "lon": -77.12913066666667, "is_disabled": 0, "bike_id": "42dfaeabf27d7df5e66592a5b16e85b2", "is_reserved": 0, "rental_uris": {"android": "https://dc.lft.to/lastmile_qr_scan", "ios": "https://dc.lft.to/lastmile_qr_scan"}, "lat": 38.90613183333333}, {"type": "electric_scooter", "name": "79bbc58a83728f7a77e192737453ba1a", "fusion_lat": 0.0, "fusion_lon": 0.0, "lon": -77.04232316666666, "is_disabled": 0, "bike_id": "79bbc58a83728f7a77e192737453ba1a", "is_reserved": 0, "rental_uris": {"android": "https://dc.lft.to/lastmile_qr_scan", "ios": "https://dc.lft.to/lastmile_qr_scan"}, "lat": 38.9218305}, {"type": "electric_scooter", "name": "eadb698991598279d8cdf5feda52260b", "fusion_lat": 0.0, "fusion_lon": 0.0, "lon": -77.05132733333333, "is_disabled": 0, "bike_id": "eadb698991598279d8cdf5feda52260b", "is_reserved": 0, "rental_uris": {"android": "https://dc.lft.to/lastmile_qr_scan", "ios": "https://dc.lft.to/lastmile_qr_scan"}, "lat": 38.923647}, {"type": "electric_scooter", "name": "950fa9e246680e789c4739756b39d909", "fusion_lat": 0.0, "fusion_lon": 0.0, "lon": -77.034048, "is_disabled": 0, "bike_id": "950fa9e246680e789c4739756b39d909", "is_reserved": 0, "rental_uris": {"android": "https://dc.lft.to/lastmile_qr_scan", "ios": "https://dc.lft.to/lastmile_qr_scan"}, "lat": 38.925471333333334},