{"data": {"bikes": [{"rental_uris": {"android": "https://dc.lft.to/lastmile_qr_scan", "ios": "https://dc.lft.to/lastmile_qr_scan"}, "is_reserved": 0, "is_disabled": 0, "name": "c8faddd19289b25fa9db5ecebb6cb763", "bike_id": "c8faddd19289b25fa9db5ecebb6cb763", "fusion_lat": 0.0, "lon": -77.00355333333333, "type": "electric_scooter", "fusion_lon": 0.0, "lat": 38.882579166666666}, {"rental_uris": {"android": "https://dc.lft.to/lastmile_qr_scan", "ios": "https://dc.lft.to/lastmile_qr_scan"}, "is_reserved": 0, "is_disabled": 0, "name": "482a4254bd4d7db92a768c66d090466f", "bike_id": "482a4254bd4d7db92a768c66d090466f", "fusion_lat": 0.0, "lon": -77.02820433333333, "type": "electric_scooter", "fusion_lon": 0.0, "lat": 38.931276}, {"rental_uris": {"android": "https://dc.lft.to/lastmile_qr_scan", "ios": "https://dc.lft.to/lastmile_qr_scan"}, "is_reserved": 0, "is_disabled": 0, "name": "3b7303339d291f0420937d91f7a0d0ce", "bike_id": "3b7303339d291f0420937d91f7a0d0ce", "fusion_lat": 0.0, "lon": -77.03350083333333, "type": "electric_scooter", "fusion_lon": 0.0, "lat": 38.93513466666667}, {"rental_uris": {"android": "https://dc.lft.to/lastmile_qr_scan", "ios": "https://dc.lft.to/lastmile_qr_scan"}, "is_reserved": 0, "is_disabled": 0, "name": "13c93cc5b41e897a86877cabec966059", "bike_id": "13c93cc5b41e897a86877cabec966059", "fusion_lat": 0.0, "lon": -77.12891433333333, "type": "electric_bike", "fusion_lon": 0.0, "lat": 38.9060245}, {"rental_uris": {"android": "https://dc.lft.to/lastmile_qr_scan", "ios": "https://dc.lft.to/lastmile_qr_scan"}, "is_reserved": 0, "is_disabled": 0, "name": "0e7baad9d58821cc973b235c7f1e5eb0", "bike_id": "0e7baad9d58821cc973b235c7f1e5eb0", "fusion_lat": 0.0, "lon": -77.02378416666667, "type": "electric_scooter", "fusion_lon": 0.0, "lat": 38.89218316666667}, {"rental_uris": {"android": "https://dc.lft.to/lastmile_qr_scan", "ios": "https://dc.lft.to/lastmile_qr_scan"}, "is_reserved": 0, "is_disabled": 0, "name": "1f6197103ad1eccf2de925aeadd7efbf", "bike_id": "1f6197103ad1eccf2de925aeadd7efbf", "fusion_lat": 0.0, "lon": -77.0073705, "type": "electric_scooter", "fusion_lon": 0.0, "lat": 38.898323833333336}, {"rental_uris": {"android": "https://dc.lft.to/lastmile_qr_scan", "ios": "https://dc.lft.to/lastmile_qr_scan"}, "is_reserved": 0, "is_disabled": 0, "name": "3ca41dbc0c8a34f4ef820131330e1fb4", "bike_id": "3ca41dbc0c8a34f4ef820131330e1fb4", "fusion_lat": 0.0, "lon": -77.01521083333333, "type": "electric_scooter", "fusion_lon": 0.0, "lat": 38.89316483333333}, {"rental_uris": {"android": "https://dc.lft.to/lastmile_qr_scan", "ios": "https://dc.lft.to/lastmile_qr_scan"}, "is_reserved": 0, "is_disabled": 0, "name": "95422975974635f165d7864817394d53", "bike_id": "95422975974635f165d7864817394d53", "fusion_lat": 0.0, "lon": -76.96893683333333, "type": "electric_bike", "fusion_lon": 0.0, "lat": 38.86981683333333}, {"rental_uris": {"android": "https://dc.lft.to/lastmile_qr_scan", "ios": "https://dc.lft.to/lastmile_qr_scan"}, "is_reserved": 0, "is_disabled": 0, "name": "4258ff9b9ab771b8ac5c06807b139a4e", "bike_id": "4258ff9b9ab771b8ac5c06807b139a4e", "fusion_lat": 0.0, "lon": -77.04011, "type": "electric_scooter", "fusion_lon": 0.0, "lat": 38.934268833333334}, {"rental_uris": {"android": "https://dc.lft.to/lastmile_qr_scan", "ios": "https://dc.lft.to/lastmile_qr_scan"}, "is_reserved": 0, "is_disabled": 0, "name": "201b9da4550fe80f4ac057bf48334a98", "bike_id": "201b9da4550fe80f4ac057bf48334a98", "fusion_lat": 0.0, "lon": -77.019589, "type": "electric_scooter", "fusion_lon": 0.0, "lat": 38.92327}, {"rental_uris": {"android": "https://dc.lft.to/lastmile_qr_scan", "ios": "https://dc.lft.to/lastmile_qr_scan"}, "is_reserved": 0, "is_disabled": 0, "name": "ad64b372c35e52f00295a90bd5020fa9", "bike_id": "ad64b372c35e52f00295a90bd5020fa9", "fusion_lat": 0.0, "lon": -77.0345805, "type": "electric_scooter", "fusion_lon": 0.0, "lat": 38.901310333333335}, {"rental_uris": {"android": "https://dc.lft.to/lastmile_qr_scan", "ios": "https://dc.lft.to/lastmile_qr_scan"}, "is_reserved": 0, "is_disabled": 0, "name": "8885f30a31bc1eac399724b2363b8cf0", "bike_id": "8885f30a31bc1eac399724b2363b8cf0", "fusion_lat": 0.0, "lon": -77.02415933333333, "type": "electric_scooter", "fusion_lon": 0.0, "lat": 38.892203}, {"rental_uris": {"android": "https://dc.lft.to/lastmile_qr_scan", "ios": "https://dc.lft.to/lastmile_qr_scan"}, "is_reserved": 0, "is_disabled": 0, "name": "959adc04c302ca6c02fe3fac968ce6f2", "bike_id": "959adc04c302ca6c02fe3fac968ce6f2", "fusion_lat": 0.0, "lon": -77.0447675, "type": "electric_scooter", "fusion_lon": 0.0, "lat": 38.902786166666665}, {"rental_uris": {"android": "https://dc.lft.to/lastmile_qr_scan", "ios": "https://dc.lft.to/lastmile_qr_scan"}, "is_reserved": 0, "is_disabled": 0, "name": "f75ea155de16934e57793aa0326a6b25", "bike_id": "f75ea155de16934e57793aa0326a6b25", "fusion_lat": 0.0, "lon": -77.02992616666667, "type": "electric_scooter", "fusion_lon": 0.0, "lat": 38.883130666666666}, {"rental_uris": {"android": "https://dc.lft.to/lastmile_qr_scan", "ios": "https://dc.lft.to/lastmile_qr_scan"}, "is_reserved": 0, "is_disabled": 0, "name": "7a55d6333c9ee667040d72e90e87ba05", "bike_id": "7a55d6333c9ee667040d72e90e87ba05", "fusion_lat": 0.0, "lon": -77.0449825, "type": "electric_scooter", "fusion_lon": 0.0, "lat": 38.8974125}, {"rental_uris": {"android": "https://dc.lft.to/lastmile_qr_scan", "ios": "https://dc.lft.to/lastmile_qr_scan"}, "is_reserved": 0, "is_disabled": 0, "name": "f0a3cbad1c5a3298558c8ea298a49079", "bike_id": "f0a3cbad1c5a3298558c8ea298a49079", "fusion_lat": 0.0, "lon": -77.01727666666666, "type": "electric_scooter", "fusion_lon": 0.0, "lat": 38.914176}, {"rental_uris": {"android": "https://dc.lft.to/lastmile_qr_scan", "ios": "https://dc.lft.to/lastmile_qr_scan"}, "is_reserved": 0, "is_disabled": 0, "name": "161315f769d18c268e75b29786e623b5", "bike_id": "161315f769d18c268e75b29786e623b5", "fusion_lat": 0.0, "lon": -77.0441525, "type": "electric_scooter", "fusion_lon": 0.0, "lat": 38.9258385}, {"rental_uris": {"android": "https://dc.lft.to/lastmile_qr_scan", "ios": "https://dc.lft.to/lastmile_qr_scan"}, "is_reserved": 0, "is_disabled": 0, "name": "50567f62b08680967c036594bbf3fdbe", "bike_id": "50567f62b08680967c036594bbf3fdbe", "fusion_lat": 0.0, "lon": -77.01227716666666, "type": "electric_scooter", "fusion_lon": 0.0, "lat": 38.91543716666666}, {"rental_uris": {"android": "https://dc.lft.to/lastmile_qr_scan", "ios": "https://dc.lft.to/lastmile_qr_scan"}, "is_reserved": 0, "is_disabled": 0, "name": "4a71260abd1f76c98d3b93ce8d820319", "bike_id": "4a71260abd1f76c98d3b93ce8d820319", "fusion_lat": 0.0, "lon": -77.04182466666667, "type": "electric_scooter", "fusion_lon": 0.0, "lat": 38.920074666666665}, {"rental_uris": {"android": "https://dc.lft.to/lastmile_qr_scan", "ios": "https://dc.lft.to/lastmile_qr_scan"}, "is_reserved": 0, "is_disabled": 0, "name": "fbb2d3769b4deb73606b0eae9acf2399", "bike_id": "fbb2d3769b4deb73606b0eae9acf2399", "fusion_lat": 0.0, "lon": -77.08023866666667, "type": "electric_scooter", "fusion_lon": 0.0, "lat": 38.946105333333335}, {"rental_uris": {"android": "https://dc.lft.to/lastmile_qr_scan", "ios": "https://dc.lft.to/lastmile_qr_scan"}, "is_reserved": 0, "is_disabled": 0, "name": "ae37facb21a2fedad5a8065f62daa863", "bike_id": "ae37facb21a2fedad5a8065f62daa863", "fusion_lat": 0.0, "lon": -77.00642783333333, "type": "electric_scooter", "fusion_lon": 0.0, "lat": 38.90566366666667}, {"rental_uris": {"android": "https://dc.lft.to/lastmile_qr_scan", "ios": "https://dc.lft.to/lastmile_qr_scan"}, "is_reserved": 0, "is_disabled": 0, "name": "84ad62d621171486fa097263e570d138", "bike_id": "84ad62d621171486fa097263e570d138", "fusion_lat": 0.0, "lon": -77.03573716666666, "type": "electric_scooter", "fusion_lon": 0.0, "lat": 38.904661833333336}, {"rental_uris": {"android": "https://dc.lft.to/lastmile_qr_scan", "ios": "https://dc.lft.to/lastmile_qr_scan"}, "is_reserved": 0, "is_disabled": 0, "name": "adaded400b9cabfe706603b9a763aa30", "bike_id": "adaded400b9cabfe706603b9a763aa30", "fusion_lat": 0.0, "lon": -77.02570433333334, "type": "electric_scooter", "fusion_lon": 0.0, "lat": 38.887482}, {"rental_uris": {"android": "https://dc.lft.to/lastmile_qr_scan", "ios": "https://dc.lft.to/lastmile_qr_scan"}, "is_reserved": 0, "is_disabled": 0, "name": "b886a4b97166ec0d43d5eb655669b2d2", "bike_id": "b886a4b97166ec0d43d5eb655669b2d2", "fusion_lat": 0.0, "lon": -77.045768, "type": "electric_scooter", "fusion_lon": 0.0, "lat": 38.89876116666667}, {"rental_uris": {"android": "https://dc.lft.to/lastmile_qr_scan", "ios": "https://dc.lft.to/lastmile_qr_scan"}, "is_reserved": 0, "is_disabled": 0, "name": "8c7d6f7183e851cf2d8469bb2e8b0d0e", "bike_id": "8c7d6f7183e851cf2d8469bb2e8b0d0e", "fusion_lat": 0.0, "lon": -77.01502983333333, "type": "electric_scooter", "fusion_lon": 0.0, "lat": 38.89309333333333}, {"rental_uris": {"android": "https://dc.lft.to/lastmile_qr_scan", "ios": "https://dc.lft.to/lastmile_qr_scan"}, "is_reserved": 0, "is_disabled": 0, "name": "37c9d9e87c09819afd7e1798ac8bafcf", "bike_id": "37c9d9e87c09819afd7e1798ac8bafcf", "fusion_lat": 0.0, "lon": -77.03526733333334, "type": "electric_scooter", "fusion_lon": 0.0, "lat": 38.92235383333333}, {"rental_uris": {"android": "https://dc.lft.to/lastmile_qr_scan", "ios": "https://dc.lft.to/lastmile_qr_scan"}, "is_reserved": 0, "is_disabled": 0, "name": "45f140de2b178a0754f1734928881230", "bike_id": "45f140de2b178a0754f1734928881230", "fusion_lat": 0.0, "lon": -77.00114766666667, "type": "electric_scooter", "fusion_lon": 0.0, "lat": 38.90696716666667}, {"rental_uris": {"android": "https://dc.lft.to/lastmile_qr_scan", "ios": "https://dc.lft.to/lastmile_qr_scan"}, "is_reserved": 0, "is_disabled": 0, "name": "74c16eed32ffa0d593dc3eb19eb8e532", "bike_id": "74c16eed32ffa0d593dc3eb19eb8e532", "fusion_lat": 0.0, "lon": -77.0465295, "type": "electric_scooter", "fusion_lon": 0.0, "lat": 38.89996333333333}, {"rental_uris": {"android": "https://dc.lft.to/lastmile_qr_scan", "ios": "https://dc.lft.to/lastmile_qr_scan"}, "is_reserved": 0, "is_disabled": 0, "name": "385e8b03fbd46c13aa641eb4dbe4bdca", "bike_id": "385e8b03fbd46c13aa641eb4dbe4bdca", "fusion_lat": 0.0, "lon": -77.03354016666667, "type": "electric_scooter", "fusion_lon": 0.0, "lat": 38.935755666666665}, {"rental_uris": {"android": "https://dc.lft.to/lastmile_qr_scan", "ios": "https://dc.lft.to/lastmile_qr_scan"}, "is_reserved": 0, "is_disabled": 0, "name": "38173806d811f1262672938032177639", "bike_id": "38173806d811f1262672938032177639", "fusion_lat": 0.0, "lon": -77.02537266666667, "type": "electric_scooter", "fusion_lon": 0.0, "lat": 38.899344166666666}, {"rental_uris": {"android": "https://dc.lft.to/lastmile_qr_scan", "ios": "https://dc.lft.to/lastmile_qr_scan"}, "is_reserved": 0, "is_disabled": 0, "name": "87474dc7eada98a9f743b7bcda5cea18", "bike_id": "87474dc7eada98a9f743b7bcda5cea18", "fusion_lat": 0.0, "lon": -77.04517616666666, "type": "electric_scooter", "fusion_lon": 0.0, "lat": 38.912861166666666}, {"rental_uris": {"android": "https://dc.lft.to/lastmile_qr_scan", "ios": "https://dc.lft.to/lastmile_qr_scan"}, "is_reserved": 0, "is_disabled": 0, "name": "882add1774fa2a7f77dc729a35144204", "bike_id": "882add1774fa2a7f77dc729a35144204", "fusion_lat": 0.0, "lon": -77.04021, "type": "electric_scooter", "fusion_lon": 0.0, "lat": 38.91842066666667}, {"rental_uris": {"android": "https://dc.lft.to/lastmile_qr_scan", "ios": "https://dc.lft.to/lastmile_qr_scan"}, "is_reserved": 0, "is_disabled": 0, "name": "ef35e7e59339559fe99f8e88134e6adf", "bike_id": "ef35e7e59339559fe99f8e88134e6adf", "fusion_lat": 0.0, "lon": -77.03377566666667, "type": "electric_scooter", "fusion_lon": 0.0, "lat": 38.9010955}, {"rental_uris": {"android": "https://dc.lft.to/lastmile_qr_scan", "ios": "https://dc.lft.to/lastmile_qr_scan"}, "is_reserved": 0, "is_disabled": 0, "name": "8c40c43cbb97cc310c44d24e612453a0", "bike_id": "8c40c43cbb97cc310c44d24e612453a0", "fusion_lat": 0.0, "lon": -77.06807516666667, "type": "electric_scooter", "fusion_lon": 0.0, "lat": 38.915593}, {"rental_uris": {"android": "https://dc.lft.to/lastmile_qr_scan", "ios": "https://dc.lft.to/lastmile_qr_scan"}, "is_reserved": 0, "is_disabled": 0, "name": "8b635a2bd1dc0457a7a995b507454810", "bike_id": "8b635a2bd1dc0457a7a995b507454810", "fusion_lat": 0.0, "lon": -77.03173883333334, "type": "electric_scooter", "fusion_lon": 0.0, "lat": 38.91421366666667}, {"rental_uris": {"android": "https://dc.lft.to/lastmile_qr_scan", "ios": "https://dc.lft.to/lastmile_qr_scan"}, "is_reserved": 0, "is_disabled": 0, "name": "24a3a1fc04f00558d4708e63d4dbbf47", "bike_id": "24a3a1fc04f00558d4708e63d4dbbf47", "fusion_lat": 0.0, "lon": -77.006094, "type": "electric_scooter", "fusion_lon": 0.0, "lat": 38.90572316666667}, {"rental_uris": {"android": "https://dc.lft.to/lastmile_qr_scan", "ios": "https://dc.lft.to/lastmile_qr_scan"}, "is_reserved": 0, "is_disabled": 0, "name": "771411ed0ff97da2e90e32a4d730ac6d", "bike_id": "771411ed0ff97da2e90e32a4d730ac6d", "fusion_lat": 0.0, "lon": -77.0853355, "type": "electric_bike", "fusion_lon": 0.0, "lat": 38.85646766666667}, {"rental_uris": {"android": "https://dc.lft.to/lastmile_qr_scan", "ios": "https://dc.lft.to/lastmile_qr_scan"}, "is_reserved": 0, "is_disabled": 0, "name": "ea366b725bdb5f3319e99e4f725e60de", "bike_id": "ea366b725bdb5f3319e99e4f725e60de", "fusion_lat": 0.0, "lon": -77.02007366666666, "type": "electric_scooter", "fusion_lon": 0.0, "lat": 38.89487533333333}, {"rental_uris": {"android": "https://dc.lft.to/lastmile_qr_scan", "ios": "https://dc.lft.to/lastmile_qr_scan"}, "is_reserved": 0, "is_disabled": 0, "name": "936d70bfe5619638a64ca357d8e339fa", "bike_id": "936d70bfe5619638a64ca357d8e339fa", "fusion_lat": 0.0, "lon": -77.03455866666667, "type": "electric_scooter", "fusion_lon": 0.0, "lat": 38.9183665}, {"rental_uris": {"android": "https://dc.lft.to/lastmile_qr_scan", "ios": "https://dc.lft.to/lastmile_qr_scan"}, "is_reserved": 0, "is_disabled": 0, "name": "d64cf27013a29cb11b8e49e2aacf708e", "bike_id": "d64cf27013a29cb11b8e49e2aacf708e", "fusion_lat": 0.0, "lon": -77.04138766666667, "type": "electric_scooter", "fusion_lon": 0.0, "lat": 38.90910133333333}, {"rental_uris": {"android": "https://dc.lft.to/lastmile_qr_scan", "ios": "https://dc.lft.to/lastmile_qr_scan"}, "is_reserved": 0, "is_disabled": 0, "name": "28b9068e2933be20d12521214bdbd9b9", "bike_id": "28b9068e2933be20d12521214bdbd9b9", "fusion_lat": 0.0, "lon": -77.03953283333334, "type": "electric_scooter", "fusion_lon": 0.0, "lat": 38.93058716666667}, {"rental_uris": {"android": "https://dc.lft.to/lastmile_qr_scan", "ios": "https://dc.lft.to/lastmile_qr_scan"}, "is_reserved": 0, "is_disabled": 0, "name": "837d5726c86899cb2178c7cd9f6a1eaf", "bike_id": "837d5726c86899cb2178c7cd9f6a1eaf", "fusion_lat": 0.0, "lon": -76.9573635, "type": "electric_scooter", "fusion_lon": 0.0, "lat": 38.883941166666666}, {"rental_uris": {"android": "https://dc.lft.to/lastmile_qr_scan", "ios": "https://dc.lft.to/lastmile_qr_scan"}, "is_reserved": 0, "is_disabled": 0, "name": "4c07c1fe66a6638fa6c41280c931b0f5", "bike_id": "4c07c1fe66a6638fa6c41280c931b0f5", "fusion_lat": 0.0, "lon": -77.07752166666667, "type": "electric_bike", "fusion_lon": 0.0, "lat": 38.841902}, {"rental_uris": {"android": "https://dc.lft.to/lastmile_qr_scan", "ios": "https://dc.lft.to/lastmile_qr_scan"}, "is_reserved": 0, "is_disabled": 0, "name": "368bb8e57c14b3fcbed9c3004e1a4e87", "bike_id": "368bb8e57c14b3fcbed9c3004e1a4e87", "fusion_lat": 0.0, "lon": -77.048656, "type": "electric_scooter", "fusion_lon": 0.0, "lat": 38.9064355}, {"rental_uris": {"android": "https://dc.lft.to/lastmile_qr_scan", "ios": "https://dc.lft.to/lastmile_qr_scan"}, "is_reserved": 0, "is_disabled": 0, "name": "1d942bf4f478198008e0cc21c33ec107", "bike_id": "1d942bf4f478198008e0cc21c33ec107", "fusion_lat": 0.0, "lon": -77.05012533333333, "type": "electric_scooter", "fusion_lon": 0.0, "lat": 38.89905366666667}, {"rental_uris": {"android": "https://dc.lft.to/lastmile_qr_scan", "ios": "https://dc.lft.to/lastmile_qr_scan"}, "is_reserved": 0, "is_disabled": 0, "name": "ca04512125c408deff4050db64ed9f26", "bike_id": "ca04512125c408deff4050db64ed9f26", "fusion_lat": 0.0, "lon": -77.02216283333334, "type": "electric_scooter", "fusion_lon": 0.0, "lat": 38.88733416666667}, {"rental_uris": {"android": "https://dc.lft.to/lastmile_qr_scan", "ios": "https://dc.lft.to/lastmile_qr_scan"}, "is_reserved": 0, "is_disabled": 0, "name": "d506187c11fd89b8a559a4d22316e0c9", "bike_id": "d506187c11fd89b8a559a4d22316e0c9", "fusion_lat": 0.0, "lon": -77.04348266666666, "type": "electric_scooter", "fusion_lon": 0.0, "lat": 38.910446666666665}, {"rental_uris": {"android": "https://dc.lft.to/lastmile_qr_scan", "ios": "https://dc.lft.to/lastmile_qr_scan"}, "is_reserved": 0, "is_disabled": 0, "name": "939d57ab48e081e966ccadf7a3e7bbea", "bike_id": "939d57ab48e081e966ccadf7a3e7bbea", "fusion_lat": 0.0, "lon": -77.03382116666667, "type": "electric_scooter", "fusion_lon": 0.0, "lat": 38.92464066666667}, {"rental_uris": {"android": "https://dc.lft.to/lastmile_qr_scan", "ios": "https://dc.lft.to/lastmile_qr_scan"}, "is_reserved": 0, "is_disabled": 0, "name": "e7348a39d350d7ae9494fad125e37ffb", "bike_id": "e7348a39d350d7ae9494fad125e37ffb", "fusion_lat": 0.0, "lon": -77.02197283333334, "type": "electric_scooter", "fusion_lon": 0.0, "lat": 38.8940985}, {"rental_uris": {"android": "https://dc.lft.to/lastmile_qr_scan", "ios": "https://dc.lft.to/lastmile_qr_scan"}, "is_reserved": 0, "is_disabled": 0, "name": "15ee556015b1257c194c7e099a4f8ada", "bike_id": "15ee556015b1257c194c7e099a4f8ada", "fusion_lat": 0.0, "lon": -77.001413, "type": "electric_scooter", "fusion_lon": 0.0, "lat": 38.8946705}, {"rental_uris": {"android": "https://dc.lft.to/lastmile_qr_scan", "ios": "https://dc.lft.to/lastmile_qr_scan"}, "is_reserved": 0, "is_disabled": 0, "name": "e6e3e40e45cab74b82e15aecfd4c9836", "bike_id": "e6e3e40e45cab74b82e15aecfd4c9836", "fusion_lat": 0.0, "lon": -77.0405725, "type": "electric_scooter", "fusion_lon": 0.0, "lat": 38.92686033333333}, {"rental_uris": {"android": "https://dc.lft.to/lastmile_qr_scan", "ios": "https://dc.lft.to/lastmile_qr_scan"}, "is_reserved": 0, "is_disabled": 0, "name": "b1e17cb17304b0481ef39621fad70833", "bike_id": "b1e17cb17304b0481ef39621fad70833", "fusion_lat": 0.0, "lon": -76.983697, "type": "electric_scooter", "fusion_lon": 0.0, "lat": 38.892621166666665}, {"rental_uris": {"android": "https://dc.lft.to/lastmile_qr_scan", "ios": "https://dc.lft.to/lastmile_qr_scan"}, "is_reserved": 0, "is_disabled": 0, "name": "c297f0ffed508e365bf8a9553caddcc9", "bike_id": "c297f0ffed508e365bf8a9553caddcc9", "fusion_lat": 0.0, "lon": -77.02711766666667, "type": "electric_scooter", "fusion_lon": 0.0, "lat": 38.9178225}, {"rental_uris": {"android": "https://dc.lft.to/lastmile_qr_scan", "ios": "https://dc.lft.to/lastmile_qr_scan"}, "is_reserved": 0, "is_disabled": 0, "name": "35b83d126f5248d17eaf43612505391a", "bike_id": "35b83d126f5248d17eaf43612505391a", "fusion_lat": 0.0, "lon": -76.94089983333333, "type": "electric_scooter", "fusion_lon": 0.0, "lat": 38.89124183333333}, {"rental_uris": {"android": "https://dc.lft.to/lastmile_qr_scan", "ios": "https://dc.lft.to/lastmile_qr_scan"}, "is_reserved": 0, "is_disabled": 0, "name": "799d371594ea92d156a22b9630f3a89a", "bike_id": "799d371594ea92d156a22b9630f3a89a", "fusion_lat": 0.0, "lon": -77.04056883333334, "type": "electric_scooter", "fusion_lon": 0.0, "lat": 38.90857616666667}, {"rental_uris": {"android": "https://dc.lft.to/lastmile_qr_scan", "ios": "https://dc.lft.to/lastmile_qr_scan"}, "is_reserved": 0, "is_disabled": 0, "name": "c009301e89237ca79409d2f1f316185f", "bike_id": "c009301e89237ca79409d2f1f316185f", "fusion_lat": 0.0, "lon": -77.023854, "type": "electric_scooter", "fusion_lon": 0.0, "lat": 38.952690833333335}, {"rental_uris": {"android": "https://dc.lft.to/lastmile_qr_scan", "ios": "https://dc.lft.to/lastmile_qr_scan"}, "is_reserved": 0, "is_disabled": 0, "name": "9da4b976cd1303d66bc93d5332bcc4ac", "bike_id": "9da4b976cd1303d66bc93d5332bcc4ac", "fusion_lat": 0.0, "lon": -77.0407325, "type": "electric_scooter", "fusion_lon": 0.0, "lat": 38.903587}, {"rental_uris": {"android": "https://dc.lft.to/lastmile_qr_scan", "ios": "https://dc.lft.to/lastmile_qr_scan"}, "is_reserved": 0, "is_disabled": 0, "name": "9d7851a51c8eaf49339d033d4408a68a", "bike_id": "9d7851a51c8eaf49339d033d4408a68a", "fusion_lat": 0.0, "lon": -77.04536283333333, "type": "electric_scooter", "fusion_lon": 0.0, "lat": 38.902746666666665}, {"rental_uris": {"android": "https://dc.lft.to/lastmile_qr_scan", "ios": "https://dc.lft.to/lastmile_qr_scan"}, "is_reserved": 0, "is_disabled": 0, "name": "c2150e1b283f145d8b6c6b2d0d623dd7", "bike_id": "c2150e1b283f145d8b6c6b2d0d623dd7", "fusion_lat": 0.0, "lon": -77.02599783333334, "type": "electric_scooter", "fusion_lon": 0.0, "lat": 38.90042016666666}, {"rental_uris": {"android": "https://dc.lft.to/lastmile_qr_scan", "ios": "https://dc.lft.to/lastmile_qr_scan"}, "is_reserved": 0, "is_disabled": 0, "name": "993cecb8b3e3cfc386f407dceb69f120", "bike_id": "993cecb8b3e3cfc386f407dceb69f120", "fusion_lat": 0.0, "lon": -77.01504616666666, "type": "electric_scooter", "fusion_lon": 0.0, "lat": 38.89560083333333}, {"rental_uris": {"android": "https://dc.lft.to/lastmile_qr_scan", "ios": "https://dc.lft.to/lastmile_qr_scan"}, "is_reserved": 0, "is_disabled": 0, "name": "4a75fd6760c3018583a01d6821c92eaa", "bike_id": "4a75fd6760c3018583a01d6821c92eaa", "fusion_lat": 0.0, "lon": -77.009119, "type": "electric_scooter", "fusion_lon": 0.0, "lat": 38.89888416666667}, {"rental_uris": {"android": "https://dc.lft.to/lastmile_qr_scan", "ios": "https://dc.lft.to/lastmile_qr_scan"}, "is_reserved": 0, "is_disabled": 0, "name": "4f31fa938706276122b90310183932d1", "bike_id": "4f31fa938706276122b90310183932d1", "fusion_lat": 0.0, "lon": -77.0345415, "type": "electric_scooter", "fusion_lon": 0.0, "lat": 38.9025095}, {"rental_uris": {"android": "https://dc.lft.to/lastmile_qr_scan", "ios": "https://dc.lft.to/lastmile_qr_scan"}, "is_reserved": 0, "is_disabled": 0, "name": "40459d5d1045b7d7b2e3257971a157c3", "bike_id": "40459d5d1045b7d7b2e3257971a157c3", "fusion_lat": 0.0, "lon": -77.05316633333334, "type": "electric_scooter", "fusion_lon": 0.0, "lat": 38.905169}, {"rental_uris": {"android": "https://dc.lft.to/lastmile_qr_scan", "ios": "https://dc.lft.to/lastmile_qr_scan"}, "is_reserved": 0, "is_disabled": 0, "name": "c297d2df5a6ec983504e41ae627446e6", "bike_id": "c297d2df5a6ec983504e41ae627446e6", "fusion_lat": 0.0, "lon": -77.059281, "type": "electric_scooter", "fusion_lon": 0.0, "lat": 38.9018665}, {"rental_uris": {"android": "https://dc.lft.to/lastmile_qr_scan", "ios": "https://dc.lft.to/lastmile_qr_scan"}, "is_reserved": 0, "is_disabled": 0, "name": "38a6b6fb112f3fd5ebf98629e6d9fc77", "bike_id": "38a6b6fb112f3fd5ebf98629e6d9fc77", "fusion_lat": 0.0, "lon": -77.063308, "type": "electric_scooter", "fusion_lon": 0.0, "lat": 38.9435755}, {"rental_uris": {"android": "https://dc.lft.to/lastmile_qr_scan", "ios": "https://dc.lft.to/lastmile_qr_scan"}, "is_reserved": 0, "is_disabled": 0, "name": "08563ef78a694597f3bcc0d6850a1d57", "bike_id": "08563ef78a694597f3bcc0d6850a1d57", "fusion_lat": 0.0, "lon": -77.02695183333333, "type": "electric_scooter", "fusion_lon": 0.0, "lat": 38.9023775}, {"rental_uris": {"android": "https://dc.lft.to/lastmile_qr_scan", "ios": "https://dc.lft.to/lastmile_qr_scan"}, "is_reserved": 0, "is_disabled": 0, "name": "bdfbf4be9eb8a392505d13134e02c481", "bike_id": "bdfbf4be9eb8a392505d13134e02c481", "fusion_lat": 0.0, "lon": -77.01828283333333, "type": "electric_scooter", "fusion_lon": 0.0, "lat": 38.9027765}, {"rental_uris": {"android": "https://dc.lft.to/lastmile_qr_scan", "ios": "https://dc.lft.to/lastmile_qr_scan"}, "is_reserved": 0, "is_disabled": 0, "name": "29e275bf11c4242cddd10c2bfe60d889", "bike_id": "29e275bf11c4242cddd10c2bfe60d889", "fusion_lat": 0.0, "lon": -77.0282625, "type": "electric_scooter", "fusion_lon": 0.0, "lat": 38.90237283333333}, {"rental_uris": {"android": "https://dc.lft.to/lastmile_qr_scan", "ios": "https://dc.lft.to/lastmile_qr_scan"}, "is_reserved": 0, "is_disabled": 0, "name": "2207e8bd8b3b503241f220206c4e0720", "bike_id": "2207e8bd8b3b503241f220206c4e0720", "fusion_lat": 0.0, "lon": -77.03085416666667, "type": "electric_scooter", "fusion_lon": 0.0, "lat": 38.8981855}, {"rental_uris": {"android": "https://dc.lft.to/lastmile_qr_scan", "ios": "https://dc.lft.to/lastmile_qr_scan"}, "is_reserved": 0, "is_disabled": 0, "name": "7c585479b245943339b9dc2c3e7fa507", "bike_id": "7c585479b245943339b9dc2c3e7fa507", "fusion_lat": 0.0, "lon": -77.02826883333333, "type": "electric_scooter", "fusion_lon": 0.0, "lat": 38.88733383333334}, {"rental_uris": {"android": "https://dc.lft.to/lastmile_qr_scan", "ios": "https://dc.lft.to/lastmile_qr_scan"}, "is_reserved": 0, "is_disabled": 0, "name": "c03dbc299237ea7a1503bb94d7830dda", "bike_id": "c03dbc299237ea7a1503bb94d7830dda", "fusion_lat": 0.0, "lon": -77.04500483333334, "type": "electric_scooter", "fusion_lon": 0.0, "lat": 38.89219033333333}, {"rental_uris": {"android": "https://dc.lft.to/lastmile_qr_scan", "ios": "https://dc.lft.to/lastmile_qr_scan"}, "is_reserved": 0, "is_disabled": 0, "name": "6dcd87c27674a838a20d3a2a733dd345", "bike_id": "6dcd87c27674a838a20d3a2a733dd345", "fusion_lat": 0.0, "lon": -77.02813466666667, "type": "electric_scooter", "fusion_lon": 0.0, "lat": 38.8928495}, {"rental_uris": {"android": "https://dc.lft.to/lastmile_qr_scan", "ios": "https://dc.lft.to/lastmile_qr_scan"}, "is_reserved": 0, "is_disabled": 0, "name": "69ca2b4c5b6ea8af2e92d683a00a4064", "bike_id": "69ca2b4c5b6ea8af2e92d683a00a4064", "fusion_lat": 0.0, "lon": -76.92504516666666, "type": "electric_scooter", "fusion_lon": 0.0, "lat": 38.885996166666665}, {"rental_uris": {"android": "https://dc.lft.to/lastmile_qr_scan", "ios": "https://dc.lft.to/lastmile_qr_scan"}, "is_reserved": 0, "is_disabled": 0, "name": "38794f4186ec58fbd2add15dfaa98858", "bike_id": "38794f4186ec58fbd2add15dfaa98858", "fusion_lat": 0.0, "lon": -77.0507305, "type": "electric_scooter", "fusion_lon": 0.0, "lat": 38.911355666666665}, {"rental_uris": {"android": "https://dc.lft.to/lastmile_qr_scan", "ios": "https://dc.lft.to/lastmile_qr_scan"}, "is_reserved": 0, "is_disabled": 0, "name": "e765a9e6b03e3e5fc38493bb7699df88", "bike_id": "e765a9e6b03e3e5fc38493bb7699df88", "fusion_lat": 0.0, "lon": -77.06456383333334, "type": "electric_scooter", "fusion_lon": 0.0, "lat": 38.94874983333333}, {"rental_uris": {"android": "https://dc.lft.to/lastmile_qr_scan", "ios": "https://dc.lft.to/lastmile_qr_scan"}, "is_reserved": 0, "is_disabled": 0, "name": "028f504468dee073451c981c790f65aa", "bike_id": "028f504468dee073451c981c790f65aa", "fusion_lat": 0.0, "lon": -77.03601433333333, "type": "electric_scooter", "fusion_lon": 0.0, "lat": 38.90966783333333}, {"rental_uris": {"android": "https://dc.lft.to/lastmile_qr_scan", "ios": "https://dc.lft.to/lastmile_qr_scan"}, "is_reserved": 0, "is_disabled": 0, "name": "53cc0c98a5bbeb3e9c0ec3db462950dc", "bike_id": "53cc0c98a5bbeb3e9c0ec3db462950dc", "fusion_lat": 0.0, "lon": -77.01690883333333, "type": "electric_scooter", "fusion_lon": 0.0, "lat": 38.90636033333333}, {"rental_uris": {"android": "https://dc.lft.to/lastmile_qr_scan", "ios": "https://dc.lft.to/lastmile_qr_scan"}, "is_reserved": 0, "is_disabled": 0, "name": "5639370e31ce23c8b389e51b0591a510", "bike_id": "5639370e31ce23c8b389e51b0591a510", "fusion_lat": 0.0, "lon": -77.03416166666666, "type": "electric_scooter", "fusion_lon": 0.0, "lat": 38.930879166666664}, {"rental_uris": {"android": "https://dc.lft.to/lastmile_qr_scan", "ios": "https://dc.lft.to/lastmile_qr_scan"}, "is_reserved": 0, "is_disabled": 0, "name": "898033080ac207a439134a517447b304", "bike_id": "898033080ac207a439134a517447b304", "fusion_lat": 0.0, "lon": -77.04880816666666, "type": "electric_scooter", "fusion_lon": 0.0, "lat": 38.89941816666666}, {"rental_uris": {"android": "https://dc.lft.to/lastmile_qr_scan", "ios": "https://dc.lft.to/lastmile_qr_scan"}, "is_reserved": 0, "is_disabled": 0, "name": "f29a6fcaf75ec6d03ca4bac07b3fa275", "bike_id": "f29a6fcaf75ec6d03ca4bac07b3fa275", "fusion_lat": 0.0, "lon": -76.9823715, "type": "electric_scooter", "fusion_lon": 0.0, "lat": 38.86886583333333}, {"rental_uris": {"android": "https://dc.lft.to/lastmile_qr_scan", "ios": "https://dc.lft.to/lastmile_qr_scan"}, "is_reserved": 0, "is_disabled": 0, "name": "1c1b935be516938b347c86ecb1dfc83c", "bike_id": "1c1b935be516938b347c86ecb1dfc83c", "fusion_lat": 0.0, "lon": -76.94664, "type": "electric_scooter", "fusion_lon": 0.0, "lat": 38.898688}, {"rental_uris": {"android": "https://dc.lft.to/lastmile_qr_scan", "ios": "https://dc.lft.to/lastmile_qr_scan"}, "is_reserved": 0, "is_disabled": 0, "name": "2aa1ad0a5053189406c8746b708ccd74", "bike_id": "2aa1ad0a5053189406c8746b708ccd74", "fusion_lat": 0.0, "lon": -77.02501916666667, "type": "electric_scooter", "fusion_lon": 0.0, "lat": 38.91915616666667}, {"rental_uris": {"android": "https://dc.lft.to/lastmile_qr_scan", "ios": "https://dc.lft.to/lastmile_qr_scan"}, "is_reserved": 0, "is_disabled": 0, "name": "9905bfacfd75b3e779af2afb1a2ba52f", "bike_id": "9905bfacfd75b3e779af2afb1a2ba52f", "fusion_lat": 0.0, "lon": -77.0409515, "type": "electric_scooter", "fusion_lon": 0.0, "lat": 38.90109866666667}, {"rental_uris": {"android": "https://dc.lft.to/lastmile_qr_scan", "ios": "https://dc.lft.to/lastmile_qr_scan"}, "is_reserved": 0, "is_disabled": 0, "name": "ca71c107533c160293948453632087c0", "bike_id": "ca71c107533c160293948453632087c0", "fusion_lat": 0.0, "lon": -77.0385355, "type": "electric_scooter", "fusion_lon": 0.0, "lat": 38.90259966666667}, {"rental_uris": {"android": "https://dc.lft.to/lastmile_qr_scan", "ios": "https://dc.lft.to/lastmile_qr_scan"}, "is_reserved": 0, "is_disabled": 0, "name": "1390f78205f0c269022b4e81720c5405", "bike_id": "1390f78205f0c269022b4e81720c5405", "fusion_lat": 0.0, "lon": -77.022213, "type": "electric_scooter", "fusion_lon": 0.0, "lat": 38.914112}, {"rental_uris": {"android": "https://dc.lft.to/lastmile_qr_scan", "ios": "https://dc.lft.to/lastmile_qr_scan"}, "is_reserved": 0, "is_disabled": 0, "name": "77d1575d34dee5151851ace09f1f82bc", "bike_id": "77d1575d34dee5151851ace09f1f82bc", "fusion_lat": 0.0, "lon": -76.99004666666667, "type": "electric_scooter", "fusion_lon": 0.0, "lat": 38.864355}, {"rental_uris": {"android": "https://dc.lft.to/lastmile_qr_scan", "ios": "https://dc.lft.to/lastmile_qr_scan"}, "is_reserved": 0, "is_disabled": 0, "name": "cd6cb701a84945a42306b29db7cba074", "bike_id": "cd6cb701a84945a42306b29db7cba074", "fusion_lat": 0.0, "lon": -76.99058816666667, "type": "electric_bike", "fusion_lon": 0.0, "lat": 38.9375745}, {"rental_uris": {"android": "https://dc.lft.to/lastmile_qr_scan", "ios": "https://dc.lft.to/lastmile_qr_scan"}, "is_reserved": 0, "is_disabled": 0, "name": "a43d802465607ab0dec8d3b5078210d3", "bike_id": "a43d802465607ab0dec8d3b5078210d3", "fusion_lat": 0.0, "lon": -77.02307666666667, "type": "electric_scooter", "fusion_lon": 0.0, "lat": 38.91783816666667}, {"rental_uris": {"android": "https://dc.lft.to/lastmile_qr_scan", "ios": "https://dc.lft.to/lastmile_qr_scan"}, "is_reserved": 0, "is_disabled": 0, "name": "4e561317ecfffd26b818aad450f1a1d8", "bike_id": "4e561317ecfffd26b818aad450f1a1d8", "fusion_lat": 0.0, "lon": -77.04019383333333, "type": "electric_scooter", "fusion_lon": 0.0, "lat": 38.9071665}, {"rental_uris": {"android": "https://dc.lft.to/lastmile_qr_scan", "ios": "https://dc.lft.to/lastmile_qr_scan"}, "is_reserved": 0, "is_disabled": 0, "name": "0aaa26affdbf3925d97791e7ae2b3559", "bike_id": "0aaa26affdbf3925d97791e7ae2b3559", "fusion_lat": 0.0, "lon": -77.00363483333334, "type": "electric_scooter", "fusion_lon": 0.0, "lat": 38.8870195}, {"rental_uris": {"android": "https://dc.lft.to/lastmile_qr_scan", "ios": "https://dc.lft.to/lastmile_qr_scan"}, "is_reserved": 0, "is_disabled": 0, "name": "f3415f402329b9a60bb65f9bfd78ae1f", "bike_id": "f3415f402329b9a60bb65f9bfd78ae1f", "fusion_lat": 0.0, "lon": -77.00626633333333, "type": "electric_scooter", "fusion_lon": 0.0, "lat": 38.871747166666665}, {"rental_uris": {"android": "https://dc.lft.to/lastmile_qr_scan", "ios": "https://dc.lft.to/lastmile_qr_scan"}, "is_reserved": 0, "is_disabled": 0, "name": "a72e37c41cdacc4f3c31e2f96204383f", "bike_id": "a72e37c41cdacc4f3c31e2f96204383f", "fusion_lat": 0.0, "lon": -77.03677783333333, "type": "electric_scooter", "fusion_lon": 0.0, "lat": 38.92261533333333}, {"rental_uris": {"android": "https://dc.lft.to/lastmile_qr_scan", "ios": "https://dc.lft.to/lastmile_qr_scan"}, "is_reserved": 0, "is_disabled": 0, "name": "6febfc28debf84838ed3f5d83f8650d9", "bike_id": "6febfc28debf84838ed3f5d83f8650d9", "fusion_lat": 0.0, "lon": -77.0432545, "type": "electric_bike", "fusion_lon": 0.0, "lat": 39.03436633333333}, {"rental_uris": {"android": "https://dc.lft.to/lastmile_qr_scan", "ios": "https://dc.lft.to/lastmile_qr_scan"}, "is_reserved": 0, "is_disabled": 0, "name": "42cc6dce2d082ada2e46c7de8d8e578c", "bike_id": "42cc6dce2d082ada2e46c7de8d8e578c", "fusion_lat": 0.0, "lon": -77.02797966666667, "type": "electric_scooter", "fusion_lon": 0.0, "lat": 38.89857833333333}, {"rental_uris": {"android": "https://dc.lft.to/lastmile_qr_scan", "ios": "https://dc.lft.to/lastmile_qr_scan"}, "is_reserved": 0, "is_disabled": 0, "name": "f5cc08e9450a39898ac4a1995832c107", "bike_id": "f5cc08e9450a39898ac4a1995832c107", "fusion_lat": 0.0, "lon": -76.99076233333334, "type": "electric_bike", "fusion_lon": 0.0, "lat": 38.94254166666666}, {"rental_uris": {"android": "https://dc.lft.to/lastmile_qr_scan", "ios": "https://dc.lft.to/lastmile_qr_scan"}, "is_reserved": 0, "is_disabled": 0, "name": "5f6cee04ee8f71d61805d343e40ee476", "bike_id": "5f6cee04ee8f71d61805d343e40ee476", "fusion_lat": 0.0, "lon": -77.0233915, "type": "electric_scooter", "fusion_lon": 0.0, "lat": 38.87879866666667}, {"rental_uris": {"android": "https://dc.lft.to/lastmile_qr_scan", "ios": "https://dc.lft.to/lastmile_qr_scan"}, "is_reserved": 0, "is_disabled": 0, "name": "d7bfeb0a1c90e590136912f8189cdac4", "bike_id": "d7bfeb0a1c90e590136912f8189cdac4", "fusion_lat": 0.0, "lon": -77.043313, "type": "electric_scooter", "fusion_lon": 0.0, "lat": 38.9002405}, {"rental_uris": {"android": "https://dc.lft.to/lastmile_qr_scan", "ios": "https://dc.lft.to/lastmile_qr_scan"}, "is_reserved": 0, "is_disabled": 0, "name": "c90b3329be8dc3fa7c9a62c388c8a02d", "bike_id": "c90b3329be8dc3fa7c9a62c388c8a02d", "fusion_lat": 0.0, "lon": -77.00605133333333, "type": "electric_scooter", "fusion_lon": 0.0, "lat": 38.905676}, {"rental_uris": {"android": "https://dc.lft.to/lastmile_qr_scan", "ios": "https://dc.lft.to/lastmile_qr_scan"}, "is_reserved": 0, "is_disabled": 0, "name": "832c2d8f6061f52504ce643463840f5d", "bike_id": "832c2d8f6061f52504ce643463840f5d", "fusion_lat": 0.0, "lon": -77.074615, "type": "electric_scooter", "fusion_lon": 0.0, "lat": 38.937786}, {"rental_uris": {"android": "https://dc.lft.to/lastmile_qr_scan", "ios": "https://dc.lft.to/lastmile_qr_scan"}, "is_reserved": 0, "is_disabled": 0, "name": "5bfbab3c3decaf169fb1d119898c5f4e", "bike_id": "5bfbab3c3decaf169fb1d119898c5f4e", "fusion_lat": 0.0, "lon": -77.01542883333333, "type": "electric_scooter", "fusion_lon": 0.0, "lat": 38.883406666666666}, {"rental_uris": {"android": "https://dc.lft.to/lastmile_qr_scan", "ios": "https://dc.lft.to/lastmile_qr_scan"}, "is_reserved": 0, "is_disabled": 0, "name": "91fb14c5088f3772e4f6acb5efcddb61", "bike_id": "91fb14c5088f3772e4f6acb5efcddb61", "fusion_lat": 0.0, "lon": -77.009353, "type": "electric_scooter", "fusion_lon": 0.0, "lat": 38.899773333333336}, {"rental_uris": {"android": "https://dc.lft.to/lastmile_qr_scan", "ios": "https://dc.lft.to/lastmile_qr_scan"}, "is_reserved": 0, "is_disabled": 0, "name": "2566ff6939f7b1871329a0eb5a14adbd", "bike_id": "2566ff6939f7b1871329a0eb5a14adbd", "fusion_lat": 0.0, "lon": -77.00598116666667, "type": "electric_scooter", "fusion_lon": 0.0, "lat": 38.905569666666665}, {"rental_uris": {"android": "https://dc.lft.to/lastmile_qr_scan", "ios": "https://dc.lft.to/lastmile_qr_scan"}, "is_reserved": 0, "is_disabled": 0, "name": "239291b7c8dfbf465c76a65915a826a9", "bike_id": "239291b7c8dfbf465c76a65915a826a9", "fusion_lat": 0.0, "lon": -77.0176665, "type": "electric_scooter", "fusion_lon": 0.0, "lat": 38.87680566666667}, {"rental_uris": {"android": "https://dc.lft.to/lastmile_qr_scan", "ios": "https://dc.lft.to/lastmile_qr_scan"}, "is_reserved": 0, "is_disabled": 0, "name": "ff052e9af01642b8bcf83c6b70a23cb3", "bike_id": "ff052e9af01642b8bcf83c6b70a23cb3", "fusion_lat": 0.0, "lon": -77.01405616666666, "type": "electric_scooter", "fusion_lon": 0.0, "lat": 38.90037}, {"rental_uris": {"android": "https://dc.lft.to/lastmile_qr_scan", "ios": "https://dc.lft.to/lastmile_qr_scan"}, "is_reserved": 0, "is_disabled": 0, "name": "548e6119dcec78ce6608109937fb5ab7", "bike_id": "548e6119dcec78ce6608109937fb5ab7", "fusion_lat": 0.0, "lon": -77.05037066666667, "type": "electric_scooter", "fusion_lon": 0.0, "lat": 38.898204166666666}, {"rental_uris": {"android": "https://dc.lft.to/lastmile_qr_scan", "ios": "https://dc.lft.to/lastmile_qr_scan"}, "is_reserved": 0, "is_disabled": 0, "name": "ab9e5a54318750895a8285822362741d", "bike_id": "ab9e5a54318750895a8285822362741d", "fusion_lat": 0.0, "lon": -77.00594516666666, "type": "electric_scooter", "fusion_lon": 0.0, "lat": 38.90637133333333}, {"rental_uris": {"android": "https://dc.lft.to/lastmile_qr_scan", "ios": "https://dc.lft.to/lastmile_qr_scan"}, "is_reserved": 0, "is_disabled": 0, "name": "36436a531aae025bd8c0b3968480959e", "bike_id": "36436a531aae025bd8c0b3968480959e", "fusion_lat": 0.0, "lon": -77.01854933333334, "type": "electric_scooter", "fusion_lon": 0.0, "lat": 38.9291575}, {"rental_uris": {"android": "https://dc.lft.to/lastmile_qr_scan", "ios": "https://dc.lft.to/lastmile_qr_scan"}, "is_reserved": 0, "is_disabled": 0, "name": "a3e2648061ba816e8be1b4dafdfda438", "bike_id": "a3e2648061ba816e8be1b4dafdfda438", "fusion_lat": 0.0, "lon": -77.06000783333333, "type": "electric_scooter", "fusion_lon": 0.0, "lat": 38.927215833333335}, {"rental_uris": {"android": "https://dc.lft.to/lastmile_qr_scan", "ios": "https://dc.lft.to/lastmile_qr_scan"}, "is_reserved": 0, "is_disabled": 0, "name": "c7c756bf32d1cf14c350f0ddf2915b84", "bike_id": "c7c756bf32d1cf14c350f0ddf2915b84", "fusion_lat": 0.0, "lon": -77.03310316666666, "type": "electric_scooter", "fusion_lon": 0.0, "lat": 38.92745083333333}, {"rental_uris": {"android": "https://dc.lft.to/lastmile_qr_scan", "ios": "https://dc.lft.to/lastmile_qr_scan"}, "is_reserved": 0, "is_disabled": 0, "name": "eff1aa9b57678128834b4281050a186d", "bike_id": "eff1aa9b57678128834b4281050a186d", "fusion_lat": 0.0, "lon": -77.01584433333333, "type": "electric_scooter", "fusion_lon": 0.0, "lat": 38.9204585}, {"rental_uris": {"android": "https://dc.lft.to/lastmile_qr_scan", "ios": "https://dc.lft.to/lastmile_qr_scan"}, "is_reserved": 0, "is_disabled": 0, "name": "13d6483ac32b77422094fa653048e18c", "bike_id": "13d6483ac32b77422094fa653048e18c", "fusion_lat": 0.0, "lon": -77.02153, "type": "electric_scooter", "fusion_lon": 0.0, "lat": 38.9260115}, {"rental_uris": {"android": "https://dc.lft.to/lastmile_qr_scan", "ios": "https://dc.lft.to/lastmile_qr_scan"}, "is_reserved": 0, "is_disabled": 0, "name": "f4137503e6e1a03154224027e61aa7df", "bike_id": "f4137503e6e1a03154224027e61aa7df", "fusion_lat": 0.0, "lon": -77.062407, "type": "electric_scooter", "fusion_lon": 0.0, "lat": 38.9115315}, {"rental_uris": {"android": "https://dc.lft.to/lastmile_qr_scan", "ios": "https://dc.lft.to/lastmile_qr_scan"}, "is_reserved": 0, "is_disabled": 0, "name": "081c3ac2f72f086d11ac5c6572466fa2", "bike_id": "081c3ac2f72f086d11ac5c6572466fa2", "fusion_lat": 0.0, "lon": -77.04502033333333, "type": "electric_scooter", "fusion_lon": 0.0, "lat": 38.90002366666667}, {"rental_uris": {"android": "https://dc.lft.to/lastmile_qr_scan", "ios": "https://dc.lft.to/lastmile_qr_scan"}, "is_reserved": 0, "is_disabled": 0, "name": "313df40fe2220bad18ad554655562ca6", "bike_id": "313df40fe2220bad18ad554655562ca6", "fusion_lat": 0.0, "lon": -76.9991625, "type": "electric_bike", "fusion_lon": 0.0, "lat": 38.86444066666667}, {"rental_uris": {"android": "https://dc.lft.to/lastmile_qr_scan", "ios": "https://dc.lft.to/lastmile_qr_scan"}, "is_reserved": 0, "is_disabled": 0, "name": "e19d43a452d310c4ade95f968a3d7971", "bike_id": "e19d43a452d310c4ade95f968a3d7971", "fusion_lat": 0.0, "lon": -77.046905, "type": "electric_scooter", "fusion_lon": 0.0, "lat": 38.89958766666667}, {"rental_uris": {"android": "https://dc.lft.to/lastmile_qr_scan", "ios": "https://dc.lft.to/lastmile_qr_scan"}, "is_reserved": 0, "is_disabled": 0, "name": "38ad6dde177256b8658c85d73cbcd1ff", "bike_id": "38ad6dde177256b8658c85d73cbcd1ff", "fusion_lat": 0.0, "lon": -77.0196605, "type": "electric_scooter", "fusion_lon": 0.0, "lat": 38.93420666666667}, {"rental_uris": {"android": "https://dc.lft.to/lastmile_qr_scan", "ios": "https://dc.lft.to/lastmile_qr_scan"}, "is_reserved": 0, "is_disabled": 0, "name": "1cb55f0fd49628b89bfae0ed1fbe56b3", "bike_id": "1cb55f0fd49628b89bfae0ed1fbe56b3", "fusion_lat": 0.0, "lon": -77.00422333333333, "type": "electric_bike", "fusion_lon": 0.0, "lat": 38.98523016666667}, {"rental_uris": {"android": "https://dc.lft.to/lastmile_qr_scan", "ios": "https://dc.lft.to/lastmile_qr_scan"}, "is_reserved": 0, "is_disabled": 0, "name": "a534ce959e7e1000c2d2788b104ac6ae", "bike_id": "a534ce959e7e1000c2d2788b104ac6ae", "fusion_lat": 0.0, "lon": -77.01771366666667, "type": "electric_scooter", "fusion_lon": 0.0, "lat": 38.902587}, {"rental_uris": {"android": "https://dc.lft.to/lastmile_qr_scan", "ios": "https://dc.lft.to/lastmile_qr_scan"}, "is_reserved": 0, "is_disabled": 0, "name": "d9007cb56078138a0343918ec954451c", "bike_id": "d9007cb56078138a0343918ec954451c", "fusion_lat": 0.0, "lon": -77.0194785, "type": "electric_scooter", "fusion_lon": 0.0, "lat": 38.924207333333335}, {"rental_uris": {"android": "https://dc.lft.to/lastmile_qr_scan", "ios": "https://dc.lft.to/lastmile_qr_scan"}, "is_reserved": 0, "is_disabled": 0, "name": "9efbaa98ed5323a666c068c05ef6ad22", "bike_id": "9efbaa98ed5323a666c068c05ef6ad22", "fusion_lat": 0.0, "lon": -76.93017533333334, "type": "electric_scooter", "fusion_lon": 0.0, "lat": 38.90122133333333}, {"rental_uris": {"android": "https://dc.lft.to/lastmile_qr_scan", "ios": "https://dc.lft.to/lastmile_qr_scan"}, "is_reserved": 0, "is_disabled": 0, "name": "17505bf289a1281ad250c6ae71deb531", "bike_id": "17505bf289a1281ad250c6ae71deb531", "fusion_lat": 0.0, "lon": -77.02841883333333, "type": "electric_scooter", "fusion_lon": 0.0, "lat": 38.932434}, {"rental_uris": {"android": "https://dc.lft.to/lastmile_qr_scan", "ios": "https://dc.lft.to/lastmile_qr_scan"}, "is_reserved": 0, "is_disabled": 0, "name": "876b0a6a30f690a2bd2d4a940ea4ab55", "bike_id": "876b0a6a30f690a2bd2d4a940ea4ab55", "fusion_lat": 0.0, "lon": -77.03247316666666, "type": "electric_scooter", "fusion_lon": 0.0, "lat": 38.93236533333334}, {"rental_uris": {"android": "https://dc.lft.to/lastmile_qr_scan", "ios": "https://dc.lft.to/lastmile_qr_scan"}, "is_reserved": 0, "is_disabled": 0, "name": "f80dd51030bb15a8251a55f15b955c05", "bike_id": "f80dd51030bb15a8251a55f15b955c05", "fusion_lat": 0.0, "lon": -77.03214666666666, "type": "electric_scooter", "fusion_lon": 0.0, "lat": 38.89226016666667}, {"rental_uris": {"android": "https://dc.lft.to/lastmile_qr_scan", "ios": "https://dc.lft.to/lastmile_qr_scan"}, "is_reserved": 0, "is_disabled": 0, "name": "522f86a6adc8991907b8cf6f653b2e75", "bike_id": "522f86a6adc8991907b8cf6f653b2e75", "fusion_lat": 0.0, "lon": -77.03873, "type": "electric_scooter", "fusion_lon": 0.0, "lat": 38.90797966666667}, {"rental_uris": {"android": "https://dc.lft.to/lastmile_qr_scan", "ios": "https://dc.lft.to/lastmile_qr_scan"}, "is_reserved": 0, "is_disabled": 0, "name": "165303f10005c3f028b8bad201c2025f", "bike_id": "165303f10005c3f028b8bad201c2025f", "fusion_lat": 0.0, "lon": -77.0653535, "type": "electric_bike", "fusion_lon": 0.0, "lat": 38.99227833333333}, {"rental_uris": {"android": "https://dc.lft.to/lastmile_qr_scan", "ios": "https://dc.lft.to/lastmile_qr_scan"}, "is_reserved": 0, "is_disabled": 0, "name": "d21ea5ec0909aafe36ee00b5b4f34792", "bike_id": "d21ea5ec0909aafe36ee00b5b4f34792", "fusion_lat": 0.0, "lon": -77.02499316666666, "type": "electric_scooter", "fusion_lon": 0.0, "lat": 38.9259395}, {"rental_uris": {"android": "https://dc.lft.to/lastmile_qr_scan", "ios": "https://dc.lft.to/lastmile_qr_scan"}, "is_reserved": 0, "is_disabled": 0, "name": "6b85a8a093fa97357be8d804f2776657", "bike_id": "6b85a8a093fa97357be8d804f2776657", "fusion_lat": 0.0, "lon": -77.02702333333333, "type": "electric_scooter", "fusion_lon": 0.0, "lat": 38.898539666666665}, {"rental_uris": {"android": "https://dc.lft.to/lastmile_qr_scan", "ios": "https://dc.lft.to/lastmile_qr_scan"}, "is_reserved": 0, "is_disabled": 0, "name": "6d202750165869d94fec354d44c64e5a", "bike_id": "6d202750165869d94fec354d44c64e5a", "fusion_lat": 0.0, "lon": -77.024126, "type": "electric_scooter", "fusion_lon": 0.0, "lat": 38.90182016666667}, {"rental_uris": {"android": "https://dc.lft.to/lastmile_qr_scan", "ios": "https://dc.lft.to/lastmile_qr_scan"}, "is_reserved": 0, "is_disabled": 0, "name": "7ef5b799aec2b5cb1ec2618382538b4b", "bike_id": "7ef5b799aec2b5cb1ec2618382538b4b", "fusion_lat": 0.0, "lon": -76.98832733333333, "type": "electric_scooter", "fusion_lon": 0.0, "lat": 38.900382}, {"rental_uris": {"android": "https://dc.lft.to/lastmile_qr_scan", "ios": "https://dc.lft.to/lastmile_qr_scan"}, "is_reserved": 0, "is_disabled": 0, "name": "f40f5ab6b1348fec978ccb8df6933b00", "bike_id": "f40f5ab6b1348fec978ccb8df6933b00", "fusion_lat": 0.0, "lon": -77.0321625, "type": "electric_scooter", "fusion_lon": 0.0, "lat": 38.92050416666667}, {"rental_uris": {"android": "https://dc.lft.to/lastmile_qr_scan", "ios": "https://dc.lft.to/lastmile_qr_scan"}, "is_reserved": 0, "is_disabled": 0, "name": "dac3a30cd850fa4481378073bc061a4c", "bike_id": "dac3a30cd850fa4481378073bc061a4c", "fusion_lat": 0.0, "lon": -77.0727655, "type": "electric_scooter", "fusion_lon": 0.0, "lat": 38.9091205}, {"rental_uris": {"android": "https://dc.lft.to/lastmile_qr_scan", "ios": "https://dc.lft.to/lastmile_qr_scan"}, "is_reserved": 0, "is_disabled": 0, "name": "c350a760a7dbc7ea9b73bd0b180a6fab", "bike_id": "c350a760a7dbc7ea9b73bd0b180a6fab", "fusion_lat": 0.0, "lon": -76.98018483333334, "type": "electric_bike", "fusion_lon": 0.0, "lat": 38.853171333333336}, {"rental_uris": {"android": "https://dc.lft.to/lastmile_qr_scan", "ios": "https://dc.lft.to/lastmile_qr_scan"}, "is_reserved": 0, "is_disabled": 0, "name": "b8c5555631773d7749feff8e6e572bbb", "bike_id": "b8c5555631773d7749feff8e6e572bbb", "fusion_lat": 0.0, "lon": -77.032001, "type": "electric_scooter", "fusion_lon": 0.0, "lat": 38.920114166666664}, {"rental_uris": {"android": "https://dc.lft.to/lastmile_qr_scan", "ios": "https://dc.lft.to/lastmile_qr_scan"}, "is_reserved": 0, "is_disabled": 0, "name": "e43330d21bc5bee6fd0a66332b631758", "bike_id": "e43330d21bc5bee6fd0a66332b631758", "fusion_lat": 0.0, "lon": -77.03254016666666, "type": "electric_scooter", "fusion_lon": 0.0, "lat": 38.928797}, {"rental_uris": {"android": "https://dc.lft.to/lastmile_qr_scan", "ios": "https://dc.lft.to/lastmile_qr_scan"}, "is_reserved": 0, "is_disabled": 0, "name": "914b3033162eb450f5ce93fcb87fc9ab", "bike_id": "914b3033162eb450f5ce93fcb87fc9ab", "fusion_lat": 0.0, "lon": -77.03179283333333, "type": "electric_scooter", "fusion_lon": 0.0, "lat": 38.914135333333334}, {"rental_uris": {"android": "https://dc.lft.to/lastmile_qr_scan", "ios": "https://dc.lft.to/lastmile_qr_scan"}, "is_reserved": 0, "is_disabled": 0, "name": "aa432fab5b159d7aaa1594a69a327e7a", "bike_id": "aa432fab5b159d7aaa1594a69a327e7a", "fusion_lat": 0.0, "lon": -77.04567416666667, "type": "electric_scooter", "fusion_lon": 0.0, "lat": 38.902579}, {"rental_uris": {"android": "https://dc.lft.to/lastmile_qr_scan", "ios": "https://dc.lft.to/lastmile_qr_scan"}, "is_reserved": 0, "is_disabled": 0, "name": "f2e5f9d9e0b3b3d83497fd3df8073806", "bike_id": "f2e5f9d9e0b3b3d83497fd3df8073806", "fusion_lat": 0.0, "lon": -77.00661116666667, "type": "electric_scooter", "fusion_lon": 0.0, "lat": 38.8999595}, {"rental_uris": {"android": "https://dc.lft.to/lastmile_qr_scan", "ios": "https://dc.lft.to/lastmile_qr_scan"}, "is_reserved": 0, "is_disabled": 0, "name": "98f9a1f453eaf446d0b78b0880472ee1", "bike_id": "98f9a1f453eaf446d0b78b0880472ee1", "fusion_lat": 0.0, "lon": -77.02292966666667, "type": "electric_scooter", "fusion_lon": 0.0, "lat": 38.899817166666665}, {"rental_uris": {"android": "https://dc.lft.to/lastmile_qr_scan", "ios": "https://dc.lft.to/lastmile_qr_scan"}, "is_reserved": 0, "is_disabled": 0, "name": "ca05a86257f4c6473ae7c06d9d3e00c7", "bike_id": "ca05a86257f4c6473ae7c06d9d3e00c7", "fusion_lat": 0.0, "lon": -76.98251833333333, "type": "electric_bike", "fusion_lon": 0.0, "lat": 38.952367}, {"rental_uris": {"android": "https://dc.lft.to/lastmile_qr_scan", "ios": "https://dc.lft.to/lastmile_qr_scan"}, "is_reserved": 0, "is_disabled": 0, "name": "7d54375d3452f83876b5d051f5ef83e9", "bike_id": "7d54375d3452f83876b5d051f5ef83e9", "fusion_lat": 0.0, "lon": -77.04777616666667, "type": "electric_scooter", "fusion_lon": 0.0, "lat": 38.89381366666667}, {"rental_uris": {"android": "https://dc.lft.to/lastmile_qr_scan", "ios": "https://dc.lft.to/lastmile_qr_scan"}, "is_reserved": 0, "is_disabled": 0, "name": "4dd193d7b109b7807986eccad556eeb6", "bike_id": "4dd193d7b109b7807986eccad556eeb6", "fusion_lat": 0.0, "lon": -77.04503916666667, "type": "electric_scooter", "fusion_lon": 0.0, "lat": 38.892225333333336}, {"rental_uris": {"android": "https://dc.lft.to/lastmile_qr_scan", "ios": "https://dc.lft.to/lastmile_qr_scan"}, "is_reserved": 0, "is_disabled": 0, "name": "df0762bd734b16183d461b86332728ba", "bike_id": "df0762bd734b16183d461b86332728ba", "fusion_lat": 0.0, "lon": -77.04305016666666, "type": "electric_scooter", "fusion_lon": 0.0, "lat": 38.9232965}, {"rental_uris": {"android": "https://dc.lft.to/lastmile_qr_scan", "ios": "https://dc.lft.to/lastmile_qr_scan"}, "is_reserved": 0, "is_disabled": 0, "name": "0c4dfc32ed711420e9a45b0ec73d8357", "bike_id": "0c4dfc32ed711420e9a45b0ec73d8357", "fusion_lat": 0.0, "lon": -77.0460985, "type": "electric_scooter", "fusion_lon": 0.0, "lat": 38.90285883333333}, {"rental_uris": {"android": "https://dc.lft.to/lastmile_qr_scan", "ios": "https://dc.lft.to/lastmile_qr_scan"}, "is_reserved": 0, "is_disabled": 0, "name": "550dc91e5fb3d9e2e7bb9087c8f16dee", "bike_id": "550dc91e5fb3d9e2e7bb9087c8f16dee", "fusion_lat": 0.0, "lon": -77.0279925, "type": "electric_scooter", "fusion_lon": 0.0, "lat": 38.899335}, {"rental_uris": {"android": "https://dc.lft.to/lastmile_qr_scan", "ios": "https://dc.lft.to/lastmile_qr_scan"}, "is_reserved": 0, "is_disabled": 0, "name": "1953f3ab76642540ed6a5d91317f46a0", "bike_id": "1953f3ab76642540ed6a5d91317f46a0", "fusion_lat": 0.0, "lon": -77.04001183333334, "type": "electric_scooter", "fusion_lon": 0.0, "lat": 38.8922065}, {"rental_uris": {"android": "https://dc.lft.to/lastmile_qr_scan", "ios": "https://dc.lft.to/lastmile_qr_scan"}, "is_reserved": 0, "is_disabled": 0, "name": "7f8d484ea7c2af3160f81855e3f34a45", "bike_id": "7f8d484ea7c2af3160f81855e3f34a45", "fusion_lat": 0.0, "lon": -77.03004833333334, "type": "electric_bike", "fusion_lon": 0.0, "lat": 38.900234833333336}, {"rental_uris": {"android": "https://dc.lft.to/lastmile_qr_scan", "ios": "https://dc.lft.to/lastmile_qr_scan"}, "is_reserved": 0, "is_disabled": 0, "name": "a9fa1170883cdb4c86f92f554ca00a35", "bike_id": "a9fa1170883cdb4c86f92f554ca00a35", "fusion_lat": 0.0, "lon": -77.03326466666667, "type": "electric_scooter", "fusion_lon": 0.0, "lat": 38.90011483333333}, {"rental_uris": {"android": "https://dc.lft.to/lastmile_qr_scan", "ios": "https://dc.lft.to/lastmile_qr_scan"}, "is_reserved": 0, "is_disabled": 0, "name": "fda8126bf89eacd2750bbea8a07167ec", "bike_id": "fda8126bf89eacd2750bbea8a07167ec", "fusion_lat": 0.0, "lon": -77.04869433333333, "type": "electric_scooter", "fusion_lon": 0.0, "lat": 38.89869}, {"rental_uris": {"android": "https://dc.lft.to/lastmile_qr_scan", "ios": "https://dc.lft.to/lastmile_qr_scan"}, "is_reserved": 0, "is_disabled": 0, "name": "18ae346f178d5486be2aa6462030fba2", "bike_id": "18ae346f178d5486be2aa6462030fba2", "fusion_lat": 0.0, "lon": -77.02468933333333, "type": "electric_scooter", "fusion_lon": 0.0, "lat": 38.957771}, {"rental_uris": {"android": "https://dc.lft.to/lastmile_qr_scan", "ios": "https://dc.lft.to/lastmile_qr_scan"}, "is_reserved": 0, "is_disabled": 0, "name": "cb373e303f10b858b3914979ba6d2ceb", "bike_id": "cb373e303f10b858b3914979ba6d2ceb", "fusion_lat": 0.0, "lon": -77.05829766666666, "type": "electric_scooter", "fusion_lon": 0.0, "lat": 38.935159}, {"rental_uris": {"android": "https://dc.lft.to/lastmile_qr_scan", "ios": "https://dc.lft.to/lastmile_qr_scan"}, "is_reserved": 0, "is_disabled": 0, "name": "34e52009dfe3611d3a9187f8e38f4396", "bike_id": "34e52009dfe3611d3a9187f8e38f4396", "fusion_lat": 0.0, "lon": -77.06950333333333, "type": "electric_bike", "fusion_lon": 0.0, "lat": 38.83628916666667}, {"rental_uris": {"android": "https://dc.lft.to/lastmile_qr_scan", "ios": "https://dc.lft.to/lastmile_qr_scan"}, "is_reserved": 0, "is_disabled": 0, "name": "791319862e6b733f0778b95f493c656d", "bike_id": "791319862e6b733f0778b95f493c656d", "fusion_lat": 0.0, "lon": -77.033669, "type": "electric_scooter", "fusion_lon": 0.0, "lat": 38.9002875}, {"rental_uris": {"android": "https://dc.lft.to/lastmile_qr_scan", "ios": "https://dc.lft.to/lastmile_qr_scan"}, "is_reserved": 0, "is_disabled": 0, "name": "67ab6de3d2290538b29abb2ce82c67ba", "bike_id": "67ab6de3d2290538b29abb2ce82c67ba", "fusion_lat": 0.0, "lon": -76.973288, "type": "electric_scooter", "fusion_lon": 0.0, "lat": 38.90408866666667}, {"rental_uris": {"android": "https://dc.lft.to/lastmile_qr_scan", "ios": "https://dc.lft.to/lastmile_qr_scan"}, "is_reserved": 0, "is_disabled": 0, "name": "0d9c4043e42ae6c937e4c3af2c2968c7", "bike_id": "0d9c4043e42ae6c937e4c3af2c2968c7", "fusion_lat": 0.0, "lon": -77.00023333333333, "type": "electric_scooter", "fusion_lon": 0.0, "lat": 38.919723166666664}, {"rental_uris": {"android": "https://dc.lft.to/lastmile_qr_scan", "ios": "https://dc.lft.to/lastmile_qr_scan"}, "is_reserved": 0, "is_disabled": 0, "name": "36b0ec5f227613fc87d6ed2a26d7d5ac", "bike_id": "36b0ec5f227613fc87d6ed2a26d7d5ac", "fusion_lat": 0.0, "lon": -77.0376725, "type": "electric_scooter", "fusion_lon": 0.0, "lat": 38.90252133333333}, {"rental_uris": {"android": "https://dc.lft.to/lastmile_qr_scan", "ios": "https://dc.lft.to/lastmile_qr_scan"}, "is_reserved": 0, "is_disabled": 0, "name": "d615b46ead33bdfb9e61acbcce91ba69", "bike_id": "d615b46ead33bdfb9e61acbcce91ba69", "fusion_lat": 0.0, "lon": -77.02719916666666, "type": "electric_bike", "fusion_lon": 0.0, "lat": 38.89619733333333}, {"rental_uris": {"android": "https://dc.lft.to/lastmile_qr_scan", "ios": "https://dc.lft.to/lastmile_qr_scan"}, "is_reserved": 0, "is_disabled": 0, "name": "55b116e3c06b65dc9721fb3b23a0afae", "bike_id": "55b116e3c06b65dc9721fb3b23a0afae", "fusion_lat": 0.0, "lon": -77.0373205, "type": "electric_scooter", "fusion_lon": 0.0, "lat": 38.9265365}, {"rental_uris": {"android": "https://dc.lft.to/lastmile_qr_scan", "ios": "https://dc.lft.to/lastmile_qr_scan"}, "is_reserved": 0, "is_disabled": 0, "name": "846e063a2249d013c0e27a525826d172", "bike_id": "846e063a2249d013c0e27a525826d172", "fusion_lat": 0.0, "lon": -77.03810283333334, "type": "electric_scooter", "fusion_lon": 0.0, "lat": 38.90679816666667}, {"rental_uris": {"android": "https://dc.lft.to/lastmile_qr_scan", "ios": "https://dc.lft.to/lastmile_qr_scan"}, "is_reserved": 0, "is_disabled": 0, "name": "e121d4115ac6052302953dac5458abbb", "bike_id": "e121d4115ac6052302953dac5458abbb", "fusion_lat": 0.0, "lon": -77.02188533333333, "type": "electric_scooter", "fusion_lon": 0.0, "lat": 38.901874166666666}, {"rental_uris": {"android": "https://dc.lft.to/lastmile_qr_scan", "ios": "https://dc.lft.to/lastmile_qr_scan"}, "is_reserved": 0, "is_disabled": 0, "name": "e6a3f25aa6afc497342312b49290a71c", "bike_id": "e6a3f25aa6afc497342312b49290a71c", "fusion_lat": 0.0, "lon": -77.02905366666667, "type": "electric_scooter", "fusion_lon": 0.0, "lat": 38.92248283333333}, {"rental_uris": {"android": "https://dc.lft.to/lastmile_qr_scan", "ios": "https://dc.lft.to/lastmile_qr_scan"}, "is_reserved": 0, "is_disabled": 0, "name": "dafea4741793c9b7bb02cdc879e70283", "bike_id": "dafea4741793c9b7bb02cdc879e70283", "fusion_lat": 0.0, "lon": -77.02674283333333, "type": "electric_scooter", "fusion_lon": 0.0, "lat": 38.924702}, {"rental_uris": {"android": "https://dc.lft.to/lastmile_qr_scan", "ios": "https://dc.lft.to/lastmile_qr_scan"}, "is_reserved": 0, "is_disabled": 0, "name": "eef27e700c456c4ad16a25c32ec678b0", "bike_id": "eef27e700c456c4ad16a25c32ec678b0", "fusion_lat": 0.0, "lon": -77.0180115, "type": "electric_scooter", "fusion_lon": 0.0, "lat": 38.902445166666666}, {"rental_uris": {"android": "https://dc.lft.to/lastmile_qr_scan", "ios": "https://dc.lft.to/lastmile_qr_scan"}, "is_reserved": 0, "is_disabled": 0, "name": "28aac1e25771f16d64260135fc60fc3f", "bike_id": "28aac1e25771f16d64260135fc60fc3f", "fusion_lat": 0.0, "lon": -77.05600166666666, "type": "electric_scooter", "fusion_lon": 0.0, "lat": 38.93101983333333}, {"rental_uris": {"android": "https://dc.lft.to/lastmile_qr_scan", "ios": "https://dc.lft.to/lastmile_qr_scan"}, "is_reserved": 0, "is_disabled": 0, "name": "b09be0dc5ff98c954b90f879a65b8aed", "bike_id": "b09be0dc5ff98c954b90f879a65b8aed", "fusion_lat": 0.0, "lon": -77.0408705, "type": "electric_scooter", "fusion_lon": 0.0, "lat": 38.899354}, {"rental_uris": {"android": "https://dc.lft.to/lastmile_qr_scan", "ios": "https://dc.lft.to/lastmile_qr_scan"}, "is_reserved": 0, "is_disabled": 0, "name": "5972e54a82de312499bf9a5e6110d906", "bike_id": "5972e54a82de312499bf9a5e6110d906", "fusion_lat": 0.0, "lon": -76.9075075, "type": "electric_bike", "fusion_lon": 0.0, "lat": 38.8961595}, {"rental_uris": {"android": "https://dc.lft.to/lastmile_qr_scan", "ios": "https://dc.lft.to/lastmile_qr_scan"}, "is_reserved": 0, "is_disabled": 0, "name": "d9d91f53b2d9a2fd157d02e6ab689a40", "bike_id": "d9d91f53b2d9a2fd157d02e6ab689a40", "fusion_lat": 0.0, "lon": -77.0219035, "type": "electric_scooter", "fusion_lon": 0.0, "lat": 38.8871285}, {"rental_uris": {"android": "https://dc.lft.to/lastmile_qr_scan", "ios": "https://dc.lft.to/lastmile_qr_scan"}, "is_reserved": 0, "is_disabled": 0, "name": "c8dfd0d0773795ae3dad0abebb4a202b", "bike_id": "c8dfd0d0773795ae3dad0abebb4a202b", "fusion_lat": 0.0, "lon": -76.97229233333333, "type": "electric_bike", "fusion_lon": 0.0, "lat": 38.90031416666667}, {"rental_uris": {"android": "https://dc.lft.to/lastmile_qr_scan", "ios": "https://dc.lft.to/lastmile_qr_scan"}, "is_reserved": 0, "is_disabled": 0, "name": "9beb91929973efe682e25cfbffdbbedd", "bike_id": "9beb91929973efe682e25cfbffdbbedd", "fusion_lat": 0.0, "lon": -77.00606833333333, "type": "electric_scooter", "fusion_lon": 0.0, "lat": 38.905376833333335}, {"rental_uris": {"android": "https://dc.lft.to/lastmile_qr_scan", "ios": "https://dc.lft.to/lastmile_qr_scan"}, "is_reserved": 0, "is_disabled": 0, "name": "ed6abd124a0518deb9255409e34c35f9", "bike_id": "ed6abd124a0518deb9255409e34c35f9", "fusion_lat": 0.0, "lon": -77.03202283333333, "type": "electric_scooter", "fusion_lon": 0.0, "lat": 38.9156755}, {"rental_uris": {"android": "https://dc.lft.to/lastmile_qr_scan", "ios": "https://dc.lft.to/lastmile_qr_scan"}, "is_reserved": 0, "is_disabled": 0, "name": "7bda6e187c0857a9b99d8dd4a1cadbb1", "bike_id": "7bda6e187c0857a9b99d8dd4a1cadbb1", "fusion_lat": 0.0, "lon": -76.924644, "type": "electric_scooter", "fusion_lon": 0.0, "lat": 38.885177666666664}, {"rental_uris": {"android": "https://dc.lft.to/lastmile_qr_scan", "ios": "https://dc.lft.to/lastmile_qr_scan"}, "is_reserved": 0, "is_disabled": 0, "name": "af66d920e96f28b9d4454668387e76a5", "bike_id": "af66d920e96f28b9d4454668387e76a5", "fusion_lat": 0.0, "lon": -77.01513866666667, "type": "electric_scooter", "fusion_lon": 0.0, "lat": 38.89114216666667}, {"rental_uris": {"android": "https://dc.lft.to/lastmile_qr_scan", "ios": "https://dc.lft.to/lastmile_qr_scan"}, "is_reserved": 0, "is_disabled": 0, "name": "8533bf540aa26c65e2452bd4aaca3502", "bike_id": "8533bf540aa26c65e2452bd4aaca3502", "fusion_lat": 0.0, "lon": -77.02071366666667, "type": "electric_scooter", "fusion_lon": 0.0, "lat": 38.89593166666667}, {"rental_uris": {"android": "https://dc.lft.to/lastmile_qr_scan", "ios": "https://dc.lft.to/lastmile_qr_scan"}, "is_reserved": 0, "is_disabled": 0, "name": "cb061a1b7bb114fd354b4ff84bd2e073", "bike_id": "cb061a1b7bb114fd354b4ff84bd2e073", "fusion_lat": 0.0, "lon": -77.02593833333333, "type": "electric_scooter", "fusion_lon": 0.0, "lat": 38.9032955}, {"rental_uris": {"android": "https://dc.lft.to/lastmile_qr_scan", "ios": "https://dc.lft.to/lastmile_qr_scan"}, "is_reserved": 0, "is_disabled": 0, "name": "160e17500bfa614030c6e704c43eafe7", "bike_id": "160e17500bfa614030c6e704c43eafe7", "fusion_lat": 0.0, "lon": -77.04606716666666, "type": "electric_scooter", "fusion_lon": 0.0, "lat": 38.914097166666664}, {"rental_uris": {"android": "https://dc.lft.to/lastmile_qr_scan", "ios": "https://dc.lft.to/lastmile_qr_scan"}, "is_reserved": 0, "is_disabled": 0, "name": "32478266706c65c8a2e23011b7f72009", "bike_id": "32478266706c65c8a2e23011b7f72009", "fusion_lat": 0.0, "lon": -77.02480766666666, "type": "electric_scooter", "fusion_lon": 0.0, "lat": 38.91809883333333}, {"rental_uris": {"android": "https://dc.lft.to/lastmile_qr_scan", "ios": "https://dc.lft.to/lastmile_qr_scan"}, "is_reserved": 0, "is_disabled": 0, "name": "b6b09084b7f3db5c156c7180f8beb120", "bike_id": "b6b09084b7f3db5c156c7180f8beb120", "fusion_lat": 0.0, "lon": -76.98797716666667, "type": "electric_scooter", "fusion_lon": 0.0, "lat": 38.900259166666665}, {"rental_uris": {"android": "https://dc.lft.to/lastmile_qr_scan", "ios": "https://dc.lft.to/lastmile_qr_scan"}, "is_reserved": 0, "is_disabled": 0, "name": "792f13fb26de5f9e7bba2cf7f0467dad", "bike_id": "792f13fb26de5f9e7bba2cf7f0467dad", "fusion_lat": 0.0, "lon": -77.04817583333333, "type": "electric_scooter", "fusion_lon": 0.0, "lat": 38.9054975}, {"rental_uris": {"android": "https://dc.lft.to/lastmile_qr_scan", "ios": "https://dc.lft.to/lastmile_qr_scan"}, "is_reserved": 0, "is_disabled": 0, "name": "b774280522aa708c3eb334cf65141a47", "bike_id": "b774280522aa708c3eb334cf65141a47", "fusion_lat": 0.0, "lon": -77.05122183333333, "type": "electric_scooter", "fusion_lon": 0.0, "lat": 38.923427}, {"rental_uris": {"android": "https://dc.lft.to/lastmile_qr_scan", "ios": "https://dc.lft.to/lastmile_qr_scan"}, "is_reserved": 0, "is_disabled": 0, "name": "86e8a508fed4113ac88363005ee494fa", "bike_id": "86e8a508fed4113ac88363005ee494fa", "fusion_lat": 0.0, "lon": -76.95832300000001, "type": "electric_bike", "fusion_lon": 0.0, "lat": 38.850600166666666}, {"rental_uris": {"android": "https://dc.lft.to/lastmile_qr_scan", "ios": "https://dc.lft.to/lastmile_qr_scan"}, "is_reserved": 0, "is_disabled": 0, "name": "34326f9f2640e972da9dcf7abe3ab56d", "bike_id": "34326f9f2640e972da9dcf7abe3ab56d", "fusion_lat": 0.0, "lon": -77.03180216666667, "type": "electric_scooter", "fusion_lon": 0.0, "lat": 38.919173}, {"rental_uris": {"android": "https://dc.lft.to/lastmile_qr_scan", "ios": "https://dc.lft.to/lastmile_qr_scan"}, "is_reserved": 0, "is_disabled": 0, "name": "937db66b04e86553eb8b11472fe22ddc", "bike_id": "937db66b04e86553eb8b11472fe22ddc", "fusion_lat": 0.0, "lon": -77.02235383333333, "type": "electric_scooter", "fusion_lon": 0.0, "lat": 38.92473916666667}, {"rental_uris": {"android": "https://dc.lft.to/lastmile_qr_scan", "ios": "https://dc.lft.to/lastmile_qr_scan"}, "is_reserved": 0, "is_disabled": 0, "name": "023435276891dc0d847be08c8a7829ae", "bike_id": "023435276891dc0d847be08c8a7829ae", "fusion_lat": 0.0, "lon": -76.923703, "type": "electric_scooter", "fusion_lon": 0.0, "lat": 38.89244016666667}, {"rental_uris": {"android": "https://dc.lft.to/lastmile_qr_scan", "ios": "https://dc.lft.to/lastmile_qr_scan"}, "is_reserved": 0, "is_disabled": 0, "name": "30dc1fe1007ad1dcf4229529c9b4c160", "bike_id": "30dc1fe1007ad1dcf4229529c9b4c160", "fusion_lat": 0.0, "lon": -77.0395295, "type": "electric_scooter", "fusion_lon": 0.0, "lat": 38.908074666666664}, {"rental_uris": {"android": "https://dc.lft.to/lastmile_qr_scan", "ios": "https://dc.lft.to/lastmile_qr_scan"}, "is_reserved": 0, "is_disabled": 0, "name": "472acfc54cedbbbc0841660fac535241", "bike_id": "472acfc54cedbbbc0841660fac535241", "fusion_lat": 0.0, "lon": -77.033605, "type": "electric_scooter", "fusion_lon": 0.0, "lat": 38.92229066666667}, {"rental_uris": {"android": "https://dc.lft.to/lastmile_qr_scan", "ios": "https://dc.lft.to/lastmile_qr_scan"}, "is_reserved": 0, "is_disabled": 0, "name": "691c685c4354731c8dcf321ca0ea9df1", "bike_id": "691c685c4354731c8dcf321ca0ea9df1", "fusion_lat": 0.0, "lon": -77.01679166666666, "type": "electric_scooter", "fusion_lon": 0.0, "lat": 38.92039583333333}, {"rental_uris": {"android": "https://dc.lft.to/lastmile_qr_scan", "ios": "https://dc.lft.to/lastmile_qr_scan"}, "is_reserved": 0, "is_disabled": 0, "name": "ea65feac19a959d1b5fa0564c5e5ff22", "bike_id": "ea65feac19a959d1b5fa0564c5e5ff22", "fusion_lat": 0.0, "lon": -77.00343833333334, "type": "electric_scooter", "fusion_lon": 0.0, "lat": 38.893514333333336}, {"rental_uris": {"android": "https://dc.lft.to/lastmile_qr_scan", "ios": "https://dc.lft.to/lastmile_qr_scan"}, "is_reserved": 0, "is_disabled": 0, "name": "34dd5d599d90e0bf184740bc3b585450", "bike_id": "34dd5d599d90e0bf184740bc3b585450", "fusion_lat": 0.0, "lon": -77.01630116666666, "type": "electric_scooter", "fusion_lon": 0.0, "lat": 38.88731416666667}, {"rental_uris": {"android": "https://dc.lft.to/lastmile_qr_scan", "ios": "https://dc.lft.to/lastmile_qr_scan"}, "is_reserved": 0, "is_disabled": 0, "name": "5f6ed01a6baa863c9875c21a48bbca3d", "bike_id": "5f6ed01a6baa863c9875c21a48bbca3d", "fusion_lat": 0.0, "lon": -76.983595, "type": "electric_scooter", "fusion_lon": 0.0, "lat": 38.89716633333333}, {"rental_uris": {"android": "https://dc.lft.to/lastmile_qr_scan", "ios": "https://dc.lft.to/lastmile_qr_scan"}, "is_reserved": 0, "is_disabled": 0, "name": "9035341ee6318d2ae6c0a11e61f3699f", "bike_id": "9035341ee6318d2ae6c0a11e61f3699f", "fusion_lat": 0.0, "lon": -77.00737016666666, "type": "electric_scooter", "fusion_lon": 0.0, "lat": 38.91189083333333}, {"rental_uris": {"android": "https://dc.lft.to/lastmile_qr_scan", "ios": "https://dc.lft.to/lastmile_qr_scan"}, "is_reserved": 0, "is_disabled": 0, "name": "e46b2c5fd563199c82b10c56cf49c900", "bike_id": "e46b2c5fd563199c82b10c56cf49c900", "fusion_lat": 0.0, "lon": -76.953627, "type": "electric_scooter", "fusion_lon": 0.0, "lat": 38.8894355}, {"rental_uris": {"android": "https://dc.lft.to/lastmile_qr_scan", "ios": "https://dc.lft.to/lastmile_qr_scan"}, "is_reserved": 0, "is_disabled": 0, "name": "20e8ac9440a725f074524a57fb049903", "bike_id": "20e8ac9440a725f074524a57fb049903", "fusion_lat": 0.0, "lon": -77.0177555, "type": "electric_scooter", "fusion_lon": 0.0, "lat": 38.876976166666665}, {"rental_uris": {"android": "https://dc.lft.to/lastmile_qr_scan", "ios": "https://dc.lft.to/lastmile_qr_scan"}, "is_reserved": 0, "is_disabled": 0, "name": "19a3deb68b69aaf73207e38947e26f9f", "bike_id": "19a3deb68b69aaf73207e38947e26f9f", "fusion_lat": 0.0, "lon": -76.9955735, "type": "electric_scooter", "fusion_lon": 0.0, "lat": 38.9201705}, {"rental_uris": {"android": "https://dc.lft.to/lastmile_qr_scan", "ios": "https://dc.lft.to/lastmile_qr_scan"}, "is_reserved": 0, "is_disabled": 0, "name": "7fb1355bcfc675fe15c52a906dfa76f3", "bike_id": "7fb1355bcfc675fe15c52a906dfa76f3", "fusion_lat": 0.0, "lon": -76.95257916666667, "type": "electric_bike", "fusion_lon": 0.0, "lat": 38.90689616666667}, {"rental_uris": {"android": "https://dc.lft.to/lastmile_qr_scan", "ios": "https://dc.lft.to/lastmile_qr_scan"}, "is_reserved": 0, "is_disabled": 0, "name": "c70e19f0ccca893d547e5089c318a0ce", "bike_id": "c70e19f0ccca893d547e5089c318a0ce", "fusion_lat": 0.0, "lon": -77.043625, "type": "electric_scooter", "fusion_lon": 0.0, "lat": 38.921128833333334}, {"rental_uris": {"android": "https://dc.lft.to/lastmile_qr_scan", "ios": "https://dc.lft.to/lastmile_qr_scan"}, "is_reserved": 0, "is_disabled": 0, "name": "296e01721952ea510f952a9653925d82", "bike_id": "296e01721952ea510f952a9653925d82", "fusion_lat": 0.0, "lon": -77.020832, "type": "electric_scooter", "fusion_lon": 0.0, "lat": 38.918982666666665}, {"rental_uris": {"android": "https://dc.lft.to/lastmile_qr_scan", "ios": "https://dc.lft.to/lastmile_qr_scan"}, "is_reserved": 0, "is_disabled": 0, "name": "31d02a2941407564493f705b5781a5bb", "bike_id": "31d02a2941407564493f705b5781a5bb", "fusion_lat": 0.0, "lon": -77.03635416666667, "type": "electric_scooter", "fusion_lon": 0.0, "lat": 38.9032315}, {"rental_uris": {"android": "https://dc.lft.to/lastmile_qr_scan", "ios": "https://dc.lft.to/lastmile_qr_scan"}, "is_reserved": 0, "is_disabled": 0, "name": "0f07b811278ce50c00ac856816f26ad0", "bike_id": "0f07b811278ce50c00ac856816f26ad0", "fusion_lat": 0.0, "lon": -77.033358, "type": "electric_scooter", "fusion_lon": 0.0, "lat": 38.898739666666664}, {"rental_uris": {"android": "https://dc.lft.to/lastmile_qr_scan", "ios": "https://dc.lft.to/lastmile_qr_scan"}, "is_reserved": 0, "is_disabled": 0, "name": "f45037b290452607da936d8488e2ad81", "bike_id": "f45037b290452607da936d8488e2ad81", "fusion_lat": 0.0, "lon": -77.03005733333333, "type": "electric_bike", "fusion_lon": 0.0, "lat": 38.90020166666667}, {"rental_uris": {"android": "https://dc.lft.to/lastmile_qr_scan", "ios": "https://dc.lft.to/lastmile_qr_scan"}, "is_reserved": 0, "is_disabled": 0, "name": "689dabae760f19e37c4484b26804891b", "bike_id": "689dabae760f19e37c4484b26804891b", "fusion_lat": 0.0, "lon": -77.059141, "type": "electric_scooter", "fusion_lon": 0.0, "lat": 38.9014205}, {"rental_uris": {"android": "https://dc.lft.to/lastmile_qr_scan", "ios": "https://dc.lft.to/lastmile_qr_scan"}, "is_reserved": 0, "is_disabled": 0, "name": "0b546ddd88650325d885d1c53c011076", "bike_id": "0b546ddd88650325d885d1c53c011076", "fusion_lat": 0.0, "lon": -77.03850433333334, "type": "electric_scooter", "fusion_lon": 0.0, "lat": 38.90314}, {"rental_uris": {"android": "https://dc.lft.to/lastmile_qr_scan", "ios": "https://dc.lft.to/lastmile_qr_scan"}, "is_reserved": 0, "is_disabled": 0, "name": "3b23b6a95939dd18ff13add61fd3193b", "bike_id": "3b23b6a95939dd18ff13add61fd3193b", "fusion_lat": 0.0, "lon": -77.06301933333333, "type": "electric_scooter", "fusion_lon": 0.0, "lat": 38.903909}, {"rental_uris": {"android": "https://dc.lft.to/lastmile_qr_scan", "ios": "https://dc.lft.to/lastmile_qr_scan"}, "is_reserved": 0, "is_disabled": 0, "name": "e9c4bd97f0e860fb7364e236437f02d6", "bike_id": "e9c4bd97f0e860fb7364e236437f02d6", "fusion_lat": 0.0, "lon": -77.0092185, "type": "electric_scooter", "fusion_lon": 0.0, "lat": 38.89550333333333}, {"rental_uris": {"android": "https://dc.lft.to/lastmile_qr_scan", "ios": "https://dc.lft.to/lastmile_qr_scan"}, "is_reserved": 0, "is_disabled": 0, "name": "7c32a5caf5b41d20f5ed094f9155384a", "bike_id": "7c32a5caf5b41d20f5ed094f9155384a", "fusion_lat": 0.0, "lon": -77.019377, "type": "electric_scooter", "fusion_lon": 0.0, "lat": 38.92410483333333}, {"rental_uris": {"android": "https://dc.lft.to/lastmile_qr_scan", "ios": "https://dc.lft.to/lastmile_qr_scan"}, "is_reserved": 0, "is_disabled": 0, "name": "7208084d8d42fe4aa593cc3ddf4f9758", "bike_id": "7208084d8d42fe4aa593cc3ddf4f9758", "fusion_lat": 0.0, "lon": -77.02751033333334, "type": "electric_scooter", "fusion_lon": 0.0, "lat": 38.966441833333334}, {"rental_uris": {"android": "https://dc.lft.to/lastmile_qr_scan", "ios": "https://dc.lft.to/lastmile_qr_scan"}, "is_reserved": 0, "is_disabled": 0, "name": "dd83f188868a02721180451823d72598", "bike_id": "dd83f188868a02721180451823d72598", "fusion_lat": 0.0, "lon": -77.00383466666666, "type": "electric_bike", "fusion_lon": 0.0, "lat": 38.836022}, {"rental_uris": {"android": "https://dc.lft.to/lastmile_qr_scan", "ios": "https://dc.lft.to/lastmile_qr_scan"}, "is_reserved": 0, "is_disabled": 0, "name": "2ab80f7b472f1f4be49e23cf439e8ba3", "bike_id": "2ab80f7b472f1f4be49e23cf439e8ba3", "fusion_lat": 0.0, "lon": -77.0322995, "type": "electric_scooter", "fusion_lon": 0.0, "lat": 38.919888666666665}, {"rental_uris": {"android": "https://dc.lft.to/lastmile_qr_scan", "ios": "https://dc.lft.to/lastmile_qr_scan"}, "is_reserved": 0, "is_disabled": 0, "name": "2c3cf5b2c13fa4b7b48b75c842ffc89f", "bike_id": "2c3cf5b2c13fa4b7b48b75c842ffc89f", "fusion_lat": 0.0, "lon": -77.03433583333333, "type": "electric_scooter", "fusion_lon": 0.0, "lat": 38.91931266666667}, {"rental_uris": {"android": "https://dc.lft.to/lastmile_qr_scan", "ios": "https://dc.lft.to/lastmile_qr_scan"}, "is_reserved": 0, "is_disabled": 0, "name": "48fc82b197e6c54377b97dc9bf9afcdc", "bike_id": "48fc82b197e6c54377b97dc9bf9afcdc", "fusion_lat": 0.0, "lon": -77.018612, "type": "electric_scooter", "fusion_lon": 0.0, "lat": 38.94919566666667}, {"rental_uris": {"android": "https://dc.lft.to/lastmile_qr_scan", "ios": "https://dc.lft.to/lastmile_qr_scan"}, "is_reserved": 0, "is_disabled": 0, "name": "5b0e49bf5fd7d94579a4541618bc7c81", "bike_id": "5b0e49bf5fd7d94579a4541618bc7c81", "fusion_lat": 0.0, "lon": -77.024489, "type": "electric_scooter", "fusion_lon": 0.0, "lat": 38.89994566666667}, {"rental_uris": {"android": "https://dc.lft.to/lastmile_qr_scan", "ios": "https://dc.lft.to/lastmile_qr_scan"}, "is_reserved": 0, "is_disabled": 0, "name": "e50b5c945bae973118520a03c45a9047", "bike_id": "e50b5c945bae973118520a03c45a9047", "fusion_lat": 0.0, "lon": -77.03275333333333, "type": "electric_scooter", "fusion_lon": 0.0, "lat": 38.89872866666666}, {"rental_uris": {"android": "https://dc.lft.to/lastmile_qr_scan", "ios": "https://dc.lft.to/lastmile_qr_scan"}, "is_reserved": 0, "is_disabled": 0, "name": "381611cc8c27bb52900da1a4de2287aa", "bike_id": "381611cc8c27bb52900da1a4de2287aa", "fusion_lat": 0.0, "lon": -77.03589083333334, "type": "electric_bike", "fusion_lon": 0.0, "lat": 38.992230166666666}, {"rental_uris": {"android": "https://dc.lft.to/lastmile_qr_scan", "ios": "https://dc.lft.to/lastmile_qr_scan"}, "is_reserved": 0, "is_disabled": 0, "name": "2f856238f7528c6007da01b7730f8163", "bike_id": "2f856238f7528c6007da01b7730f8163", "fusion_lat": 0.0, "lon": -77.03314566666667, "type": "electric_scooter", "fusion_lon": 0.0, "lat": 38.90016116666666}, {"rental_uris": {"android": "https://dc.lft.to/lastmile_qr_scan", "ios": "https://dc.lft.to/lastmile_qr_scan"}, "is_reserved": 0, "is_disabled": 0, "name": "b7aca9d92347d693628cfe6cb0324993", "bike_id": "b7aca9d92347d693628cfe6cb0324993", "fusion_lat": 0.0, "lon": -77.00287066666667, "type": "electric_bike", "fusion_lon": 0.0, "lat": 38.83811016666667}, {"rental_uris": {"android": "https://dc.lft.to/lastmile_qr_scan", "ios": "https://dc.lft.to/lastmile_qr_scan"}, "is_reserved": 0, "is_disabled": 0, "name": "4755333f68a718af08422660b38a155b", "bike_id": "4755333f68a718af08422660b38a155b", "fusion_lat": 0.0, "lon": -77.0280965, "type": "electric_scooter", "fusion_lon": 0.0, "lat": 38.89937066666667}, {"rental_uris": {"android": "https://dc.lft.to/lastmile_qr_scan", "ios": "https://dc.lft.to/lastmile_qr_scan"}, "is_reserved": 0, "is_disabled": 0, "name": "70e4d14346c212242f4c2b829777e566", "bike_id": "70e4d14346c212242f4c2b829777e566", "fusion_lat": 0.0, "lon": -77.0282145, "type": "electric_scooter", "fusion_lon": 0.0, "lat": 38.89795566666667}, {"rental_uris": {"android": "https://dc.lft.to/lastmile_qr_scan", "ios": "https://dc.lft.to/lastmile_qr_scan"}, "is_reserved": 0, "is_disabled": 0, "name": "2b7a2e03620d31a6f30b76d6e660e223", "bike_id": "2b7a2e03620d31a6f30b76d6e660e223", "fusion_lat": 0.0, "lon": -77.0237575, "type": "electric_scooter", "fusion_lon": 0.0, "lat": 38.902206}, {"rental_uris": {"android": "https://dc.lft.to/lastmile_qr_scan", "ios": "https://dc.lft.to/lastmile_qr_scan"}, "is_reserved": 0, "is_disabled": 0, "name": "3d444c711f6728dd6b2b5fb34637dac1", "bike_id": "3d444c711f6728dd6b2b5fb34637dac1", "fusion_lat": 0.0, "lon": -76.981103, "type": "electric_scooter", "fusion_lon": 0.0, "lat": 38.904015333333334}, {"rental_uris": {"android": "https://dc.lft.to/lastmile_qr_scan", "ios": "https://dc.lft.to/lastmile_qr_scan"}, "is_reserved": 0, "is_disabled": 0, "name": "83aa932b2c9662e483e63775e6a60289", "bike_id": "83aa932b2c9662e483e63775e6a60289", "fusion_lat": 0.0, "lon": -76.96322116666667, "type": "electric_bike", "fusion_lon": 0.0, "lat": 38.938928}, {"rental_uris": {"android": "https://dc.lft.to/lastmile_qr_scan", "ios": "https://dc.lft.to/lastmile_qr_scan"}, "is_reserved": 0, "is_disabled": 0, "name": "179857e70401fff2cba7d455cb573c93", "bike_id": "179857e70401fff2cba7d455cb573c93", "fusion_lat": 0.0, "lon": -76.990156, "type": "electric_scooter", "fusion_lon": 0.0, "lat": 38.892072}, {"rental_uris": {"android": "https://dc.lft.to/lastmile_qr_scan", "ios": "https://dc.lft.to/lastmile_qr_scan"}, "is_reserved": 0, "is_disabled": 0, "name": "2fabcdd7a6fe28479587a35f23d7173e", "bike_id": "2fabcdd7a6fe28479587a35f23d7173e", "fusion_lat": 0.0, "lon": -77.04498183333334, "type": "electric_scooter", "fusion_lon": 0.0, "lat": 38.9139885}, {"rental_uris": {"android": "https://dc.lft.to/lastmile_qr_scan", "ios": "https://dc.lft.to/lastmile_qr_scan"}, "is_reserved": 0, "is_disabled": 0, "name": "6a5eba27294d187c128f38e184917932", "bike_id": "6a5eba27294d187c128f38e184917932", "fusion_lat": 0.0, "lon": -77.04991616666666, "type": "electric_scooter", "fusion_lon": 0.0, "lat": 38.897277}, {"rental_uris": {"android": "https://dc.lft.to/lastmile_qr_scan", "ios": "https://dc.lft.to/lastmile_qr_scan"}, "is_reserved": 0, "is_disabled": 0, "name": "459c99b4a6b57511c52baaf1d13433f9", "bike_id": "459c99b4a6b57511c52baaf1d13433f9", "fusion_lat": 0.0, "lon": -77.02693383333333, "type": "electric_scooter", "fusion_lon": 0.0, "lat": 38.908959}, {"rental_uris": {"android": "https://dc.lft.to/lastmile_qr_scan", "ios": "https://dc.lft.to/lastmile_qr_scan"}, "is_reserved": 0, "is_disabled": 0, "name": "65bdacab7d411721217b753589af002a", "bike_id": "65bdacab7d411721217b753589af002a", "fusion_lat": 0.0, "lon": -77.0402075, "type": "electric_scooter", "fusion_lon": 0.0, "lat": 38.918026}, {"rental_uris": {"android": "https://dc.lft.to/lastmile_qr_scan", "ios": "https://dc.lft.to/lastmile_qr_scan"}, "is_reserved": 0, "is_disabled": 0, "name": "4eb3e9497ff55baaf28a966f47069fcb", "bike_id": "4eb3e9497ff55baaf28a966f47069fcb", "fusion_lat": 0.0, "lon": -76.98240083333333, "type": "electric_scooter", "fusion_lon": 0.0, "lat": 38.908901666666665}, {"rental_uris": {"android": "https://dc.lft.to/lastmile_qr_scan", "ios": "https://dc.lft.to/lastmile_qr_scan"}, "is_reserved": 0, "is_disabled": 0, "name": "eeb907340afc90776ef1401e66a2cfe0", "bike_id": "eeb907340afc90776ef1401e66a2cfe0", "fusion_lat": 0.0, "lon": -77.01665083333333, "type": "electric_bike", "fusion_lon": 0.0, "lat": 38.881301}, {"rental_uris": {"android": "https://dc.lft.to/lastmile_qr_scan", "ios": "https://dc.lft.to/lastmile_qr_scan"}, "is_reserved": 0, "is_disabled": 0, "name": "a4a00f97912438a08b8e2665a1264d0f", "bike_id": "a4a00f97912438a08b8e2665a1264d0f", "fusion_lat": 0.0, "lon": -76.93218133333333, "type": "electric_scooter", "fusion_lon": 0.0, "lat": 38.8804195}, {"rental_uris": {"android": "https://dc.lft.to/lastmile_qr_scan", "ios": "https://dc.lft.to/lastmile_qr_scan"}, "is_reserved": 0, "is_disabled": 0, "name": "e9ea39f86315a80103964c9ddf426ad8", "bike_id": "e9ea39f86315a80103964c9ddf426ad8", "fusion_lat": 0.0, "lon": -77.03476266666667, "type": "electric_scooter", "fusion_lon": 0.0, "lat": 38.92880183333333}, {"rental_uris": {"android": "https://dc.lft.to/lastmile_qr_scan", "ios": "https://dc.lft.to/lastmile_qr_scan"}, "is_reserved": 0, "is_disabled": 0, "name": "d07dbebafdbac88429097d00312513fd", "bike_id": "d07dbebafdbac88429097d00312513fd", "fusion_lat": 0.0, "lon": -77.03383866666667, "type": "electric_scooter", "fusion_lon": 0.0, "lat": 38.921501166666665}, {"rental_uris": {"android": "https://dc.lft.to/lastmile_qr_scan", "ios": "https://dc.lft.to/lastmile_qr_scan"}, "is_reserved": 0, "is_disabled": 0, "name": "299f551fc5483325d28a605f342a4788", "bike_id": "299f551fc5483325d28a605f342a4788", "fusion_lat": 0.0, "lon": -77.04681766666667, "type": "electric_bike", "fusion_lon": 0.0, "lat": 38.9012105}, {"rental_uris": {"android": "https://dc.lft.to/lastmile_qr_scan", "ios": "https://dc.lft.to/lastmile_qr_scan"}, "is_reserved": 0, "is_disabled": 0, "name": "9008fb2216cc6df3c7dc73adc3360dcc", "bike_id": "9008fb2216cc6df3c7dc73adc3360dcc", "fusion_lat": 0.0, "lon": -77.03316266666667, "type": "electric_scooter", "fusion_lon": 0.0, "lat": 38.9214705}, {"rental_uris": {"android": "https://dc.lft.to/lastmile_qr_scan", "ios": "https://dc.lft.to/lastmile_qr_scan"}, "is_reserved": 0, "is_disabled": 0, "name": "f21e8e6c12d0d3ac21e19f7df21d92a6", "bike_id": "f21e8e6c12d0d3ac21e19f7df21d92a6", "fusion_lat": 0.0, "lon": -77.022633, "type": "electric_scooter", "fusion_lon": 0.0, "lat": 38.89591016666667}, {"rental_uris": {"android": "https://dc.lft.to/lastmile_qr_scan", "ios": "https://dc.lft.to/lastmile_qr_scan"}, "is_reserved": 0, "is_disabled": 0, "name": "41e3c90d819f455ab3a933f7f5393e11", "bike_id": "41e3c90d819f455ab3a933f7f5393e11", "fusion_lat": 0.0, "lon": -77.04286383333333, "type": "electric_scooter", "fusion_lon": 0.0, "lat": 38.917956833333335}, {"rental_uris": {"android": "https://dc.lft.to/lastmile_qr_scan", "ios": "https://dc.lft.to/lastmile_qr_scan"}, "is_reserved": 0, "is_disabled": 0, "name": "bda8c7122fe99b998267e99ce607b73a", "bike_id": "bda8c7122fe99b998267e99ce607b73a", "fusion_lat": 0.0, "lon": -76.93212766666667, "type": "electric_scooter", "fusion_lon": 0.0, "lat": 38.896672833333334}, {"rental_uris": {"android": "https://dc.lft.to/lastmile_qr_scan", "ios": "https://dc.lft.to/lastmile_qr_scan"}, "is_reserved": 0, "is_disabled": 0, "name": "7c4783f4e0c68219fbe5bb771f735385", "bike_id": "7c4783f4e0c68219fbe5bb771f735385", "fusion_lat": 0.0, "lon": -77.044874, "type": "electric_scooter", "fusion_lon": 0.0, "lat": 38.91062766666667}, {"rental_uris": {"android": "https://dc.lft.to/lastmile_qr_scan", "ios": "https://dc.lft.to/lastmile_qr_scan"}, "is_reserved": 0, "is_disabled": 0, "name": "3112c6a6fb80c88cd342bc6e9747a9c2", "bike_id": "3112c6a6fb80c88cd342bc6e9747a9c2", "fusion_lat": 0.0, "lon": -76.986366, "type": "electric_scooter", "fusion_lon": 0.0, "lat": 38.88036316666667}, {"rental_uris": {"android": "https://dc.lft.to/lastmile_qr_scan", "ios": "https://dc.lft.to/lastmile_qr_scan"}, "is_reserved": 0, "is_disabled": 0, "name": "f4288ca379308da55d528af0fc1a95db", "bike_id": "f4288ca379308da55d528af0fc1a95db", "fusion_lat": 0.0, "lon": -77.02793666666666, "type": "electric_scooter", "fusion_lon": 0.0, "lat": 38.96217216666667}, {"rental_uris": {"android": "https://dc.lft.to/lastmile_qr_scan", "ios": "https://dc.lft.to/lastmile_qr_scan"}, "is_reserved": 0, "is_disabled": 0, "name": "8f3e57e35e10f44b141739f75be42628", "bike_id": "8f3e57e35e10f44b141739f75be42628", "fusion_lat": 0.0, "lon": -77.00716633333333, "type": "electric_bike", "fusion_lon": 0.0, "lat": 38.94596383333333}, {"rental_uris": {"android": "https://dc.lft.to/lastmile_qr_scan", "ios": "https://dc.lft.to/lastmile_qr_scan"}, "is_reserved": 0, "is_disabled": 0, "name": "576524b1486debf5f990389b0243e0b6", "bike_id": "576524b1486debf5f990389b0243e0b6", "fusion_lat": 0.0, "lon": -77.05123066666667, "type": "electric_scooter", "fusion_lon": 0.0, "lat": 38.92343116666667}, {"rental_uris": {"android": "https://dc.lft.to/lastmile_qr_scan", "ios": "https://dc.lft.to/lastmile_qr_scan"}, "is_reserved": 0, "is_disabled": 0, "name": "f25b16c7c44125b660602141dbbc6ae6", "bike_id": "f25b16c7c44125b660602141dbbc6ae6", "fusion_lat": 0.0, "lon": -77.04540516666667, "type": "electric_scooter", "fusion_lon": 0.0, "lat": 38.899520833333334}, {"rental_uris": {"android": "https://dc.lft.to/lastmile_qr_scan", "ios": "https://dc.lft.to/lastmile_qr_scan"}, "is_reserved": 0, "is_disabled": 0, "name": "6d980075fec08eb20a5caf82442964a4", "bike_id": "6d980075fec08eb20a5caf82442964a4", "fusion_lat": 0.0, "lon": -76.99095966666667, "type": "electric_bike", "fusion_lon": 0.0, "lat": 38.804799}, {"rental_uris": {"android": "https://dc.lft.to/lastmile_qr_scan", "ios": "https://dc.lft.to/lastmile_qr_scan"}, "is_reserved": 0, "is_disabled": 0, "name": "4cc6d3b95f4a2a9a14aa60ef440e8b12", "bike_id": "4cc6d3b95f4a2a9a14aa60ef440e8b12", "fusion_lat": 0.0, "lon": -77.08027583333333, "type": "electric_bike", "fusion_lon": 0.0, "lat": 38.957691833333335}, {"rental_uris": {"android": "https://dc.lft.to/lastmile_qr_scan", "ios": "https://dc.lft.to/lastmile_qr_scan"}, "is_reserved": 0, "is_disabled": 0, "name": "30537e1a6bd5ca63ccc2eba6cf80e1ea", "bike_id": "30537e1a6bd5ca63ccc2eba6cf80e1ea", "fusion_lat": 0.0, "lon": -77.0982265, "type": "electric_bike", "fusion_lon": 0.0, "lat": 38.850141666666666}, {"rental_uris": {"android": "https://dc.lft.to/lastmile_qr_scan", "ios": "https://dc.lft.to/lastmile_qr_scan"}, "is_reserved": 0, "is_disabled": 0, "name": "ec45cf0b964e1a35675b67d65f68b391", "bike_id": "ec45cf0b964e1a35675b67d65f68b391", "fusion_lat": 0.0, "lon": -76.98691233333334, "type": "electric_bike", "fusion_lon": 0.0, "lat": 38.94466716666667}, {"rental_uris": {"android": "https://dc.lft.to/lastmile_qr_scan", "ios": "https://dc.lft.to/lastmile_qr_scan"}, "is_reserved": 0, "is_disabled": 0, "name": "55b8ea1e3eada9831ea724441b3564db", "bike_id": "55b8ea1e3eada9831ea724441b3564db", "fusion_lat": 0.0, "lon": -77.05915466666667, "type": "electric_scooter", "fusion_lon": 0.0, "lat": 38.90229016666667}, {"rental_uris": {"android": "https://dc.lft.to/lastmile_qr_scan", "ios": "https://dc.lft.to/lastmile_qr_scan"}, "is_reserved": 0, "is_disabled": 0, "name": "a3a10fdd69baa20057b1a6181db2f197", "bike_id": "a3a10fdd69baa20057b1a6181db2f197", "fusion_lat": 0.0, "lon": -77.02281583333334, "type": "electric_scooter", "fusion_lon": 0.0, "lat": 38.89858316666667}, {"rental_uris": {"android": "https://dc.lft.to/lastmile_qr_scan", "ios": "https://dc.lft.to/lastmile_qr_scan"}, "is_reserved": 0, "is_disabled": 0, "name": "328cdb763949e4765052ac1faac739b9", "bike_id": "328cdb763949e4765052ac1faac739b9", "fusion_lat": 0.0, "lon": -77.0220725, "type": "electric_scooter", "fusion_lon": 0.0, "lat": 38.895380333333335}, {"rental_uris": {"android": "https://dc.lft.to/lastmile_qr_scan", "ios": "https://dc.lft.to/lastmile_qr_scan"}, "is_reserved": 0, "is_disabled": 0, "name": "6b1b7abe45f4f98deaf44a7858299df1", "bike_id": "6b1b7abe45f4f98deaf44a7858299df1", "fusion_lat": 0.0, "lon": -77.12742266666666, "type": "electric_bike", "fusion_lon": 0.0, "lat": 38.895624833333336}, {"rental_uris": {"android": "https://dc.lft.to/lastmile_qr_scan", "ios": "https://dc.lft.to/lastmile_qr_scan"}, "is_reserved": 0, "is_disabled": 0, "name": "a80ecab86178b0bf0c3d35de481feac4", "bike_id": "a80ecab86178b0bf0c3d35de481feac4", "fusion_lat": 0.0, "lon": -76.9458065, "type": "electric_scooter", "fusion_lon": 0.0, "lat": 38.89921283333334}, {"rental_uris": {"android": "https://dc.lft.to/lastmile_qr_scan", "ios": "https://dc.lft.to/lastmile_qr_scan"}, "is_reserved": 0, "is_disabled": 0, "name": "05bf253d2b5d9593aa104992c5cb4099", "bike_id": "05bf253d2b5d9593aa104992c5cb4099", "fusion_lat": 0.0, "lon": -77.00214683333333, "type": "electric_scooter", "fusion_lon": 0.0, "lat": 38.9047735}, {"rental_uris": {"android": "https://dc.lft.to/lastmile_qr_scan", "ios": "https://dc.lft.to/lastmile_qr_scan"}, "is_reserved": 0, "is_disabled": 0, "name": "e68feafda17f827362962c692d3df0ad", "bike_id": "e68feafda17f827362962c692d3df0ad", "fusion_lat": 0.0, "lon": -77.03889183333334, "type": "electric_bike", "fusion_lon": 0.0, "lat": 39.02621366666666}, {"rental_uris": {"android": "https://dc.lft.to/lastmile_qr_scan", "ios": "https://dc.lft.to/lastmile_qr_scan"}, "is_reserved": 0, "is_disabled": 0, "name": "92c6b99d2b2e5d4880c9d51684641b66", "bike_id": "92c6b99d2b2e5d4880c9d51684641b66", "fusion_lat": 0.0, "lon": -76.9988085, "type": "electric_bike", "fusion_lon": 0.0, "lat": 38.9428685}, {"rental_uris": {"android": "https://dc.lft.to/lastmile_qr_scan", "ios": "https://dc.lft.to/lastmile_qr_scan"}, "is_reserved": 0, "is_disabled": 0, "name": "04058dc284c73e1aa3a729324670fd88", "bike_id": "04058dc284c73e1aa3a729324670fd88", "fusion_lat": 0.0, "lon": -77.02386933333334, "type": "electric_scooter", "fusion_lon": 0.0, "lat": 38.89193433333333}, {"rental_uris": {"android": "https://dc.lft.to/lastmile_qr_scan", "ios": "https://dc.lft.to/lastmile_qr_scan"}, "is_reserved": 0, "is_disabled": 0, "name": "6acb0435b23b3810c5950bcd7d0e4b05", "bike_id": "6acb0435b23b3810c5950bcd7d0e4b05", "fusion_lat": 0.0, "lon": -77.0455295, "type": "electric_scooter", "fusion_lon": 0.0, "lat": 38.9012685}, {"rental_uris": {"android": "https://dc.lft.to/lastmile_qr_scan", "ios": "https://dc.lft.to/lastmile_qr_scan"}, "is_reserved": 0, "is_disabled": 0, "name": "c4329e0b782e544222dc88ff7cc4e0a6", "bike_id": "c4329e0b782e544222dc88ff7cc4e0a6", "fusion_lat": 0.0, "lon": -77.04881783333333, "type": "electric_scooter", "fusion_lon": 0.0, "lat": 38.91033516666667}, {"rental_uris": {"android": "https://dc.lft.to/lastmile_qr_scan", "ios": "https://dc.lft.to/lastmile_qr_scan"}, "is_reserved": 0, "is_disabled": 0, "name": "af9a6ccba82782384542637a3e8b3cc4", "bike_id": "af9a6ccba82782384542637a3e8b3cc4", "fusion_lat": 0.0, "lon": -77.020738, "type": "electric_scooter", "fusion_lon": 0.0, "lat": 38.92331433333333}, {"rental_uris": {"android": "https://dc.lft.to/lastmile_qr_scan", "ios": "https://dc.lft.to/lastmile_qr_scan"}, "is_reserved": 0, "is_disabled": 0, "name": "f0acad1c5300ea676edb0cc92861d86b", "bike_id": "f0acad1c5300ea676edb0cc92861d86b", "fusion_lat": 0.0, "lon": -77.02608366666666, "type": "electric_scooter", "fusion_lon": 0.0, "lat": 38.89604683333334}, {"rental_uris": {"android": "https://dc.lft.to/lastmile_qr_scan", "ios": "https://dc.lft.to/lastmile_qr_scan"}, "is_reserved": 0, "is_disabled": 0, "name": "febf6976d0810fddc60c962f89a65c44", "bike_id": "febf6976d0810fddc60c962f89a65c44", "fusion_lat": 0.0, "lon": -77.01953266666666, "type": "electric_scooter", "fusion_lon": 0.0, "lat": 38.9241565}, {"rental_uris": {"android": "https://dc.lft.to/lastmile_qr_scan", "ios": "https://dc.lft.to/lastmile_qr_scan"}, "is_reserved": 0, "is_disabled": 0, "name": "c1152a58bb2acf5d0519c65508423b43", "bike_id": "c1152a58bb2acf5d0519c65508423b43", "fusion_lat": 0.0, "lon": -77.00579433333333, "type": "electric_scooter", "fusion_lon": 0.0, "lat": 38.875328}, {"rental_uris": {"android": "https://dc.lft.to/lastmile_qr_scan", "ios": "https://dc.lft.to/lastmile_qr_scan"}, "is_reserved": 0, "is_disabled": 0, "name": "2ffdfea348506cf781b01d756f8e4af1", "bike_id": "2ffdfea348506cf781b01d756f8e4af1", "fusion_lat": 0.0, "lon": -76.990494, "type": "electric_scooter", "fusion_lon": 0.0, "lat": 38.938143833333335}, {"rental_uris": {"android": "https://dc.lft.to/lastmile_qr_scan", "ios": "https://dc.lft.to/lastmile_qr_scan"}, "is_reserved": 0, "is_disabled": 0, "name": "085ac40d9d935db384bb0ce6ab356584", "bike_id": "085ac40d9d935db384bb0ce6ab356584", "fusion_lat": 0.0, "lon": -77.0384295, "type": "electric_scooter", "fusion_lon": 0.0, "lat": 38.903831}, {"rental_uris": {"android": "https://dc.lft.to/lastmile_qr_scan", "ios": "https://dc.lft.to/lastmile_qr_scan"}, "is_reserved": 0, "is_disabled": 0, "name": "1fb4b0fa2e70b5fb91ce3575ed9e9458", "bike_id": "1fb4b0fa2e70b5fb91ce3575ed9e9458", "fusion_lat": 0.0, "lon": -77.027923, "type": "electric_scooter", "fusion_lon": 0.0, "lat": 38.8981245}, {"rental_uris": {"android": "https://dc.lft.to/lastmile_qr_scan", "ios": "https://dc.lft.to/lastmile_qr_scan"}, "is_reserved": 0, "is_disabled": 0, "name": "27f830af161a2e5b7b1472ba9c949952", "bike_id": "27f830af161a2e5b7b1472ba9c949952", "fusion_lat": 0.0, "lon": -77.08724333333333, "type": "electric_bike", "fusion_lon": 0.0, "lat": 38.86238783333334}, {"rental_uris": {"android": "https://dc.lft.to/lastmile_qr_scan", "ios": "https://dc.lft.to/lastmile_qr_scan"}, "is_reserved": 0, "is_disabled": 0, "name": "5b66b73c942c3b54d120e072b6ff6124", "bike_id": "5b66b73c942c3b54d120e072b6ff6124", "fusion_lat": 0.0, "lon": -76.98201, "type": "electric_bike", "fusion_lon": 0.0, "lat": 38.98501733333333}, {"rental_uris": {"android": "https://dc.lft.to/lastmile_qr_scan", "ios": "https://dc.lft.to/lastmile_qr_scan"}, "is_reserved": 0, "is_disabled": 0, "name": "76353d9ea1731f5fbc815c31f81a27d6", "bike_id": "76353d9ea1731f5fbc815c31f81a27d6", "fusion_lat": 0.0, "lon": -77.05493733333333, "type": "electric_scooter", "fusion_lon": 0.0, "lat": 38.90841533333333}, {"rental_uris": {"android": "https://dc.lft.to/lastmile_qr_scan", "ios": "https://dc.lft.to/lastmile_qr_scan"}, "is_reserved": 0, "is_disabled": 0, "name": "ac11dd3bb06d66669575a5b1bad728bc", "bike_id": "ac11dd3bb06d66669575a5b1bad728bc", "fusion_lat": 0.0, "lon": -77.02035916666667, "type": "electric_scooter", "fusion_lon": 0.0, "lat": 38.924231}, {"rental_uris": {"android": "https://dc.lft.to/lastmile_qr_scan", "ios": "https://dc.lft.to/lastmile_qr_scan"}, "is_reserved": 0, "is_disabled": 0, "name": "b371c229a970d4d4fe45223f760d83bb", "bike_id": "b371c229a970d4d4fe45223f760d83bb", "fusion_lat": 0.0, "lon": -77.03219, "type": "electric_scooter", "fusion_lon": 0.0, "lat": 38.92055583333333}, {"rental_uris": {"android": "https://dc.lft.to/lastmile_qr_scan", "ios": "https://dc.lft.to/lastmile_qr_scan"}, "is_reserved": 0, "is_disabled": 0, "name": "789fce467222f93cedd2a667da16737e", "bike_id": "789fce467222f93cedd2a667da16737e", "fusion_lat": 0.0, "lon": -77.02042983333334, "type": "electric_scooter", "fusion_lon": 0.0, "lat": 38.9156955}, {"rental_uris": {"android": "https://dc.lft.to/lastmile_qr_scan", "ios": "https://dc.lft.to/lastmile_qr_scan"}, "is_reserved": 0, "is_disabled": 0, "name": "8c66bf57038e1d766d1c01ff5b9c2ed7", "bike_id": "8c66bf57038e1d766d1c01ff5b9c2ed7", "fusion_lat": 0.0, "lon": -77.04461983333333, "type": "electric_scooter", "fusion_lon": 0.0, "lat": 38.90283566666667}, {"rental_uris": {"android": "https://dc.lft.to/lastmile_qr_scan", "ios": "https://dc.lft.to/lastmile_qr_scan"}, "is_reserved": 0, "is_disabled": 0, "name": "4130788ccf8f29818ff72690f8004b55", "bike_id": "4130788ccf8f29818ff72690f8004b55", "fusion_lat": 0.0, "lon": -77.034504, "type": "electric_scooter", "fusion_lon": 0.0, "lat": 38.91835316666667}, {"rental_uris": {"android": "https://dc.lft.to/lastmile_qr_scan", "ios": "https://dc.lft.to/lastmile_qr_scan"}, "is_reserved": 0, "is_disabled": 0, "name": "1829b66942faa353091b8529586c8129", "bike_id": "1829b66942faa353091b8529586c8129", "fusion_lat": 0.0, "lon": -77.0195515, "type": "electric_scooter", "fusion_lon": 0.0, "lat": 38.9236415}, {"rental_uris": {"android": "https://dc.lft.to/lastmile_qr_scan", "ios": "https://dc.lft.to/lastmile_qr_scan"}, "is_reserved": 0, "is_disabled": 0, "name": "9ddd686f1c304bbb1b0ad5b732b8c6df", "bike_id": "9ddd686f1c304bbb1b0ad5b732b8c6df", "fusion_lat": 0.0, "lon": -77.12938383333334, "type": "electric_bike", "fusion_lon": 0.0, "lat": 38.865782833333334}, {"rental_uris": {"android": "https://dc.lft.to/lastmile_qr_scan", "ios": "https://dc.lft.to/lastmile_qr_scan"}, "is_reserved": 0, "is_disabled": 0, "name": "1e8dc08ce065d1a072373a3685c412ec", "bike_id": "1e8dc08ce065d1a072373a3685c412ec", "fusion_lat": 0.0, "lon": -76.99481066666667, "type": "electric_scooter", "fusion_lon": 0.0, "lat": 38.862317166666664}, {"rental_uris": {"android": "https://dc.lft.to/lastmile_qr_scan", "ios": "https://dc.lft.to/lastmile_qr_scan"}, "is_reserved": 0, "is_disabled": 0, "name": "dc7f6c68edd7eec8ecaa56e33f40046b", "bike_id": "dc7f6c68edd7eec8ecaa56e33f40046b", "fusion_lat": 0.0, "lon": -77.03337666666667, "type": "electric_scooter", "fusion_lon": 0.0, "lat": 38.90233033333333}, {"rental_uris": {"android": "https://dc.lft.to/lastmile_qr_scan", "ios": "https://dc.lft.to/lastmile_qr_scan"}, "is_reserved": 0, "is_disabled": 0, "name": "86dc9413bf4e15d899115dbd944dd546", "bike_id": "86dc9413bf4e15d899115dbd944dd546", "fusion_lat": 0.0, "lon": -77.027229, "type": "electric_scooter", "fusion_lon": 0.0, "lat": 38.898402833333336}, {"rental_uris": {"android": "https://dc.lft.to/lastmile_qr_scan", "ios": "https://dc.lft.to/lastmile_qr_scan"}, "is_reserved": 0, "is_disabled": 0, "name": "b758bc21d6208f76fc84e6cd3cdc05a0", "bike_id": "b758bc21d6208f76fc84e6cd3cdc05a0", "fusion_lat": 0.0, "lon": -77.02237933333333, "type": "electric_scooter", "fusion_lon": 0.0, "lat": 38.914141}, {"rental_uris": {"android": "https://dc.lft.to/lastmile_qr_scan", "ios": "https://dc.lft.to/lastmile_qr_scan"}, "is_reserved": 0, "is_disabled": 0, "name": "b474b113fdcc5c54efa3f49a3ddb388e", "bike_id": "b474b113fdcc5c54efa3f49a3ddb388e", "fusion_lat": 0.0, "lon": -76.929671, "type": "electric_scooter", "fusion_lon": 0.0, "lat": 38.8962685}, {"rental_uris": {"android": "https://dc.lft.to/lastmile_qr_scan", "ios": "https://dc.lft.to/lastmile_qr_scan"}, "is_reserved": 0, "is_disabled": 0, "name": "1e81a60141c040a1b6a5366d83ff0efc", "bike_id": "1e81a60141c040a1b6a5366d83ff0efc", "fusion_lat": 0.0, "lon": -77.0030335, "type": "electric_scooter", "fusion_lon": 0.0, "lat": 38.878522833333335}, {"rental_uris": {"android": "https://dc.lft.to/lastmile_qr_scan", "ios": "https://dc.lft.to/lastmile_qr_scan"}, "is_reserved": 0, "is_disabled": 0, "name": "35a5772d51c4fd7e823e9b7768aba965", "bike_id": "35a5772d51c4fd7e823e9b7768aba965", "fusion_lat": 0.0, "lon": -77.02931783333334, "type": "electric_scooter", "fusion_lon": 0.0, "lat": 38.89987516666667}, {"rental_uris": {"android": "https://dc.lft.to/lastmile_qr_scan", "ios": "https://dc.lft.to/lastmile_qr_scan"}, "is_reserved": 0, "is_disabled": 0, "name": "351108aef0899057a2658b0695358238", "bike_id": "351108aef0899057a2658b0695358238", "fusion_lat": 0.0, "lon": -77.02785433333334, "type": "electric_scooter", "fusion_lon": 0.0, "lat": 38.9295515}, {"rental_uris": {"android": "https://dc.lft.to/lastmile_qr_scan", "ios": "https://dc.lft.to/lastmile_qr_scan"}, "is_reserved": 0, "is_disabled": 0, "name": "ad948f0f5ae5e2275a557a128ca6cb95", "bike_id": "ad948f0f5ae5e2275a557a128ca6cb95", "fusion_lat": 0.0, "lon": -77.04641833333334, "type": "electric_scooter", "fusion_lon": 0.0, "lat": 38.8935385}, {"rental_uris": {"android": "https://dc.lft.to/lastmile_qr_scan", "ios": "https://dc.lft.to/lastmile_qr_scan"}, "is_reserved": 0, "is_disabled": 0, "name": "ae9d7f6071932daeebad5bb6e7b4a477", "bike_id": "ae9d7f6071932daeebad5bb6e7b4a477", "fusion_lat": 0.0, "lon": -77.01963383333333, "type": "electric_scooter", "fusion_lon": 0.0, "lat": 38.92324833333333}, {"rental_uris": {"android": "https://dc.lft.to/lastmile_qr_scan", "ios": "https://dc.lft.to/lastmile_qr_scan"}, "is_reserved": 0, "is_disabled": 0, "name": "e4b36d665ed681d9b8c449fb0a07bef6", "bike_id": "e4b36d665ed681d9b8c449fb0a07bef6", "fusion_lat": 0.0, "lon": -77.075725, "type": "electric_scooter", "fusion_lon": 0.0, "lat": 38.90729066666667}, {"rental_uris": {"android": "https://dc.lft.to/lastmile_qr_scan", "ios": "https://dc.lft.to/lastmile_qr_scan"},