{"data": {"bikes": [{"is_disabled": 0, "fusion_lon": 0.0, "fusion_lat": 0.0, "lat": 38.990897333333336, "type": "electric_bike", "lon": -76.87494783333334, "bike_id": "1ce1a6762669d5efe52a6eac4ec9560f", "rental_uris": {"android": "https://dc.lft.to/lastmile_qr_scan", "ios": "https://dc.lft.to/lastmile_qr_scan"}, "name": "1ce1a6762669d5efe52a6eac4ec9560f", "is_reserved": 0}, {"is_disabled": 0, "fusion_lon": 0.0, "fusion_lat": 0.0, "lat": 38.9263445, "type": "electric_scooter", "lon": -77.03726, "bike_id": "1ec92c3610312c950820c24dddcde09a", "rental_uris": {"android": "https://dc.lft.to/lastmile_qr_scan", "ios": "https://dc.lft.to/lastmile_qr_scan"}, "name": "1ec92c3610312c950820c24dddcde09a", "is_reserved": 0}, {"is_disabled": 0, "fusion_lon": 0.0, "fusion_lat": 0.0, "lat": 38.910076333333336, "type": "electric_scooter", "lon": -77.0076855, "bike_id": "c869bfab7f1dc653a49a1cb1a4aa241b", "rental_uris": {"android": "https://dc.lft.to/lastmile_qr_scan", "ios": "https://dc.lft.to/lastmile_qr_scan"}, "name": "c869bfab7f1dc653a49a1cb1a4aa241b", "is_reserved": 0}, {"is_disabled": 0, "fusion_lon": 0.0, "fusion_lat": 0.0, "lat": 38.8921325, "type": "electric_scooter", "lon": -77.02210433333333, "bike_id": "adda34d0e717a258822c9bc98b104bbf", "rental_uris": {"android": "https://dc.lft.to/lastmile_qr_scan", "ios": "https://dc.lft.to/lastmile_qr_scan"}, "name": "adda34d0e717a258822c9bc98b104bbf", "is_reserved": 0}, {"is_disabled": 0, "fusion_lon": 0.0, "fusion_lat": 0.0, "lat": 38.90156733333333, "type": "electric_scooter", "lon": -77.02607066666667, "bike_id": "200fd3bdd8c69b2cc660820e43802039", "rental_uris": {"android": "https://dc.lft.to/lastmile_qr_scan", "ios": "https://dc.lft.to/lastmile_qr_scan"}, "name": "200fd3bdd8c69b2cc660820e43802039", "is_reserved": 0}, {"is_disabled": 0, "fusion_lon": 0.0, "fusion_lat": 0.0, "lat": 38.89655233333333, "type": "electric_scooter", "lon": -77.05166083333333, "bike_id": "815a11f59a0b1a6e68733816931c7bb7", "rental_uris": {"android": "https://dc.lft.to/lastmile_qr_scan", "ios": "https://dc.lft.to/lastmile_qr_scan"}, "name": "815a11f59a0b1a6e68733816931c7bb7", "is_reserved": 0}, {"is_disabled": 0, "fusion_lon": 0.0, "fusion_lat": 0.0, "lat": 38.90972033333333, "type": "electric_scooter", "lon": -77.06759566666666, "bike_id": "980fabbacbadd8261060e6941d73d0e1", "rental_uris": {"android": "https://dc.lft.to/lastmile_qr_scan", "ios": "https://dc.lft.to/lastmile_qr_scan"}, "name": "980fabbacbadd8261060e6941d73d0e1", "is_reserved": 0}, {"is_disabled": 0, "fusion_lon": 0.0, "fusion_lat": 0.0, "lat": 38.87617816666667, "type": "electric_scooter", "lon": -76.965373, "bike_id": "eb13bd442474d41861d9a3ac799726e3", "rental_uris": {"android": "https://dc.lft.to/lastmile_qr_scan", "ios": "https://dc.lft.to/lastmile_qr_scan"}, "name": "eb13bd442474d41861d9a3ac799726e3", "is_reserved": 0}, {"is_disabled": 0, "fusion_lon": 0.0, "fusion_lat": 0.0, "lat": 38.885910333333335, "type": "electric_scooter", "lon": -77.02001833333334, "bike_id": "80b5c71640693af8203672d960ec63ba", "rental_uris": {"android": "https://dc.lft.to/lastmile_qr_scan", "ios": "https://dc.lft.to/lastmile_qr_scan"}, "name": "80b5c71640693af8203672d960ec63ba", "is_reserved": 0}, {"is_disabled": 0, "fusion_lon": 0.0, "fusion_lat": 0.0, "lat": 38.9059725, "type": "electric_scooter", "lon": -77.04129816666666, "bike_id": "0330f95ea61525d3209ec95cd5238f34", "rental_uris": {"android": "https://dc.lft.to/lastmile_qr_scan", "ios": "https://dc.lft.to/lastmile_qr_scan"}, "name": "0330f95ea61525d3209ec95cd5238f34", "is_reserved": 0}, {"is_disabled": 0, "fusion_lon": 0.0, "fusion_lat": 0.0, "lat": 38.956517166666664, "type": "electric_scooter", "lon": -77.03292983333333, "bike_id": "b3b088302ca09ed806952105a72ae453", "rental_uris": {"android": "https://dc.lft.to/lastmile_qr_scan", "ios": "https://dc.lft.to/lastmile_qr_scan"}, "name": "b3b088302ca09ed806952105a72ae453", "is_reserved": 0}, {"is_disabled": 0, "fusion_lon": 0.0, "fusion_lat": 0.0, "lat": 38.962159166666666, "type": "electric_scooter", "lon": -77.02808033333334, "bike_id": "3f48b733cd165654febb0231a88c1d31", "rental_uris": {"android": "https://dc.lft.to/lastmile_qr_scan", "ios": "https://dc.lft.to/lastmile_qr_scan"}, "name": "3f48b733cd165654febb0231a88c1d31", "is_reserved": 0}, {"is_disabled": 0, "fusion_lon": 0.0, "fusion_lat": 0.0, "lat": 38.91036916666667, "type": "electric_scooter", "lon": -77.04264433333333, "bike_id": "95fa73725e7867a1d303be275da3a005", "rental_uris": {"android": "https://dc.lft.to/lastmile_qr_scan", "ios": "https://dc.lft.to/lastmile_qr_scan"}, "name": "95fa73725e7867a1d303be275da3a005", "is_reserved": 0}, {"is_disabled": 0, "fusion_lon": 0.0, "fusion_lat": 0.0, "lat": 38.89539116666667, "type": "electric_scooter", "lon": -77.02838033333333, "bike_id": "c200ce7b210047cf834abbdab4ee6c43", "rental_uris": {"android": "https://dc.lft.to/lastmile_qr_scan", "ios": "https://dc.lft.to/lastmile_qr_scan"}, "name": "c200ce7b210047cf834abbdab4ee6c43", "is_reserved": 0}, {"is_disabled": 0, "fusion_lon": 0.0, "fusion_lat": 0.0, "lat": 39.000146666666666, "type": "electric_bike", "lon": -76.8728635, "bike_id": "184cc0eb7f50e19960dd127ddec040f6", "rental_uris": {"android": "https://dc.lft.to/lastmile_qr_scan", "ios": "https://dc.lft.to/lastmile_qr_scan"}, "name": "184cc0eb7f50e19960dd127ddec040f6", "is_reserved": 0}, {"is_disabled": 0, "fusion_lon": 0.0, "fusion_lat": 0.0, "lat": 38.828712, "type": "electric_bike", "lon": -77.11216533333334, "bike_id": "8402049b2c086e84bebc895ccbab1a22", "rental_uris": {"android": "https://dc.lft.to/lastmile_qr_scan", "ios": "https://dc.lft.to/lastmile_qr_scan"}, "name": "8402049b2c086e84bebc895ccbab1a22", "is_reserved": 0}, {"is_disabled": 0, "fusion_lon": 0.0, "fusion_lat": 0.0, "lat": 38.91422633333333, "type": "electric_scooter", "lon": -77.0320455, "bike_id": "5c9714062b5cb72112b9c1dac8f31755", "rental_uris": {"android": "https://dc.lft.to/lastmile_qr_scan", "ios": "https://dc.lft.to/lastmile_qr_scan"}, "name": "5c9714062b5cb72112b9c1dac8f31755", "is_reserved": 0}, {"is_disabled": 0, "fusion_lon": 0.0, "fusion_lat": 0.0, "lat": 38.92610533333333, "type": "electric_scooter", "lon": -77.02161816666667, "bike_id": "be91c4914ce01aeddf8c1024c76308ab", "rental_uris": {"android": "https://dc.lft.to/lastmile_qr_scan", "ios": "https://dc.lft.to/lastmile_qr_scan"}, "name": "be91c4914ce01aeddf8c1024c76308ab", "is_reserved": 0}, {"is_disabled": 0, "fusion_lon": 0.0, "fusion_lat": 0.0, "lat": 38.9033665, "type": "electric_scooter", "lon": -77.02162616666666, "bike_id": "34af24e2e28cb5cd1036cb5aa65f24ad", "rental_uris": {"android": "https://dc.lft.to/lastmile_qr_scan", "ios": "https://dc.lft.to/lastmile_qr_scan"}, "name": "34af24e2e28cb5cd1036cb5aa65f24ad", "is_reserved": 0}, {"is_disabled": 0, "fusion_lon": 0.0, "fusion_lat": 0.0, "lat": 38.90966, "type": "electric_scooter", "lon": -77.01099083333334, "bike_id": "71bad6ae1850259073b285c1347b4635", "rental_uris": {"android": "https://dc.lft.to/lastmile_qr_scan", "ios": "https://dc.lft.to/lastmile_qr_scan"}, "name": "71bad6ae1850259073b285c1347b4635", "is_reserved": 0}, {"is_disabled": 0, "fusion_lon": 0.0, "fusion_lat": 0.0, "lat": 38.912496, "type": "electric_scooter", "lon": -77.022342, "bike_id": "c7a5433a9f591ab651923889cd0c8e8e", "rental_uris": {"android": "https://dc.lft.to/lastmile_qr_scan", "ios": "https://dc.lft.to/lastmile_qr_scan"}, "name": "c7a5433a9f591ab651923889cd0c8e8e", "is_reserved": 0}, {"is_disabled": 0, "fusion_lon": 0.0, "fusion_lat": 0.0, "lat": 38.884769666666664, "type": "electric_scooter", "lon": -77.01983466666667, "bike_id": "cf324fc8d933a75e697f5d575c9275c2", "rental_uris": {"android": "https://dc.lft.to/lastmile_qr_scan", "ios": "https://dc.lft.to/lastmile_qr_scan"}, "name": "cf324fc8d933a75e697f5d575c9275c2", "is_reserved": 0}, {"is_disabled": 0, "fusion_lon": 0.0, "fusion_lat": 0.0, "lat": 38.92043683333333, "type": "electric_scooter", "lon": -77.02444, "bike_id": "393bd6101e9ce2cea659c6947fe33d80", "rental_uris": {"android": "https://dc.lft.to/lastmile_qr_scan", "ios": "https://dc.lft.to/lastmile_qr_scan"}, "name": "393bd6101e9ce2cea659c6947fe33d80", "is_reserved": 0}, {"is_disabled": 0, "fusion_lon": 0.0, "fusion_lat": 0.0, "lat": 38.90562666666667, "type": "electric_bike", "lon": -77.00548266666667, "bike_id": "23a0cbef1bb8cc811b778e28c78ffea1", "rental_uris": {"android": "https://dc.lft.to/lastmile_qr_scan", "ios": "https://dc.lft.to/lastmile_qr_scan"}, "name": "23a0cbef1bb8cc811b778e28c78ffea1", "is_reserved": 0}, {"is_disabled": 0, "fusion_lon": 0.0, "fusion_lat": 0.0, "lat": 38.93660233333333, "type": "electric_scooter", "lon": -77.03262066666667, "bike_id": "5806b67a59fcfad1ee44647f56f2986e", "rental_uris": {"android": "https://dc.lft.to/lastmile_qr_scan", "ios": "https://dc.lft.to/lastmile_qr_scan"}, "name": "5806b67a59fcfad1ee44647f56f2986e", "is_reserved": 0}, {"is_disabled": 0, "fusion_lon": 0.0, "fusion_lat": 0.0, "lat": 38.8996435, "type": "electric_bike", "lon": -76.98668466666666, "bike_id": "f2cb053a7ce3373ad77167cd68e2248c", "rental_uris": {"android": "https://dc.lft.to/lastmile_qr_scan", "ios": "https://dc.lft.to/lastmile_qr_scan"}, "name": "f2cb053a7ce3373ad77167cd68e2248c", "is_reserved": 0}, {"is_disabled": 0, "fusion_lon": 0.0, "fusion_lat": 0.0, "lat": 38.898424166666665, "type": "electric_scooter", "lon": -76.94632666666666, "bike_id": "e5f89707b187942152f40fadfcaa3420", "rental_uris": {"android": "https://dc.lft.to/lastmile_qr_scan", "ios": "https://dc.lft.to/lastmile_qr_scan"}, "name": "e5f89707b187942152f40fadfcaa3420", "is_reserved": 0}, {"is_disabled": 0, "fusion_lon": 0.0, "fusion_lat": 0.0, "lat": 38.93179816666667, "type": "electric_scooter", "lon": -77.072522, "bike_id": "6b969bc65ae134082c0058b67bdf4844", "rental_uris": {"android": "https://dc.lft.to/lastmile_qr_scan", "ios": "https://dc.lft.to/lastmile_qr_scan"}, "name": "6b969bc65ae134082c0058b67bdf4844", "is_reserved": 0}, {"is_disabled": 0, "fusion_lon": 0.0, "fusion_lat": 0.0, "lat": 38.908197333333334, "type": "electric_scooter", "lon": -77.03205483333333, "bike_id": "f1dbe242284eae56a724ecdd24ef624c", "rental_uris": {"android": "https://dc.lft.to/lastmile_qr_scan", "ios": "https://dc.lft.to/lastmile_qr_scan"}, "name": "f1dbe242284eae56a724ecdd24ef624c", "is_reserved": 0}, {"is_disabled": 0, "fusion_lon": 0.0, "fusion_lat": 0.0, "lat": 38.89893683333333, "type": "electric_scooter", "lon": -77.05293416666666, "bike_id": "c6c3e0de1338dbe616bfc1a57861fdeb", "rental_uris": {"android": "https://dc.lft.to/lastmile_qr_scan", "ios": "https://dc.lft.to/lastmile_qr_scan"}, "name": "c6c3e0de1338dbe616bfc1a57861fdeb", "is_reserved": 0}, {"is_disabled": 0, "fusion_lon": 0.0, "fusion_lat": 0.0, "lat": 38.91510683333333, "type": "electric_scooter", "lon": -77.01840466666667, "bike_id": "d4822ba9702fb85c392b29c8aefc9ccc", "rental_uris": {"android": "https://dc.lft.to/lastmile_qr_scan", "ios": "https://dc.lft.to/lastmile_qr_scan"}, "name": "d4822ba9702fb85c392b29c8aefc9ccc", "is_reserved": 0}, {"is_disabled": 0, "fusion_lon": 0.0, "fusion_lat": 0.0, "lat": 38.91108416666667, "type": "electric_scooter", "lon": -77.044904, "bike_id": "cdcfaab3b48d6e10c92c034c44ac6f1a", "rental_uris": {"android": "https://dc.lft.to/lastmile_qr_scan", "ios": "https://dc.lft.to/lastmile_qr_scan"}, "name": "cdcfaab3b48d6e10c92c034c44ac6f1a", "is_reserved": 0}, {"is_disabled": 0, "fusion_lon": 0.0, "fusion_lat": 0.0, "lat": 38.8635235, "type": "electric_scooter", "lon": -76.990677, "bike_id": "3f8fa6d75488445909e9d6f8ede6be3f", "rental_uris": {"android": "https://dc.lft.to/lastmile_qr_scan", "ios": "https://dc.lft.to/lastmile_qr_scan"}, "name": "3f8fa6d75488445909e9d6f8ede6be3f", "is_reserved": 0}, {"is_disabled": 0, "fusion_lon": 0.0, "fusion_lat": 0.0, "lat": 38.916747, "type": "electric_scooter", "lon": -77.02967816666667, "bike_id": "1464548b2121d1813fa5a477847bb487", "rental_uris": {"android": "https://dc.lft.to/lastmile_qr_scan", "ios": "https://dc.lft.to/lastmile_qr_scan"}, "name": "1464548b2121d1813fa5a477847bb487", "is_reserved": 0}, {"is_disabled": 0, "fusion_lon": 0.0, "fusion_lat": 0.0, "lat": 38.91552433333333, "type": "electric_scooter", "lon": -77.02046166666666, "bike_id": "5f466a4556de22f4b84bf8d4dabf7663", "rental_uris": {"android": "https://dc.lft.to/lastmile_qr_scan", "ios": "https://dc.lft.to/lastmile_qr_scan"}, "name": "5f466a4556de22f4b84bf8d4dabf7663", "is_reserved": 0}, {"is_disabled": 0, "fusion_lon": 0.0, "fusion_lat": 0.0, "lat": 38.885440333333335, "type": "electric_scooter", "lon": -77.00575333333333, "bike_id": "e068c0f8dbad9e59365bf7bdc4bdf639", "rental_uris": {"android": "https://dc.lft.to/lastmile_qr_scan", "ios": "https://dc.lft.to/lastmile_qr_scan"}, "name": "e068c0f8dbad9e59365bf7bdc4bdf639", "is_reserved": 0}, {"is_disabled": 0, "fusion_lon": 0.0, "fusion_lat": 0.0, "lat": 38.903498666666664, "type": "electric_scooter", "lon": -77.02170266666667, "bike_id": "20710cc6e225b6f1df184b167999d2a7", "rental_uris": {"android": "https://dc.lft.to/lastmile_qr_scan", "ios": "https://dc.lft.to/lastmile_qr_scan"}, "name": "20710cc6e225b6f1df184b167999d2a7", "is_reserved": 0}, {"is_disabled": 0, "fusion_lon": 0.0, "fusion_lat": 0.0, "lat": 38.9052915, "type": "electric_scooter", "lon": -77.06161766666666, "bike_id": "2fcf8c73f11570e287220d51f0c262ee", "rental_uris": {"android": "https://dc.lft.to/lastmile_qr_scan", "ios": "https://dc.lft.to/lastmile_qr_scan"}, "name": "2fcf8c73f11570e287220d51f0c262ee", "is_reserved": 0}, {"is_disabled": 0, "fusion_lon": 0.0, "fusion_lat": 0.0, "lat": 38.90594866666667, "type": "electric_scooter", "lon": -77.0403695, "bike_id": "6dea0ab9fabcadb1283dde7f3e28d19d", "rental_uris": {"android": "https://dc.lft.to/lastmile_qr_scan", "ios": "https://dc.lft.to/lastmile_qr_scan"}, "name": "6dea0ab9fabcadb1283dde7f3e28d19d", "is_reserved": 0}, {"is_disabled": 0, "fusion_lon": 0.0, "fusion_lat": 0.0, "lat": 38.848918833333336, "type": "electric_scooter", "lon": -77.005218, "bike_id": "2d19f250301ceb5867a6faa9484398ce", "rental_uris": {"android": "https://dc.lft.to/lastmile_qr_scan", "ios": "https://dc.lft.to/lastmile_qr_scan"}, "name": "2d19f250301ceb5867a6faa9484398ce", "is_reserved": 0}, {"is_disabled": 0, "fusion_lon": 0.0, "fusion_lat": 0.0, "lat": 38.8758045, "type": "electric_scooter", "lon": -77.00421516666667, "bike_id": "5a82540a2988a25b07957541909ebaad", "rental_uris": {"android": "https://dc.lft.to/lastmile_qr_scan", "ios": "https://dc.lft.to/lastmile_qr_scan"}, "name": "5a82540a2988a25b07957541909ebaad", "is_reserved": 0}, {"is_disabled": 0, "fusion_lon": 0.0, "fusion_lat": 0.0, "lat": 38.92611316666667, "type": "electric_scooter", "lon": -77.02159433333334, "bike_id": "ed4de3a7eb3a32c410954d3f12b62a17", "rental_uris": {"android": "https://dc.lft.to/lastmile_qr_scan", "ios": "https://dc.lft.to/lastmile_qr_scan"}, "name": "ed4de3a7eb3a32c410954d3f12b62a17", "is_reserved": 0}, {"is_disabled": 0, "fusion_lon": 0.0, "fusion_lat": 0.0, "lat": 38.877531833333336, "type": "electric_bike", "lon": -76.97994716666666, "bike_id": "e9a0e5efbd4891eb3b784ab38bfafc2b", "rental_uris": {"android": "https://dc.lft.to/lastmile_qr_scan", "ios": "https://dc.lft.to/lastmile_qr_scan"}, "name": "e9a0e5efbd4891eb3b784ab38bfafc2b", "is_reserved": 0}, {"is_disabled": 0, "fusion_lon": 0.0, "fusion_lat": 0.0, "lat": 38.91702816666667, "type": "electric_scooter", "lon": -77.03059666666667, "bike_id": "0202b922dad56673e50e4f2e310e6a68", "rental_uris": {"android": "https://dc.lft.to/lastmile_qr_scan", "ios": "https://dc.lft.to/lastmile_qr_scan"}, "name": "0202b922dad56673e50e4f2e310e6a68", "is_reserved": 0}, {"is_disabled": 0, "fusion_lon": 0.0, "fusion_lat": 0.0, "lat": 38.92475183333333, "type": "electric_scooter", "lon": -77.07300683333334, "bike_id": "76870331613d0a516cb073233ab6a069", "rental_uris": {"android": "https://dc.lft.to/lastmile_qr_scan", "ios": "https://dc.lft.to/lastmile_qr_scan"}, "name": "76870331613d0a516cb073233ab6a069", "is_reserved": 0}, {"is_disabled": 0, "fusion_lon": 0.0, "fusion_lat": 0.0, "lat": 38.9187015, "type": "electric_scooter", "lon": -77.05962866666667, "bike_id": "8be1082719574aadcc5d17adc2429cd1", "rental_uris": {"android": "https://dc.lft.to/lastmile_qr_scan", "ios": "https://dc.lft.to/lastmile_qr_scan"}, "name": "8be1082719574aadcc5d17adc2429cd1", "is_reserved": 0}, {"is_disabled": 0, "fusion_lon": 0.0, "fusion_lat": 0.0, "lat": 38.934758, "type": "electric_scooter", "lon": -77.07266333333334, "bike_id": "e4100b712a486c6bcab0277cb585ad05", "rental_uris": {"android": "https://dc.lft.to/lastmile_qr_scan", "ios": "https://dc.lft.to/lastmile_qr_scan"}, "name": "e4100b712a486c6bcab0277cb585ad05", "is_reserved": 0}, {"is_disabled": 0, "fusion_lon": 0.0, "fusion_lat": 0.0, "lat": 38.92283483333333, "type": "electric_scooter", "lon": -77.04462783333334, "bike_id": "7a2c7f6739f7f10efe80001112d93f68", "rental_uris": {"android": "https://dc.lft.to/lastmile_qr_scan", "ios": "https://dc.lft.to/lastmile_qr_scan"}, "name": "7a2c7f6739f7f10efe80001112d93f68", "is_reserved": 0}, {"is_disabled": 0, "fusion_lon": 0.0, "fusion_lat": 0.0, "lat": 38.908516666666664, "type": "electric_scooter", "lon": -77.04172766666667, "bike_id": "24a3b37bc092e103b7f9b3cae45c1a71", "rental_uris": {"android": "https://dc.lft.to/lastmile_qr_scan", "ios": "https://dc.lft.to/lastmile_qr_scan"}, "name": "24a3b37bc092e103b7f9b3cae45c1a71", "is_reserved": 0}, {"is_disabled": 0, "fusion_lon": 0.0, "fusion_lat": 0.0, "lat": 38.924676166666664, "type": "electric_scooter", "lon": -77.05210616666666, "bike_id": "fdb82faf9be8ce8ed2de6cf74c79eb17", "rental_uris": {"android": "https://dc.lft.to/lastmile_qr_scan", "ios": "https://dc.lft.to/lastmile_qr_scan"}, "name": "fdb82faf9be8ce8ed2de6cf74c79eb17", "is_reserved": 0}, {"is_disabled": 0, "fusion_lon": 0.0, "fusion_lat": 0.0, "lat": 38.895198, "type": "electric_scooter", "lon": -77.04851916666667, "bike_id": "cdcc82ff8e38d0996e730b20168e1e24", "rental_uris": {"android": "https://dc.lft.to/lastmile_qr_scan", "ios": "https://dc.lft.to/lastmile_qr_scan"}, "name": "cdcc82ff8e38d0996e730b20168e1e24", "is_reserved": 0}, {"is_disabled": 0, "fusion_lon": 0.0, "fusion_lat": 0.0, "lat": 38.9396015, "type": "electric_bike", "lon": -77.3609105, "bike_id": "bd7112fbcc724b2d569188d1ac0e34f4", "rental_uris": {"android": "https://dc.lft.to/lastmile_qr_scan", "ios": "https://dc.lft.to/lastmile_qr_scan"}, "name": "bd7112fbcc724b2d569188d1ac0e34f4", "is_reserved": 0}, {"is_disabled": 0, "fusion_lon": 0.0, "fusion_lat": 0.0, "lat": 38.91562033333334, "type": "electric_scooter", "lon": -77.03244683333334, "bike_id": "dd42c57e160fd8af0bc98f6b4550f61d", "rental_uris": {"android": "https://dc.lft.to/lastmile_qr_scan", "ios": "https://dc.lft.to/lastmile_qr_scan"}, "name": "dd42c57e160fd8af0bc98f6b4550f61d", "is_reserved": 0}, {"is_disabled": 0, "fusion_lon": 0.0, "fusion_lat": 0.0, "lat": 38.90123666666667, "type": "electric_scooter", "lon": -76.98840233333334, "bike_id": "18f67e320001288b5710abfc349747a2", "rental_uris": {"android": "https://dc.lft.to/lastmile_qr_scan", "ios": "https://dc.lft.to/lastmile_qr_scan"}, "name": "18f67e320001288b5710abfc349747a2", "is_reserved": 0}, {"is_disabled": 0, "fusion_lon": 0.0, "fusion_lat": 0.0, "lat": 38.943012333333336, "type": "electric_scooter", "lon": -77.02763983333334, "bike_id": "657833970e696b2a2e6f1170e79d0506", "rental_uris": {"android": "https://dc.lft.to/lastmile_qr_scan", "ios": "https://dc.lft.to/lastmile_qr_scan"}, "name": "657833970e696b2a2e6f1170e79d0506", "is_reserved": 0}, {"is_disabled": 0, "fusion_lon": 0.0, "fusion_lat": 0.0, "lat": 38.920627333333336, "type": "electric_scooter", "lon": -77.043631, "bike_id": "cde25921b664f9b95bee097b008fd499", "rental_uris": {"android": "https://dc.lft.to/lastmile_qr_scan", "ios": "https://dc.lft.to/lastmile_qr_scan"}, "name": "cde25921b664f9b95bee097b008fd499", "is_reserved": 0}, {"is_disabled": 0, "fusion_lon": 0.0, "fusion_lat": 0.0, "lat": 38.928228833333336, "type": "electric_scooter", "lon": -77.0543735, "bike_id": "71d3c2a09950579f303674e5a179b9f4", "rental_uris": {"android": "https://dc.lft.to/lastmile_qr_scan", "ios": "https://dc.lft.to/lastmile_qr_scan"}, "name": "71d3c2a09950579f303674e5a179b9f4", "is_reserved": 0}, {"is_disabled": 0, "fusion_lon": 0.0, "fusion_lat": 0.0, "lat": 38.919356, "type": "electric_bike", "lon": -76.97503333333333, "bike_id": "d3bd07fccea39f98ba9571f0052d5281", "rental_uris": {"android": "https://dc.lft.to/lastmile_qr_scan", "ios": "https://dc.lft.to/lastmile_qr_scan"}, "name": "d3bd07fccea39f98ba9571f0052d5281", "is_reserved": 0}, {"is_disabled": 0, "fusion_lon": 0.0, "fusion_lat": 0.0, "lat": 38.921089333333335, "type": "electric_scooter", "lon": -77.0438395, "bike_id": "cf829d611eb5445e7d960de5c33dbd77", "rental_uris": {"android": "https://dc.lft.to/lastmile_qr_scan", "ios": "https://dc.lft.to/lastmile_qr_scan"}, "name": "cf829d611eb5445e7d960de5c33dbd77", "is_reserved": 0}, {"is_disabled": 0, "fusion_lon": 0.0, "fusion_lat": 0.0, "lat": 38.905588, "type": "electric_scooter", "lon": -77.03064766666667, "bike_id": "eb63abe3438b85aa2b273684c0161e36", "rental_uris": {"android": "https://dc.lft.to/lastmile_qr_scan", "ios": "https://dc.lft.to/lastmile_qr_scan"}, "name": "eb63abe3438b85aa2b273684c0161e36", "is_reserved": 0}, {"is_disabled": 0, "fusion_lon": 0.0, "fusion_lat": 0.0, "lat": 38.9189545, "type": "electric_scooter", "lon": -77.07115866666666, "bike_id": "e6fe44a8715a3a0a5de915d577b22cf8", "rental_uris": {"android": "https://dc.lft.to/lastmile_qr_scan", "ios": "https://dc.lft.to/lastmile_qr_scan"}, "name": "e6fe44a8715a3a0a5de915d577b22cf8", "is_reserved": 0}, {"is_disabled": 0, "fusion_lon": 0.0, "fusion_lat": 0.0, "lat": 38.86957983333333, "type": "electric_scooter", "lon": -76.9603005, "bike_id": "658b076c3d2e5c62669621691310d0aa", "rental_uris": {"android": "https://dc.lft.to/lastmile_qr_scan", "ios": "https://dc.lft.to/lastmile_qr_scan"}, "name": "658b076c3d2e5c62669621691310d0aa", "is_reserved": 0}, {"is_disabled": 0, "fusion_lon": 0.0, "fusion_lat": 0.0, "lat": 38.93437483333334, "type": "electric_scooter", "lon": -77.07255683333334, "bike_id": "0acc77b0d68294633026ed9f23a4ccdd", "rental_uris": {"android": "https://dc.lft.to/lastmile_qr_scan", "ios": "https://dc.lft.to/lastmile_qr_scan"}, "name": "0acc77b0d68294633026ed9f23a4ccdd", "is_reserved": 0}, {"is_disabled": 0, "fusion_lon": 0.0, "fusion_lat": 0.0, "lat": 38.89371283333333, "type": "electric_scooter", "lon": -76.94995666666667, "bike_id": "734e7697653ef0eb2912674ca7371702", "rental_uris": {"android": "https://dc.lft.to/lastmile_qr_scan", "ios": "https://dc.lft.to/lastmile_qr_scan"}, "name": "734e7697653ef0eb2912674ca7371702", "is_reserved": 0}, {"is_disabled": 0, "fusion_lon": 0.0, "fusion_lat": 0.0, "lat": 38.9084825, "type": "electric_scooter", "lon": -77.04766216666667, "bike_id": "38527863d5dc4162c039bc4e5f930a8c", "rental_uris": {"android": "https://dc.lft.to/lastmile_qr_scan", "ios": "https://dc.lft.to/lastmile_qr_scan"}, "name": "38527863d5dc4162c039bc4e5f930a8c", "is_reserved": 0}, {"is_disabled": 0, "fusion_lon": 0.0, "fusion_lat": 0.0, "lat": 38.91322916666667, "type": "electric_scooter", "lon": -77.0318575, "bike_id": "17c73b5dc1e5e62bf02a275a8ba105b8", "rental_uris": {"android": "https://dc.lft.to/lastmile_qr_scan", "ios": "https://dc.lft.to/lastmile_qr_scan"}, "name": "17c73b5dc1e5e62bf02a275a8ba105b8", "is_reserved": 0}, {"is_disabled": 0, "fusion_lon": 0.0, "fusion_lat": 0.0, "lat": 38.91798466666667, "type": "electric_scooter", "lon": -77.03442233333334, "bike_id": "c8863673a3f746d68a93c1a08c6d2722", "rental_uris": {"android": "https://dc.lft.to/lastmile_qr_scan", "ios": "https://dc.lft.to/lastmile_qr_scan"}, "name": "c8863673a3f746d68a93c1a08c6d2722", "is_reserved": 0}, {"is_disabled": 0, "fusion_lon": 0.0, "fusion_lat": 0.0, "lat": 38.916444166666665, "type": "electric_scooter", "lon": -77.03251866666666, "bike_id": "c056ae9799f070807fcbfea21c66ed7d", "rental_uris": {"android": "https://dc.lft.to/lastmile_qr_scan", "ios": "https://dc.lft.to/lastmile_qr_scan"}, "name": "c056ae9799f070807fcbfea21c66ed7d", "is_reserved": 0}, {"is_disabled": 0, "fusion_lon": 0.0, "fusion_lat": 0.0, "lat": 38.92231666666667, "type": "electric_scooter", "lon": -77.03350766666667, "bike_id": "49b300f07fd55ef9c69495013f6ccd25", "rental_uris": {"android": "https://dc.lft.to/lastmile_qr_scan", "ios": "https://dc.lft.to/lastmile_qr_scan"}, "name": "49b300f07fd55ef9c69495013f6ccd25", "is_reserved": 0}, {"is_disabled": 0, "fusion_lon": 0.0, "fusion_lat": 0.0, "lat": 38.989860666666665, "type": "electric_scooter", "lon": -77.033637, "bike_id": "570f76f5cb8575be4f46b997c96531a1", "rental_uris": {"android": "https://dc.lft.to/lastmile_qr_scan", "ios": "https://dc.lft.to/lastmile_qr_scan"}, "name": "570f76f5cb8575be4f46b997c96531a1", "is_reserved": 0}, {"is_disabled": 0, "fusion_lon": 0.0, "fusion_lat": 0.0, "lat": 38.94600366666667, "type": "electric_scooter", "lon": -77.02979133333334, "bike_id": "48df9a90dee8be51c0afb8523f6115ee", "rental_uris": {"android": "https://dc.lft.to/lastmile_qr_scan", "ios": "https://dc.lft.to/lastmile_qr_scan"}, "name": "48df9a90dee8be51c0afb8523f6115ee", "is_reserved": 0}, {"is_disabled": 0, "fusion_lon": 0.0, "fusion_lat": 0.0, "lat": 38.9109955, "type": "electric_scooter", "lon": -77.02417533333333, "bike_id": "296305975cb7875ccfb5b61ade725f2a", "rental_uris": {"android": "https://dc.lft.to/lastmile_qr_scan", "ios": "https://dc.lft.to/lastmile_qr_scan"}, "name": "296305975cb7875ccfb5b61ade725f2a", "is_reserved": 0}, {"is_disabled": 0, "fusion_lon": 0.0, "fusion_lat": 0.0, "lat": 38.920729666666666, "type": "electric_scooter", "lon": -77.01822, "bike_id": "61644005c1d09af74edb9742beae42c6", "rental_uris": {"android": "https://dc.lft.to/lastmile_qr_scan", "ios": "https://dc.lft.to/lastmile_qr_scan"}, "name": "61644005c1d09af74edb9742beae42c6", "is_reserved": 0}, {"is_disabled": 0, "fusion_lon": 0.0, "fusion_lat": 0.0, "lat": 38.8922995, "type": "electric_scooter", "lon": -77.0220725, "bike_id": "52b15e93ed9cb91fba9d1ab06b7bed67", "rental_uris": {"android": "https://dc.lft.to/lastmile_qr_scan", "ios": "https://dc.lft.to/lastmile_qr_scan"}, "name": "52b15e93ed9cb91fba9d1ab06b7bed67", "is_reserved": 0}, {"is_disabled": 0, "fusion_lon": 0.0, "fusion_lat": 0.0, "lat": 38.897277, "type": "electric_scooter", "lon": -77.03350583333334, "bike_id": "e6261a8b9f50b626a1f91f492e847aad", "rental_uris": {"android": "https://dc.lft.to/lastmile_qr_scan", "ios": "https://dc.lft.to/lastmile_qr_scan"}, "name": "e6261a8b9f50b626a1f91f492e847aad", "is_reserved": 0}, {"is_disabled": 0, "fusion_lon": 0.0, "fusion_lat": 0.0, "lat": 38.88970616666667, "type": "electric_scooter", "lon": -76.987473, "bike_id": "74f46b77b7ac662105b61094feb40220", "rental_uris": {"android": "https://dc.lft.to/lastmile_qr_scan", "ios": "https://dc.lft.to/lastmile_qr_scan"}, "name": "74f46b77b7ac662105b61094feb40220", "is_reserved": 0}, {"is_disabled": 0, "fusion_lon": 0.0, "fusion_lat": 0.0, "lat": 38.901307, "type": "electric_scooter", "lon": -77.04337616666666, "bike_id": "47b8102d085e7d2952c285046754b45d", "rental_uris": {"android": "https://dc.lft.to/lastmile_qr_scan", "ios": "https://dc.lft.to/lastmile_qr_scan"}, "name": "47b8102d085e7d2952c285046754b45d", "is_reserved": 0}, {"is_disabled": 0, "fusion_lon": 0.0, "fusion_lat": 0.0, "lat": 38.89877, "type": "electric_scooter", "lon": -76.93157233333334, "bike_id": "4857794ad31b90006faddc4d6764237f", "rental_uris": {"android": "https://dc.lft.to/lastmile_qr_scan", "ios": "https://dc.lft.to/lastmile_qr_scan"}, "name": "4857794ad31b90006faddc4d6764237f", "is_reserved": 0}, {"is_disabled": 0, "fusion_lon": 0.0, "fusion_lat": 0.0, "lat": 38.91850683333333, "type": "electric_bike", "lon": -76.9617675, "bike_id": "724109c8cc841cc023223723a701ade8", "rental_uris": {"android": "https://dc.lft.to/lastmile_qr_scan", "ios": "https://dc.lft.to/lastmile_qr_scan"}, "name": "724109c8cc841cc023223723a701ade8", "is_reserved": 0}, {"is_disabled": 0, "fusion_lon": 0.0, "fusion_lat": 0.0, "lat": 38.865811, "type": "electric_scooter", "lon": -76.990439, "bike_id": "13ae9518d3189433fd0c95a2ec779534", "rental_uris": {"android": "https://dc.lft.to/lastmile_qr_scan", "ios": "https://dc.lft.to/lastmile_qr_scan"}, "name": "13ae9518d3189433fd0c95a2ec779534", "is_reserved": 0}, {"is_disabled": 0, "fusion_lon": 0.0, "fusion_lat": 0.0, "lat": 38.89561483333333, "type": "electric_bike", "lon": -76.97614483333334, "bike_id": "b972ec1065ba2f61e57beb9c82ecc346", "rental_uris": {"android": "https://dc.lft.to/lastmile_qr_scan", "ios": "https://dc.lft.to/lastmile_qr_scan"}, "name": "b972ec1065ba2f61e57beb9c82ecc346", "is_reserved": 0}, {"is_disabled": 0, "fusion_lon": 0.0, "fusion_lat": 0.0, "lat": 38.90103416666667, "type": "electric_scooter", "lon": -77.01747833333333, "bike_id": "95fda884263d89ccb4750c6a619b594c", "rental_uris": {"android": "https://dc.lft.to/lastmile_qr_scan", "ios": "https://dc.lft.to/lastmile_qr_scan"}, "name": "95fda884263d89ccb4750c6a619b594c", "is_reserved": 0}, {"is_disabled": 0, "fusion_lon": 0.0, "fusion_lat": 0.0, "lat": 38.9246685, "type": "electric_scooter", "lon": -77.03948233333334, "bike_id": "9d90dbe0044cb70a878a7a334cb5a984", "rental_uris": {"android": "https://dc.lft.to/lastmile_qr_scan", "ios": "https://dc.lft.to/lastmile_qr_scan"}, "name": "9d90dbe0044cb70a878a7a334cb5a984", "is_reserved": 0}, {"is_disabled": 0, "fusion_lon": 0.0, "fusion_lat": 0.0, "lat": 38.8983515, "type": "electric_scooter", "lon": -77.028204, "bike_id": "efff35e6dc17536fd9a4bf4ccac0ea11", "rental_uris": {"android": "https://dc.lft.to/lastmile_qr_scan", "ios": "https://dc.lft.to/lastmile_qr_scan"}, "name": "efff35e6dc17536fd9a4bf4ccac0ea11", "is_reserved": 0}, {"is_disabled": 0, "fusion_lon": 0.0, "fusion_lat": 0.0, "lat": 38.886567666666664, "type": "electric_scooter", "lon": -77.033927, "bike_id": "a5fd4ce60ecbfca7243aee8e5e5fe69d", "rental_uris": {"android": "https://dc.lft.to/lastmile_qr_scan", "ios": "https://dc.lft.to/lastmile_qr_scan"}, "name": "a5fd4ce60ecbfca7243aee8e5e5fe69d", "is_reserved": 0}, {"is_disabled": 0, "fusion_lon": 0.0, "fusion_lat": 0.0, "lat": 38.93333066666667, "type": "electric_scooter", "lon": -77.08201483333333, "bike_id": "8a65a77f651ad7027fb96f5af5d4e4bd", "rental_uris": {"android": "https://dc.lft.to/lastmile_qr_scan", "ios": "https://dc.lft.to/lastmile_qr_scan"}, "name": "8a65a77f651ad7027fb96f5af5d4e4bd", "is_reserved": 0}, {"is_disabled": 0, "fusion_lon": 0.0, "fusion_lat": 0.0, "lat": 38.92106366666667, "type": "electric_scooter", "lon": -77.04358866666666, "bike_id": "e6cc9dce97f12ac11a8930962e935788", "rental_uris": {"android": "https://dc.lft.to/lastmile_qr_scan", "ios": "https://dc.lft.to/lastmile_qr_scan"}, "name": "e6cc9dce97f12ac11a8930962e935788", "is_reserved": 0}, {"is_disabled": 0, "fusion_lon": 0.0, "fusion_lat": 0.0, "lat": 38.85795933333333, "type": "electric_bike", "lon": -76.98752616666667, "bike_id": "82ec422e37288e10fc466b1f0ec991ce", "rental_uris": {"android": "https://dc.lft.to/lastmile_qr_scan", "ios": "https://dc.lft.to/lastmile_qr_scan"}, "name": "82ec422e37288e10fc466b1f0ec991ce", "is_reserved": 0}, {"is_disabled": 0, "fusion_lon": 0.0, "fusion_lat": 0.0, "lat": 38.90407166666667, "type": "electric_scooter", "lon": -77.04376066666667, "bike_id": "16c28c7e371fc0ed1a3a27085587552a", "rental_uris": {"android": "https://dc.lft.to/lastmile_qr_scan", "ios": "https://dc.lft.to/lastmile_qr_scan"}, "name": "16c28c7e371fc0ed1a3a27085587552a", "is_reserved": 0}, {"is_disabled": 0, "fusion_lon": 0.0, "fusion_lat": 0.0, "lat": 38.8991385, "type": "electric_scooter", "lon": -77.04004616666667, "bike_id": "312da8d24f00d83bee183167eaadb668", "rental_uris": {"android": "https://dc.lft.to/lastmile_qr_scan", "ios": "https://dc.lft.to/lastmile_qr_scan"}, "name": "312da8d24f00d83bee183167eaadb668", "is_reserved": 0}, {"is_disabled": 0, "fusion_lon": 0.0, "fusion_lat": 0.0, "lat": 38.902777, "type": "electric_scooter", "lon": -77.03441766666667, "bike_id": "fb6d2beb36058c209f7064c555e6f25e", "rental_uris": {"android": "https://dc.lft.to/lastmile_qr_scan", "ios": "https://dc.lft.to/lastmile_qr_scan"}, "name": "fb6d2beb36058c209f7064c555e6f25e", "is_reserved": 0}, {"is_disabled": 0, "fusion_lon": 0.0, "fusion_lat": 0.0, "lat": 38.91110166666667, "type": "electric_scooter", "lon": -76.997712, "bike_id": "3c0e17077f896e724c3af4810503bd5a", "rental_uris": {"android": "https://dc.lft.to/lastmile_qr_scan", "ios": "https://dc.lft.to/lastmile_qr_scan"}, "name": "3c0e17077f896e724c3af4810503bd5a", "is_reserved": 0}, {"is_disabled": 0, "fusion_lon": 0.0, "fusion_lat": 0.0, "lat": 38.93252566666666, "type": "electric_scooter", "lon": -77.03256883333333, "bike_id": "7990bea43b1437a33931aa667d93a777", "rental_uris": {"android": "https://dc.lft.to/lastmile_qr_scan", "ios": "https://dc.lft.to/lastmile_qr_scan"}, "name": "7990bea43b1437a33931aa667d93a777", "is_reserved": 0}, {"is_disabled": 0, "fusion_lon": 0.0, "fusion_lat": 0.0, "lat": 38.920344166666666, "type": "electric_scooter", "lon": -77.04181633333333, "bike_id": "e0eb00c68395556c2644aa91fe839f3f", "rental_uris": {"android": "https://dc.lft.to/lastmile_qr_scan", "ios": "https://dc.lft.to/lastmile_qr_scan"}, "name": "e0eb00c68395556c2644aa91fe839f3f", "is_reserved": 0}, {"is_disabled": 0, "fusion_lon": 0.0, "fusion_lat": 0.0, "lat": 38.984770833333336, "type": "electric_scooter", "lon": -77.026463, "bike_id": "2576a4ab26a96d4631d8c6bcf0aabeec", "rental_uris": {"android": "https://dc.lft.to/lastmile_qr_scan", "ios": "https://dc.lft.to/lastmile_qr_scan"}, "name": "2576a4ab26a96d4631d8c6bcf0aabeec", "is_reserved": 0}, {"is_disabled": 0, "fusion_lon": 0.0, "fusion_lat": 0.0, "lat": 38.911518666666666, "type": "electric_scooter", "lon": -77.0878965, "bike_id": "a0b825e66ae41dcb3b140d8b50ef5efa", "rental_uris": {"android": "https://dc.lft.to/lastmile_qr_scan", "ios": "https://dc.lft.to/lastmile_qr_scan"}, "name": "a0b825e66ae41dcb3b140d8b50ef5efa", "is_reserved": 0}, {"is_disabled": 0, "fusion_lon": 0.0, "fusion_lat": 0.0, "lat": 38.915472666666666, "type": "electric_scooter", "lon": -77.0385335, "bike_id": "963773a9d0331f02a2d1df986c7b52b6", "rental_uris": {"android": "https://dc.lft.to/lastmile_qr_scan", "ios": "https://dc.lft.to/lastmile_qr_scan"}, "name": "963773a9d0331f02a2d1df986c7b52b6", "is_reserved": 0}, {"is_disabled": 0, "fusion_lon": 0.0, "fusion_lat": 0.0, "lat": 38.96648166666667, "type": "electric_bike", "lon": -76.9302395, "bike_id": "5587e5c37c45d96885ecde27417a1568", "rental_uris": {"android": "https://dc.lft.to/lastmile_qr_scan", "ios": "https://dc.lft.to/lastmile_qr_scan"}, "name": "5587e5c37c45d96885ecde27417a1568", "is_reserved": 0}, {"is_disabled": 0, "fusion_lon": 0.0, "fusion_lat": 0.0, "lat": 38.905619333333334, "type": "electric_scooter", "lon": -77.03060316666667, "bike_id": "0322fe1d4206eb814d4a504e3f7b77f2", "rental_uris": {"android": "https://dc.lft.to/lastmile_qr_scan", "ios": "https://dc.lft.to/lastmile_qr_scan"}, "name": "0322fe1d4206eb814d4a504e3f7b77f2", "is_reserved": 0}, {"is_disabled": 0, "fusion_lon": 0.0, "fusion_lat": 0.0, "lat": 38.898140833333336, "type": "electric_scooter", "lon": -77.03319533333334, "bike_id": "cb613b3b4f1870611451518d72a56b52", "rental_uris": {"android": "https://dc.lft.to/lastmile_qr_scan", "ios": "https://dc.lft.to/lastmile_qr_scan"}, "name": "cb613b3b4f1870611451518d72a56b52", "is_reserved": 0}, {"is_disabled": 0, "fusion_lon": 0.0, "fusion_lat": 0.0, "lat": 38.87980983333333, "type": "electric_bike", "lon": -76.91598483333334, "bike_id": "5911c00f580570a0157757bf249dd9e3", "rental_uris": {"android": "https://dc.lft.to/lastmile_qr_scan", "ios": "https://dc.lft.to/lastmile_qr_scan"}, "name": "5911c00f580570a0157757bf249dd9e3", "is_reserved": 0}, {"is_disabled": 0, "fusion_lon": 0.0, "fusion_lat": 0.0, "lat": 38.92501516666667, "type": "electric_scooter", "lon": -77.038772, "bike_id": "6c151d383fda3796a7b4be7456153e38", "rental_uris": {"android": "https://dc.lft.to/lastmile_qr_scan", "ios": "https://dc.lft.to/lastmile_qr_scan"}, "name": "6c151d383fda3796a7b4be7456153e38", "is_reserved": 0}, {"is_disabled": 0, "fusion_lon": 0.0, "fusion_lat": 0.0, "lat": 38.91807516666667, "type": "electric_scooter", "lon": -77.01389566666667, "bike_id": "8093ca7a1b20ce81d131b683e772afbf", "rental_uris": {"android": "https://dc.lft.to/lastmile_qr_scan", "ios": "https://dc.lft.to/lastmile_qr_scan"}, "name": "8093ca7a1b20ce81d131b683e772afbf", "is_reserved": 0}, {"is_disabled": 0, "fusion_lon": 0.0, "fusion_lat": 0.0, "lat": 38.9009455, "type": "electric_scooter", "lon": -77.02166083333333, "bike_id": "01951c4a493344e7cd6b49c148d0a7cc", "rental_uris": {"android": "https://dc.lft.to/lastmile_qr_scan", "ios": "https://dc.lft.to/lastmile_qr_scan"}, "name": "01951c4a493344e7cd6b49c148d0a7cc", "is_reserved": 0}, {"is_disabled": 0, "fusion_lon": 0.0, "fusion_lat": 0.0, "lat": 38.8984765, "type": "electric_bike", "lon": -76.93187183333333, "bike_id": "f7934d7bf85ad4f68f61fbaff12ce661", "rental_uris": {"android": "https://dc.lft.to/lastmile_qr_scan", "ios": "https://dc.lft.to/lastmile_qr_scan"}, "name": "f7934d7bf85ad4f68f61fbaff12ce661", "is_reserved": 0}, {"is_disabled": 0, "fusion_lon": 0.0, "fusion_lat": 0.0, "lat": 38.898088, "type": "electric_scooter", "lon": -77.0021255, "bike_id": "ab59c465eb26fec855cd8d6ba91d97c2", "rental_uris": {"android": "https://dc.lft.to/lastmile_qr_scan", "ios": "https://dc.lft.to/lastmile_qr_scan"}, "name": "ab59c465eb26fec855cd8d6ba91d97c2", "is_reserved": 0}, {"is_disabled": 0, "fusion_lon": 0.0, "fusion_lat": 0.0, "lat": 38.914454, "type": "electric_scooter", "lon": -77.04155166666666, "bike_id": "53879d50a7e64225c4707bc1cabf1ddf", "rental_uris": {"android": "https://dc.lft.to/lastmile_qr_scan", "ios": "https://dc.lft.to/lastmile_qr_scan"}, "name": "53879d50a7e64225c4707bc1cabf1ddf", "is_reserved": 0}, {"is_disabled": 0, "fusion_lon": 0.0, "fusion_lat": 0.0, "lat": 38.90864933333334, "type": "electric_scooter", "lon": -77.02675666666667, "bike_id": "812427a2a1bcadbf6622f44ddaec7850", "rental_uris": {"android": "https://dc.lft.to/lastmile_qr_scan", "ios": "https://dc.lft.to/lastmile_qr_scan"}, "name": "812427a2a1bcadbf6622f44ddaec7850", "is_reserved": 0}, {"is_disabled": 0, "fusion_lon": 0.0, "fusion_lat": 0.0, "lat": 38.914091666666664, "type": "electric_scooter", "lon": -77.02563533333333, "bike_id": "f161e4a08b37e45083c1a1ceee2b95df", "rental_uris": {"android": "https://dc.lft.to/lastmile_qr_scan", "ios": "https://dc.lft.to/lastmile_qr_scan"}, "name": "f161e4a08b37e45083c1a1ceee2b95df", "is_reserved": 0}, {"is_disabled": 0, "fusion_lon": 0.0, "fusion_lat": 0.0, "lat": 38.9185915, "type": "electric_bike", "lon": -76.96086466666667, "bike_id": "6569d0d84d01e220bf6a1c72fba3157c", "rental_uris": {"android": "https://dc.lft.to/lastmile_qr_scan", "ios": "https://dc.lft.to/lastmile_qr_scan"}, "name": "6569d0d84d01e220bf6a1c72fba3157c", "is_reserved": 0}, {"is_disabled": 0, "fusion_lon": 0.0, "fusion_lat": 0.0, "lat": 38.905541666666664, "type": "electric_scooter", "lon": -77.03248066666667, "bike_id": "9770eda8f9551f5464faff86225b65d3", "rental_uris": {"android": "https://dc.lft.to/lastmile_qr_scan", "ios": "https://dc.lft.to/lastmile_qr_scan"}, "name": "9770eda8f9551f5464faff86225b65d3", "is_reserved": 0}, {"is_disabled": 0, "fusion_lon": 0.0, "fusion_lat": 0.0, "lat": 38.8684095, "type": "electric_bike", "lon": -77.09732833333334, "bike_id": "5a4432b380fc6fd16d539d5ec9b7b949", "rental_uris": {"android": "https://dc.lft.to/lastmile_qr_scan", "ios": "https://dc.lft.to/lastmile_qr_scan"}, "name": "5a4432b380fc6fd16d539d5ec9b7b949", "is_reserved": 0}, {"is_disabled": 0, "fusion_lon": 0.0, "fusion_lat": 0.0, "lat": 38.915516, "type": "electric_scooter", "lon": -77.02047783333333, "bike_id": "b1426e4c0439128bd3aac2b92a1c38a0", "rental_uris": {"android": "https://dc.lft.to/lastmile_qr_scan", "ios": "https://dc.lft.to/lastmile_qr_scan"}, "name": "b1426e4c0439128bd3aac2b92a1c38a0", "is_reserved": 0}, {"is_disabled": 0, "fusion_lon": 0.0, "fusion_lat": 0.0, "lat": 38.87730283333333, "type": "electric_scooter", "lon": -77.01766416666666, "bike_id": "80adcfb756c0077ef92fa52365ffac84", "rental_uris": {"android": "https://dc.lft.to/lastmile_qr_scan", "ios": "https://dc.lft.to/lastmile_qr_scan"}, "name": "80adcfb756c0077ef92fa52365ffac84", "is_reserved": 0}, {"is_disabled": 0, "fusion_lon": 0.0, "fusion_lat": 0.0, "lat": 38.90542516666667, "type": "electric_scooter", "lon": -77.04667733333334, "bike_id": "42b65abb71296016585000299154efd4", "rental_uris": {"android": "https://dc.lft.to/lastmile_qr_scan", "ios": "https://dc.lft.to/lastmile_qr_scan"}, "name": "42b65abb71296016585000299154efd4", "is_reserved": 0}, {"is_disabled": 0, "fusion_lon": 0.0, "fusion_lat": 0.0, "lat": 38.9076325, "type": "electric_scooter", "lon": -76.99659433333333, "bike_id": "4c5f3c8b90dc4f7b2edd1f1056c05644", "rental_uris": {"android": "https://dc.lft.to/lastmile_qr_scan", "ios": "https://dc.lft.to/lastmile_qr_scan"}, "name": "4c5f3c8b90dc4f7b2edd1f1056c05644", "is_reserved": 0}, {"is_disabled": 0, "fusion_lon": 0.0, "fusion_lat": 0.0, "lat": 38.936430666666666, "type": "electric_scooter", "lon": -77.02085766666667, "bike_id": "e0fefdd6733a2e238393309ea3f004a8", "rental_uris": {"android": "https://dc.lft.to/lastmile_qr_scan", "ios": "https://dc.lft.to/lastmile_qr_scan"}, "name": "e0fefdd6733a2e238393309ea3f004a8", "is_reserved": 0}, {"is_disabled": 0, "fusion_lon": 0.0, "fusion_lat": 0.0, "lat": 38.909450666666665, "type": "electric_scooter", "lon": -77.05542316666667, "bike_id": "62e007a09cca2a7fd8ee97f1325c3fda", "rental_uris": {"android": "https://dc.lft.to/lastmile_qr_scan", "ios": "https://dc.lft.to/lastmile_qr_scan"}, "name": "62e007a09cca2a7fd8ee97f1325c3fda", "is_reserved": 0}, {"is_disabled": 0, "fusion_lon": 0.0, "fusion_lat": 0.0, "lat": 38.910748166666664, "type": "electric_scooter", "lon": -77.04381883333333, "bike_id": "b8c475bded8e33cfbba3fb0ef05c1b2c", "rental_uris": {"android": "https://dc.lft.to/lastmile_qr_scan", "ios": "https://dc.lft.to/lastmile_qr_scan"}, "name": "b8c475bded8e33cfbba3fb0ef05c1b2c", "is_reserved": 0}, {"is_disabled": 0, "fusion_lon": 0.0, "fusion_lat": 0.0, "lat": 38.92824433333333, "type": "electric_scooter", "lon": -77.05434316666667, "bike_id": "881af79e6c81e5f891099bfb4fca7697", "rental_uris": {"android": "https://dc.lft.to/lastmile_qr_scan", "ios": "https://dc.lft.to/lastmile_qr_scan"}, "name": "881af79e6c81e5f891099bfb4fca7697", "is_reserved": 0}, {"is_disabled": 0, "fusion_lon": 0.0, "fusion_lat": 0.0, "lat": 38.9132325, "type": "electric_scooter", "lon": -77.03184533333334, "bike_id": "aa27962c4bb7718c2b163d981475da33", "rental_uris": {"android": "https://dc.lft.to/lastmile_qr_scan", "ios": "https://dc.lft.to/lastmile_qr_scan"}, "name": "aa27962c4bb7718c2b163d981475da33", "is_reserved": 0}, {"is_disabled": 0, "fusion_lon": 0.0, "fusion_lat": 0.0, "lat": 38.900554666666665, "type": "electric_scooter", "lon": -76.9347255, "bike_id": "40998aa00925afcb3c31b22b1e883d4d", "rental_uris": {"android": "https://dc.lft.to/lastmile_qr_scan", "ios": "https://dc.lft.to/lastmile_qr_scan"}, "name": "40998aa00925afcb3c31b22b1e883d4d", "is_reserved": 0}, {"is_disabled": 0, "fusion_lon": 0.0, "fusion_lat": 0.0, "lat": 38.917084333333335, "type": "electric_scooter", "lon": -77.02486683333333, "bike_id": "92b92aebe040e84f1cf7bed3d18c146e", "rental_uris": {"android": "https://dc.lft.to/lastmile_qr_scan", "ios": "https://dc.lft.to/lastmile_qr_scan"}, "name": "92b92aebe040e84f1cf7bed3d18c146e", "is_reserved": 0}, {"is_disabled": 0, "fusion_lon": 0.0, "fusion_lat": 0.0, "lat": 38.9168535, "type": "electric_scooter", "lon": -77.03816833333333, "bike_id": "69da87d70ba44ae7ca941545c81037b3", "rental_uris": {"android": "https://dc.lft.to/lastmile_qr_scan", "ios": "https://dc.lft.to/lastmile_qr_scan"}, "name": "69da87d70ba44ae7ca941545c81037b3", "is_reserved": 0}, {"is_disabled": 0, "fusion_lon": 0.0, "fusion_lat": 0.0, "lat": 38.92961916666667, "type": "electric_scooter", "lon": -77.05492166666667, "bike_id": "087e67f2b326087ec78c331ad4dde741", "rental_uris": {"android": "https://dc.lft.to/lastmile_qr_scan", "ios": "https://dc.lft.to/lastmile_qr_scan"}, "name": "087e67f2b326087ec78c331ad4dde741", "is_reserved": 0}, {"is_disabled": 0, "fusion_lon": 0.0, "fusion_lat": 0.0, "lat": 38.8921735, "type": "electric_scooter", "lon": -77.02217933333333, "bike_id": "58532500412adfd76fc3dd055ef0f9c4", "rental_uris": {"android": "https://dc.lft.to/lastmile_qr_scan", "ios": "https://dc.lft.to/lastmile_qr_scan"}, "name": "58532500412adfd76fc3dd055ef0f9c4", "is_reserved": 0}, {"is_disabled": 0, "fusion_lon": 0.0, "fusion_lat": 0.0, "lat": 38.91213233333333, "type": "electric_scooter", "lon": -77.02093283333333, "bike_id": "b9717c82fcbf5a4d1ff06238e7fd81da", "rental_uris": {"android": "https://dc.lft.to/lastmile_qr_scan", "ios": "https://dc.lft.to/lastmile_qr_scan"}, "name": "b9717c82fcbf5a4d1ff06238e7fd81da", "is_reserved": 0}, {"is_disabled": 0, "fusion_lon": 0.0, "fusion_lat": 0.0, "lat": 38.863377, "type": "electric_bike", "lon": -76.98714416666667, "bike_id": "d39dc87108c0f9de60970511fd89fd84", "rental_uris": {"android": "https://dc.lft.to/lastmile_qr_scan", "ios": "https://dc.lft.to/lastmile_qr_scan"}, "name": "d39dc87108c0f9de60970511fd89fd84", "is_reserved": 0}, {"is_disabled": 0, "fusion_lon": 0.0, "fusion_lat": 0.0, "lat": 38.89651166666667, "type": "electric_bike", "lon": -76.95000283333333, "bike_id": "2730effa0a60c56fa068d9ab3a2084dc", "rental_uris": {"android": "https://dc.lft.to/lastmile_qr_scan", "ios": "https://dc.lft.to/lastmile_qr_scan"}, "name": "2730effa0a60c56fa068d9ab3a2084dc", "is_reserved": 0}, {"is_disabled": 0, "fusion_lon": 0.0, "fusion_lat": 0.0, "lat": 38.888181333333335, "type": "electric_bike", "lon": -77.1273755, "bike_id": "7df07f585e05d43a9dd1095c9f576fad", "rental_uris": {"android": "https://dc.lft.to/lastmile_qr_scan", "ios": "https://dc.lft.to/lastmile_qr_scan"}, "name": "7df07f585e05d43a9dd1095c9f576fad", "is_reserved": 0}, {"is_disabled": 0, "fusion_lon": 0.0, "fusion_lat": 0.0, "lat": 38.8990435, "type": "electric_scooter", "lon": -77.01656183333333, "bike_id": "0da84e37b1ba7608c8ef077b728d9ccf", "rental_uris": {"android": "https://dc.lft.to/lastmile_qr_scan", "ios": "https://dc.lft.to/lastmile_qr_scan"}, "name": "0da84e37b1ba7608c8ef077b728d9ccf", "is_reserved": 0}, {"is_disabled": 0, "fusion_lon": 0.0, "fusion_lat": 0.0, "lat": 38.9077325, "type": "electric_scooter", "lon": -77.03268533333333, "bike_id": "b87e9409c40fc2f2fe30254dfbdb0ad8", "rental_uris": {"android": "https://dc.lft.to/lastmile_qr_scan", "ios": "https://dc.lft.to/lastmile_qr_scan"}, "name": "b87e9409c40fc2f2fe30254dfbdb0ad8", "is_reserved": 0}, {"is_disabled": 0, "fusion_lon": 0.0, "fusion_lat": 0.0, "lat": 38.95722333333333, "type": "electric_scooter", "lon": -77.0310095, "bike_id": "0577ec529be9423bb33e6366bfcf8898", "rental_uris": {"android": "https://dc.lft.to/lastmile_qr_scan", "ios": "https://dc.lft.to/lastmile_qr_scan"}, "name": "0577ec529be9423bb33e6366bfcf8898", "is_reserved": 0}, {"is_disabled": 0, "fusion_lon": 0.0, "fusion_lat": 0.0, "lat": 38.975698333333334, "type": "electric_bike", "lon": -76.964029, "bike_id": "d8b28907189c327da9c7e93db38e5abd", "rental_uris": {"android": "https://dc.lft.to/lastmile_qr_scan", "ios": "https://dc.lft.to/lastmile_qr_scan"}, "name": "d8b28907189c327da9c7e93db38e5abd", "is_reserved": 0}, {"is_disabled": 0, "fusion_lon": 0.0, "fusion_lat": 0.0, "lat": 38.855239, "type": "electric_bike", "lon": -77.1072495, "bike_id": "0e4c1083628435940b6500e66a189cd9", "rental_uris": {"android": "https://dc.lft.to/lastmile_qr_scan", "ios": "https://dc.lft.to/lastmile_qr_scan"}, "name": "0e4c1083628435940b6500e66a189cd9", "is_reserved": 0}, {"is_disabled": 0, "fusion_lon": 0.0, "fusion_lat": 0.0, "lat": 38.91532733333333, "type": "electric_scooter", "lon": -77.03205633333333, "bike_id": "39122e708dcb344a855d0ab349bd3a4e", "rental_uris": {"android": "https://dc.lft.to/lastmile_qr_scan", "ios": "https://dc.lft.to/lastmile_qr_scan"}, "name": "39122e708dcb344a855d0ab349bd3a4e", "is_reserved": 0}, {"is_disabled": 0, "fusion_lon": 0.0, "fusion_lat": 0.0, "lat": 38.99089133333333, "type": "electric_bike", "lon": -76.87496566666667, "bike_id": "68e7cb5a02f0dd08401afbfdd57433db", "rental_uris": {"android": "https://dc.lft.to/lastmile_qr_scan", "ios": "https://dc.lft.to/lastmile_qr_scan"}, "name": "68e7cb5a02f0dd08401afbfdd57433db", "is_reserved": 0}, {"is_disabled": 0, "fusion_lon": 0.0, "fusion_lat": 0.0, "lat": 38.894855666666665, "type": "electric_scooter", "lon": -77.02108083333333, "bike_id": "8e7603284ac3af04f4216887c7bcf5c8", "rental_uris": {"android": "https://dc.lft.to/lastmile_qr_scan", "ios": "https://dc.lft.to/lastmile_qr_scan"}, "name": "8e7603284ac3af04f4216887c7bcf5c8", "is_reserved": 0}, {"is_disabled": 0, "fusion_lon": 0.0, "fusion_lat": 0.0, "lat": 38.89965883333333, "type": "electric_scooter", "lon": -77.02941533333333, "bike_id": "0b5440d3b1ba8a189809abaf60d6a762", "rental_uris": {"android": "https://dc.lft.to/lastmile_qr_scan", "ios": "https://dc.lft.to/lastmile_qr_scan"}, "name": "0b5440d3b1ba8a189809abaf60d6a762", "is_reserved": 0}, {"is_disabled": 0, "fusion_lon": 0.0, "fusion_lat": 0.0, "lat": 38.90516383333333, "type": "electric_scooter", "lon": -77.051173, "bike_id": "d5736c595f725a6a0ce728464a1c32a7", "rental_uris": {"android": "https://dc.lft.to/lastmile_qr_scan", "ios": "https://dc.lft.to/lastmile_qr_scan"}, "name": "d5736c595f725a6a0ce728464a1c32a7", "is_reserved": 0}, {"is_disabled": 0, "fusion_lon": 0.0, "fusion_lat": 0.0, "lat": 38.9087575, "type": "electric_scooter", "lon": -77.043516, "bike_id": "1ec8483c2321ba82ab99bd61578851bd", "rental_uris": {"android": "https://dc.lft.to/lastmile_qr_scan", "ios": "https://dc.lft.to/lastmile_qr_scan"}, "name": "1ec8483c2321ba82ab99bd61578851bd", "is_reserved": 0}, {"is_disabled": 0, "fusion_lon": 0.0, "fusion_lat": 0.0, "lat": 38.899710166666665, "type": "electric_scooter", "lon": -77.05577466666666, "bike_id": "55da0a3c182eb8238a87b59ef3d7bcc6", "rental_uris": {"android": "https://dc.lft.to/lastmile_qr_scan", "ios": "https://dc.lft.to/lastmile_qr_scan"}, "name": "55da0a3c182eb8238a87b59ef3d7bcc6", "is_reserved": 0}, {"is_disabled": 0, "fusion_lon": 0.0, "fusion_lat": 0.0, "lat": 38.85062166666667, "type": "electric_bike", "lon": -76.97336083333333, "bike_id": "5b3175363cad5a10cbc36cdef38e4ce7", "rental_uris": {"android": "https://dc.lft.to/lastmile_qr_scan", "ios": "https://dc.lft.to/lastmile_qr_scan"}, "name": "5b3175363cad5a10cbc36cdef38e4ce7", "is_reserved": 0}, {"is_disabled": 0, "fusion_lon": 0.0, "fusion_lat": 0.0, "lat": 38.91708, "type": "electric_scooter", "lon": -77.03418983333333, "bike_id": "99fe30fe32fcfef28738ef380e1b6c86", "rental_uris": {"android": "https://dc.lft.to/lastmile_qr_scan", "ios": "https://dc.lft.to/lastmile_qr_scan"}, "name": "99fe30fe32fcfef28738ef380e1b6c86", "is_reserved": 0}, {"is_disabled": 0, "fusion_lon": 0.0, "fusion_lat": 0.0, "lat": 38.95226533333334, "type": "electric_scooter", "lon": -77.02757633333333, "bike_id": "c25be467b87593e58bdf08918cb1d0dc", "rental_uris": {"android": "https://dc.lft.to/lastmile_qr_scan", "ios": "https://dc.lft.to/lastmile_qr_scan"}, "name": "c25be467b87593e58bdf08918cb1d0dc", "is_reserved": 0}, {"is_disabled": 0, "fusion_lon": 0.0, "fusion_lat": 0.0, "lat": 38.90849716666666, "type": "electric_scooter", "lon": -77.04159766666666, "bike_id": "736fa00090b2d16ff9aed2d685c84c1e", "rental_uris": {"android": "https://dc.lft.to/lastmile_qr_scan", "ios": "https://dc.lft.to/lastmile_qr_scan"}, "name": "736fa00090b2d16ff9aed2d685c84c1e", "is_reserved": 0}, {"is_disabled": 0, "fusion_lon": 0.0, "fusion_lat": 0.0, "lat": 38.92733616666666, "type": "electric_bike", "lon": -76.99366516666667, "bike_id": "44cc777b28a82d94904ed3537a105180", "rental_uris": {"android": "https://dc.lft.to/lastmile_qr_scan", "ios": "https://dc.lft.to/lastmile_qr_scan"}, "name": "44cc777b28a82d94904ed3537a105180", "is_reserved": 0}, {"is_disabled": 0, "fusion_lon": 0.0, "fusion_lat": 0.0, "lat": 38.90270066666667, "type": "electric_scooter", "lon": -77.03446466666666, "bike_id": "77b1c834c08dde9a5eacf4a41c1d8ea2", "rental_uris": {"android": "https://dc.lft.to/lastmile_qr_scan", "ios": "https://dc.lft.to/lastmile_qr_scan"}, "name": "77b1c834c08dde9a5eacf4a41c1d8ea2", "is_reserved": 0}, {"is_disabled": 0, "fusion_lon": 0.0, "fusion_lat": 0.0, "lat": 38.92017666666667, "type": "electric_bike", "lon": -76.973007, "bike_id": "4494cd6523311145412848ca7cda7410", "rental_uris": {"android": "https://dc.lft.to/lastmile_qr_scan", "ios": "https://dc.lft.to/lastmile_qr_scan"}, "name": "4494cd6523311145412848ca7cda7410", "is_reserved": 0}, {"is_disabled": 0, "fusion_lon": 0.0, "fusion_lat": 0.0, "lat": 38.9054455, "type": "electric_scooter", "lon": -77.0466785, "bike_id": "2cbc38095cc18bac7bf1cfa85be737cf", "rental_uris": {"android": "https://dc.lft.to/lastmile_qr_scan", "ios": "https://dc.lft.to/lastmile_qr_scan"}, "name": "2cbc38095cc18bac7bf1cfa85be737cf", "is_reserved": 0}, {"is_disabled": 0, "fusion_lon": 0.0, "fusion_lat": 0.0, "lat": 38.89931683333333, "type": "electric_scooter", "lon": -77.04034666666666, "bike_id": "2b9fa7625880a586be2bb42bc12fe890", "rental_uris": {"android": "https://dc.lft.to/lastmile_qr_scan", "ios": "https://dc.lft.to/lastmile_qr_scan"}, "name": "2b9fa7625880a586be2bb42bc12fe890", "is_reserved": 0}, {"is_disabled": 0, "fusion_lon": 0.0, "fusion_lat": 0.0, "lat": 38.859723833333334, "type": "electric_scooter", "lon": -76.98415033333333, "bike_id": "b7f9fc2f559cf7ae3375aed310e0e4e0", "rental_uris": {"android": "https://dc.lft.to/lastmile_qr_scan", "ios": "https://dc.lft.to/lastmile_qr_scan"}, "name": "b7f9fc2f559cf7ae3375aed310e0e4e0", "is_reserved": 0}, {"is_disabled": 0, "fusion_lon": 0.0, "fusion_lat": 0.0, "lat": 38.803615666666666, "type": "electric_bike", "lon": -77.0389625, "bike_id": "5ccb48c3ab0ec8ddb10886797991c400", "rental_uris": {"android": "https://dc.lft.to/lastmile_qr_scan", "ios": "https://dc.lft.to/lastmile_qr_scan"}, "name": "5ccb48c3ab0ec8ddb10886797991c400", "is_reserved": 0}, {"is_disabled": 0, "fusion_lon": 0.0, "fusion_lat": 0.0, "lat": 38.89822183333333, "type": "electric_bike", "lon": -77.02982366666667, "bike_id": "6f5feda13dd34ada32d47971ffc40abb", "rental_uris": {"android": "https://dc.lft.to/lastmile_qr_scan", "ios": "https://dc.lft.to/lastmile_qr_scan"}, "name": "6f5feda13dd34ada32d47971ffc40abb", "is_reserved": 0}, {"is_disabled": 0, "fusion_lon": 0.0, "fusion_lat": 0.0, "lat": 38.902800666666664, "type": "electric_scooter", "lon": -77.03453833333333, "bike_id": "fc68498365a9b9612d213794ce8b8a2a", "rental_uris": {"android": "https://dc.lft.to/lastmile_qr_scan", "ios": "https://dc.lft.to/lastmile_qr_scan"}, "name": "fc68498365a9b9612d213794ce8b8a2a", "is_reserved": 0}, {"is_disabled": 0, "fusion_lon": 0.0, "fusion_lat": 0.0, "lat": 38.928441666666664, "type": "electric_scooter", "lon": -76.99767183333333, "bike_id": "8ebd02654e07091314fe1df6ff1ba668", "rental_uris": {"android": "https://dc.lft.to/lastmile_qr_scan", "ios": "https://dc.lft.to/lastmile_qr_scan"}, "name": "8ebd02654e07091314fe1df6ff1ba668", "is_reserved": 0}, {"is_disabled": 0, "fusion_lon": 0.0, "fusion_lat": 0.0, "lat": 38.9316905, "type": "electric_scooter", "lon": -77.0728855, "bike_id": "469f9c9f2b33235ab418c4bef8ad46b4", "rental_uris": {"android": "https://dc.lft.to/lastmile_qr_scan", "ios": "https://dc.lft.to/lastmile_qr_scan"}, "name": "469f9c9f2b33235ab418c4bef8ad46b4", "is_reserved": 0}, {"is_disabled": 0, "fusion_lon": 0.0, "fusion_lat": 0.0, "lat": 38.91809333333333, "type": "electric_scooter", "lon": -77.03659833333333, "bike_id": "4d024c3ab572d0d310273c33eaac944a", "rental_uris": {"android": "https://dc.lft.to/lastmile_qr_scan", "ios": "https://dc.lft.to/lastmile_qr_scan"}, "name": "4d024c3ab572d0d310273c33eaac944a", "is_reserved": 0}, {"is_disabled": 0, "fusion_lon": 0.0, "fusion_lat": 0.0, "lat": 38.90776366666667, "type": "electric_scooter", "lon": -77.04669516666667, "bike_id": "9a8e7594ee82471fc367c5d48cda1ed9", "rental_uris": {"android": "https://dc.lft.to/lastmile_qr_scan", "ios": "https://dc.lft.to/lastmile_qr_scan"}, "name": "9a8e7594ee82471fc367c5d48cda1ed9", "is_reserved": 0}, {"is_disabled": 0, "fusion_lon": 0.0, "fusion_lat": 0.0, "lat": 38.91344933333333, "type": "electric_scooter", "lon": -77.04155533333333, "bike_id": "0131f7ff46d1e6f222f4d43a421562b9", "rental_uris": {"android": "https://dc.lft.to/lastmile_qr_scan", "ios": "https://dc.lft.to/lastmile_qr_scan"}, "name": "0131f7ff46d1e6f222f4d43a421562b9", "is_reserved": 0}, {"is_disabled": 0, "fusion_lon": 0.0, "fusion_lat": 0.0, "lat": 38.913743833333335, "type": "electric_scooter", "lon": -77.039549, "bike_id": "f2dc3b7abec06fdc8c65adac1dc1b22a", "rental_uris": {"android": "https://dc.lft.to/lastmile_qr_scan", "ios": "https://dc.lft.to/lastmile_qr_scan"}, "name": "f2dc3b7abec06fdc8c65adac1dc1b22a", "is_reserved": 0}, {"is_disabled": 0, "fusion_lon": 0.0, "fusion_lat": 0.0, "lat": 38.852782, "type": "electric_bike", "lon": -76.98157633333334, "bike_id": "282c1d8851a08f14b41b34899ce965b5", "rental_uris": {"android": "https://dc.lft.to/lastmile_qr_scan", "ios": "https://dc.lft.to/lastmile_qr_scan"}, "name": "282c1d8851a08f14b41b34899ce965b5", "is_reserved": 0}, {"is_disabled": 0, "fusion_lon": 0.0, "fusion_lat": 0.0, "lat": 38.9160755, "type": "electric_scooter", "lon": -77.04028983333333, "bike_id": "637a2a45a0112c2d0d287d64ef757551", "rental_uris": {"android": "https://dc.lft.to/lastmile_qr_scan", "ios": "https://dc.lft.to/lastmile_qr_scan"}, "name": "637a2a45a0112c2d0d287d64ef757551", "is_reserved": 0}, {"is_disabled": 0, "fusion_lon": 0.0, "fusion_lat": 0.0, "lat": 38.892185833333336, "type": "electric_scooter", "lon": -77.04050266666667, "bike_id": "4b590bb3a8a4c2512f79516df94feaa7", "rental_uris": {"android": "https://dc.lft.to/lastmile_qr_scan", "ios": "https://dc.lft.to/lastmile_qr_scan"}, "name": "4b590bb3a8a4c2512f79516df94feaa7", "is_reserved": 0}, {"is_disabled": 0, "fusion_lon": 0.0, "fusion_lat": 0.0, "lat": 38.902707, "type": "electric_scooter", "lon": -77.034605, "bike_id": "d5a351d0346b2a31f4c827bde52cf84b", "rental_uris": {"android": "https://dc.lft.to/lastmile_qr_scan", "ios": "https://dc.lft.to/lastmile_qr_scan"}, "name": "d5a351d0346b2a31f4c827bde52cf84b", "is_reserved": 0}, {"is_disabled": 0, "fusion_lon": 0.0, "fusion_lat": 0.0, "lat": 38.99158, "type": "electric_bike", "lon": -77.025979, "bike_id": "27bb21c5b3152e2bf3aafa3a6d7e5e96", "rental_uris": {"android": "https://dc.lft.to/lastmile_qr_scan", "ios": "https://dc.lft.to/lastmile_qr_scan"}, "name": "27bb21c5b3152e2bf3aafa3a6d7e5e96", "is_reserved": 0}, {"is_disabled": 0, "fusion_lon": 0.0, "fusion_lat": 0.0, "lat": 38.934109, "type": "electric_scooter", "lon": -77.03890316666667, "bike_id": "40a26afe790420093f1bbf74358afe41", "rental_uris": {"android": "https://dc.lft.to/lastmile_qr_scan", "ios": "https://dc.lft.to/lastmile_qr_scan"}, "name": "40a26afe790420093f1bbf74358afe41", "is_reserved": 0}, {"is_disabled": 0, "fusion_lon": 0.0, "fusion_lat": 0.0, "lat": 38.904704, "type": "electric_bike", "lon": -76.92951283333333, "bike_id": "f0c5436e90d6376c5216558467a4da76", "rental_uris": {"android": "https://dc.lft.to/lastmile_qr_scan", "ios": "https://dc.lft.to/lastmile_qr_scan"}, "name": "f0c5436e90d6376c5216558467a4da76", "is_reserved": 0}, {"is_disabled": 0, "fusion_lon": 0.0, "fusion_lat": 0.0, "lat": 38.89533266666667, "type": "electric_scooter", "lon": -77.02817266666666, "bike_id": "e57760e354973926888969d6155d1e25", "rental_uris": {"android": "https://dc.lft.to/lastmile_qr_scan", "ios": "https://dc.lft.to/lastmile_qr_scan"}, "name": "e57760e354973926888969d6155d1e25", "is_reserved": 0}, {"is_disabled": 0, "fusion_lon": 0.0, "fusion_lat": 0.0, "lat": 38.92615216666667, "type": "electric_scooter", "lon": -77.041949, "bike_id": "f8b6b967c0e3e250d5901c640671d3e2", "rental_uris": {"android": "https://dc.lft.to/lastmile_qr_scan", "ios": "https://dc.lft.to/lastmile_qr_scan"}, "name": "f8b6b967c0e3e250d5901c640671d3e2", "is_reserved": 0}, {"is_disabled": 0, "fusion_lon": 0.0, "fusion_lat": 0.0, "lat": 38.9047785, "type": "electric_scooter", "lon": -77.04872616666667, "bike_id": "61bf4b93e5bcc4d79f4e33816602c4ee", "rental_uris": {"android": "https://dc.lft.to/lastmile_qr_scan", "ios": "https://dc.lft.to/lastmile_qr_scan"}, "name": "61bf4b93e5bcc4d79f4e33816602c4ee", "is_reserved": 0}, {"is_disabled": 0, "fusion_lon": 0.0, "fusion_lat": 0.0, "lat": 38.996651166666666, "type": "electric_bike", "lon": -76.99142966666666, "bike_id": "8b0fc6c7cb64a0b9c00bb890e508ce49", "rental_uris": {"android": "https://dc.lft.to/lastmile_qr_scan", "ios": "https://dc.lft.to/lastmile_qr_scan"}, "name": "8b0fc6c7cb64a0b9c00bb890e508ce49", "is_reserved": 0}, {"is_disabled": 0, "fusion_lon": 0.0, "fusion_lat": 0.0, "lat": 38.89825483333333, "type": "electric_scooter", "lon": -77.0435175, "bike_id": "9ed3d1b9c2fef53448ef57cd8849e65e", "rental_uris": {"android": "https://dc.lft.to/lastmile_qr_scan", "ios": "https://dc.lft.to/lastmile_qr_scan"}, "name": "9ed3d1b9c2fef53448ef57cd8849e65e", "is_reserved": 0}, {"is_disabled": 0, "fusion_lon": 0.0, "fusion_lat": 0.0, "lat": 38.94456916666667, "type": "electric_scooter", "lon": -77.06020366666667, "bike_id": "a1adbca269051c2638602fbcf26a01d0", "rental_uris": {"android": "https://dc.lft.to/lastmile_qr_scan", "ios": "https://dc.lft.to/lastmile_qr_scan"}, "name": "a1adbca269051c2638602fbcf26a01d0", "is_reserved": 0}, {"is_disabled": 0, "fusion_lon": 0.0, "fusion_lat": 0.0, "lat": 38.86368266666667, "type": "electric_scooter", "lon": -77.01365083333333, "bike_id": "d172797e454b0f4a0e2ade773ba233ee", "rental_uris": {"android": "https://dc.lft.to/lastmile_qr_scan", "ios": "https://dc.lft.to/lastmile_qr_scan"}, "name": "d172797e454b0f4a0e2ade773ba233ee", "is_reserved": 0}, {"is_disabled": 0, "fusion_lon": 0.0, "fusion_lat": 0.0, "lat": 38.87729866666667, "type": "electric_scooter", "lon": -76.996323, "bike_id": "7fae7696158209e8e0f6925d2bd3165d", "rental_uris": {"android": "https://dc.lft.to/lastmile_qr_scan", "ios": "https://dc.lft.to/lastmile_qr_scan"}, "name": "7fae7696158209e8e0f6925d2bd3165d", "is_reserved": 0}, {"is_disabled": 0, "fusion_lon": 0.0, "fusion_lat": 0.0, "lat": 38.905586, "type": "electric_scooter", "lon": -77.017881, "bike_id": "1377b81fb06b1b450aff5d65c0e6f341", "rental_uris": {"android": "https://dc.lft.to/lastmile_qr_scan", "ios": "https://dc.lft.to/lastmile_qr_scan"}, "name": "1377b81fb06b1b450aff5d65c0e6f341", "is_reserved": 0}, {"is_disabled": 0, "fusion_lon": 0.0, "fusion_lat": 0.0, "lat": 38.91581333333333, "type": "electric_scooter", "lon": -77.03180833333333, "bike_id": "010d8317a5311eff57ca7073910544cd", "rental_uris": {"android": "https://dc.lft.to/lastmile_qr_scan", "ios": "https://dc.lft.to/lastmile_qr_scan"}, "name": "010d8317a5311eff57ca7073910544cd", "is_reserved": 0}, {"is_disabled": 0, "fusion_lon": 0.0, "fusion_lat": 0.0, "lat": 38.946205666666664, "type": "electric_bike", "lon": -76.93412383333333, "bike_id": "70015860fbdbdcda58a35e40b9e65211", "rental_uris": {"android": "https://dc.lft.to/lastmile_qr_scan", "ios": "https://dc.lft.to/lastmile_qr_scan"}, "name": "70015860fbdbdcda58a35e40b9e65211", "is_reserved": 0}, {"is_disabled": 0, "fusion_lon": 0.0, "fusion_lat": 0.0, "lat": 38.8982675, "type": "electric_scooter", "lon": -76.9465085, "bike_id": "75c2d7de276ba355ab8dbb5aadd20d22", "rental_uris": {"android": "https://dc.lft.to/lastmile_qr_scan", "ios": "https://dc.lft.to/lastmile_qr_scan"}, "name": "75c2d7de276ba355ab8dbb5aadd20d22", "is_reserved": 0}, {"is_disabled": 0, "fusion_lon": 0.0, "fusion_lat": 0.0, "lat": 38.91687666666667, "type": "electric_scooter", "lon": -77.02590583333334, "bike_id": "2023a04f95f13628093d22e4754253fb", "rental_uris": {"android": "https://dc.lft.to/lastmile_qr_scan", "ios": "https://dc.lft.to/lastmile_qr_scan"}, "name": "2023a04f95f13628093d22e4754253fb", "is_reserved": 0}, {"is_disabled": 0, "fusion_lon": 0.0, "fusion_lat": 0.0, "lat": 38.903841, "type": "electric_scooter", "lon": -76.990027, "bike_id": "1e08fc1e238c0c62e52eb8c8605b8c42", "rental_uris": {"android": "https://dc.lft.to/lastmile_qr_scan", "ios": "https://dc.lft.to/lastmile_qr_scan"}, "name": "1e08fc1e238c0c62e52eb8c8605b8c42", "is_reserved": 0}, {"is_disabled": 0, "fusion_lon": 0.0, "fusion_lat": 0.0, "lat": 38.909685833333334, "type": "electric_scooter", "lon": -77.03618833333333, "bike_id": "8ac98adbeef383ed69f9f04a7b407544", "rental_uris": {"android": "https://dc.lft.to/lastmile_qr_scan", "ios": "https://dc.lft.to/lastmile_qr_scan"}, "name": "8ac98adbeef383ed69f9f04a7b407544", "is_reserved": 0}, {"is_disabled": 0, "fusion_lon": 0.0, "fusion_lat": 0.0, "lat": 38.8695435, "type": "electric_scooter", "lon": -76.97591766666666, "bike_id": "ab0a75c8dbcc6c24a880b212e22fd1d0", "rental_uris": {"android": "https://dc.lft.to/lastmile_qr_scan", "ios": "https://dc.lft.to/lastmile_qr_scan"}, "name": "ab0a75c8dbcc6c24a880b212e22fd1d0", "is_reserved": 0}, {"is_disabled": 0, "fusion_lon": 0.0, "fusion_lat": 0.0, "lat": 38.935670333333334, "type": "electric_scooter", "lon": -77.058734, "bike_id": "7edf04850240fbbd016d2983553863b2", "rental_uris": {"android": "https://dc.lft.to/lastmile_qr_scan", "ios": "https://dc.lft.to/lastmile_qr_scan"}, "name": "7edf04850240fbbd016d2983553863b2", "is_reserved": 0}, {"is_disabled": 0, "fusion_lon": 0.0, "fusion_lat": 0.0, "lat": 38.8969675, "type": "electric_scooter", "lon": -77.02438233333334, "bike_id": "01e5f0b1cd31f4fde13423540568d5cf", "rental_uris": {"android": "https://dc.lft.to/lastmile_qr_scan", "ios": "https://dc.lft.to/lastmile_qr_scan"}, "name": "01e5f0b1cd31f4fde13423540568d5cf", "is_reserved": 0}, {"is_disabled": 0, "fusion_lon": 0.0, "fusion_lat": 0.0, "lat": 38.899071166666666, "type": "electric_scooter", "lon": -76.933956, "bike_id": "b2f86666ab76291d900c6388ba0dcdbd", "rental_uris": {"android": "https://dc.lft.to/lastmile_qr_scan", "ios": "https://dc.lft.to/lastmile_qr_scan"}, "name": "b2f86666ab76291d900c6388ba0dcdbd", "is_reserved": 0}, {"is_disabled": 0, "fusion_lon": 0.0, "fusion_lat": 0.0, "lat": 38.91810783333333, "type": "electric_scooter", "lon": -77.0247655, "bike_id": "c088a02749e9d7e1f776a2ff9af3d949", "rental_uris": {"android": "https://dc.lft.to/lastmile_qr_scan", "ios": "https://dc.lft.to/lastmile_qr_scan"}, "name": "c088a02749e9d7e1f776a2ff9af3d949", "is_reserved": 0}, {"is_disabled": 0, "fusion_lon": 0.0, "fusion_lat": 0.0, "lat": 38.90574866666667, "type": "electric_scooter", "lon": -77.04087566666666, "bike_id": "98d12a82f31a05d2b1c64666723e1150", "rental_uris": {"android": "https://dc.lft.to/lastmile_qr_scan", "ios": "https://dc.lft.to/lastmile_qr_scan"}, "name": "98d12a82f31a05d2b1c64666723e1150", "is_reserved": 0}, {"is_disabled": 0, "fusion_lon": 0.0, "fusion_lat": 0.0, "lat": 38.93494616666667, "type": "electric_scooter", "lon": -77.0242355, "bike_id": "749f2ada71c2a6ac998618d76b6ab5b6", "rental_uris": {"android": "https://dc.lft.to/lastmile_qr_scan", "ios": "https://dc.lft.to/lastmile_qr_scan"}, "name": "749f2ada71c2a6ac998618d76b6ab5b6", "is_reserved": 0}, {"is_disabled": 0, "fusion_lon": 0.0, "fusion_lat": 0.0, "lat": 38.8426905, "type": "electric_bike", "lon": -76.988413, "bike_id": "a336758fd9f8709c64544d434b7e288d", "rental_uris": {"android": "https://dc.lft.to/lastmile_qr_scan", "ios": "https://dc.lft.to/lastmile_qr_scan"}, "name": "a336758fd9f8709c64544d434b7e288d", "is_reserved": 0}, {"is_disabled": 0, "fusion_lon": 0.0, "fusion_lat": 0.0, "lat": 38.96904333333333, "type": "electric_bike", "lon": -77.02609333333334, "bike_id": "c77564d35c704e388939bdcf595f0b06", "rental_uris": {"android": "https://dc.lft.to/lastmile_qr_scan", "ios": "https://dc.lft.to/lastmile_qr_scan"}, "name": "c77564d35c704e388939bdcf595f0b06", "is_reserved": 0}, {"is_disabled": 0, "fusion_lon": 0.0, "fusion_lat": 0.0, "lat": 38.9027035, "type": "electric_scooter", "lon": -77.03454283333333, "bike_id": "e1320c04e8ca2b8babe86c6d5e31c7e1", "rental_uris": {"android": "https://dc.lft.to/lastmile_qr_scan", "ios": "https://dc.lft.to/lastmile_qr_scan"}, "name": "e1320c04e8ca2b8babe86c6d5e31c7e1", "is_reserved": 0}, {"is_disabled": 0, "fusion_lon": 0.0, "fusion_lat": 0.0, "lat": 38.916882333333334, "type": "electric_scooter", "lon": -77.03637433333333, "bike_id": "19f19f81621a0fbd0241b051badcc994", "rental_uris": {"android": "https://dc.lft.to/lastmile_qr_scan", "ios": "https://dc.lft.to/lastmile_qr_scan"}, "name": "19f19f81621a0fbd0241b051badcc994", "is_reserved": 0}, {"is_disabled": 0, "fusion_lon": 0.0, "fusion_lat": 0.0, "lat": 38.901664333333336, "type": "electric_scooter", "lon": -77.05886883333334, "bike_id": "3fa65b23eb878fef7379103582983ac6", "rental_uris": {"android": "https://dc.lft.to/lastmile_qr_scan", "ios": "https://dc.lft.to/lastmile_qr_scan"}, "name": "3fa65b23eb878fef7379103582983ac6", "is_reserved": 0}, {"is_disabled": 0, "fusion_lon": 0.0, "fusion_lat": 0.0, "lat": 38.9027115, "type": "electric_scooter", "lon": -77.03443416666667, "bike_id": "166d0cfe783e62708de50d83e20746f4", "rental_uris": {"android": "https://dc.lft.to/lastmile_qr_scan", "ios": "https://dc.lft.to/lastmile_qr_scan"}, "name": "166d0cfe783e62708de50d83e20746f4", "is_reserved": 0}, {"is_disabled": 0, "fusion_lon": 0.0, "fusion_lat": 0.0, "lat": 38.900242666666664, "type": "electric_scooter", "lon": -77.0446355, "bike_id": "8ee9308f4ceb6b3ed3d70593222ab2d3", "rental_uris": {"android": "https://dc.lft.to/lastmile_qr_scan", "ios": "https://dc.lft.to/lastmile_qr_scan"}, "name": "8ee9308f4ceb6b3ed3d70593222ab2d3", "is_reserved": 0}, {"is_disabled": 0, "fusion_lon": 0.0, "fusion_lat": 0.0, "lat": 38.905244333333336, "type": "electric_scooter", "lon": -77.022069, "bike_id": "218cf623c4c0e551f22374afc11c33a3", "rental_uris": {"android": "https://dc.lft.to/lastmile_qr_scan", "ios": "https://dc.lft.to/lastmile_qr_scan"}, "name": "218cf623c4c0e551f22374afc11c33a3", "is_reserved": 0}, {"is_disabled": 0, "fusion_lon": 0.0, "fusion_lat": 0.0, "lat": 38.957859666666664, "type": "electric_scooter", "lon": -77.02469683333334, "bike_id": "ffc02c9f4963530a3653d54ca00f2c06", "rental_uris": {"android": "https://dc.lft.to/lastmile_qr_scan", "ios": "https://dc.lft.to/lastmile_qr_scan"}, "name": "ffc02c9f4963530a3653d54ca00f2c06", "is_reserved": 0}, {"is_disabled": 0, "fusion_lon": 0.0, "fusion_lat": 0.0, "lat": 38.8995185, "type": "electric_scooter", "lon": -77.031826, "bike_id": "da0f5997cc1e433f710ac0177e28792c", "rental_uris": {"android": "https://dc.lft.to/lastmile_qr_scan", "ios": "https://dc.lft.to/lastmile_qr_scan"}, "name": "da0f5997cc1e433f710ac0177e28792c", "is_reserved": 0}, {"is_disabled": 0, "fusion_lon": 0.0, "fusion_lat": 0.0, "lat": 38.912826, "type": "electric_scooter", "lon": -76.98692283333334, "bike_id": "32cce19c49f3caa0a8fbe16dde634b40", "rental_uris": {"android": "https://dc.lft.to/lastmile_qr_scan", "ios": "https://dc.lft.to/lastmile_qr_scan"}, "name": "32cce19c49f3caa0a8fbe16dde634b40", "is_reserved": 0}, {"is_disabled": 0, "fusion_lon": 0.0, "fusion_lat": 0.0, "lat": 38.93966483333333, "type": "electric_scooter", "lon": -77.03011016666666, "bike_id": "1f97661e982602e11cbc134c9053665c", "rental_uris": {"android": "https://dc.lft.to/lastmile_qr_scan", "ios": "https://dc.lft.to/lastmile_qr_scan"}, "name": "1f97661e982602e11cbc134c9053665c", "is_reserved": 0}, {"is_disabled": 0, "fusion_lon": 0.0, "fusion_lat": 0.0, "lat": 38.91717516666667, "type": "electric_scooter", "lon": -77.02607233333333, "bike_id": "d8061f751e96ae1f0cffb73dfe57e7f3", "rental_uris": {"android": "https://dc.lft.to/lastmile_qr_scan", "ios": "https://dc.lft.to/lastmile_qr_scan"}, "name": "d8061f751e96ae1f0cffb73dfe57e7f3", "is_reserved": 0}, {"is_disabled": 0, "fusion_lon": 0.0, "fusion_lat": 0.0, "lat": 38.90862666666666, "type": "electric_scooter", "lon": -77.06395783333333, "bike_id": "049c4d0e14c5dfac7af1ecaa0d9ae081", "rental_uris": {"android": "https://dc.lft.to/lastmile_qr_scan", "ios": "https://dc.lft.to/lastmile_qr_scan"}, "name": "049c4d0e14c5dfac7af1ecaa0d9ae081", "is_reserved": 0}, {"is_disabled": 0, "fusion_lon": 0.0, "fusion_lat": 0.0, "lat": 38.916303, "type": "electric_scooter", "lon": -77.03844116666667, "bike_id": "42bdfa564ebab35a4ed975e44bed271d", "rental_uris": {"android": "https://dc.lft.to/lastmile_qr_scan", "ios": "https://dc.lft.to/lastmile_qr_scan"}, "name": "42bdfa564ebab35a4ed975e44bed271d", "is_reserved": 0}, {"is_disabled": 0, "fusion_lon": 0.0, "fusion_lat": 0.0, "lat": 38.910355333333335, "type": "electric_scooter", "lon": -77.04658416666666, "bike_id": "fad6f92b69208fa1172addf4cd31ceb7", "rental_uris": {"android": "https://dc.lft.to/lastmile_qr_scan", "ios": "https://dc.lft.to/lastmile_qr_scan"}, "name": "fad6f92b69208fa1172addf4cd31ceb7", "is_reserved": 0}, {"is_disabled": 0, "fusion_lon": 0.0, "fusion_lat": 0.0, "lat": 38.8837625, "type": "electric_scooter", "lon": -76.9237365, "bike_id": "4ce755547cd4f78a24d9e2113b29040b", "rental_uris": {"android": "https://dc.lft.to/lastmile_qr_scan", "ios": "https://dc.lft.to/lastmile_qr_scan"}, "name": "4ce755547cd4f78a24d9e2113b29040b", "is_reserved": 0}, {"is_disabled": 0, "fusion_lon": 0.0, "fusion_lat": 0.0, "lat": 38.930933833333334, "type": "electric_scooter", "lon": -77.03425683333333, "bike_id": "faba90df925eb99773f3f62e7c5681f8", "rental_uris": {"android": "https://dc.lft.to/lastmile_qr_scan", "ios": "https://dc.lft.to/lastmile_qr_scan"}, "name": "faba90df925eb99773f3f62e7c5681f8", "is_reserved": 0}, {"is_disabled": 0, "fusion_lon": 0.0, "fusion_lat": 0.0, "lat": 38.925898833333335, "type": "electric_scooter", "lon": -77.0570775, "bike_id": "020875905e8b875106f087c1fc1d4ec3", "rental_uris": {"android": "https://dc.lft.to/lastmile_qr_scan", "ios": "https://dc.lft.to/lastmile_qr_scan"}, "name": "020875905e8b875106f087c1fc1d4ec3", "is_reserved": 0}, {"is_disabled": 0, "fusion_lon": 0.0, "fusion_lat": 0.0, "lat": 38.91177883333334, "type": "electric_scooter", "lon": -77.034993, "bike_id": "dd6b593b4611f8ff4651d9503adf940a", "rental_uris": {"android": "https://dc.lft.to/lastmile_qr_scan", "ios": "https://dc.lft.to/lastmile_qr_scan"}, "name": "dd6b593b4611f8ff4651d9503adf940a", "is_reserved": 0}, {"is_disabled": 0, "fusion_lon": 0.0, "fusion_lat": 0.0, "lat": 38.906789, "type": "electric_scooter", "lon": -76.98000366666666, "bike_id": "f485ac0d7c156b614cca180549f43cdc", "rental_uris": {"android": "https://dc.lft.to/lastmile_qr_scan", "ios": "https://dc.lft.to/lastmile_qr_scan"}, "name": "f485ac0d7c156b614cca180549f43cdc", "is_reserved": 0}, {"is_disabled": 0, "fusion_lon": 0.0, "fusion_lat": 0.0, "lat": 38.897147333333336, "type": "electric_scooter", "lon": -77.0079685, "bike_id": "343887b46e83df78216dff02c2907351", "rental_uris": {"android": "https://dc.lft.to/lastmile_qr_scan", "ios": "https://dc.lft.to/lastmile_qr_scan"}, "name": "343887b46e83df78216dff02c2907351", "is_reserved": 0}, {"is_disabled": 0, "fusion_lon": 0.0, "fusion_lat": 0.0, "lat": 38.922374, "type": "electric_scooter", "lon": -77.03893916666667, "bike_id": "3bfe4c96e47a6e8c733552f5bed81b9f", "rental_uris": {"android": "https://dc.lft.to/lastmile_qr_scan", "ios": "https://dc.lft.to/lastmile_qr_scan"}, "name": "3bfe4c96e47a6e8c733552f5bed81b9f", "is_reserved": 0}, {"is_disabled": 0, "fusion_lon": 0.0, "fusion_lat": 0.0, "lat": 38.935965833333334, "type": "electric_bike", "lon": -77.02116216666667, "bike_id": "192712f88295d372cc6da5fd60183b70", "rental_uris": {"android": "https://dc.lft.to/lastmile_qr_scan", "ios": "https://dc.lft.to/lastmile_qr_scan"}, "name": "192712f88295d372cc6da5fd60183b70", "is_reserved": 0}, {"is_disabled": 0, "fusion_lon": 0.0, "fusion_lat": 0.0, "lat": 38.87913, "type": "electric_scooter", "lon": -77.01737316666667, "bike_id": "dd77b1c5c5a9de1ac79fb47e004987f2", "rental_uris": {"android": "https://dc.lft.to/lastmile_qr_scan", "ios": "https://dc.lft.to/lastmile_qr_scan"}, "name": "dd77b1c5c5a9de1ac79fb47e004987f2", "is_reserved": 0}, {"is_disabled": 0, "fusion_lon": 0.0, "fusion_lat": 0.0, "lat": 38.9088205, "type": "electric_scooter", "lon": -77.035296, "bike_id": "8ddaf773b671c9b5f988caeb6c8f1864", "rental_uris": {"android": "https://dc.lft.to/lastmile_qr_scan", "ios": "https://dc.lft.to/lastmile_qr_scan"}, "name": "8ddaf773b671c9b5f988caeb6c8f1864", "is_reserved": 0}, {"is_disabled": 0, "fusion_lon": 0.0, "fusion_lat": 0.0, "lat": 38.90144083333333, "type": "electric_scooter", "lon": -77.02307933333333, "bike_id": "fc752669c5ca4f74478e6a6ba52599d2", "rental_uris": {"android": "https://dc.lft.to/lastmile_qr_scan", "ios": "https://dc.lft.to/lastmile_qr_scan"}, "name": "fc752669c5ca4f74478e6a6ba52599d2", "is_reserved": 0}, {"is_disabled": 0, "fusion_lon": 0.0, "fusion_lat": 0.0, "lat": 38.90543783333333, "type": "electric_scooter", "lon": -77.032811, "bike_id": "3fcecee0981141ea3259d6dabce73f51", "rental_uris": {"android": "https://dc.lft.to/lastmile_qr_scan", "ios": "https://dc.lft.to/lastmile_qr_scan"}, "name": "3fcecee0981141ea3259d6dabce73f51", "is_reserved": 0}, {"is_disabled": 0, "fusion_lon": 0.0, "fusion_lat": 0.0, "lat": 38.865230833333335, "type": "electric_scooter", "lon": -76.9896755, "bike_id": "54b601fb68d4660c76da16bba0eb17be", "rental_uris": {"android": "https://dc.lft.to/lastmile_qr_scan", "ios": "https://dc.lft.to/lastmile_qr_scan"}, "name": "54b601fb68d4660c76da16bba0eb17be", "is_reserved": 0}, {"is_disabled": 0, "fusion_lon": 0.0, "fusion_lat": 0.0, "lat": 38.94196733333333, "type": "electric_scooter", "lon": -77.025894, "bike_id": "c377094b3f77d08a3b7d35b2fde713d5", "rental_uris": {"android": "https://dc.lft.to/lastmile_qr_scan", "ios": "https://dc.lft.to/lastmile_qr_scan"}, "name": "c377094b3f77d08a3b7d35b2fde713d5", "is_reserved": 0}, {"is_disabled": 0, "fusion_lon": 0.0, "fusion_lat": 0.0, "lat": 38.92396866666667, "type": "electric_scooter", "lon": -77.040784, "bike_id": "329bc95693f3b5fd8ca5531b8cfedee2", "rental_uris": {"android": "https://dc.lft.to/lastmile_qr_scan", "ios": "https://dc.lft.to/lastmile_qr_scan"}, "name": "329bc95693f3b5fd8ca5531b8cfedee2", "is_reserved": 0}, {"is_disabled": 0, "fusion_lon": 0.0, "fusion_lat": 0.0, "lat": 38.959555333333334, "type": "electric_bike", "lon": -77.02511966666667, "bike_id": "c12191df1ca3ed64bc6692dcb3e35915", "rental_uris": {"android": "https://dc.lft.to/lastmile_qr_scan", "ios": "https://dc.lft.to/lastmile_qr_scan"}, "name": "c12191df1ca3ed64bc6692dcb3e35915", "is_reserved": 0}, {"is_disabled": 0, "fusion_lon": 0.0, "fusion_lat": 0.0, "lat": 38.876823333333334, "type": "electric_scooter", "lon": -77.0006235, "bike_id": "be39a0396bcec8a9d1df2156b1697f94", "rental_uris": {"android": "https://dc.lft.to/lastmile_qr_scan", "ios": "https://dc.lft.to/lastmile_qr_scan"}, "name": "be39a0396bcec8a9d1df2156b1697f94", "is_reserved": 0}, {"is_disabled": 0, "fusion_lon": 0.0, "fusion_lat": 0.0, "lat": 38.91602016666667, "type": "electric_scooter", "lon": -77.03137566666666, "bike_id": "d9f0d76401673ebd683352579e490ded", "rental_uris": {"android": "https://dc.lft.to/lastmile_qr_scan", "ios": "https://dc.lft.to/lastmile_qr_scan"}, "name": "d9f0d76401673ebd683352579e490ded", "is_reserved": 0}, {"is_disabled": 0, "fusion_lon": 0.0, "fusion_lat": 0.0, "lat": 38.90424433333333, "type": "electric_scooter", "lon": -77.02216483333333, "bike_id": "96f60a303f2bcb3792760abb259d425a", "rental_uris": {"android": "https://dc.lft.to/lastmile_qr_scan", "ios": "https://dc.lft.to/lastmile_qr_scan"}, "name": "96f60a303f2bcb3792760abb259d425a", "is_reserved": 0}, {"is_disabled": 0, "fusion_lon": 0.0, "fusion_lat": 0.0, "lat": 38.939417666666664, "type": "electric_scooter", "lon": -77.0608855, "bike_id": "b53486158683052a3f35cbaac2dac0e3", "rental_uris": {"android": "https://dc.lft.to/lastmile_qr_scan", "ios": "https://dc.lft.to/lastmile_qr_scan"}, "name": "b53486158683052a3f35cbaac2dac0e3", "is_reserved": 0}, {"is_disabled": 0, "fusion_lon": 0.0, "fusion_lat": 0.0, "lat": 38.85801583333333, "type": "electric_scooter", "lon": -76.98653166666666, "bike_id": "f967e581665d005c86989c99574d72ab", "rental_uris": {"android": "https://dc.lft.to/lastmile_qr_scan", "ios": "https://dc.lft.to/lastmile_qr_scan"}, "name": "f967e581665d005c86989c99574d72ab", "is_reserved": 0}, {"is_disabled": 0, "fusion_lon": 0.0, "fusion_lat": 0.0, "lat": 38.867116833333334, "type": "electric_scooter", "lon": -76.97917233333334, "bike_id": "da8a4fc780ce5e9f40aef1a9c5bd4169", "rental_uris": {"android": "https://dc.lft.to/lastmile_qr_scan", "ios": "https://dc.lft.to/lastmile_qr_scan"}, "name": "da8a4fc780ce5e9f40aef1a9c5bd4169", "is_reserved": 0}, {"is_disabled": 0, "fusion_lon": 0.0, "fusion_lat": 0.0, "lat": 38.935299666666666, "type": "electric_scooter", "lon": -77.02375916666666, "bike_id": "45e52fb67ee240783579ebee7d54fbd0", "rental_uris": {"android": "https://dc.lft.to/lastmile_qr_scan", "ios": "https://dc.lft.to/lastmile_qr_scan"}, "name": "45e52fb67ee240783579ebee7d54fbd0", "is_reserved": 0}, {"is_disabled": 0, "fusion_lon": 0.0, "fusion_lat": 0.0, "lat": 38.92350583333333, "type": "electric_scooter", "lon": -77.04142366666666, "bike_id": "94ebaf5a5502a3ffbbfee28c41b4632a", "rental_uris": {"android": "https://dc.lft.to/lastmile_qr_scan", "ios": "https://dc.lft.to/lastmile_qr_scan"}, "name": "94ebaf5a5502a3ffbbfee28c41b4632a", "is_reserved": 0}, {"is_disabled": 0, "fusion_lon": 0.0, "fusion_lat": 0.0, "lat": 38.984794, "type": "electric_scooter", "lon": -77.0265055, "bike_id": "a104ceb123cc0d4095cc68e1269f10aa", "rental_uris": {"android": "https://dc.lft.to/lastmile_qr_scan", "ios": "https://dc.lft.to/lastmile_qr_scan"}, "name": "a104ceb123cc0d4095cc68e1269f10aa", "is_reserved": 0}, {"is_disabled": 0, "fusion_lon": 0.0, "fusion_lat": 0.0, "lat": 38.884521666666664, "type": "electric_scooter", "lon": -76.95409016666666, "bike_id": "7ee0e01fcefe034ac27f2a6a8ee18ba6", "rental_uris": {"android": "https://dc.lft.to/lastmile_qr_scan", "ios": "https://dc.lft.to/lastmile_qr_scan"}, "name": "7ee0e01fcefe034ac27f2a6a8ee18ba6", "is_reserved": 0}, {"is_disabled": 0, "fusion_lon": 0.0, "fusion_lat": 0.0, "lat": 38.896642, "type": "electric_scooter", "lon": -77.02316166666667, "bike_id": "a8c42e69746dc1c3616d14906a98950e", "rental_uris": {"android": "https://dc.lft.to/lastmile_qr_scan", "ios": "https://dc.lft.to/lastmile_qr_scan"}, "name": "a8c42e69746dc1c3616d14906a98950e", "is_reserved": 0}, {"is_disabled": 0, "fusion_lon": 0.0, "fusion_lat": 0.0, "lat": 38.913379166666665, "type": "electric_scooter", "lon": -77.0521385, "bike_id": "0ff2f5c955d93678d47b7eaae38fdc49", "rental_uris": {"android": "https://dc.lft.to/lastmile_qr_scan", "ios": "https://dc.lft.to/lastmile_qr_scan"}, "name": "0ff2f5c955d93678d47b7eaae38fdc49", "is_reserved": 0}, {"is_disabled": 0, "fusion_lon": 0.0, "fusion_lat": 0.0, "lat": 38.929396833333335, "type": "electric_scooter", "lon": -77.01637633333333, "bike_id": "314c1a17f77fd7512716fe32f105b788", "rental_uris": {"android": "https://dc.lft.to/lastmile_qr_scan", "ios": "https://dc.lft.to/lastmile_qr_scan"}, "name": "314c1a17f77fd7512716fe32f105b788", "is_reserved": 0}, {"is_disabled": 0, "fusion_lon": 0.0, "fusion_lat": 0.0, "lat": 38.957409166666665, "type": "electric_scooter", "lon": -77.02433083333334, "bike_id": "b11c5fd0f004cd6dfc7809b9aa0faf22", "rental_uris": {"android": "https://dc.lft.to/lastmile_qr_scan", "ios": "https://dc.lft.to/lastmile_qr_scan"}, "name": "b11c5fd0f004cd6dfc7809b9aa0faf22", "is_reserved": 0}, {"is_disabled": 0, "fusion_lon": 0.0, "fusion_lat": 0.0, "lat": 38.90961166666666, "type": "electric_scooter", "lon": -77.0855895, "bike_id": "6b3d6521df4c3e9901b26d01eb89f92c", "rental_uris": {"android": "https://dc.lft.to/lastmile_qr_scan", "ios": "https://dc.lft.to/lastmile_qr_scan"}, "name": "6b3d6521df4c3e9901b26d01eb89f92c", "is_reserved": 0}, {"is_disabled": 0, "fusion_lon": 0.0, "fusion_lat": 0.0, "lat": 38.89497166666666, "type": "electric_scooter", "lon": -77.02286933333333, "bike_id": "08d501c015f0c4ef10fd5e1880e384b7", "rental_uris": {"android": "https://dc.lft.to/lastmile_qr_scan", "ios": "https://dc.lft.to/lastmile_qr_scan"}, "name": "08d501c015f0c4ef10fd5e1880e384b7", "is_reserved": 0}, {"is_disabled": 0, "fusion_lon": 0.0, "fusion_lat": 0.0, "lat": 39.022943166666664, "type": "electric_bike", "lon": -77.0210045, "bike_id": "aaf45eb32af13de144e885a38aefda78", "rental_uris": {"android": "https://dc.lft.to/lastmile_qr_scan", "ios": "https://dc.lft.to/lastmile_qr_scan"}, "name": "aaf45eb32af13de144e885a38aefda78", "is_reserved": 0}, {"is_disabled": 0, "fusion_lon": 0.0, "fusion_lat": 0.0, "lat": 38.93545183333333, "type": "electric_scooter", "lon": -77.0590485, "bike_id": "6ad76dee2d075747077091ad1ecd4521", "rental_uris": {"android": "https://dc.lft.to/lastmile_qr_scan", "ios": "https://dc.lft.to/lastmile_qr_scan"}, "name": "6ad76dee2d075747077091ad1ecd4521", "is_reserved": 0}, {"is_disabled": 0, "fusion_lon": 0.0, "fusion_lat": 0.0, "lat": 38.86522866666667, "type": "electric_scooter", "lon": -76.9896565, "bike_id": "8473cf57cfdea99c97e4c5469bafb4a0", "rental_uris": {"android": "https://dc.lft.to/lastmile_qr_scan", "ios": "https://dc.lft.to/lastmile_qr_scan"}, "name": "8473cf57cfdea99c97e4c5469bafb4a0", "is_reserved": 0}, {"is_disabled": 0, "fusion_lon": 0.0, "fusion_lat": 0.0, "lat": 38.9001765, "type": "electric_scooter", "lon": -77.04486316666667, "bike_id": "c290d9a0962f1459d8dd89b2daa540ee", "rental_uris": {"android": "https://dc.lft.to/lastmile_qr_scan", "ios": "https://dc.lft.to/lastmile_qr_scan"}, "name": "c290d9a0962f1459d8dd89b2daa540ee", "is_reserved": 0}, {"is_disabled": 0, "fusion_lon": 0.0, "fusion_lat": 0.0, "lat": 38.902409166666665, "type": "electric_scooter", "lon": -77.04687166666666, "bike_id": "040c00f16a6289930e33a99b543c45c9", "rental_uris": {"android": "https://dc.lft.to/lastmile_qr_scan", "ios": "https://dc.lft.to/lastmile_qr_scan"}, "name": "040c00f16a6289930e33a99b543c45c9", "is_reserved": 0}, {"is_disabled": 0, "fusion_lon": 0.0, "fusion_lat": 0.0, "lat": 38.91408766666667, "type": "electric_scooter", "lon": -77.0380475, "bike_id": "da7cea3c20f7d06ef479ed481e37503f", "rental_uris": {"android": "https://dc.lft.to/lastmile_qr_scan", "ios": "https://dc.lft.to/lastmile_qr_scan"}, "name": "da7cea3c20f7d06ef479ed481e37503f", "is_reserved": 0}, {"is_disabled": 0, "fusion_lon": 0.0, "fusion_lat": 0.0, "lat": 38.8955245, "type": "electric_scooter", "lon": -76.94871883333333, "bike_id": "6eb0c251a5b8a0cecbf477fd9d59e4a8", "rental_uris": {"android": "https://dc.lft.to/lastmile_qr_scan", "ios": "https://dc.lft.to/lastmile_qr_scan"}, "name": "6eb0c251a5b8a0cecbf477fd9d59e4a8", "is_reserved": 0}, {"is_disabled": 0, "fusion_lon": 0.0, "fusion_lat": 0.0, "lat": 38.904255666666664, "type": "electric_scooter", "lon": -77.05158433333334, "bike_id": "1be490b6f1fe6c277d3c67c12539b5ca", "rental_uris": {"android": "https://dc.lft.to/lastmile_qr_scan", "ios": "https://dc.lft.to/lastmile_qr_scan"}, "name": "1be490b6f1fe6c277d3c67c12539b5ca", "is_reserved": 0}, {"is_disabled": 0, "fusion_lon": 0.0, "fusion_lat": 0.0, "lat": 38.8812625, "type": "electric_scooter", "lon": -77.0166595, "bike_id": "95995e4dd5bda6b5fc6320d6108a3fd7", "rental_uris": {"android": "https://dc.lft.to/lastmile_qr_scan", "ios": "https://dc.lft.to/lastmile_qr_scan"}, "name": "95995e4dd5bda6b5fc6320d6108a3fd7", "is_reserved": 0}, {"is_disabled": 0, "fusion_lon": 0.0, "fusion_lat": 0.0, "lat": 38.9038965, "type": "electric_scooter", "lon": -77.01618166666667, "bike_id": "a9d8679d8b6e4d1cf2dd14e2c3aa15af", "rental_uris": {"android": "https://dc.lft.to/lastmile_qr_scan", "ios": "https://dc.lft.to/lastmile_qr_scan"}, "name": "a9d8679d8b6e4d1cf2dd14e2c3aa15af", "is_reserved": 0}, {"is_disabled": 0, "fusion_lon": 0.0, "fusion_lat": 0.0, "lat": 38.915362333333334, "type": "electric_scooter", "lon": -77.01266566666666, "bike_id": "51a035ac4bf01b819c779b99a6d53b1e", "rental_uris": {"android": "https://dc.lft.to/lastmile_qr_scan", "ios": "https://dc.lft.to/lastmile_qr_scan"}, "name": "51a035ac4bf01b819c779b99a6d53b1e", "is_reserved": 0}, {"is_disabled": 0, "fusion_lon": 0.0, "fusion_lat": 0.0, "lat": 38.898354833333336, "type": "electric_scooter", "lon": -76.94496883333333, "bike_id": "7a7013e517adbd0773068c05753666c0", "rental_uris": {"android": "https://dc.lft.to/lastmile_qr_scan", "ios": "https://dc.lft.to/lastmile_qr_scan"}, "name": "7a7013e517adbd0773068c05753666c0", "is_reserved": 0}, {"is_disabled": 0, "fusion_lon": 0.0, "fusion_lat": 0.0, "lat": 38.934795666666666, "type": "electric_scooter", "lon": -77.0726835, "bike_id": "7819ea2b58a6f767e66a3293664cd053", "rental_uris": {"android": "https://dc.lft.to/lastmile_qr_scan", "ios": "https://dc.lft.to/lastmile_qr_scan"}, "name": "7819ea2b58a6f767e66a3293664cd053", "is_reserved": 0}, {"is_disabled": 0, "fusion_lon": 0.0, "fusion_lat": 0.0, "lat": 38.892195, "type": "electric_scooter", "lon": -77.03215866666666, "bike_id": "4df0be301130783ede70ea11922b8bfa", "rental_uris": {"android": "https://dc.lft.to/lastmile_qr_scan", "ios": "https://dc.lft.to/lastmile_qr_scan"}, "name": "4df0be301130783ede70ea11922b8bfa", "is_reserved": 0}, {"is_disabled": 0, "fusion_lon": 0.0, "fusion_lat": 0.0, "lat": 38.919317666666664, "type": "electric_scooter", "lon": -77.02593816666666, "bike_id": "35ef83ee5294119eb0650cbc55555247", "rental_uris": {"android": "https://dc.lft.to/lastmile_qr_scan", "ios": "https://dc.lft.to/lastmile_qr_scan"}, "name": "35ef83ee5294119eb0650cbc55555247", "is_reserved": 0}, {"is_disabled": 0, "fusion_lon": 0.0, "fusion_lat": 0.0, "lat": 38.91687533333333, "type": "electric_scooter", "lon": -77.03693216666667, "bike_id": "4f144e5fca2362c7943d6b1961d57f0a", "rental_uris": {"android": "https://dc.lft.to/lastmile_qr_scan", "ios": "https://dc.lft.to/lastmile_qr_scan"}, "name": "4f144e5fca2362c7943d6b1961d57f0a", "is_reserved": 0}, {"is_disabled": 0, "fusion_lon": 0.0, "fusion_lat": 0.0, "lat": 38.93172, "type": "electric_scooter", "lon": -77.07254016666667, "bike_id": "98185752964dae24fd7c68dbcd468fda", "rental_uris": {"android": "https://dc.lft.to/lastmile_qr_scan", "ios": "https://dc.lft.to/lastmile_qr_scan"}, "name": "98185752964dae24fd7c68dbcd468fda", "is_reserved": 0}, {"is_disabled": 0, "fusion_lon": 0.0, "fusion_lat": 0.0, "lat": 38.862441833333335, "type": "electric_scooter", "lon": -76.995026, "bike_id": "9ee8fcbf08aa820e7bed021c52d65ed0", "rental_uris": {"android": "https://dc.lft.to/lastmile_qr_scan", "ios": "https://dc.lft.to/lastmile_qr_scan"}, "name": "9ee8fcbf08aa820e7bed021c52d65ed0", "is_reserved": 0}, {"is_disabled": 0, "fusion_lon": 0.0, "fusion_lat": 0.0, "lat": 38.9019105, "type": "electric_scooter", "lon": -77.023788, "bike_id": "c774126f6b99304fc9f8d1c6679e7890", "rental_uris": {"android": "https://dc.lft.to/lastmile_qr_scan", "ios": "https://dc.lft.to/lastmile_qr_scan"}, "name": "c774126f6b99304fc9f8d1c6679e7890", "is_reserved": 0}, {"is_disabled": 0, "fusion_lon": 0.0, "fusion_lat": 0.0, "lat": 38.895700833333336, "type": "electric_bike", "lon": -77.07130866666667, "bike_id": "b6d2ce4e6e52493b0c7b159c9ef6d2d4", "rental_uris": {"android": "https://dc.lft.to/lastmile_qr_scan", "ios": "https://dc.lft.to/lastmile_qr_scan"}, "name": "b6d2ce4e6e52493b0c7b159c9ef6d2d4", "is_reserved": 0}, {"is_disabled": 0, "fusion_lon": 0.0, "fusion_lat": 0.0, "lat": 38.905277166666664, "type": "electric_scooter", "lon": -77.05823333333333, "bike_id": "ef615e4ea69f440f90eaa1f99ecad1ba", "rental_uris": {"android": "https://dc.lft.to/lastmile_qr_scan", "ios": "https://dc.lft.to/lastmile_qr_scan"}, "name": "ef615e4ea69f440f90eaa1f99ecad1ba", "is_reserved": 0}, {"is_disabled": 0, "fusion_lon": 0.0, "fusion_lat": 0.0, "lat": 38.843091333333334, "type": "electric_bike", "lon": -77.1143055, "bike_id": "80dc1163b6e5d1571e948f053b2f5ee2", "rental_uris": {"android": "https://dc.lft.to/lastmile_qr_scan", "ios": "https://dc.lft.to/lastmile_qr_scan"}, "name": "80dc1163b6e5d1571e948f053b2f5ee2", "is_reserved": 0}, {"is_disabled": 0, "fusion_lon": 0.0, "fusion_lat": 0.0, "lat": 38.91849633333333, "type": "electric_bike", "lon": -76.96089133333334, "bike_id": "58eaed18606d3c7ab6778ee26ab8c46e", "rental_uris": {"android": "https://dc.lft.to/lastmile_qr_scan", "ios": "https://dc.lft.to/lastmile_qr_scan"}, "name": "58eaed18606d3c7ab6778ee26ab8c46e", "is_reserved": 0}, {"is_disabled": 0, "fusion_lon": 0.0, "fusion_lat": 0.0, "lat": 38.945502, "type": "electric_scooter", "lon": -77.04245583333334, "bike_id": "9f412d890c8642a6d4b528cb120fefe7", "rental_uris": {"android": "https://dc.lft.to/lastmile_qr_scan", "ios": "https://dc.lft.to/lastmile_qr_scan"}, "name": "9f412d890c8642a6d4b528cb120fefe7", "is_reserved": 0}, {"is_disabled": 0, "fusion_lon": 0.0, "fusion_lat": 0.0, "lat": 38.926724666666665, "type": "electric_scooter", "lon": -77.04284716666666, "bike_id": "c3c09af942ededf9de1289588dd96744", "rental_uris": {"android": "https://dc.lft.to/lastmile_qr_scan", "ios": "https://dc.lft.to/lastmile_qr_scan"}, "name": "c3c09af942ededf9de1289588dd96744", "is_reserved": 0}, {"is_disabled": 0, "fusion_lon": 0.0, "fusion_lat": 0.0, "lat": 38.918808, "type": "electric_scooter", "lon": -77.04309716666667, "bike_id": "90afd4b6322a85519b0a1eefb22ad826", "rental_uris": {"android": "https://dc.lft.to/lastmile_qr_scan", "ios": "https://dc.lft.to/lastmile_qr_scan"}, "name": "90afd4b6322a85519b0a1eefb22ad826", "is_reserved": 0}, {"is_disabled": 0, "fusion_lon": 0.0, "fusion_lat": 0.0, "lat": 38.9345385, "type": "electric_scooter", "lon": -77.07269133333334, "bike_id": "9cb43e4579db6bad666b0d5512ea9b17", "rental_uris": {"android": "https://dc.lft.to/lastmile_qr_scan", "ios": "https://dc.lft.to/lastmile_qr_scan"}, "name": "9cb43e4579db6bad666b0d5512ea9b17", "is_reserved": 0}, {"is_disabled": 0, "fusion_lon": 0.0, "fusion_lat": 0.0, "lat": 38.9259985, "type": "electric_scooter", "lon": -77.02348533333333, "bike_id": "8740edb61c023874f5c9615dab5cccdf", "rental_uris": {"android": "https://dc.lft.to/lastmile_qr_scan", "ios": "https://dc.lft.to/lastmile_qr_scan"}, "name": "8740edb61c023874f5c9615dab5cccdf", "is_reserved": 0}, {"is_disabled": 0, "fusion_lon": 0.0, "fusion_lat": 0.0, "lat": 38.8959485, "type": "electric_scooter", "lon": -77.00917066666666, "bike_id": "41b6dde1debf8a8b77f45206d70019bf", "rental_uris": {"android": "https://dc.lft.to/lastmile_qr_scan", "ios": "https://dc.lft.to/lastmile_qr_scan"}, "name": "41b6dde1debf8a8b77f45206d70019bf", "is_reserved": 0}, {"is_disabled": 0, "fusion_lon": 0.0, "fusion_lat": 0.0, "lat": 38.946369, "type": "electric_scooter", "lon": -77.01932233333333, "bike_id": "e2f227fbfd657b045b20219ebd838873", "rental_uris": {"android": "https://dc.lft.to/lastmile_qr_scan", "ios": "https://dc.lft.to/lastmile_qr_scan"}, "name": "e2f227fbfd657b045b20219ebd838873", "is_reserved": 0}, {"is_disabled": 0, "fusion_lon": 0.0, "fusion_lat": 0.0, "lat": 38.92755016666667, "type": "electric_scooter", "lon": -77.005943, "bike_id": "62e1e01be4cde605fbb68641f251edff", "rental_uris": {"android": "https://dc.lft.to/lastmile_qr_scan", "ios": "https://dc.lft.to/lastmile_qr_scan"}, "name": "62e1e01be4cde605fbb68641f251edff", "is_reserved": 0}, {"is_disabled": 0, "fusion_lon": 0.0, "fusion_lat": 0.0, "lat": 38.907666166666665, "type": "electric_scooter", "lon": -77.06282533333334, "bike_id": "3031f6da5ab6e362ebb0249e07ebcf2d", "rental_uris": {"android": "https://dc.lft.to/lastmile_qr_scan", "ios": "https://dc.lft.to/lastmile_qr_scan"}, "name": "3031f6da5ab6e362ebb0249e07ebcf2d", "is_reserved": 0}, {"is_disabled": 0, "fusion_lon": 0.0, "fusion_lat": 0.0, "lat": 38.852019166666665, "type": "electric_bike", "lon": -77.1012645, "bike_id": "ef1b64177af2f5ae977971a868d2a071", "rental_uris": {"android": "https://dc.lft.to/lastmile_qr_scan", "ios": "https://dc.lft.to/lastmile_qr_scan"}, "name": "ef1b64177af2f5ae977971a868d2a071", "is_reserved": 0}, {"is_disabled": 0, "fusion_lon": 0.0, "fusion_lat": 0.0, "lat": 38.89910316666667, "type": "electric_scooter", "lon": -76.93388016666667, "bike_id": "b0dd15e7a5c5dd7be8c129bbe9adf33c", "rental_uris": {"android": "https://dc.lft.to/lastmile_qr_scan", "ios": "https://dc.lft.to/lastmile_qr_scan"}, "name": "b0dd15e7a5c5dd7be8c129bbe9adf33c", "is_reserved": 0}, {"is_disabled": 0, "fusion_lon": 0.0, "fusion_lat": 0.0, "lat": 38.959620666666666, "type": "electric_scooter", "lon": -77.021184, "bike_id": "638f9daf8ebc66c82338b82b4321c82c", "rental_uris": {"android": "https://dc.lft.to/lastmile_qr_scan", "ios": "https://dc.lft.to/lastmile_qr_scan"}, "name": "638f9daf8ebc66c82338b82b4321c82c", "is_reserved": 0}, {"is_disabled": 0, "fusion_lon": 0.0, "fusion_lat": 0.0, "lat": 38.95402133333333, "type": "electric_scooter", "lon": -77.027499, "bike_id": "db426c9a406285e48cbd5790187d5428", "rental_uris": {"android": "https://dc.lft.to/lastmile_qr_scan", "ios": "https://dc.lft.to/lastmile_qr_scan"}, "name": "db426c9a406285e48cbd5790187d5428", "is_reserved": 0}, {"is_disabled": 0, "fusion_lon": 0.0, "fusion_lat": 0.0, "lat": 38.880615666666664, "type": "electric_scooter", "lon": -76.99501583333333, "bike_id": "656ed0a9bd07c91daf167fce394423d5", "rental_uris": {"android": "https://dc.lft.to/lastmile_qr_scan", "ios": "https://dc.lft.to/lastmile_qr_scan"}, "name": "656ed0a9bd07c91daf167fce394423d5", "is_reserved": 0}, {"is_disabled": 0, "fusion_lon": 0.0, "fusion_lat": 0.0, "lat": 38.902544, "type": "electric_scooter", "lon": -77.01930733333333, "bike_id": "b271e5b2d9efa776f9e4c09a31d24ba8", "rental_uris": {"android": "https://dc.lft.to/lastmile_qr_scan", "ios": "https://dc.lft.to/lastmile_qr_scan"}, "name": "b271e5b2d9efa776f9e4c09a31d24ba8", "is_reserved": 0}, {"is_disabled": 0, "fusion_lon": 0.0, "fusion_lat": 0.0, "lat": 38.916891166666666, "type": "electric_scooter", "lon": -77.02593733333333, "bike_id": "4aa70a80a8303afd27bfdea947f19236", "rental_uris": {"android": "https://dc.lft.to/lastmile_qr_scan", "ios": "https://dc.lft.to/lastmile_qr_scan"}, "name": "4aa70a80a8303afd27bfdea947f19236", "is_reserved": 0}, {"is_disabled": 0, "fusion_lon": 0.0, "fusion_lat": 0.0, "lat": 38.8976865, "type": "electric_scooter", "lon": -77.00891633333333, "bike_id": "1bf623f71e42f906e8e4ba19e2d9639a", "rental_uris": {"android": "https://dc.lft.to/lastmile_qr_scan", "ios": "https://dc.lft.to/lastmile_qr_scan"}, "name": "1bf623f71e42f906e8e4ba19e2d9639a", "is_reserved": 0}, {"is_disabled": 0, "fusion_lon": 0.0, "fusion_lat": 0.0, "lat": 38.88363916666667, "type": "electric_bike", "lon": -77.03078183333334, "bike_id": "171d78e3ca110a687ab174ce68f87e65", "rental_uris": {"android": "https://dc.lft.to/lastmile_qr_scan", "ios": "https://dc.lft.to/lastmile_qr_scan"}, "name": "171d78e3ca110a687ab174ce68f87e65", "is_reserved": 0}, {"is_disabled": 0, "fusion_lon": 0.0, "fusion_lat": 0.0, "lat": 38.8459725, "type": "electric_bike", "lon": -76.96879566666667, "bike_id": "dfa59eb4272431845352437cc14da153", "rental_uris": {"android": "https://dc.lft.to/lastmile_qr_scan", "ios": "https://dc.lft.to/lastmile_qr_scan"}, "name": "dfa59eb4272431845352437cc14da153", "is_reserved": 0}, {"is_disabled": 0, "fusion_lon": 0.0, "fusion_lat": 0.0, "lat": 38.919931, "type": "electric_scooter", "lon": -77.032207, "bike_id": "d25ed0ee8e7422a3d391d59caf41e274", "rental_uris": {"android": "https://dc.lft.to/lastmile_qr_scan", "ios": "https://dc.lft.to/lastmile_qr_scan"}, "name": "d25ed0ee8e7422a3d391d59caf41e274", "is_reserved": 0}, {"is_disabled": 0, "fusion_lon": 0.0, "fusion_lat": 0.0, "lat": 38.89222933333333, "type": "electric_scooter", "lon": -77.04049166666667, "bike_id": "cf1e3363b3a716c339f4b7ec4d4df504", "rental_uris": {"android": "https://dc.lft.to/lastmile_qr_scan", "ios": "https://dc.lft.to/lastmile_qr_scan"}, "name": "cf1e3363b3a716c339f4b7ec4d4df504", "is_reserved": 0},