{"data": {"bikes": [{"bike_id": "26d05467c312bbc0f048787953223072", "type": "electric_scooter", "is_disabled": 0, "lat": 38.905240166666665, "rental_uris": {"ios": "https://dc.lft.to/lastmile_qr_scan", "android": "https://dc.lft.to/lastmile_qr_scan"}, "is_reserved": 0, "fusion_lon": 0.0, "fusion_lat": 0.0, "lon": -76.99636833333334, "name": "26d05467c312bbc0f048787953223072"}, {"bike_id": "a9e9f6b7f6e05a8f96d9e960d1212d50", "type": "electric_bike", "is_disabled": 0, "lat": 38.854228, "rental_uris": {"ios": "https://dc.lft.to/lastmile_qr_scan", "android": "https://dc.lft.to/lastmile_qr_scan"}, "is_reserved": 0, "fusion_lon": 0.0, "fusion_lat": 0.0, "lon": -77.12080083333333, "name": "a9e9f6b7f6e05a8f96d9e960d1212d50"}, {"bike_id": "d21a36a5d76e8bdccafbc00b1ad929b8", "type": "electric_scooter", "is_disabled": 0, "lat": 38.934239, "rental_uris": {"ios": "https://dc.lft.to/lastmile_qr_scan", "android": "https://dc.lft.to/lastmile_qr_scan"}, "is_reserved": 0, "fusion_lon": 0.0, "fusion_lat": 0.0, "lon": -77.03911516666666, "name": "d21a36a5d76e8bdccafbc00b1ad929b8"}, {"bike_id": "4cab34154760cf850e01f47d3e4cfbc4", "type": "electric_scooter", "is_disabled": 0, "lat": 38.90174483333333, "rental_uris": {"ios": "https://dc.lft.to/lastmile_qr_scan", "android": "https://dc.lft.to/lastmile_qr_scan"}, "is_reserved": 0, "fusion_lon": 0.0, "fusion_lat": 0.0, "lon": -76.98453266666667, "name": "4cab34154760cf850e01f47d3e4cfbc4"}, {"bike_id": "1b6872f45c7dff24fe4c941ebfdc5f1f", "type": "electric_scooter", "is_disabled": 0, "lat": 38.94293616666667, "rental_uris": {"ios": "https://dc.lft.to/lastmile_qr_scan", "android": "https://dc.lft.to/lastmile_qr_scan"}, "is_reserved": 0, "fusion_lon": 0.0, "fusion_lat": 0.0, "lon": -77.02174633333334, "name": "1b6872f45c7dff24fe4c941ebfdc5f1f"}, {"bike_id": "47c8f42e33e2ea2ea004e4fdf3383afe", "type": "electric_scooter", "is_disabled": 0, "lat": 38.948383666666665, "rental_uris": {"ios": "https://dc.lft.to/lastmile_qr_scan", "android": "https://dc.lft.to/lastmile_qr_scan"}, "is_reserved": 0, "fusion_lon": 0.0, "fusion_lat": 0.0, "lon": -77.02545333333333, "name": "47c8f42e33e2ea2ea004e4fdf3383afe"}, {"bike_id": "66974bb085990149efc19e8eaf02942c", "type": "electric_scooter", "is_disabled": 0, "lat": 38.8622635, "rental_uris": {"ios": "https://dc.lft.to/lastmile_qr_scan", "android": "https://dc.lft.to/lastmile_qr_scan"}, "is_reserved": 0, "fusion_lon": 0.0, "fusion_lat": 0.0, "lon": -76.9950645, "name": "66974bb085990149efc19e8eaf02942c"}, {"bike_id": "e8b6b9c69207c9a019887c675ec6c133", "type": "electric_scooter", "is_disabled": 0, "lat": 38.90419416666667, "rental_uris": {"ios": "https://dc.lft.to/lastmile_qr_scan", "android": "https://dc.lft.to/lastmile_qr_scan"}, "is_reserved": 0, "fusion_lon": 0.0, "fusion_lat": 0.0, "lon": -76.97376866666667, "name": "e8b6b9c69207c9a019887c675ec6c133"}, {"bike_id": "7512a4aa339aaedfd647a96f20ed9d4a", "type": "electric_scooter", "is_disabled": 0, "lat": 38.924512166666666, "rental_uris": {"ios": "https://dc.lft.to/lastmile_qr_scan", "android": "https://dc.lft.to/lastmile_qr_scan"}, "is_reserved": 0, "fusion_lon": 0.0, "fusion_lat": 0.0, "lon": -77.0240935, "name": "7512a4aa339aaedfd647a96f20ed9d4a"}, {"bike_id": "584bb0fedbd40c48ac78d40d2aea89dc", "type": "electric_scooter", "is_disabled": 0, "lat": 38.95478466666667, "rental_uris": {"ios": "https://dc.lft.to/lastmile_qr_scan", "android": "https://dc.lft.to/lastmile_qr_scan"}, "is_reserved": 0, "fusion_lon": 0.0, "fusion_lat": 0.0, "lon": -77.0925275, "name": "584bb0fedbd40c48ac78d40d2aea89dc"}, {"bike_id": "3e067bc2080cd167293c565f5adb51e2", "type": "electric_scooter", "is_disabled": 0, "lat": 38.88879433333334, "rental_uris": {"ios": "https://dc.lft.to/lastmile_qr_scan", "android": "https://dc.lft.to/lastmile_qr_scan"}, "is_reserved": 0, "fusion_lon": 0.0, "fusion_lat": 0.0, "lon": -76.99026016666667, "name": "3e067bc2080cd167293c565f5adb51e2"}, {"bike_id": "6d436a702cfc0c932707ac1ea1b3b860", "type": "electric_scooter", "is_disabled": 0, "lat": 38.907948833333336, "rental_uris": {"ios": "https://dc.lft.to/lastmile_qr_scan", "android": "https://dc.lft.to/lastmile_qr_scan"}, "is_reserved": 0, "fusion_lon": 0.0, "fusion_lat": 0.0, "lon": -77.00194133333333, "name": "6d436a702cfc0c932707ac1ea1b3b860"}, {"bike_id": "c8ac8abe1e453e9b7dd6812e1a3af72c", "type": "electric_scooter", "is_disabled": 0, "lat": 38.92947616666667, "rental_uris": {"ios": "https://dc.lft.to/lastmile_qr_scan", "android": "https://dc.lft.to/lastmile_qr_scan"}, "is_reserved": 0, "fusion_lon": 0.0, "fusion_lat": 0.0, "lon": -77.0184145, "name": "c8ac8abe1e453e9b7dd6812e1a3af72c"}, {"bike_id": "c52fb73307f0145555c0d0d223a8853b", "type": "electric_scooter", "is_disabled": 0, "lat": 38.93337316666667, "rental_uris": {"ios": "https://dc.lft.to/lastmile_qr_scan", "android": "https://dc.lft.to/lastmile_qr_scan"}, "is_reserved": 0, "fusion_lon": 0.0, "fusion_lat": 0.0, "lon": -77.03982133333334, "name": "c52fb73307f0145555c0d0d223a8853b"}, {"bike_id": "74edd0447ba8142721337b5da0a1c9a8", "type": "electric_scooter", "is_disabled": 0, "lat": 38.8874285, "rental_uris": {"ios": "https://dc.lft.to/lastmile_qr_scan", "android": "https://dc.lft.to/lastmile_qr_scan"}, "is_reserved": 0, "fusion_lon": 0.0, "fusion_lat": 0.0, "lon": -76.99626616666667, "name": "74edd0447ba8142721337b5da0a1c9a8"}, {"bike_id": "edea18eb4002e6365e3562ccc3e6c017", "type": "electric_scooter", "is_disabled": 0, "lat": 38.86566666666667, "rental_uris": {"ios": "https://dc.lft.to/lastmile_qr_scan", "android": "https://dc.lft.to/lastmile_qr_scan"}, "is_reserved": 0, "fusion_lon": 0.0, "fusion_lat": 0.0, "lon": -76.982135, "name": "edea18eb4002e6365e3562ccc3e6c017"}, {"bike_id": "2412bfac8c47b0ca81d677cb748329b1", "type": "electric_bike", "is_disabled": 0, "lat": 38.87309316666666, "rental_uris": {"ios": "https://dc.lft.to/lastmile_qr_scan", "android": "https://dc.lft.to/lastmile_qr_scan"}, "is_reserved": 0, "fusion_lon": 0.0, "fusion_lat": 0.0, "lon": -77.01092516666667, "name": "2412bfac8c47b0ca81d677cb748329b1"}, {"bike_id": "16a1a22d345dc50a074462105bf30462", "type": "electric_scooter", "is_disabled": 0, "lat": 38.914818, "rental_uris": {"ios": "https://dc.lft.to/lastmile_qr_scan", "android": "https://dc.lft.to/lastmile_qr_scan"}, "is_reserved": 0, "fusion_lon": 0.0, "fusion_lat": 0.0, "lon": -77.00279266666666, "name": "16a1a22d345dc50a074462105bf30462"}, {"bike_id": "5d0a56e68e0c1e45c10c09e46ff41345", "type": "electric_scooter", "is_disabled": 0, "lat": 38.89869433333333, "rental_uris": {"ios": "https://dc.lft.to/lastmile_qr_scan", "android": "https://dc.lft.to/lastmile_qr_scan"}, "is_reserved": 0, "fusion_lon": 0.0, "fusion_lat": 0.0, "lon": -76.94661133333334, "name": "5d0a56e68e0c1e45c10c09e46ff41345"}, {"bike_id": "e479a1ff7ee08fe2f114523d9064cf35", "type": "electric_scooter", "is_disabled": 0, "lat": 38.86503183333333, "rental_uris": {"ios": "https://dc.lft.to/lastmile_qr_scan", "android": "https://dc.lft.to/lastmile_qr_scan"}, "is_reserved": 0, "fusion_lon": 0.0, "fusion_lat": 0.0, "lon": -76.99000016666666, "name": "e479a1ff7ee08fe2f114523d9064cf35"}, {"bike_id": "60635b3d0aebb4600227a2bc511b214f", "type": "electric_scooter", "is_disabled": 0, "lat": 38.917132333333335, "rental_uris": {"ios": "https://dc.lft.to/lastmile_qr_scan", "android": "https://dc.lft.to/lastmile_qr_scan"}, "is_reserved": 0, "fusion_lon": 0.0, "fusion_lat": 0.0, "lon": -77.02610983333334, "name": "60635b3d0aebb4600227a2bc511b214f"}, {"bike_id": "83691c59e40e73d8e4ba7508931961d0", "type": "electric_scooter", "is_disabled": 0, "lat": 38.920167, "rental_uris": {"ios": "https://dc.lft.to/lastmile_qr_scan", "android": "https://dc.lft.to/lastmile_qr_scan"}, "is_reserved": 0, "fusion_lon": 0.0, "fusion_lat": 0.0, "lon": -77.01289233333334, "name": "83691c59e40e73d8e4ba7508931961d0"}, {"bike_id": "ad3cfddca7d056ab9c10a10fdc8077e7", "type": "electric_scooter", "is_disabled": 0, "lat": 38.91547333333333, "rental_uris": {"ios": "https://dc.lft.to/lastmile_qr_scan", "android": "https://dc.lft.to/lastmile_qr_scan"}, "is_reserved": 0, "fusion_lon": 0.0, "fusion_lat": 0.0, "lon": -77.0256245, "name": "ad3cfddca7d056ab9c10a10fdc8077e7"}, {"bike_id": "5f77c33b678ec08b5b65b0f2a57fd21a", "type": "electric_scooter", "is_disabled": 0, "lat": 38.88076216666666, "rental_uris": {"ios": "https://dc.lft.to/lastmile_qr_scan", "android": "https://dc.lft.to/lastmile_qr_scan"}, "is_reserved": 0, "fusion_lon": 0.0, "fusion_lat": 0.0, "lon": -76.99501016666666, "name": "5f77c33b678ec08b5b65b0f2a57fd21a"}, {"bike_id": "9f0dbae3b1e8e78da1a9940c57975d14", "type": "electric_scooter", "is_disabled": 0, "lat": 38.93994166666667, "rental_uris": {"ios": "https://dc.lft.to/lastmile_qr_scan", "android": "https://dc.lft.to/lastmile_qr_scan"}, "is_reserved": 0, "fusion_lon": 0.0, "fusion_lat": 0.0, "lon": -77.01689266666666, "name": "9f0dbae3b1e8e78da1a9940c57975d14"}, {"bike_id": "1f20e5bc2e59e4cb64a4aeec39da55e6", "type": "electric_bike", "is_disabled": 0, "lat": 38.853522, "rental_uris": {"ios": "https://dc.lft.to/lastmile_qr_scan", "android": "https://dc.lft.to/lastmile_qr_scan"}, "is_reserved": 0, "fusion_lon": 0.0, "fusion_lat": 0.0, "lon": -77.08681316666667, "name": "1f20e5bc2e59e4cb64a4aeec39da55e6"}, {"bike_id": "004ab6eb4f9263e43bb6d92dd23c013f", "type": "electric_scooter", "is_disabled": 0, "lat": 38.922496333333335, "rental_uris": {"ios": "https://dc.lft.to/lastmile_qr_scan", "android": "https://dc.lft.to/lastmile_qr_scan"}, "is_reserved": 0, "fusion_lon": 0.0, "fusion_lat": 0.0, "lon": -77.0301925, "name": "004ab6eb4f9263e43bb6d92dd23c013f"}, {"bike_id": "9c954015934d39f5e08d0c276e52f13d", "type": "electric_scooter", "is_disabled": 0, "lat": 38.934844166666664, "rental_uris": {"ios": "https://dc.lft.to/lastmile_qr_scan", "android": "https://dc.lft.to/lastmile_qr_scan"}, "is_reserved": 0, "fusion_lon": 0.0, "fusion_lat": 0.0, "lon": -77.0341475, "name": "9c954015934d39f5e08d0c276e52f13d"}, {"bike_id": "040dddaaf843f679680be5855aff1840", "type": "electric_scooter", "is_disabled": 0, "lat": 38.939184833333336, "rental_uris": {"ios": "https://dc.lft.to/lastmile_qr_scan", "android": "https://dc.lft.to/lastmile_qr_scan"}, "is_reserved": 0, "fusion_lon": 0.0, "fusion_lat": 0.0, "lon": -77.06047133333334, "name": "040dddaaf843f679680be5855aff1840"}, {"bike_id": "b1eac6211b63115adacbe37ea8afc26e", "type": "electric_bike", "is_disabled": 0, "lat": 39.037016333333334, "rental_uris": {"ios": "https://dc.lft.to/lastmile_qr_scan", "android": "https://dc.lft.to/lastmile_qr_scan"}, "is_reserved": 0, "fusion_lon": 0.0, "fusion_lat": 0.0, "lon": -77.02859716666667, "name": "b1eac6211b63115adacbe37ea8afc26e"}, {"bike_id": "bb3be9b77588072aaed1423190a4e1c7", "type": "electric_scooter", "is_disabled": 0, "lat": 38.904664833333335, "rental_uris": {"ios": "https://dc.lft.to/lastmile_qr_scan", "android": "https://dc.lft.to/lastmile_qr_scan"}, "is_reserved": 0, "fusion_lon": 0.0, "fusion_lat": 0.0, "lon": -77.0294355, "name": "bb3be9b77588072aaed1423190a4e1c7"}, {"bike_id": "c195f937546a86d0bb51e6d25b60add7", "type": "electric_scooter", "is_disabled": 0, "lat": 38.9063565, "rental_uris": {"ios": "https://dc.lft.to/lastmile_qr_scan", "android": "https://dc.lft.to/lastmile_qr_scan"}, "is_reserved": 0, "fusion_lon": 0.0, "fusion_lat": 0.0, "lon": -77.05163633333333, "name": "c195f937546a86d0bb51e6d25b60add7"}, {"bike_id": "16d492eeba0044c1af40d9b2350c8edc", "type": "electric_scooter", "is_disabled": 0, "lat": 38.901937, "rental_uris": {"ios": "https://dc.lft.to/lastmile_qr_scan", "android": "https://dc.lft.to/lastmile_qr_scan"}, "is_reserved": 0, "fusion_lon": 0.0, "fusion_lat": 0.0, "lon": -77.012969, "name": "16d492eeba0044c1af40d9b2350c8edc"}, {"bike_id": "54882a51ecf900fa68a99df5ac913255", "type": "electric_scooter", "is_disabled": 0, "lat": 38.875646, "rental_uris": {"ios": "https://dc.lft.to/lastmile_qr_scan", "android": "https://dc.lft.to/lastmile_qr_scan"}, "is_reserved": 0, "fusion_lon": 0.0, "fusion_lat": 0.0, "lon": -76.9586805, "name": "54882a51ecf900fa68a99df5ac913255"}, {"bike_id": "8eaa9472128ed6b962f69d5121036392", "type": "electric_scooter", "is_disabled": 0, "lat": 38.91564433333333, "rental_uris": {"ios": "https://dc.lft.to/lastmile_qr_scan", "android": "https://dc.lft.to/lastmile_qr_scan"}, "is_reserved": 0, "fusion_lon": 0.0, "fusion_lat": 0.0, "lon": -77.03728416666667, "name": "8eaa9472128ed6b962f69d5121036392"}, {"bike_id": "3b098dda3e29574d6edda3511a2957e3", "type": "electric_scooter", "is_disabled": 0, "lat": 38.9162015, "rental_uris": {"ios": "https://dc.lft.to/lastmile_qr_scan", "android": "https://dc.lft.to/lastmile_qr_scan"}, "is_reserved": 0, "fusion_lon": 0.0, "fusion_lat": 0.0, "lon": -77.03644133333333, "name": "3b098dda3e29574d6edda3511a2957e3"}, {"bike_id": "24a9b7fa13dc49278f5fdc8b382a1e90", "type": "electric_bike", "is_disabled": 0, "lat": 38.84525933333333, "rental_uris": {"ios": "https://dc.lft.to/lastmile_qr_scan", "android": "https://dc.lft.to/lastmile_qr_scan"}, "is_reserved": 0, "fusion_lon": 0.0, "fusion_lat": 0.0, "lon": -76.97399416666667, "name": "24a9b7fa13dc49278f5fdc8b382a1e90"}, {"bike_id": "70834e05ee9be7ce9430041f4f56814f", "type": "electric_scooter", "is_disabled": 0, "lat": 38.91926766666667, "rental_uris": {"ios": "https://dc.lft.to/lastmile_qr_scan", "android": "https://dc.lft.to/lastmile_qr_scan"}, "is_reserved": 0, "fusion_lon": 0.0, "fusion_lat": 0.0, "lon": -77.0341635, "name": "70834e05ee9be7ce9430041f4f56814f"}, {"bike_id": "1538157896f1fa62ad005a8a2c1642f8", "type": "electric_scooter", "is_disabled": 0, "lat": 38.907236833333336, "rental_uris": {"ios": "https://dc.lft.to/lastmile_qr_scan", "android": "https://dc.lft.to/lastmile_qr_scan"}, "is_reserved": 0, "fusion_lon": 0.0, "fusion_lat": 0.0, "lon": -77.02888733333333, "name": "1538157896f1fa62ad005a8a2c1642f8"}, {"bike_id": "c0f7d8490a234e9d0db8bca351a22d67", "type": "electric_scooter", "is_disabled": 0, "lat": 38.932142166666665, "rental_uris": {"ios": "https://dc.lft.to/lastmile_qr_scan", "android": "https://dc.lft.to/lastmile_qr_scan"}, "is_reserved": 0, "fusion_lon": 0.0, "fusion_lat": 0.0, "lon": -77.03515416666667, "name": "c0f7d8490a234e9d0db8bca351a22d67"}, {"bike_id": "dec69e70e9d062eb50100ebef5b416fc", "type": "electric_scooter", "is_disabled": 0, "lat": 38.92683516666666, "rental_uris": {"ios": "https://dc.lft.to/lastmile_qr_scan", "android": "https://dc.lft.to/lastmile_qr_scan"}, "is_reserved": 0, "fusion_lon": 0.0, "fusion_lat": 0.0, "lon": -77.02971233333334, "name": "dec69e70e9d062eb50100ebef5b416fc"}, {"bike_id": "1e3096dec8952793479acb3e6e448d43", "type": "electric_scooter", "is_disabled": 0, "lat": 38.926263166666665, "rental_uris": {"ios": "https://dc.lft.to/lastmile_qr_scan", "android": "https://dc.lft.to/lastmile_qr_scan"}, "is_reserved": 0, "fusion_lon": 0.0, "fusion_lat": 0.0, "lon": -77.0418865, "name": "1e3096dec8952793479acb3e6e448d43"}, {"bike_id": "88b3f841fe0cf48aeffaa269f806c0af", "type": "electric_scooter", "is_disabled": 0, "lat": 38.94715266666667, "rental_uris": {"ios": "https://dc.lft.to/lastmile_qr_scan", "android": "https://dc.lft.to/lastmile_qr_scan"}, "is_reserved": 0, "fusion_lon": 0.0, "fusion_lat": 0.0, "lon": -77.03327083333333, "name": "88b3f841fe0cf48aeffaa269f806c0af"}, {"bike_id": "c19081de7f1c02422d2cfb19f4232d27", "type": "electric_scooter", "is_disabled": 0, "lat": 38.898363, "rental_uris": {"ios": "https://dc.lft.to/lastmile_qr_scan", "android": "https://dc.lft.to/lastmile_qr_scan"}, "is_reserved": 0, "fusion_lon": 0.0, "fusion_lat": 0.0, "lon": -77.040781, "name": "c19081de7f1c02422d2cfb19f4232d27"}, {"bike_id": "d46de997a276cfa4104651fb2d864f13", "type": "electric_scooter", "is_disabled": 0, "lat": 38.907952, "rental_uris": {"ios": "https://dc.lft.to/lastmile_qr_scan", "android": "https://dc.lft.to/lastmile_qr_scan"}, "is_reserved": 0, "fusion_lon": 0.0, "fusion_lat": 0.0, "lon": -77.04799383333334, "name": "d46de997a276cfa4104651fb2d864f13"}, {"bike_id": "46ab48901bcaf8b218574498dcff89aa", "type": "electric_scooter", "is_disabled": 0, "lat": 38.928393, "rental_uris": {"ios": "https://dc.lft.to/lastmile_qr_scan", "android": "https://dc.lft.to/lastmile_qr_scan"}, "is_reserved": 0, "fusion_lon": 0.0, "fusion_lat": 0.0, "lon": -77.0201065, "name": "46ab48901bcaf8b218574498dcff89aa"}, {"bike_id": "64d336c1175e8649bba0143971c72fd3", "type": "electric_scooter", "is_disabled": 0, "lat": 38.92020566666667, "rental_uris": {"ios": "https://dc.lft.to/lastmile_qr_scan", "android": "https://dc.lft.to/lastmile_qr_scan"}, "is_reserved": 0, "fusion_lon": 0.0, "fusion_lat": 0.0, "lon": -77.023065, "name": "64d336c1175e8649bba0143971c72fd3"}, {"bike_id": "32596a8ed8ce0c42f37e30ef6a614cde", "type": "electric_scooter", "is_disabled": 0, "lat": 38.92315283333333, "rental_uris": {"ios": "https://dc.lft.to/lastmile_qr_scan", "android": "https://dc.lft.to/lastmile_qr_scan"}, "is_reserved": 0, "fusion_lon": 0.0, "fusion_lat": 0.0, "lon": -77.02145966666667, "name": "32596a8ed8ce0c42f37e30ef6a614cde"}, {"bike_id": "8ba1501ff7221f067300d8498c740466", "type": "electric_scooter", "is_disabled": 0, "lat": 38.90564366666667, "rental_uris": {"ios": "https://dc.lft.to/lastmile_qr_scan", "android": "https://dc.lft.to/lastmile_qr_scan"}, "is_reserved": 0, "fusion_lon": 0.0, "fusion_lat": 0.0, "lon": -77.00580033333334, "name": "8ba1501ff7221f067300d8498c740466"}, {"bike_id": "a63a2479fcc3c8f8866ba48be8908705", "type": "electric_scooter", "is_disabled": 0, "lat": 38.91509166666667, "rental_uris": {"ios": "https://dc.lft.to/lastmile_qr_scan", "android": "https://dc.lft.to/lastmile_qr_scan"}, "is_reserved": 0, "fusion_lon": 0.0, "fusion_lat": 0.0, "lon": -77.02193316666667, "name": "a63a2479fcc3c8f8866ba48be8908705"}, {"bike_id": "eb981cd4462d61193157344c69c29ba6", "type": "electric_scooter", "is_disabled": 0, "lat": 38.88065316666667, "rental_uris": {"ios": "https://dc.lft.to/lastmile_qr_scan", "android": "https://dc.lft.to/lastmile_qr_scan"}, "is_reserved": 0, "fusion_lon": 0.0, "fusion_lat": 0.0, "lon": -76.93214383333333, "name": "eb981cd4462d61193157344c69c29ba6"}, {"bike_id": "d48457f3592819408cf2db0c5fa2c856", "type": "electric_scooter", "is_disabled": 0, "lat": 38.924822666666664, "rental_uris": {"ios": "https://dc.lft.to/lastmile_qr_scan", "android": "https://dc.lft.to/lastmile_qr_scan"}, "is_reserved": 0, "fusion_lon": 0.0, "fusion_lat": 0.0, "lon": -77.05205716666667, "name": "d48457f3592819408cf2db0c5fa2c856"}, {"bike_id": "fac94b99a92bccd03b4c95e999917354", "type": "electric_scooter", "is_disabled": 0, "lat": 38.9279805, "rental_uris": {"ios": "https://dc.lft.to/lastmile_qr_scan", "android": "https://dc.lft.to/lastmile_qr_scan"}, "is_reserved": 0, "fusion_lon": 0.0, "fusion_lat": 0.0, "lon": -77.02362383333333, "name": "fac94b99a92bccd03b4c95e999917354"}, {"bike_id": "9f016702439b645dba3959c9505aab73", "type": "electric_scooter", "is_disabled": 0, "lat": 38.916567666666666, "rental_uris": {"ios": "https://dc.lft.to/lastmile_qr_scan", "android": "https://dc.lft.to/lastmile_qr_scan"}, "is_reserved": 0, "fusion_lon": 0.0, "fusion_lat": 0.0, "lon": -77.0288395, "name": "9f016702439b645dba3959c9505aab73"}, {"bike_id": "ef0e64c65a62570b1a4a63950253b096", "type": "electric_bike", "is_disabled": 0, "lat": 38.879835666666665, "rental_uris": {"ios": "https://dc.lft.to/lastmile_qr_scan", "android": "https://dc.lft.to/lastmile_qr_scan"}, "is_reserved": 0, "fusion_lon": 0.0, "fusion_lat": 0.0, "lon": -76.9159755, "name": "ef0e64c65a62570b1a4a63950253b096"}, {"bike_id": "8299a56d86cea388d8638b8afd13ad4a", "type": "electric_scooter", "is_disabled": 0, "lat": 38.887445166666666, "rental_uris": {"ios": "https://dc.lft.to/lastmile_qr_scan", "android": "https://dc.lft.to/lastmile_qr_scan"}, "is_reserved": 0, "fusion_lon": 0.0, "fusion_lat": 0.0, "lon": -76.99626866666667, "name": "8299a56d86cea388d8638b8afd13ad4a"}, {"bike_id": "b5fa5807b80eedca0fed5e974d2205a7", "type": "electric_scooter", "is_disabled": 0, "lat": 38.888533833333334, "rental_uris": {"ios": "https://dc.lft.to/lastmile_qr_scan", "android": "https://dc.lft.to/lastmile_qr_scan"}, "is_reserved": 0, "fusion_lon": 0.0, "fusion_lat": 0.0, "lon": -77.00048366666667, "name": "b5fa5807b80eedca0fed5e974d2205a7"}, {"bike_id": "1e85b70a8d58de8738bab10828aded4e", "type": "electric_scooter", "is_disabled": 0, "lat": 38.919092166666665, "rental_uris": {"ios": "https://dc.lft.to/lastmile_qr_scan", "android": "https://dc.lft.to/lastmile_qr_scan"}, "is_reserved": 0, "fusion_lon": 0.0, "fusion_lat": 0.0, "lon": -77.07081883333333, "name": "1e85b70a8d58de8738bab10828aded4e"}, {"bike_id": "f00b5e99e9729e4abeae8df42c400a52", "type": "electric_scooter", "is_disabled": 0, "lat": 38.91868983333333, "rental_uris": {"ios": "https://dc.lft.to/lastmile_qr_scan", "android": "https://dc.lft.to/lastmile_qr_scan"}, "is_reserved": 0, "fusion_lon": 0.0, "fusion_lat": 0.0, "lon": -77.047565, "name": "f00b5e99e9729e4abeae8df42c400a52"}, {"bike_id": "b74aeb1af20ebdd2185fbaa98290ab51", "type": "electric_scooter", "is_disabled": 0, "lat": 38.9117845, "rental_uris": {"ios": "https://dc.lft.to/lastmile_qr_scan", "android": "https://dc.lft.to/lastmile_qr_scan"}, "is_reserved": 0, "fusion_lon": 0.0, "fusion_lat": 0.0, "lon": -77.00210133333333, "name": "b74aeb1af20ebdd2185fbaa98290ab51"}, {"bike_id": "3a8da327079e3cbe44b53897ebada0b5", "type": "electric_scooter", "is_disabled": 0, "lat": 38.907839833333334, "rental_uris": {"ios": "https://dc.lft.to/lastmile_qr_scan", "android": "https://dc.lft.to/lastmile_qr_scan"}, "is_reserved": 0, "fusion_lon": 0.0, "fusion_lat": 0.0, "lon": -77.01862433333334, "name": "3a8da327079e3cbe44b53897ebada0b5"}, {"bike_id": "603c274fb7d9f589a1e77482f9c0d65e", "type": "electric_bike", "is_disabled": 0, "lat": 39.057862666666665, "rental_uris": {"ios": "https://dc.lft.to/lastmile_qr_scan", "android": "https://dc.lft.to/lastmile_qr_scan"}, "is_reserved": 0, "fusion_lon": 0.0, "fusion_lat": 0.0, "lon": -77.15020366666667, "name": "603c274fb7d9f589a1e77482f9c0d65e"}, {"bike_id": "0a96da742fd87b5261045f52bf41f20d", "type": "electric_scooter", "is_disabled": 0, "lat": 38.85702116666667, "rental_uris": {"ios": "https://dc.lft.to/lastmile_qr_scan", "android": "https://dc.lft.to/lastmile_qr_scan"}, "is_reserved": 0, "fusion_lon": 0.0, "fusion_lat": 0.0, "lon": -76.98969383333333, "name": "0a96da742fd87b5261045f52bf41f20d"}, {"bike_id": "7f0b2d63e974413681d0b01ae0c88c28", "type": "electric_bike", "is_disabled": 0, "lat": 38.91635683333333, "rental_uris": {"ios": "https://dc.lft.to/lastmile_qr_scan", "android": "https://dc.lft.to/lastmile_qr_scan"}, "is_reserved": 0, "fusion_lon": 0.0, "fusion_lat": 0.0, "lon": -76.97166516666667, "name": "7f0b2d63e974413681d0b01ae0c88c28"}, {"bike_id": "989f4c9e20c213db157dfb3d44052741", "type": "electric_scooter", "is_disabled": 0, "lat": 38.900579666666665, "rental_uris": {"ios": "https://dc.lft.to/lastmile_qr_scan", "android": "https://dc.lft.to/lastmile_qr_scan"}, "is_reserved": 0, "fusion_lon": 0.0, "fusion_lat": 0.0, "lon": -76.93470833333333, "name": "989f4c9e20c213db157dfb3d44052741"}, {"bike_id": "1b6dee45ba8b018883512953b471b2b8", "type": "electric_bike", "is_disabled": 0, "lat": 38.819925833333336, "rental_uris": {"ios": "https://dc.lft.to/lastmile_qr_scan", "android": "https://dc.lft.to/lastmile_qr_scan"}, "is_reserved": 0, "fusion_lon": 0.0, "fusion_lat": 0.0, "lon": -76.99818866666666, "name": "1b6dee45ba8b018883512953b471b2b8"}, {"bike_id": "6f03f66e11d3de763f169902a8299f5e", "type": "electric_scooter", "is_disabled": 0, "lat": 38.87114166666667, "rental_uris": {"ios": "https://dc.lft.to/lastmile_qr_scan", "android": "https://dc.lft.to/lastmile_qr_scan"}, "is_reserved": 0, "fusion_lon": 0.0, "fusion_lat": 0.0, "lon": -76.98241183333333, "name": "6f03f66e11d3de763f169902a8299f5e"}, {"bike_id": "0e1fdb43e8dd148d34a0b8e205a29020", "type": "electric_scooter", "is_disabled": 0, "lat": 38.905494, "rental_uris": {"ios": "https://dc.lft.to/lastmile_qr_scan", "android": "https://dc.lft.to/lastmile_qr_scan"}, "is_reserved": 0, "fusion_lon": 0.0, "fusion_lat": 0.0, "lon": -77.00579383333333, "name": "0e1fdb43e8dd148d34a0b8e205a29020"}, {"bike_id": "8cfb3ee4298b27a594ecfa2a6434b9eb", "type": "electric_scooter", "is_disabled": 0, "lat": 38.90556216666667, "rental_uris": {"ios": "https://dc.lft.to/lastmile_qr_scan", "android": "https://dc.lft.to/lastmile_qr_scan"}, "is_reserved": 0, "fusion_lon": 0.0, "fusion_lat": 0.0, "lon": -77.04389433333333, "name": "8cfb3ee4298b27a594ecfa2a6434b9eb"}, {"bike_id": "a49908247a3b8d9c575b998812ca19b7", "type": "electric_scooter", "is_disabled": 0, "lat": 38.9041795, "rental_uris": {"ios": "https://dc.lft.to/lastmile_qr_scan", "android": "https://dc.lft.to/lastmile_qr_scan"}, "is_reserved": 0, "fusion_lon": 0.0, "fusion_lat": 0.0, "lon": -77.048645, "name": "a49908247a3b8d9c575b998812ca19b7"}, {"bike_id": "584d560e99cfe2c9c0e18f84f806555a", "type": "electric_scooter", "is_disabled": 0, "lat": 38.911107, "rental_uris": {"ios": "https://dc.lft.to/lastmile_qr_scan", "android": "https://dc.lft.to/lastmile_qr_scan"}, "is_reserved": 0, "fusion_lon": 0.0, "fusion_lat": 0.0, "lon": -77.02419516666667, "name": "584d560e99cfe2c9c0e18f84f806555a"}, {"bike_id": "a427e60984477140d48b38169208f2c6", "type": "electric_scooter", "is_disabled": 0, "lat": 38.8972955, "rental_uris": {"ios": "https://dc.lft.to/lastmile_qr_scan", "android": "https://dc.lft.to/lastmile_qr_scan"}, "is_reserved": 0, "fusion_lon": 0.0, "fusion_lat": 0.0, "lon": -77.04526633333333, "name": "a427e60984477140d48b38169208f2c6"}, {"bike_id": "45fefc7f4d8fbce5451009d8ced217e4", "type": "electric_scooter", "is_disabled": 0, "lat": 38.923796833333334, "rental_uris": {"ios": "https://dc.lft.to/lastmile_qr_scan", "android": "https://dc.lft.to/lastmile_qr_scan"}, "is_reserved": 0, "fusion_lon": 0.0, "fusion_lat": 0.0, "lon": -77.0313245, "name": "45fefc7f4d8fbce5451009d8ced217e4"}, {"bike_id": "c127cbd9efb2a4351d294e9ec0508bae", "type": "electric_scooter", "is_disabled": 0, "lat": 38.92017383333334, "rental_uris": {"ios": "https://dc.lft.to/lastmile_qr_scan", "android": "https://dc.lft.to/lastmile_qr_scan"}, "is_reserved": 0, "fusion_lon": 0.0, "fusion_lat": 0.0, "lon": -77.0131965, "name": "c127cbd9efb2a4351d294e9ec0508bae"}, {"bike_id": "ac0bb0ff5caa81a5232dbf09fa93af47", "type": "electric_scooter", "is_disabled": 0, "lat": 38.91328716666666, "rental_uris": {"ios": "https://dc.lft.to/lastmile_qr_scan", "android": "https://dc.lft.to/lastmile_qr_scan"}, "is_reserved": 0, "fusion_lon": 0.0, "fusion_lat": 0.0, "lon": -77.02692483333334, "name": "ac0bb0ff5caa81a5232dbf09fa93af47"}, {"bike_id": "e9382a38528437a6014fceda31908493", "type": "electric_scooter", "is_disabled": 0, "lat": 38.942130166666665, "rental_uris": {"ios": "https://dc.lft.to/lastmile_qr_scan", "android": "https://dc.lft.to/lastmile_qr_scan"}, "is_reserved": 0, "fusion_lon": 0.0, "fusion_lat": 0.0, "lon": -77.02584633333333, "name": "e9382a38528437a6014fceda31908493"}, {"bike_id": "23f650210dd54a1f9c7ea2add1c1ea62", "type": "electric_scooter", "is_disabled": 0, "lat": 38.91016666666667, "rental_uris": {"ios": "https://dc.lft.to/lastmile_qr_scan", "android": "https://dc.lft.to/lastmile_qr_scan"}, "is_reserved": 0, "fusion_lon": 0.0, "fusion_lat": 0.0, "lon": -77.03858716666667, "name": "23f650210dd54a1f9c7ea2add1c1ea62"}, {"bike_id": "72c1b3503d28e47ac3170ca44a496148", "type": "electric_scooter", "is_disabled": 0, "lat": 38.93635966666667, "rental_uris": {"ios": "https://dc.lft.to/lastmile_qr_scan", "android": "https://dc.lft.to/lastmile_qr_scan"}, "is_reserved": 0, "fusion_lon": 0.0, "fusion_lat": 0.0, "lon": -77.058831, "name": "72c1b3503d28e47ac3170ca44a496148"}, {"bike_id": "ee7057eede5657b185de9998fd24b693", "type": "electric_scooter", "is_disabled": 0, "lat": 38.923358, "rental_uris": {"ios": "https://dc.lft.to/lastmile_qr_scan", "android": "https://dc.lft.to/lastmile_qr_scan"}, "is_reserved": 0, "fusion_lon": 0.0, "fusion_lat": 0.0, "lon": -77.04449433333333, "name": "ee7057eede5657b185de9998fd24b693"}, {"bike_id": "83c0397d8cb85459164a9bcbac1527c2", "type": "electric_scooter", "is_disabled": 0, "lat": 38.919253499999996, "rental_uris": {"ios": "https://dc.lft.to/lastmile_qr_scan", "android": "https://dc.lft.to/lastmile_qr_scan"}, "is_reserved": 0, "fusion_lon": 0.0, "fusion_lat": 0.0, "lon": -77.02570816666666, "name": "83c0397d8cb85459164a9bcbac1527c2"}, {"bike_id": "6f49007b40295c54442cb667ab2d48e9", "type": "electric_scooter", "is_disabled": 0, "lat": 38.93132816666667, "rental_uris": {"ios": "https://dc.lft.to/lastmile_qr_scan", "android": "https://dc.lft.to/lastmile_qr_scan"}, "is_reserved": 0, "fusion_lon": 0.0, "fusion_lat": 0.0, "lon": -77.0434355, "name": "6f49007b40295c54442cb667ab2d48e9"}, {"bike_id": "a73ede94f11dd519be43f43dc2848fbe", "type": "electric_scooter", "is_disabled": 0, "lat": 38.9161985, "rental_uris": {"ios": "https://dc.lft.to/lastmile_qr_scan", "android": "https://dc.lft.to/lastmile_qr_scan"}, "is_reserved": 0, "fusion_lon": 0.0, "fusion_lat": 0.0, "lon": -77.03044333333334, "name": "a73ede94f11dd519be43f43dc2848fbe"}, {"bike_id": "2bf2bc17f26c54600109fefc7aca879e", "type": "electric_scooter", "is_disabled": 0, "lat": 38.923745833333335, "rental_uris": {"ios": "https://dc.lft.to/lastmile_qr_scan", "android": "https://dc.lft.to/lastmile_qr_scan"}, "is_reserved": 0, "fusion_lon": 0.0, "fusion_lat": 0.0, "lon": -77.03088566666666, "name": "2bf2bc17f26c54600109fefc7aca879e"}, {"bike_id": "37959af01ca105de35af407573280c9f", "type": "electric_scooter", "is_disabled": 0, "lat": 38.92072833333334, "rental_uris": {"ios": "https://dc.lft.to/lastmile_qr_scan", "android": "https://dc.lft.to/lastmile_qr_scan"}, "is_reserved": 0, "fusion_lon": 0.0, "fusion_lat": 0.0, "lon": -77.02840183333333, "name": "37959af01ca105de35af407573280c9f"}, {"bike_id": "9197623bfa35109e171e4f4c4ffb52c7", "type": "electric_scooter", "is_disabled": 0, "lat": 38.9163345, "rental_uris": {"ios": "https://dc.lft.to/lastmile_qr_scan", "android": "https://dc.lft.to/lastmile_qr_scan"}, "is_reserved": 0, "fusion_lon": 0.0, "fusion_lat": 0.0, "lon": -77.025487, "name": "9197623bfa35109e171e4f4c4ffb52c7"}, {"bike_id": "caf830ede87e44a454f8a4df5c10bbab", "type": "electric_scooter", "is_disabled": 0, "lat": 38.920312833333334, "rental_uris": {"ios": "https://dc.lft.to/lastmile_qr_scan", "android": "https://dc.lft.to/lastmile_qr_scan"}, "is_reserved": 0, "fusion_lon": 0.0, "fusion_lat": 0.0, "lon": -77.01312883333334, "name": "caf830ede87e44a454f8a4df5c10bbab"}, {"bike_id": "5b70ddb243aaa3b3c6a02281051fb35e", "type": "electric_scooter", "is_disabled": 0, "lat": 38.9162765, "rental_uris": {"ios": "https://dc.lft.to/lastmile_qr_scan", "android": "https://dc.lft.to/lastmile_qr_scan"}, "is_reserved": 0, "fusion_lon": 0.0, "fusion_lat": 0.0, "lon": -77.04009583333334, "name": "5b70ddb243aaa3b3c6a02281051fb35e"}, {"bike_id": "e0d79375117e6de325728384203b9ea0", "type": "electric_scooter", "is_disabled": 0, "lat": 38.915674333333335, "rental_uris": {"ios": "https://dc.lft.to/lastmile_qr_scan", "android": "https://dc.lft.to/lastmile_qr_scan"}, "is_reserved": 0, "fusion_lon": 0.0, "fusion_lat": 0.0, "lon": -77.02414783333333, "name": "e0d79375117e6de325728384203b9ea0"}, {"bike_id": "802af76310cffa582e343149df6e99dc", "type": "electric_bike", "is_disabled": 0, "lat": 38.8730035, "rental_uris": {"ios": "https://dc.lft.to/lastmile_qr_scan", "android": "https://dc.lft.to/lastmile_qr_scan"}, "is_reserved": 0, "fusion_lon": 0.0, "fusion_lat": 0.0, "lon": -77.13923483333333, "name": "802af76310cffa582e343149df6e99dc"}, {"bike_id": "4c836005be48e55ac91fee9c81ea767e", "type": "electric_scooter", "is_disabled": 0, "lat": 38.9317125, "rental_uris": {"ios": "https://dc.lft.to/lastmile_qr_scan", "android": "https://dc.lft.to/lastmile_qr_scan"}, "is_reserved": 0, "fusion_lon": 0.0, "fusion_lat": 0.0, "lon": -77.031671, "name": "4c836005be48e55ac91fee9c81ea767e"}, {"bike_id": "de9b9d3e02ca0af9845f6881937e8e1e", "type": "electric_scooter", "is_disabled": 0, "lat": 38.9011815, "rental_uris": {"ios": "https://dc.lft.to/lastmile_qr_scan", "android": "https://dc.lft.to/lastmile_qr_scan"}, "is_reserved": 0, "fusion_lon": 0.0, "fusion_lat": 0.0, "lon": -77.05038916666666, "name": "de9b9d3e02ca0af9845f6881937e8e1e"}, {"bike_id": "4c785ee7f7f9dd448cf52109e1926c3a", "type": "electric_scooter", "is_disabled": 0, "lat": 38.923641, "rental_uris": {"ios": "https://dc.lft.to/lastmile_qr_scan", "android": "https://dc.lft.to/lastmile_qr_scan"}, "is_reserved": 0, "fusion_lon": 0.0, "fusion_lat": 0.0, "lon": -77.05040366666667, "name": "4c785ee7f7f9dd448cf52109e1926c3a"}, {"bike_id": "b6ef00bcecd973fe724850db3682e7b9", "type": "electric_scooter", "is_disabled": 0, "lat": 38.939199333333335, "rental_uris": {"ios": "https://dc.lft.to/lastmile_qr_scan", "android": "https://dc.lft.to/lastmile_qr_scan"}, "is_reserved": 0, "fusion_lon": 0.0, "fusion_lat": 0.0, "lon": -77.06049383333334, "name": "b6ef00bcecd973fe724850db3682e7b9"}, {"bike_id": "b467720d52e61710426b671018fcd7c6", "type": "electric_scooter", "is_disabled": 0, "lat": 38.9420325, "rental_uris": {"ios": "https://dc.lft.to/lastmile_qr_scan", "android": "https://dc.lft.to/lastmile_qr_scan"}, "is_reserved": 0, "fusion_lon": 0.0, "fusion_lat": 0.0, "lon": -77.01733866666666, "name": "b467720d52e61710426b671018fcd7c6"}, {"bike_id": "18eb8a4278d61221769d4e62a565c5f1", "type": "electric_scooter", "is_disabled": 0, "lat": 38.916837, "rental_uris": {"ios": "https://dc.lft.to/lastmile_qr_scan", "android": "https://dc.lft.to/lastmile_qr_scan"}, "is_reserved": 0, "fusion_lon": 0.0, "fusion_lat": 0.0, "lon": -77.028696, "name": "18eb8a4278d61221769d4e62a565c5f1"}, {"bike_id": "f14b3a02af496011fd85d890a31d66b8", "type": "electric_scooter", "is_disabled": 0, "lat": 38.9057695, "rental_uris": {"ios": "https://dc.lft.to/lastmile_qr_scan", "android": "https://dc.lft.to/lastmile_qr_scan"}, "is_reserved": 0, "fusion_lon": 0.0, "fusion_lat": 0.0, "lon": -76.98430083333334, "name": "f14b3a02af496011fd85d890a31d66b8"}, {"bike_id": "d360f051d5d1a2545208dd9c9b94146c", "type": "electric_scooter", "is_disabled": 0, "lat": 38.88098333333333, "rental_uris": {"ios": "https://dc.lft.to/lastmile_qr_scan", "android": "https://dc.lft.to/lastmile_qr_scan"}, "is_reserved": 0, "fusion_lon": 0.0, "fusion_lat": 0.0, "lon": -77.01656116666666, "name": "d360f051d5d1a2545208dd9c9b94146c"}, {"bike_id": "89cd81be615edd2a00de0791f77cef0f", "type": "electric_scooter", "is_disabled": 0, "lat": 38.884759833333334, "rental_uris": {"ios": "https://dc.lft.to/lastmile_qr_scan", "android": "https://dc.lft.to/lastmile_qr_scan"}, "is_reserved": 0, "fusion_lon": 0.0, "fusion_lat": 0.0, "lon": -76.98217066666666, "name": "89cd81be615edd2a00de0791f77cef0f"}, {"bike_id": "c87ecf183e53c34ed308a2d66ad0d243", "type": "electric_scooter", "is_disabled": 0, "lat": 38.93254016666667, "rental_uris": {"ios": "https://dc.lft.to/lastmile_qr_scan", "android": "https://dc.lft.to/lastmile_qr_scan"}, "is_reserved": 0, "fusion_lon": 0.0, "fusion_lat": 0.0, "lon": -77.032802, "name": "c87ecf183e53c34ed308a2d66ad0d243"}, {"bike_id": "943dc18145e906b7876b00da107f3aec", "type": "electric_scooter", "is_disabled": 0, "lat": 38.914753833333336, "rental_uris": {"ios": "https://dc.lft.to/lastmile_qr_scan", "android": "https://dc.lft.to/lastmile_qr_scan"}, "is_reserved": 0, "fusion_lon": 0.0, "fusion_lat": 0.0, "lon": -76.98571983333333, "name": "943dc18145e906b7876b00da107f3aec"}, {"bike_id": "a3806c660dd4f68a8e1fe3b4b0eeea21", "type": "electric_scooter", "is_disabled": 0, "lat": 38.904847333333336, "rental_uris": {"ios": "https://dc.lft.to/lastmile_qr_scan", "android": "https://dc.lft.to/lastmile_qr_scan"}, "is_reserved": 0, "fusion_lon": 0.0, "fusion_lat": 0.0, "lon": -77.00722833333333, "name": "a3806c660dd4f68a8e1fe3b4b0eeea21"}, {"bike_id": "37942ad4e9c6baf2216a2aac07a6fc2b", "type": "electric_scooter", "is_disabled": 0, "lat": 38.9072085, "rental_uris": {"ios": "https://dc.lft.to/lastmile_qr_scan", "android": "https://dc.lft.to/lastmile_qr_scan"}, "is_reserved": 0, "fusion_lon": 0.0, "fusion_lat": 0.0, "lon": -77.034344, "name": "37942ad4e9c6baf2216a2aac07a6fc2b"}, {"bike_id": "3ec0e14001d5fbd0c7c2deaaa5e3adf9", "type": "electric_scooter", "is_disabled": 0, "lat": 38.921584, "rental_uris": {"ios": "https://dc.lft.to/lastmile_qr_scan", "android": "https://dc.lft.to/lastmile_qr_scan"}, "is_reserved": 0, "fusion_lon": 0.0, "fusion_lat": 0.0, "lon": -77.0331655, "name": "3ec0e14001d5fbd0c7c2deaaa5e3adf9"}, {"bike_id": "7dd37b669eac835b9beea976efa74714", "type": "electric_scooter", "is_disabled": 0, "lat": 38.9224915, "rental_uris": {"ios": "https://dc.lft.to/lastmile_qr_scan", "android": "https://dc.lft.to/lastmile_qr_scan"}, "is_reserved": 0, "fusion_lon": 0.0, "fusion_lat": 0.0, "lon": -77.02835633333333, "name": "7dd37b669eac835b9beea976efa74714"}, {"bike_id": "6130aec06c0c336de41e32afce60d6fb", "type": "electric_scooter", "is_disabled": 0, "lat": 38.899941166666665, "rental_uris": {"ios": "https://dc.lft.to/lastmile_qr_scan", "android": "https://dc.lft.to/lastmile_qr_scan"}, "is_reserved": 0, "fusion_lon": 0.0, "fusion_lat": 0.0, "lon": -77.01022933333333, "name": "6130aec06c0c336de41e32afce60d6fb"}, {"bike_id": "4113d54ff4b959ebec0b8fafc3f2b15f", "type": "electric_scooter", "is_disabled": 0, "lat": 38.902511, "rental_uris": {"ios": "https://dc.lft.to/lastmile_qr_scan", "android": "https://dc.lft.to/lastmile_qr_scan"}, "is_reserved": 0, "fusion_lon": 0.0, "fusion_lat": 0.0, "lon": -76.9866765, "name": "4113d54ff4b959ebec0b8fafc3f2b15f"}, {"bike_id": "82b9350021d839a7628589e49e5b1484", "type": "electric_scooter", "is_disabled": 0, "lat": 38.89682783333333, "rental_uris": {"ios": "https://dc.lft.to/lastmile_qr_scan", "android": "https://dc.lft.to/lastmile_qr_scan"}, "is_reserved": 0, "fusion_lon": 0.0, "fusion_lat": 0.0, "lon": -77.02397466666666, "name": "82b9350021d839a7628589e49e5b1484"}, {"bike_id": "c085c20efdb7ab579ee028e9061c5df8", "type": "electric_scooter", "is_disabled": 0, "lat": 38.88595883333333, "rental_uris": {"ios": "https://dc.lft.to/lastmile_qr_scan", "android": "https://dc.lft.to/lastmile_qr_scan"}, "is_reserved": 0, "fusion_lon": 0.0, "fusion_lat": 0.0, "lon": -77.0284005, "name": "c085c20efdb7ab579ee028e9061c5df8"}, {"bike_id": "07fd8a176ebfff2ab51f9e23b42e83e8", "type": "electric_scooter", "is_disabled": 0, "lat": 38.83821, "rental_uris": {"ios": "https://dc.lft.to/lastmile_qr_scan", "android": "https://dc.lft.to/lastmile_qr_scan"}, "is_reserved": 0, "fusion_lon": 0.0, "fusion_lat": 0.0, "lon": -77.00265716666667, "name": "07fd8a176ebfff2ab51f9e23b42e83e8"}, {"bike_id": "547030da540d7c4a8a86528b507d31a2", "type": "electric_scooter", "is_disabled": 0, "lat": 38.92142116666667, "rental_uris": {"ios": "https://dc.lft.to/lastmile_qr_scan", "android": "https://dc.lft.to/lastmile_qr_scan"}, "is_reserved": 0, "fusion_lon": 0.0, "fusion_lat": 0.0, "lon": -77.0180125, "name": "547030da540d7c4a8a86528b507d31a2"}, {"bike_id": "4b741da709d8bccfc97f5524ea54f6ae", "type": "electric_scooter", "is_disabled": 0, "lat": 38.92599716666667, "rental_uris": {"ios": "https://dc.lft.to/lastmile_qr_scan", "android": "https://dc.lft.to/lastmile_qr_scan"}, "is_reserved": 0, "fusion_lon": 0.0, "fusion_lat": 0.0, "lon": -77.07328566666666, "name": "4b741da709d8bccfc97f5524ea54f6ae"}, {"bike_id": "219c9f79c825f9c7b0e64f74ecd858e7", "type": "electric_scooter", "is_disabled": 0, "lat": 38.93540433333333, "rental_uris": {"ios": "https://dc.lft.to/lastmile_qr_scan", "android": "https://dc.lft.to/lastmile_qr_scan"}, "is_reserved": 0, "fusion_lon": 0.0, "fusion_lat": 0.0, "lon": -77.0339485, "name": "219c9f79c825f9c7b0e64f74ecd858e7"}, {"bike_id": "6899a01f186cd1760e5ef2ed8bdc6608", "type": "electric_scooter", "is_disabled": 0, "lat": 38.88887283333333, "rental_uris": {"ios": "https://dc.lft.to/lastmile_qr_scan", "android": "https://dc.lft.to/lastmile_qr_scan"}, "is_reserved": 0, "fusion_lon": 0.0, "fusion_lat": 0.0, "lon": -77.03326783333333, "name": "6899a01f186cd1760e5ef2ed8bdc6608"}, {"bike_id": "312fe9aa4a51fa5a8802441f05ed4f20", "type": "electric_scooter", "is_disabled": 0, "lat": 38.86178433333333, "rental_uris": {"ios": "https://dc.lft.to/lastmile_qr_scan", "android": "https://dc.lft.to/lastmile_qr_scan"}, "is_reserved": 0, "fusion_lon": 0.0, "fusion_lat": 0.0, "lon": -77.08810233333334, "name": "312fe9aa4a51fa5a8802441f05ed4f20"}, {"bike_id": "228125646485002acc5b0a3a441d7c53", "type": "electric_scooter", "is_disabled": 0, "lat": 38.90537333333333, "rental_uris": {"ios": "https://dc.lft.to/lastmile_qr_scan", "android": "https://dc.lft.to/lastmile_qr_scan"}, "is_reserved": 0, "fusion_lon": 0.0, "fusion_lat": 0.0, "lon": -77.04277333333333, "name": "228125646485002acc5b0a3a441d7c53"}, {"bike_id": "8e572264e58b3dd28f1401ea1e57f0e4", "type": "electric_scooter", "is_disabled": 0, "lat": 38.948963, "rental_uris": {"ios": "https://dc.lft.to/lastmile_qr_scan", "android": "https://dc.lft.to/lastmile_qr_scan"}, "is_reserved": 0, "fusion_lon": 0.0, "fusion_lat": 0.0, "lon": -77.02071816666667, "name": "8e572264e58b3dd28f1401ea1e57f0e4"}, {"bike_id": "add8dc55a762a8d9ee872e4e4e36405f", "type": "electric_scooter", "is_disabled": 0, "lat": 38.936199, "rental_uris": {"ios": "https://dc.lft.to/lastmile_qr_scan", "android": "https://dc.lft.to/lastmile_qr_scan"}, "is_reserved": 0, "fusion_lon": 0.0, "fusion_lat": 0.0, "lon": -77.03761333333334, "name": "add8dc55a762a8d9ee872e4e4e36405f"}, {"bike_id": "b5408f9383f9a7691ec095fad9bbbfe6", "type": "electric_bike", "is_disabled": 0, "lat": 38.987662, "rental_uris": {"ios": "https://dc.lft.to/lastmile_qr_scan", "android": "https://dc.lft.to/lastmile_qr_scan"}, "is_reserved": 0, "fusion_lon": 0.0, "fusion_lat": 0.0, "lon": -77.14058833333333, "name": "b5408f9383f9a7691ec095fad9bbbfe6"}, {"bike_id": "8fdd65dfe35badc38d41c7b63bdda6e8", "type": "electric_scooter", "is_disabled": 0, "lat": 38.91658733333333, "rental_uris": {"ios": "https://dc.lft.to/lastmile_qr_scan", "android": "https://dc.lft.to/lastmile_qr_scan"}, "is_reserved": 0, "fusion_lon": 0.0, "fusion_lat": 0.0, "lon": -76.97908916666667, "name": "8fdd65dfe35badc38d41c7b63bdda6e8"}, {"bike_id": "afeea0ce8ca613196b71c82c0e836c6e", "type": "electric_scooter", "is_disabled": 0, "lat": 38.90044966666667, "rental_uris": {"ios": "https://dc.lft.to/lastmile_qr_scan", "android": "https://dc.lft.to/lastmile_qr_scan"}, "is_reserved": 0, "fusion_lon": 0.0, "fusion_lat": 0.0, "lon": -77.0173685, "name": "afeea0ce8ca613196b71c82c0e836c6e"}, {"bike_id": "631379a803dff14af63013604e13ceb8", "type": "electric_bike", "is_disabled": 0, "lat": 38.908986, "rental_uris": {"ios": "https://dc.lft.to/lastmile_qr_scan", "android": "https://dc.lft.to/lastmile_qr_scan"}, "is_reserved": 0, "fusion_lon": 0.0, "fusion_lat": 0.0, "lon": -77.05717083333333, "name": "631379a803dff14af63013604e13ceb8"}, {"bike_id": "f165e21a28bd92fce4f1ef979905ec30", "type": "electric_scooter", "is_disabled": 0, "lat": 38.9248735, "rental_uris": {"ios": "https://dc.lft.to/lastmile_qr_scan", "android": "https://dc.lft.to/lastmile_qr_scan"}, "is_reserved": 0, "fusion_lon": 0.0, "fusion_lat": 0.0, "lon": -77.03176733333333, "name": "f165e21a28bd92fce4f1ef979905ec30"}, {"bike_id": "9f7223086d7d2bb140ed4c0bd9f0ffb1", "type": "electric_bike", "is_disabled": 0, "lat": 38.95173066666667, "rental_uris": {"ios": "https://dc.lft.to/lastmile_qr_scan", "android": "https://dc.lft.to/lastmile_qr_scan"}, "is_reserved": 0, "fusion_lon": 0.0, "fusion_lat": 0.0, "lon": -76.97729366666667, "name": "9f7223086d7d2bb140ed4c0bd9f0ffb1"}, {"bike_id": "df14cf97d00fb406cc5833f26002a89a", "type": "electric_scooter", "is_disabled": 0, "lat": 38.92374183333333, "rental_uris": {"ios": "https://dc.lft.to/lastmile_qr_scan", "android": "https://dc.lft.to/lastmile_qr_scan"}, "is_reserved": 0, "fusion_lon": 0.0, "fusion_lat": 0.0, "lon": -77.01218733333333, "name": "df14cf97d00fb406cc5833f26002a89a"}, {"bike_id": "9303d3602b23fceb9b68fc16057c12cb", "type": "electric_scooter", "is_disabled": 0, "lat": 38.92326166666667, "rental_uris": {"ios": "https://dc.lft.to/lastmile_qr_scan", "android": "https://dc.lft.to/lastmile_qr_scan"}, "is_reserved": 0, "fusion_lon": 0.0, "fusion_lat": 0.0, "lon": -77.00887233333333, "name": "9303d3602b23fceb9b68fc16057c12cb"}, {"bike_id": "c6d10a3d88989d0c89e9463f56a66210", "type": "electric_scooter", "is_disabled": 0, "lat": 38.89743466666667, "rental_uris": {"ios": "https://dc.lft.to/lastmile_qr_scan", "android": "https://dc.lft.to/lastmile_qr_scan"}, "is_reserved": 0, "fusion_lon": 0.0, "fusion_lat": 0.0, "lon": -77.02437866666666, "name": "c6d10a3d88989d0c89e9463f56a66210"}, {"bike_id": "bd47fdf00692aacce4b4d3b4f7a67501", "type": "electric_scooter", "is_disabled": 0, "lat": 38.91824483333333, "rental_uris": {"ios": "https://dc.lft.to/lastmile_qr_scan", "android": "https://dc.lft.to/lastmile_qr_scan"}, "is_reserved": 0, "fusion_lon": 0.0, "fusion_lat": 0.0, "lon": -77.0493975, "name": "bd47fdf00692aacce4b4d3b4f7a67501"}, {"bike_id": "38d421c06491d243ee0547db3f61b459", "type": "electric_scooter", "is_disabled": 0, "lat": 38.924488, "rental_uris": {"ios": "https://dc.lft.to/lastmile_qr_scan", "android": "https://dc.lft.to/lastmile_qr_scan"}, "is_reserved": 0, "fusion_lon": 0.0, "fusion_lat": 0.0, "lon": -77.04194266666667, "name": "38d421c06491d243ee0547db3f61b459"}, {"bike_id": "cdb2610c05d7d16b8271b58eafde8009", "type": "electric_scooter", "is_disabled": 0, "lat": 38.922156, "rental_uris": {"ios": "https://dc.lft.to/lastmile_qr_scan", "android": "https://dc.lft.to/lastmile_qr_scan"}, "is_reserved": 0, "fusion_lon": 0.0, "fusion_lat": 0.0, "lon": -77.03290983333333, "name": "cdb2610c05d7d16b8271b58eafde8009"}, {"bike_id": "ff1bd8f675f13eb1a176822c51a85a4b", "type": "electric_scooter", "is_disabled": 0, "lat": 38.91552133333333, "rental_uris": {"ios": "https://dc.lft.to/lastmile_qr_scan", "android": "https://dc.lft.to/lastmile_qr_scan"}, "is_reserved": 0, "fusion_lon": 0.0, "fusion_lat": 0.0, "lon": -77.044781, "name": "ff1bd8f675f13eb1a176822c51a85a4b"}, {"bike_id": "fc3f6b5f486cd8bc852dff4ac63b8421", "type": "electric_scooter", "is_disabled": 0, "lat": 38.91726216666667, "rental_uris": {"ios": "https://dc.lft.to/lastmile_qr_scan", "android": "https://dc.lft.to/lastmile_qr_scan"}, "is_reserved": 0, "fusion_lon": 0.0, "fusion_lat": 0.0, "lon": -77.03661133333334, "name": "fc3f6b5f486cd8bc852dff4ac63b8421"}, {"bike_id": "69dda36b479df67364be3b7ff6877390", "type": "electric_bike", "is_disabled": 0, "lat": 38.897405666666664, "rental_uris": {"ios": "https://dc.lft.to/lastmile_qr_scan", "android": "https://dc.lft.to/lastmile_qr_scan"}, "is_reserved": 0, "fusion_lon": 0.0, "fusion_lat": 0.0, "lon": -76.92045716666667, "name": "69dda36b479df67364be3b7ff6877390"}, {"bike_id": "35a9730726bf5f7bf6ff8ea2e61ec936", "type": "electric_scooter", "is_disabled": 0, "lat": 38.92797016666667, "rental_uris": {"ios": "https://dc.lft.to/lastmile_qr_scan", "android": "https://dc.lft.to/lastmile_qr_scan"}, "is_reserved": 0, "fusion_lon": 0.0, "fusion_lat": 0.0, "lon": -77.043113, "name": "35a9730726bf5f7bf6ff8ea2e61ec936"}, {"bike_id": "b448c653f99584d07a1c6b1c53aac8e4", "type": "electric_scooter", "is_disabled": 0, "lat": 38.92189916666667, "rental_uris": {"ios": "https://dc.lft.to/lastmile_qr_scan", "android": "https://dc.lft.to/lastmile_qr_scan"}, "is_reserved": 0, "fusion_lon": 0.0, "fusion_lat": 0.0, "lon": -77.01968816666667, "name": "b448c653f99584d07a1c6b1c53aac8e4"}, {"bike_id": "e94310f15273fc6698461a04b4391264", "type": "electric_scooter", "is_disabled": 0, "lat": 38.964194166666665, "rental_uris": {"ios": "https://dc.lft.to/lastmile_qr_scan", "android": "https://dc.lft.to/lastmile_qr_scan"}, "is_reserved": 0, "fusion_lon": 0.0, "fusion_lat": 0.0, "lon": -77.024261, "name": "e94310f15273fc6698461a04b4391264"}, {"bike_id": "4fd0ae7793dc59e2541c37c4f8ab7070", "type": "electric_scooter", "is_disabled": 0, "lat": 38.904900833333336, "rental_uris": {"ios": "https://dc.lft.to/lastmile_qr_scan", "android": "https://dc.lft.to/lastmile_qr_scan"}, "is_reserved": 0, "fusion_lon": 0.0, "fusion_lat": 0.0, "lon": -77.02724233333333, "name": "4fd0ae7793dc59e2541c37c4f8ab7070"}, {"bike_id": "c6adc0924a9d4a2ceb0fae417be4c47f", "type": "electric_scooter", "is_disabled": 0, "lat": 38.8984345, "rental_uris": {"ios": "https://dc.lft.to/lastmile_qr_scan", "android": "https://dc.lft.to/lastmile_qr_scan"}, "is_reserved": 0, "fusion_lon": 0.0, "fusion_lat": 0.0, "lon": -77.04658333333333, "name": "c6adc0924a9d4a2ceb0fae417be4c47f"}, {"bike_id": "b0f7cb9a5d22da448932aa38a72c882f", "type": "electric_scooter", "is_disabled": 0, "lat": 38.893462, "rental_uris": {"ios": "https://dc.lft.to/lastmile_qr_scan", "android": "https://dc.lft.to/lastmile_qr_scan"}, "is_reserved": 0, "fusion_lon": 0.0, "fusion_lat": 0.0, "lon": -76.99270933333334, "name": "b0f7cb9a5d22da448932aa38a72c882f"}, {"bike_id": "b218e977b78d94fc37705abedf0fe59d", "type": "electric_bike", "is_disabled": 0, "lat": 39.03740966666667, "rental_uris": {"ios": "https://dc.lft.to/lastmile_qr_scan", "android": "https://dc.lft.to/lastmile_qr_scan"}, "is_reserved": 0, "fusion_lon": 0.0, "fusion_lat": 0.0, "lon": -77.05480533333333, "name": "b218e977b78d94fc37705abedf0fe59d"}, {"bike_id": "c395cb89c9e42f6ee7e948452d2e692a", "type": "electric_scooter", "is_disabled": 0, "lat": 38.8774545, "rental_uris": {"ios": "https://dc.lft.to/lastmile_qr_scan", "android": "https://dc.lft.to/lastmile_qr_scan"}, "is_reserved": 0, "fusion_lon": 0.0, "fusion_lat": 0.0, "lon": -76.99725383333333, "name": "c395cb89c9e42f6ee7e948452d2e692a"}, {"bike_id": "ad468e771b51a7e1fb66895de50805e9", "type": "electric_bike", "is_disabled": 0, "lat": 38.88130966666667, "rental_uris": {"ios": "https://dc.lft.to/lastmile_qr_scan", "android": "https://dc.lft.to/lastmile_qr_scan"}, "is_reserved": 0, "fusion_lon": 0.0, "fusion_lat": 0.0, "lon": -77.093507, "name": "ad468e771b51a7e1fb66895de50805e9"}, {"bike_id": "551dccfce4c93e7a361020768abf4455", "type": "electric_scooter", "is_disabled": 0, "lat": 38.957080833333336, "rental_uris": {"ios": "https://dc.lft.to/lastmile_qr_scan", "android": "https://dc.lft.to/lastmile_qr_scan"}, "is_reserved": 0, "fusion_lon": 0.0, "fusion_lat": 0.0, "lon": -77.07743516666666, "name": "551dccfce4c93e7a361020768abf4455"}, {"bike_id": "a16ef5bf1bd6cc94eeffe098b03345dd", "type": "electric_bike", "is_disabled": 0, "lat": 38.90827016666667, "rental_uris": {"ios": "https://dc.lft.to/lastmile_qr_scan", "android": "https://dc.lft.to/lastmile_qr_scan"}, "is_reserved": 0, "fusion_lon": 0.0, "fusion_lat": 0.0, "lon": -76.94157033333333, "name": "a16ef5bf1bd6cc94eeffe098b03345dd"}, {"bike_id": "6a77acacc8ec4f2e516393d5201f5095", "type": "electric_bike", "is_disabled": 0, "lat": 38.919641166666665, "rental_uris": {"ios": "https://dc.lft.to/lastmile_qr_scan", "android": "https://dc.lft.to/lastmile_qr_scan"}, "is_reserved": 0, "fusion_lon": 0.0, "fusion_lat": 0.0, "lon": -77.00360033333334, "name": "6a77acacc8ec4f2e516393d5201f5095"}, {"bike_id": "9726da056a2277fc32752b2c89155c3b", "type": "electric_scooter", "is_disabled": 0, "lat": 38.90837783333333, "rental_uris": {"ios": "https://dc.lft.to/lastmile_qr_scan", "android": "https://dc.lft.to/lastmile_qr_scan"}, "is_reserved": 0, "fusion_lon": 0.0, "fusion_lat": 0.0, "lon": -77.021939, "name": "9726da056a2277fc32752b2c89155c3b"}, {"bike_id": "db94b02723b531ae086e4d939a4aac04", "type": "electric_scooter", "is_disabled": 0, "lat": 38.889891, "rental_uris": {"ios": "https://dc.lft.to/lastmile_qr_scan", "android": "https://dc.lft.to/lastmile_qr_scan"}, "is_reserved": 0, "fusion_lon": 0.0, "fusion_lat": 0.0, "lon": -77.00119666666667, "name": "db94b02723b531ae086e4d939a4aac04"}, {"bike_id": "8931364d80e078df6744078a466f1f65", "type": "electric_bike", "is_disabled": 0, "lat": 39.05496616666667, "rental_uris": {"ios": "https://dc.lft.to/lastmile_qr_scan", "android": "https://dc.lft.to/lastmile_qr_scan"}, "is_reserved": 0, "fusion_lon": 0.0, "fusion_lat": 0.0, "lon": -77.11789666666667, "name": "8931364d80e078df6744078a466f1f65"}, {"bike_id": "09d625c7dd9770dedd830adf2a88b033", "type": "electric_scooter", "is_disabled": 0, "lat": 38.91767433333333, "rental_uris": {"ios": "https://dc.lft.to/lastmile_qr_scan", "android": "https://dc.lft.to/lastmile_qr_scan"}, "is_reserved": 0, "fusion_lon": 0.0, "fusion_lat": 0.0, "lon": -77.01498816666667, "name": "09d625c7dd9770dedd830adf2a88b033"}, {"bike_id": "73dd16bba8d79a0722fb233d6c7e4b0f", "type": "electric_scooter", "is_disabled": 0, "lat": 38.92219383333333, "rental_uris": {"ios": "https://dc.lft.to/lastmile_qr_scan", "android": "https://dc.lft.to/lastmile_qr_scan"}, "is_reserved": 0, "fusion_lon": 0.0, "fusion_lat": 0.0, "lon": -77.02212966666667, "name": "73dd16bba8d79a0722fb233d6c7e4b0f"}, {"bike_id": "9b22b6e04ecb42dc8b32c2f847b8ea2b", "type": "electric_scooter", "is_disabled": 0, "lat": 38.90687616666666, "rental_uris": {"ios": "https://dc.lft.to/lastmile_qr_scan", "android": "https://dc.lft.to/lastmile_qr_scan"}, "is_reserved": 0, "fusion_lon": 0.0, "fusion_lat": 0.0, "lon": -77.053281, "name": "9b22b6e04ecb42dc8b32c2f847b8ea2b"}, {"bike_id": "6b3e3d4e0587e55dae1a5e91aa71837b", "type": "electric_scooter", "is_disabled": 0, "lat": 38.902365, "rental_uris": {"ios": "https://dc.lft.to/lastmile_qr_scan", "android": "https://dc.lft.to/lastmile_qr_scan"}, "is_reserved": 0, "fusion_lon": 0.0, "fusion_lat": 0.0, "lon": -77.0432185, "name": "6b3e3d4e0587e55dae1a5e91aa71837b"}, {"bike_id": "eea1e42dc471672db5ccd0f04421ead1", "type": "electric_bike", "is_disabled": 0, "lat": 38.80918583333333, "rental_uris": {"ios": "https://dc.lft.to/lastmile_qr_scan", "android": "https://dc.lft.to/lastmile_qr_scan"}, "is_reserved": 0, "fusion_lon": 0.0, "fusion_lat": 0.0, "lon": -77.0865315, "name": "eea1e42dc471672db5ccd0f04421ead1"}, {"bike_id": "25e48d8254da6f4334cf5580049a82f6", "type": "electric_scooter", "is_disabled": 0, "lat": 38.892403, "rental_uris": {"ios": "https://dc.lft.to/lastmile_qr_scan", "android": "https://dc.lft.to/lastmile_qr_scan"}, "is_reserved": 0, "fusion_lon": 0.0, "fusion_lat": 0.0, "lon": -76.95328666666667, "name": "25e48d8254da6f4334cf5580049a82f6"}, {"bike_id": "64cca08579661d6d7ae94548cfb4e37f", "type": "electric_scooter", "is_disabled": 0, "lat": 38.933747833333335, "rental_uris": {"ios": "https://dc.lft.to/lastmile_qr_scan", "android": "https://dc.lft.to/lastmile_qr_scan"}, "is_reserved": 0, "fusion_lon": 0.0, "fusion_lat": 0.0, "lon": -77.05731366666667, "name": "64cca08579661d6d7ae94548cfb4e37f"}, {"bike_id": "e9964be653ac31556e3f9f90ca349056", "type": "electric_scooter", "is_disabled": 0, "lat": 38.88530266666667, "rental_uris": {"ios": "https://dc.lft.to/lastmile_qr_scan", "android": "https://dc.lft.to/lastmile_qr_scan"}, "is_reserved": 0, "fusion_lon": 0.0, "fusion_lat": 0.0, "lon": -76.9982895, "name": "e9964be653ac31556e3f9f90ca349056"}, {"bike_id": "82092ef2b102e470b87c21fdc6252b06", "type": "electric_scooter", "is_disabled": 0, "lat": 38.90981566666667, "rental_uris": {"ios": "https://dc.lft.to/lastmile_qr_scan", "android": "https://dc.lft.to/lastmile_qr_scan"}, "is_reserved": 0, "fusion_lon": 0.0, "fusion_lat": 0.0, "lon": -77.0333795, "name": "82092ef2b102e470b87c21fdc6252b06"}, {"bike_id": "136d10b9d859cd8d33f5cb30d6e1e101", "type": "electric_scooter", "is_disabled": 0, "lat": 38.9115405, "rental_uris": {"ios": "https://dc.lft.to/lastmile_qr_scan", "android": "https://dc.lft.to/lastmile_qr_scan"}, "is_reserved": 0, "fusion_lon": 0.0, "fusion_lat": 0.0, "lon": -77.02953233333334, "name": "136d10b9d859cd8d33f5cb30d6e1e101"}, {"bike_id": "daa58c511ec005b78e9332da3ba6c750", "type": "electric_scooter", "is_disabled": 0, "lat": 38.926864, "rental_uris": {"ios": "https://dc.lft.to/lastmile_qr_scan", "android": "https://dc.lft.to/lastmile_qr_scan"}, "is_reserved": 0, "fusion_lon": 0.0, "fusion_lat": 0.0, "lon": -77.07337383333333, "name": "daa58c511ec005b78e9332da3ba6c750"}, {"bike_id": "bf17b2f3322e06f2e2f4b69e4629876b", "type": "electric_scooter", "is_disabled": 0, "lat": 38.89482316666667, "rental_uris": {"ios": "https://dc.lft.to/lastmile_qr_scan", "android": "https://dc.lft.to/lastmile_qr_scan"}, "is_reserved": 0, "fusion_lon": 0.0, "fusion_lat": 0.0, "lon": -76.987729, "name": "bf17b2f3322e06f2e2f4b69e4629876b"}, {"bike_id": "f884b03249657be5a05dffa95aa1b908", "type": "electric_scooter", "is_disabled": 0, "lat": 38.87070466666667, "rental_uris": {"ios": "https://dc.lft.to/lastmile_qr_scan", "android": "https://dc.lft.to/lastmile_qr_scan"}, "is_reserved": 0, "fusion_lon": 0.0, "fusion_lat": 0.0, "lon": -76.9812465, "name": "f884b03249657be5a05dffa95aa1b908"}, {"bike_id": "a9bdae4ecd0277f1c9c7aee963a9b6e7", "type": "electric_bike", "is_disabled": 0, "lat": 38.80751933333333, "rental_uris": {"ios": "https://dc.lft.to/lastmile_qr_scan", "android": "https://dc.lft.to/lastmile_qr_scan"}, "is_reserved": 0, "fusion_lon": 0.0, "fusion_lat": 0.0, "lon": -77.09450183333334, "name": "a9bdae4ecd0277f1c9c7aee963a9b6e7"}, {"bike_id": "a21fd279cdc7e592ec19ce1de8844fea", "type": "electric_scooter", "is_disabled": 0, "lat": 38.9397855, "rental_uris": {"ios": "https://dc.lft.to/lastmile_qr_scan", "android": "https://dc.lft.to/lastmile_qr_scan"}, "is_reserved": 0, "fusion_lon": 0.0, "fusion_lat": 0.0, "lon": -77.02870983333334, "name": "a21fd279cdc7e592ec19ce1de8844fea"}, {"bike_id": "50d65288be8bef48e3496b9fff860913", "type": "electric_bike", "is_disabled": 0, "lat": 38.864859333333335, "rental_uris": {"ios": "https://dc.lft.to/lastmile_qr_scan", "android": "https://dc.lft.to/lastmile_qr_scan"}, "is_reserved": 0, "fusion_lon": 0.0, "fusion_lat": 0.0, "lon": -76.977455, "name": "50d65288be8bef48e3496b9fff860913"}, {"bike_id": "493ba80db8f078914fe47edaab736ec7", "type": "electric_scooter", "is_disabled": 0, "lat": 38.893067, "rental_uris": {"ios": "https://dc.lft.to/lastmile_qr_scan", "android": "https://dc.lft.to/lastmile_qr_scan"}, "is_reserved": 0, "fusion_lon": 0.0, "fusion_lat": 0.0, "lon": -77.0201975, "name": "493ba80db8f078914fe47edaab736ec7"}, {"bike_id": "602c1b6f4703833092ef8e1913b8252a", "type": "electric_scooter", "is_disabled": 0, "lat": 38.917267833333334, "rental_uris": {"ios": "https://dc.lft.to/lastmile_qr_scan", "android": "https://dc.lft.to/lastmile_qr_scan"}, "is_reserved": 0, "fusion_lon": 0.0, "fusion_lat": 0.0, "lon": -77.00817533333333, "name": "602c1b6f4703833092ef8e1913b8252a"}, {"bike_id": "ae32520412fb191c3ad598ba1ecc8b87", "type": "electric_scooter", "is_disabled": 0, "lat": 38.93895933333334, "rental_uris": {"ios": "https://dc.lft.to/lastmile_qr_scan", "android": "https://dc.lft.to/lastmile_qr_scan"}, "is_reserved": 0, "fusion_lon": 0.0, "fusion_lat": 0.0, "lon": -77.03349216666666, "name": "ae32520412fb191c3ad598ba1ecc8b87"}, {"bike_id": "f42cd07212cd47b6b418d01a4cbb1abf", "type": "electric_bike", "is_disabled": 0, "lat": 38.95961616666666, "rental_uris": {"ios": "https://dc.lft.to/lastmile_qr_scan", "android": "https://dc.lft.to/lastmile_qr_scan"}, "is_reserved": 0, "fusion_lon": 0.0, "fusion_lat": 0.0, "lon": -76.9815905, "name": "f42cd07212cd47b6b418d01a4cbb1abf"}, {"bike_id": "617aa71bf2891b7dfbe2a4a41efdbdc9", "type": "electric_scooter", "is_disabled": 0, "lat": 38.914203, "rental_uris": {"ios": "https://dc.lft.to/lastmile_qr_scan", "android": "https://dc.lft.to/lastmile_qr_scan"}, "is_reserved": 0, "fusion_lon": 0.0, "fusion_lat": 0.0, "lon": -77.039575, "name": "617aa71bf2891b7dfbe2a4a41efdbdc9"}, {"bike_id": "5c872b3aee1b82968238d8f67bc45727", "type": "electric_scooter", "is_disabled": 0, "lat": 38.92327733333333, "rental_uris": {"ios": "https://dc.lft.to/lastmile_qr_scan", "android": "https://dc.lft.to/lastmile_qr_scan"}, "is_reserved": 0, "fusion_lon": 0.0, "fusion_lat": 0.0, "lon": -77.00052533333333, "name": "5c872b3aee1b82968238d8f67bc45727"}, {"bike_id": "65c78c880a60922452fb13f6cd7d3e0f", "type": "electric_scooter", "is_disabled": 0, "lat": 38.94204516666667, "rental_uris": {"ios": "https://dc.lft.to/lastmile_qr_scan", "android": "https://dc.lft.to/lastmile_qr_scan"}, "is_reserved": 0, "fusion_lon": 0.0, "fusion_lat": 0.0, "lon": -77.025375, "name": "65c78c880a60922452fb13f6cd7d3e0f"}, {"bike_id": "307e331179ffb3d71989766b4a0e6950", "type": "electric_scooter", "is_disabled": 0, "lat": 38.924865833333335, "rental_uris": {"ios": "https://dc.lft.to/lastmile_qr_scan", "android": "https://dc.lft.to/lastmile_qr_scan"}, "is_reserved": 0, "fusion_lon": 0.0, "fusion_lat": 0.0, "lon": -77.02961366666666, "name": "307e331179ffb3d71989766b4a0e6950"}, {"bike_id": "66ceeb333114734300a7a34e20a6951a", "type": "electric_scooter", "is_disabled": 0, "lat": 38.85809166666667, "rental_uris": {"ios": "https://dc.lft.to/lastmile_qr_scan", "android": "https://dc.lft.to/lastmile_qr_scan"}, "is_reserved": 0, "fusion_lon": 0.0, "fusion_lat": 0.0, "lon": -76.98924283333334, "name": "66ceeb333114734300a7a34e20a6951a"}, {"bike_id": "45e92156bbe67d1e50cfb3d151deaf80", "type": "electric_scooter", "is_disabled": 0, "lat": 38.917099666666665, "rental_uris": {"ios": "https://dc.lft.to/lastmile_qr_scan", "android": "https://dc.lft.to/lastmile_qr_scan"}, "is_reserved": 0, "fusion_lon": 0.0, "fusion_lat": 0.0, "lon": -77.02890083333334, "name": "45e92156bbe67d1e50cfb3d151deaf80"}, {"bike_id": "05f7b36ce4eaf126e14dc1e8498c95f5", "type": "electric_scooter", "is_disabled": 0, "lat": 38.90792033333334, "rental_uris": {"ios": "https://dc.lft.to/lastmile_qr_scan", "android": "https://dc.lft.to/lastmile_qr_scan"}, "is_reserved": 0, "fusion_lon": 0.0, "fusion_lat": 0.0, "lon": -76.9942205, "name": "05f7b36ce4eaf126e14dc1e8498c95f5"}, {"bike_id": "be5bf785b09f02943bf7a9900129a3d0", "type": "electric_scooter", "is_disabled": 0, "lat": 38.89968316666667, "rental_uris": {"ios": "https://dc.lft.to/lastmile_qr_scan", "android": "https://dc.lft.to/lastmile_qr_scan"}, "is_reserved": 0, "fusion_lon": 0.0, "fusion_lat": 0.0, "lon": -76.98306466666666, "name": "be5bf785b09f02943bf7a9900129a3d0"}, {"bike_id": "868df7cc236d1f7afce0771b96364e37", "type": "electric_scooter", "is_disabled": 0, "lat": 38.866265, "rental_uris": {"ios": "https://dc.lft.to/lastmile_qr_scan", "android": "https://dc.lft.to/lastmile_qr_scan"}, "is_reserved": 0, "fusion_lon": 0.0, "fusion_lat": 0.0, "lon": -76.98717716666667, "name": "868df7cc236d1f7afce0771b96364e37"}, {"bike_id": "36609144c15a3c365bf2ed2e8a92a38c", "type": "electric_scooter", "is_disabled": 0, "lat": 38.91784633333333, "rental_uris": {"ios": "https://dc.lft.to/lastmile_qr_scan", "android": "https://dc.lft.to/lastmile_qr_scan"}, "is_reserved": 0, "fusion_lon": 0.0, "fusion_lat": 0.0, "lon": -77.03641183333333, "name": "36609144c15a3c365bf2ed2e8a92a38c"}, {"bike_id": "5f23e699558d45a32dd48b5b5525d494", "type": "electric_scooter", "is_disabled": 0, "lat": 38.89001716666667, "rental_uris": {"ios": "https://dc.lft.to/lastmile_qr_scan", "android": "https://dc.lft.to/lastmile_qr_scan"}, "is_reserved": 0, "fusion_lon": 0.0, "fusion_lat": 0.0, "lon": -77.049, "name": "5f23e699558d45a32dd48b5b5525d494"}, {"bike_id": "8c55f556337acab197d6f14984e1ff6f", "type": "electric_scooter", "is_disabled": 0, "lat": 38.94900616666666, "rental_uris": {"ios": "https://dc.lft.to/lastmile_qr_scan", "android": "https://dc.lft.to/lastmile_qr_scan"}, "is_reserved": 0, "fusion_lon": 0.0, "fusion_lat": 0.0, "lon": -77.02071283333333, "name": "8c55f556337acab197d6f14984e1ff6f"}, {"bike_id": "f89aa58f26e7fad16357a036f64400cd", "type": "electric_scooter", "is_disabled": 0, "lat": 38.922386833333334, "rental_uris": {"ios": "https://dc.lft.to/lastmile_qr_scan", "android": "https://dc.lft.to/lastmile_qr_scan"}, "is_reserved": 0, "fusion_lon": 0.0, "fusion_lat": 0.0, "lon": -77.03521083333334, "name": "f89aa58f26e7fad16357a036f64400cd"}, {"bike_id": "22f61881171515c7c1ec47149291b488", "type": "electric_scooter", "is_disabled": 0, "lat": 38.844373166666664, "rental_uris": {"ios": "https://dc.lft.to/lastmile_qr_scan", "android": "https://dc.lft.to/lastmile_qr_scan"}, "is_reserved": 0, "fusion_lon": 0.0, "fusion_lat": 0.0, "lon": -76.99868333333333, "name": "22f61881171515c7c1ec47149291b488"}, {"bike_id": "56a144b72ac5b822e581d6d6fe2033a3", "type": "electric_scooter", "is_disabled": 0, "lat": 38.91555266666667, "rental_uris": {"ios": "https://dc.lft.to/lastmile_qr_scan", "android": "https://dc.lft.to/lastmile_qr_scan"}, "is_reserved": 0, "fusion_lon": 0.0, "fusion_lat": 0.0, "lon": -77.02646633333333, "name": "56a144b72ac5b822e581d6d6fe2033a3"}, {"bike_id": "4ae9ec2fac13e0b35101a7a1b282f644", "type": "electric_scooter", "is_disabled": 0, "lat": 38.912682833333335, "rental_uris": {"ios": "https://dc.lft.to/lastmile_qr_scan", "android": "https://dc.lft.to/lastmile_qr_scan"}, "is_reserved": 0, "fusion_lon": 0.0, "fusion_lat": 0.0, "lon": -77.030207, "name": "4ae9ec2fac13e0b35101a7a1b282f644"}, {"bike_id": "78bd2cda5be344b5ce6f6b8fc84d4db3", "type": "electric_scooter", "is_disabled": 0, "lat": 38.9553065, "rental_uris": {"ios": "https://dc.lft.to/lastmile_qr_scan", "android": "https://dc.lft.to/lastmile_qr_scan"}, "is_reserved": 0, "fusion_lon": 0.0, "fusion_lat": 0.0, "lon": -77.0277635, "name": "78bd2cda5be344b5ce6f6b8fc84d4db3"}, {"bike_id": "a81db7b4e9ca3096d088cd8b1b568eef", "type": "electric_scooter", "is_disabled": 0, "lat": 38.96549233333333, "rental_uris": {"ios": "https://dc.lft.to/lastmile_qr_scan", "android": "https://dc.lft.to/lastmile_qr_scan"}, "is_reserved": 0, "fusion_lon": 0.0, "fusion_lat": 0.0, "lon": -77.036259, "name": "a81db7b4e9ca3096d088cd8b1b568eef"}, {"bike_id": "0bcd9aae5262a4a8dafc535a2db6fd8e", "type": "electric_scooter", "is_disabled": 0, "lat": 38.90238466666667, "rental_uris": {"ios": "https://dc.lft.to/lastmile_qr_scan", "android": "https://dc.lft.to/lastmile_qr_scan"}, "is_reserved": 0, "fusion_lon": 0.0, "fusion_lat": 0.0, "lon": -77.04081683333334, "name": "0bcd9aae5262a4a8dafc535a2db6fd8e"}, {"bike_id": "0e10805456c08db4129c9ce1e4788184", "type": "electric_scooter", "is_disabled": 0, "lat": 38.9001095, "rental_uris": {"ios": "https://dc.lft.to/lastmile_qr_scan", "android": "https://dc.lft.to/lastmile_qr_scan"}, "is_reserved": 0, "fusion_lon": 0.0, "fusion_lat": 0.0, "lon": -76.98535583333333, "name": "0e10805456c08db4129c9ce1e4788184"}, {"bike_id": "b752453a5c859b03639e64375f0e1e3f", "type": "electric_scooter", "is_disabled": 0, "lat": 38.906577, "rental_uris": {"ios": "https://dc.lft.to/lastmile_qr_scan", "android": "https://dc.lft.to/lastmile_qr_scan"}, "is_reserved": 0, "fusion_lon": 0.0, "fusion_lat": 0.0, "lon": -77.02956733333333, "name": "b752453a5c859b03639e64375f0e1e3f"}, {"bike_id": "31f23016dbff271973e5ed473b84be2b", "type": "electric_scooter", "is_disabled": 0, "lat": 38.92033966666666, "rental_uris": {"ios": "https://dc.lft.to/lastmile_qr_scan", "android": "https://dc.lft.to/lastmile_qr_scan"}, "is_reserved": 0, "fusion_lon": 0.0, "fusion_lat": 0.0, "lon": -77.02464816666667, "name": "31f23016dbff271973e5ed473b84be2b"}, {"bike_id": "bb264daf43de53108b541f75a9985f08", "type": "electric_scooter", "is_disabled": 0, "lat": 38.912123666666666, "rental_uris": {"ios": "https://dc.lft.to/lastmile_qr_scan", "android": "https://dc.lft.to/lastmile_qr_scan"}, "is_reserved": 0, "fusion_lon": 0.0, "fusion_lat": 0.0, "lon": -77.038583, "name": "bb264daf43de53108b541f75a9985f08"}, {"bike_id": "99f903ac3cfb4a48ab3c1bd458d19d62", "type": "electric_scooter", "is_disabled": 0, "lat": 38.907867, "rental_uris": {"ios": "https://dc.lft.to/lastmile_qr_scan", "android": "https://dc.lft.to/lastmile_qr_scan"}, "is_reserved": 0, "fusion_lon": 0.0, "fusion_lat": 0.0, "lon": -77.01072316666666, "name": "99f903ac3cfb4a48ab3c1bd458d19d62"}, {"bike_id": "98e2bac76a5289391ec428e2d63049d7", "type": "electric_scooter", "is_disabled": 0, "lat": 38.934026333333335, "rental_uris": {"ios": "https://dc.lft.to/lastmile_qr_scan", "android": "https://dc.lft.to/lastmile_qr_scan"}, "is_reserved": 0, "fusion_lon": 0.0, "fusion_lat": 0.0, "lon": -77.02209783333333, "name": "98e2bac76a5289391ec428e2d63049d7"}, {"bike_id": "aad58a37bb1e719ecdcc401948a00f8c", "type": "electric_scooter", "is_disabled": 0, "lat": 38.914204833333336, "rental_uris": {"ios": "https://dc.lft.to/lastmile_qr_scan", "android": "https://dc.lft.to/lastmile_qr_scan"}, "is_reserved": 0, "fusion_lon": 0.0, "fusion_lat": 0.0, "lon": -77.04807966666667, "name": "aad58a37bb1e719ecdcc401948a00f8c"}, {"bike_id": "bf95bad13a2abebf6120dfb132072bfe", "type": "electric_bike", "is_disabled": 0, "lat": 38.910153, "rental_uris": {"ios": "https://dc.lft.to/lastmile_qr_scan", "android": "https://dc.lft.to/lastmile_qr_scan"}, "is_reserved": 0, "fusion_lon": 0.0, "fusion_lat": 0.0, "lon": -77.227979, "name": "bf95bad13a2abebf6120dfb132072bfe"}, {"bike_id": "b59821f9ae702a163a051b55e924b8c5", "type": "electric_scooter", "is_disabled": 0, "lat": 38.933089833333334, "rental_uris": {"ios": "https://dc.lft.to/lastmile_qr_scan", "android": "https://dc.lft.to/lastmile_qr_scan"}, "is_reserved": 0, "fusion_lon": 0.0, "fusion_lat": 0.0, "lon": -77.0326315, "name": "b59821f9ae702a163a051b55e924b8c5"}, {"bike_id": "c610bca9818e57b55c0b4296b0733e83", "type": "electric_scooter", "is_disabled": 0, "lat": 38.913021, "rental_uris": {"ios": "https://dc.lft.to/lastmile_qr_scan", "android": "https://dc.lft.to/lastmile_qr_scan"}, "is_reserved": 0, "fusion_lon": 0.0, "fusion_lat": 0.0, "lon": -77.0455935, "name": "c610bca9818e57b55c0b4296b0733e83"}, {"bike_id": "7d58e7b00b0949f551269dd544d81db4", "type": "electric_scooter", "is_disabled": 0, "lat": 38.91031666666667, "rental_uris": {"ios": "https://dc.lft.to/lastmile_qr_scan", "android": "https://dc.lft.to/lastmile_qr_scan"}, "is_reserved": 0, "fusion_lon": 0.0, "fusion_lat": 0.0, "lon": -77.00758733333333, "name": "7d58e7b00b0949f551269dd544d81db4"}, {"bike_id": "d5a1b84195bd456493f4f7f01282193e", "type": "electric_scooter", "is_disabled": 0, "lat": 38.90271533333333, "rental_uris": {"ios": "https://dc.lft.to/lastmile_qr_scan", "android": "https://dc.lft.to/lastmile_qr_scan"}, "is_reserved": 0, "fusion_lon": 0.0, "fusion_lat": 0.0, "lon": -77.0403715, "name": "d5a1b84195bd456493f4f7f01282193e"}, {"bike_id": "3b130fae91d378174d158372c6048793", "type": "electric_scooter", "is_disabled": 0, "lat": 38.91843716666666, "rental_uris": {"ios": "https://dc.lft.to/lastmile_qr_scan", "android": "https://dc.lft.to/lastmile_qr_scan"}, "is_reserved": 0, "fusion_lon": 0.0, "fusion_lat": 0.0, "lon": -77.0245845, "name": "3b130fae91d378174d158372c6048793"}, {"bike_id": "bddba26e44b31c9fdf508b359ef0bc76", "type": "electric_scooter", "is_disabled": 0, "lat": 38.96604033333333, "rental_uris": {"ios": "https://dc.lft.to/lastmile_qr_scan", "android": "https://dc.lft.to/lastmile_qr_scan"}, "is_reserved": 0, "fusion_lon": 0.0, "fusion_lat": 0.0, "lon": -77.01975616666667, "name": "bddba26e44b31c9fdf508b359ef0bc76"}, {"bike_id": "0aa9b6f3d3b79020fb96201bde72de07", "type": "electric_scooter", "is_disabled": 0, "lat": 38.91778866666667, "rental_uris": {"ios": "https://dc.lft.to/lastmile_qr_scan", "android": "https://dc.lft.to/lastmile_qr_scan"}, "is_reserved": 0, "fusion_lon": 0.0, "fusion_lat": 0.0, "lon": -77.02316233333333, "name": "0aa9b6f3d3b79020fb96201bde72de07"}, {"bike_id": "037f4d5895a0618010f2bdb97f3e512d", "type": "electric_scooter", "is_disabled": 0, "lat": 38.909530333333336, "rental_uris": {"ios": "https://dc.lft.to/lastmile_qr_scan", "android": "https://dc.lft.to/lastmile_qr_scan"}, "is_reserved": 0, "fusion_lon": 0.0, "fusion_lat": 0.0, "lon": -77.02717066666666, "name": "037f4d5895a0618010f2bdb97f3e512d"}, {"bike_id": "e7d8bda0eff33e91a9153629a29e1625", "type": "electric_scooter", "is_disabled": 0, "lat": 38.869783166666664, "rental_uris": {"ios": "https://dc.lft.to/lastmile_qr_scan", "android": "https://dc.lft.to/lastmile_qr_scan"}, "is_reserved": 0, "fusion_lon": 0.0, "fusion_lat": 0.0, "lon": -76.981676, "name": "e7d8bda0eff33e91a9153629a29e1625"}, {"bike_id": "55a190bfdc9747528177dd0e538da7be", "type": "electric_scooter", "is_disabled": 0, "lat": 38.900251, "rental_uris": {"ios": "https://dc.lft.to/lastmile_qr_scan", "android": "https://dc.lft.to/lastmile_qr_scan"}, "is_reserved": 0, "fusion_lon": 0.0, "fusion_lat": 0.0, "lon": -77.00182266666667, "name": "55a190bfdc9747528177dd0e538da7be"}, {"bike_id": "2ee9d81cb66e0ae2fce7382a950c8677", "type": "electric_scooter", "is_disabled": 0, "lat": 38.88220166666667, "rental_uris": {"ios": "https://dc.lft.to/lastmile_qr_scan", "android": "https://dc.lft.to/lastmile_qr_scan"}, "is_reserved": 0, "fusion_lon": 0.0, "fusion_lat": 0.0, "lon": -76.92667883333333, "name": "2ee9d81cb66e0ae2fce7382a950c8677"}, {"bike_id": "7126c0c0a9b31b8ba7793779d5e1c2ec", "type": "electric_bike", "is_disabled": 0, "lat": 38.872780166666665, "rental_uris": {"ios": "https://dc.lft.to/lastmile_qr_scan", "android": "https://dc.lft.to/lastmile_qr_scan"}, "is_reserved": 0, "fusion_lon": 0.0, "fusion_lat": 0.0, "lon": -77.233175, "name": "7126c0c0a9b31b8ba7793779d5e1c2ec"}, {"bike_id": "c4b02e053e0baf3954da875022b8c17a", "type": "electric_scooter", "is_disabled": 0, "lat": 38.947928, "rental_uris": {"ios": "https://dc.lft.to/lastmile_qr_scan", "android": "https://dc.lft.to/lastmile_qr_scan"}, "is_reserved": 0, "fusion_lon": 0.0, "fusion_lat": 0.0, "lon": -77.02133633333334, "name": "c4b02e053e0baf3954da875022b8c17a"}, {"bike_id": "08c6fe37e43166b7f55df5427c7a9589", "type": "electric_bike", "is_disabled": 0, "lat": 38.88058016666667, "rental_uris": {"ios": "https://dc.lft.to/lastmile_qr_scan", "android": "https://dc.lft.to/lastmile_qr_scan"}, "is_reserved": 0, "fusion_lon": 0.0, "fusion_lat": 0.0, "lon": -76.96246033333334, "name": "08c6fe37e43166b7f55df5427c7a9589"}, {"bike_id": "3dddcf06b836997b4dd89d0b9bb5c5e4", "type": "electric_scooter", "is_disabled": 0, "lat": 38.92371216666667, "rental_uris": {"ios": "https://dc.lft.to/lastmile_qr_scan", "android": "https://dc.lft.to/lastmile_qr_scan"}, "is_reserved": 0, "fusion_lon": 0.0, "fusion_lat": 0.0, "lon": -77.03049483333334, "name": "3dddcf06b836997b4dd89d0b9bb5c5e4"}, {"bike_id": "3d2310132624de1b02ec870b5bd3dab3", "type": "electric_scooter", "is_disabled": 0, "lat": 38.916109666666664, "rental_uris": {"ios": "https://dc.lft.to/lastmile_qr_scan", "android": "https://dc.lft.to/lastmile_qr_scan"}, "is_reserved": 0, "fusion_lon": 0.0, "fusion_lat": 0.0, "lon": -77.0216775, "name": "3d2310132624de1b02ec870b5bd3dab3"}, {"bike_id": "29963f55d93d8d32ce6633154de99e69", "type": "electric_scooter", "is_disabled": 0, "lat": 38.915027, "rental_uris": {"ios": "https://dc.lft.to/lastmile_qr_scan", "android": "https://dc.lft.to/lastmile_qr_scan"}, "is_reserved": 0, "fusion_lon": 0.0, "fusion_lat": 0.0, "lon": -77.01772266666667, "name": "29963f55d93d8d32ce6633154de99e69"}, {"bike_id": "777d55c897c960dca3f77c26736f0749", "type": "electric_scooter", "is_disabled": 0, "lat": 38.886982, "rental_uris": {"ios": "https://dc.lft.to/lastmile_qr_scan", "android": "https://dc.lft.to/lastmile_qr_scan"}, "is_reserved": 0, "fusion_lon": 0.0, "fusion_lat": 0.0, "lon": -76.99613466666666, "name": "777d55c897c960dca3f77c26736f0749"}, {"bike_id": "07a9b69889dd5bcad2735094b6f725dc", "type": "electric_scooter", "is_disabled": 0, "lat": 38.956548, "rental_uris": {"ios": "https://dc.lft.to/lastmile_qr_scan", "android": "https://dc.lft.to/lastmile_qr_scan"}, "is_reserved": 0, "fusion_lon": 0.0, "fusion_lat": 0.0, "lon": -77.01002383333334, "name": "07a9b69889dd5bcad2735094b6f725dc"}, {"bike_id": "9127f44e3df3449b710635aba67eec87", "type": "electric_scooter", "is_disabled": 0, "lat": 38.932315333333335, "rental_uris": {"ios": "https://dc.lft.to/lastmile_qr_scan", "android": "https://dc.lft.to/lastmile_qr_scan"}, "is_reserved": 0, "fusion_lon": 0.0, "fusion_lat": 0.0, "lon": -77.03888933333333, "name": "9127f44e3df3449b710635aba67eec87"}, {"bike_id": "96ca93886aa3ca40f4364e435413b739", "type": "electric_scooter", "is_disabled": 0, "lat": 38.956305666666665, "rental_uris": {"ios": "https://dc.lft.to/lastmile_qr_scan", "android": "https://dc.lft.to/lastmile_qr_scan"}, "is_reserved": 0, "fusion_lon": 0.0, "fusion_lat": 0.0, "lon": -77.01152133333333, "name": "96ca93886aa3ca40f4364e435413b739"}, {"bike_id": "65f8d899ba7dcb18a89af68ca68eea82", "type": "electric_scooter", "is_disabled": 0, "lat": 38.92440416666667, "rental_uris": {"ios": "https://dc.lft.to/lastmile_qr_scan", "android": "https://dc.lft.to/lastmile_qr_scan"}, "is_reserved": 0, "fusion_lon": 0.0, "fusion_lat": 0.0, "lon": -77.04243933333333, "name": "65f8d899ba7dcb18a89af68ca68eea82"}, {"bike_id": "f1f5095b05bfd938ed32435fa0e2e4f6", "type": "electric_bike", "is_disabled": 0, "lat": 38.813311, "rental_uris": {"ios": "https://dc.lft.to/lastmile_qr_scan", "android": "https://dc.lft.to/lastmile_qr_scan"}, "is_reserved": 0, "fusion_lon": 0.0, "fusion_lat": 0.0, "lon": -77.0509215, "name": "f1f5095b05bfd938ed32435fa0e2e4f6"}, {"bike_id": "9fe8b875d773e706b491291223a23170", "type": "electric_scooter", "is_disabled": 0, "lat": 38.8865515, "rental_uris": {"ios": "https://dc.lft.to/lastmile_qr_scan", "android": "https://dc.lft.to/lastmile_qr_scan"}, "is_reserved": 0, "fusion_lon": 0.0, "fusion_lat": 0.0, "lon": -77.001197, "name": "9fe8b875d773e706b491291223a23170"}, {"bike_id": "82140b4281c0183ab6f0ca069d6fc5fd", "type": "electric_scooter", "is_disabled": 0, "lat": 38.93536816666666, "rental_uris": {"ios": "https://dc.lft.to/lastmile_qr_scan", "android": "https://dc.lft.to/lastmile_qr_scan"}, "is_reserved": 0, "fusion_lon": 0.0, "fusion_lat": 0.0, "lon": -77.0582395, "name": "82140b4281c0183ab6f0ca069d6fc5fd"}, {"bike_id": "1d69256524a957103479e85d0ee505e9", "type": "electric_bike", "is_disabled": 0, "lat": 38.87477283333333, "rental_uris": {"ios": "https://dc.lft.to/lastmile_qr_scan", "android": "https://dc.lft.to/lastmile_qr_scan"}, "is_reserved": 0, "fusion_lon": 0.0, "fusion_lat": 0.0, "lon": -76.9652955, "name": "1d69256524a957103479e85d0ee505e9"}, {"bike_id": "7a945f30926af9669e71829047f125c3", "type": "electric_scooter", "is_disabled": 0, "lat": 38.88737866666666, "rental_uris": {"ios": "https://dc.lft.to/lastmile_qr_scan", "android": "https://dc.lft.to/lastmile_qr_scan"}, "is_reserved": 0, "fusion_lon": 0.0, "fusion_lat": 0.0, "lon": -77.015321, "name": "7a945f30926af9669e71829047f125c3"}, {"bike_id": "d41a1dfde251b2b4fbb02f4201e77ecc", "type": "electric_scooter", "is_disabled": 0, "lat": 38.922360833333336, "rental_uris": {"ios": "https://dc.lft.to/lastmile_qr_scan", "android": "https://dc.lft.to/lastmile_qr_scan"}, "is_reserved": 0, "fusion_lon": 0.0, "fusion_lat": 0.0, "lon": -77.03519933333334, "name": "d41a1dfde251b2b4fbb02f4201e77ecc"}, {"bike_id": "70191b9b6485adcd37e6be7b51ab255b", "type": "electric_scooter", "is_disabled": 0, "lat": 38.9155045, "rental_uris": {"ios": "https://dc.lft.to/lastmile_qr_scan", "android": "https://dc.lft.to/lastmile_qr_scan"}, "is_reserved": 0, "fusion_lon": 0.0, "fusion_lat": 0.0, "lon": -77.040133, "name": "70191b9b6485adcd37e6be7b51ab255b"}, {"bike_id": "d56bae0d39493c0fc9887ca1c82a1eb3", "type": "electric_scooter", "is_disabled": 0, "lat": 38.9016645, "rental_uris": {"ios": "https://dc.lft.to/lastmile_qr_scan", "android": "https://dc.lft.to/lastmile_qr_scan"}, "is_reserved": 0, "fusion_lon": 0.0, "fusion_lat": 0.0, "lon": -76.93022666666667, "name": "d56bae0d39493c0fc9887ca1c82a1eb3"}, {"bike_id": "0a37dff27c8d4862d656a71d4e860c4e", "type": "electric_scooter", "is_disabled": 0, "lat": 38.922687333333336, "rental_uris": {"ios": "https://dc.lft.to/lastmile_qr_scan", "android": "https://dc.lft.to/lastmile_qr_scan"}, "is_reserved": 0, "fusion_lon": 0.0, "fusion_lat": 0.0, "lon": -76.994618, "name": "0a37dff27c8d4862d656a71d4e860c4e"}, {"bike_id": "90059ab708eda439376ae40d3a3850f6", "type": "electric_scooter", "is_disabled": 0, "lat": 38.9225465, "rental_uris": {"ios": "https://dc.lft.to/lastmile_qr_scan", "android": "https://dc.lft.to/lastmile_qr_scan"}, "is_reserved": 0, "fusion_lon": 0.0, "fusion_lat": 0.0, "lon": -77.03899083333333, "name": "90059ab708eda439376ae40d3a3850f6"}, {"bike_id": "9ea54fdaff8ec42422210d0a018d2524", "type": "electric_scooter", "is_disabled": 0, "lat": 38.919738833333334, "rental_uris": {"ios": "https://dc.lft.to/lastmile_qr_scan", "android": "https://dc.lft.to/lastmile_qr_scan"}, "is_reserved": 0, "fusion_lon": 0.0, "fusion_lat": 0.0, "lon": -77.042229, "name": "9ea54fdaff8ec42422210d0a018d2524"}, {"bike_id": "1e264f272292ce9fecfc056cb492aa6c", "type": "electric_scooter", "is_disabled": 0, "lat": 38.90553933333333, "rental_uris": {"ios": "https://dc.lft.to/lastmile_qr_scan", "android": "https://dc.lft.to/lastmile_qr_scan"}, "is_reserved": 0, "fusion_lon": 0.0, "fusion_lat": 0.0, "lon": -76.99618916666667, "name": "1e264f272292ce9fecfc056cb492aa6c"}, {"bike_id": "b7c5f55cfc7f1a1c89b171417629ca18", "type": "electric_scooter", "is_disabled": 0, "lat": 38.924859833333336, "rental_uris": {"ios": "https://dc.lft.to/lastmile_qr_scan", "android": "https://dc.lft.to/lastmile_qr_scan"}, "is_reserved": 0, "fusion_lon": 0.0, "fusion_lat": 0.0, "lon": -77.05213716666667, "name": "b7c5f55cfc7f1a1c89b171417629ca18"}, {"bike_id": "a72dca40011e0653744ee60fd40e22af", "type": "electric_scooter", "is_disabled": 0, "lat": 38.9265205, "rental_uris": {"ios": "https://dc.lft.to/lastmile_qr_scan", "android": "https://dc.lft.to/lastmile_qr_scan"}, "is_reserved": 0, "fusion_lon": 0.0, "fusion_lat": 0.0, "lon": -77.02450366666666, "name": "a72dca40011e0653744ee60fd40e22af"}, {"bike_id": "86b4d4e26a8e4c505bd82e1f275263bc", "type": "electric_scooter", "is_disabled": 0, "lat": 38.88423183333333, "rental_uris": {"ios": "https://dc.lft.to/lastmile_qr_scan", "android": "https://dc.lft.to/lastmile_qr_scan"}, "is_reserved": 0, "fusion_lon": 0.0, "fusion_lat": 0.0, "lon": -76.95755983333333, "name": "86b4d4e26a8e4c505bd82e1f275263bc"}, {"bike_id": "ad319f47aff52e5583fdb89ef423c4e9", "type": "electric_bike", "is_disabled": 0, "lat": 38.804105166666666, "rental_uris": {"ios": "https://dc.lft.to/lastmile_qr_scan", "android": "https://dc.lft.to/lastmile_qr_scan"}, "is_reserved": 0, "fusion_lon": 0.0, "fusion_lat": 0.0, "lon": -77.05552133333333, "name": "ad319f47aff52e5583fdb89ef423c4e9"}, {"bike_id": "b1379550bf41ea8941e1eb272ce295bb", "type": "electric_scooter", "is_disabled": 0, "lat": 38.905797, "rental_uris": {"ios": "https://dc.lft.to/lastmile_qr_scan", "android": "https://dc.lft.to/lastmile_qr_scan"}, "is_reserved": 0, "fusion_lon": 0.0, "fusion_lat": 0.0, "lon": -77.00576166666667, "name": "b1379550bf41ea8941e1eb272ce295bb"}, {"bike_id": "f61331581ce266a4009d063f11ce2929", "type": "electric_bike", "is_disabled": 0, "lat": 38.9533235, "rental_uris": {"ios": "https://dc.lft.to/lastmile_qr_scan", "android": "https://dc.lft.to/lastmile_qr_scan"}, "is_reserved": 0, "fusion_lon": 0.0, "fusion_lat": 0.0, "lon": -76.98248183333334, "name": "f61331581ce266a4009d063f11ce2929"}, {"bike_id": "233a211eb60cff837efc328af49a7eb7", "type": "electric_bike", "is_disabled": 0, "lat": 38.87733983333333, "rental_uris": {"ios": "https://dc.lft.to/lastmile_qr_scan", "android": "https://dc.lft.to/lastmile_qr_scan"}, "is_reserved": 0, "fusion_lon": 0.0, "fusion_lat": 0.0, "lon": -77.00331533333333, "name": "233a211eb60cff837efc328af49a7eb7"}, {"bike_id": "dcf70bc4909408ab0f5083142bdb5a77", "type": "electric_scooter", "is_disabled": 0, "lat": 38.90723716666667, "rental_uris": {"ios": "https://dc.lft.to/lastmile_qr_scan", "android": "https://dc.lft.to/lastmile_qr_scan"}, "is_reserved": 0, "fusion_lon": 0.0, "fusion_lat": 0.0, "lon": -77.010228, "name": "dcf70bc4909408ab0f5083142bdb5a77"}, {"bike_id": "5b2ebac09e48362494311c43819a7d3c", "type": "electric_bike", "is_disabled": 0, "lat": 38.945095333333335, "rental_uris": {"ios": "https://dc.lft.to/lastmile_qr_scan", "android": "https://dc.lft.to/lastmile_qr_scan"}, "is_reserved": 0, "fusion_lon": 0.0, "fusion_lat": 0.0, "lon": -77.00676766666666, "name": "5b2ebac09e48362494311c43819a7d3c"}, {"bike_id": "2d25861268fd0d3311de3195ecb381fd", "type": "electric_scooter", "is_disabled": 0, "lat": 38.922323166666665, "rental_uris": {"ios": "https://dc.lft.to/lastmile_qr_scan", "android": "https://dc.lft.to/lastmile_qr_scan"}, "is_reserved": 0, "fusion_lon": 0.0, "fusion_lat": 0.0, "lon": -76.97342533333334, "name": "2d25861268fd0d3311de3195ecb381fd"}, {"bike_id": "9ac8c93a38d0e36a1036bc0266eef4dc", "type": "electric_bike", "is_disabled": 0, "lat": 38.811693, "rental_uris": {"ios": "https://dc.lft.to/lastmile_qr_scan", "android": "https://dc.lft.to/lastmile_qr_scan"}, "is_reserved": 0, "fusion_lon": 0.0, "fusion_lat": 0.0, "lon": -77.069672, "name": "9ac8c93a38d0e36a1036bc0266eef4dc"}, {"bike_id": "8f52cd3112d9e6b928ce75d4296c2053", "type": "electric_bike", "is_disabled": 0, "lat": 38.899948333333334, "rental_uris": {"ios": "https://dc.lft.to/lastmile_qr_scan", "android": "https://dc.lft.to/lastmile_qr_scan"}, "is_reserved": 0, "fusion_lon": 0.0, "fusion_lat": 0.0, "lon": -77.07543666666666, "name": "8f52cd3112d9e6b928ce75d4296c2053"}, {"bike_id": "71277136835de885e5d27a2058f2dc02", "type": "electric_bike", "is_disabled": 0, "lat": 38.872994, "rental_uris": {"ios": "https://dc.lft.to/lastmile_qr_scan", "android": "https://dc.lft.to/lastmile_qr_scan"}, "is_reserved": 0, "fusion_lon": 0.0, "fusion_lat": 0.0, "lon": -77.13930483333333, "name": "71277136835de885e5d27a2058f2dc02"}, {"bike_id": "c75c964ef199cb1beca3c61c69a7bea0", "type": "electric_scooter", "is_disabled": 0, "lat": 38.93359066666667, "rental_uris": {"ios": "https://dc.lft.to/lastmile_qr_scan", "android": "https://dc.lft.to/lastmile_qr_scan"}, "is_reserved": 0, "fusion_lon": 0.0, "fusion_lat": 0.0, "lon": -77.06206516666667, "name": "c75c964ef199cb1beca3c61c69a7bea0"}, {"bike_id": "d432815f75ac75a8bec76a401f4b8a6d", "type": "electric_scooter", "is_disabled": 0, "lat": 38.9286785, "rental_uris": {"ios": "https://dc.lft.to/lastmile_qr_scan", "android": "https://dc.lft.to/lastmile_qr_scan"}, "is_reserved": 0, "fusion_lon": 0.0, "fusion_lat": 0.0, "lon": -77.03424266666667, "name": "d432815f75ac75a8bec76a401f4b8a6d"}, {"bike_id": "9ccb73a737fcc8a0521cbb54cc9f6947", "type": "electric_scooter", "is_disabled": 0, "lat": 38.92433483333333, "rental_uris": {"ios": "https://dc.lft.to/lastmile_qr_scan", "android": "https://dc.lft.to/lastmile_qr_scan"}, "is_reserved": 0, "fusion_lon": 0.0, "fusion_lat": 0.0, "lon": -77.04249283333333, "name": "9ccb73a737fcc8a0521cbb54cc9f6947"}, {"bike_id": "d0819e0b422341b90000fcbafd815c99", "type": "electric_scooter", "is_disabled": 0, "lat": 38.953190666666664, "rental_uris": {"ios": "https://dc.lft.to/lastmile_qr_scan", "android": "https://dc.lft.to/lastmile_qr_scan"}, "is_reserved": 0, "fusion_lon": 0.0, "fusion_lat": 0.0, "lon": -77.06985, "name": "d0819e0b422341b90000fcbafd815c99"}, {"bike_id": "d18814cb198681472e7b479b42025ee5", "type": "electric_scooter", "is_disabled": 0, "lat": 38.9113915, "rental_uris": {"ios": "https://dc.lft.to/lastmile_qr_scan", "android": "https://dc.lft.to/lastmile_qr_scan"}, "is_reserved": 0, "fusion_lon": 0.0, "fusion_lat": 0.0, "lon": -76.99011116666667, "name": "d18814cb198681472e7b479b42025ee5"}, {"bike_id": "ad6941bd4ff5a27e89a241018c5c0a8c", "type": "electric_scooter", "is_disabled": 0, "lat": 38.8953805, "rental_uris": {"ios": "https://dc.lft.to/lastmile_qr_scan", "android": "https://dc.lft.to/lastmile_qr_scan"}, "is_reserved": 0, "fusion_lon": 0.0, "fusion_lat": 0.0, "lon": -77.0111575, "name": "ad6941bd4ff5a27e89a241018c5c0a8c"}, {"bike_id": "47f117d05e45156f987f34fc3573365f", "type": "electric_scooter", "is_disabled": 0, "lat": 38.936131, "rental_uris": {"ios": "https://dc.lft.to/lastmile_qr_scan", "android": "https://dc.lft.to/lastmile_qr_scan"}, "is_reserved": 0, "fusion_lon": 0.0, "fusion_lat": 0.0, "lon": -77.03786916666667, "name": "47f117d05e45156f987f34fc3573365f"}, {"bike_id": "1f43a77f14851087066fe95e1fc09228", "type": "electric_scooter", "is_disabled": 0, "lat": 38.902498, "rental_uris": {"ios": "https://dc.lft.to/lastmile_qr_scan", "android": "https://dc.lft.to/lastmile_qr_scan"}, "is_reserved": 0, "fusion_lon": 0.0, "fusion_lat": 0.0, "lon": -77.02655083333333, "name": "1f43a77f14851087066fe95e1fc09228"}, {"bike_id": "0c60d747c8f251f306a30f5d0af5b15f", "type": "electric_scooter", "is_disabled": 0, "lat": 38.93861833333333, "rental_uris": {"ios": "https://dc.lft.to/lastmile_qr_scan", "android": "https://dc.lft.to/lastmile_qr_scan"}, "is_reserved": 0, "fusion_lon": 0.0, "fusion_lat": 0.0, "lon": -77.02703233333334, "name": "0c60d747c8f251f306a30f5d0af5b15f"}, {"bike_id": "f0b4f160db2ba1b04e8f868ba989b03c", "type": "electric_scooter", "is_disabled": 0, "lat": 38.92856366666667, "rental_uris": {"ios": "https://dc.lft.to/lastmile_qr_scan", "android": "https://dc.lft.to/lastmile_qr_scan"}, "is_reserved": 0, "fusion_lon": 0.0, "fusion_lat": 0.0, "lon": -77.02310083333333, "name": "f0b4f160db2ba1b04e8f868ba989b03c"}, {"bike_id": "e00cf74616a493572c1e046f12770809", "type": "electric_scooter", "is_disabled": 0, "lat": 38.8747385, "rental_uris": {"ios": "https://dc.lft.to/lastmile_qr_scan", "android": "https://dc.lft.to/lastmile_qr_scan"}, "is_reserved": 0, "fusion_lon": 0.0, "fusion_lat": 0.0, "lon": -77.01068416666666, "name": "e00cf74616a493572c1e046f12770809"}, {"bike_id": "a633467df0a5eeb41f05d858bd7f8d86", "type": "electric_scooter", "is_disabled": 0, "lat": 38.917798833333336, "rental_uris": {"ios": "https://dc.lft.to/lastmile_qr_scan", "android": "https://dc.lft.to/lastmile_qr_scan"}, "is_reserved": 0, "fusion_lon": 0.0, "fusion_lat": 0.0, "lon": -77.03194766666667, "name": "a633467df0a5eeb41f05d858bd7f8d86"}, {"bike_id": "b7ad631889fea6da9c250f0b3f02fb76", "type": "electric_scooter", "is_disabled": 0, "lat": 38.957336833333336, "rental_uris": {"ios": "https://dc.lft.to/lastmile_qr_scan", "android": "https://dc.lft.to/lastmile_qr_scan"}, "is_reserved": 0, "fusion_lon": 0.0, "fusion_lat": 0.0, "lon": -77.024188, "name": "b7ad631889fea6da9c250f0b3f02fb76"}, {"bike_id": "e11a70bb390ec8e01cc0765631cd9375", "type": "electric_scooter", "is_disabled": 0, "lat": 38.90524166666667, "rental_uris": {"ios": "https://dc.lft.to/lastmile_qr_scan", "android": "https://dc.lft.to/lastmile_qr_scan"}, "is_reserved": 0, "fusion_lon": 0.0, "fusion_lat": 0.0, "lon": -77.06244683333334, "name": "e11a70bb390ec8e01cc0765631cd9375"}, {"bike_id": "2b59037f9c68ae109a6f4db32aa18682", "type": "electric_scooter", "is_disabled": 0, "lat": 38.887358166666665, "rental_uris": {"ios": "https://dc.lft.to/lastmile_qr_scan", "android": "https://dc.lft.to/lastmile_qr_scan"}, "is_reserved": 0, "fusion_lon": 0.0, "fusion_lat": 0.0, "lon": -77.01536983333334, "name": "2b59037f9c68ae109a6f4db32aa18682"}, {"bike_id": "1d32eace30ad9913b560dcaa26193d4f", "type": "electric_scooter", "is_disabled": 0, "lat": 38.91107516666667, "rental_uris": {"ios": "https://dc.lft.to/lastmile_qr_scan", "android": "https://dc.lft.to/lastmile_qr_scan"}, "is_reserved": 0, "fusion_lon": 0.0, "fusion_lat": 0.0, "lon": -77.0100505, "name": "1d32eace30ad9913b560dcaa26193d4f"}, {"bike_id": "40ec332965a62bf242dd30bee4e47e1c", "type": "electric_bike", "is_disabled": 0, "lat": 38.8384795, "rental_uris": {"ios": "https://dc.lft.to/lastmile_qr_scan", "android": "https://dc.lft.to/lastmile_qr_scan"}, "is_reserved": 0, "fusion_lon": 0.0, "fusion_lat": 0.0, "lon": -77.0502555, "name": "40ec332965a62bf242dd30bee4e47e1c"}, {"bike_id": "b3faa0f582220c8c107f3094dca82243", "type": "electric_scooter", "is_disabled": 0, "lat": 38.90384866666667, "rental_uris": {"ios": "https://dc.lft.to/lastmile_qr_scan", "android": "https://dc.lft.to/lastmile_qr_scan"}, "is_reserved": 0, "fusion_lon": 0.0, "fusion_lat": 0.0, "lon": -76.98209233333333, "name": "b3faa0f582220c8c107f3094dca82243"}, {"bike_id": "d521071b0c5d33d26dd8dc4b50f4d950", "type": "electric_scooter", "is_disabled": 0, "lat": 38.93764683333333, "rental_uris": {"ios": "https://dc.lft.to/lastmile_qr_scan", "android": "https://dc.lft.to/lastmile_qr_scan"}, "is_reserved": 0, "fusion_lon": 0.0, "fusion_lat": 0.0, "lon": -77.02471366666667, "name": "d521071b0c5d33d26dd8dc4b50f4d950"}, {"bike_id": "cfc6ddd7be1578384b571e81e136575c", "type": "electric_scooter", "is_disabled": 0, "lat": 38.93651716666667, "rental_uris": {"ios": "https://dc.lft.to/lastmile_qr_scan", "android": "https://dc.lft.to/lastmile_qr_scan"}, "is_reserved": 0, "fusion_lon": 0.0, "fusion_lat": 0.0, "lon": -77.02637866666667, "name": "cfc6ddd7be1578384b571e81e136575c"}, {"bike_id": "5ef9b2bef941b1c97b5adf79a8baa444", "type": "electric_scooter", "is_disabled": 0, "lat": 38.92760783333333, "rental_uris": {"ios": "https://dc.lft.to/lastmile_qr_scan", "android": "https://dc.lft.to/lastmile_qr_scan"}, "is_reserved": 0, "fusion_lon": 0.0, "fusion_lat": 0.0, "lon": -77.0564195, "name": "5ef9b2bef941b1c97b5adf79a8baa444"}, {"bike_id": "24e702a369ba214c562ef2607ed144fd", "type": "electric_scooter", "is_disabled": 0, "lat": 38.911042333333334, "rental_uris": {"ios": "https://dc.lft.to/lastmile_qr_scan", "android": "https://dc.lft.to/lastmile_qr_scan"}, "is_reserved": 0, "fusion_lon": 0.0, "fusion_lat": 0.0, "lon": -77.00212516666667, "name": "24e702a369ba214c562ef2607ed144fd"}, {"bike_id": "aa99261ff7bdc5e689a4e39c66c60a9c", "type": "electric_scooter", "is_disabled": 0, "lat": 38.90286733333333, "rental_uris": {"ios": "https://dc.lft.to/lastmile_qr_scan", "android": "https://dc.lft.to/lastmile_qr_scan"}, "is_reserved": 0, "fusion_lon": 0.0, "fusion_lat": 0.0, "lon": -77.036453, "name": "aa99261ff7bdc5e689a4e39c66c60a9c"}, {"bike_id": "398358c1ba05ea3568d554897df5eff0", "type": "electric_scooter", "is_disabled": 0, "lat": 38.909805666666664, "rental_uris": {"ios": "https://dc.lft.to/lastmile_qr_scan", "android": "https://dc.lft.to/lastmile_qr_scan"}, "is_reserved": 0, "fusion_lon": 0.0, "fusion_lat": 0.0, "lon": -77.0279685, "name": "398358c1ba05ea3568d554897df5eff0"}, {"bike_id": "f39a3561ae0a933f5f6fcccd9ab0a7f3", "type": "electric_scooter", "is_disabled": 0, "lat": 38.88431716666667, "rental_uris": {"ios": "https://dc.lft.to/lastmile_qr_scan", "android": "https://dc.lft.to/lastmile_qr_scan"}, "is_reserved": 0, "fusion_lon": 0.0, "fusion_lat": 0.0, "lon": -76.957505, "name": "f39a3561ae0a933f5f6fcccd9ab0a7f3"}, {"bike_id": "0596bb412ad641f58830b10bb20174d0", "type": "electric_scooter", "is_disabled": 0, "lat": 38.9177325, "rental_uris": {"ios": "https://dc.lft.to/lastmile_qr_scan", "android": "https://dc.lft.to/lastmile_qr_scan"}, "is_reserved": 0, "fusion_lon": 0.0, "fusion_lat": 0.0, "lon": -77.029527, "name": "0596bb412ad641f58830b10bb20174d0"}, {"bike_id": "630a7879a808e1f39531a165e8eac2f9", "type": "electric_scooter", "is_disabled": 0, "lat": 38.9116295, "rental_uris": {"ios": "https://dc.lft.to/lastmile_qr_scan", "android": "https://dc.lft.to/lastmile_qr_scan"}, "is_reserved": 0, "fusion_lon": 0.0, "fusion_lat": 0.0, "lon": -77.016243, "name": "630a7879a808e1f39531a165e8eac2f9"}, {"bike_id": "93712c0149e624d08959d27090da8974", "type": "electric_bike", "is_disabled": 0, "lat": 38.87881616666667, "rental_uris": {"ios": "https://dc.lft.to/lastmile_qr_scan", "android": "https://dc.lft.to/lastmile_qr_scan"}, "is_reserved": 0, "fusion_lon": 0.0, "fusion_lat": 0.0, "lon": -77.09611433333333, "name": "93712c0149e624d08959d27090da8974"}, {"bike_id": "6e65b7ce4892eb98a9ae91a95d9163fb", "type": "electric_scooter", "is_disabled": 0, "lat": 38.91109183333333, "rental_uris": {"ios": "https://dc.lft.to/lastmile_qr_scan", "android": "https://dc.lft.to/lastmile_qr_scan"}, "is_reserved": 0, "fusion_lon": 0.0, "fusion_lat": 0.0, "lon": -77.04007816666666, "name": "6e65b7ce4892eb98a9ae91a95d9163fb"}, {"bike_id": "48c154dcb88b0b36737520faf05f2683", "type": "electric_scooter", "is_disabled": 0, "lat": 38.912659, "rental_uris": {"ios": "https://dc.lft.to/lastmile_qr_scan", "android": "https://dc.lft.to/lastmile_qr_scan"}, "is_reserved": 0, "fusion_lon": 0.0, "fusion_lat": 0.0, "lon": -77.0470555, "name": "48c154dcb88b0b36737520faf05f2683"}, {"bike_id": "f568edb009800ade07ee6081d292faa9", "type": "electric_scooter", "is_disabled": 0, "lat": 38.90503416666667, "rental_uris": {"ios": "https://dc.lft.to/lastmile_qr_scan", "android": "https://dc.lft.to/lastmile_qr_scan"}, "is_reserved": 0, "fusion_lon": 0.0, "fusion_lat": 0.0, "lon": -76.99953483333333, "name": "f568edb009800ade07ee6081d292faa9"}, {"bike_id": "649d2be8fde320bed479f7e5e41d8cc9", "type": "electric_scooter", "is_disabled": 0, "lat": 38.92938566666667, "rental_uris": {"ios": "https://dc.lft.to/lastmile_qr_scan", "android": "https://dc.lft.to/lastmile_qr_scan"}, "is_reserved": 0, "fusion_lon": 0.0, "fusion_lat": 0.0, "lon": -77.02315166666666, "name": "649d2be8fde320bed479f7e5e41d8cc9"}, {"bike_id": "d8de2188ae541ab0635379525ecd11c5", "type": "electric_scooter", "is_disabled": 0, "lat": 38.928324, "rental_uris": {"ios": "https://dc.lft.to/lastmile_qr_scan", "android": "https://dc.lft.to/lastmile_qr_scan"}, "is_reserved": 0, "fusion_lon": 0.0, "fusion_lat": 0.0, "lon": -77.02978916666666, "name": "d8de2188ae541ab0635379525ecd11c5"}, {"bike_id": "d937d14cd43bd0bcb724550c725ec6b4", "type": "electric_scooter", "is_disabled": 0, "lat": 38.96736333333333, "rental_uris": {"ios": "https://dc.lft.to/lastmile_qr_scan", "android": "https://dc.lft.to/lastmile_qr_scan"}, "is_reserved": 0, "fusion_lon": 0.0, "fusion_lat": 0.0, "lon": -77.0551005, "name": "d937d14cd43bd0bcb724550c725ec6b4"}, {"bike_id": "fd1004ad448a0ec77d3bd788fe415590", "type": "electric_scooter", "is_disabled": 0, "lat": 38.91943466666667, "rental_uris": {"ios": "https://dc.lft.to/lastmile_qr_scan", "android": "https://dc.lft.to/lastmile_qr_scan"}, "is_reserved": 0, "fusion_lon": 0.0, "fusion_lat": 0.0, "lon": -77.0450415, "name": "fd1004ad448a0ec77d3bd788fe415590"}, {"bike_id": "a910b7281244c0c2f6ce2805e5ee106a", "type": "electric_bike", "is_disabled": 0, "lat": 38.965068, "rental_uris": {"ios": "https://dc.lft.to/lastmile_qr_scan", "android": "https://dc.lft.to/lastmile_qr_scan"}, "is_reserved": 0, "fusion_lon": 0.0, "fusion_lat": 0.0, "lon": -77.02817333333333, "name": "a910b7281244c0c2f6ce2805e5ee106a"}, {"bike_id": "f56e967c0dda5c85ca91cb0a5b5d6a7d", "type": "electric_scooter", "is_disabled": 0, "lat": 38.87797183333333, "rental_uris": {"ios": "https://dc.lft.to/lastmile_qr_scan", "android": "https://dc.lft.to/lastmile_qr_scan"}, "is_reserved": 0, "fusion_lon": 0.0, "fusion_lat": 0.0, "lon": -77.00124083333333, "name": "f56e967c0dda5c85ca91cb0a5b5d6a7d"}, {"bike_id": "4bffca030f3913bb6420ba7e440cd319", "type": "electric_scooter", "is_disabled": 0, "lat": 38.928624166666665, "rental_uris": {"ios": "https://dc.lft.to/lastmile_qr_scan", "android": "https://dc.lft.to/lastmile_qr_scan"}, "is_reserved": 0, "fusion_lon": 0.0, "fusion_lat": 0.0, "lon": -77.03713066666667, "name": "4bffca030f3913bb6420ba7e440cd319"}, {"bike_id": "5cf4d9da50359010c063b7108a2a01cb", "type": "electric_scooter", "is_disabled": 0, "lat": 38.92192216666667, "rental_uris": {"ios": "https://dc.lft.to/lastmile_qr_scan", "android": "https://dc.lft.to/lastmile_qr_scan"}, "is_reserved": 0, "fusion_lon": 0.0, "fusion_lat": 0.0, "lon": -77.0380185, "name": "5cf4d9da50359010c063b7108a2a01cb"}, {"bike_id": "fb0f3e51ca6e786c074095b2e25ce9f1", "type": "electric_bike", "is_disabled": 0, "lat": 38.86265566666667, "rental_uris": {"ios": "https://dc.lft.to/lastmile_qr_scan", "android": "https://dc.lft.to/lastmile_qr_scan"}, "is_reserved": 0, "fusion_lon": 0.0, "fusion_lat": 0.0, "lon": -76.98348883333334, "name": "fb0f3e51ca6e786c074095b2e25ce9f1"}, {"bike_id": "d28ca782d11d6527a1c21a6ddbe0cca1", "type": "electric_scooter", "is_disabled": 0, "lat": 38.91993766666667, "rental_uris": {"ios": "https://dc.lft.to/lastmile_qr_scan", "android": "https://dc.lft.to/lastmile_qr_scan"}, "is_reserved": 0, "fusion_lon": 0.0, "fusion_lat": 0.0, "lon": -77.0396785, "name": "d28ca782d11d6527a1c21a6ddbe0cca1"},