{"data": {"bikes": [{"is_reserved": 0, "fusion_lon": 0.0, "fusion_lat": 0.0, "name": "16e4facde0d1078e6e92f90db4091cf0", "type": "electric_scooter", "is_disabled": 0, "lat": 38.887198, "rental_uris": {"android": "https://dc.lft.to/lastmile_qr_scan", "ios": "https://dc.lft.to/lastmile_qr_scan"}, "bike_id": "16e4facde0d1078e6e92f90db4091cf0", "lon": -77.032194}, {"is_reserved": 0, "fusion_lon": 0.0, "fusion_lat": 0.0, "name": "b075af91ee6dbbd0e1573e02f9a71678", "type": "electric_scooter", "is_disabled": 0, "lat": 38.90595416666667, "rental_uris": {"android": "https://dc.lft.to/lastmile_qr_scan", "ios": "https://dc.lft.to/lastmile_qr_scan"}, "bike_id": "b075af91ee6dbbd0e1573e02f9a71678", "lon": -77.06418883333333}, {"is_reserved": 0, "fusion_lon": 0.0, "fusion_lat": 0.0, "name": "32232f7725b0efff5a00f966505019bc", "type": "electric_scooter", "is_disabled": 0, "lat": 38.8988165, "rental_uris": {"android": "https://dc.lft.to/lastmile_qr_scan", "ios": "https://dc.lft.to/lastmile_qr_scan"}, "bike_id": "32232f7725b0efff5a00f966505019bc", "lon": -77.03275416666666}, {"is_reserved": 0, "fusion_lon": 0.0, "fusion_lat": 0.0, "name": "14b4dcfc056784990e55d83a54801e30", "type": "electric_scooter", "is_disabled": 0, "lat": 38.892256833333334, "rental_uris": {"android": "https://dc.lft.to/lastmile_qr_scan", "ios": "https://dc.lft.to/lastmile_qr_scan"}, "bike_id": "14b4dcfc056784990e55d83a54801e30", "lon": -77.04656616666666}, {"is_reserved": 0, "fusion_lon": 0.0, "fusion_lat": 0.0, "name": "2fe3de8b73e1d40510c51dd23dbb9078", "type": "electric_scooter", "is_disabled": 0, "lat": 38.907324, "rental_uris": {"android": "https://dc.lft.to/lastmile_qr_scan", "ios": "https://dc.lft.to/lastmile_qr_scan"}, "bike_id": "2fe3de8b73e1d40510c51dd23dbb9078", "lon": -76.98694316666666}, {"is_reserved": 0, "fusion_lon": 0.0, "fusion_lat": 0.0, "name": "0d4559bb9d172b552dfbcfe81d5ce2d2", "type": "electric_scooter", "is_disabled": 0, "lat": 38.922207, "rental_uris": {"android": "https://dc.lft.to/lastmile_qr_scan", "ios": "https://dc.lft.to/lastmile_qr_scan"}, "bike_id": "0d4559bb9d172b552dfbcfe81d5ce2d2", "lon": -77.04334216666666}, {"is_reserved": 0, "fusion_lon": 0.0, "fusion_lat": 0.0, "name": "93f2e8316e792c5424eac3468b20eda5", "type": "electric_scooter", "is_disabled": 0, "lat": 38.9169565, "rental_uris": {"android": "https://dc.lft.to/lastmile_qr_scan", "ios": "https://dc.lft.to/lastmile_qr_scan"}, "bike_id": "93f2e8316e792c5424eac3468b20eda5", "lon": -77.02896716666666}, {"is_reserved": 0, "fusion_lon": 0.0, "fusion_lat": 0.0, "name": "502e4069836bf25aadabb68410b4e398", "type": "electric_scooter", "is_disabled": 0, "lat": 38.896044333333336, "rental_uris": {"android": "https://dc.lft.to/lastmile_qr_scan", "ios": "https://dc.lft.to/lastmile_qr_scan"}, "bike_id": "502e4069836bf25aadabb68410b4e398", "lon": -77.01129516666667}, {"is_reserved": 0, "fusion_lon": 0.0, "fusion_lat": 0.0, "name": "e168b836fc4cd4ab6f1478f63b7f4d07", "type": "electric_scooter", "is_disabled": 0, "lat": 38.923737833333334, "rental_uris": {"android": "https://dc.lft.to/lastmile_qr_scan", "ios": "https://dc.lft.to/lastmile_qr_scan"}, "bike_id": "e168b836fc4cd4ab6f1478f63b7f4d07", "lon": -77.019182}, {"is_reserved": 0, "fusion_lon": 0.0, "fusion_lat": 0.0, "name": "472414894235848ed51de95e4b748bd1", "type": "electric_scooter", "is_disabled": 0, "lat": 38.8606055, "rental_uris": {"android": "https://dc.lft.to/lastmile_qr_scan", "ios": "https://dc.lft.to/lastmile_qr_scan"}, "bike_id": "472414894235848ed51de95e4b748bd1", "lon": -76.98506866666666}, {"is_reserved": 0, "fusion_lon": 0.0, "fusion_lat": 0.0, "name": "d085cd5459a20b06b2406dbf649a1fba", "type": "electric_scooter", "is_disabled": 0, "lat": 38.9234475, "rental_uris": {"android": "https://dc.lft.to/lastmile_qr_scan", "ios": "https://dc.lft.to/lastmile_qr_scan"}, "bike_id": "d085cd5459a20b06b2406dbf649a1fba", "lon": -77.05122583333333}, {"is_reserved": 0, "fusion_lon": 0.0, "fusion_lat": 0.0, "name": "7082f7d5f7e4d5d95a736e41a6ba5c2b", "type": "electric_scooter", "is_disabled": 0, "lat": 38.927455333333334, "rental_uris": {"android": "https://dc.lft.to/lastmile_qr_scan", "ios": "https://dc.lft.to/lastmile_qr_scan"}, "bike_id": "7082f7d5f7e4d5d95a736e41a6ba5c2b", "lon": -77.02429666666667}, {"is_reserved": 0, "fusion_lon": 0.0, "fusion_lat": 0.0, "name": "bca6af8fd746f64f3d107a92b7dc3e6e", "type": "electric_scooter", "is_disabled": 0, "lat": 38.9037015, "rental_uris": {"android": "https://dc.lft.to/lastmile_qr_scan", "ios": "https://dc.lft.to/lastmile_qr_scan"}, "bike_id": "bca6af8fd746f64f3d107a92b7dc3e6e", "lon": -76.997081}, {"is_reserved": 0, "fusion_lon": 0.0, "fusion_lat": 0.0, "name": "00043b75e2b4acb90a93d837d5b365a2", "type": "electric_scooter", "is_disabled": 0, "lat": 38.9371395, "rental_uris": {"android": "https://dc.lft.to/lastmile_qr_scan", "ios": "https://dc.lft.to/lastmile_qr_scan"}, "bike_id": "00043b75e2b4acb90a93d837d5b365a2", "lon": -77.02939716666667}, {"is_reserved": 0, "fusion_lon": 0.0, "fusion_lat": 0.0, "name": "e64eb75b2ffc995c275ed6b691b09573", "type": "electric_scooter", "is_disabled": 0, "lat": 38.892193, "rental_uris": {"android": "https://dc.lft.to/lastmile_qr_scan", "ios": "https://dc.lft.to/lastmile_qr_scan"}, "bike_id": "e64eb75b2ffc995c275ed6b691b09573", "lon": -77.02017966666666}, {"is_reserved": 0, "fusion_lon": 0.0, "fusion_lat": 0.0, "name": "56b8b53c85c3aedc001d4b98348bc2f9", "type": "electric_scooter", "is_disabled": 0, "lat": 38.9073255, "rental_uris": {"android": "https://dc.lft.to/lastmile_qr_scan", "ios": "https://dc.lft.to/lastmile_qr_scan"}, "bike_id": "56b8b53c85c3aedc001d4b98348bc2f9", "lon": -77.0107325}, {"is_reserved": 0, "fusion_lon": 0.0, "fusion_lat": 0.0, "name": "ddce67c51d98c6c3b9d828d480c53e0c", "type": "electric_scooter", "is_disabled": 0, "lat": 38.921070666666665, "rental_uris": {"android": "https://dc.lft.to/lastmile_qr_scan", "ios": "https://dc.lft.to/lastmile_qr_scan"}, "bike_id": "ddce67c51d98c6c3b9d828d480c53e0c", "lon": -77.03921216666667}, {"is_reserved": 0, "fusion_lon": 0.0, "fusion_lat": 0.0, "name": "d941d3272019cc594571045ef9f65c79", "type": "electric_scooter", "is_disabled": 0, "lat": 38.8960975, "rental_uris": {"android": "https://dc.lft.to/lastmile_qr_scan", "ios": "https://dc.lft.to/lastmile_qr_scan"}, "bike_id": "d941d3272019cc594571045ef9f65c79", "lon": -76.9996955}, {"is_reserved": 0, "fusion_lon": 0.0, "fusion_lat": 0.0, "name": "ae2086bcc05da7849fe27225bc891fcb", "type": "electric_bike", "is_disabled": 0, "lat": 39.043022666666666, "rental_uris": {"android": "https://dc.lft.to/lastmile_qr_scan", "ios": "https://dc.lft.to/lastmile_qr_scan"}, "bike_id": "ae2086bcc05da7849fe27225bc891fcb", "lon": -77.05162983333334}, {"is_reserved": 0, "fusion_lon": 0.0, "fusion_lat": 0.0, "name": "253d9e5bd16bb38302ce3c7234c46449", "type": "electric_scooter", "is_disabled": 0, "lat": 38.915364, "rental_uris": {"android": "https://dc.lft.to/lastmile_qr_scan", "ios": "https://dc.lft.to/lastmile_qr_scan"}, "bike_id": "253d9e5bd16bb38302ce3c7234c46449", "lon": -76.97055516666667}, {"is_reserved": 0, "fusion_lon": 0.0, "fusion_lat": 0.0, "name": "85d55e91e2879d3b1189f0a51d091748", "type": "electric_scooter", "is_disabled": 0, "lat": 38.911952666666664, "rental_uris": {"android": "https://dc.lft.to/lastmile_qr_scan", "ios": "https://dc.lft.to/lastmile_qr_scan"}, "bike_id": "85d55e91e2879d3b1189f0a51d091748", "lon": -77.005051}, {"is_reserved": 0, "fusion_lon": 0.0, "fusion_lat": 0.0, "name": "72d2a324aee3c4be78eb2ece380b892e", "type": "electric_scooter", "is_disabled": 0, "lat": 38.900037, "rental_uris": {"android": "https://dc.lft.to/lastmile_qr_scan", "ios": "https://dc.lft.to/lastmile_qr_scan"}, "bike_id": "72d2a324aee3c4be78eb2ece380b892e", "lon": -76.996234}, {"is_reserved": 0, "fusion_lon": 0.0, "fusion_lat": 0.0, "name": "a7b5c74f4e61e06f48aef7645f9d9755", "type": "electric_scooter", "is_disabled": 0, "lat": 38.8499895, "rental_uris": {"android": "https://dc.lft.to/lastmile_qr_scan", "ios": "https://dc.lft.to/lastmile_qr_scan"}, "bike_id": "a7b5c74f4e61e06f48aef7645f9d9755", "lon": -76.9834405}, {"is_reserved": 0, "fusion_lon": 0.0, "fusion_lat": 0.0, "name": "91d178496197f593cd0fb5f47c85b098", "type": "electric_scooter", "is_disabled": 0, "lat": 38.901835, "rental_uris": {"android": "https://dc.lft.to/lastmile_qr_scan", "ios": "https://dc.lft.to/lastmile_qr_scan"}, "bike_id": "91d178496197f593cd0fb5f47c85b098", "lon": -76.92869483333334}, {"is_reserved": 0, "fusion_lon": 0.0, "fusion_lat": 0.0, "name": "d06df000ced530740b446fceb40df791", "type": "electric_bike", "is_disabled": 0, "lat": 38.83607166666667, "rental_uris": {"android": "https://dc.lft.to/lastmile_qr_scan", "ios": "https://dc.lft.to/lastmile_qr_scan"}, "bike_id": "d06df000ced530740b446fceb40df791", "lon": -77.003807}, {"is_reserved": 0, "fusion_lon": 0.0, "fusion_lat": 0.0, "name": "133fa0e45893d84735ea8cc7470e532a", "type": "electric_scooter", "is_disabled": 0, "lat": 38.858522666666666, "rental_uris": {"android": "https://dc.lft.to/lastmile_qr_scan", "ios": "https://dc.lft.to/lastmile_qr_scan"}, "bike_id": "133fa0e45893d84735ea8cc7470e532a", "lon": -76.985727}, {"is_reserved": 0, "fusion_lon": 0.0, "fusion_lat": 0.0, "name": "99687098b7d0f8317adbd116c1ca8e9f", "type": "electric_scooter", "is_disabled": 0, "lat": 38.90887766666667, "rental_uris": {"android": "https://dc.lft.to/lastmile_qr_scan", "ios": "https://dc.lft.to/lastmile_qr_scan"}, "bike_id": "99687098b7d0f8317adbd116c1ca8e9f", "lon": -76.99857733333333}, {"is_reserved": 0, "fusion_lon": 0.0, "fusion_lat": 0.0, "name": "b5e79a6bd0660c70dc328187b39cba07", "type": "electric_scooter", "is_disabled": 0, "lat": 38.922864833333335, "rental_uris": {"android": "https://dc.lft.to/lastmile_qr_scan", "ios": "https://dc.lft.to/lastmile_qr_scan"}, "bike_id": "b5e79a6bd0660c70dc328187b39cba07", "lon": -77.07287083333334}, {"is_reserved": 0, "fusion_lon": 0.0, "fusion_lat": 0.0, "name": "e0303c68f8eb834cb1714d61a7b5b505", "type": "electric_scooter", "is_disabled": 0, "lat": 38.9024325, "rental_uris": {"android": "https://dc.lft.to/lastmile_qr_scan", "ios": "https://dc.lft.to/lastmile_qr_scan"}, "bike_id": "e0303c68f8eb834cb1714d61a7b5b505", "lon": -77.039055}, {"is_reserved": 0, "fusion_lon": 0.0, "fusion_lat": 0.0, "name": "4bd1319bf9e2838cc9b41c7647546fb5", "type": "electric_scooter", "is_disabled": 0, "lat": 38.902696666666664, "rental_uris": {"android": "https://dc.lft.to/lastmile_qr_scan", "ios": "https://dc.lft.to/lastmile_qr_scan"}, "bike_id": "4bd1319bf9e2838cc9b41c7647546fb5", "lon": -77.03648166666666}, {"is_reserved": 0, "fusion_lon": 0.0, "fusion_lat": 0.0, "name": "680cd9ccfd28816ef4d266d347cff71e", "type": "electric_scooter", "is_disabled": 0, "lat": 38.921617166666664, "rental_uris": {"android": "https://dc.lft.to/lastmile_qr_scan", "ios": "https://dc.lft.to/lastmile_qr_scan"}, "bike_id": "680cd9ccfd28816ef4d266d347cff71e", "lon": -77.04227116666667}, {"is_reserved": 0, "fusion_lon": 0.0, "fusion_lat": 0.0, "name": "14d6a9e870581e16af06312b75eadc84", "type": "electric_scooter", "is_disabled": 0, "lat": 38.90584966666667, "rental_uris": {"android": "https://dc.lft.to/lastmile_qr_scan", "ios": "https://dc.lft.to/lastmile_qr_scan"}, "bike_id": "14d6a9e870581e16af06312b75eadc84", "lon": -77.02223166666667}, {"is_reserved": 0, "fusion_lon": 0.0, "fusion_lat": 0.0, "name": "ce3a4cc9c599f60855b126796c8adb5c", "type": "electric_scooter", "is_disabled": 0, "lat": 38.9141635, "rental_uris": {"android": "https://dc.lft.to/lastmile_qr_scan", "ios": "https://dc.lft.to/lastmile_qr_scan"}, "bike_id": "ce3a4cc9c599f60855b126796c8adb5c", "lon": -77.0215885}, {"is_reserved": 0, "fusion_lon": 0.0, "fusion_lat": 0.0, "name": "3402189a23ad7c1d3fd89b5686b958da", "type": "electric_scooter", "is_disabled": 0, "lat": 38.93579183333333, "rental_uris": {"android": "https://dc.lft.to/lastmile_qr_scan", "ios": "https://dc.lft.to/lastmile_qr_scan"}, "bike_id": "3402189a23ad7c1d3fd89b5686b958da", "lon": -77.021303}, {"is_reserved": 0, "fusion_lon": 0.0, "fusion_lat": 0.0, "name": "01cf2509d5deea875dd4507bd47192ec", "type": "electric_bike", "is_disabled": 0, "lat": 38.91171, "rental_uris": {"android": "https://dc.lft.to/lastmile_qr_scan", "ios": "https://dc.lft.to/lastmile_qr_scan"}, "bike_id": "01cf2509d5deea875dd4507bd47192ec", "lon": -77.002845}, {"is_reserved": 0, "fusion_lon": 0.0, "fusion_lat": 0.0, "name": "5156f8354cfd067e5ead65a80f1d4625", "type": "electric_bike", "is_disabled": 0, "lat": 38.919312833333336, "rental_uris": {"android": "https://dc.lft.to/lastmile_qr_scan", "ios": "https://dc.lft.to/lastmile_qr_scan"}, "bike_id": "5156f8354cfd067e5ead65a80f1d4625", "lon": -77.07379716666667}, {"is_reserved": 0, "fusion_lon": 0.0, "fusion_lat": 0.0, "name": "47d72687c6f5514866c01e1a06f1a400", "type": "electric_scooter", "is_disabled": 0, "lat": 38.93954333333333, "rental_uris": {"android": "https://dc.lft.to/lastmile_qr_scan", "ios": "https://dc.lft.to/lastmile_qr_scan"}, "bike_id": "47d72687c6f5514866c01e1a06f1a400", "lon": -77.03666283333334}, {"is_reserved": 0, "fusion_lon": 0.0, "fusion_lat": 0.0, "name": "7a41b501c05ee5d21ad80a2e9b0a7e8a", "type": "electric_scooter", "is_disabled": 0, "lat": 38.9160205, "rental_uris": {"android": "https://dc.lft.to/lastmile_qr_scan", "ios": "https://dc.lft.to/lastmile_qr_scan"}, "bike_id": "7a41b501c05ee5d21ad80a2e9b0a7e8a", "lon": -77.02401916666666}, {"is_reserved": 0, "fusion_lon": 0.0, "fusion_lat": 0.0, "name": "e5696f67c462f5dcf2c7d7fda467b6fc", "type": "electric_scooter", "is_disabled": 0, "lat": 38.89227833333333, "rental_uris": {"android": "https://dc.lft.to/lastmile_qr_scan", "ios": "https://dc.lft.to/lastmile_qr_scan"}, "bike_id": "e5696f67c462f5dcf2c7d7fda467b6fc", "lon": -77.04338183333333}, {"is_reserved": 0, "fusion_lon": 0.0, "fusion_lat": 0.0, "name": "72187fa1b9198f6d36ceb8ec31a441df", "type": "electric_scooter", "is_disabled": 0, "lat": 38.93343016666667, "rental_uris": {"android": "https://dc.lft.to/lastmile_qr_scan", "ios": "https://dc.lft.to/lastmile_qr_scan"}, "bike_id": "72187fa1b9198f6d36ceb8ec31a441df", "lon": -77.026237}, {"is_reserved": 0, "fusion_lon": 0.0, "fusion_lat": 0.0, "name": "4d847342ce28e55594677aee8e1847cd", "type": "electric_bike", "is_disabled": 0, "lat": 39.01371266666666, "rental_uris": {"android": "https://dc.lft.to/lastmile_qr_scan", "ios": "https://dc.lft.to/lastmile_qr_scan"}, "bike_id": "4d847342ce28e55594677aee8e1847cd", "lon": -76.92135866666666}, {"is_reserved": 0, "fusion_lon": 0.0, "fusion_lat": 0.0, "name": "efde2b74e159a816e76d16a4dbb9799b", "type": "electric_scooter", "is_disabled": 0, "lat": 38.84315183333333, "rental_uris": {"android": "https://dc.lft.to/lastmile_qr_scan", "ios": "https://dc.lft.to/lastmile_qr_scan"}, "bike_id": "efde2b74e159a816e76d16a4dbb9799b", "lon": -76.99935966666666}, {"is_reserved": 0, "fusion_lon": 0.0, "fusion_lat": 0.0, "name": "f3c309ece5e947ac1da7c3c6b0897bd8", "type": "electric_scooter", "is_disabled": 0, "lat": 38.88782466666667, "rental_uris": {"android": "https://dc.lft.to/lastmile_qr_scan", "ios": "https://dc.lft.to/lastmile_qr_scan"}, "bike_id": "f3c309ece5e947ac1da7c3c6b0897bd8", "lon": -76.95535916666667}, {"is_reserved": 0, "fusion_lon": 0.0, "fusion_lat": 0.0, "name": "f879dac98bdcaaf06a2472cbace86b62", "type": "electric_scooter", "is_disabled": 0, "lat": 38.867013166666666, "rental_uris": {"android": "https://dc.lft.to/lastmile_qr_scan", "ios": "https://dc.lft.to/lastmile_qr_scan"}, "bike_id": "f879dac98bdcaaf06a2472cbace86b62", "lon": -76.98712383333333}, {"is_reserved": 0, "fusion_lon": 0.0, "fusion_lat": 0.0, "name": "23d72a55dea66baf15ae811f54779f85", "type": "electric_scooter", "is_disabled": 0, "lat": 38.900043333333336, "rental_uris": {"android": "https://dc.lft.to/lastmile_qr_scan", "ios": "https://dc.lft.to/lastmile_qr_scan"}, "bike_id": "23d72a55dea66baf15ae811f54779f85", "lon": -76.9983885}, {"is_reserved": 0, "fusion_lon": 0.0, "fusion_lat": 0.0, "name": "b66f46478e14be6076ebdc5ac8338833", "type": "electric_scooter", "is_disabled": 0, "lat": 38.917135333333334, "rental_uris": {"android": "https://dc.lft.to/lastmile_qr_scan", "ios": "https://dc.lft.to/lastmile_qr_scan"}, "bike_id": "b66f46478e14be6076ebdc5ac8338833", "lon": -77.03858566666666}, {"is_reserved": 0, "fusion_lon": 0.0, "fusion_lat": 0.0, "name": "e447ced9a78cfd2b21a680fb651d7341", "type": "electric_scooter", "is_disabled": 0, "lat": 38.892228, "rental_uris": {"android": "https://dc.lft.to/lastmile_qr_scan", "ios": "https://dc.lft.to/lastmile_qr_scan"}, "bike_id": "e447ced9a78cfd2b21a680fb651d7341", "lon": -77.04868566666667}, {"is_reserved": 0, "fusion_lon": 0.0, "fusion_lat": 0.0, "name": "8e31bcde6d2a4b1e0dd4c24bc3eec48e", "type": "electric_scooter", "is_disabled": 0, "lat": 38.908936833333335, "rental_uris": {"android": "https://dc.lft.to/lastmile_qr_scan", "ios": "https://dc.lft.to/lastmile_qr_scan"}, "bike_id": "8e31bcde6d2a4b1e0dd4c24bc3eec48e", "lon": -76.98237116666667}, {"is_reserved": 0, "fusion_lon": 0.0, "fusion_lat": 0.0, "name": "8e84bdc08b27c3e556b65b8761cb2334", "type": "electric_scooter", "is_disabled": 0, "lat": 38.88601583333333, "rental_uris": {"android": "https://dc.lft.to/lastmile_qr_scan", "ios": "https://dc.lft.to/lastmile_qr_scan"}, "bike_id": "8e84bdc08b27c3e556b65b8761cb2334", "lon": -77.0124395}, {"is_reserved": 0, "fusion_lon": 0.0, "fusion_lat": 0.0, "name": "96717890dcc05827e368670722e61302", "type": "electric_scooter", "is_disabled": 0, "lat": 38.8614655, "rental_uris": {"android": "https://dc.lft.to/lastmile_qr_scan", "ios": "https://dc.lft.to/lastmile_qr_scan"}, "bike_id": "96717890dcc05827e368670722e61302", "lon": -76.9837565}, {"is_reserved": 0, "fusion_lon": 0.0, "fusion_lat": 0.0, "name": "14cbf148d00575a79037237dd37a5a0a", "type": "electric_scooter", "is_disabled": 0, "lat": 38.87681766666667, "rental_uris": {"android": "https://dc.lft.to/lastmile_qr_scan", "ios": "https://dc.lft.to/lastmile_qr_scan"}, "bike_id": "14cbf148d00575a79037237dd37a5a0a", "lon": -77.01788866666666}, {"is_reserved": 0, "fusion_lon": 0.0, "fusion_lat": 0.0, "name": "05fb6b4b975cd00ee007e65d502ca08c", "type": "electric_scooter", "is_disabled": 0, "lat": 38.88050583333333, "rental_uris": {"android": "https://dc.lft.to/lastmile_qr_scan", "ios": "https://dc.lft.to/lastmile_qr_scan"}, "bike_id": "05fb6b4b975cd00ee007e65d502ca08c", "lon": -76.93216466666667}, {"is_reserved": 0, "fusion_lon": 0.0, "fusion_lat": 0.0, "name": "78ab7e2bfb3a88365047feb0367c59e7", "type": "electric_scooter", "is_disabled": 0, "lat": 38.90866466666667, "rental_uris": {"android": "https://dc.lft.to/lastmile_qr_scan", "ios": "https://dc.lft.to/lastmile_qr_scan"}, "bike_id": "78ab7e2bfb3a88365047feb0367c59e7", "lon": -77.07103516666666}, {"is_reserved": 0, "fusion_lon": 0.0, "fusion_lat": 0.0, "name": "8716f2f6fcf05311f60d2a86b923347f", "type": "electric_scooter", "is_disabled": 0, "lat": 38.90523833333334, "rental_uris": {"android": "https://dc.lft.to/lastmile_qr_scan", "ios": "https://dc.lft.to/lastmile_qr_scan"}, "bike_id": "8716f2f6fcf05311f60d2a86b923347f", "lon": -77.006893}, {"is_reserved": 0, "fusion_lon": 0.0, "fusion_lat": 0.0, "name": "a9e7b39586667c2c97c5a660adb7b1b4", "type": "electric_scooter", "is_disabled": 0, "lat": 38.91059633333333, "rental_uris": {"android": "https://dc.lft.to/lastmile_qr_scan", "ios": "https://dc.lft.to/lastmile_qr_scan"}, "bike_id": "a9e7b39586667c2c97c5a660adb7b1b4", "lon": -77.042591}, {"is_reserved": 0, "fusion_lon": 0.0, "fusion_lat": 0.0, "name": "61ae4ba7e2e3ae3416c897fd63fb9387", "type": "electric_bike", "is_disabled": 0, "lat": 38.94926733333333, "rental_uris": {"android": "https://dc.lft.to/lastmile_qr_scan", "ios": "https://dc.lft.to/lastmile_qr_scan"}, "bike_id": "61ae4ba7e2e3ae3416c897fd63fb9387", "lon": -77.00798416666666}, {"is_reserved": 0, "fusion_lon": 0.0, "fusion_lat": 0.0, "name": "fb74c90f30a5d111257b0dcc108e8987", "type": "electric_scooter", "is_disabled": 0, "lat": 38.90653866666667, "rental_uris": {"android": "https://dc.lft.to/lastmile_qr_scan", "ios": "https://dc.lft.to/lastmile_qr_scan"}, "bike_id": "fb74c90f30a5d111257b0dcc108e8987", "lon": -77.02715166666667}, {"is_reserved": 0, "fusion_lon": 0.0, "fusion_lat": 0.0, "name": "c545556a1c1bae5a9837e4943ab83e21", "type": "electric_scooter", "is_disabled": 0, "lat": 38.90893033333333, "rental_uris": {"android": "https://dc.lft.to/lastmile_qr_scan", "ios": "https://dc.lft.to/lastmile_qr_scan"}, "bike_id": "c545556a1c1bae5a9837e4943ab83e21", "lon": -77.0457605}, {"is_reserved": 0, "fusion_lon": 0.0, "fusion_lat": 0.0, "name": "e0bc5784c44ce2a8eae82de3fd1d0866", "type": "electric_scooter", "is_disabled": 0, "lat": 38.901345, "rental_uris": {"android": "https://dc.lft.to/lastmile_qr_scan", "ios": "https://dc.lft.to/lastmile_qr_scan"}, "bike_id": "e0bc5784c44ce2a8eae82de3fd1d0866", "lon": -77.04353116666667}, {"is_reserved": 0, "fusion_lon": 0.0, "fusion_lat": 0.0, "name": "75efcfdf714ef4e3871610fc42b84880", "type": "electric_scooter", "is_disabled": 0, "lat": 38.91110916666667, "rental_uris": {"android": "https://dc.lft.to/lastmile_qr_scan", "ios": "https://dc.lft.to/lastmile_qr_scan"}, "bike_id": "75efcfdf714ef4e3871610fc42b84880", "lon": -77.04320516666667}, {"is_reserved": 0, "fusion_lon": 0.0, "fusion_lat": 0.0, "name": "65c8223f60472faac88c8dde4aaa3599", "type": "electric_scooter", "is_disabled": 0, "lat": 38.90030083333333, "rental_uris": {"android": "https://dc.lft.to/lastmile_qr_scan", "ios": "https://dc.lft.to/lastmile_qr_scan"}, "bike_id": "65c8223f60472faac88c8dde4aaa3599", "lon": -76.9885685}, {"is_reserved": 0, "fusion_lon": 0.0, "fusion_lat": 0.0, "name": "1df9940f75a98813d09879fe61dcfa74", "type": "electric_scooter", "is_disabled": 0, "lat": 38.909783833333336, "rental_uris": {"android": "https://dc.lft.to/lastmile_qr_scan", "ios": "https://dc.lft.to/lastmile_qr_scan"}, "bike_id": "1df9940f75a98813d09879fe61dcfa74", "lon": -77.03183933333334}, {"is_reserved": 0, "fusion_lon": 0.0, "fusion_lat": 0.0, "name": "a308f1d165a0a648bac24a1a79a16af5", "type": "electric_scooter", "is_disabled": 0, "lat": 38.92111766666667, "rental_uris": {"android": "https://dc.lft.to/lastmile_qr_scan", "ios": "https://dc.lft.to/lastmile_qr_scan"}, "bike_id": "a308f1d165a0a648bac24a1a79a16af5", "lon": -77.01809566666667}, {"is_reserved": 0, "fusion_lon": 0.0, "fusion_lat": 0.0, "name": "0929ea8f9fdd1e5a744cdb019a33611b", "type": "electric_scooter", "is_disabled": 0, "lat": 38.8850655, "rental_uris": {"android": "https://dc.lft.to/lastmile_qr_scan", "ios": "https://dc.lft.to/lastmile_qr_scan"}, "bike_id": "0929ea8f9fdd1e5a744cdb019a33611b", "lon": -77.0201385}, {"is_reserved": 0, "fusion_lon": 0.0, "fusion_lat": 0.0, "name": "2b76c6d7a3aa276ae0a176fcd81e81c8", "type": "electric_scooter", "is_disabled": 0, "lat": 38.9234285, "rental_uris": {"android": "https://dc.lft.to/lastmile_qr_scan", "ios": "https://dc.lft.to/lastmile_qr_scan"}, "bike_id": "2b76c6d7a3aa276ae0a176fcd81e81c8", "lon": -77.05124766666667}, {"is_reserved": 0, "fusion_lon": 0.0, "fusion_lat": 0.0, "name": "02ab21f01075cbe8f82f94dec1bb6798", "type": "electric_scooter", "is_disabled": 0, "lat": 38.8746965, "rental_uris": {"android": "https://dc.lft.to/lastmile_qr_scan", "ios": "https://dc.lft.to/lastmile_qr_scan"}, "bike_id": "02ab21f01075cbe8f82f94dec1bb6798", "lon": -77.00243033333334}, {"is_reserved": 0, "fusion_lon": 0.0, "fusion_lat": 0.0, "name": "59b724882cede0a2bb5f2447445ae3e1", "type": "electric_scooter", "is_disabled": 0, "lat": 38.8923745, "rental_uris": {"android": "https://dc.lft.to/lastmile_qr_scan", "ios": "https://dc.lft.to/lastmile_qr_scan"}, "bike_id": "59b724882cede0a2bb5f2447445ae3e1", "lon": -77.031863}, {"is_reserved": 0, "fusion_lon": 0.0, "fusion_lat": 0.0, "name": "3aab86de43b6134066c94e0a047b2b0e", "type": "electric_scooter", "is_disabled": 0, "lat": 38.8663895, "rental_uris": {"android": "https://dc.lft.to/lastmile_qr_scan", "ios": "https://dc.lft.to/lastmile_qr_scan"}, "bike_id": "3aab86de43b6134066c94e0a047b2b0e", "lon": -76.98267733333333}, {"is_reserved": 0, "fusion_lon": 0.0, "fusion_lat": 0.0, "name": "4a090692a0ed513e177b23d607d2e7d3", "type": "electric_scooter", "is_disabled": 0, "lat": 38.929270333333335, "rental_uris": {"android": "https://dc.lft.to/lastmile_qr_scan", "ios": "https://dc.lft.to/lastmile_qr_scan"}, "bike_id": "4a090692a0ed513e177b23d607d2e7d3", "lon": -77.0233305}, {"is_reserved": 0, "fusion_lon": 0.0, "fusion_lat": 0.0, "name": "b12c1b91d9ef55840fd163af2d356fdd", "type": "electric_scooter", "is_disabled": 0, "lat": 38.91754983333333, "rental_uris": {"android": "https://dc.lft.to/lastmile_qr_scan", "ios": "https://dc.lft.to/lastmile_qr_scan"}, "bike_id": "b12c1b91d9ef55840fd163af2d356fdd", "lon": -77.01221283333334}, {"is_reserved": 0, "fusion_lon": 0.0, "fusion_lat": 0.0, "name": "9ff9656f63f15c9b954fefcf6d870bbf", "type": "electric_scooter", "is_disabled": 0, "lat": 38.9000665, "rental_uris": {"android": "https://dc.lft.to/lastmile_qr_scan", "ios": "https://dc.lft.to/lastmile_qr_scan"}, "bike_id": "9ff9656f63f15c9b954fefcf6d870bbf", "lon": -77.041331}, {"is_reserved": 0, "fusion_lon": 0.0, "fusion_lat": 0.0, "name": "ea68c861cf6e6c419cb8194deb629e0f", "type": "electric_scooter", "is_disabled": 0, "lat": 38.904755, "rental_uris": {"android": "https://dc.lft.to/lastmile_qr_scan", "ios": "https://dc.lft.to/lastmile_qr_scan"}, "bike_id": "ea68c861cf6e6c419cb8194deb629e0f", "lon": -77.0172115}, {"is_reserved": 0, "fusion_lon": 0.0, "fusion_lat": 0.0, "name": "7a5b967af9e9c6eb938cf749f34e8a6a", "type": "electric_scooter", "is_disabled": 0, "lat": 38.911842, "rental_uris": {"android": "https://dc.lft.to/lastmile_qr_scan", "ios": "https://dc.lft.to/lastmile_qr_scan"}, "bike_id": "7a5b967af9e9c6eb938cf749f34e8a6a", "lon": -77.04349833333333}, {"is_reserved": 0, "fusion_lon": 0.0, "fusion_lat": 0.0, "name": "0105285c8bbe5609033efa5f62b2b42d", "type": "electric_scooter", "is_disabled": 0, "lat": 38.942045666666665, "rental_uris": {"android": "https://dc.lft.to/lastmile_qr_scan", "ios": "https://dc.lft.to/lastmile_qr_scan"}, "bike_id": "0105285c8bbe5609033efa5f62b2b42d", "lon": -77.0251585}, {"is_reserved": 0, "fusion_lon": 0.0, "fusion_lat": 0.0, "name": "ca64966ae09adf5548779301dd02d8cf", "type": "electric_scooter", "is_disabled": 0, "lat": 38.886836333333335, "rental_uris": {"android": "https://dc.lft.to/lastmile_qr_scan", "ios": "https://dc.lft.to/lastmile_qr_scan"}, "bike_id": "ca64966ae09adf5548779301dd02d8cf", "lon": -76.95473616666666}, {"is_reserved": 0, "fusion_lon": 0.0, "fusion_lat": 0.0, "name": "2ba4341f8aaab1cc2a222415243f98c8", "type": "electric_scooter", "is_disabled": 0, "lat": 38.9000255, "rental_uris": {"android": "https://dc.lft.to/lastmile_qr_scan", "ios": "https://dc.lft.to/lastmile_qr_scan"}, "bike_id": "2ba4341f8aaab1cc2a222415243f98c8", "lon": -76.99623566666666}, {"is_reserved": 0, "fusion_lon": 0.0, "fusion_lat": 0.0, "name": "3cfb303d6bd5ad7e7fa68c14ea1edcdc", "type": "electric_scooter", "is_disabled": 0, "lat": 38.907205, "rental_uris": {"android": "https://dc.lft.to/lastmile_qr_scan", "ios": "https://dc.lft.to/lastmile_qr_scan"}, "bike_id": "3cfb303d6bd5ad7e7fa68c14ea1edcdc", "lon": -77.05005216666666}, {"is_reserved": 0, "fusion_lon": 0.0, "fusion_lat": 0.0, "name": "25bf497afb84ceb789e9b39c6aed1156", "type": "electric_scooter", "is_disabled": 0, "lat": 38.887435833333335, "rental_uris": {"android": "https://dc.lft.to/lastmile_qr_scan", "ios": "https://dc.lft.to/lastmile_qr_scan"}, "bike_id": "25bf497afb84ceb789e9b39c6aed1156", "lon": -77.0273705}, {"is_reserved": 0, "fusion_lon": 0.0, "fusion_lat": 0.0, "name": "13f6ed0532e74e7bb5ca27024cd7112d", "type": "electric_scooter", "is_disabled": 0, "lat": 38.90885016666667, "rental_uris": {"android": "https://dc.lft.to/lastmile_qr_scan", "ios": "https://dc.lft.to/lastmile_qr_scan"}, "bike_id": "13f6ed0532e74e7bb5ca27024cd7112d", "lon": -76.98547466666666}, {"is_reserved": 0, "fusion_lon": 0.0, "fusion_lat": 0.0, "name": "ee183e8f19f005e8501fad3d6893124d", "type": "electric_scooter", "is_disabled": 0, "lat": 38.9266085, "rental_uris": {"android": "https://dc.lft.to/lastmile_qr_scan", "ios": "https://dc.lft.to/lastmile_qr_scan"}, "bike_id": "ee183e8f19f005e8501fad3d6893124d", "lon": -77.022739}, {"is_reserved": 0, "fusion_lon": 0.0, "fusion_lat": 0.0, "name": "d6e9033b4df50579a8141a8c87905953", "type": "electric_scooter", "is_disabled": 0, "lat": 38.907695833333335, "rental_uris": {"android": "https://dc.lft.to/lastmile_qr_scan", "ios": "https://dc.lft.to/lastmile_qr_scan"}, "bike_id": "d6e9033b4df50579a8141a8c87905953", "lon": -77.03480433333333}, {"is_reserved": 0, "fusion_lon": 0.0, "fusion_lat": 0.0, "name": "dbdb18d21febc3b4dc6ad8038aeb6550", "type": "electric_scooter", "is_disabled": 0, "lat": 38.89240216666666, "rental_uris": {"android": "https://dc.lft.to/lastmile_qr_scan", "ios": "https://dc.lft.to/lastmile_qr_scan"}, "bike_id": "dbdb18d21febc3b4dc6ad8038aeb6550", "lon": -77.03212166666667}, {"is_reserved": 0, "fusion_lon": 0.0, "fusion_lat": 0.0, "name": "232051fd278327cf4cf8717bb7c15631", "type": "electric_scooter", "is_disabled": 0, "lat": 38.917278333333336, "rental_uris": {"android": "https://dc.lft.to/lastmile_qr_scan", "ios": "https://dc.lft.to/lastmile_qr_scan"}, "bike_id": "232051fd278327cf4cf8717bb7c15631", "lon": -77.022979}, {"is_reserved": 0, "fusion_lon": 0.0, "fusion_lat": 0.0, "name": "6ad11cd901bdd935f5a0f165dc81e3a4", "type": "electric_scooter", "is_disabled": 0, "lat": 38.8701135, "rental_uris": {"android": "https://dc.lft.to/lastmile_qr_scan", "ios": "https://dc.lft.to/lastmile_qr_scan"}, "bike_id": "6ad11cd901bdd935f5a0f165dc81e3a4", "lon": -76.98081883333333}, {"is_reserved": 0, "fusion_lon": 0.0, "fusion_lat": 0.0, "name": "4713b5637340d733d25706916049335b", "type": "electric_scooter", "is_disabled": 0, "lat": 38.914177, "rental_uris": {"android": "https://dc.lft.to/lastmile_qr_scan", "ios": "https://dc.lft.to/lastmile_qr_scan"}, "bike_id": "4713b5637340d733d25706916049335b", "lon": -77.03148433333334}, {"is_reserved": 0, "fusion_lon": 0.0, "fusion_lat": 0.0, "name": "be11c71602ac535d98f1baddd0c7bd71", "type": "electric_scooter", "is_disabled": 0, "lat": 38.984586166666666, "rental_uris": {"android": "https://dc.lft.to/lastmile_qr_scan", "ios": "https://dc.lft.to/lastmile_qr_scan"}, "bike_id": "be11c71602ac535d98f1baddd0c7bd71", "lon": -77.02693383333333}, {"is_reserved": 0, "fusion_lon": 0.0, "fusion_lat": 0.0, "name": "c496561d4456ff6d3a51ada8713dd4ed", "type": "electric_scooter", "is_disabled": 0, "lat": 38.87712033333333, "rental_uris": {"android": "https://dc.lft.to/lastmile_qr_scan", "ios": "https://dc.lft.to/lastmile_qr_scan"}, "bike_id": "c496561d4456ff6d3a51ada8713dd4ed", "lon": -77.0058075}, {"is_reserved": 0, "fusion_lon": 0.0, "fusion_lat": 0.0, "name": "1017ca9c90927dc315eba605892ec654", "type": "electric_bike", "is_disabled": 0, "lat": 38.81914033333334, "rental_uris": {"android": "https://dc.lft.to/lastmile_qr_scan", "ios": "https://dc.lft.to/lastmile_qr_scan"}, "bike_id": "1017ca9c90927dc315eba605892ec654", "lon": -76.9991055}, {"is_reserved": 0, "fusion_lon": 0.0, "fusion_lat": 0.0, "name": "34480012738755bba300ab2aec9e7aef", "type": "electric_scooter", "is_disabled": 0, "lat": 38.9328885, "rental_uris": {"android": "https://dc.lft.to/lastmile_qr_scan", "ios": "https://dc.lft.to/lastmile_qr_scan"}, "bike_id": "34480012738755bba300ab2aec9e7aef", "lon": -77.02133183333333}, {"is_reserved": 0, "fusion_lon": 0.0, "fusion_lat": 0.0, "name": "f6a2b70a4047dd802123253376ffff53", "type": "electric_scooter", "is_disabled": 0, "lat": 38.91772066666667, "rental_uris": {"android": "https://dc.lft.to/lastmile_qr_scan", "ios": "https://dc.lft.to/lastmile_qr_scan"}, "bike_id": "f6a2b70a4047dd802123253376ffff53", "lon": -77.04570966666667}, {"is_reserved": 0, "fusion_lon": 0.0, "fusion_lat": 0.0, "name": "e82c74c152ef77028797614a234eddb5", "type": "electric_scooter", "is_disabled": 0, "lat": 38.921373, "rental_uris": {"android": "https://dc.lft.to/lastmile_qr_scan", "ios": "https://dc.lft.to/lastmile_qr_scan"}, "bike_id": "e82c74c152ef77028797614a234eddb5", "lon": -77.00404766666666}, {"is_reserved": 0, "fusion_lon": 0.0, "fusion_lat": 0.0, "name": "e24c2cd570b8de193fce4793415a8b25", "type": "electric_scooter", "is_disabled": 0, "lat": 38.90970033333333, "rental_uris": {"android": "https://dc.lft.to/lastmile_qr_scan", "ios": "https://dc.lft.to/lastmile_qr_scan"}, "bike_id": "e24c2cd570b8de193fce4793415a8b25", "lon": -77.03867583333333}, {"is_reserved": 0, "fusion_lon": 0.0, "fusion_lat": 0.0, "name": "2ad401e5a4b1a71ee47ac3704c737fbe", "type": "electric_scooter", "is_disabled": 0, "lat": 38.91602566666667, "rental_uris": {"android": "https://dc.lft.to/lastmile_qr_scan", "ios": "https://dc.lft.to/lastmile_qr_scan"}, "bike_id": "2ad401e5a4b1a71ee47ac3704c737fbe", "lon": -77.03206633333333}, {"is_reserved": 0, "fusion_lon": 0.0, "fusion_lat": 0.0, "name": "6bc565ea2aca5f92b37b11f9584c6bf0", "type": "electric_scooter", "is_disabled": 0, "lat": 38.9337685, "rental_uris": {"android": "https://dc.lft.to/lastmile_qr_scan", "ios": "https://dc.lft.to/lastmile_qr_scan"}, "bike_id": "6bc565ea2aca5f92b37b11f9584c6bf0", "lon": -77.02688733333333}, {"is_reserved": 0, "fusion_lon": 0.0, "fusion_lat": 0.0, "name": "563994dbad5604ea44cab0b22b40e64c", "type": "electric_scooter", "is_disabled": 0, "lat": 38.9112, "rental_uris": {"android": "https://dc.lft.to/lastmile_qr_scan", "ios": "https://dc.lft.to/lastmile_qr_scan"}, "bike_id": "563994dbad5604ea44cab0b22b40e64c", "lon": -77.03834416666666}, {"is_reserved": 0, "fusion_lon": 0.0, "fusion_lat": 0.0, "name": "013e6d1f20e1dd71797badded9df80c7", "type": "electric_bike", "is_disabled": 0, "lat": 38.80019033333333, "rental_uris": {"android": "https://dc.lft.to/lastmile_qr_scan", "ios": "https://dc.lft.to/lastmile_qr_scan"}, "bike_id": "013e6d1f20e1dd71797badded9df80c7", "lon": -77.054813}, {"is_reserved": 0, "fusion_lon": 0.0, "fusion_lat": 0.0, "name": "2f99c4da38e2fe313a1acc4769d4ccd8", "type": "electric_scooter", "is_disabled": 0, "lat": 38.920103, "rental_uris": {"android": "https://dc.lft.to/lastmile_qr_scan", "ios": "https://dc.lft.to/lastmile_qr_scan"}, "bike_id": "2f99c4da38e2fe313a1acc4769d4ccd8", "lon": -77.03886383333334}, {"is_reserved": 0, "fusion_lon": 0.0, "fusion_lat": 0.0, "name": "7bea1c7a6cbe0b484f0c49fca13a7ae3", "type": "electric_scooter", "is_disabled": 0, "lat": 38.91267366666667, "rental_uris": {"android": "https://dc.lft.to/lastmile_qr_scan", "ios": "https://dc.lft.to/lastmile_qr_scan"}, "bike_id": "7bea1c7a6cbe0b484f0c49fca13a7ae3", "lon": -77.03865216666667}, {"is_reserved": 0, "fusion_lon": 0.0, "fusion_lat": 0.0, "name": "5c292e92700ff82571df18d8921d00aa", "type": "electric_scooter", "is_disabled": 0, "lat": 38.887256, "rental_uris": {"android": "https://dc.lft.to/lastmile_qr_scan", "ios": "https://dc.lft.to/lastmile_qr_scan"}, "bike_id": "5c292e92700ff82571df18d8921d00aa", "lon": -77.02181366666667}, {"is_reserved": 0, "fusion_lon": 0.0, "fusion_lat": 0.0, "name": "c981d872e858661976e789ac888c4ca0", "type": "electric_scooter", "is_disabled": 0, "lat": 38.9294915, "rental_uris": {"android": "https://dc.lft.to/lastmile_qr_scan", "ios": "https://dc.lft.to/lastmile_qr_scan"}, "bike_id": "c981d872e858661976e789ac888c4ca0", "lon": -77.01634983333334}, {"is_reserved": 0, "fusion_lon": 0.0, "fusion_lat": 0.0, "name": "85dca047bb3db9e7cdc0846f477ccc0f", "type": "electric_scooter", "is_disabled": 0, "lat": 38.902453, "rental_uris": {"android": "https://dc.lft.to/lastmile_qr_scan", "ios": "https://dc.lft.to/lastmile_qr_scan"}, "bike_id": "85dca047bb3db9e7cdc0846f477ccc0f", "lon": -77.01769933333334}, {"is_reserved": 0, "fusion_lon": 0.0, "fusion_lat": 0.0, "name": "eefd75923885e587938080a9296b6bfb", "type": "electric_scooter", "is_disabled": 0, "lat": 38.95735083333334, "rental_uris": {"android": "https://dc.lft.to/lastmile_qr_scan", "ios": "https://dc.lft.to/lastmile_qr_scan"}, "bike_id": "eefd75923885e587938080a9296b6bfb", "lon": -77.0240145}, {"is_reserved": 0, "fusion_lon": 0.0, "fusion_lat": 0.0, "name": "bc23773e131f0f444cda6950809e3fd3", "type": "electric_bike", "is_disabled": 0, "lat": 38.87991516666666, "rental_uris": {"android": "https://dc.lft.to/lastmile_qr_scan", "ios": "https://dc.lft.to/lastmile_qr_scan"}, "bike_id": "bc23773e131f0f444cda6950809e3fd3", "lon": -76.915949}, {"is_reserved": 0, "fusion_lon": 0.0, "fusion_lat": 0.0, "name": "1f26a9a88bb52e8ba9e75af943643920", "type": "electric_scooter", "is_disabled": 0, "lat": 38.9191895, "rental_uris": {"android": "https://dc.lft.to/lastmile_qr_scan", "ios": "https://dc.lft.to/lastmile_qr_scan"}, "bike_id": "1f26a9a88bb52e8ba9e75af943643920", "lon": -77.03176466666666}, {"is_reserved": 0, "fusion_lon": 0.0, "fusion_lat": 0.0, "name": "58c52710dc27e137af48edded94ed99e", "type": "electric_scooter", "is_disabled": 0, "lat": 38.932723833333334, "rental_uris": {"android": "https://dc.lft.to/lastmile_qr_scan", "ios": "https://dc.lft.to/lastmile_qr_scan"}, "bike_id": "58c52710dc27e137af48edded94ed99e", "lon": -77.02841516666666}, {"is_reserved": 0, "fusion_lon": 0.0, "fusion_lat": 0.0, "name": "0ee9745ccd4e67337367ddcbfee92660", "type": "electric_scooter", "is_disabled": 0, "lat": 38.92113633333334, "rental_uris": {"android": "https://dc.lft.to/lastmile_qr_scan", "ios": "https://dc.lft.to/lastmile_qr_scan"}, "bike_id": "0ee9745ccd4e67337367ddcbfee92660", "lon": -77.02496633333334}, {"is_reserved": 0, "fusion_lon": 0.0, "fusion_lat": 0.0, "name": "e54d6e3f1825707b49f212b649616bca", "type": "electric_scooter", "is_disabled": 0, "lat": 38.871443666666664, "rental_uris": {"android": "https://dc.lft.to/lastmile_qr_scan", "ios": "https://dc.lft.to/lastmile_qr_scan"}, "bike_id": "e54d6e3f1825707b49f212b649616bca", "lon": -77.00696183333334}, {"is_reserved": 0, "fusion_lon": 0.0, "fusion_lat": 0.0, "name": "b73ce46c6c6a0dc745459e1f1b9c0dd9", "type": "electric_scooter", "is_disabled": 0, "lat": 38.89607783333334, "rental_uris": {"android": "https://dc.lft.to/lastmile_qr_scan", "ios": "https://dc.lft.to/lastmile_qr_scan"}, "bike_id": "b73ce46c6c6a0dc745459e1f1b9c0dd9", "lon": -77.03176783333333}, {"is_reserved": 0, "fusion_lon": 0.0, "fusion_lat": 0.0, "name": "7c73093a4e3f075db8059fbff5095c71", "type": "electric_bike", "is_disabled": 0, "lat": 38.956549333333335, "rental_uris": {"android": "https://dc.lft.to/lastmile_qr_scan", "ios": "https://dc.lft.to/lastmile_qr_scan"}, "bike_id": "7c73093a4e3f075db8059fbff5095c71", "lon": -77.01279433333333}, {"is_reserved": 0, "fusion_lon": 0.0, "fusion_lat": 0.0, "name": "b1d99daffa7873e92c147e38446c7680", "type": "electric_scooter", "is_disabled": 0, "lat": 38.90674533333333, "rental_uris": {"android": "https://dc.lft.to/lastmile_qr_scan", "ios": "https://dc.lft.to/lastmile_qr_scan"}, "bike_id": "b1d99daffa7873e92c147e38446c7680", "lon": -77.03838183333333}, {"is_reserved": 0, "fusion_lon": 0.0, "fusion_lat": 0.0, "name": "f4a4ccb483915cb60fd73f746d78d324", "type": "electric_scooter", "is_disabled": 0, "lat": 38.9195695, "rental_uris": {"android": "https://dc.lft.to/lastmile_qr_scan", "ios": "https://dc.lft.to/lastmile_qr_scan"}, "bike_id": "f4a4ccb483915cb60fd73f746d78d324", "lon": -77.025148}, {"is_reserved": 0, "fusion_lon": 0.0, "fusion_lat": 0.0, "name": "634dcbf1d29c8f9e38233d336953a784", "type": "electric_bike", "is_disabled": 0, "lat": 38.98824233333333, "rental_uris": {"android": "https://dc.lft.to/lastmile_qr_scan", "ios": "https://dc.lft.to/lastmile_qr_scan"}, "bike_id": "634dcbf1d29c8f9e38233d336953a784", "lon": -77.0265025}, {"is_reserved": 0, "fusion_lon": 0.0, "fusion_lat": 0.0, "name": "98b8d07f32a5c5776a43eb48c7d506f6", "type": "electric_scooter", "is_disabled": 0, "lat": 38.86660216666667, "rental_uris": {"android": "https://dc.lft.to/lastmile_qr_scan", "ios": "https://dc.lft.to/lastmile_qr_scan"}, "bike_id": "98b8d07f32a5c5776a43eb48c7d506f6", "lon": -76.98888366666667}, {"is_reserved": 0, "fusion_lon": 0.0, "fusion_lat": 0.0, "name": "679d0324c93305f67d8c58c32bf02ca1", "type": "electric_scooter", "is_disabled": 0, "lat": 38.90484566666667, "rental_uris": {"android": "https://dc.lft.to/lastmile_qr_scan", "ios": "https://dc.lft.to/lastmile_qr_scan"}, "bike_id": "679d0324c93305f67d8c58c32bf02ca1", "lon": -77.03797283333333}, {"is_reserved": 0, "fusion_lon": 0.0, "fusion_lat": 0.0, "name": "88312884cdcc7db7e80cc9060d766491", "type": "electric_scooter", "is_disabled": 0, "lat": 38.92153233333333, "rental_uris": {"android": "https://dc.lft.to/lastmile_qr_scan", "ios": "https://dc.lft.to/lastmile_qr_scan"}, "bike_id": "88312884cdcc7db7e80cc9060d766491", "lon": -77.03509116666666}, {"is_reserved": 0, "fusion_lon": 0.0, "fusion_lat": 0.0, "name": "cd763233f178a268219b649908edf951", "type": "electric_scooter", "is_disabled": 0, "lat": 38.90821866666667, "rental_uris": {"android": "https://dc.lft.to/lastmile_qr_scan", "ios": "https://dc.lft.to/lastmile_qr_scan"}, "bike_id": "cd763233f178a268219b649908edf951", "lon": -76.99218266666666}, {"is_reserved": 0, "fusion_lon": 0.0, "fusion_lat": 0.0, "name": "9e794ed47f1b29f95ae94c0330f49942", "type": "electric_scooter", "is_disabled": 0, "lat": 38.9216425, "rental_uris": {"android": "https://dc.lft.to/lastmile_qr_scan", "ios": "https://dc.lft.to/lastmile_qr_scan"}, "bike_id": "9e794ed47f1b29f95ae94c0330f49942", "lon": -77.0333455}, {"is_reserved": 0, "fusion_lon": 0.0, "fusion_lat": 0.0, "name": "32ab1d164071e37ea7947af0e986b501", "type": "electric_scooter", "is_disabled": 0, "lat": 38.9168515, "rental_uris": {"android": "https://dc.lft.to/lastmile_qr_scan", "ios": "https://dc.lft.to/lastmile_qr_scan"}, "bike_id": "32ab1d164071e37ea7947af0e986b501", "lon": -77.031249}, {"is_reserved": 0, "fusion_lon": 0.0, "fusion_lat": 0.0, "name": "52e0a5280dcf1f276a1cc2ef5957dab4", "type": "electric_scooter", "is_disabled": 0, "lat": 38.907955666666666, "rental_uris": {"android": "https://dc.lft.to/lastmile_qr_scan", "ios": "https://dc.lft.to/lastmile_qr_scan"}, "bike_id": "52e0a5280dcf1f276a1cc2ef5957dab4", "lon": -77.03866016666667}, {"is_reserved": 0, "fusion_lon": 0.0, "fusion_lat": 0.0, "name": "b840dfe807af74e51bbec828e4f8cae7", "type": "electric_bike", "is_disabled": 0, "lat": 38.858932333333335, "rental_uris": {"android": "https://dc.lft.to/lastmile_qr_scan", "ios": "https://dc.lft.to/lastmile_qr_scan"}, "bike_id": "b840dfe807af74e51bbec828e4f8cae7", "lon": -77.11862183333334}, {"is_reserved": 0, "fusion_lon": 0.0, "fusion_lat": 0.0, "name": "9c4fa01fb2f1ee6bdb2e00d478dce79b", "type": "electric_scooter", "is_disabled": 0, "lat": 38.90740366666667, "rental_uris": {"android": "https://dc.lft.to/lastmile_qr_scan", "ios": "https://dc.lft.to/lastmile_qr_scan"}, "bike_id": "9c4fa01fb2f1ee6bdb2e00d478dce79b", "lon": -77.03819433333334}, {"is_reserved": 0, "fusion_lon": 0.0, "fusion_lat": 0.0, "name": "be23f76c25ec0a8c30cf204908ba00eb", "type": "electric_scooter", "is_disabled": 0, "lat": 38.89237216666667, "rental_uris": {"android": "https://dc.lft.to/lastmile_qr_scan", "ios": "https://dc.lft.to/lastmile_qr_scan"}, "bike_id": "be23f76c25ec0a8c30cf204908ba00eb", "lon": -77.031879}, {"is_reserved": 0, "fusion_lon": 0.0, "fusion_lat": 0.0, "name": "27decb21644d827f7e5dddc8b090e4b7", "type": "electric_scooter", "is_disabled": 0, "lat": 38.94515033333333, "rental_uris": {"android": "https://dc.lft.to/lastmile_qr_scan", "ios": "https://dc.lft.to/lastmile_qr_scan"}, "bike_id": "27decb21644d827f7e5dddc8b090e4b7", "lon": -77.03320166666667}, {"is_reserved": 0, "fusion_lon": 0.0, "fusion_lat": 0.0, "name": "195fab672a2c243dbcb5318215563ea3", "type": "electric_scooter", "is_disabled": 0, "lat": 38.922553, "rental_uris": {"android": "https://dc.lft.to/lastmile_qr_scan", "ios": "https://dc.lft.to/lastmile_qr_scan"}, "bike_id": "195fab672a2c243dbcb5318215563ea3", "lon": -77.030629}, {"is_reserved": 0, "fusion_lon": 0.0, "fusion_lat": 0.0, "name": "243c781cd2239986c1bc2d79a4a0ed92", "type": "electric_scooter", "is_disabled": 0, "lat": 38.90825516666666, "rental_uris": {"android": "https://dc.lft.to/lastmile_qr_scan", "ios": "https://dc.lft.to/lastmile_qr_scan"}, "bike_id": "243c781cd2239986c1bc2d79a4a0ed92", "lon": -77.04330283333333}, {"is_reserved": 0, "fusion_lon": 0.0, "fusion_lat": 0.0, "name": "65f96415b1aa14d05ae07319f4c0c8d4", "type": "electric_scooter", "is_disabled": 0, "lat": 38.928681833333336, "rental_uris": {"android": "https://dc.lft.to/lastmile_qr_scan", "ios": "https://dc.lft.to/lastmile_qr_scan"}, "bike_id": "65f96415b1aa14d05ae07319f4c0c8d4", "lon": -77.03325533333333}, {"is_reserved": 0, "fusion_lon": 0.0, "fusion_lat": 0.0, "name": "cba53111d81c98fc1d62509b7334bd2b", "type": "electric_scooter", "is_disabled": 0, "lat": 38.91120016666667, "rental_uris": {"android": "https://dc.lft.to/lastmile_qr_scan", "ios": "https://dc.lft.to/lastmile_qr_scan"}, "bike_id": "cba53111d81c98fc1d62509b7334bd2b", "lon": -77.031526}, {"is_reserved": 0, "fusion_lon": 0.0, "fusion_lat": 0.0, "name": "bbced7cea1a225fcf96209ea2af20a1e", "type": "electric_scooter", "is_disabled": 0, "lat": 38.90562933333333, "rental_uris": {"android": "https://dc.lft.to/lastmile_qr_scan", "ios": "https://dc.lft.to/lastmile_qr_scan"}, "bike_id": "bbced7cea1a225fcf96209ea2af20a1e", "lon": -77.00582866666667}, {"is_reserved": 0, "fusion_lon": 0.0, "fusion_lat": 0.0, "name": "c19f4a352e20bf4322de302410c0be09", "type": "electric_bike", "is_disabled": 0, "lat": 39.0527865, "rental_uris": {"android": "https://dc.lft.to/lastmile_qr_scan", "ios": "https://dc.lft.to/lastmile_qr_scan"}, "bike_id": "c19f4a352e20bf4322de302410c0be09", "lon": -77.08074916666666}, {"is_reserved": 0, "fusion_lon": 0.0, "fusion_lat": 0.0, "name": "95e1f53ee98940aa251fb5adf9a54d54", "type": "electric_scooter", "is_disabled": 0, "lat": 38.90254916666667, "rental_uris": {"android": "https://dc.lft.to/lastmile_qr_scan", "ios": "https://dc.lft.to/lastmile_qr_scan"}, "bike_id": "95e1f53ee98940aa251fb5adf9a54d54", "lon": -76.99559616666667}, {"is_reserved": 0, "fusion_lon": 0.0, "fusion_lat": 0.0, "name": "513c646158aec12233938f8d62ff45a3", "type": "electric_scooter", "is_disabled": 0, "lat": 38.98461233333333, "rental_uris": {"android": "https://dc.lft.to/lastmile_qr_scan", "ios": "https://dc.lft.to/lastmile_qr_scan"}, "bike_id": "513c646158aec12233938f8d62ff45a3", "lon": -77.02640333333333}, {"is_reserved": 0, "fusion_lon": 0.0, "fusion_lat": 0.0, "name": "c283048896f15dbbd10cd231a41ed5c3", "type": "electric_scooter", "is_disabled": 0, "lat": 38.915557166666666, "rental_uris": {"android": "https://dc.lft.to/lastmile_qr_scan", "ios": "https://dc.lft.to/lastmile_qr_scan"}, "bike_id": "c283048896f15dbbd10cd231a41ed5c3", "lon": -77.02049616666666}, {"is_reserved": 0, "fusion_lon": 0.0, "fusion_lat": 0.0, "name": "0e9174b5416e959af88b2292d316453b", "type": "electric_scooter", "is_disabled": 0, "lat": 38.932348166666664, "rental_uris": {"android": "https://dc.lft.to/lastmile_qr_scan", "ios": "https://dc.lft.to/lastmile_qr_scan"}, "bike_id": "0e9174b5416e959af88b2292d316453b", "lon": -77.0386255}, {"is_reserved": 0, "fusion_lon": 0.0, "fusion_lat": 0.0, "name": "2219ffb0da2ade3383225a13234c0bd7", "type": "electric_scooter", "is_disabled": 0, "lat": 38.9211235, "rental_uris": {"android": "https://dc.lft.to/lastmile_qr_scan", "ios": "https://dc.lft.to/lastmile_qr_scan"}, "bike_id": "2219ffb0da2ade3383225a13234c0bd7", "lon": -77.041152}, {"is_reserved": 0, "fusion_lon": 0.0, "fusion_lat": 0.0, "name": "eb31be3b46093f1eae7be1753edc1ed8", "type": "electric_scooter", "is_disabled": 0, "lat": 38.8872395, "rental_uris": {"android": "https://dc.lft.to/lastmile_qr_scan", "ios": "https://dc.lft.to/lastmile_qr_scan"}, "bike_id": "eb31be3b46093f1eae7be1753edc1ed8", "lon": -77.028403}, {"is_reserved": 0, "fusion_lon": 0.0, "fusion_lat": 0.0, "name": "2f87a9c5ce6ed22b0b6225402733ee99", "type": "electric_scooter", "is_disabled": 0, "lat": 38.87831766666667, "rental_uris": {"android": "https://dc.lft.to/lastmile_qr_scan", "ios": "https://dc.lft.to/lastmile_qr_scan"}, "bike_id": "2f87a9c5ce6ed22b0b6225402733ee99", "lon": -76.96307733333333}, {"is_reserved": 0, "fusion_lon": 0.0, "fusion_lat": 0.0, "name": "34a8343695f56a2c0129010ba979e107", "type": "electric_scooter", "is_disabled": 0, "lat": 38.866573, "rental_uris": {"android": "https://dc.lft.to/lastmile_qr_scan", "ios": "https://dc.lft.to/lastmile_qr_scan"}, "bike_id": "34a8343695f56a2c0129010ba979e107", "lon": -76.98894333333334}, {"is_reserved": 0, "fusion_lon": 0.0, "fusion_lat": 0.0, "name": "6b77f696e923f5669bc9ea68d0f6bff0", "type": "electric_scooter", "is_disabled": 0, "lat": 38.91414066666667, "rental_uris": {"android": "https://dc.lft.to/lastmile_qr_scan", "ios": "https://dc.lft.to/lastmile_qr_scan"}, "bike_id": "6b77f696e923f5669bc9ea68d0f6bff0", "lon": -77.03819283333333}, {"is_reserved": 0, "fusion_lon": 0.0, "fusion_lat": 0.0, "name": "b57a5b5a470f700afc470550cc4d0eca", "type": "electric_scooter", "is_disabled": 0, "lat": 38.86997383333333, "rental_uris": {"android": "https://dc.lft.to/lastmile_qr_scan", "ios": "https://dc.lft.to/lastmile_qr_scan"}, "bike_id": "b57a5b5a470f700afc470550cc4d0eca", "lon": -76.97587866666667}, {"is_reserved": 0, "fusion_lon": 0.0, "fusion_lat": 0.0, "name": "dd4ca4750de1d7c6d63e2ff0e1f5777a", "type": "electric_scooter", "is_disabled": 0, "lat": 38.920937333333335, "rental_uris": {"android": "https://dc.lft.to/lastmile_qr_scan", "ios": "https://dc.lft.to/lastmile_qr_scan"}, "bike_id": "dd4ca4750de1d7c6d63e2ff0e1f5777a", "lon": -77.00429783333334}, {"is_reserved": 0, "fusion_lon": 0.0, "fusion_lat": 0.0, "name": "4aa8c8fb390f3ef6f5ec6c3db0177476", "type": "electric_scooter", "is_disabled": 0, "lat": 38.9119355, "rental_uris": {"android": "https://dc.lft.to/lastmile_qr_scan", "ios": "https://dc.lft.to/lastmile_qr_scan"}, "bike_id": "4aa8c8fb390f3ef6f5ec6c3db0177476", "lon": -77.0096565}, {"is_reserved": 0, "fusion_lon": 0.0, "fusion_lat": 0.0, "name": "8beaeb2f2704a4750cfc1075ae0f5be6", "type": "electric_scooter", "is_disabled": 0, "lat": 38.88732483333333, "rental_uris": {"android": "https://dc.lft.to/lastmile_qr_scan", "ios": "https://dc.lft.to/lastmile_qr_scan"}, "bike_id": "8beaeb2f2704a4750cfc1075ae0f5be6", "lon": -77.0282735}, {"is_reserved": 0, "fusion_lon": 0.0, "fusion_lat": 0.0, "name": "2aeea99ffdd8a6aecb8ee92a8f80c91a", "type": "electric_scooter", "is_disabled": 0, "lat": 38.909683, "rental_uris": {"android": "https://dc.lft.to/lastmile_qr_scan", "ios": "https://dc.lft.to/lastmile_qr_scan"}, "bike_id": "2aeea99ffdd8a6aecb8ee92a8f80c91a", "lon": -77.0385925}, {"is_reserved": 0, "fusion_lon": 0.0, "fusion_lat": 0.0, "name": "63236e694b9bff7b3add10b4649ecec2", "type": "electric_scooter", "is_disabled": 0, "lat": 38.907564, "rental_uris": {"android": "https://dc.lft.to/lastmile_qr_scan", "ios": "https://dc.lft.to/lastmile_qr_scan"}, "bike_id": "63236e694b9bff7b3add10b4649ecec2", "lon": -77.0009725}, {"is_reserved": 0, "fusion_lon": 0.0, "fusion_lat": 0.0, "name": "28e488a6325abf27c2bac5c12fb18834", "type": "electric_scooter", "is_disabled": 0, "lat": 38.9155045, "rental_uris": {"android": "https://dc.lft.to/lastmile_qr_scan", "ios": "https://dc.lft.to/lastmile_qr_scan"}, "bike_id": "28e488a6325abf27c2bac5c12fb18834", "lon": -77.03852683333334}, {"is_reserved": 0, "fusion_lon": 0.0, "fusion_lat": 0.0, "name": "9b5894651b3fecc7b23248d92a602abe", "type": "electric_scooter", "is_disabled": 0, "lat": 38.888137666666665, "rental_uris": {"android": "https://dc.lft.to/lastmile_qr_scan", "ios": "https://dc.lft.to/lastmile_qr_scan"}, "bike_id": "9b5894651b3fecc7b23248d92a602abe", "lon": -76.9334375}, {"is_reserved": 0, "fusion_lon": 0.0, "fusion_lat": 0.0, "name": "090fe642e129432307107bf4f817e426", "type": "electric_scooter", "is_disabled": 0, "lat": 38.8832915, "rental_uris": {"android": "https://dc.lft.to/lastmile_qr_scan", "ios": "https://dc.lft.to/lastmile_qr_scan"}, "bike_id": "090fe642e129432307107bf4f817e426", "lon": -77.02024683333333}, {"is_reserved": 0, "fusion_lon": 0.0, "fusion_lat": 0.0, "name": "3d42d721b329f394f609152219b455d1", "type": "electric_scooter", "is_disabled": 0, "lat": 38.90561316666667, "rental_uris": {"android": "https://dc.lft.to/lastmile_qr_scan", "ios": "https://dc.lft.to/lastmile_qr_scan"}, "bike_id": "3d42d721b329f394f609152219b455d1", "lon": -77.04471666666667}, {"is_reserved": 0, "fusion_lon": 0.0, "fusion_lat": 0.0, "name": "bac7080afb8a051842e953f17f660daa", "type": "electric_scooter", "is_disabled": 0, "lat": 38.892264, "rental_uris": {"android": "https://dc.lft.to/lastmile_qr_scan", "ios": "https://dc.lft.to/lastmile_qr_scan"}, "bike_id": "bac7080afb8a051842e953f17f660daa", "lon": -77.04509766666666}, {"is_reserved": 0, "fusion_lon": 0.0, "fusion_lat": 0.0, "name": "64dbb3e1db90ab714bd6278bc399bdd9", "type": "electric_scooter", "is_disabled": 0, "lat": 38.922328666666665, "rental_uris": {"android": "https://dc.lft.to/lastmile_qr_scan", "ios": "https://dc.lft.to/lastmile_qr_scan"}, "bike_id": "64dbb3e1db90ab714bd6278bc399bdd9", "lon": -77.02335683333334}, {"is_reserved": 0, "fusion_lon": 0.0, "fusion_lat": 0.0, "name": "d541ab65b1fd927a45569f231c13584e", "type": "electric_scooter", "is_disabled": 0, "lat": 38.86410733333334, "rental_uris": {"android": "https://dc.lft.to/lastmile_qr_scan", "ios": "https://dc.lft.to/lastmile_qr_scan"}, "bike_id": "d541ab65b1fd927a45569f231c13584e", "lon": -76.9743795}, {"is_reserved": 0, "fusion_lon": 0.0, "fusion_lat": 0.0, "name": "385668a157f8e6fdfdf3d03099780c94", "type": "electric_scooter", "is_disabled": 0, "lat": 38.860712166666666, "rental_uris": {"android": "https://dc.lft.to/lastmile_qr_scan", "ios": "https://dc.lft.to/lastmile_qr_scan"}, "bike_id": "385668a157f8e6fdfdf3d03099780c94", "lon": -76.96891}, {"is_reserved": 0, "fusion_lon": 0.0, "fusion_lat": 0.0, "name": "d3dde335ba4b86bd89f72fc8022fba27", "type": "electric_scooter", "is_disabled": 0, "lat": 38.90626283333334, "rental_uris": {"android": "https://dc.lft.to/lastmile_qr_scan", "ios": "https://dc.lft.to/lastmile_qr_scan"}, "bike_id": "d3dde335ba4b86bd89f72fc8022fba27", "lon": -77.04782283333333}, {"is_reserved": 0, "fusion_lon": 0.0, "fusion_lat": 0.0, "name": "679afe4b228221742dbb9183be77ed64", "type": "electric_bike", "is_disabled": 0, "lat": 38.9478585, "rental_uris": {"android": "https://dc.lft.to/lastmile_qr_scan", "ios": "https://dc.lft.to/lastmile_qr_scan"}, "bike_id": "679afe4b228221742dbb9183be77ed64", "lon": -76.97211233333333}, {"is_reserved": 0, "fusion_lon": 0.0, "fusion_lat": 0.0, "name": "9d1e4fa017cbd5a0c45204c70d86ffae", "type": "electric_scooter", "is_disabled": 0, "lat": 38.90677183333333, "rental_uris": {"android": "https://dc.lft.to/lastmile_qr_scan", "ios": "https://dc.lft.to/lastmile_qr_scan"}, "bike_id": "9d1e4fa017cbd5a0c45204c70d86ffae", "lon": -77.038381}, {"is_reserved": 0, "fusion_lon": 0.0, "fusion_lat": 0.0, "name": "91037a3f1112570426ea64e25e0ece4c", "type": "electric_scooter", "is_disabled": 0, "lat": 38.88753766666667, "rental_uris": {"android": "https://dc.lft.to/lastmile_qr_scan", "ios": "https://dc.lft.to/lastmile_qr_scan"}, "bike_id": "91037a3f1112570426ea64e25e0ece4c", "lon": -77.01541333333333}, {"is_reserved": 0, "fusion_lon": 0.0, "fusion_lat": 0.0, "name": "8d94bdb1c040d64908000e0cef7c0b43", "type": "electric_bike", "is_disabled": 0, "lat": 39.02433716666667, "rental_uris": {"android": "https://dc.lft.to/lastmile_qr_scan", "ios": "https://dc.lft.to/lastmile_qr_scan"}, "bike_id": "8d94bdb1c040d64908000e0cef7c0b43", "lon": -77.131014}, {"is_reserved": 0, "fusion_lon": 0.0, "fusion_lat": 0.0, "name": "72674bbdd919e1c625720996ddef38ff", "type": "electric_scooter", "is_disabled": 0, "lat": 38.89876116666667, "rental_uris": {"android": "https://dc.lft.to/lastmile_qr_scan", "ios": "https://dc.lft.to/lastmile_qr_scan"}, "bike_id": "72674bbdd919e1c625720996ddef38ff", "lon": -76.9318635}, {"is_reserved": 0, "fusion_lon": 0.0, "fusion_lat": 0.0, "name": "90c6ab345195c7335f1d1acfc92483c5", "type": "electric_scooter", "is_disabled": 0, "lat": 38.9299585, "rental_uris": {"android": "https://dc.lft.to/lastmile_qr_scan", "ios": "https://dc.lft.to/lastmile_qr_scan"}, "bike_id": "90c6ab345195c7335f1d1acfc92483c5", "lon": -77.04426666666667}, {"is_reserved": 0, "fusion_lon": 0.0, "fusion_lat": 0.0, "name": "982b1357106899ca512f47edc9514fd5", "type": "electric_scooter", "is_disabled": 0, "lat": 38.899972166666664, "rental_uris": {"android": "https://dc.lft.to/lastmile_qr_scan", "ios": "https://dc.lft.to/lastmile_qr_scan"}, "bike_id": "982b1357106899ca512f47edc9514fd5", "lon": -77.04354683333334}, {"is_reserved": 0, "fusion_lon": 0.0, "fusion_lat": 0.0, "name": "53b0d2b97a831303b687afb0f6d8329b", "type": "electric_scooter", "is_disabled": 0, "lat": 38.90210233333333, "rental_uris": {"android": "https://dc.lft.to/lastmile_qr_scan", "ios": "https://dc.lft.to/lastmile_qr_scan"}, "bike_id": "53b0d2b97a831303b687afb0f6d8329b", "lon": -76.97603083333334}, {"is_reserved": 0, "fusion_lon": 0.0, "fusion_lat": 0.0, "name": "cb948d7c3894f4108e78ae06d8f4d063", "type": "electric_scooter", "is_disabled": 0, "lat": 38.8976125, "rental_uris": {"android": "https://dc.lft.to/lastmile_qr_scan", "ios": "https://dc.lft.to/lastmile_qr_scan"}, "bike_id": "cb948d7c3894f4108e78ae06d8f4d063", "lon": -77.04656916666667}, {"is_reserved": 0, "fusion_lon": 0.0, "fusion_lat": 0.0, "name": "5262c457c5220d139a599100fd903f51", "type": "electric_scooter", "is_disabled": 0, "lat": 38.900714, "rental_uris": {"android": "https://dc.lft.to/lastmile_qr_scan", "ios": "https://dc.lft.to/lastmile_qr_scan"}, "bike_id": "5262c457c5220d139a599100fd903f51", "lon": -77.01314816666667}, {"is_reserved": 0, "fusion_lon": 0.0, "fusion_lat": 0.0, "name": "09ac6517778c4a63bdf99698fc29af39", "type": "electric_scooter", "is_disabled": 0, "lat": 38.89846516666667, "rental_uris": {"android": "https://dc.lft.to/lastmile_qr_scan", "ios": "https://dc.lft.to/lastmile_qr_scan"}, "bike_id": "09ac6517778c4a63bdf99698fc29af39", "lon": -76.9817935}, {"is_reserved": 0, "fusion_lon": 0.0, "fusion_lat": 0.0, "name": "23e384ef7194be6c1be28f27d5896e80", "type": "electric_bike", "is_disabled": 0, "lat": 38.94177783333333, "rental_uris": {"android": "https://dc.lft.to/lastmile_qr_scan", "ios": "https://dc.lft.to/lastmile_qr_scan"}, "bike_id": "23e384ef7194be6c1be28f27d5896e80", "lon": -76.9925675}, {"is_reserved": 0, "fusion_lon": 0.0, "fusion_lat": 0.0, "name": "001a9cb42efe09a920c0fc66d60df88c", "type": "electric_scooter", "is_disabled": 0, "lat": 38.866986833333335, "rental_uris": {"android": "https://dc.lft.to/lastmile_qr_scan", "ios": "https://dc.lft.to/lastmile_qr_scan"}, "bike_id": "001a9cb42efe09a920c0fc66d60df88c", "lon": -76.985948}, {"is_reserved": 0, "fusion_lon": 0.0, "fusion_lat": 0.0, "name": "84e94994eb9f7e0e460ee467e757df4e", "type": "electric_scooter", "is_disabled": 0, "lat": 38.92835483333333, "rental_uris": {"android": "https://dc.lft.to/lastmile_qr_scan", "ios": "https://dc.lft.to/lastmile_qr_scan"}, "bike_id": "84e94994eb9f7e0e460ee467e757df4e", "lon": -77.01413766666667}, {"is_reserved": 0, "fusion_lon": 0.0, "fusion_lat": 0.0, "name": "2b3bf14baad4b2dc26da8599f2acda4b", "type": "electric_scooter", "is_disabled": 0, "lat": 38.8830535, "rental_uris": {"android": "https://dc.lft.to/lastmile_qr_scan", "ios": "https://dc.lft.to/lastmile_qr_scan"}, "bike_id": "2b3bf14baad4b2dc26da8599f2acda4b", "lon": -77.03142833333334}, {"is_reserved": 0, "fusion_lon": 0.0, "fusion_lat": 0.0, "name": "02bb0e5beca49c918dbdd4a2dcf26c20", "type": "electric_scooter", "is_disabled": 0, "lat": 38.8862205, "rental_uris": {"android": "https://dc.lft.to/lastmile_qr_scan", "ios": "https://dc.lft.to/lastmile_qr_scan"}, "bike_id": "02bb0e5beca49c918dbdd4a2dcf26c20", "lon": -76.9558185}, {"is_reserved": 0, "fusion_lon": 0.0, "fusion_lat": 0.0, "name": "f4ef513432dbcb1e6583cc2f51752756", "type": "electric_scooter", "is_disabled": 0, "lat": 38.87087966666667, "rental_uris": {"android": "https://dc.lft.to/lastmile_qr_scan", "ios": "https://dc.lft.to/lastmile_qr_scan"}, "bike_id": "f4ef513432dbcb1e6583cc2f51752756", "lon": -76.96791533333334}, {"is_reserved": 0, "fusion_lon": 0.0, "fusion_lat": 0.0, "name": "57a6308a9d614e44348c4a2019c14451", "type": "electric_scooter", "is_disabled": 0, "lat": 38.9056135, "rental_uris": {"android": "https://dc.lft.to/lastmile_qr_scan", "ios": "https://dc.lft.to/lastmile_qr_scan"}, "bike_id": "57a6308a9d614e44348c4a2019c14451", "lon": -77.04213866666667}, {"is_reserved": 0, "fusion_lon": 0.0, "fusion_lat": 0.0, "name": "40c0042d28258cfbfad17b3ed88f2229", "type": "electric_scooter", "is_disabled": 0, "lat": 38.895323166666664, "rental_uris": {"android": "https://dc.lft.to/lastmile_qr_scan", "ios": "https://dc.lft.to/lastmile_qr_scan"}, "bike_id": "40c0042d28258cfbfad17b3ed88f2229", "lon": -77.032634}, {"is_reserved": 0, "fusion_lon": 0.0, "fusion_lat": 0.0, "name": "37e2b4cfc88d4f05f509c7a993a74c64", "type": "electric_scooter", "is_disabled": 0, "lat": 38.88731133333334, "rental_uris": {"android": "https://dc.lft.to/lastmile_qr_scan", "ios": "https://dc.lft.to/lastmile_qr_scan"}, "bike_id": "37e2b4cfc88d4f05f509c7a993a74c64", "lon": -77.0283255}, {"is_reserved": 0, "fusion_lon": 0.0, "fusion_lat": 0.0, "name": "b480cde66b34f6a88b6997e8613a7cbd", "type": "electric_bike", "is_disabled": 0, "lat": 38.853244, "rental_uris": {"android": "https://dc.lft.to/lastmile_qr_scan", "ios": "https://dc.lft.to/lastmile_qr_scan"}, "bike_id": "b480cde66b34f6a88b6997e8613a7cbd", "lon": -76.98018283333333}, {"is_reserved": 0, "fusion_lon": 0.0, "fusion_lat": 0.0, "name": "bf07b9ed72abe7c235f9844d021ce2fa", "type": "electric_bike", "is_disabled": 0, "lat": 38.807567, "rental_uris": {"android": "https://dc.lft.to/lastmile_qr_scan", "ios": "https://dc.lft.to/lastmile_qr_scan"}, "bike_id": "bf07b9ed72abe7c235f9844d021ce2fa", "lon": -77.09453366666666}, {"is_reserved": 0, "fusion_lon": 0.0, "fusion_lat": 0.0, "name": "18a99bef443912c88f9ddd39d316a825", "type": "electric_bike", "is_disabled": 0, "lat": 38.807605333333335, "rental_uris": {"android": "https://dc.lft.to/lastmile_qr_scan", "ios": "https://dc.lft.to/lastmile_qr_scan"}, "bike_id": "18a99bef443912c88f9ddd39d316a825", "lon": -77.0947095}, {"is_reserved": 0, "fusion_lon": 0.0, "fusion_lat": 0.0, "name": "6df76c6efd14826f5bbcc7d35b409cc2", "type": "electric_scooter", "is_disabled": 0, "lat": 38.901386, "rental_uris": {"android": "https://dc.lft.to/lastmile_qr_scan", "ios": "https://dc.lft.to/lastmile_qr_scan"}, "bike_id": "6df76c6efd14826f5bbcc7d35b409cc2", "lon": -76.99102983333333}, {"is_reserved": 0, "fusion_lon": 0.0, "fusion_lat": 0.0, "name": "1b8933344f007e9328c7408bcba7e7db", "type": "electric_scooter", "is_disabled": 0, "lat": 38.91081116666667, "rental_uris": {"android": "https://dc.lft.to/lastmile_qr_scan", "ios": "https://dc.lft.to/lastmile_qr_scan"}, "bike_id": "1b8933344f007e9328c7408bcba7e7db", "lon": -77.065474}, {"is_reserved": 0, "fusion_lon": 0.0, "fusion_lat": 0.0, "name": "b7356dd0f61de37e5ae559428686a435", "type": "electric_scooter", "is_disabled": 0, "lat": 38.8832145, "rental_uris": {"android": "https://dc.lft.to/lastmile_qr_scan", "ios": "https://dc.lft.to/lastmile_qr_scan"}, "bike_id": "b7356dd0f61de37e5ae559428686a435", "lon": -77.01695}, {"is_reserved": 0, "fusion_lon": 0.0, "fusion_lat": 0.0, "name": "a7f326a7c145ea0dab3729677a016366", "type": "electric_scooter", "is_disabled": 0, "lat": 38.900233, "rental_uris": {"android": "https://dc.lft.to/lastmile_qr_scan", "ios": "https://dc.lft.to/lastmile_qr_scan"}, "bike_id": "a7f326a7c145ea0dab3729677a016366", "lon": -77.03351166666667}, {"is_reserved": 0, "fusion_lon": 0.0, "fusion_lat": 0.0, "name": "80bbad610a7a007ff1c23c4b25a41e36", "type": "electric_scooter", "is_disabled": 0, "lat": 38.93483233333333, "rental_uris": {"android": "https://dc.lft.to/lastmile_qr_scan", "ios": "https://dc.lft.to/lastmile_qr_scan"}, "bike_id": "80bbad610a7a007ff1c23c4b25a41e36", "lon": -77.05793783333333}, {"is_reserved": 0, "fusion_lon": 0.0, "fusion_lat": 0.0, "name": "d05c28439d79c4424086eaec86dd0ac2", "type": "electric_scooter", "is_disabled": 0, "lat": 38.90320466666667, "rental_uris": {"android": "https://dc.lft.to/lastmile_qr_scan", "ios": "https://dc.lft.to/lastmile_qr_scan"}, "bike_id": "d05c28439d79c4424086eaec86dd0ac2", "lon": -77.04333733333333}, {"is_reserved": 0, "fusion_lon": 0.0, "fusion_lat": 0.0, "name": "b40deb97293de10b5f0abfc7fe8cc240", "type": "electric_scooter", "is_disabled": 0, "lat": 38.917111, "rental_uris": {"android": "https://dc.lft.to/lastmile_qr_scan", "ios": "https://dc.lft.to/lastmile_qr_scan"}, "bike_id": "b40deb97293de10b5f0abfc7fe8cc240", "lon": -77.0347315}, {"is_reserved": 0, "fusion_lon": 0.0, "fusion_lat": 0.0, "name": "49c957fe662223a33deeaa4e0927e971", "type": "electric_scooter", "is_disabled": 0, "lat": 38.90733316666667, "rental_uris": {"android": "https://dc.lft.to/lastmile_qr_scan", "ios": "https://dc.lft.to/lastmile_qr_scan"}, "bike_id": "49c957fe662223a33deeaa4e0927e971", "lon": -77.03277466666667}, {"is_reserved": 0, "fusion_lon": 0.0, "fusion_lat": 0.0, "name": "9455c91c3356b39f64d372b16f06edea", "type": "electric_scooter", "is_disabled": 0, "lat": 38.905610833333334, "rental_uris": {"android": "https://dc.lft.to/lastmile_qr_scan", "ios": "https://dc.lft.to/lastmile_qr_scan"}, "bike_id": "9455c91c3356b39f64d372b16f06edea", "lon": -77.00581266666667}, {"is_reserved": 0, "fusion_lon": 0.0, "fusion_lat": 0.0, "name": "2562f5daefefa60199ce8d47f72abfd7", "type": "electric_scooter", "is_disabled": 0, "lat": 38.860600166666664, "rental_uris": {"android": "https://dc.lft.to/lastmile_qr_scan", "ios": "https://dc.lft.to/lastmile_qr_scan"}, "bike_id": "2562f5daefefa60199ce8d47f72abfd7", "lon": -76.98426966666666}, {"is_reserved": 0, "fusion_lon": 0.0, "fusion_lat": 0.0, "name": "e2703547e5d9fed553f39156dbe0a505", "type": "electric_scooter", "is_disabled": 0, "lat": 38.900288333333336, "rental_uris": {"android": "https://dc.lft.to/lastmile_qr_scan", "ios": "https://dc.lft.to/lastmile_qr_scan"}, "bike_id": "e2703547e5d9fed553f39156dbe0a505", "lon": -76.98861666666667}, {"is_reserved": 0, "fusion_lon": 0.0, "fusion_lat": 0.0, "name": "b079e5d2107a0e6019bdd8d8f295bd7a", "type": "electric_scooter", "is_disabled": 0, "lat": 38.929031, "rental_uris": {"android": "https://dc.lft.to/lastmile_qr_scan", "ios": "https://dc.lft.to/lastmile_qr_scan"}, "bike_id": "b079e5d2107a0e6019bdd8d8f295bd7a", "lon": -77.03255466666667}, {"is_reserved": 0, "fusion_lon": 0.0, "fusion_lat": 0.0, "name": "26336924b2a857e77d50febac3417848", "type": "electric_scooter", "is_disabled": 0, "lat": 38.89856366666667, "rental_uris": {"android": "https://dc.lft.to/lastmile_qr_scan", "ios": "https://dc.lft.to/lastmile_qr_scan"}, "bike_id": "26336924b2a857e77d50febac3417848", "lon": -76.93203883333334}, {"is_reserved": 0, "fusion_lon": 0.0, "fusion_lat": 0.0, "name": "d3aacbec5115103b75b6e424224cf239", "type": "electric_scooter", "is_disabled": 0, "lat": 38.922427166666665, "rental_uris": {"android": "https://dc.lft.to/lastmile_qr_scan", "ios": "https://dc.lft.to/lastmile_qr_scan"}, "bike_id": "d3aacbec5115103b75b6e424224cf239", "lon": -77.03021133333333}, {"is_reserved": 0, "fusion_lon": 0.0, "fusion_lat": 0.0, "name": "77872cf62a351cc07c69c433bcaf7ba9", "type": "electric_scooter", "is_disabled": 0, "lat": 38.91933316666667, "rental_uris": {"android": "https://dc.lft.to/lastmile_qr_scan", "ios": "https://dc.lft.to/lastmile_qr_scan"}, "bike_id": "77872cf62a351cc07c69c433bcaf7ba9", "lon": -77.02502666666666}, {"is_reserved": 0, "fusion_lon": 0.0, "fusion_lat": 0.0, "name": "09353e44dd5864d338a6c9f89327a37c", "type": "electric_scooter", "is_disabled": 0, "lat": 38.91199183333333, "rental_uris": {"android": "https://dc.lft.to/lastmile_qr_scan", "ios": "https://dc.lft.to/lastmile_qr_scan"}, "bike_id": "09353e44dd5864d338a6c9f89327a37c", "lon": -77.00209983333333}, {"is_reserved": 0, "fusion_lon": 0.0, "fusion_lat": 0.0, "name": "417e873a9e617511c372de0dfe093a6c", "type": "electric_scooter", "is_disabled": 0, "lat": 38.88046116666666, "rental_uris": {"android": "https://dc.lft.to/lastmile_qr_scan", "ios": "https://dc.lft.to/lastmile_qr_scan"}, "bike_id": "417e873a9e617511c372de0dfe093a6c", "lon": -77.01996566666666}, {"is_reserved": 0, "fusion_lon": 0.0, "fusion_lat": 0.0, "name": "0fe4c0a977c09ae9b7f3d74617b1e15a", "type": "electric_scooter", "is_disabled": 0, "lat": 38.92876666666667, "rental_uris": {"android": "https://dc.lft.to/lastmile_qr_scan", "ios": "https://dc.lft.to/lastmile_qr_scan"}, "bike_id": "0fe4c0a977c09ae9b7f3d74617b1e15a", "lon": -77.03405866666667}, {"is_reserved": 0, "fusion_lon": 0.0, "fusion_lat": 0.0, "name": "5f2a4244abaf21bf9940e7a6d446ab5f", "type": "electric_scooter", "is_disabled": 0, "lat": 38.918258333333334, "rental_uris": {"android": "https://dc.lft.to/lastmile_qr_scan", "ios": "https://dc.lft.to/lastmile_qr_scan"}, "bike_id": "5f2a4244abaf21bf9940e7a6d446ab5f", "lon": -77.02418933333334}, {"is_reserved": 0, "fusion_lon": 0.0, "fusion_lat": 0.0, "name": "591728dd21e214dc2d3dc20e8e18f975", "type": "electric_bike", "is_disabled": 0, "lat": 38.877301833333334, "rental_uris": {"android": "https://dc.lft.to/lastmile_qr_scan", "ios": "https://dc.lft.to/lastmile_qr_scan"}, "bike_id": "591728dd21e214dc2d3dc20e8e18f975", "lon": -76.981066}, {"is_reserved": 0, "fusion_lon": 0.0, "fusion_lat": 0.0, "name": "5d5745a61a27c23c59ca8c24ac87137d", "type": "electric_scooter", "is_disabled": 0, "lat": 38.93571, "rental_uris": {"android": "https://dc.lft.to/lastmile_qr_scan", "ios": "https://dc.lft.to/lastmile_qr_scan"}, "bike_id": "5d5745a61a27c23c59ca8c24ac87137d", "lon": -77.02118966666667}, {"is_reserved": 0, "fusion_lon": 0.0, "fusion_lat": 0.0, "name": "f181c83c7be14e8180d04f0725d2e0d7", "type": "electric_scooter", "is_disabled": 0, "lat": 38.928669, "rental_uris": {"android": "https://dc.lft.to/lastmile_qr_scan", "ios": "https://dc.lft.to/lastmile_qr_scan"}, "bike_id": "f181c83c7be14e8180d04f0725d2e0d7", "lon": -77.03278333333333}, {"is_reserved": 0, "fusion_lon": 0.0, "fusion_lat": 0.0, "name": "bccc3a08a01594562e71a4087294a35b", "type": "electric_scooter", "is_disabled": 0, "lat": 38.88716433333333, "rental_uris": {"android": "https://dc.lft.to/lastmile_qr_scan", "ios": "https://dc.lft.to/lastmile_qr_scan"}, "bike_id": "bccc3a08a01594562e71a4087294a35b", "lon": -77.0220565}, {"is_reserved": 0, "fusion_lon": 0.0, "fusion_lat": 0.0, "name": "683f3aef9ca59bea22a86ca8b9ad877d", "type": "electric_bike", "is_disabled": 0, "lat": 38.852085, "rental_uris": {"android": "https://dc.lft.to/lastmile_qr_scan", "ios": "https://dc.lft.to/lastmile_qr_scan"}, "bike_id": "683f3aef9ca59bea22a86ca8b9ad877d", "lon": -77.10132433333334}, {"is_reserved": 0, "fusion_lon": 0.0, "fusion_lat": 0.0, "name": "94f6f0cf48a6a485efb09cc3c26ffc0c", "type": "electric_bike", "is_disabled": 0, "lat": 38.94673266666667, "rental_uris": {"android": "https://dc.lft.to/lastmile_qr_scan", "ios": "https://dc.lft.to/lastmile_qr_scan"}, "bike_id": "94f6f0cf48a6a485efb09cc3c26ffc0c", "lon": -76.98303083333333}, {"is_reserved": 0, "fusion_lon": 0.0, "fusion_lat": 0.0, "name": "f4d6c11234ba5af00b25f98a449022d3", "type": "electric_scooter", "is_disabled": 0, "lat": 38.9184355, "rental_uris": {"android": "https://dc.lft.to/lastmile_qr_scan", "ios": "https://dc.lft.to/lastmile_qr_scan"}, "bike_id": "f4d6c11234ba5af00b25f98a449022d3", "lon": -77.016448}, {"is_reserved": 0, "fusion_lon": 0.0, "fusion_lat": 0.0, "name": "5d3de8a0b4f6731ee4ba2cfbd535040f", "type": "electric_scooter", "is_disabled": 0, "lat": 38.932511833333336, "rental_uris": {"android": "https://dc.lft.to/lastmile_qr_scan", "ios": "https://dc.lft.to/lastmile_qr_scan"}, "bike_id": "5d3de8a0b4f6731ee4ba2cfbd535040f", "lon": -77.0341345}, {"is_reserved": 0, "fusion_lon": 0.0, "fusion_lat": 0.0, "name": "1a5c04d46e7bc2ef5aa27afa607d8720", "type": "electric_scooter", "is_disabled": 0, "lat": 38.90241283333334, "rental_uris": {"android": "https://dc.lft.to/lastmile_qr_scan", "ios": "https://dc.lft.to/lastmile_qr_scan"}, "bike_id": "1a5c04d46e7bc2ef5aa27afa607d8720", "lon": -77.017541}, {"is_reserved": 0, "fusion_lon": 0.0, "fusion_lat": 0.0, "name": "d626fbeddb785ba3b2ff0d544379350f", "type": "electric_scooter", "is_disabled": 0, "lat": 38.89794783333333, "rental_uris": {"android": "https://dc.lft.to/lastmile_qr_scan", "ios": "https://dc.lft.to/lastmile_qr_scan"}, "bike_id": "d626fbeddb785ba3b2ff0d544379350f", "lon": -77.0449185}, {"is_reserved": 0, "fusion_lon": 0.0, "fusion_lat": 0.0, "name": "b41a08d983a3b26d27230305dabfb08f", "type": "electric_scooter", "is_disabled": 0, "lat": 38.91793166666667, "rental_uris": {"android": "https://dc.lft.to/lastmile_qr_scan", "ios": "https://dc.lft.to/lastmile_qr_scan"}, "bike_id": "b41a08d983a3b26d27230305dabfb08f", "lon": -77.04277783333333}, {"is_reserved": 0, "fusion_lon": 0.0, "fusion_lat": 0.0, "name": "3d25409d61f89433775365ef705e4caa", "type": "electric_scooter", "is_disabled": 0, "lat": 38.95628966666666, "rental_uris": {"android": "https://dc.lft.to/lastmile_qr_scan", "ios": "https://dc.lft.to/lastmile_qr_scan"}, "bike_id": "3d25409d61f89433775365ef705e4caa", "lon": -77.02459766666666}, {"is_reserved": 0, "fusion_lon": 0.0, "fusion_lat": 0.0, "name": "28c35a4c50d04b7698bbe91505128b6b", "type": "electric_bike", "is_disabled": 0, "lat": 38.946047166666666, "rental_uris": {"android": "https://dc.lft.to/lastmile_qr_scan", "ios": "https://dc.lft.to/lastmile_qr_scan"}, "bike_id": "28c35a4c50d04b7698bbe91505128b6b", "lon": -77.01740583333333}, {"is_reserved": 0, "fusion_lon": 0.0, "fusion_lat": 0.0, "name": "d4670504a4f4f945a9687b496c4caaf9", "type": "electric_scooter", "is_disabled": 0, "lat": 38.917139166666665, "rental_uris": {"android": "https://dc.lft.to/lastmile_qr_scan", "ios": "https://dc.lft.to/lastmile_qr_scan"}, "bike_id": "d4670504a4f4f945a9687b496c4caaf9", "lon": -77.0386035}, {"is_reserved": 0, "fusion_lon": 0.0, "fusion_lat": 0.0, "name": "fe29c5b41e72509d68906344f08656e0", "type": "electric_scooter", "is_disabled": 0, "lat": 38.900270166666665, "rental_uris": {"android": "https://dc.lft.to/lastmile_qr_scan", "ios": "https://dc.lft.to/lastmile_qr_scan"}, "bike_id": "fe29c5b41e72509d68906344f08656e0", "lon": -76.988596}, {"is_reserved": 0, "fusion_lon": 0.0, "fusion_lat": 0.0, "name": "54ef53abb8f61acc3a607da503e993b8", "type": "electric_scooter", "is_disabled": 0, "lat": 38.9275175, "rental_uris": {"android": "https://dc.lft.to/lastmile_qr_scan", "ios": "https://dc.lft.to/lastmile_qr_scan"}, "bike_id": "54ef53abb8f61acc3a607da503e993b8", "lon": -77.029612}, {"is_reserved": 0, "fusion_lon": 0.0, "fusion_lat": 0.0, "name": "1792513cab92b18bed361f5243dea87c", "type": "electric_scooter", "is_disabled": 0, "lat": 38.919623333333334, "rental_uris": {"android": "https://dc.lft.to/lastmile_qr_scan", "ios": "https://dc.lft.to/lastmile_qr_scan"}, "bike_id": "1792513cab92b18bed361f5243dea87c", "lon": -77.03184183333333}, {"is_reserved": 0, "fusion_lon": 0.0, "fusion_lat": 0.0, "name": "ff0e0115da8419da0218b8fe9a15680b", "type": "electric_scooter", "is_disabled": 0, "lat": 38.87638333333334, "rental_uris": {"android": "https://dc.lft.to/lastmile_qr_scan", "ios": "https://dc.lft.to/lastmile_qr_scan"}, "bike_id": "ff0e0115da8419da0218b8fe9a15680b", "lon": -77.0157315}, {"is_reserved": 0, "fusion_lon": 0.0, "fusion_lat": 0.0, "name": "1d918bddd59d2a6af4795df29c66ee70", "type": "electric_scooter", "is_disabled": 0, "lat": 38.904342166666666, "rental_uris": {"android": "https://dc.lft.to/lastmile_qr_scan", "ios": "https://dc.lft.to/lastmile_qr_scan"}, "bike_id": "1d918bddd59d2a6af4795df29c66ee70", "lon": -77.03173666666666}, {"is_reserved": 0, "fusion_lon": 0.0, "fusion_lat": 0.0, "name": "1dd1811fe0e260c3319faeca9bf45761", "type": "electric_scooter", "is_disabled": 0, "lat": 38.908081, "rental_uris": {"android": "https://dc.lft.to/lastmile_qr_scan", "ios": "https://dc.lft.to/lastmile_qr_scan"}, "bike_id": "1dd1811fe0e260c3319faeca9bf45761", "lon": -77.04335283333333}, {"is_reserved": 0, "fusion_lon": 0.0, "fusion_lat": 0.0, "name": "dc6ffc5cb10b21505d718c0031421615", "type": "electric_scooter", "is_disabled": 0, "lat": 38.9146115, "rental_uris": {"android": "https://dc.lft.to/lastmile_qr_scan", "ios": "https://dc.lft.to/lastmile_qr_scan"}, "bike_id": "dc6ffc5cb10b21505d718c0031421615", "lon": -77.022862}, {"is_reserved": 0, "fusion_lon": 0.0, "fusion_lat": 0.0, "name": "00f9c78c93e6af3d7ef9c927dc12fd9e", "type": "electric_scooter", "is_disabled": 0, "lat": 38.886101, "rental_uris": {"android": "https://dc.lft.to/lastmile_qr_scan", "ios": "https://dc.lft.to/lastmile_qr_scan"}, "bike_id": "00f9c78c93e6af3d7ef9c927dc12fd9e", "lon": -76.99514883333333}, {"is_reserved": 0, "fusion_lon": 0.0, "fusion_lat": 0.0, "name": "6b0ffbb9ee00e7e7d268de4439aaaf70", "type": "electric_scooter", "is_disabled": 0, "lat": 38.905071, "rental_uris": {"android": "https://dc.lft.to/lastmile_qr_scan", "ios": "https://dc.lft.to/lastmile_qr_scan"}, "bike_id": "6b0ffbb9ee00e7e7d268de4439aaaf70", "lon": -77.05089566666666}, {"is_reserved": 0, "fusion_lon": 0.0, "fusion_lat": 0.0, "name": "914fa8b4b929bd718d28ee85bc687f32", "type": "electric_bike", "is_disabled": 0, "lat": 38.93871333333333, "rental_uris": {"android": "https://dc.lft.to/lastmile_qr_scan", "ios": "https://dc.lft.to/lastmile_qr_scan"}, "bike_id": "914fa8b4b929bd718d28ee85bc687f32", "lon": -76.94290583333333}, {"is_reserved": 0, "fusion_lon": 0.0, "fusion_lat": 0.0, "name": "a97ee12f62537295fc49221c99833a68", "type": "electric_bike", "is_disabled": 0, "lat": 38.96221283333333, "rental_uris": {"android": "https://dc.lft.to/lastmile_qr_scan", "ios": "https://dc.lft.to/lastmile_qr_scan"}, "bike_id": "a97ee12f62537295fc49221c99833a68", "lon": -77.02633233333333}, {"is_reserved": 0, "fusion_lon": 0.0, "fusion_lat": 0.0, "name": "6c1b34a27be2597745bcc2405968a02b", "type": "electric_scooter", "is_disabled": 0, "lat": 38.92340933333333, "rental_uris": {"android": "https://dc.lft.to/lastmile_qr_scan", "ios": "https://dc.lft.to/lastmile_qr_scan"}, "bike_id": "6c1b34a27be2597745bcc2405968a02b", "lon": -77.03499516666666}, {"is_reserved": 0, "fusion_lon": 0.0, "fusion_lat": 0.0, "name": "768447fd63c91eae82950577c3020168", "type": "electric_scooter", "is_disabled": 0, "lat": 38.91111716666666, "rental_uris": {"android": "https://dc.lft.to/lastmile_qr_scan", "ios": "https://dc.lft.to/lastmile_qr_scan"}, "bike_id": "768447fd63c91eae82950577c3020168", "lon": -77.04470383333333}, {"is_reserved": 0, "fusion_lon": 0.0, "fusion_lat": 0.0, "name": "ee0db981db5ca9e8f581d3d8d9a646e7", "type": "electric_scooter", "is_disabled": 0, "lat": 38.88460283333333, "rental_uris": {"android": "https://dc.lft.to/lastmile_qr_scan", "ios": "https://dc.lft.to/lastmile_qr_scan"}, "bike_id": "ee0db981db5ca9e8f581d3d8d9a646e7", "lon": -76.92623066666667}, {"is_reserved": 0, "fusion_lon": 0.0, "fusion_lat": 0.0, "name": "c46b290193c1380101e7ffc7dcfc5fed", "type": "electric_scooter", "is_disabled": 0, "lat": 38.9303785, "rental_uris": {"android": "https://dc.lft.to/lastmile_qr_scan", "ios": "https://dc.lft.to/lastmile_qr_scan"}, "bike_id": "c46b290193c1380101e7ffc7dcfc5fed", "lon": -77.03307683333334}, {"is_reserved": 0, "fusion_lon": 0.0, "fusion_lat": 0.0, "name": "acd606e82726624ad426ca284e81566c", "type": "electric_bike", "is_disabled": 0, "lat": 38.81205466666667, "rental_uris": {"android": "https://dc.lft.to/lastmile_qr_scan", "ios": "https://dc.lft.to/lastmile_qr_scan"}, "bike_id": "acd606e82726624ad426ca284e81566c", "lon": -77.10833}, {"is_reserved": 0, "fusion_lon": 0.0, "fusion_lat": 0.0, "name": "5626e450c67ee2455d270f10ff740ad2", "type": "electric_scooter", "is_disabled": 0, "lat": 38.8851665, "rental_uris": {"android": "https://dc.lft.to/lastmile_qr_scan", "ios": "https://dc.lft.to/lastmile_qr_scan"}, "bike_id": "5626e450c67ee2455d270f10ff740ad2", "lon": -76.99628283333334}, {"is_reserved": 0, "fusion_lon": 0.0, "fusion_lat": 0.0, "name": "dd13b4d11145a3e2a11a05ecb6c0af9f", "type": "electric_bike", "is_disabled": 0, "lat": 38.96279066666666, "rental_uris": {"android": "https://dc.lft.to/lastmile_qr_scan", "ios": "https://dc.lft.to/lastmile_qr_scan"}, "bike_id": "dd13b4d11145a3e2a11a05ecb6c0af9f", "lon": -77.01458616666666}, {"is_reserved": 0, "fusion_lon": 0.0, "fusion_lat": 0.0, "name": "a1a076ad123764470686e00d10ec41f2", "type": "electric_bike", "is_disabled": 0, "lat": 38.930916833333335, "rental_uris": {"android": "https://dc.lft.to/lastmile_qr_scan", "ios": "https://dc.lft.to/lastmile_qr_scan"}, "bike_id": "a1a076ad123764470686e00d10ec41f2", "lon": -77.02595066666666}, {"is_reserved": 0, "fusion_lon": 0.0, "fusion_lat": 0.0, "name": "f9a1d669ddfbbf7b66864bdad4ce2eea", "type": "electric_scooter", "is_disabled": 0, "lat": 38.93442666666667, "rental_uris": {"android": "https://dc.lft.to/lastmile_qr_scan", "ios": "https://dc.lft.to/lastmile_qr_scan"}, "bike_id": "f9a1d669ddfbbf7b66864bdad4ce2eea", "lon": -76.998806}, {"is_reserved": 0, "fusion_lon": 0.0, "fusion_lat": 0.0, "name": "5b671acfe39a515f50c65752882cc449", "type": "electric_scooter", "is_disabled": 0, "lat": 38.92684783333333, "rental_uris": {"android": "https://dc.lft.to/lastmile_qr_scan", "ios": "https://dc.lft.to/lastmile_qr_scan"}, "bike_id": "5b671acfe39a515f50c65752882cc449", "lon": -77.02783733333334}, {"is_reserved": 0, "fusion_lon": 0.0, "fusion_lat": 0.0, "name": "aa7775ab3aacf0c68f49cb7389c54d4d", "type": "electric_scooter", "is_disabled": 0, "lat": 38.921658666666666, "rental_uris": {"android": "https://dc.lft.to/lastmile_qr_scan", "ios": "https://dc.lft.to/lastmile_qr_scan"}, "bike_id": "aa7775ab3aacf0c68f49cb7389c54d4d", "lon": -77.040102}, {"is_reserved": 0, "fusion_lon": 0.0, "fusion_lat": 0.0, "name": "0af62596306fa2361e80f353125075a2", "type": "electric_scooter", "is_disabled": 0, "lat": 38.900688833333334, "rental_uris": {"android": "https://dc.lft.to/lastmile_qr_scan", "ios": "https://dc.lft.to/lastmile_qr_scan"}, "bike_id": "0af62596306fa2361e80f353125075a2", "lon": -76.94691366666666}, {"is_reserved": 0, "fusion_lon": 0.0, "fusion_lat": 0.0, "name": "3892f6552601cd1c811b387621f524c9", "type": "electric_scooter", "is_disabled": 0, "lat": 38.89221216666667, "rental_uris": {"android": "https://dc.lft.to/lastmile_qr_scan", "ios": "https://dc.lft.to/lastmile_qr_scan"}, "bike_id": "3892f6552601cd1c811b387621f524c9", "lon": -77.02629966666667}, {"is_reserved": 0, "fusion_lon": 0.0, "fusion_lat": 0.0, "name": "d45fa9e9e66a0e3c8fa0dbd0d7176f47", "type": "electric_scooter", "is_disabled": 0, "lat": 38.95085866666667, "rental_uris": {"android": "https://dc.lft.to/lastmile_qr_scan", "ios": "https://dc.lft.to/lastmile_qr_scan"}, "bike_id": "d45fa9e9e66a0e3c8fa0dbd0d7176f47", "lon": -77.02322216666667}, {"is_reserved": 0, "fusion_lon": 0.0, "fusion_lat": 0.0, "name": "80f35702743a08b6968e823dd022d037", "type": "electric_scooter", "is_disabled": 0, "lat": 38.91812916666667, "rental_uris": {"android": "https://dc.lft.to/lastmile_qr_scan", "ios": "https://dc.lft.to/lastmile_qr_scan"}, "bike_id": "80f35702743a08b6968e823dd022d037", "lon": -77.0345}, {"is_reserved": 0, "fusion_lon": 0.0, "fusion_lat": 0.0, "name": "6fa9a6e9bcdd54f08490eebf8ec54b1f", "type": "electric_bike", "is_disabled": 0, "lat": 38.91412116666667, "rental_uris": {"android": "https://dc.lft.to/lastmile_qr_scan", "ios": "https://dc.lft.to/lastmile_qr_scan"}, "bike_id": "6fa9a6e9bcdd54f08490eebf8ec54b1f", "lon": -77.03810466666667}, {"is_reserved": 0, "fusion_lon": 0.0, "fusion_lat": 0.0, "name": "645d972e17b60fcc147d1812346f5d00", "type": "electric_scooter", "is_disabled": 0, "lat": 38.90624233333333, "rental_uris": {"android": "https://dc.lft.to/lastmile_qr_scan", "ios": "https://dc.lft.to/lastmile_qr_scan"}, "bike_id": "645d972e17b60fcc147d1812346f5d00", "lon": -77.041222}, {"is_reserved": 0, "fusion_lon": 0.0, "fusion_lat": 0.0, "name": "0386cc4fd844c087ae2cda80cd259637", "type": "electric_scooter", "is_disabled": 0, "lat": 38.90015183333333, "rental_uris": {"android": "https://dc.lft.to/lastmile_qr_scan", "ios": "https://dc.lft.to/lastmile_qr_scan"}, "bike_id": "0386cc4fd844c087ae2cda80cd259637", "lon": -76.93029183333333}, {"is_reserved": 0, "fusion_lon": 0.0, "fusion_lat": 0.0, "name": "34c45ec361341789f19911adff72b811", "type": "electric_scooter", "is_disabled": 0, "lat": 38.932533666666664, "rental_uris": {"android": "https://dc.lft.to/lastmile_qr_scan", "ios": "https://dc.lft.to/lastmile_qr_scan"}, "bike_id": "34c45ec361341789f19911adff72b811", "lon": -77.0327255}, {"is_reserved": 0, "fusion_lon": 0.0, "fusion_lat": 0.0, "name": "599ddccf23181336bf12cf80e9a058f7", "type": "electric_scooter", "is_disabled": 0, "lat": 38.8923445, "rental_uris": {"android": "https://dc.lft.to/lastmile_qr_scan", "ios": "https://dc.lft.to/lastmile_qr_scan"}, "bike_id": "599ddccf23181336bf12cf80e9a058f7", "lon": -77.0238265}, {"is_reserved": 0, "fusion_lon": 0.0, "fusion_lat": 0.0, "name": "b17d52aad13f7501b7bde4ce72aa1c58", "type": "electric_scooter", "is_disabled": 0, "lat": 38.9254375, "rental_uris": {"android": "https://dc.lft.to/lastmile_qr_scan", "ios": "https://dc.lft.to/lastmile_qr_scan"}, "bike_id": "b17d52aad13f7501b7bde4ce72aa1c58", "lon": -76.97224166666666}, {"is_reserved": 0, "fusion_lon": 0.0, "fusion_lat": 0.0, "name": "97dadd452ac2eadef30d0986c6c12fb3", "type": "electric_scooter", "is_disabled": 0, "lat": 38.8670095, "rental_uris": {"android": "https://dc.lft.to/lastmile_qr_scan", "ios": "https://dc.lft.to/lastmile_qr_scan"}, "bike_id": "97dadd452ac2eadef30d0986c6c12fb3", "lon": -76.98596083333334}, {"is_reserved": 0, "fusion_lon": 0.0, "fusion_lat": 0.0, "name": "65ba892fd50200dee0fc2b6db5ddbfd0", "type": "electric_scooter", "is_disabled": 0, "lat": 38.928488333333334, "rental_uris": {"android": "https://dc.lft.to/lastmile_qr_scan", "ios": "https://dc.lft.to/lastmile_qr_scan"}, "bike_id": "65ba892fd50200dee0fc2b6db5ddbfd0", "lon": -77.03730533333334}, {"is_reserved": 0, "fusion_lon": 0.0, "fusion_lat": 0.0, "name": "b0bac64d593ac4b1acf28b156244279f", "type": "electric_scooter", "is_disabled": 0, "lat": 38.909773333333334, "rental_uris": {"android": "https://dc.lft.to/lastmile_qr_scan", "ios": "https://dc.lft.to/lastmile_qr_scan"}, "bike_id": "b0bac64d593ac4b1acf28b156244279f", "lon": -77.03183416666667}, {"is_reserved": 0, "fusion_lon": 0.0, "fusion_lat": 0.0, "name": "5bdcaec00fcdb1b5a7d27d400da8f255", "type": "electric_scooter", "is_disabled": 0, "lat": 38.90281133333333, "rental_uris": {"android": "https://dc.lft.to/lastmile_qr_scan", "ios": "https://dc.lft.to/lastmile_qr_scan"}, "bike_id": "5bdcaec00fcdb1b5a7d27d400da8f255", "lon": -77.034225}, {"is_reserved": 0, "fusion_lon": 0.0, "fusion_lat": 0.0, "name": "34ed2ef8de9f7328757c751b9c6b3157", "type": "electric_scooter", "is_disabled": 0, "lat": 38.908177333333335, "rental_uris": {"android": "https://dc.lft.to/lastmile_qr_scan", "ios": "https://dc.lft.to/lastmile_qr_scan"}, "bike_id": "34ed2ef8de9f7328757c751b9c6b3157", "lon": -77.04330133333333}, {"is_reserved": 0, "fusion_lon": 0.0, "fusion_lat": 0.0, "name": "9c7797e105fbba81e23a74fd994c7c86", "type": "electric_scooter", "is_disabled": 0, "lat": 38.9058325, "rental_uris": {"android": "https://dc.lft.to/lastmile_qr_scan", "ios": "https://dc.lft.to/lastmile_qr_scan"}, "bike_id": "9c7797e105fbba81e23a74fd994c7c86", "lon": -77.03452633333333}, {"is_reserved": 0, "fusion_lon": 0.0, "fusion_lat": 0.0, "name": "423126c6bd7b20a621bc971de7adeedb", "type": "electric_scooter", "is_disabled": 0, "lat": 38.93464633333333, "rental_uris": {"android": "https://dc.lft.to/lastmile_qr_scan", "ios": "https://dc.lft.to/lastmile_qr_scan"}, "bike_id": "423126c6bd7b20a621bc971de7adeedb", "lon": -77.03046766666667}, {"is_reserved": 0, "fusion_lon": 0.0, "fusion_lat": 0.0, "name": "89cc0050e5b74af361d0c2a0bf39c1ef", "type": "electric_scooter", "is_disabled": 0, "lat": 38.912692166666666, "rental_uris": {"android": "https://dc.lft.to/lastmile_qr_scan", "ios": "https://dc.lft.to/lastmile_qr_scan"}, "bike_id": "89cc0050e5b74af361d0c2a0bf39c1ef", "lon": -77.03128916666667}, {"is_reserved": 0, "fusion_lon": 0.0, "fusion_lat": 0.0, "name": "d0d2a97618ad0790e0dcffae45210422", "type": "electric_scooter", "is_disabled": 0, "lat": 38.8961715, "rental_uris": {"android": "https://dc.lft.to/lastmile_qr_scan", "ios": "https://dc.lft.to/lastmile_qr_scan"}, "bike_id": "d0d2a97618ad0790e0dcffae45210422", "lon": -76.99294966666666}, {"is_reserved": 0, "fusion_lon": 0.0, "fusion_lat": 0.0, "name": "96a3ed604c82461647fe9685305251ce", "type": "electric_scooter", "is_disabled": 0, "lat": 38.9505965, "rental_uris": {"android": "https://dc.lft.to/lastmile_qr_scan", "ios": "https://dc.lft.to/lastmile_qr_scan"}, "bike_id": "96a3ed604c82461647fe9685305251ce", "lon": -77.00724116666666}, {"is_reserved": 0, "fusion_lon": 0.0, "fusion_lat": 0.0, "name": "b068075dd818cfd82c492990ffef95d4", "type": "electric_scooter", "is_disabled": 0, "lat": 38.91800933333333, "rental_uris": {"android": "https://dc.lft.to/lastmile_qr_scan", "ios": "https://dc.lft.to/lastmile_qr_scan"}, "bike_id": "b068075dd818cfd82c492990ffef95d4", "lon": -77.03207283333333}, {"is_reserved": 0, "fusion_lon": 0.0, "fusion_lat": 0.0, "name": "24a74f869e569172548ffa7046aa6cbd", "type": "electric_scooter", "is_disabled": 0, "lat": 38.89219416666667, "rental_uris": {"android": "https://dc.lft.to/lastmile_qr_scan", "ios": "https://dc.lft.to/lastmile_qr_scan"}, "bike_id": "24a74f869e569172548ffa7046aa6cbd", "lon": -77.03163366666666}, {"is_reserved": 0, "fusion_lon": 0.0, "fusion_lat": 0.0, "name": "78b388ba268f09932e6003df1e1cc96e", "type": "electric_scooter", "is_disabled": 0, "lat": 38.91338533333333, "rental_uris": {"android": "https://dc.lft.to/lastmile_qr_scan", "ios": "https://dc.lft.to/lastmile_qr_scan"}, "bike_id": "78b388ba268f09932e6003df1e1cc96e", "lon": -77.048182}, {"is_reserved": 0, "fusion_lon": 0.0, "fusion_lat": 0.0, "name": "5c51c10892d1d5d12a2a1513d17973dc", "type": "electric_scooter", "is_disabled": 0, "lat": 38.9223055, "rental_uris": {"android": "https://dc.lft.to/lastmile_qr_scan", "ios": "https://dc.lft.to/lastmile_qr_scan"}, "bike_id": "5c51c10892d1d5d12a2a1513d17973dc", "lon": -76.9753275}, {"is_reserved": 0, "fusion_lon": 0.0, "fusion_lat": 0.0, "name": "5008cfc1b3d8ef05a922ebdbd6a14382", "type": "electric_scooter", "is_disabled": 0, "lat": 38.9088455, "rental_uris": {"android": "https://dc.lft.to/lastmile_qr_scan", "ios": "https://dc.lft.to/lastmile_qr_scan"}, "bike_id": "5008cfc1b3d8ef05a922ebdbd6a14382", "lon": -77.07301266666667}, {"is_reserved": 0, "fusion_lon": 0.0, "fusion_lat": 0.0, "name": "a6b23463a08d1a66fbb2306b2f7b9f35", "type": "electric_scooter", "is_disabled": 0, "lat": 38.88991716666666, "rental_uris": {"android": "https://dc.lft.to/lastmile_qr_scan", "ios": "https://dc.lft.to/lastmile_qr_scan"}, "bike_id": "a6b23463a08d1a66fbb2306b2f7b9f35", "lon": -76.931101}, {"is_reserved": 0, "fusion_lon": 0.0, "fusion_lat": 0.0, "name": "c1f1cf90ee33e74debe85a5a752536fa", "type": "electric_scooter", "is_disabled": 0, "lat": 38.89222633333333, "rental_uris": {"android": "https://dc.lft.to/lastmile_qr_scan", "ios": "https://dc.lft.to/lastmile_qr_scan"}, "bike_id": "c1f1cf90ee33e74debe85a5a752536fa", "lon": -77.04378383333334}, {"is_reserved": 0, "fusion_lon": 0.0, "fusion_lat": 0.0, "name": "27145c7befebca1fefe3f0b5e42b9861", "type": "electric_scooter", "is_disabled": 0, "lat": 38.94528233333333, "rental_uris": {"android": "https://dc.lft.to/lastmile_qr_scan", "ios": "https://dc.lft.to/lastmile_qr_scan"}, "bike_id": "27145c7befebca1fefe3f0b5e42b9861", "lon": -77.020896}, {"is_reserved": 0, "fusion_lon": 0.0, "fusion_lat": 0.0, "name": "d0388dcf36cd78edd71e8949795508bc", "type": "electric_scooter", "is_disabled": 0, "lat": 38.90606566666666, "rental_uris": {"android": "https://dc.lft.to/lastmile_qr_scan", "ios": "https://dc.lft.to/lastmile_qr_scan"}, "bike_id": "d0388dcf36cd78edd71e8949795508bc", "lon": -76.98517466666667}, {"is_reserved": 0, "fusion_lon": 0.0, "fusion_lat": 0.0, "name": "cd09df30982efdfa478a926da25ebb56", "type": "electric_bike", "is_disabled": 0, "lat": 38.92218883333334, "rental_uris": {"android": "https://dc.lft.to/lastmile_qr_scan", "ios": "https://dc.lft.to/lastmile_qr_scan"}, "bike_id": "cd09df30982efdfa478a926da25ebb56", "lon": -77.08195383333333}, {"is_reserved": 0, "fusion_lon": 0.0, "fusion_lat": 0.0, "name": "9e0d16ca722ae724325a66920d767533", "type": "electric_scooter", "is_disabled": 0, "lat": 38.923959833333335, "rental_uris": {"android": "https://dc.lft.to/lastmile_qr_scan", "ios": "https://dc.lft.to/lastmile_qr_scan"}, "bike_id": "9e0d16ca722ae724325a66920d767533", "lon": -77.03548133333334}, {"is_reserved": 0, "fusion_lon": 0.0, "fusion_lat": 0.0, "name": "32bc491f7719eb722c51fbc47f189615", "type": "electric_bike", "is_disabled": 0, "lat": 38.8378275, "rental_uris": {"android": "https://dc.lft.to/lastmile_qr_scan", "ios": "https://dc.lft.to/lastmile_qr_scan"}, "bike_id": "32bc491f7719eb722c51fbc47f189615", "lon": -76.99758716666666}, {"is_reserved": 0, "fusion_lon": 0.0, "fusion_lat": 0.0, "name": "dbc9c5d67524864a0a6d8a1c74ad4432", "type": "electric_scooter", "is_disabled": 0, "lat": 38.911572166666666, "rental_uris": {"android": "https://dc.lft.to/lastmile_qr_scan", "ios": "https://dc.lft.to/lastmile_qr_scan"}, "bike_id": "dbc9c5d67524864a0a6d8a1c74ad4432", "lon": -77.02191683333334}, {"is_reserved": 0, "fusion_lon": 0.0, "fusion_lat": 0.0, "name": "a6ae357763a4befc6201508492d3d7e0", "type": "electric_scooter", "is_disabled": 0, "lat": 38.900438333333334, "rental_uris": {"android": "https://dc.lft.to/lastmile_qr_scan", "ios": "https://dc.lft.to/lastmile_qr_scan"}, "bike_id": "a6ae357763a4befc6201508492d3d7e0", "lon": -77.04329116666666}, {"is_reserved": 0, "fusion_lon": 0.0, "fusion_lat": 0.0, "name": "9db614732dc7111ebe01162cb070631a", "type": "electric_scooter", "is_disabled": 0, "lat": 38.9004525, "rental_uris": {"android": "https://dc.lft.to/lastmile_qr_scan", "ios": "https://dc.lft.to/lastmile_qr_scan"}, "bike_id": "9db614732dc7111ebe01162cb070631a", "lon": -77.04990966666666}, {"is_reserved": 0, "fusion_lon": 0.0, "fusion_lat": 0.0, "name": "5d86537eddbf2fd8cd9adbfd63edb13b", "type": "electric_bike", "is_disabled": 0, "lat": 38.882260333333335, "rental_uris": {"android": "https://dc.lft.to/lastmile_qr_scan", "ios": "https://dc.lft.to/lastmile_qr_scan"}, "bike_id": "5d86537eddbf2fd8cd9adbfd63edb13b", "lon": -77.11723216666667}, {"is_reserved": 0, "fusion_lon": 0.0, "fusion_lat": 0.0, "name": "7423c7635a0f5cc52419a9e0074abe08", "type": "electric_scooter", "is_disabled": 0, "lat": 38.89487333333334, "rental_uris": {"android": "https://dc.lft.to/lastmile_qr_scan", "ios": "https://dc.lft.to/lastmile_qr_scan"}, "bike_id": "7423c7635a0f5cc52419a9e0074abe08", "lon": -77.01097616666667}, {"is_reserved": 0, "fusion_lon": 0.0, "fusion_lat": 0.0, "name": "ce698100febe036fd62a43edafe2aa82", "type": "electric_scooter", "is_disabled": 0, "lat": 38.926162166666664, "rental_uris": {"android": "https://dc.lft.to/lastmile_qr_scan", "ios": "https://dc.lft.to/lastmile_qr_scan"}, "bike_id": "ce698100febe036fd62a43edafe2aa82", "lon": -77.04322566666667}, {"is_reserved": 0, "fusion_lon": 0.0, "fusion_lat": 0.0, "name": "fe9d769220eb15c0addf60e5cf2dab33", "type": "electric_scooter", "is_disabled": 0, "lat": 38.93266233333333, "rental_uris": {"android": "https://dc.lft.to/lastmile_qr_scan", "ios": "https://dc.lft.to/lastmile_qr_scan"}, "bike_id": "fe9d769220eb15c0addf60e5cf2dab33", "lon": -77.01920316666667}, {"is_reserved": 0, "fusion_lon": 0.0, "fusion_lat": 0.0, "name": "a2217af5e817615b9a60753e0c19f092", "type": "electric_scooter", "is_disabled": 0, "lat": 38.834952666666666, "rental_uris": {"android": "https://dc.lft.to/lastmile_qr_scan", "ios": "https://dc.lft.to/lastmile_qr_scan"}, "bike_id": "a2217af5e817615b9a60753e0c19f092", "lon": -77.0068655}, {"is_reserved": 0, "fusion_lon": 0.0, "fusion_lat": 0.0, "name": "c63f56338455d12250e07c99cb8d8445", "type": "electric_bike", "is_disabled": 0, "lat": 38.995338833333335, "rental_uris": {"android": "https://dc.lft.to/lastmile_qr_scan", "ios": "https://dc.lft.to/lastmile_qr_scan"}, "bike_id": "c63f56338455d12250e07c99cb8d8445", "lon": -77.06935866666667}, {"is_reserved": 0, "fusion_lon": 0.0, "fusion_lat": 0.0, "name": "2b4222369c7f90890f0ca60fe3af8e8a", "type": "electric_bike", "is_disabled": 0, "lat": 38.94942116666667, "rental_uris": {"android": "https://dc.lft.to/lastmile_qr_scan", "ios": "https://dc.lft.to/lastmile_qr_scan"}, "bike_id": "2b4222369c7f90890f0ca60fe3af8e8a", "lon": -77.066449}, {"is_reserved": 0, "fusion_lon": 0.0, "fusion_lat": 0.0, "name": "00c6714aed2ab5d487fd74cbd304fed5", "type": "electric_scooter", "is_disabled": 0, "lat": 38.895048333333335, "rental_uris": {"android": "https://dc.lft.to/lastmile_qr_scan", "ios": "https://dc.lft.to/lastmile_qr_scan"}, "bike_id": "00c6714aed2ab5d487fd74cbd304fed5", "lon": -76.934749}, {"is_reserved": 0, "fusion_lon": 0.0, "fusion_lat": 0.0, "name": "1c3c47ae246c784f632d9c6de88f5ed4", "type": "electric_scooter", "is_disabled": 0, "lat": 38.90013583333333, "rental_uris": {"android": "https://dc.lft.to/lastmile_qr_scan", "ios": "https://dc.lft.to/lastmile_qr_scan"}, "bike_id": "1c3c47ae246c784f632d9c6de88f5ed4", "lon": -76.99619166666666}, {"is_reserved": 0, "fusion_lon": 0.0, "fusion_lat": 0.0, "name": "96dfcd31c189415bf7a4f497b1d8b69d", "type": "electric_scooter", "is_disabled": 0, "lat": 38.82387383333333, "rental_uris": {"android": "https://dc.lft.to/lastmile_qr_scan", "ios": "https://dc.lft.to/lastmile_qr_scan"}, "bike_id": "96dfcd31c189415bf7a4f497b1d8b69d", "lon": -77.01185316666667}, {"is_reserved": 0, "fusion_lon": 0.0, "fusion_lat": 0.0, "name": "7957cd54525a5af3bc92f2962f48063b", "type": "electric_scooter", "is_disabled": 0, "lat": 38.900094333333335, "rental_uris": {"android": "https://dc.lft.to/lastmile_qr_scan", "ios": "https://dc.lft.to/lastmile_qr_scan"}, "bike_id": "7957cd54525a5af3bc92f2962f48063b", "lon": -77.04042383333334}, {"is_reserved": 0, "fusion_lon": 0.0, "fusion_lat": 0.0, "name": "3a1bf53ed0fa917dfbbf37a6e24b4897", "type": "electric_bike", "is_disabled": 0, "lat": 38.8804555, "rental_uris": {"android": "https://dc.lft.to/lastmile_qr_scan", "ios": "https://dc.lft.to/lastmile_qr_scan"}, "bike_id": "3a1bf53ed0fa917dfbbf37a6e24b4897", "lon": -77.01127866666667}, {"is_reserved": 0, "fusion_lon": 0.0, "fusion_lat": 0.0, "name": "b965b66296f8f31b85d8020734a4fba1", "type": "electric_scooter", "is_disabled": 0, "lat": 38.909152666666664, "rental_uris": {"android": "https://dc.lft.to/lastmile_qr_scan", "ios": "https://dc.lft.to/lastmile_qr_scan"}, "bike_id": "b965b66296f8f31b85d8020734a4fba1", "lon": -77.072632}, {"is_reserved": 0, "fusion_lon": 0.0, "fusion_lat": 0.0, "name": "59320683e2ef32302231bcb8119c2a02", "type": "electric_scooter", "is_disabled": 0, "lat": 38.86700166666667, "rental_uris": {"android": "https://dc.lft.to/lastmile_qr_scan", "ios": "https://dc.lft.to/lastmile_qr_scan"}, "bike_id": "59320683e2ef32302231bcb8119c2a02", "lon": -76.98708416666666}, {"is_reserved": 0, "fusion_lon": 0.0, "fusion_lat": 0.0, "name": "d5d8fb59ae16aa1da185e2db3038ae25", "type": "electric_scooter", "is_disabled": 0, "lat": 38.867357, "rental_uris": {"android": "https://dc.lft.to/lastmile_qr_scan", "ios": "https://dc.lft.to/lastmile_qr_scan"}, "bike_id": "d5d8fb59ae16aa1da185e2db3038ae25", "lon": -76.98783033333333}, {"is_reserved": 0, "fusion_lon": 0.0, "fusion_lat": 0.0, "name": "fd8ab112263fe8d159691db45ab3c1c3", "type": "electric_scooter", "is_disabled": 0, "lat": 38.93244333333333, "rental_uris": {"android": "https://dc.lft.to/lastmile_qr_scan", "ios": "https://dc.lft.to/lastmile_qr_scan"}, "bike_id": "fd8ab112263fe8d159691db45ab3c1c3", "lon": -77.02949583333333},