{"data": {"bikes": [{"fusion_lon": 0.0, "bike_id": "7c6ee99d67e0c2d9f740bee87e41c2f3", "name": "7c6ee99d67e0c2d9f740bee87e41c2f3", "type": "electric_scooter", "lon": -77.03802583333334, "rental_uris": {"android": "https://dc.lft.to/lastmile_qr_scan", "ios": "https://dc.lft.to/lastmile_qr_scan"}, "lat": 38.91038416666667, "is_reserved": 0, "is_disabled": 0, "fusion_lat": 0.0}, {"fusion_lon": 0.0, "bike_id": "38b08f896cd495f77349984e69b0f999", "name": "38b08f896cd495f77349984e69b0f999", "type": "electric_scooter", "lon": -77.04242116666667, "rental_uris": {"android": "https://dc.lft.to/lastmile_qr_scan", "ios": "https://dc.lft.to/lastmile_qr_scan"}, "lat": 38.92160116666667, "is_reserved": 0, "is_disabled": 0, "fusion_lat": 0.0}, {"fusion_lon": 0.0, "bike_id": "fa598979bac825a9224d656b51fb8bc6", "name": "fa598979bac825a9224d656b51fb8bc6", "type": "electric_scooter", "lon": -77.0186285, "rental_uris": {"android": "https://dc.lft.to/lastmile_qr_scan", "ios": "https://dc.lft.to/lastmile_qr_scan"}, "lat": 38.902628166666666, "is_reserved": 0, "is_disabled": 0, "fusion_lat": 0.0}, {"fusion_lon": 0.0, "bike_id": "11173ba1a1ae9cf8899bd32dd3ab58c9", "name": "11173ba1a1ae9cf8899bd32dd3ab58c9", "type": "electric_scooter", "lon": -77.014529, "rental_uris": {"android": "https://dc.lft.to/lastmile_qr_scan", "ios": "https://dc.lft.to/lastmile_qr_scan"}, "lat": 38.90507066666667, "is_reserved": 0, "is_disabled": 0, "fusion_lat": 0.0}, {"fusion_lon": 0.0, "bike_id": "1e3c4211ed4aedc1398d21b508622c6d", "name": "1e3c4211ed4aedc1398d21b508622c6d", "type": "electric_scooter", "lon": -77.04514183333333, "rental_uris": {"android": "https://dc.lft.to/lastmile_qr_scan", "ios": "https://dc.lft.to/lastmile_qr_scan"}, "lat": 38.886044, "is_reserved": 0, "is_disabled": 0, "fusion_lat": 0.0}, {"fusion_lon": 0.0, "bike_id": "375dfa628c9ea9a58cc65da6a0888e11", "name": "375dfa628c9ea9a58cc65da6a0888e11", "type": "electric_scooter", "lon": -77.02797133333333, "rental_uris": {"android": "https://dc.lft.to/lastmile_qr_scan", "ios": "https://dc.lft.to/lastmile_qr_scan"}, "lat": 38.905650333333334, "is_reserved": 0, "is_disabled": 0, "fusion_lat": 0.0}, {"fusion_lon": 0.0, "bike_id": "68e150905bd08ddb0c227669054154cd", "name": "68e150905bd08ddb0c227669054154cd", "type": "electric_bike", "lon": -77.10131683333333, "rental_uris": {"android": "https://dc.lft.to/lastmile_qr_scan", "ios": "https://dc.lft.to/lastmile_qr_scan"}, "lat": 38.852079833333335, "is_reserved": 0, "is_disabled": 0, "fusion_lat": 0.0}, {"fusion_lon": 0.0, "bike_id": "6057507274f901e49782f5d649eb10ce", "name": "6057507274f901e49782f5d649eb10ce", "type": "electric_scooter", "lon": -77.03371116666666, "rental_uris": {"android": "https://dc.lft.to/lastmile_qr_scan", "ios": "https://dc.lft.to/lastmile_qr_scan"}, "lat": 38.910293833333334, "is_reserved": 0, "is_disabled": 0, "fusion_lat": 0.0}, {"fusion_lon": 0.0, "bike_id": "241b55f7235e6f4c09af38a19b06a78a", "name": "241b55f7235e6f4c09af38a19b06a78a", "type": "electric_bike", "lon": -77.11432533333333, "rental_uris": {"android": "https://dc.lft.to/lastmile_qr_scan", "ios": "https://dc.lft.to/lastmile_qr_scan"}, "lat": 38.85247733333333, "is_reserved": 0, "is_disabled": 0, "fusion_lat": 0.0}, {"fusion_lon": 0.0, "bike_id": "69a27c5efa0532680f05f2713b59a1fb", "name": "69a27c5efa0532680f05f2713b59a1fb", "type": "electric_scooter", "lon": -76.98259516666667, "rental_uris": {"android": "https://dc.lft.to/lastmile_qr_scan", "ios": "https://dc.lft.to/lastmile_qr_scan"}, "lat": 38.863578, "is_reserved": 0, "is_disabled": 0, "fusion_lat": 0.0}, {"fusion_lon": 0.0, "bike_id": "b05ac7a594b0f0a530b21c9f3adde3aa", "name": "b05ac7a594b0f0a530b21c9f3adde3aa", "type": "electric_scooter", "lon": -77.100325, "rental_uris": {"android": "https://dc.lft.to/lastmile_qr_scan", "ios": "https://dc.lft.to/lastmile_qr_scan"}, "lat": 38.949283, "is_reserved": 0, "is_disabled": 0, "fusion_lat": 0.0}, {"fusion_lon": 0.0, "bike_id": "f96a81069a57fc6c9fe1650db7e3261a", "name": "f96a81069a57fc6c9fe1650db7e3261a", "type": "electric_scooter", "lon": -77.03214866666667, "rental_uris": {"android": "https://dc.lft.to/lastmile_qr_scan", "ios": "https://dc.lft.to/lastmile_qr_scan"}, "lat": 38.92583883333333, "is_reserved": 0, "is_disabled": 0, "fusion_lat": 0.0}, {"fusion_lon": 0.0, "bike_id": "f3f4717b4f0a55f9b2798fd697401c60", "name": "f3f4717b4f0a55f9b2798fd697401c60", "type": "electric_scooter", "lon": -77.02170883333334, "rental_uris": {"android": "https://dc.lft.to/lastmile_qr_scan", "ios": "https://dc.lft.to/lastmile_qr_scan"}, "lat": 38.91978133333333, "is_reserved": 0, "is_disabled": 0, "fusion_lat": 0.0}, {"fusion_lon": 0.0, "bike_id": "830476331158ec15c4e3ac153a3706b4", "name": "830476331158ec15c4e3ac153a3706b4", "type": "electric_scooter", "lon": -77.04808116666666, "rental_uris": {"android": "https://dc.lft.to/lastmile_qr_scan", "ios": "https://dc.lft.to/lastmile_qr_scan"}, "lat": 38.902419, "is_reserved": 0, "is_disabled": 0, "fusion_lat": 0.0}, {"fusion_lon": 0.0, "bike_id": "88457c5820a3dd0ad079dd926672719d", "name": "88457c5820a3dd0ad079dd926672719d", "type": "electric_scooter", "lon": -77.00132933333333, "rental_uris": {"android": "https://dc.lft.to/lastmile_qr_scan", "ios": "https://dc.lft.to/lastmile_qr_scan"}, "lat": 38.907367, "is_reserved": 0, "is_disabled": 0, "fusion_lat": 0.0}, {"fusion_lon": 0.0, "bike_id": "dd212089f33e4039c440f13f6cafd869", "name": "dd212089f33e4039c440f13f6cafd869", "type": "electric_scooter", "lon": -77.04665283333334, "rental_uris": {"android": "https://dc.lft.to/lastmile_qr_scan", "ios": "https://dc.lft.to/lastmile_qr_scan"}, "lat": 38.9036055, "is_reserved": 0, "is_disabled": 0, "fusion_lat": 0.0}, {"fusion_lon": 0.0, "bike_id": "6115f40475b8a6644a1b719c17549e9c", "name": "6115f40475b8a6644a1b719c17549e9c", "type": "electric_scooter", "lon": -77.00341483333334, "rental_uris": {"android": "https://dc.lft.to/lastmile_qr_scan", "ios": "https://dc.lft.to/lastmile_qr_scan"}, "lat": 38.89511483333333, "is_reserved": 0, "is_disabled": 0, "fusion_lat": 0.0}, {"fusion_lon": 0.0, "bike_id": "60eb925b168cc5e29b8b2927a66326ad", "name": "60eb925b168cc5e29b8b2927a66326ad", "type": "electric_scooter", "lon": -77.04516416666667, "rental_uris": {"android": "https://dc.lft.to/lastmile_qr_scan", "ios": "https://dc.lft.to/lastmile_qr_scan"}, "lat": 38.92136583333333, "is_reserved": 0, "is_disabled": 0, "fusion_lat": 0.0}, {"fusion_lon": 0.0, "bike_id": "ea337ce208b693e85a5931a7265cef8c", "name": "ea337ce208b693e85a5931a7265cef8c", "type": "electric_scooter", "lon": -77.018935, "rental_uris": {"android": "https://dc.lft.to/lastmile_qr_scan", "ios": "https://dc.lft.to/lastmile_qr_scan"}, "lat": 38.94645233333333, "is_reserved": 0, "is_disabled": 0, "fusion_lat": 0.0}, {"fusion_lon": 0.0, "bike_id": "4e19c7b4ec2830c976067417bad0e513", "name": "4e19c7b4ec2830c976067417bad0e513", "type": "electric_scooter", "lon": -76.9895345, "rental_uris": {"android": "https://dc.lft.to/lastmile_qr_scan", "ios": "https://dc.lft.to/lastmile_qr_scan"}, "lat": 38.844015166666665, "is_reserved": 0, "is_disabled": 0, "fusion_lat": 0.0}, {"fusion_lon": 0.0, "bike_id": "fd8761ca6eb072952135b611cee02ad1", "name": "fd8761ca6eb072952135b611cee02ad1", "type": "electric_scooter", "lon": -77.02402066666667, "rental_uris": {"android": "https://dc.lft.to/lastmile_qr_scan", "ios": "https://dc.lft.to/lastmile_qr_scan"}, "lat": 38.9207575, "is_reserved": 0, "is_disabled": 0, "fusion_lat": 0.0}, {"fusion_lon": 0.0, "bike_id": "95ad1a787f7f7cf841e09d9fe452abe2", "name": "95ad1a787f7f7cf841e09d9fe452abe2", "type": "electric_scooter", "lon": -77.01347533333333, "rental_uris": {"android": "https://dc.lft.to/lastmile_qr_scan", "ios": "https://dc.lft.to/lastmile_qr_scan"}, "lat": 38.907210166666665, "is_reserved": 0, "is_disabled": 0, "fusion_lat": 0.0}, {"fusion_lon": 0.0, "bike_id": "dd815ff190006ecaafa7330094d34f73", "name": "dd815ff190006ecaafa7330094d34f73", "type": "electric_scooter", "lon": -77.05522483333333, "rental_uris": {"android": "https://dc.lft.to/lastmile_qr_scan", "ios": "https://dc.lft.to/lastmile_qr_scan"}, "lat": 38.91066383333333, "is_reserved": 0, "is_disabled": 0, "fusion_lat": 0.0}, {"fusion_lon": 0.0, "bike_id": "268ce11b7f39213bccc4fc57bd59beff", "name": "268ce11b7f39213bccc4fc57bd59beff", "type": "electric_scooter", "lon": -77.03858266666667, "rental_uris": {"android": "https://dc.lft.to/lastmile_qr_scan", "ios": "https://dc.lft.to/lastmile_qr_scan"}, "lat": 38.91842033333333, "is_reserved": 0, "is_disabled": 0, "fusion_lat": 0.0}, {"fusion_lon": 0.0, "bike_id": "622c3700aed04104a6a8b9c3cfb8cc4e", "name": "622c3700aed04104a6a8b9c3cfb8cc4e", "type": "electric_scooter", "lon": -77.0635335, "rental_uris": {"android": "https://dc.lft.to/lastmile_qr_scan", "ios": "https://dc.lft.to/lastmile_qr_scan"}, "lat": 38.94440133333333, "is_reserved": 0, "is_disabled": 0, "fusion_lat": 0.0}, {"fusion_lon": 0.0, "bike_id": "8c2a70514db188982f0b956a0a8956a1", "name": "8c2a70514db188982f0b956a0a8956a1", "type": "electric_bike", "lon": -76.99764333333333, "rental_uris": {"android": "https://dc.lft.to/lastmile_qr_scan", "ios": "https://dc.lft.to/lastmile_qr_scan"}, "lat": 39.00598083333333, "is_reserved": 0, "is_disabled": 0, "fusion_lat": 0.0}, {"fusion_lon": 0.0, "bike_id": "155c8d622834626c6e4bbeaad227c4a4", "name": "155c8d622834626c6e4bbeaad227c4a4", "type": "electric_scooter", "lon": -77.03720916666667, "rental_uris": {"android": "https://dc.lft.to/lastmile_qr_scan", "ios": "https://dc.lft.to/lastmile_qr_scan"}, "lat": 38.91811, "is_reserved": 0, "is_disabled": 0, "fusion_lat": 0.0}, {"fusion_lon": 0.0, "bike_id": "191466e0d7b380fa8418100a4e814327", "name": "191466e0d7b380fa8418100a4e814327", "type": "electric_scooter", "lon": -77.041136, "rental_uris": {"android": "https://dc.lft.to/lastmile_qr_scan", "ios": "https://dc.lft.to/lastmile_qr_scan"}, "lat": 38.910404166666666, "is_reserved": 0, "is_disabled": 0, "fusion_lat": 0.0}, {"fusion_lon": 0.0, "bike_id": "cb46511819ebd4831902ac5e107cd132", "name": "cb46511819ebd4831902ac5e107cd132", "type": "electric_scooter", "lon": -77.008654, "rental_uris": {"android": "https://dc.lft.to/lastmile_qr_scan", "ios": "https://dc.lft.to/lastmile_qr_scan"}, "lat": 38.876564, "is_reserved": 0, "is_disabled": 0, "fusion_lat": 0.0}, {"fusion_lon": 0.0, "bike_id": "f7373e2d914eb8ab7c58ec561122bb49", "name": "f7373e2d914eb8ab7c58ec561122bb49", "type": "electric_scooter", "lon": -76.99809683333334, "rental_uris": {"android": "https://dc.lft.to/lastmile_qr_scan", "ios": "https://dc.lft.to/lastmile_qr_scan"}, "lat": 38.876826666666666, "is_reserved": 0, "is_disabled": 0, "fusion_lat": 0.0}, {"fusion_lon": 0.0, "bike_id": "4e4459b1b6aedda2d20002d249aa4d4c", "name": "4e4459b1b6aedda2d20002d249aa4d4c", "type": "electric_scooter", "lon": -76.9866275, "rental_uris": {"android": "https://dc.lft.to/lastmile_qr_scan", "ios": "https://dc.lft.to/lastmile_qr_scan"}, "lat": 38.913158, "is_reserved": 0, "is_disabled": 0, "fusion_lat": 0.0}, {"fusion_lon": 0.0, "bike_id": "5a800b829f2c6e6bc2028401ca262b44", "name": "5a800b829f2c6e6bc2028401ca262b44", "type": "electric_scooter", "lon": -77.08616283333333, "rental_uris": {"android": "https://dc.lft.to/lastmile_qr_scan", "ios": "https://dc.lft.to/lastmile_qr_scan"}, "lat": 38.9587515, "is_reserved": 0, "is_disabled": 0, "fusion_lat": 0.0}, {"fusion_lon": 0.0, "bike_id": "b1d10253dda7229e642dc47f3ba5e1bb", "name": "b1d10253dda7229e642dc47f3ba5e1bb", "type": "electric_scooter", "lon": -76.99901616666666, "rental_uris": {"android": "https://dc.lft.to/lastmile_qr_scan", "ios": "https://dc.lft.to/lastmile_qr_scan"}, "lat": 38.9565445, "is_reserved": 0, "is_disabled": 0, "fusion_lat": 0.0}, {"fusion_lon": 0.0, "bike_id": "9900e140b033dd3df6a3aafc334b20d4", "name": "9900e140b033dd3df6a3aafc334b20d4", "type": "electric_scooter", "lon": -77.05328933333334, "rental_uris": {"android": "https://dc.lft.to/lastmile_qr_scan", "ios": "https://dc.lft.to/lastmile_qr_scan"}, "lat": 38.92800866666666, "is_reserved": 0, "is_disabled": 0, "fusion_lat": 0.0}, {"fusion_lon": 0.0, "bike_id": "a04ff147fc31f5aed7852045689de83e", "name": "a04ff147fc31f5aed7852045689de83e", "type": "electric_scooter", "lon": -76.94900516666667, "rental_uris": {"android": "https://dc.lft.to/lastmile_qr_scan", "ios": "https://dc.lft.to/lastmile_qr_scan"}, "lat": 38.895384666666665, "is_reserved": 0, "is_disabled": 0, "fusion_lat": 0.0}, {"fusion_lon": 0.0, "bike_id": "a67904aed60de9c84bdc18b039d720af", "name": "a67904aed60de9c84bdc18b039d720af", "type": "electric_scooter", "lon": -77.04683083333333, "rental_uris": {"android": "https://dc.lft.to/lastmile_qr_scan", "ios": "https://dc.lft.to/lastmile_qr_scan"}, "lat": 38.89831233333334, "is_reserved": 0, "is_disabled": 0, "fusion_lat": 0.0}, {"fusion_lon": 0.0, "bike_id": "b73c3b61f50e7bc795158165e7acd46d", "name": "b73c3b61f50e7bc795158165e7acd46d", "type": "electric_scooter", "lon": -77.04297266666667, "rental_uris": {"android": "https://dc.lft.to/lastmile_qr_scan", "ios": "https://dc.lft.to/lastmile_qr_scan"}, "lat": 38.91790066666667, "is_reserved": 0, "is_disabled": 0, "fusion_lat": 0.0}, {"fusion_lon": 0.0, "bike_id": "461297e92e5b501ece4d6d7cddc2e9da", "name": "461297e92e5b501ece4d6d7cddc2e9da", "type": "electric_bike", "lon": -76.959643, "rental_uris": {"android": "https://dc.lft.to/lastmile_qr_scan", "ios": "https://dc.lft.to/lastmile_qr_scan"}, "lat": 38.870202, "is_reserved": 0, "is_disabled": 0, "fusion_lat": 0.0}, {"fusion_lon": 0.0, "bike_id": "dfc5e6e3009674c5a303b79db1111d67", "name": "dfc5e6e3009674c5a303b79db1111d67", "type": "electric_scooter", "lon": -77.03194833333333, "rental_uris": {"android": "https://dc.lft.to/lastmile_qr_scan", "ios": "https://dc.lft.to/lastmile_qr_scan"}, "lat": 38.89749616666667, "is_reserved": 0, "is_disabled": 0, "fusion_lat": 0.0}, {"fusion_lon": 0.0, "bike_id": "40f88afdce0c26b8a7a85a71946e91ec", "name": "40f88afdce0c26b8a7a85a71946e91ec", "type": "electric_scooter", "lon": -77.031482, "rental_uris": {"android": "https://dc.lft.to/lastmile_qr_scan", "ios": "https://dc.lft.to/lastmile_qr_scan"}, "lat": 38.88312066666667, "is_reserved": 0, "is_disabled": 0, "fusion_lat": 0.0}, {"fusion_lon": 0.0, "bike_id": "6ae0c29685f8156522137ea09bac6c05", "name": "6ae0c29685f8156522137ea09bac6c05", "type": "electric_scooter", "lon": -77.05282133333333, "rental_uris": {"android": "https://dc.lft.to/lastmile_qr_scan", "ios": "https://dc.lft.to/lastmile_qr_scan"}, "lat": 38.910152833333335, "is_reserved": 0, "is_disabled": 0, "fusion_lat": 0.0}, {"fusion_lon": 0.0, "bike_id": "604cd88ce51720f842e7c77d549116ba", "name": "604cd88ce51720f842e7c77d549116ba", "type": "electric_scooter", "lon": -77.03102583333333, "rental_uris": {"android": "https://dc.lft.to/lastmile_qr_scan", "ios": "https://dc.lft.to/lastmile_qr_scan"}, "lat": 38.92857166666667, "is_reserved": 0, "is_disabled": 0, "fusion_lat": 0.0}, {"fusion_lon": 0.0, "bike_id": "08b734042a8cf3113048c4d66907b615", "name": "08b734042a8cf3113048c4d66907b615", "type": "electric_scooter", "lon": -76.994987, "rental_uris": {"android": "https://dc.lft.to/lastmile_qr_scan", "ios": "https://dc.lft.to/lastmile_qr_scan"}, "lat": 38.89976733333334, "is_reserved": 0, "is_disabled": 0, "fusion_lat": 0.0}, {"fusion_lon": 0.0, "bike_id": "33ea36b1fe1a26a08c8ca563b00fb412", "name": "33ea36b1fe1a26a08c8ca563b00fb412", "type": "electric_scooter", "lon": -76.99905816666667, "rental_uris": {"android": "https://dc.lft.to/lastmile_qr_scan", "ios": "https://dc.lft.to/lastmile_qr_scan"}, "lat": 38.892037333333334, "is_reserved": 0, "is_disabled": 0, "fusion_lat": 0.0}, {"fusion_lon": 0.0, "bike_id": "d77d764ff26acbbd092fa72b701bb80d", "name": "d77d764ff26acbbd092fa72b701bb80d", "type": "electric_scooter", "lon": -76.9865385, "rental_uris": {"android": "https://dc.lft.to/lastmile_qr_scan", "ios": "https://dc.lft.to/lastmile_qr_scan"}, "lat": 38.901436, "is_reserved": 0, "is_disabled": 0, "fusion_lat": 0.0}, {"fusion_lon": 0.0, "bike_id": "10c8c8a0c2378822e658b95a4ea9619d", "name": "10c8c8a0c2378822e658b95a4ea9619d", "type": "electric_scooter", "lon": -77.03247333333333, "rental_uris": {"android": "https://dc.lft.to/lastmile_qr_scan", "ios": "https://dc.lft.to/lastmile_qr_scan"}, "lat": 38.929189, "is_reserved": 0, "is_disabled": 0, "fusion_lat": 0.0}, {"fusion_lon": 0.0, "bike_id": "00b7254834e1c4f26d5af39a7eab87ad", "name": "00b7254834e1c4f26d5af39a7eab87ad", "type": "electric_scooter", "lon": -76.93188416666666, "rental_uris": {"android": "https://dc.lft.to/lastmile_qr_scan", "ios": "https://dc.lft.to/lastmile_qr_scan"}, "lat": 38.8987855, "is_reserved": 0, "is_disabled": 0, "fusion_lat": 0.0}, {"fusion_lon": 0.0, "bike_id": "4a8de93cf1640d9fd7061ce9c3832fff", "name": "4a8de93cf1640d9fd7061ce9c3832fff", "type": "electric_bike", "lon": -77.043093, "rental_uris": {"android": "https://dc.lft.to/lastmile_qr_scan", "ios": "https://dc.lft.to/lastmile_qr_scan"}, "lat": 39.054503833333335, "is_reserved": 0, "is_disabled": 0, "fusion_lat": 0.0}, {"fusion_lon": 0.0, "bike_id": "9097d9f7cd23fc1ba2dbc7ee4a6837c4", "name": "9097d9f7cd23fc1ba2dbc7ee4a6837c4", "type": "electric_scooter", "lon": -77.07308033333334, "rental_uris": {"android": "https://dc.lft.to/lastmile_qr_scan", "ios": "https://dc.lft.to/lastmile_qr_scan"}, "lat": 38.92162066666667, "is_reserved": 0, "is_disabled": 0, "fusion_lat": 0.0}, {"fusion_lon": 0.0, "bike_id": "ff053b4287022d9e07a9679cd97c7680", "name": "ff053b4287022d9e07a9679cd97c7680", "type": "electric_scooter", "lon": -77.024038, "rental_uris": {"android": "https://dc.lft.to/lastmile_qr_scan", "ios": "https://dc.lft.to/lastmile_qr_scan"}, "lat": 38.905513, "is_reserved": 0, "is_disabled": 0, "fusion_lat": 0.0}, {"fusion_lon": 0.0, "bike_id": "9d5b1974c2f45afffafcfbff296d7216", "name": "9d5b1974c2f45afffafcfbff296d7216", "type": "electric_scooter", "lon": -77.01828866666666, "rental_uris": {"android": "https://dc.lft.to/lastmile_qr_scan", "ios": "https://dc.lft.to/lastmile_qr_scan"}, "lat": 38.92203716666667, "is_reserved": 0, "is_disabled": 0, "fusion_lat": 0.0}, {"fusion_lon": 0.0, "bike_id": "2715c4005b7c4580268401b7b231922c", "name": "2715c4005b7c4580268401b7b231922c", "type": "electric_scooter", "lon": -77.04213366666667, "rental_uris": {"android": "https://dc.lft.to/lastmile_qr_scan", "ios": "https://dc.lft.to/lastmile_qr_scan"}, "lat": 38.9170665, "is_reserved": 0, "is_disabled": 0, "fusion_lat": 0.0}, {"fusion_lon": 0.0, "bike_id": "32550f8810d3dc19abde1e260fecc878", "name": "32550f8810d3dc19abde1e260fecc878", "type": "electric_scooter", "lon": -76.99843166666666, "rental_uris": {"android": "https://dc.lft.to/lastmile_qr_scan", "ios": "https://dc.lft.to/lastmile_qr_scan"}, "lat": 38.90041883333333, "is_reserved": 0, "is_disabled": 0, "fusion_lat": 0.0}, {"fusion_lon": 0.0, "bike_id": "2eba9d713dd1d799a8eddb1db6f55e57", "name": "2eba9d713dd1d799a8eddb1db6f55e57", "type": "electric_scooter", "lon": -77.00682316666666, "rental_uris": {"android": "https://dc.lft.to/lastmile_qr_scan", "ios": "https://dc.lft.to/lastmile_qr_scan"}, "lat": 38.877028333333335, "is_reserved": 0, "is_disabled": 0, "fusion_lat": 0.0}, {"fusion_lon": 0.0, "bike_id": "8517acb1785a769947340a9425d85e62", "name": "8517acb1785a769947340a9425d85e62", "type": "electric_scooter", "lon": -77.036403, "rental_uris": {"android": "https://dc.lft.to/lastmile_qr_scan", "ios": "https://dc.lft.to/lastmile_qr_scan"}, "lat": 38.91217133333333, "is_reserved": 0, "is_disabled": 0, "fusion_lat": 0.0}, {"fusion_lon": 0.0, "bike_id": "e6459e78991fb4d47fb6b33058db2997", "name": "e6459e78991fb4d47fb6b33058db2997", "type": "electric_scooter", "lon": -77.027452, "rental_uris": {"android": "https://dc.lft.to/lastmile_qr_scan", "ios": "https://dc.lft.to/lastmile_qr_scan"}, "lat": 38.9320255, "is_reserved": 0, "is_disabled": 0, "fusion_lat": 0.0}, {"fusion_lon": 0.0, "bike_id": "0be43856ad11d619b6bdfe3dba6ebea2", "name": "0be43856ad11d619b6bdfe3dba6ebea2", "type": "electric_scooter", "lon": -77.05123633333334, "rental_uris": {"android": "https://dc.lft.to/lastmile_qr_scan", "ios": "https://dc.lft.to/lastmile_qr_scan"}, "lat": 38.923471166666666, "is_reserved": 0, "is_disabled": 0, "fusion_lat": 0.0}, {"fusion_lon": 0.0, "bike_id": "48943e246c156d8d96da96627d8f6322", "name": "48943e246c156d8d96da96627d8f6322", "type": "electric_scooter", "lon": -77.00857433333333, "rental_uris": {"android": "https://dc.lft.to/lastmile_qr_scan", "ios": "https://dc.lft.to/lastmile_qr_scan"}, "lat": 38.87657933333333, "is_reserved": 0, "is_disabled": 0, "fusion_lat": 0.0}, {"fusion_lon": 0.0, "bike_id": "a4d611a8167e23563bcbe8f0d3a32d5d", "name": "a4d611a8167e23563bcbe8f0d3a32d5d", "type": "electric_scooter", "lon": -77.05167783333333, "rental_uris": {"android": "https://dc.lft.to/lastmile_qr_scan", "ios": "https://dc.lft.to/lastmile_qr_scan"}, "lat": 38.90082316666667, "is_reserved": 0, "is_disabled": 0, "fusion_lat": 0.0}, {"fusion_lon": 0.0, "bike_id": "29955a94643b1bdfb72f9e5b9280f1ec", "name": "29955a94643b1bdfb72f9e5b9280f1ec", "type": "electric_scooter", "lon": -76.9905645, "rental_uris": {"android": "https://dc.lft.to/lastmile_qr_scan", "ios": "https://dc.lft.to/lastmile_qr_scan"}, "lat": 38.863625166666665, "is_reserved": 0, "is_disabled": 0, "fusion_lat": 0.0}, {"fusion_lon": 0.0, "bike_id": "f9bf4dd767427b62152b6616b450da4c", "name": "f9bf4dd767427b62152b6616b450da4c", "type": "electric_scooter", "lon": -77.0282095, "rental_uris": {"android": "https://dc.lft.to/lastmile_qr_scan", "ios": "https://dc.lft.to/lastmile_qr_scan"}, "lat": 38.916322, "is_reserved": 0, "is_disabled": 0, "fusion_lat": 0.0}, {"fusion_lon": 0.0, "bike_id": "9ec9fcb25dc0892c4669469a41bb5c7d", "name": "9ec9fcb25dc0892c4669469a41bb5c7d", "type": "electric_scooter", "lon": -76.99653433333333, "rental_uris": {"android": "https://dc.lft.to/lastmile_qr_scan", "ios": "https://dc.lft.to/lastmile_qr_scan"}, "lat": 38.93231466666667, "is_reserved": 0, "is_disabled": 0, "fusion_lat": 0.0}, {"fusion_lon": 0.0, "bike_id": "49a8775b1ddda02984b5fb539a5f87d3", "name": "49a8775b1ddda02984b5fb539a5f87d3", "type": "electric_scooter", "lon": -77.0101185, "rental_uris": {"android": "https://dc.lft.to/lastmile_qr_scan", "ios": "https://dc.lft.to/lastmile_qr_scan"}, "lat": 38.879671, "is_reserved": 0, "is_disabled": 0, "fusion_lat": 0.0}, {"fusion_lon": 0.0, "bike_id": "c783d1c2b2e60e80c3057217e2ee06d7", "name": "c783d1c2b2e60e80c3057217e2ee06d7", "type": "electric_scooter", "lon": -76.99852066666666, "rental_uris": {"android": "https://dc.lft.to/lastmile_qr_scan", "ios": "https://dc.lft.to/lastmile_qr_scan"}, "lat": 38.900367, "is_reserved": 0, "is_disabled": 0, "fusion_lat": 0.0}, {"fusion_lon": 0.0, "bike_id": "7114da0a45ed367e7182d0e5cbf5249a", "name": "7114da0a45ed367e7182d0e5cbf5249a", "type": "electric_scooter", "lon": -76.91242416666667, "rental_uris": {"android": "https://dc.lft.to/lastmile_qr_scan", "ios": "https://dc.lft.to/lastmile_qr_scan"}, "lat": 38.89397233333333, "is_reserved": 0, "is_disabled": 0, "fusion_lat": 0.0}, {"fusion_lon": 0.0, "bike_id": "c93e9e9d92b46419c3b0eb3ec130ff0a", "name": "c93e9e9d92b46419c3b0eb3ec130ff0a", "type": "electric_scooter", "lon": -76.98813533333333, "rental_uris": {"android": "https://dc.lft.to/lastmile_qr_scan", "ios": "https://dc.lft.to/lastmile_qr_scan"}, "lat": 38.90823966666667, "is_reserved": 0, "is_disabled": 0, "fusion_lat": 0.0}, {"fusion_lon": 0.0, "bike_id": "113aa7833bc63e967ed8fc9e1ba1b7e7", "name": "113aa7833bc63e967ed8fc9e1ba1b7e7", "type": "electric_scooter", "lon": -77.03787383333334, "rental_uris": {"android": "https://dc.lft.to/lastmile_qr_scan", "ios": "https://dc.lft.to/lastmile_qr_scan"}, "lat": 38.93608616666667, "is_reserved": 0, "is_disabled": 0, "fusion_lat": 0.0}, {"fusion_lon": 0.0, "bike_id": "a90029a52bc2ac909b86bc3fff703c1c", "name": "a90029a52bc2ac909b86bc3fff703c1c", "type": "electric_scooter", "lon": -77.04083233333333, "rental_uris": {"android": "https://dc.lft.to/lastmile_qr_scan", "ios": "https://dc.lft.to/lastmile_qr_scan"}, "lat": 38.91698133333333, "is_reserved": 0, "is_disabled": 0, "fusion_lat": 0.0}, {"fusion_lon": 0.0, "bike_id": "123bb364e2c5f0dd2ab9c9f5897264f2", "name": "123bb364e2c5f0dd2ab9c9f5897264f2", "type": "electric_scooter", "lon": -76.97186583333334, "rental_uris": {"android": "https://dc.lft.to/lastmile_qr_scan", "ios": "https://dc.lft.to/lastmile_qr_scan"}, "lat": 38.912661166666666, "is_reserved": 0, "is_disabled": 0, "fusion_lat": 0.0}, {"fusion_lon": 0.0, "bike_id": "0ac7d357c400793fdc75d6a9181930e2", "name": "0ac7d357c400793fdc75d6a9181930e2", "type": "electric_scooter", "lon": -77.02327633333333, "rental_uris": {"android": "https://dc.lft.to/lastmile_qr_scan", "ios": "https://dc.lft.to/lastmile_qr_scan"}, "lat": 38.927052333333336, "is_reserved": 0, "is_disabled": 0, "fusion_lat": 0.0}, {"fusion_lon": 0.0, "bike_id": "c098fe2636a151bd8309758f7fe826e7", "name": "c098fe2636a151bd8309758f7fe826e7", "type": "electric_bike", "lon": -77.04976666666667, "rental_uris": {"android": "https://dc.lft.to/lastmile_qr_scan", "ios": "https://dc.lft.to/lastmile_qr_scan"}, "lat": 38.99244783333333, "is_reserved": 0, "is_disabled": 0, "fusion_lat": 0.0}, {"fusion_lon": 0.0, "bike_id": "bf15cd68d4e5b38aff6db0a22836801b", "name": "bf15cd68d4e5b38aff6db0a22836801b", "type": "electric_scooter", "lon": -77.0468925, "rental_uris": {"android": "https://dc.lft.to/lastmile_qr_scan", "ios": "https://dc.lft.to/lastmile_qr_scan"}, "lat": 38.91581266666667, "is_reserved": 0, "is_disabled": 0, "fusion_lat": 0.0}, {"fusion_lon": 0.0, "bike_id": "16506636ed66fca99a6ac3ba0681f417", "name": "16506636ed66fca99a6ac3ba0681f417", "type": "electric_scooter", "lon": -77.05600433333333, "rental_uris": {"android": "https://dc.lft.to/lastmile_qr_scan", "ios": "https://dc.lft.to/lastmile_qr_scan"}, "lat": 38.93699933333333, "is_reserved": 0, "is_disabled": 0, "fusion_lat": 0.0}, {"fusion_lon": 0.0, "bike_id": "2d50840f2de0ce2b2e558f6ef370dfb2", "name": "2d50840f2de0ce2b2e558f6ef370dfb2", "type": "electric_bike", "lon": -77.19542316666667, "rental_uris": {"android": "https://dc.lft.to/lastmile_qr_scan", "ios": "https://dc.lft.to/lastmile_qr_scan"}, "lat": 39.11514416666667, "is_reserved": 0, "is_disabled": 0, "fusion_lat": 0.0}, {"fusion_lon": 0.0, "bike_id": "260e0b607d9a057aec79d55c194f5652", "name": "260e0b607d9a057aec79d55c194f5652", "type": "electric_bike", "lon": -77.00326083333333, "rental_uris": {"android": "https://dc.lft.to/lastmile_qr_scan", "ios": "https://dc.lft.to/lastmile_qr_scan"}, "lat": 38.911717, "is_reserved": 0, "is_disabled": 0, "fusion_lat": 0.0}, {"fusion_lon": 0.0, "bike_id": "10669aed7fbbb1f6cb08aee0459b8bb8", "name": "10669aed7fbbb1f6cb08aee0459b8bb8", "type": "electric_scooter", "lon": -77.01765033333334, "rental_uris": {"android": "https://dc.lft.to/lastmile_qr_scan", "ios": "https://dc.lft.to/lastmile_qr_scan"}, "lat": 38.88595183333334, "is_reserved": 0, "is_disabled": 0, "fusion_lat": 0.0}, {"fusion_lon": 0.0, "bike_id": "21f43c47354bf63483b7669a86fcdf1b", "name": "21f43c47354bf63483b7669a86fcdf1b", "type": "electric_scooter", "lon": -77.0019415, "rental_uris": {"android": "https://dc.lft.to/lastmile_qr_scan", "ios": "https://dc.lft.to/lastmile_qr_scan"}, "lat": 38.900389833333335, "is_reserved": 0, "is_disabled": 0, "fusion_lat": 0.0}, {"fusion_lon": 0.0, "bike_id": "3249e6ffb0f78c6d786caf09c8606333", "name": "3249e6ffb0f78c6d786caf09c8606333", "type": "electric_scooter", "lon": -77.023485, "rental_uris": {"android": "https://dc.lft.to/lastmile_qr_scan", "ios": "https://dc.lft.to/lastmile_qr_scan"}, "lat": 38.94301266666667, "is_reserved": 0, "is_disabled": 0, "fusion_lat": 0.0}, {"fusion_lon": 0.0, "bike_id": "a7a2e9675192bdd46a865c8108495b5d", "name": "a7a2e9675192bdd46a865c8108495b5d", "type": "electric_scooter", "lon": -77.07235833333333, "rental_uris": {"android": "https://dc.lft.to/lastmile_qr_scan", "ios": "https://dc.lft.to/lastmile_qr_scan"}, "lat": 38.93459566666667, "is_reserved": 0, "is_disabled": 0, "fusion_lat": 0.0}, {"fusion_lon": 0.0, "bike_id": "ddb8da1aacfa9c2f82f5f817d88cb798", "name": "ddb8da1aacfa9c2f82f5f817d88cb798", "type": "electric_scooter", "lon": -77.04248683333333, "rental_uris": {"android": "https://dc.lft.to/lastmile_qr_scan", "ios": "https://dc.lft.to/lastmile_qr_scan"}, "lat": 38.92234883333333, "is_reserved": 0, "is_disabled": 0, "fusion_lat": 0.0}, {"fusion_lon": 0.0, "bike_id": "42ad343168790c673d2554b9dfb06531", "name": "42ad343168790c673d2554b9dfb06531", "type": "electric_scooter", "lon": -77.02338666666667, "rental_uris": {"android": "https://dc.lft.to/lastmile_qr_scan", "ios": "https://dc.lft.to/lastmile_qr_scan"}, "lat": 38.91559433333333, "is_reserved": 0, "is_disabled": 0, "fusion_lat": 0.0}, {"fusion_lon": 0.0, "bike_id": "9c1c55faaf6bf96255f7428b97775e1a", "name": "9c1c55faaf6bf96255f7428b97775e1a", "type": "electric_scooter", "lon": -77.03878016666667, "rental_uris": {"android": "https://dc.lft.to/lastmile_qr_scan", "ios": "https://dc.lft.to/lastmile_qr_scan"}, "lat": 38.912726166666666, "is_reserved": 0, "is_disabled": 0, "fusion_lat": 0.0}, {"fusion_lon": 0.0, "bike_id": "29985a245118d64616a0ecd2842d06a1", "name": "29985a245118d64616a0ecd2842d06a1", "type": "electric_scooter", "lon": -77.001982, "rental_uris": {"android": "https://dc.lft.to/lastmile_qr_scan", "ios": "https://dc.lft.to/lastmile_qr_scan"}, "lat": 38.902344, "is_reserved": 0, "is_disabled": 0, "fusion_lat": 0.0}, {"fusion_lon": 0.0, "bike_id": "35a822444449bf91fd6389c9822eba35", "name": "35a822444449bf91fd6389c9822eba35", "type": "electric_scooter", "lon": -76.9762015, "rental_uris": {"android": "https://dc.lft.to/lastmile_qr_scan", "ios": "https://dc.lft.to/lastmile_qr_scan"}, "lat": 38.93143583333333, "is_reserved": 0, "is_disabled": 0, "fusion_lat": 0.0}, {"fusion_lon": 0.0, "bike_id": "74d003b5c57f440e6b92bcdd8ce8c8fc", "name": "74d003b5c57f440e6b92bcdd8ce8c8fc", "type": "electric_scooter", "lon": -76.99057233333333, "rental_uris": {"android": "https://dc.lft.to/lastmile_qr_scan", "ios": "https://dc.lft.to/lastmile_qr_scan"}, "lat": 38.859018166666665, "is_reserved": 0, "is_disabled": 0, "fusion_lat": 0.0}, {"fusion_lon": 0.0, "bike_id": "a589cc01129d38e480199da8b93ea413", "name": "a589cc01129d38e480199da8b93ea413", "type": "electric_scooter", "lon": -77.02012433333333, "rental_uris": {"android": "https://dc.lft.to/lastmile_qr_scan", "ios": "https://dc.lft.to/lastmile_qr_scan"}, "lat": 38.88364083333333, "is_reserved": 0, "is_disabled": 0, "fusion_lat": 0.0}, {"fusion_lon": 0.0, "bike_id": "cc13243572bb92ee928a2071f13725f8", "name": "cc13243572bb92ee928a2071f13725f8", "type": "electric_scooter", "lon": -76.977353, "rental_uris": {"android": "https://dc.lft.to/lastmile_qr_scan", "ios": "https://dc.lft.to/lastmile_qr_scan"}, "lat": 38.87248133333333, "is_reserved": 0, "is_disabled": 0, "fusion_lat": 0.0}, {"fusion_lon": 0.0, "bike_id": "5375a4b45ab06a144395f454e69ced11", "name": "5375a4b45ab06a144395f454e69ced11", "type": "electric_bike", "lon": -76.95468033333333, "rental_uris": {"android": "https://dc.lft.to/lastmile_qr_scan", "ios": "https://dc.lft.to/lastmile_qr_scan"}, "lat": 38.935715, "is_reserved": 0, "is_disabled": 0, "fusion_lat": 0.0}, {"fusion_lon": 0.0, "bike_id": "d852bf0b33e873296996ad1358f002de", "name": "d852bf0b33e873296996ad1358f002de", "type": "electric_scooter", "lon": -76.99964733333333, "rental_uris": {"android": "https://dc.lft.to/lastmile_qr_scan", "ios": "https://dc.lft.to/lastmile_qr_scan"}, "lat": 38.9038675, "is_reserved": 0, "is_disabled": 0, "fusion_lat": 0.0}, {"fusion_lon": 0.0, "bike_id": "8fdcfbe5f5cf79da82dbe094a20c47cc", "name": "8fdcfbe5f5cf79da82dbe094a20c47cc", "type": "electric_scooter", "lon": -77.07428916666667, "rental_uris": {"android": "https://dc.lft.to/lastmile_qr_scan", "ios": "https://dc.lft.to/lastmile_qr_scan"}, "lat": 38.911055, "is_reserved": 0, "is_disabled": 0, "fusion_lat": 0.0}, {"fusion_lon": 0.0, "bike_id": "f8f4a5af4eab5962d69557c44f8cfee3", "name": "f8f4a5af4eab5962d69557c44f8cfee3", "type": "electric_scooter", "lon": -77.04791383333334, "rental_uris": {"android": "https://dc.lft.to/lastmile_qr_scan", "ios": "https://dc.lft.to/lastmile_qr_scan"}, "lat": 38.902366, "is_reserved": 0, "is_disabled": 0, "fusion_lat": 0.0}, {"fusion_lon": 0.0, "bike_id": "f0304c24cb66b7dd9ea80786acfffd6d", "name": "f0304c24cb66b7dd9ea80786acfffd6d", "type": "electric_scooter", "lon": -77.02725916666667, "rental_uris": {"android": "https://dc.lft.to/lastmile_qr_scan", "ios": "https://dc.lft.to/lastmile_qr_scan"}, "lat": 38.94088983333333, "is_reserved": 0, "is_disabled": 0, "fusion_lat": 0.0}, {"fusion_lon": 0.0, "bike_id": "10c10436dee2628b81f62085771ffdcc", "name": "10c10436dee2628b81f62085771ffdcc", "type": "electric_scooter", "lon": -77.04379783333333, "rental_uris": {"android": "https://dc.lft.to/lastmile_qr_scan", "ios": "https://dc.lft.to/lastmile_qr_scan"}, "lat": 38.92066616666666, "is_reserved": 0, "is_disabled": 0, "fusion_lat": 0.0}, {"fusion_lon": 0.0, "bike_id": "fbc526b8c8dd7fd6daa05a2d021af1bd", "name": "fbc526b8c8dd7fd6daa05a2d021af1bd", "type": "electric_scooter", "lon": -77.00921383333333, "rental_uris": {"android": "https://dc.lft.to/lastmile_qr_scan", "ios": "https://dc.lft.to/lastmile_qr_scan"}, "lat": 38.95954866666667, "is_reserved": 0, "is_disabled": 0, "fusion_lat": 0.0}, {"fusion_lon": 0.0, "bike_id": "3c6bf4ee578c612e6906895585528164", "name": "3c6bf4ee578c612e6906895585528164", "type": "electric_scooter", "lon": -77.05035366666667, "rental_uris": {"android": "https://dc.lft.to/lastmile_qr_scan", "ios": "https://dc.lft.to/lastmile_qr_scan"}, "lat": 38.905324, "is_reserved": 0, "is_disabled": 0, "fusion_lat": 0.0}, {"fusion_lon": 0.0, "bike_id": "6209f578f142edf0768aa81da2888146", "name": "6209f578f142edf0768aa81da2888146", "type": "electric_scooter", "lon": -77.03663233333333, "rental_uris": {"android": "https://dc.lft.to/lastmile_qr_scan", "ios": "https://dc.lft.to/lastmile_qr_scan"}, "lat": 38.922996, "is_reserved": 0, "is_disabled": 0, "fusion_lat": 0.0}, {"fusion_lon": 0.0, "bike_id": "4d99762736508e6069e21dec4363de8c", "name": "4d99762736508e6069e21dec4363de8c", "type": "electric_bike", "lon": -77.1289855, "rental_uris": {"android": "https://dc.lft.to/lastmile_qr_scan", "ios": "https://dc.lft.to/lastmile_qr_scan"}, "lat": 38.86383333333333, "is_reserved": 0, "is_disabled": 0, "fusion_lat": 0.0}, {"fusion_lon": 0.0, "bike_id": "8f23e297500ab7bf30d51a4f446ffb4e", "name": "8f23e297500ab7bf30d51a4f446ffb4e", "type": "electric_scooter", "lon": -77.0470615, "rental_uris": {"android": "https://dc.lft.to/lastmile_qr_scan", "ios": "https://dc.lft.to/lastmile_qr_scan"}, "lat": 38.916598666666665, "is_reserved": 0, "is_disabled": 0, "fusion_lat": 0.0}, {"fusion_lon": 0.0, "bike_id": "c41192874dc4c367b30d44ac7df3b655", "name": "c41192874dc4c367b30d44ac7df3b655", "type": "electric_scooter", "lon": -77.04214916666666, "rental_uris": {"android": "https://dc.lft.to/lastmile_qr_scan", "ios": "https://dc.lft.to/lastmile_qr_scan"}, "lat": 38.91121566666666, "is_reserved": 0, "is_disabled": 0, "fusion_lat": 0.0}, {"fusion_lon": 0.0, "bike_id": "acf150040803decd168700de346ee526", "name": "acf150040803decd168700de346ee526", "type": "electric_bike", "lon": -77.021052, "rental_uris": {"android": "https://dc.lft.to/lastmile_qr_scan", "ios": "https://dc.lft.to/lastmile_qr_scan"}, "lat": 39.02301516666667, "is_reserved": 0, "is_disabled": 0, "fusion_lat": 0.0}, {"fusion_lon": 0.0, "bike_id": "04323b53659cec6b5ebf62ac26829204", "name": "04323b53659cec6b5ebf62ac26829204", "type": "electric_scooter", "lon": -77.0351295, "rental_uris": {"android": "https://dc.lft.to/lastmile_qr_scan", "ios": "https://dc.lft.to/lastmile_qr_scan"}, "lat": 38.9183375, "is_reserved": 0, "is_disabled": 0, "fusion_lat": 0.0}, {"fusion_lon": 0.0, "bike_id": "c44cf01d9f795381adc039d81e8152f2", "name": "c44cf01d9f795381adc039d81e8152f2", "type": "electric_scooter", "lon": -77.02899316666667, "rental_uris": {"android": "https://dc.lft.to/lastmile_qr_scan", "ios": "https://dc.lft.to/lastmile_qr_scan"}, "lat": 38.90450116666667, "is_reserved": 0, "is_disabled": 0, "fusion_lat": 0.0}, {"fusion_lon": 0.0, "bike_id": "a89283dac6ad78609fe21c5832638100", "name": "a89283dac6ad78609fe21c5832638100", "type": "electric_scooter", "lon": -77.06055133333334, "rental_uris": {"android": "https://dc.lft.to/lastmile_qr_scan", "ios": "https://dc.lft.to/lastmile_qr_scan"}, "lat": 38.93911716666667, "is_reserved": 0, "is_disabled": 0, "fusion_lat": 0.0}, {"fusion_lon": 0.0, "bike_id": "f61f317e42c4f59e5a9f23ee80cb7f43", "name": "f61f317e42c4f59e5a9f23ee80cb7f43", "type": "electric_scooter", "lon": -77.03089733333333, "rental_uris": {"android": "https://dc.lft.to/lastmile_qr_scan", "ios": "https://dc.lft.to/lastmile_qr_scan"}, "lat": 38.91702466666667, "is_reserved": 0, "is_disabled": 0, "fusion_lat": 0.0}, {"fusion_lon": 0.0, "bike_id": "4b2266002ce3888b7682bd7c17dc74fc", "name": "4b2266002ce3888b7682bd7c17dc74fc", "type": "electric_scooter", "lon": -77.02586716666667, "rental_uris": {"android": "https://dc.lft.to/lastmile_qr_scan", "ios": "https://dc.lft.to/lastmile_qr_scan"}, "lat": 38.9421495, "is_reserved": 0, "is_disabled": 0, "fusion_lat": 0.0}, {"fusion_lon": 0.0, "bike_id": "bed3e7450ae72e27a2d76c393e8a829e", "name": "bed3e7450ae72e27a2d76c393e8a829e", "type": "electric_scooter", "lon": -77.03149116666667, "rental_uris": {"android": "https://dc.lft.to/lastmile_qr_scan", "ios": "https://dc.lft.to/lastmile_qr_scan"}, "lat": 38.927214666666664, "is_reserved": 0, "is_disabled": 0, "fusion_lat": 0.0}, {"fusion_lon": 0.0, "bike_id": "fe2761ba14774f22741dbd4b5a7169d9", "name": "fe2761ba14774f22741dbd4b5a7169d9", "type": "electric_scooter", "lon": -77.03860216666666, "rental_uris": {"android": "https://dc.lft.to/lastmile_qr_scan", "ios": "https://dc.lft.to/lastmile_qr_scan"}, "lat": 38.91811883333333, "is_reserved": 0, "is_disabled": 0, "fusion_lat": 0.0}, {"fusion_lon": 0.0, "bike_id": "28ff78a7468debe4e6523837be45ca12", "name": "28ff78a7468debe4e6523837be45ca12", "type": "electric_scooter", "lon": -77.00744766666666, "rental_uris": {"android": "https://dc.lft.to/lastmile_qr_scan", "ios": "https://dc.lft.to/lastmile_qr_scan"}, "lat": 38.87661216666667, "is_reserved": 0, "is_disabled": 0, "fusion_lat": 0.0}, {"fusion_lon": 0.0, "bike_id": "4d772c80ba4e2b191d06b38f307a7bc5", "name": "4d772c80ba4e2b191d06b38f307a7bc5", "type": "electric_scooter", "lon": -77.02694483333333, "rental_uris": {"android": "https://dc.lft.to/lastmile_qr_scan", "ios": "https://dc.lft.to/lastmile_qr_scan"}, "lat": 38.90738616666667, "is_reserved": 0, "is_disabled": 0, "fusion_lat": 0.0}, {"fusion_lon": 0.0, "bike_id": "ff53193e27c5985fa792be21a796aa67", "name": "ff53193e27c5985fa792be21a796aa67", "type": "electric_scooter", "lon": -77.00650366666666, "rental_uris": {"android": "https://dc.lft.to/lastmile_qr_scan", "ios": "https://dc.lft.to/lastmile_qr_scan"}, "lat": 38.911802, "is_reserved": 0, "is_disabled": 0, "fusion_lat": 0.0}, {"fusion_lon": 0.0, "bike_id": "6ac126eab98341cfb360ead9f34d9cf5", "name": "6ac126eab98341cfb360ead9f34d9cf5", "type": "electric_scooter", "lon": -77.054269, "rental_uris": {"android": "https://dc.lft.to/lastmile_qr_scan", "ios": "https://dc.lft.to/lastmile_qr_scan"}, "lat": 38.92807416666667, "is_reserved": 0, "is_disabled": 0, "fusion_lat": 0.0}, {"fusion_lon": 0.0, "bike_id": "1805067bc8c73467b5601ce39ae0b2c5", "name": "1805067bc8c73467b5601ce39ae0b2c5", "type": "electric_bike", "lon": -76.981826, "rental_uris": {"android": "https://dc.lft.to/lastmile_qr_scan", "ios": "https://dc.lft.to/lastmile_qr_scan"}, "lat": 38.98501483333333, "is_reserved": 0, "is_disabled": 0, "fusion_lat": 0.0}, {"fusion_lon": 0.0, "bike_id": "194d9ae2719642f27fc40ab333b67c04", "name": "194d9ae2719642f27fc40ab333b67c04", "type": "electric_scooter", "lon": -77.04400416666667, "rental_uris": {"android": "https://dc.lft.to/lastmile_qr_scan", "ios": "https://dc.lft.to/lastmile_qr_scan"}, "lat": 38.910872, "is_reserved": 0, "is_disabled": 0, "fusion_lat": 0.0}, {"fusion_lon": 0.0, "bike_id": "cf920c50399e77be341b35d325b9cb34", "name": "cf920c50399e77be341b35d325b9cb34", "type": "electric_scooter", "lon": -77.02796883333333, "rental_uris": {"android": "https://dc.lft.to/lastmile_qr_scan", "ios": "https://dc.lft.to/lastmile_qr_scan"}, "lat": 38.930868, "is_reserved": 0, "is_disabled": 0, "fusion_lat": 0.0}, {"fusion_lon": 0.0, "bike_id": "72d3dc0121d71a880fca32ac8055b3bc", "name": "72d3dc0121d71a880fca32ac8055b3bc", "type": "electric_scooter", "lon": -77.00138433333333, "rental_uris": {"android": "https://dc.lft.to/lastmile_qr_scan", "ios": "https://dc.lft.to/lastmile_qr_scan"}, "lat": 38.905140333333335, "is_reserved": 0, "is_disabled": 0, "fusion_lat": 0.0}, {"fusion_lon": 0.0, "bike_id": "3f28390603ba3ba524ba19968b35ff59", "name": "3f28390603ba3ba524ba19968b35ff59", "type": "electric_scooter", "lon": -77.01713716666667, "rental_uris": {"android": "https://dc.lft.to/lastmile_qr_scan", "ios": "https://dc.lft.to/lastmile_qr_scan"}, "lat": 38.9050655, "is_reserved": 0, "is_disabled": 0, "fusion_lat": 0.0}, {"fusion_lon": 0.0, "bike_id": "be0e0deaa453026b422c34a68b9ecc69", "name": "be0e0deaa453026b422c34a68b9ecc69", "type": "electric_scooter", "lon": -76.990097, "rental_uris": {"android": "https://dc.lft.to/lastmile_qr_scan", "ios": "https://dc.lft.to/lastmile_qr_scan"}, "lat": 38.8650585, "is_reserved": 0, "is_disabled": 0, "fusion_lat": 0.0}, {"fusion_lon": 0.0, "bike_id": "8a84523185283d3ac5860f91eca42795", "name": "8a84523185283d3ac5860f91eca42795", "type": "electric_scooter", "lon": -77.04479016666667, "rental_uris": {"android": "https://dc.lft.to/lastmile_qr_scan", "ios": "https://dc.lft.to/lastmile_qr_scan"}, "lat": 38.90850916666667, "is_reserved": 0, "is_disabled": 0, "fusion_lat": 0.0}, {"fusion_lon": 0.0, "bike_id": "11591d5b9b17467ec0b6975884569f45", "name": "11591d5b9b17467ec0b6975884569f45", "type": "electric_scooter", "lon": -77.03308, "rental_uris": {"android": "https://dc.lft.to/lastmile_qr_scan", "ios": "https://dc.lft.to/lastmile_qr_scan"}, "lat": 38.903981333333334, "is_reserved": 0, "is_disabled": 0, "fusion_lat": 0.0}, {"fusion_lon": 0.0, "bike_id": "2ed1fc65a63d72c43c4f34c4fd818ed2", "name": "2ed1fc65a63d72c43c4f34c4fd818ed2", "type": "electric_scooter", "lon": -77.02263083333334, "rental_uris": {"android": "https://dc.lft.to/lastmile_qr_scan", "ios": "https://dc.lft.to/lastmile_qr_scan"}, "lat": 38.94724216666667, "is_reserved": 0, "is_disabled": 0, "fusion_lat": 0.0}, {"fusion_lon": 0.0, "bike_id": "bb54cd245b238c2b778a08a7b475bb95", "name": "bb54cd245b238c2b778a08a7b475bb95", "type": "electric_scooter", "lon": -77.0471895, "rental_uris": {"android": "https://dc.lft.to/lastmile_qr_scan", "ios": "https://dc.lft.to/lastmile_qr_scan"}, "lat": 38.922338833333335, "is_reserved": 0, "is_disabled": 0, "fusion_lat": 0.0}, {"fusion_lon": 0.0, "bike_id": "6143877b75a50d245e9bd67fe64b8f3c", "name": "6143877b75a50d245e9bd67fe64b8f3c", "type": "electric_scooter", "lon": -77.0391865, "rental_uris": {"android": "https://dc.lft.to/lastmile_qr_scan", "ios": "https://dc.lft.to/lastmile_qr_scan"}, "lat": 38.91187166666667, "is_reserved": 0, "is_disabled": 0, "fusion_lat": 0.0}, {"fusion_lon": 0.0, "bike_id": "dc6679a9992cdc6c8018025af0029979", "name": "dc6679a9992cdc6c8018025af0029979", "type": "electric_scooter", "lon": -77.04369016666666, "rental_uris": {"android": "https://dc.lft.to/lastmile_qr_scan", "ios": "https://dc.lft.to/lastmile_qr_scan"}, "lat": 38.89238483333333, "is_reserved": 0, "is_disabled": 0, "fusion_lat": 0.0}, {"fusion_lon": 0.0, "bike_id": "dd28dff789e6c440d89715be000d2420", "name": "dd28dff789e6c440d89715be000d2420", "type": "electric_scooter", "lon": -77.04661416666667, "rental_uris": {"android": "https://dc.lft.to/lastmile_qr_scan", "ios": "https://dc.lft.to/lastmile_qr_scan"}, "lat": 38.90624183333333, "is_reserved": 0, "is_disabled": 0, "fusion_lat": 0.0}, {"fusion_lon": 0.0, "bike_id": "80f1f129ba40989bbae911479ae519a9", "name": "80f1f129ba40989bbae911479ae519a9", "type": "electric_bike", "lon": -76.9809625, "rental_uris": {"android": "https://dc.lft.to/lastmile_qr_scan", "ios": "https://dc.lft.to/lastmile_qr_scan"}, "lat": 38.9535465, "is_reserved": 0, "is_disabled": 0, "fusion_lat": 0.0}, {"fusion_lon": 0.0, "bike_id": "1fe90141222641b50e0dbb8060ab6df0", "name": "1fe90141222641b50e0dbb8060ab6df0", "type": "electric_scooter", "lon": -77.043736, "rental_uris": {"android": "https://dc.lft.to/lastmile_qr_scan", "ios": "https://dc.lft.to/lastmile_qr_scan"}, "lat": 38.92575383333333, "is_reserved": 0, "is_disabled": 0, "fusion_lat": 0.0}, {"fusion_lon": 0.0, "bike_id": "eaeac48212e1643de5006ec9b0eea321", "name": "eaeac48212e1643de5006ec9b0eea321", "type": "electric_scooter", "lon": -76.98706066666666, "rental_uris": {"android": "https://dc.lft.to/lastmile_qr_scan", "ios": "https://dc.lft.to/lastmile_qr_scan"}, "lat": 38.901312, "is_reserved": 0, "is_disabled": 0, "fusion_lat": 0.0}, {"fusion_lon": 0.0, "bike_id": "d3ea3b90514e80c1a79e637e76cfec01", "name": "d3ea3b90514e80c1a79e637e76cfec01", "type": "electric_scooter", "lon": -77.03645883333333, "rental_uris": {"android": "https://dc.lft.to/lastmile_qr_scan", "ios": "https://dc.lft.to/lastmile_qr_scan"}, "lat": 38.924147, "is_reserved": 0, "is_disabled": 0, "fusion_lat": 0.0}, {"fusion_lon": 0.0, "bike_id": "37c0c0652895b329be4a162fd917028e", "name": "37c0c0652895b329be4a162fd917028e", "type": "electric_scooter", "lon": -77.05190766666666, "rental_uris": {"android": "https://dc.lft.to/lastmile_qr_scan", "ios": "https://dc.lft.to/lastmile_qr_scan"}, "lat": 38.92556666666667, "is_reserved": 0, "is_disabled": 0, "fusion_lat": 0.0}, {"fusion_lon": 0.0, "bike_id": "a374c75af33fad8ddfd470589d7d896f", "name": "a374c75af33fad8ddfd470589d7d896f", "type": "electric_scooter", "lon": -77.02275316666666, "rental_uris": {"android": "https://dc.lft.to/lastmile_qr_scan", "ios": "https://dc.lft.to/lastmile_qr_scan"}, "lat": 38.92693533333333, "is_reserved": 0, "is_disabled": 0, "fusion_lat": 0.0}, {"fusion_lon": 0.0, "bike_id": "5e512adc76b20bd74be629577f214829", "name": "5e512adc76b20bd74be629577f214829", "type": "electric_scooter", "lon": -76.99819933333333, "rental_uris": {"android": "https://dc.lft.to/lastmile_qr_scan", "ios": "https://dc.lft.to/lastmile_qr_scan"}, "lat": 38.8443215, "is_reserved": 0, "is_disabled": 0, "fusion_lat": 0.0}, {"fusion_lon": 0.0, "bike_id": "b6ee69ec8a0de971fa0527942b473b91", "name": "b6ee69ec8a0de971fa0527942b473b91", "type": "electric_scooter", "lon": -76.98881683333333, "rental_uris": {"android": "https://dc.lft.to/lastmile_qr_scan", "ios": "https://dc.lft.to/lastmile_qr_scan"}, "lat": 38.9063415, "is_reserved": 0, "is_disabled": 0, "fusion_lat": 0.0}, {"fusion_lon": 0.0, "bike_id": "5b337bb7827c37c6474431d4a1dfe64e", "name": "5b337bb7827c37c6474431d4a1dfe64e", "type": "electric_scooter", "lon": -77.05028183333333, "rental_uris": {"android": "https://dc.lft.to/lastmile_qr_scan", "ios": "https://dc.lft.to/lastmile_qr_scan"}, "lat": 38.905388333333335, "is_reserved": 0, "is_disabled": 0, "fusion_lat": 0.0}, {"fusion_lon": 0.0, "bike_id": "e764f0c5f33b668d6c6a333dcb0208b4", "name": "e764f0c5f33b668d6c6a333dcb0208b4", "type": "electric_scooter", "lon": -77.04662533333334, "rental_uris": {"android": "https://dc.lft.to/lastmile_qr_scan", "ios": "https://dc.lft.to/lastmile_qr_scan"}, "lat": 38.91328166666667, "is_reserved": 0, "is_disabled": 0, "fusion_lat": 0.0}, {"fusion_lon": 0.0, "bike_id": "5b48766af936fd948df24653636ef4bc", "name": "5b48766af936fd948df24653636ef4bc", "type": "electric_scooter", "lon": -77.01220333333333, "rental_uris": {"android": "https://dc.lft.to/lastmile_qr_scan", "ios": "https://dc.lft.to/lastmile_qr_scan"}, "lat": 38.91981533333333, "is_reserved": 0, "is_disabled": 0, "fusion_lat": 0.0}, {"fusion_lon": 0.0, "bike_id": "e015c9893c7cbcfd8b0d72265f13bdb0", "name": "e015c9893c7cbcfd8b0d72265f13bdb0", "type": "electric_scooter", "lon": -77.046582, "rental_uris": {"android": "https://dc.lft.to/lastmile_qr_scan", "ios": "https://dc.lft.to/lastmile_qr_scan"}, "lat": 38.8934185, "is_reserved": 0, "is_disabled": 0, "fusion_lat": 0.0}, {"fusion_lon": 0.0, "bike_id": "d61283e38b96016fdf538db04fc077b1", "name": "d61283e38b96016fdf538db04fc077b1", "type": "electric_bike", "lon": -76.96687483333334, "rental_uris": {"android": "https://dc.lft.to/lastmile_qr_scan", "ios": "https://dc.lft.to/lastmile_qr_scan"}, "lat": 38.958936, "is_reserved": 0, "is_disabled": 0, "fusion_lat": 0.0}, {"fusion_lon": 0.0, "bike_id": "89702d8778384ea4e32fe2490ab3c63f", "name": "89702d8778384ea4e32fe2490ab3c63f", "type": "electric_scooter", "lon": -76.94999583333333, "rental_uris": {"android": "https://dc.lft.to/lastmile_qr_scan", "ios": "https://dc.lft.to/lastmile_qr_scan"}, "lat": 38.89391766666667, "is_reserved": 0, "is_disabled": 0, "fusion_lat": 0.0}, {"fusion_lon": 0.0, "bike_id": "b3d2a193b2ee3be9570dd7ebc7f91f90", "name": "b3d2a193b2ee3be9570dd7ebc7f91f90", "type": "electric_scooter", "lon": -77.02937433333334, "rental_uris": {"android": "https://dc.lft.to/lastmile_qr_scan", "ios": "https://dc.lft.to/lastmile_qr_scan"}, "lat": 38.903622166666665, "is_reserved": 0, "is_disabled": 0, "fusion_lat": 0.0}, {"fusion_lon": 0.0, "bike_id": "8b31f925dcae8a3055cf5ffba1968453", "name": "8b31f925dcae8a3055cf5ffba1968453", "type": "electric_scooter", "lon": -76.95762033333334, "rental_uris": {"android": "https://dc.lft.to/lastmile_qr_scan", "ios": "https://dc.lft.to/lastmile_qr_scan"}, "lat": 38.884336166666664, "is_reserved": 0, "is_disabled": 0, "fusion_lat": 0.0}, {"fusion_lon": 0.0, "bike_id": "1b659a92a90a7369fac7f86e2fe45b02", "name": "1b659a92a90a7369fac7f86e2fe45b02", "type": "electric_scooter", "lon": -77.0115955, "rental_uris": {"android": "https://dc.lft.to/lastmile_qr_scan", "ios": "https://dc.lft.to/lastmile_qr_scan"}, "lat": 38.872017, "is_reserved": 0, "is_disabled": 0, "fusion_lat": 0.0}, {"fusion_lon": 0.0, "bike_id": "32fa68166a95ee154efabcfe45309d27", "name": "32fa68166a95ee154efabcfe45309d27", "type": "electric_scooter", "lon": -77.0321575, "rental_uris": {"android": "https://dc.lft.to/lastmile_qr_scan", "ios": "https://dc.lft.to/lastmile_qr_scan"}, "lat": 38.90897833333333, "is_reserved": 0, "is_disabled": 0, "fusion_lat": 0.0}, {"fusion_lon": 0.0, "bike_id": "28c89ba55b92ea972609317ae6cb204a", "name": "28c89ba55b92ea972609317ae6cb204a", "type": "electric_bike", "lon": -77.01216183333334, "rental_uris": {"android": "https://dc.lft.to/lastmile_qr_scan", "ios": "https://dc.lft.to/lastmile_qr_scan"}, "lat": 38.87092416666667, "is_reserved": 0, "is_disabled": 0, "fusion_lat": 0.0}, {"fusion_lon": 0.0, "bike_id": "ed24e882bc5b59d6dbf84c928c4f8884", "name": "ed24e882bc5b59d6dbf84c928c4f8884", "type": "electric_scooter", "lon": -77.02044783333334, "rental_uris": {"android": "https://dc.lft.to/lastmile_qr_scan", "ios": "https://dc.lft.to/lastmile_qr_scan"}, "lat": 38.91107683333333, "is_reserved": 0, "is_disabled": 0, "fusion_lat": 0.0}, {"fusion_lon": 0.0, "bike_id": "01c339619d5b9df9e9d62353c690927d", "name": "01c339619d5b9df9e9d62353c690927d", "type": "electric_bike", "lon": -77.0805735, "rental_uris": {"android": "https://dc.lft.to/lastmile_qr_scan", "ios": "https://dc.lft.to/lastmile_qr_scan"}, "lat": 38.848471333333336, "is_reserved": 0, "is_disabled": 0, "fusion_lat": 0.0}, {"fusion_lon": 0.0, "bike_id": "7c2ff257a355abc8952d583109c4522d", "name": "7c2ff257a355abc8952d583109c4522d", "type": "electric_scooter", "lon": -77.0634845, "rental_uris": {"android": "https://dc.lft.to/lastmile_qr_scan", "ios": "https://dc.lft.to/lastmile_qr_scan"}, "lat": 38.913400833333334, "is_reserved": 0, "is_disabled": 0, "fusion_lat": 0.0}, {"fusion_lon": 0.0, "bike_id": "b2432bafa1028bb4d957fb0d19ac412c", "name": "b2432bafa1028bb4d957fb0d19ac412c", "type": "electric_scooter", "lon": -77.0177545, "rental_uris": {"android": "https://dc.lft.to/lastmile_qr_scan", "ios": "https://dc.lft.to/lastmile_qr_scan"}, "lat": 38.95636583333334, "is_reserved": 0, "is_disabled": 0, "fusion_lat": 0.0}, {"fusion_lon": 0.0, "bike_id": "ca8049e932ed32ca92d1e8b0fd9ae39e", "name": "ca8049e932ed32ca92d1e8b0fd9ae39e", "type": "electric_bike", "lon": -76.97379766666667, "rental_uris": {"android": "https://dc.lft.to/lastmile_qr_scan", "ios": "https://dc.lft.to/lastmile_qr_scan"}, "lat": 38.998893333333335, "is_reserved": 0, "is_disabled": 0, "fusion_lat": 0.0}, {"fusion_lon": 0.0, "bike_id": "6dabbaf11215940a1669c7dfad4433af", "name": "6dabbaf11215940a1669c7dfad4433af", "type": "electric_scooter", "lon": -77.02297083333333, "rental_uris": {"android": "https://dc.lft.to/lastmile_qr_scan", "ios": "https://dc.lft.to/lastmile_qr_scan"}, "lat": 38.91842333333334, "is_reserved": 0, "is_disabled": 0, "fusion_lat": 0.0}, {"fusion_lon": 0.0, "bike_id": "a7f92e8b3a2dd8043d0f8d5bdfa508e1", "name": "a7f92e8b3a2dd8043d0f8d5bdfa508e1", "type": "electric_bike", "lon": -77.35313266666667, "rental_uris": {"android": "https://dc.lft.to/lastmile_qr_scan", "ios": "https://dc.lft.to/lastmile_qr_scan"}, "lat": 38.950082, "is_reserved": 0, "is_disabled": 0, "fusion_lat": 0.0}, {"fusion_lon": 0.0, "bike_id": "14b8fba8469839edfea40229210c4623", "name": "14b8fba8469839edfea40229210c4623", "type": "electric_scooter", "lon": -77.02402533333333, "rental_uris": {"android": "https://dc.lft.to/lastmile_qr_scan", "ios": "https://dc.lft.to/lastmile_qr_scan"}, "lat": 38.905474, "is_reserved": 0, "is_disabled": 0, "fusion_lat": 0.0}, {"fusion_lon": 0.0, "bike_id": "eded92ca22190f4dbe634dc98632ff65", "name": "eded92ca22190f4dbe634dc98632ff65", "type": "electric_scooter", "lon": -77.02500933333333, "rental_uris": {"android": "https://dc.lft.to/lastmile_qr_scan", "ios": "https://dc.lft.to/lastmile_qr_scan"}, "lat": 38.939106, "is_reserved": 0, "is_disabled": 0, "fusion_lat": 0.0}, {"fusion_lon": 0.0, "bike_id": "7c8b134e13e6eac6c323ac596c7ea6ce", "name": "7c8b134e13e6eac6c323ac596c7ea6ce", "type": "electric_scooter", "lon": -77.03998733333333, "rental_uris": {"android": "https://dc.lft.to/lastmile_qr_scan", "ios": "https://dc.lft.to/lastmile_qr_scan"}, "lat": 38.90151316666667, "is_reserved": 0, "is_disabled": 0, "fusion_lat": 0.0}, {"fusion_lon": 0.0, "bike_id": "c5921a666ab43d018723b8d2b597769e", "name": "c5921a666ab43d018723b8d2b597769e", "type": "electric_scooter", "lon": -77.04497483333333, "rental_uris": {"android": "https://dc.lft.to/lastmile_qr_scan", "ios": "https://dc.lft.to/lastmile_qr_scan"}, "lat": 38.9067325, "is_reserved": 0, "is_disabled": 0, "fusion_lat": 0.0}, {"fusion_lon": 0.0, "bike_id": "ca9ffde4a728be718338fc64efc4e14c", "name": "ca9ffde4a728be718338fc64efc4e14c", "type": "electric_scooter", "lon": -77.022887, "rental_uris": {"android": "https://dc.lft.to/lastmile_qr_scan", "ios": "https://dc.lft.to/lastmile_qr_scan"}, "lat": 38.91765266666667, "is_reserved": 0, "is_disabled": 0, "fusion_lat": 0.0}, {"fusion_lon": 0.0, "bike_id": "530fa5d412b25401072562686763e5ab", "name": "530fa5d412b25401072562686763e5ab", "type": "electric_scooter", "lon": -77.01451333333333, "rental_uris": {"android": "https://dc.lft.to/lastmile_qr_scan", "ios": "https://dc.lft.to/lastmile_qr_scan"}, "lat": 38.919676, "is_reserved": 0, "is_disabled": 0, "fusion_lat": 0.0}, {"fusion_lon": 0.0, "bike_id": "c3edddc4f15a6a71df329c7bcf9c3286", "name": "c3edddc4f15a6a71df329c7bcf9c3286", "type": "electric_scooter", "lon": -77.0364535, "rental_uris": {"android": "https://dc.lft.to/lastmile_qr_scan", "ios": "https://dc.lft.to/lastmile_qr_scan"}, "lat": 38.91226666666667, "is_reserved": 0, "is_disabled": 0, "fusion_lat": 0.0}, {"fusion_lon": 0.0, "bike_id": "3623e94ee76526e096017a386fcee63f", "name": "3623e94ee76526e096017a386fcee63f", "type": "electric_scooter", "lon": -76.9953555, "rental_uris": {"android": "https://dc.lft.to/lastmile_qr_scan", "ios": "https://dc.lft.to/lastmile_qr_scan"}, "lat": 38.900331666666666, "is_reserved": 0, "is_disabled": 0, "fusion_lat": 0.0}, {"fusion_lon": 0.0, "bike_id": "8b4fc48f5b75ec85d40f75e0f3260d56", "name": "8b4fc48f5b75ec85d40f75e0f3260d56", "type": "electric_scooter", "lon": -77.00327966666667, "rental_uris": {"android": "https://dc.lft.to/lastmile_qr_scan", "ios": "https://dc.lft.to/lastmile_qr_scan"}, "lat": 38.902697833333335, "is_reserved": 0, "is_disabled": 0, "fusion_lat": 0.0}, {"fusion_lon": 0.0, "bike_id": "3d05fe0dcc8df32850d7fe63a8ebabd1", "name": "3d05fe0dcc8df32850d7fe63a8ebabd1", "type": "electric_scooter", "lon": -77.04115633333333, "rental_uris": {"android": "https://dc.lft.to/lastmile_qr_scan", "ios": "https://dc.lft.to/lastmile_qr_scan"}, "lat": 38.901392333333334, "is_reserved": 0, "is_disabled": 0, "fusion_lat": 0.0}, {"fusion_lon": 0.0, "bike_id": "dec41bbcd9c52b68b3605bc64037f032", "name": "dec41bbcd9c52b68b3605bc64037f032", "type": "electric_bike", "lon": -76.87774716666667, "rental_uris": {"android": "https://dc.lft.to/lastmile_qr_scan", "ios": "https://dc.lft.to/lastmile_qr_scan"}, "lat": 38.99229016666666, "is_reserved": 0, "is_disabled": 0, "fusion_lat": 0.0}, {"fusion_lon": 0.0, "bike_id": "c7cfe77933155aecdae54de6a140dbb0", "name": "c7cfe77933155aecdae54de6a140dbb0", "type": "electric_bike", "lon": -76.9487095, "rental_uris": {"android": "https://dc.lft.to/lastmile_qr_scan", "ios": "https://dc.lft.to/lastmile_qr_scan"}, "lat": 38.88967366666667, "is_reserved": 0, "is_disabled": 0, "fusion_lat": 0.0}, {"fusion_lon": 0.0, "bike_id": "f0d443a599e77326a02e62236e9e3b0f", "name": "f0d443a599e77326a02e62236e9e3b0f", "type": "electric_scooter", "lon": -76.9489235, "rental_uris": {"android": "https://dc.lft.to/lastmile_qr_scan", "ios": "https://dc.lft.to/lastmile_qr_scan"}, "lat": 38.895138833333334, "is_reserved": 0, "is_disabled": 0, "fusion_lat": 0.0}, {"fusion_lon": 0.0, "bike_id": "bab670a7a891b0d0024aee9ae3048e43", "name": "bab670a7a891b0d0024aee9ae3048e43", "type": "electric_bike", "lon": -76.96392533333334, "rental_uris": {"android": "https://dc.lft.to/lastmile_qr_scan", "ios": "https://dc.lft.to/lastmile_qr_scan"}, "lat": 38.975832, "is_reserved": 0, "is_disabled": 0, "fusion_lat": 0.0}, {"fusion_lon": 0.0, "bike_id": "b1310439c9ebceef7b52a12e4cc4eb69", "name": "b1310439c9ebceef7b52a12e4cc4eb69", "type": "electric_bike", "lon": -77.10725083333334, "rental_uris": {"android": "https://dc.lft.to/lastmile_qr_scan", "ios": "https://dc.lft.to/lastmile_qr_scan"}, "lat": 38.855485, "is_reserved": 0, "is_disabled": 0, "fusion_lat": 0.0}, {"fusion_lon": 0.0, "bike_id": "85c66e09a5600669c34ec3f04f751e55", "name": "85c66e09a5600669c34ec3f04f751e55", "type": "electric_bike", "lon": -76.98525283333333, "rental_uris": {"android": "https://dc.lft.to/lastmile_qr_scan", "ios": "https://dc.lft.to/lastmile_qr_scan"}, "lat": 38.91995933333333, "is_reserved": 0, "is_disabled": 0, "fusion_lat": 0.0}, {"fusion_lon": 0.0, "bike_id": "fe9e67faaf8005ed929c6aa620770b87", "name": "fe9e67faaf8005ed929c6aa620770b87", "type": "electric_scooter", "lon": -77.02420916666667, "rental_uris": {"android": "https://dc.lft.to/lastmile_qr_scan", "ios": "https://dc.lft.to/lastmile_qr_scan"}, "lat": 38.91829083333333, "is_reserved": 0, "is_disabled": 0, "fusion_lat": 0.0}, {"fusion_lon": 0.0, "bike_id": "05e68fd52d00b0be6cdddc5d8a58f0a3", "name": "05e68fd52d00b0be6cdddc5d8a58f0a3", "type": "electric_scooter", "lon": -77.02153933333334, "rental_uris": {"android": "https://dc.lft.to/lastmile_qr_scan", "ios": "https://dc.lft.to/lastmile_qr_scan"}, "lat": 38.92603066666667, "is_reserved": 0, "is_disabled": 0, "fusion_lat": 0.0}, {"fusion_lon": 0.0, "bike_id": "4485c30948ad3e1ac8cf1115a8a0a2cb", "name": "4485c30948ad3e1ac8cf1115a8a0a2cb", "type": "electric_scooter", "lon": -77.06760783333333, "rental_uris": {"android": "https://dc.lft.to/lastmile_qr_scan", "ios": "https://dc.lft.to/lastmile_qr_scan"}, "lat": 38.94973566666667, "is_reserved": 0, "is_disabled": 0, "fusion_lat": 0.0}, {"fusion_lon": 0.0, "bike_id": "456dd9cb61c011b9a103d9115e56de18", "name": "456dd9cb61c011b9a103d9115e56de18", "type": "electric_scooter", "lon": -77.0417495, "rental_uris": {"android": "https://dc.lft.to/lastmile_qr_scan", "ios": "https://dc.lft.to/lastmile_qr_scan"}, "lat": 38.915514333333334, "is_reserved": 0, "is_disabled": 0, "fusion_lat": 0.0}, {"fusion_lon": 0.0, "bike_id": "2a5adf99f917f8b000e996617b328d34", "name": "2a5adf99f917f8b000e996617b328d34", "type": "electric_scooter", "lon": -77.05829316666667, "rental_uris": {"android": "https://dc.lft.to/lastmile_qr_scan", "ios": "https://dc.lft.to/lastmile_qr_scan"}, "lat": 38.935355666666666, "is_reserved": 0, "is_disabled": 0, "fusion_lat": 0.0}, {"fusion_lon": 0.0, "bike_id": "7fbfa783160d49475668b36d27aad078", "name": "7fbfa783160d49475668b36d27aad078", "type": "electric_bike", "lon": -77.00376066666666, "rental_uris": {"android": "https://dc.lft.to/lastmile_qr_scan", "ios": "https://dc.lft.to/lastmile_qr_scan"}, "lat": 38.87951666666667, "is_reserved": 0, "is_disabled": 0, "fusion_lat": 0.0}, {"fusion_lon": 0.0, "bike_id": "f52b69bf06f612496eac842008f6ba46", "name": "f52b69bf06f612496eac842008f6ba46", "type": "electric_scooter", "lon": -77.03856233333333, "rental_uris": {"android": "https://dc.lft.to/lastmile_qr_scan", "ios": "https://dc.lft.to/lastmile_qr_scan"}, "lat": 38.910198, "is_reserved": 0, "is_disabled": 0, "fusion_lat": 0.0}, {"fusion_lon": 0.0, "bike_id": "8f98f6ca820ae5e0bc3f08b260dab9a0", "name": "8f98f6ca820ae5e0bc3f08b260dab9a0", "type": "electric_scooter", "lon": -77.02691, "rental_uris": {"android": "https://dc.lft.to/lastmile_qr_scan", "ios": "https://dc.lft.to/lastmile_qr_scan"}, "lat": 38.908735666666665, "is_reserved": 0, "is_disabled": 0, "fusion_lat": 0.0}, {"fusion_lon": 0.0, "bike_id": "26fe78f2f3f7944e17a5660c98a1de3b", "name": "26fe78f2f3f7944e17a5660c98a1de3b", "type": "electric_bike", "lon": -76.97224366666667, "rental_uris": {"android": "https://dc.lft.to/lastmile_qr_scan", "ios": "https://dc.lft.to/lastmile_qr_scan"}, "lat": 38.844841333333335, "is_reserved": 0, "is_disabled": 0, "fusion_lat": 0.0}, {"fusion_lon": 0.0, "bike_id": "0ab2e44b9afaaacdf76e431894ec389b", "name": "0ab2e44b9afaaacdf76e431894ec389b", "type": "electric_scooter", "lon": -77.034515, "rental_uris": {"android": "https://dc.lft.to/lastmile_qr_scan", "ios": "https://dc.lft.to/lastmile_qr_scan"}, "lat": 38.90674933333333, "is_reserved": 0, "is_disabled": 0, "fusion_lat": 0.0}, {"fusion_lon": 0.0, "bike_id": "0bb3f6cdb32e92b14d82e296260b7190", "name": "0bb3f6cdb32e92b14d82e296260b7190", "type": "electric_scooter", "lon": -77.01698466666667, "rental_uris": {"android": "https://dc.lft.to/lastmile_qr_scan", "ios": "https://dc.lft.to/lastmile_qr_scan"}, "lat": 38.974971333333336, "is_reserved": 0, "is_disabled": 0, "fusion_lat": 0.0}, {"fusion_lon": 0.0, "bike_id": "d14c37b62aae31e8f1a8dfee3333cff6", "name": "d14c37b62aae31e8f1a8dfee3333cff6", "type": "electric_scooter", "lon": -77.0216335, "rental_uris": {"android": "https://dc.lft.to/lastmile_qr_scan", "ios": "https://dc.lft.to/lastmile_qr_scan"}, "lat": 38.9260745, "is_reserved": 0, "is_disabled": 0, "fusion_lat": 0.0}, {"fusion_lon": 0.0, "bike_id": "d41c787914fc9203732464fb6696dadd", "name": "d41c787914fc9203732464fb6696dadd", "type": "electric_scooter", "lon": -76.97341116666666, "rental_uris": {"android": "https://dc.lft.to/lastmile_qr_scan", "ios": "https://dc.lft.to/lastmile_qr_scan"}, "lat": 38.86515466666667, "is_reserved": 0, "is_disabled": 0, "fusion_lat": 0.0}, {"fusion_lon": 0.0, "bike_id": "76d147ddf18626f338fe5a1172f70b62", "name": "76d147ddf18626f338fe5a1172f70b62", "type": "electric_scooter", "lon": -77.01696283333334, "rental_uris": {"android": "https://dc.lft.to/lastmile_qr_scan", "ios": "https://dc.lft.to/lastmile_qr_scan"}, "lat": 38.974994, "is_reserved": 0, "is_disabled": 0, "fusion_lat": 0.0}, {"fusion_lon": 0.0, "bike_id": "524103b9c28bb9e33fa57c4b46f69061", "name": "524103b9c28bb9e33fa57c4b46f69061", "type": "electric_scooter", "lon": -77.01395616666667, "rental_uris": {"android": "https://dc.lft.to/lastmile_qr_scan", "ios": "https://dc.lft.to/lastmile_qr_scan"}, "lat": 38.92848816666667, "is_reserved": 0, "is_disabled": 0, "fusion_lat": 0.0}, {"fusion_lon": 0.0, "bike_id": "81b64ae471b99ceb942519738b321589", "name": "81b64ae471b99ceb942519738b321589", "type": "electric_scooter", "lon": -77.03548016666667, "rental_uris": {"android": "https://dc.lft.to/lastmile_qr_scan", "ios": "https://dc.lft.to/lastmile_qr_scan"}, "lat": 38.923404, "is_reserved": 0, "is_disabled": 0, "fusion_lat": 0.0}, {"fusion_lon": 0.0, "bike_id": "7eee8a6b993d5298051f110054a0f1a2", "name": "7eee8a6b993d5298051f110054a0f1a2", "type": "electric_scooter", "lon": -77.05133833333333, "rental_uris": {"android": "https://dc.lft.to/lastmile_qr_scan", "ios": "https://dc.lft.to/lastmile_qr_scan"}, "lat": 38.90717316666667, "is_reserved": 0, "is_disabled": 0, "fusion_lat": 0.0}, {"fusion_lon": 0.0, "bike_id": "0d64b69593790f5d9b0bfec51b70bc9a", "name": "0d64b69593790f5d9b0bfec51b70bc9a", "type": "electric_scooter", "lon": -77.00961016666666, "rental_uris": {"android": "https://dc.lft.to/lastmile_qr_scan", "ios": "https://dc.lft.to/lastmile_qr_scan"}, "lat": 38.876678166666665, "is_reserved": 0, "is_disabled": 0, "fusion_lat": 0.0}, {"fusion_lon": 0.0, "bike_id": "3c7a852abde17b604031985973bd06f5", "name": "3c7a852abde17b604031985973bd06f5", "type": "electric_scooter", "lon": -77.037949, "rental_uris": {"android": "https://dc.lft.to/lastmile_qr_scan", "ios": "https://dc.lft.to/lastmile_qr_scan"}, "lat": 38.935993, "is_reserved": 0, "is_disabled": 0, "fusion_lat": 0.0}, {"fusion_lon": 0.0, "bike_id": "aa6e4d15fe3ebc9e95957e2b9281a00a", "name": "aa6e4d15fe3ebc9e95957e2b9281a00a", "type": "electric_scooter", "lon": -77.02391716666666, "rental_uris": {"android": "https://dc.lft.to/lastmile_qr_scan", "ios": "https://dc.lft.to/lastmile_qr_scan"}, "lat": 38.920757333333334, "is_reserved": 0, "is_disabled": 0, "fusion_lat": 0.0}, {"fusion_lon": 0.0, "bike_id": "4cce961547c1a8dc30c3234df9269689", "name": "4cce961547c1a8dc30c3234df9269689", "type": "electric_scooter", "lon": -76.94247933333334, "rental_uris": {"android": "https://dc.lft.to/lastmile_qr_scan", "ios": "https://dc.lft.to/lastmile_qr_scan"}, "lat": 38.88997366666667, "is_reserved": 0, "is_disabled": 0, "fusion_lat": 0.0}, {"fusion_lon": 0.0, "bike_id": "9aec30ddf5a550b4016cc87abc9cb726", "name": "9aec30ddf5a550b4016cc87abc9cb726", "type": "electric_scooter", "lon": -77.0034685, "rental_uris": {"android": "https://dc.lft.to/lastmile_qr_scan", "ios": "https://dc.lft.to/lastmile_qr_scan"}, "lat": 38.92276583333334, "is_reserved": 0, "is_disabled": 0, "fusion_lat": 0.0}, {"fusion_lon": 0.0, "bike_id": "a9719dd0b01fa98c83e5fb91cfcd03da", "name": "a9719dd0b01fa98c83e5fb91cfcd03da", "type": "electric_bike", "lon": -76.909557, "rental_uris": {"android": "https://dc.lft.to/lastmile_qr_scan", "ios": "https://dc.lft.to/lastmile_qr_scan"}, "lat": 38.85416016666667, "is_reserved": 0, "is_disabled": 0, "fusion_lat": 0.0}, {"fusion_lon": 0.0, "bike_id": "e6bc1b776e12bce104dc7fdf5de504eb", "name": "e6bc1b776e12bce104dc7fdf5de504eb", "type": "electric_scooter", "lon": -77.06265116666667, "rental_uris": {"android": "https://dc.lft.to/lastmile_qr_scan", "ios": "https://dc.lft.to/lastmile_qr_scan"}, "lat": 38.9052505, "is_reserved": 0, "is_disabled": 0, "fusion_lat": 0.0}, {"fusion_lon": 0.0, "bike_id": "e93e6f4f04fecd585b4dc083efac0a3c", "name": "e93e6f4f04fecd585b4dc083efac0a3c", "type": "electric_scooter", "lon": -77.06106933333334, "rental_uris": {"android": "https://dc.lft.to/lastmile_qr_scan", "ios": "https://dc.lft.to/lastmile_qr_scan"}, "lat": 38.943707333333336, "is_reserved": 0, "is_disabled": 0, "fusion_lat": 0.0}, {"fusion_lon": 0.0, "bike_id": "e3394c07c5a24fff83a224451b2837bc", "name": "e3394c07c5a24fff83a224451b2837bc", "type": "electric_scooter", "lon": -77.007578, "rental_uris": {"android": "https://dc.lft.to/lastmile_qr_scan", "ios": "https://dc.lft.to/lastmile_qr_scan"}, "lat": 38.90375316666667, "is_reserved": 0, "is_disabled": 0, "fusion_lat": 0.0}, {"fusion_lon": 0.0, "bike_id": "885ff08089dfe1cf534fcb58f4d24ae7", "name": "885ff08089dfe1cf534fcb58f4d24ae7", "type": "electric_scooter", "lon": -77.03064183333333, "rental_uris": {"android": "https://dc.lft.to/lastmile_qr_scan", "ios": "https://dc.lft.to/lastmile_qr_scan"}, "lat": 38.901357, "is_reserved": 0, "is_disabled": 0, "fusion_lat": 0.0}, {"fusion_lon": 0.0, "bike_id": "fa1d892d787fec472e6041dc4a47ccd0", "name": "fa1d892d787fec472e6041dc4a47ccd0", "type": "electric_scooter", "lon": -77.03216633333334, "rental_uris": {"android": "https://dc.lft.to/lastmile_qr_scan", "ios": "https://dc.lft.to/lastmile_qr_scan"}, "lat": 38.8874355, "is_reserved": 0, "is_disabled": 0, "fusion_lat": 0.0}, {"fusion_lon": 0.0, "bike_id": "009e71a985097f2ce3af7b2341510c2e", "name": "009e71a985097f2ce3af7b2341510c2e", "type": "electric_scooter", "lon": -77.00835183333334, "rental_uris": {"android": "https://dc.lft.to/lastmile_qr_scan", "ios": "https://dc.lft.to/lastmile_qr_scan"}, "lat": 38.876401333333334, "is_reserved": 0, "is_disabled": 0, "fusion_lat": 0.0}, {"fusion_lon": 0.0, "bike_id": "4cfaecf8a5e5e710ae0885f56c62de2a", "name": "4cfaecf8a5e5e710ae0885f56c62de2a", "type": "electric_scooter", "lon": -76.9366605, "rental_uris": {"android": "https://dc.lft.to/lastmile_qr_scan", "ios": "https://dc.lft.to/lastmile_qr_scan"}, "lat": 38.88962266666667, "is_reserved": 0, "is_disabled": 0, "fusion_lat": 0.0}, {"fusion_lon": 0.0, "bike_id": "85eb8dfd8c4d93ecbc76088940c0484c", "name": "85eb8dfd8c4d93ecbc76088940c0484c", "type": "electric_scooter", "lon": -77.01204983333334, "rental_uris": {"android": "https://dc.lft.to/lastmile_qr_scan", "ios": "https://dc.lft.to/lastmile_qr_scan"}, "lat": 38.8953475, "is_reserved": 0, "is_disabled": 0, "fusion_lat": 0.0}, {"fusion_lon": 0.0, "bike_id": "572e317558a55aed94ddf4bce9313d9d", "name": "572e317558a55aed94ddf4bce9313d9d", "type": "electric_scooter", "lon": -77.03159583333333, "rental_uris": {"android": "https://dc.lft.to/lastmile_qr_scan", "ios": "https://dc.lft.to/lastmile_qr_scan"}, "lat": 38.928109, "is_reserved": 0, "is_disabled": 0, "fusion_lat": 0.0}, {"fusion_lon": 0.0, "bike_id": "b9de2cf545144eb6623310e3367ad1ac", "name": "b9de2cf545144eb6623310e3367ad1ac", "type": "electric_scooter", "lon": -77.01443583333334, "rental_uris": {"android": "https://dc.lft.to/lastmile_qr_scan", "ios": "https://dc.lft.to/lastmile_qr_scan"}, "lat": 38.87780933333333, "is_reserved": 0, "is_disabled": 0, "fusion_lat": 0.0}, {"fusion_lon": 0.0, "bike_id": "32a9fcc0b343389ede6a99f1d02101ea", "name": "32a9fcc0b343389ede6a99f1d02101ea", "type": "electric_bike", "lon": -76.98745416666667, "rental_uris": {"android": "https://dc.lft.to/lastmile_qr_scan", "ios": "https://dc.lft.to/lastmile_qr_scan"}, "lat": 38.988222666666665, "is_reserved": 0, "is_disabled": 0, "fusion_lat": 0.0}, {"fusion_lon": 0.0, "bike_id": "95bd3f1fc91817218bc745a985b4b39a", "name": "95bd3f1fc91817218bc745a985b4b39a", "type": "electric_scooter", "lon": -77.02187933333333, "rental_uris": {"android": "https://dc.lft.to/lastmile_qr_scan", "ios": "https://dc.lft.to/lastmile_qr_scan"}, "lat": 38.910125666666666, "is_reserved": 0, "is_disabled": 0, "fusion_lat": 0.0}, {"fusion_lon": 0.0, "bike_id": "81bf9672ae7b6aae8a9070752f8ed222", "name": "81bf9672ae7b6aae8a9070752f8ed222", "type": "electric_scooter", "lon": -77.005262, "rental_uris": {"android": "https://dc.lft.to/lastmile_qr_scan", "ios": "https://dc.lft.to/lastmile_qr_scan"}, "lat": 38.87475366666666, "is_reserved": 0, "is_disabled": 0, "fusion_lat": 0.0}, {"fusion_lon": 0.0, "bike_id": "2f151eb93a5b4c201f920c14c75616e4", "name": "2f151eb93a5b4c201f920c14c75616e4", "type": "electric_scooter", "lon": -77.031893, "rental_uris": {"android": "https://dc.lft.to/lastmile_qr_scan", "ios": "https://dc.lft.to/lastmile_qr_scan"}, "lat": 38.9180505, "is_reserved": 0, "is_disabled": 0, "fusion_lat": 0.0}, {"fusion_lon": 0.0, "bike_id": "28bcd47b5cdff96307007c6db299b6a0", "name": "28bcd47b5cdff96307007c6db299b6a0", "type": "electric_scooter", "lon": -77.0314745, "rental_uris": {"android": "https://dc.lft.to/lastmile_qr_scan", "ios": "https://dc.lft.to/lastmile_qr_scan"}, "lat": 38.931926, "is_reserved": 0, "is_disabled": 0, "fusion_lat": 0.0}, {"fusion_lon": 0.0, "bike_id": "3f814df130fac3c7ce4ace7f4c664b49", "name": "3f814df130fac3c7ce4ace7f4c664b49", "type": "electric_scooter", "lon": -76.9375505, "rental_uris": {"android": "https://dc.lft.to/lastmile_qr_scan", "ios": "https://dc.lft.to/lastmile_qr_scan"}, "lat": 38.890376833333335, "is_reserved": 0, "is_disabled": 0, "fusion_lat": 0.0}, {"fusion_lon": 0.0, "bike_id": "484e4e82850158ca3360b3676f51de01", "name": "484e4e82850158ca3360b3676f51de01", "type": "electric_scooter", "lon": -76.97800366666667, "rental_uris": {"android": "https://dc.lft.to/lastmile_qr_scan", "ios": "https://dc.lft.to/lastmile_qr_scan"}, "lat": 38.9031845, "is_reserved": 0, "is_disabled": 0, "fusion_lat": 0.0}, {"fusion_lon": 0.0, "bike_id": "073cacc4dda1cca007cb53d0104b8c86", "name": "073cacc4dda1cca007cb53d0104b8c86", "type": "electric_scooter", "lon": -76.99966783333333, "rental_uris": {"android": "https://dc.lft.to/lastmile_qr_scan", "ios": "https://dc.lft.to/lastmile_qr_scan"}, "lat": 38.90869933333333, "is_reserved": 0, "is_disabled": 0, "fusion_lat": 0.0}, {"fusion_lon": 0.0, "bike_id": "95b8dca643173d3d2a3c49f95871d84b", "name": "95b8dca643173d3d2a3c49f95871d84b", "type": "electric_scooter", "lon": -76.99631866666667, "rental_uris": {"android": "https://dc.lft.to/lastmile_qr_scan", "ios": "https://dc.lft.to/lastmile_qr_scan"}, "lat": 38.846196, "is_reserved": 0, "is_disabled": 0, "fusion_lat": 0.0}, {"fusion_lon": 0.0, "bike_id": "c99346b3cee4b471d777e0384f5484c2", "name": "c99346b3cee4b471d777e0384f5484c2", "type": "electric_scooter", "lon": -77.04660216666667, "rental_uris": {"android": "https://dc.lft.to/lastmile_qr_scan", "ios": "https://dc.lft.to/lastmile_qr_scan"}, "lat": 38.89233983333333, "is_reserved": 0, "is_disabled": 0, "fusion_lat": 0.0}, {"fusion_lon": 0.0, "bike_id": "6551f5d080b4d950905656ae87da857c", "name": "6551f5d080b4d950905656ae87da857c", "type": "electric_scooter", "lon": -77.05081566666667, "rental_uris": {"android": "https://dc.lft.to/lastmile_qr_scan", "ios": "https://dc.lft.to/lastmile_qr_scan"}, "lat": 38.90070466666667, "is_reserved": 0, "is_disabled": 0, "fusion_lat": 0.0}, {"fusion_lon": 0.0, "bike_id": "852acebdb5827ff014a74811ed13d5a5", "name": "852acebdb5827ff014a74811ed13d5a5", "type": "electric_scooter", "lon": -77.01756333333333, "rental_uris": {"android": "https://dc.lft.to/lastmile_qr_scan", "ios": "https://dc.lft.to/lastmile_qr_scan"}, "lat": 38.921226833333336, "is_reserved": 0, "is_disabled": 0, "fusion_lat": 0.0}, {"fusion_lon": 0.0, "bike_id": "d38d7acf419cd009b1e9492c970b382d", "name": "d38d7acf419cd009b1e9492c970b382d", "type": "electric_scooter", "lon": -77.0319755, "rental_uris": {"android": "https://dc.lft.to/lastmile_qr_scan", "ios": "https://dc.lft.to/lastmile_qr_scan"}, "lat": 38.92059283333333, "is_reserved": 0, "is_disabled": 0, "fusion_lat": 0.0}, {"fusion_lon": 0.0, "bike_id": "2bfd26a3773f2dfa26144a85d2116808", "name": "2bfd26a3773f2dfa26144a85d2116808", "type": "electric_scooter", "lon": -77.04685866666667, "rental_uris": {"android": "https://dc.lft.to/lastmile_qr_scan", "ios": "https://dc.lft.to/lastmile_qr_scan"}, "lat": 38.903332666666664, "is_reserved": 0, "is_disabled": 0, "fusion_lat": 0.0}, {"fusion_lon": 0.0, "bike_id": "39f9415e1c1822a525d9e1fac2f1b585", "name": "39f9415e1c1822a525d9e1fac2f1b585", "type": "electric_scooter", "lon": -76.98783566666667, "rental_uris": {"android": "https://dc.lft.to/lastmile_qr_scan", "ios": "https://dc.lft.to/lastmile_qr_scan"}, "lat": 38.8982855, "is_reserved": 0, "is_disabled": 0, "fusion_lat": 0.0}, {"fusion_lon": 0.0, "bike_id": "d23a0d70d8887a45b22ac514741deed7", "name": "d23a0d70d8887a45b22ac514741deed7", "type": "electric_scooter", "lon": -77.04627033333334, "rental_uris": {"android": "https://dc.lft.to/lastmile_qr_scan", "ios": "https://dc.lft.to/lastmile_qr_scan"}, "lat": 38.91807883333333, "is_reserved": 0, "is_disabled": 0, "fusion_lat": 0.0}, {"fusion_lon": 0.0, "bike_id": "4efa4caac151d1519a0ed9c47063ec4a", "name": "4efa4caac151d1519a0ed9c47063ec4a", "type": "electric_scooter", "lon": -76.98726016666667, "rental_uris": {"android": "https://dc.lft.to/lastmile_qr_scan", "ios": "https://dc.lft.to/lastmile_qr_scan"}, "lat": 38.8671565, "is_reserved": 0, "is_disabled": 0, "fusion_lat": 0.0}, {"fusion_lon": 0.0, "bike_id": "8d31165c0b394d5b7ce0dbb102a1da8b", "name": "8d31165c0b394d5b7ce0dbb102a1da8b", "type": "electric_bike", "lon": -77.01458433333333, "rental_uris": {"android": "https://dc.lft.to/lastmile_qr_scan", "ios": "https://dc.lft.to/lastmile_qr_scan"}, "lat": 38.876821, "is_reserved": 0, "is_disabled": 0, "fusion_lat": 0.0}, {"fusion_lon": 0.0, "bike_id": "71b5c9f58070dc79855174a5b3c5de83", "name": "71b5c9f58070dc79855174a5b3c5de83", "type": "electric_bike", "lon": -77.08811383333334, "rental_uris": {"android": "https://dc.lft.to/lastmile_qr_scan", "ios": "https://dc.lft.to/lastmile_qr_scan"}, "lat": 38.831769333333334, "is_reserved": 0, "is_disabled": 0, "fusion_lat": 0.0}, {"fusion_lon": 0.0, "bike_id": "b0f00583b71d40bf1d26e93d6b6668e7", "name": "b0f00583b71d40bf1d26e93d6b6668e7", "type": "electric_bike", "lon": -76.952078, "rental_uris": {"android": "https://dc.lft.to/lastmile_qr_scan", "ios": "https://dc.lft.to/lastmile_qr_scan"}, "lat": 38.936729, "is_reserved": 0, "is_disabled": 0, "fusion_lat": 0.0}, {"fusion_lon": 0.0, "bike_id": "b19748b49a5c52e5aa1b1e067d12aa4c", "name": "b19748b49a5c52e5aa1b1e067d12aa4c", "type": "electric_scooter", "lon": -77.02351933333334, "rental_uris": {"android": "https://dc.lft.to/lastmile_qr_scan", "ios": "https://dc.lft.to/lastmile_qr_scan"}, "lat": 38.9226405, "is_reserved": 0, "is_disabled": 0, "fusion_lat": 0.0}, {"fusion_lon": 0.0, "bike_id": "9546f8ac75c34d3345e8efb467a22ddf", "name": "9546f8ac75c34d3345e8efb467a22ddf", "type": "electric_scooter", "lon": -77.0102485, "rental_uris": {"android": "https://dc.lft.to/lastmile_qr_scan", "ios": "https://dc.lft.to/lastmile_qr_scan"}, "lat": 38.906287166666665, "is_reserved": 0, "is_disabled": 0, "fusion_lat": 0.0}, {"fusion_lon": 0.0, "bike_id": "a18b3c1a7af72dd2d53de57735436a06", "name": "a18b3c1a7af72dd2d53de57735436a06", "type": "electric_scooter", "lon": -77.02965133333333, "rental_uris": {"android": "https://dc.lft.to/lastmile_qr_scan", "ios": "https://dc.lft.to/lastmile_qr_scan"}, "lat": 38.928526, "is_reserved": 0, "is_disabled": 0, "fusion_lat": 0.0}, {"fusion_lon": 0.0, "bike_id": "2d9626cd7826f4fbc57f4ab061ce9dd6", "name": "2d9626cd7826f4fbc57f4ab061ce9dd6", "type": "electric_scooter", "lon": -77.02468416666666, "rental_uris": {"android": "https://dc.lft.to/lastmile_qr_scan", "ios": "https://dc.lft.to/lastmile_qr_scan"}, "lat": 38.938440166666666, "is_reserved": 0, "is_disabled": 0, "fusion_lat": 0.0}, {"fusion_lon": 0.0, "bike_id": "2375c12a58121825b172b8f70c231056", "name": "2375c12a58121825b172b8f70c231056", "type": "electric_scooter", "lon": -77.04336766666667, "rental_uris": {"android": "https://dc.lft.to/lastmile_qr_scan", "ios": "https://dc.lft.to/lastmile_qr_scan"}, "lat": 38.89815816666667, "is_reserved": 0, "is_disabled": 0, "fusion_lat": 0.0}, {"fusion_lon": 0.0, "bike_id": "63b8259f78dee631d321d0987d0c9ecc", "name": "63b8259f78dee631d321d0987d0c9ecc", "type": "electric_scooter", "lon": -77.04489783333334, "rental_uris": {"android": "https://dc.lft.to/lastmile_qr_scan", "ios": "https://dc.lft.to/lastmile_qr_scan"}, "lat": 38.918671833333335, "is_reserved": 0, "is_disabled": 0, "fusion_lat": 0.0}, {"fusion_lon": 0.0, "bike_id": "3a23602bf372b4911959a27894ea11fb", "name": "3a23602bf372b4911959a27894ea11fb", "type": "electric_scooter", "lon": -77.02414366666666, "rental_uris": {"android": "https://dc.lft.to/lastmile_qr_scan", "ios": "https://dc.lft.to/lastmile_qr_scan"}, "lat": 38.9349015, "is_reserved": 0, "is_disabled": 0, "fusion_lat": 0.0}, {"fusion_lon": 0.0, "bike_id": "5585177f103c6e8e16e3a1d41a0c0961", "name": "5585177f103c6e8e16e3a1d41a0c0961", "type": "electric_scooter", "lon": -77.03630666666666, "rental_uris": {"android": "https://dc.lft.to/lastmile_qr_scan", "ios": "https://dc.lft.to/lastmile_qr_scan"}, "lat": 38.93665383333333, "is_reserved": 0, "is_disabled": 0, "fusion_lat": 0.0}, {"fusion_lon": 0.0, "bike_id": "1b3d068cdc92ac6b2be14a078081c105", "name": "1b3d068cdc92ac6b2be14a078081c105", "type": "electric_scooter", "lon": -77.0478695, "rental_uris": {"android": "https://dc.lft.to/lastmile_qr_scan", "ios": "https://dc.lft.to/lastmile_qr_scan"}, "lat": 38.897772, "is_reserved": 0, "is_disabled": 0, "fusion_lat": 0.0}, {"fusion_lon": 0.0, "bike_id": "5ae58cb55f40713fa93545590f823d7c", "name": "5ae58cb55f40713fa93545590f823d7c", "type": "electric_scooter", "lon": -77.00589733333334, "rental_uris": {"android": "https://dc.lft.to/lastmile_qr_scan", "ios": "https://dc.lft.to/lastmile_qr_scan"}, "lat": 38.871763666666666, "is_reserved": 0, "is_disabled": 0, "fusion_lat": 0.0}, {"fusion_lon": 0.0, "bike_id": "30e5b508551af814575b98913a1f184a", "name": "30e5b508551af814575b98913a1f184a", "type": "electric_scooter", "lon": -77.02217216666666, "rental_uris": {"android": "https://dc.lft.to/lastmile_qr_scan", "ios": "https://dc.lft.to/lastmile_qr_scan"}, "lat": 38.912713833333335, "is_reserved": 0, "is_disabled": 0, "fusion_lat": 0.0}, {"fusion_lon": 0.0, "bike_id": "a64768439cdecccccd8e0b82705ac134", "name": "a64768439cdecccccd8e0b82705ac134", "type": "electric_scooter", "lon": -77.01774816666666, "rental_uris": {"android": "https://dc.lft.to/lastmile_qr_scan", "ios": "https://dc.lft.to/lastmile_qr_scan"}, "lat": 38.900326, "is_reserved": 0, "is_disabled": 0, "fusion_lat": 0.0}, {"fusion_lon": 0.0, "bike_id": "92efde53454287aed44dfbc246559b5e", "name": "92efde53454287aed44dfbc246559b5e", "type": "electric_scooter", "lon": -77.07809416666667, "rental_uris": {"android": "https://dc.lft.to/lastmile_qr_scan", "ios": "https://dc.lft.to/lastmile_qr_scan"}, "lat": 38.9245755, "is_reserved": 0, "is_disabled": 0, "fusion_lat": 0.0}, {"fusion_lon": 0.0, "bike_id": "d089e9f5ea9c053809976adf3f64cdc1", "name": "d089e9f5ea9c053809976adf3f64cdc1", "type": "electric_scooter", "lon": -77.0325685, "rental_uris": {"android": "https://dc.lft.to/lastmile_qr_scan", "ios": "https://dc.lft.to/lastmile_qr_scan"}, "lat": 38.9148715, "is_reserved": 0, "is_disabled": 0, "fusion_lat": 0.0}, {"fusion_lon": 0.0, "bike_id": "6445e1549d5a047e0e13aa2128ac5c3d", "name": "6445e1549d5a047e0e13aa2128ac5c3d", "type": "electric_scooter", "lon": -77.032657, "rental_uris": {"android": "https://dc.lft.to/lastmile_qr_scan", "ios": "https://dc.lft.to/lastmile_qr_scan"}, "lat": 38.93524883333333, "is_reserved": 0, "is_disabled": 0, "fusion_lat": 0.0}, {"fusion_lon": 0.0, "bike_id": "2e17e808cb270224f192457bcbdeae3d", "name": "2e17e808cb270224f192457bcbdeae3d", "type": "electric_scooter", "lon": -77.03662433333334, "rental_uris": {"android": "https://dc.lft.to/lastmile_qr_scan", "ios": "https://dc.lft.to/lastmile_qr_scan"}, "lat": 38.911362833333335, "is_reserved": 0, "is_disabled": 0, "fusion_lat": 0.0}, {"fusion_lon": 0.0, "bike_id": "706161db628a1515a89840036efaca3b", "name": "706161db628a1515a89840036efaca3b", "type": "electric_scooter", "lon": -77.004556, "rental_uris": {"android": "https://dc.lft.to/lastmile_qr_scan", "ios": "https://dc.lft.to/lastmile_qr_scan"}, "lat": 38.92900566666667, "is_reserved": 0, "is_disabled": 0, "fusion_lat": 0.0}, {"fusion_lon": 0.0, "bike_id": "7e2fb6ca3bddb689a81160d88ccebb33", "name": "7e2fb6ca3bddb689a81160d88ccebb33", "type": "electric_scooter", "lon": -77.0317845, "rental_uris": {"android": "https://dc.lft.to/lastmile_qr_scan", "ios": "https://dc.lft.to/lastmile_qr_scan"}, "lat": 38.89338166666667, "is_reserved": 0, "is_disabled": 0, "fusion_lat": 0.0}, {"fusion_lon": 0.0, "bike_id": "03615ff19bc85293b1229b1da099a5ef", "name": "03615ff19bc85293b1229b1da099a5ef", "type": "electric_scooter", "lon": -77.03963183333333, "rental_uris": {"android": "https://dc.lft.to/lastmile_qr_scan", "ios": "https://dc.lft.to/lastmile_qr_scan"}, "lat": 38.926131833333336, "is_reserved": 0, "is_disabled": 0, "fusion_lat": 0.0}, {"fusion_lon": 0.0, "bike_id": "b15a6d80af5921318cc4973bbf70674a", "name": "b15a6d80af5921318cc4973bbf70674a", "type": "electric_scooter", "lon": -77.02227066666667, "rental_uris": {"android": "https://dc.lft.to/lastmile_qr_scan", "ios": "https://dc.lft.to/lastmile_qr_scan"}, "lat": 38.93557233333333, "is_reserved": 0, "is_disabled": 0, "fusion_lat": 0.0}, {"fusion_lon": 0.0, "bike_id": "a37e00c1b949a5448a2c94e60a4ccc03", "name": "a37e00c1b949a5448a2c94e60a4ccc03", "type": "electric_bike", "lon": -76.9076935, "rental_uris": {"android": "https://dc.lft.to/lastmile_qr_scan", "ios": "https://dc.lft.to/lastmile_qr_scan"}, "lat": 38.924392166666664, "is_reserved": 0, "is_disabled": 0, "fusion_lat": 0.0}, {"fusion_lon": 0.0, "bike_id": "f060f421e180f2e99f6dab1735792264", "name": "f060f421e180f2e99f6dab1735792264", "type": "electric_scooter", "lon": -77.02796066666667, "rental_uris": {"android": "https://dc.lft.to/lastmile_qr_scan", "ios": "https://dc.lft.to/lastmile_qr_scan"}, "lat": 38.91214316666667, "is_reserved": 0, "is_disabled": 0, "fusion_lat": 0.0}, {"fusion_lon": 0.0, "bike_id": "63ca46fe82dd4baa4e4d6e4bddf9c5ac", "name": "63ca46fe82dd4baa4e4d6e4bddf9c5ac", "type": "electric_scooter", "lon": -77.04681883333333, "rental_uris": {"android": "https://dc.lft.to/lastmile_qr_scan", "ios": "https://dc.lft.to/lastmile_qr_scan"}, "lat": 38.9158385, "is_reserved": 0, "is_disabled": 0, "fusion_lat": 0.0}, {"fusion_lon": 0.0, "bike_id": "a0bd0e34fe53336f40b6ec87f6de9090", "name": "a0bd0e34fe53336f40b6ec87f6de9090", "type": "electric_scooter", "lon": -76.996349, "rental_uris": {"android": "https://dc.lft.to/lastmile_qr_scan", "ios": "https://dc.lft.to/lastmile_qr_scan"}, "lat": 38.846197, "is_reserved": 0, "is_disabled": 0, "fusion_lat": 0.0}, {"fusion_lon": 0.0, "bike_id": "f2dee5747b9e3eeeacc63f40753b6d63", "name": "f2dee5747b9e3eeeacc63f40753b6d63", "type": "electric_scooter", "lon": -77.00589866666667, "rental_uris": {"android": "https://dc.lft.to/lastmile_qr_scan", "ios": "https://dc.lft.to/lastmile_qr_scan"}, "lat": 38.90536383333333, "is_reserved": 0, "is_disabled": 0, "fusion_lat": 0.0}, {"fusion_lon": 0.0, "bike_id": "613ab8d746b254e9651dd3195e29d0ee", "name": "613ab8d746b254e9651dd3195e29d0ee", "type": "electric_scooter", "lon": -77.02860116666666, "rental_uris": {"android": "https://dc.lft.to/lastmile_qr_scan", "ios": "https://dc.lft.to/lastmile_qr_scan"}, "lat": 38.935899666666664, "is_reserved": 0, "is_disabled": 0, "fusion_lat": 0.0}, {"fusion_lon": 0.0, "bike_id": "885ade214a083cc438cb6abb4b619f52", "name": "885ade214a083cc438cb6abb4b619f52", "type": "electric_scooter", "lon": -77.03429366666667, "rental_uris": {"android": "https://dc.lft.to/lastmile_qr_scan", "ios": "https://dc.lft.to/lastmile_qr_scan"}, "lat": 38.927320333333334, "is_reserved": 0, "is_disabled": 0, "fusion_lat": 0.0}, {"fusion_lon": 0.0, "bike_id": "af13804a3b0ba2b23b5d7b4bbd5e1d3d", "name": "af13804a3b0ba2b23b5d7b4bbd5e1d3d", "type": "electric_scooter", "lon": -77.0222455, "rental_uris": {"android": "https://dc.lft.to/lastmile_qr_scan", "ios": "https://dc.lft.to/lastmile_qr_scan"}, "lat": 38.935530666666665, "is_reserved": 0, "is_disabled": 0, "fusion_lat": 0.0}, {"fusion_lon": 0.0, "bike_id": "45a462716c5b881994ff4284082a6d4d", "name": "45a462716c5b881994ff4284082a6d4d", "type": "electric_scooter", "lon": -77.02151083333334, "rental_uris": {"android": "https://dc.lft.to/lastmile_qr_scan", "ios": "https://dc.lft.to/lastmile_qr_scan"}, "lat": 38.929206, "is_reserved": 0, "is_disabled": 0, "fusion_lat": 0.0}, {"fusion_lon": 0.0, "bike_id": "242e1668010093b6e25629d7d28be07d", "name": "242e1668010093b6e25629d7d28be07d", "type": "electric_scooter", "lon": -77.03242333333333, "rental_uris": {"android": "https://dc.lft.to/lastmile_qr_scan", "ios": "https://dc.lft.to/lastmile_qr_scan"}, "lat": 38.915514, "is_reserved": 0, "is_disabled": 0, "fusion_lat": 0.0}, {"fusion_lon": 0.0, "bike_id": "edb5cd24b8368d7d6f8eff930637e36c", "name": "edb5cd24b8368d7d6f8eff930637e36c", "type": "electric_scooter", "lon": -77.03661683333333, "rental_uris": {"android": "https://dc.lft.to/lastmile_qr_scan", "ios": "https://dc.lft.to/lastmile_qr_scan"}, "lat": 38.92083816666667, "is_reserved": 0, "is_disabled": 0, "fusion_lat": 0.0}, {"fusion_lon": 0.0, "bike_id": "5cf5759c79cbcb3f871b609c577836ba", "name": "5cf5759c79cbcb3f871b609c577836ba", "type": "electric_scooter", "lon": -77.0210585, "rental_uris": {"android": "https://dc.lft.to/lastmile_qr_scan", "ios": "https://dc.lft.to/lastmile_qr_scan"}, "lat": 38.94100366666667, "is_reserved": 0, "is_disabled": 0, "fusion_lat": 0.0}, {"fusion_lon": 0.0, "bike_id": "f168296392069a1cf7f8ed752a6f02be", "name": "f168296392069a1cf7f8ed752a6f02be", "type": "electric_scooter", "lon": -77.03168983333333, "rental_uris": {"android": "https://dc.lft.to/lastmile_qr_scan", "ios": "https://dc.lft.to/lastmile_qr_scan"}, "lat": 38.90722, "is_reserved": 0, "is_disabled": 0, "fusion_lat": 0.0}, {"fusion_lon": 0.0, "bike_id": "e486aa83b4f07d0f59502b9dc8941f07", "name": "e486aa83b4f07d0f59502b9dc8941f07", "type": "electric_scooter", "lon": -77.040007, "rental_uris": {"android": "https://dc.lft.to/lastmile_qr_scan", "ios": "https://dc.lft.to/lastmile_qr_scan"}, "lat": 38.9325855, "is_reserved": 0, "is_disabled": 0, "fusion_lat": 0.0}, {"fusion_lon": 0.0, "bike_id": "fa9e30d3bcf64fafde24a55f5f264c07", "name": "fa9e30d3bcf64fafde24a55f5f264c07", "type": "electric_bike", "lon": -77.12407933333333, "rental_uris": {"android": "https://dc.lft.to/lastmile_qr_scan", "ios": "https://dc.lft.to/lastmile_qr_scan"}, "lat": 38.89336183333333, "is_reserved": 0, "is_disabled": 0, "fusion_lat": 0.0}, {"fusion_lon": 0.0, "bike_id": "2e2f3ab862ae8105d940da49b666cc85", "name": "2e2f3ab862ae8105d940da49b666cc85", "type": "electric_scooter", "lon": -77.03300183333333, "rental_uris": {"android": "https://dc.lft.to/lastmile_qr_scan", "ios": "https://dc.lft.to/lastmile_qr_scan"}, "lat": 38.91702333333333, "is_reserved": 0, "is_disabled": 0, "fusion_lat": 0.0}, {"fusion_lon": 0.0, "bike_id": "b3699e50ec09f82743ecd378a952961a", "name": "b3699e50ec09f82743ecd378a952961a", "type": "electric_scooter", "lon": -77.02204183333333, "rental_uris": {"android": "https://dc.lft.to/lastmile_qr_scan", "ios": "https://dc.lft.to/lastmile_qr_scan"}, "lat": 38.899462, "is_reserved": 0, "is_disabled": 0, "fusion_lat": 0.0}, {"fusion_lon": 0.0, "bike_id": "80a10db9c707987517568b840201e332", "name": "80a10db9c707987517568b840201e332", "type": "electric_scooter", "lon": -76.99613433333333, "rental_uris": {"android": "https://dc.lft.to/lastmile_qr_scan", "ios": "https://dc.lft.to/lastmile_qr_scan"}, "lat": 38.86466733333334, "is_reserved": 0, "is_disabled": 0, "fusion_lat": 0.0}, {"fusion_lon": 0.0, "bike_id": "de18ae015981cb1a52f28f2e4a3aac62", "name": "de18ae015981cb1a52f28f2e4a3aac62", "type": "electric_bike", "lon": -77.06955033333334, "rental_uris": {"android": "https://dc.lft.to/lastmile_qr_scan", "ios": "https://dc.lft.to/lastmile_qr_scan"}, "lat": 38.990475833333335, "is_reserved": 0, "is_disabled": 0, "fusion_lat": 0.0}, {"fusion_lon": 0.0, "bike_id": "a2c8bc34ed4e26af22ba209dbc1049e2", "name": "a2c8bc34ed4e26af22ba209dbc1049e2", "type": "electric_scooter", "lon": -77.01622866666666, "rental_uris": {"android": "https://dc.lft.to/lastmile_qr_scan", "ios": "https://dc.lft.to/lastmile_qr_scan"}, "lat": 38.90608116666667, "is_reserved": 0, "is_disabled": 0, "fusion_lat": 0.0}, {"fusion_lon": 0.0, "bike_id": "51fb185499d9296c72659c7f8ad27fa4", "name": "51fb185499d9296c72659c7f8ad27fa4", "type": "electric_scooter", "lon": -77.05026566666666, "rental_uris": {"android": "https://dc.lft.to/lastmile_qr_scan", "ios": "https://dc.lft.to/lastmile_qr_scan"}, "lat": 38.8983, "is_reserved": 0, "is_disabled": 0, "fusion_lat": 0.0}, {"fusion_lon": 0.0, "bike_id": "698dce85d513c6d355e96885db7229b3", "name": "698dce85d513c6d355e96885db7229b3", "type": "electric_scooter", "lon": -76.99512966666667, "rental_uris": {"android": "https://dc.lft.to/lastmile_qr_scan", "ios": "https://dc.lft.to/lastmile_qr_scan"}, "lat": 38.8858795, "is_reserved": 0, "is_disabled": 0, "fusion_lat": 0.0}, {"fusion_lon": 0.0, "bike_id": "3f45f0255e2fed3d332df23478c26be8", "name": "3f45f0255e2fed3d332df23478c26be8", "type": "electric_scooter", "lon": -77.01396933333334, "rental_uris": {"android": "https://dc.lft.to/lastmile_qr_scan", "ios": "https://dc.lft.to/lastmile_qr_scan"}, "lat": 38.880372666666666, "is_reserved": 0, "is_disabled": 0, "fusion_lat": 0.0}, {"fusion_lon": 0.0, "bike_id": "4cc1ed42be421e7fc7b5f2abc121223e", "name": "4cc1ed42be421e7fc7b5f2abc121223e", "type": "electric_scooter", "lon": -77.02188566666666, "rental_uris": {"android": "https://dc.lft.to/lastmile_qr_scan", "ios": "https://dc.lft.to/lastmile_qr_scan"}, "lat": 38.90057866666667, "is_reserved": 0, "is_disabled": 0, "fusion_lat": 0.0}, {"fusion_lon": 0.0, "bike_id": "57220d4b4b96435f4170cd63b5858f57", "name": "57220d4b4b96435f4170cd63b5858f57", "type": "electric_scooter", "lon": -77.0708375, "rental_uris": {"android": "https://dc.lft.to/lastmile_qr_scan", "ios": "https://dc.lft.to/lastmile_qr_scan"}, "lat": 38.93908316666667, "is_reserved": 0, "is_disabled": 0, "fusion_lat": 0.0}, {"fusion_lon": 0.0, "bike_id": "43a97756eefd1a39a0d3d35f9bdfed44", "name": "43a97756eefd1a39a0d3d35f9bdfed44", "type": "electric_scooter", "lon": -77.01691566666666, "rental_uris": {"android": "https://dc.lft.to/lastmile_qr_scan", "ios": "https://dc.lft.to/lastmile_qr_scan"}, "lat": 38.883220333333334, "is_reserved": 0, "is_disabled": 0, "fusion_lat": 0.0}, {"fusion_lon": 0.0, "bike_id": "adeb5d918108a09123af37dca689a5ff", "name": "adeb5d918108a09123af37dca689a5ff", "type": "electric_scooter", "lon": -77.00905933333334, "rental_uris": {"android": "https://dc.lft.to/lastmile_qr_scan", "ios": "https://dc.lft.to/lastmile_qr_scan"}, "lat": 38.90579533333333, "is_reserved": 0, "is_disabled": 0, "fusion_lat": 0.0}, {"fusion_lon": 0.0, "bike_id": "73c92761431db0d13540a2b3b257e77d", "name": "73c92761431db0d13540a2b3b257e77d", "type": "electric_scooter", "lon": -77.02604216666667, "rental_uris": {"android": "https://dc.lft.to/lastmile_qr_scan", "ios": "https://dc.lft.to/lastmile_qr_scan"}, "lat": 38.918489, "is_reserved": 0, "is_disabled": 0, "fusion_lat": 0.0}, {"fusion_lon": 0.0, "bike_id": "2d26752d25b5d4cdf7267798250c91d9", "name": "2d26752d25b5d4cdf7267798250c91d9", "type": "electric_scooter", "lon": -77.04322783333333, "rental_uris": {"android": "https://dc.lft.to/lastmile_qr_scan", "ios": "https://dc.lft.to/lastmile_qr_scan"}, "lat": 38.9197425, "is_reserved": 0, "is_disabled": 0, "fusion_lat": 0.0}, {"fusion_lon": 0.0, "bike_id": "70d3e83560776a445c7f28bbaf726268", "name": "70d3e83560776a445c7f28bbaf726268", "type": "electric_bike", "lon": -77.08442033333333, "rental_uris": {"android": "https://dc.lft.to/lastmile_qr_scan", "ios": "https://dc.lft.to/lastmile_qr_scan"}, "lat": 38.81030783333333, "is_reserved": 0, "is_disabled": 0, "fusion_lat": 0.0}, {"fusion_lon": 0.0, "bike_id": "bd3b977602e7e2df59ad283ea135d55c", "name": "bd3b977602e7e2df59ad283ea135d55c", "type": "electric_scooter", "lon": -76.979311, "rental_uris": {"android": "https://dc.lft.to/lastmile_qr_scan", "ios": "https://dc.lft.to/lastmile_qr_scan"}, "lat": 38.902452, "is_reserved": 0, "is_disabled": 0, "fusion_lat": 0.0}, {"fusion_lon": 0.0, "bike_id": "c010e75708808d3025b7a581d7e8a3f5", "name": "c010e75708808d3025b7a581d7e8a3f5", "type": "electric_scooter", "lon": -77.04477633333333, "rental_uris": {"android": "https://dc.lft.to/lastmile_qr_scan", "ios": "https://dc.lft.to/lastmile_qr_scan"}, "lat": 38.910821, "is_reserved": 0, "is_disabled": 0, "fusion_lat": 0.0}, {"fusion_lon": 0.0, "bike_id": "e799f4307922678fede8b07826901c39", "name": "e799f4307922678fede8b07826901c39", "type": "electric_scooter", "lon": -76.94943583333334, "rental_uris": {"android": "https://dc.lft.to/lastmile_qr_scan", "ios": "https://dc.lft.to/lastmile_qr_scan"}, "lat": 38.893528333333336, "is_reserved": 0, "is_disabled": 0, "fusion_lat": 0.0}, {"fusion_lon": 0.0, "bike_id": "9dd0916f7a844c46d57963d554d36b2c", "name": "9dd0916f7a844c46d57963d554d36b2c", "type": "electric_scooter", "lon": -77.03210733333333, "rental_uris": {"android": "https://dc.lft.to/lastmile_qr_scan", "ios": "https://dc.lft.to/lastmile_qr_scan"}, "lat": 38.917988333333334, "is_reserved": 0, "is_disabled": 0, "fusion_lat": 0.0}, {"fusion_lon": 0.0, "bike_id": "788251a57ce88a68d25663d6c0c0135d", "name": "788251a57ce88a68d25663d6c0c0135d", "type": "electric_bike", "lon": -76.97500383333333, "rental_uris": {"android": "https://dc.lft.to/lastmile_qr_scan", "ios": "https://dc.lft.to/lastmile_qr_scan"}, "lat": 38.91935683333333, "is_reserved": 0, "is_disabled": 0, "fusion_lat": 0.0}, {"fusion_lon": 0.0, "bike_id": "e208b958df628ef59e116b51c0f817d7", "name": "e208b958df628ef59e116b51c0f817d7", "type": "electric_scooter", "lon": -77.026971, "rental_uris": {"android": "https://dc.lft.to/lastmile_qr_scan", "ios": "https://dc.lft.to/lastmile_qr_scan"}, "lat": 38.908399833333334, "is_reserved": 0, "is_disabled": 0, "fusion_lat": 0.0}, {"fusion_lon": 0.0, "bike_id": "b17da9853b7c41bcc7683f700008e1b7", "name": "b17da9853b7c41bcc7683f700008e1b7", "type": "electric_scooter", "lon": -76.984635, "rental_uris": {"android": "https://dc.lft.to/lastmile_qr_scan", "ios": "https://dc.lft.to/lastmile_qr_scan"}, "lat": 38.880087833333334, "is_reserved": 0, "is_disabled": 0, "fusion_lat": 0.0}, {"fusion_lon": 0.0, "bike_id": "959ba2c3e0f68ed8173b39fb5445e0f7", "name": "959ba2c3e0f68ed8173b39fb5445e0f7", "type": "electric_scooter", "lon": -76.99153183333334, "rental_uris": {"android": "https://dc.lft.to/lastmile_qr_scan", "ios": "https://dc.lft.to/lastmile_qr_scan"}, "lat": 38.88680566666667, "is_reserved": 0, "is_disabled": 0, "fusion_lat": 0.0}, {"fusion_lon": 0.0, "bike_id": "80a53b9a7a6287f9af8522b5dbd0fc1c", "name": "80a53b9a7a6287f9af8522b5dbd0fc1c", "type": "electric_scooter", "lon": -77.01915783333334, "rental_uris": {"android": "https://dc.lft.to/lastmile_qr_scan", "ios": "https://dc.lft.to/lastmile_qr_scan"}, "lat": 38.90255066666667, "is_reserved": 0, "is_disabled": 0, "fusion_lat": 0.0}, {"fusion_lon": 0.0, "bike_id": "1602cbfecac6bd99da4d43dca866a83d", "name": "1602cbfecac6bd99da4d43dca866a83d", "type": "electric_scooter", "lon": -77.01852033333333, "rental_uris": {"android": "https://dc.lft.to/lastmile_qr_scan", "ios": "https://dc.lft.to/lastmile_qr_scan"}, "lat": 38.95429016666667, "is_reserved": 0, "is_disabled": 0, "fusion_lat": 0.0}, {"fusion_lon": 0.0, "bike_id": "df6d0b441b29502fef1b38db2f8790a4", "name": "df6d0b441b29502fef1b38db2f8790a4", "type": "electric_scooter", "lon": -77.03153166666667, "rental_uris": {"android": "https://dc.lft.to/lastmile_qr_scan", "ios": "https://dc.lft.to/lastmile_qr_scan"}, "lat": 38.8830845, "is_reserved": 0, "is_disabled": 0, "fusion_lat": 0.0}, {"fusion_lon": 0.0, "bike_id": "3e171f2a3e5ab080086088e5d2e5333e", "name": "3e171f2a3e5ab080086088e5d2e5333e", "type": "electric_scooter", "lon": -77.0059175, "rental_uris": {"android": "https://dc.lft.to/lastmile_qr_scan", "ios": "https://dc.lft.to/lastmile_qr_scan"}, "lat": 38.927571666666665, "is_reserved": 0, "is_disabled": 0, "fusion_lat": 0.0}, {"fusion_lon": 0.0, "bike_id": "1d09bb2a2b720b5604e77ca23ddf5b35", "name": "1d09bb2a2b720b5604e77ca23ddf5b35", "type": "electric_scooter", "lon": -77.02170733333334, "rental_uris": {"android": "https://dc.lft.to/lastmile_qr_scan", "ios": "https://dc.lft.to/lastmile_qr_scan"}, "lat": 38.92616916666667, "is_reserved": 0, "is_disabled": 0, "fusion_lat": 0.0},