{"data": {"bikes": [{"fusion_lat": 0.0, "name": "fd7417e4baa58ba4dfb5532596766e85", "is_disabled": 0, "rental_uris": {"android": "https://dc.lft.to/lastmile_qr_scan", "ios": "https://dc.lft.to/lastmile_qr_scan"}, "fusion_lon": 0.0, "lat": 38.97126383333333, "bike_id": "fd7417e4baa58ba4dfb5532596766e85", "type": "electric_bike", "is_reserved": 0, "lon": -77.02086133333333}, {"fusion_lat": 0.0, "name": "7f75b4ff29a8aa0d011d7bf88e9cdd88", "is_disabled": 0, "rental_uris": {"android": "https://dc.lft.to/lastmile_qr_scan", "ios": "https://dc.lft.to/lastmile_qr_scan"}, "fusion_lon": 0.0, "lat": 38.91415283333333, "bike_id": "7f75b4ff29a8aa0d011d7bf88e9cdd88", "type": "electric_scooter", "is_reserved": 0, "lon": -77.040015}, {"fusion_lat": 0.0, "name": "a64668d1767b412e7ddeb27c4c2e06be", "is_disabled": 0, "rental_uris": {"android": "https://dc.lft.to/lastmile_qr_scan", "ios": "https://dc.lft.to/lastmile_qr_scan"}, "fusion_lon": 0.0, "lat": 38.92794816666667, "bike_id": "a64668d1767b412e7ddeb27c4c2e06be", "type": "electric_scooter", "is_reserved": 0, "lon": -77.03151016666666}, {"fusion_lat": 0.0, "name": "2db0ed59a4a0d0860e0ea541b6eb6d1f", "is_disabled": 0, "rental_uris": {"android": "https://dc.lft.to/lastmile_qr_scan", "ios": "https://dc.lft.to/lastmile_qr_scan"}, "fusion_lon": 0.0, "lat": 38.933863, "bike_id": "2db0ed59a4a0d0860e0ea541b6eb6d1f", "type": "electric_scooter", "is_reserved": 0, "lon": -77.02415533333334}, {"fusion_lat": 0.0, "name": "b6a0b8c218f3c6fe55fe82c7448fa1a1", "is_disabled": 0, "rental_uris": {"android": "https://dc.lft.to/lastmile_qr_scan", "ios": "https://dc.lft.to/lastmile_qr_scan"}, "fusion_lon": 0.0, "lat": 38.941194333333335, "bike_id": "b6a0b8c218f3c6fe55fe82c7448fa1a1", "type": "electric_bike", "is_reserved": 0, "lon": -76.99029266666666}, {"fusion_lat": 0.0, "name": "f9e06fb9a59220b4129d32dc8e5a81e4", "is_disabled": 0, "rental_uris": {"android": "https://dc.lft.to/lastmile_qr_scan", "ios": "https://dc.lft.to/lastmile_qr_scan"}, "fusion_lon": 0.0, "lat": 38.933650166666666, "bike_id": "f9e06fb9a59220b4129d32dc8e5a81e4", "type": "electric_scooter", "is_reserved": 0, "lon": -77.02431633333333}, {"fusion_lat": 0.0, "name": "eeb404dff95479e639d277ccb72f01d2", "is_disabled": 0, "rental_uris": {"android": "https://dc.lft.to/lastmile_qr_scan", "ios": "https://dc.lft.to/lastmile_qr_scan"}, "fusion_lon": 0.0, "lat": 38.900574166666665, "bike_id": "eeb404dff95479e639d277ccb72f01d2", "type": "electric_scooter", "is_reserved": 0, "lon": -77.01415533333333}, {"fusion_lat": 0.0, "name": "d1099420904ad93d89a7cc6242fc60c8", "is_disabled": 0, "rental_uris": {"android": "https://dc.lft.to/lastmile_qr_scan", "ios": "https://dc.lft.to/lastmile_qr_scan"}, "fusion_lon": 0.0, "lat": 38.935322166666666, "bike_id": "d1099420904ad93d89a7cc6242fc60c8", "type": "electric_scooter", "is_reserved": 0, "lon": -77.02355166666666}, {"fusion_lat": 0.0, "name": "c7ffc02d903fb19a45ccc341200930ce", "is_disabled": 0, "rental_uris": {"android": "https://dc.lft.to/lastmile_qr_scan", "ios": "https://dc.lft.to/lastmile_qr_scan"}, "fusion_lon": 0.0, "lat": 38.9170615, "bike_id": "c7ffc02d903fb19a45ccc341200930ce", "type": "electric_scooter", "is_reserved": 0, "lon": -77.04173166666666}, {"fusion_lat": 0.0, "name": "4e70c01290aeb2af3457202be7e1085b", "is_disabled": 0, "rental_uris": {"android": "https://dc.lft.to/lastmile_qr_scan", "ios": "https://dc.lft.to/lastmile_qr_scan"}, "fusion_lon": 0.0, "lat": 38.917265666666665, "bike_id": "4e70c01290aeb2af3457202be7e1085b", "type": "electric_scooter", "is_reserved": 0, "lon": -77.02979833333333}, {"fusion_lat": 0.0, "name": "2c27a49a739bd1ac4e343f688c2ad96b", "is_disabled": 0, "rental_uris": {"android": "https://dc.lft.to/lastmile_qr_scan", "ios": "https://dc.lft.to/lastmile_qr_scan"}, "fusion_lon": 0.0, "lat": 38.92312716666667, "bike_id": "2c27a49a739bd1ac4e343f688c2ad96b", "type": "electric_scooter", "is_reserved": 0, "lon": -77.02799433333334}, {"fusion_lat": 0.0, "name": "3fe2c7a255bef8f5c675c983bfec82ab", "is_disabled": 0, "rental_uris": {"android": "https://dc.lft.to/lastmile_qr_scan", "ios": "https://dc.lft.to/lastmile_qr_scan"}, "fusion_lon": 0.0, "lat": 38.952754666666664, "bike_id": "3fe2c7a255bef8f5c675c983bfec82ab", "type": "electric_bike", "is_reserved": 0, "lon": -77.06875016666666}, {"fusion_lat": 0.0, "name": "f6d4f5b65a712aa00c8664bada056b53", "is_disabled": 0, "rental_uris": {"android": "https://dc.lft.to/lastmile_qr_scan", "ios": "https://dc.lft.to/lastmile_qr_scan"}, "fusion_lon": 0.0, "lat": 38.95546316666667, "bike_id": "f6d4f5b65a712aa00c8664bada056b53", "type": "electric_bike", "is_reserved": 0, "lon": -77.069323}, {"fusion_lat": 0.0, "name": "829908037e2d6bd76f374468576d3059", "is_disabled": 0, "rental_uris": {"android": "https://dc.lft.to/lastmile_qr_scan", "ios": "https://dc.lft.to/lastmile_qr_scan"}, "fusion_lon": 0.0, "lat": 38.914029666666664, "bike_id": "829908037e2d6bd76f374468576d3059", "type": "electric_scooter", "is_reserved": 0, "lon": -77.02200383333333}, {"fusion_lat": 0.0, "name": "2d23a120741d3edcee047632e28d73ad", "is_disabled": 0, "rental_uris": {"android": "https://dc.lft.to/lastmile_qr_scan", "ios": "https://dc.lft.to/lastmile_qr_scan"}, "fusion_lon": 0.0, "lat": 38.8863295, "bike_id": "2d23a120741d3edcee047632e28d73ad", "type": "electric_scooter", "is_reserved": 0, "lon": -77.015328}, {"fusion_lat": 0.0, "name": "76e2a30d6e5071d79d5cee578209c4f6", "is_disabled": 0, "rental_uris": {"android": "https://dc.lft.to/lastmile_qr_scan", "ios": "https://dc.lft.to/lastmile_qr_scan"}, "fusion_lon": 0.0, "lat": 38.90475383333333, "bike_id": "76e2a30d6e5071d79d5cee578209c4f6", "type": "electric_scooter", "is_reserved": 0, "lon": -76.952022}, {"fusion_lat": 0.0, "name": "35ba4b1d3bb159e65e6defc98f17726b", "is_disabled": 0, "rental_uris": {"android": "https://dc.lft.to/lastmile_qr_scan", "ios": "https://dc.lft.to/lastmile_qr_scan"}, "fusion_lon": 0.0, "lat": 38.92081733333333, "bike_id": "35ba4b1d3bb159e65e6defc98f17726b", "type": "electric_scooter", "is_reserved": 0, "lon": -77.02402783333334}, {"fusion_lat": 0.0, "name": "ec92c776902331e17d4a2772b7ffc356", "is_disabled": 0, "rental_uris": {"android": "https://dc.lft.to/lastmile_qr_scan", "ios": "https://dc.lft.to/lastmile_qr_scan"}, "fusion_lon": 0.0, "lat": 38.90646533333334, "bike_id": "ec92c776902331e17d4a2772b7ffc356", "type": "electric_scooter", "is_reserved": 0, "lon": -77.0429075}, {"fusion_lat": 0.0, "name": "b35388c34305b508e2964fbc15946f36", "is_disabled": 0, "rental_uris": {"android": "https://dc.lft.to/lastmile_qr_scan", "ios": "https://dc.lft.to/lastmile_qr_scan"}, "fusion_lon": 0.0, "lat": 38.874542, "bike_id": "b35388c34305b508e2964fbc15946f36", "type": "electric_bike", "is_reserved": 0, "lon": -76.99944316666667}, {"fusion_lat": 0.0, "name": "a404b6fe006c6a14ff44010b6ce84430", "is_disabled": 0, "rental_uris": {"android": "https://dc.lft.to/lastmile_qr_scan", "ios": "https://dc.lft.to/lastmile_qr_scan"}, "fusion_lon": 0.0, "lat": 38.897535, "bike_id": "a404b6fe006c6a14ff44010b6ce84430", "type": "electric_scooter", "is_reserved": 0, "lon": -77.0075145}, {"fusion_lat": 0.0, "name": "a146f8482cf1ab4042afe6ff0b552d9d", "is_disabled": 0, "rental_uris": {"android": "https://dc.lft.to/lastmile_qr_scan", "ios": "https://dc.lft.to/lastmile_qr_scan"}, "fusion_lon": 0.0, "lat": 38.86628733333333, "bike_id": "a146f8482cf1ab4042afe6ff0b552d9d", "type": "electric_scooter", "is_reserved": 0, "lon": -76.98719333333334}, {"fusion_lat": 0.0, "name": "0ee1089520e77d3d2099be06303bd89d", "is_disabled": 0, "rental_uris": {"android": "https://dc.lft.to/lastmile_qr_scan", "ios": "https://dc.lft.to/lastmile_qr_scan"}, "fusion_lon": 0.0, "lat": 38.892186, "bike_id": "0ee1089520e77d3d2099be06303bd89d", "type": "electric_scooter", "is_reserved": 0, "lon": -77.02774083333334}, {"fusion_lat": 0.0, "name": "fdd0a70de3394314a6a16e91ce6a4e5b", "is_disabled": 0, "rental_uris": {"android": "https://dc.lft.to/lastmile_qr_scan", "ios": "https://dc.lft.to/lastmile_qr_scan"}, "fusion_lon": 0.0, "lat": 38.902565833333334, "bike_id": "fdd0a70de3394314a6a16e91ce6a4e5b", "type": "electric_scooter", "is_reserved": 0, "lon": -77.01760016666667}, {"fusion_lat": 0.0, "name": "549d32a2ee4550d79c992bd492d65991", "is_disabled": 0, "rental_uris": {"android": "https://dc.lft.to/lastmile_qr_scan", "ios": "https://dc.lft.to/lastmile_qr_scan"}, "fusion_lon": 0.0, "lat": 38.951143, "bike_id": "549d32a2ee4550d79c992bd492d65991", "type": "electric_scooter", "is_reserved": 0, "lon": -77.0586525}, {"fusion_lat": 0.0, "name": "b2bd618f9e1e12680d5bd310f132eb51", "is_disabled": 0, "rental_uris": {"android": "https://dc.lft.to/lastmile_qr_scan", "ios": "https://dc.lft.to/lastmile_qr_scan"}, "fusion_lon": 0.0, "lat": 38.91701283333333, "bike_id": "b2bd618f9e1e12680d5bd310f132eb51", "type": "electric_scooter", "is_reserved": 0, "lon": -77.03720083333333}, {"fusion_lat": 0.0, "name": "a7a597370d62ed23028c9536428e2388", "is_disabled": 0, "rental_uris": {"android": "https://dc.lft.to/lastmile_qr_scan", "ios": "https://dc.lft.to/lastmile_qr_scan"}, "fusion_lon": 0.0, "lat": 38.915054833333336, "bike_id": "a7a597370d62ed23028c9536428e2388", "type": "electric_scooter", "is_reserved": 0, "lon": -77.03279816666667}, {"fusion_lat": 0.0, "name": "d65c7e5b488558055a2e90289c3bb2ea", "is_disabled": 0, "rental_uris": {"android": "https://dc.lft.to/lastmile_qr_scan", "ios": "https://dc.lft.to/lastmile_qr_scan"}, "fusion_lon": 0.0, "lat": 38.9323795, "bike_id": "d65c7e5b488558055a2e90289c3bb2ea", "type": "electric_bike", "is_reserved": 0, "lon": -76.97419033333334}, {"fusion_lat": 0.0, "name": "9ff65a9069f6562d649b54c2404c065c", "is_disabled": 0, "rental_uris": {"android": "https://dc.lft.to/lastmile_qr_scan", "ios": "https://dc.lft.to/lastmile_qr_scan"}, "fusion_lon": 0.0, "lat": 38.94322316666667, "bike_id": "9ff65a9069f6562d649b54c2404c065c", "type": "electric_bike", "is_reserved": 0, "lon": -77.01944516666667}, {"fusion_lat": 0.0, "name": "d1af2709d4a5eff328754e18d7250913", "is_disabled": 0, "rental_uris": {"android": "https://dc.lft.to/lastmile_qr_scan", "ios": "https://dc.lft.to/lastmile_qr_scan"}, "fusion_lon": 0.0, "lat": 38.95478083333333, "bike_id": "d1af2709d4a5eff328754e18d7250913", "type": "electric_scooter", "is_reserved": 0, "lon": -77.07771683333333}, {"fusion_lat": 0.0, "name": "eaa4aecca84ac4141140e45e240b28bd", "is_disabled": 0, "rental_uris": {"android": "https://dc.lft.to/lastmile_qr_scan", "ios": "https://dc.lft.to/lastmile_qr_scan"}, "fusion_lon": 0.0, "lat": 38.913472166666665, "bike_id": "eaa4aecca84ac4141140e45e240b28bd", "type": "electric_bike", "is_reserved": 0, "lon": -76.98896466666666}, {"fusion_lat": 0.0, "name": "66bb5309e4ed4332c8f8891ae9de7e36", "is_disabled": 0, "rental_uris": {"android": "https://dc.lft.to/lastmile_qr_scan", "ios": "https://dc.lft.to/lastmile_qr_scan"}, "fusion_lon": 0.0, "lat": 38.88660083333333, "bike_id": "66bb5309e4ed4332c8f8891ae9de7e36", "type": "electric_scooter", "is_reserved": 0, "lon": -77.03389033333333}, {"fusion_lat": 0.0, "name": "f6366473f34f27e6a8daac553eb682c7", "is_disabled": 0, "rental_uris": {"android": "https://dc.lft.to/lastmile_qr_scan", "ios": "https://dc.lft.to/lastmile_qr_scan"}, "fusion_lon": 0.0, "lat": 38.90296433333334, "bike_id": "f6366473f34f27e6a8daac553eb682c7", "type": "electric_scooter", "is_reserved": 0, "lon": -76.992597}, {"fusion_lat": 0.0, "name": "76713ad2c3b87ccd7583bb5edb1d67ef", "is_disabled": 0, "rental_uris": {"android": "https://dc.lft.to/lastmile_qr_scan", "ios": "https://dc.lft.to/lastmile_qr_scan"}, "fusion_lon": 0.0, "lat": 38.899424833333335, "bike_id": "76713ad2c3b87ccd7583bb5edb1d67ef", "type": "electric_scooter", "is_reserved": 0, "lon": -77.053573}, {"fusion_lat": 0.0, "name": "06e48ad7ad064dc2103a4a24de98094d", "is_disabled": 0, "rental_uris": {"android": "https://dc.lft.to/lastmile_qr_scan", "ios": "https://dc.lft.to/lastmile_qr_scan"}, "fusion_lon": 0.0, "lat": 38.888112, "bike_id": "06e48ad7ad064dc2103a4a24de98094d", "type": "electric_scooter", "is_reserved": 0, "lon": -76.98357016666667}, {"fusion_lat": 0.0, "name": "9a815a7f95c6ec9c98bd23155b9569bf", "is_disabled": 0, "rental_uris": {"android": "https://dc.lft.to/lastmile_qr_scan", "ios": "https://dc.lft.to/lastmile_qr_scan"}, "fusion_lon": 0.0, "lat": 38.88744333333333, "bike_id": "9a815a7f95c6ec9c98bd23155b9569bf", "type": "electric_scooter", "is_reserved": 0, "lon": -76.98357183333333}, {"fusion_lat": 0.0, "name": "067e7a8e0f7199cb478c8326160bc7d2", "is_disabled": 0, "rental_uris": {"android": "https://dc.lft.to/lastmile_qr_scan", "ios": "https://dc.lft.to/lastmile_qr_scan"}, "fusion_lon": 0.0, "lat": 38.926867666666666, "bike_id": "067e7a8e0f7199cb478c8326160bc7d2", "type": "electric_scooter", "is_reserved": 0, "lon": -77.031425}, {"fusion_lat": 0.0, "name": "d1d863f054c40692a71478c0e6578cd3", "is_disabled": 0, "rental_uris": {"android": "https://dc.lft.to/lastmile_qr_scan", "ios": "https://dc.lft.to/lastmile_qr_scan"}, "fusion_lon": 0.0, "lat": 38.941631666666666, "bike_id": "d1d863f054c40692a71478c0e6578cd3", "type": "electric_scooter", "is_reserved": 0, "lon": -77.02509633333334}, {"fusion_lat": 0.0, "name": "c671ff1408f4377254ef3557b79d54ce", "is_disabled": 0, "rental_uris": {"android": "https://dc.lft.to/lastmile_qr_scan", "ios": "https://dc.lft.to/lastmile_qr_scan"}, "fusion_lon": 0.0, "lat": 38.92414983333333, "bike_id": "c671ff1408f4377254ef3557b79d54ce", "type": "electric_scooter", "is_reserved": 0, "lon": -77.02007233333333}, {"fusion_lat": 0.0, "name": "8eb8685a97d6067c6d309d0b03b9e0d1", "is_disabled": 0, "rental_uris": {"android": "https://dc.lft.to/lastmile_qr_scan", "ios": "https://dc.lft.to/lastmile_qr_scan"}, "fusion_lon": 0.0, "lat": 38.921655333333334, "bike_id": "8eb8685a97d6067c6d309d0b03b9e0d1", "type": "electric_scooter", "is_reserved": 0, "lon": -77.02092133333333}, {"fusion_lat": 0.0, "name": "f00f9fdb1e0873f543b1e2db1ff8ce33", "is_disabled": 0, "rental_uris": {"android": "https://dc.lft.to/lastmile_qr_scan", "ios": "https://dc.lft.to/lastmile_qr_scan"}, "fusion_lon": 0.0, "lat": 38.8956485, "bike_id": "f00f9fdb1e0873f543b1e2db1ff8ce33", "type": "electric_scooter", "is_reserved": 0, "lon": -76.9943175}, {"fusion_lat": 0.0, "name": "d5eb6d052e7c252c0ea21b5c6bf765b0", "is_disabled": 0, "rental_uris": {"android": "https://dc.lft.to/lastmile_qr_scan", "ios": "https://dc.lft.to/lastmile_qr_scan"}, "fusion_lon": 0.0, "lat": 38.91928883333333, "bike_id": "d5eb6d052e7c252c0ea21b5c6bf765b0", "type": "electric_scooter", "is_reserved": 0, "lon": -77.03179533333333}, {"fusion_lat": 0.0, "name": "7a13dafeda126f27f57b32fffa6a5bfb", "is_disabled": 0, "rental_uris": {"android": "https://dc.lft.to/lastmile_qr_scan", "ios": "https://dc.lft.to/lastmile_qr_scan"}, "fusion_lon": 0.0, "lat": 39.01418566666667, "bike_id": "7a13dafeda126f27f57b32fffa6a5bfb", "type": "electric_bike", "is_reserved": 0, "lon": -77.04497533333333}, {"fusion_lat": 0.0, "name": "1e161c83710dc3a7c9e24ae5da2ae9a5", "is_disabled": 0, "rental_uris": {"android": "https://dc.lft.to/lastmile_qr_scan", "ios": "https://dc.lft.to/lastmile_qr_scan"}, "fusion_lon": 0.0, "lat": 38.911245666666666, "bike_id": "1e161c83710dc3a7c9e24ae5da2ae9a5", "type": "electric_scooter", "is_reserved": 0, "lon": -77.03183233333333}, {"fusion_lat": 0.0, "name": "ab8b45d8d4c8b36b0a2738b16ac294d0", "is_disabled": 0, "rental_uris": {"android": "https://dc.lft.to/lastmile_qr_scan", "ios": "https://dc.lft.to/lastmile_qr_scan"}, "fusion_lon": 0.0, "lat": 38.8969925, "bike_id": "ab8b45d8d4c8b36b0a2738b16ac294d0", "type": "electric_scooter", "is_reserved": 0, "lon": -77.02388083333334}, {"fusion_lat": 0.0, "name": "a5587294b4c1ba6dd9ae28b084a0338a", "is_disabled": 0, "rental_uris": {"android": "https://dc.lft.to/lastmile_qr_scan", "ios": "https://dc.lft.to/lastmile_qr_scan"}, "fusion_lon": 0.0, "lat": 38.8850645, "bike_id": "a5587294b4c1ba6dd9ae28b084a0338a", "type": "electric_scooter", "is_reserved": 0, "lon": -76.99749516666667}, {"fusion_lat": 0.0, "name": "19e6a948aca7f3e63c75a6eaead404f5", "is_disabled": 0, "rental_uris": {"android": "https://dc.lft.to/lastmile_qr_scan", "ios": "https://dc.lft.to/lastmile_qr_scan"}, "fusion_lon": 0.0, "lat": 38.91719283333333, "bike_id": "19e6a948aca7f3e63c75a6eaead404f5", "type": "electric_scooter", "is_reserved": 0, "lon": -77.0280385}, {"fusion_lat": 0.0, "name": "e926450d7b8bfa5ea252d7b5a3ebfc2d", "is_disabled": 0, "rental_uris": {"android": "https://dc.lft.to/lastmile_qr_scan", "ios": "https://dc.lft.to/lastmile_qr_scan"}, "fusion_lon": 0.0, "lat": 38.892199166666664, "bike_id": "e926450d7b8bfa5ea252d7b5a3ebfc2d", "type": "electric_scooter", "is_reserved": 0, "lon": -77.031489}, {"fusion_lat": 0.0, "name": "44ccc191aeca34f6225a451dc6ed59ae", "is_disabled": 0, "rental_uris": {"android": "https://dc.lft.to/lastmile_qr_scan", "ios": "https://dc.lft.to/lastmile_qr_scan"}, "fusion_lon": 0.0, "lat": 38.91568016666667, "bike_id": "44ccc191aeca34f6225a451dc6ed59ae", "type": "electric_scooter", "is_reserved": 0, "lon": -77.03854166666666}, {"fusion_lat": 0.0, "name": "ce8bd7cf865c392ccf026be030dc0676", "is_disabled": 0, "rental_uris": {"android": "https://dc.lft.to/lastmile_qr_scan", "ios": "https://dc.lft.to/lastmile_qr_scan"}, "fusion_lon": 0.0, "lat": 38.92539133333333, "bike_id": "ce8bd7cf865c392ccf026be030dc0676", "type": "electric_scooter", "is_reserved": 0, "lon": -77.03825266666666}, {"fusion_lat": 0.0, "name": "4f4465024e74547c35146ea2da4bb04e", "is_disabled": 0, "rental_uris": {"android": "https://dc.lft.to/lastmile_qr_scan", "ios": "https://dc.lft.to/lastmile_qr_scan"}, "fusion_lon": 0.0, "lat": 38.928963, "bike_id": "4f4465024e74547c35146ea2da4bb04e", "type": "electric_bike", "is_reserved": 0, "lon": -77.23179516666667}, {"fusion_lat": 0.0, "name": "b9e548cf20208d66b50ffa7a8b1d9c30", "is_disabled": 0, "rental_uris": {"android": "https://dc.lft.to/lastmile_qr_scan", "ios": "https://dc.lft.to/lastmile_qr_scan"}, "fusion_lon": 0.0, "lat": 38.8989435, "bike_id": "b9e548cf20208d66b50ffa7a8b1d9c30", "type": "electric_scooter", "is_reserved": 0, "lon": -77.01505683333333}, {"fusion_lat": 0.0, "name": "c44d865fe9d1fae4fcd02ee316aa7c5a", "is_disabled": 0, "rental_uris": {"android": "https://dc.lft.to/lastmile_qr_scan", "ios": "https://dc.lft.to/lastmile_qr_scan"}, "fusion_lon": 0.0, "lat": 38.938793, "bike_id": "c44d865fe9d1fae4fcd02ee316aa7c5a", "type": "electric_scooter", "is_reserved": 0, "lon": -77.02473016666667}, {"fusion_lat": 0.0, "name": "7f5ea363a584f56238d2b3bc38a237d0", "is_disabled": 0, "rental_uris": {"android": "https://dc.lft.to/lastmile_qr_scan", "ios": "https://dc.lft.to/lastmile_qr_scan"}, "fusion_lon": 0.0, "lat": 38.910415666666665, "bike_id": "7f5ea363a584f56238d2b3bc38a237d0", "type": "electric_scooter", "is_reserved": 0, "lon": -77.008298}, {"fusion_lat": 0.0, "name": "812dd41eaf4eea3b08b17e8ef6279b01", "is_disabled": 0, "rental_uris": {"android": "https://dc.lft.to/lastmile_qr_scan", "ios": "https://dc.lft.to/lastmile_qr_scan"}, "fusion_lon": 0.0, "lat": 38.90091616666667, "bike_id": "812dd41eaf4eea3b08b17e8ef6279b01", "type": "electric_scooter", "is_reserved": 0, "lon": -76.9833095}, {"fusion_lat": 0.0, "name": "593bf720675a677b4e4c2902ff031598", "is_disabled": 0, "rental_uris": {"android": "https://dc.lft.to/lastmile_qr_scan", "ios": "https://dc.lft.to/lastmile_qr_scan"}, "fusion_lon": 0.0, "lat": 38.916229666666666, "bike_id": "593bf720675a677b4e4c2902ff031598", "type": "electric_scooter", "is_reserved": 0, "lon": -77.03852716666667}, {"fusion_lat": 0.0, "name": "51489060f012bf0fe9ca751c62c9f52b", "is_disabled": 0, "rental_uris": {"android": "https://dc.lft.to/lastmile_qr_scan", "ios": "https://dc.lft.to/lastmile_qr_scan"}, "fusion_lon": 0.0, "lat": 38.874740333333335, "bike_id": "51489060f012bf0fe9ca751c62c9f52b", "type": "electric_scooter", "is_reserved": 0, "lon": -77.01893516666667}, {"fusion_lat": 0.0, "name": "8764c4c08a801598941d4d9f1d723a19", "is_disabled": 0, "rental_uris": {"android": "https://dc.lft.to/lastmile_qr_scan", "ios": "https://dc.lft.to/lastmile_qr_scan"}, "fusion_lon": 0.0, "lat": 38.887659, "bike_id": "8764c4c08a801598941d4d9f1d723a19", "type": "electric_scooter", "is_reserved": 0, "lon": -76.97752166666666}, {"fusion_lat": 0.0, "name": "90475febd8611aa9b4d4e73e92d56618", "is_disabled": 0, "rental_uris": {"android": "https://dc.lft.to/lastmile_qr_scan", "ios": "https://dc.lft.to/lastmile_qr_scan"}, "fusion_lon": 0.0, "lat": 38.8990565, "bike_id": "90475febd8611aa9b4d4e73e92d56618", "type": "electric_scooter", "is_reserved": 0, "lon": -76.94554683333334}, {"fusion_lat": 0.0, "name": "1d0e61396eac8999a41db0288abaaa4b", "is_disabled": 0, "rental_uris": {"android": "https://dc.lft.to/lastmile_qr_scan", "ios": "https://dc.lft.to/lastmile_qr_scan"}, "fusion_lon": 0.0, "lat": 38.82456666666667, "bike_id": "1d0e61396eac8999a41db0288abaaa4b", "type": "electric_bike", "is_reserved": 0, "lon": -77.007932}, {"fusion_lat": 0.0, "name": "96c629fd6023a7aac2e386a0a81d6bb3", "is_disabled": 0, "rental_uris": {"android": "https://dc.lft.to/lastmile_qr_scan", "ios": "https://dc.lft.to/lastmile_qr_scan"}, "fusion_lon": 0.0, "lat": 38.91003583333333, "bike_id": "96c629fd6023a7aac2e386a0a81d6bb3", "type": "electric_scooter", "is_reserved": 0, "lon": -77.00713633333334}, {"fusion_lat": 0.0, "name": "e1abb3c960cfd036a13a34a958ebc81e", "is_disabled": 0, "rental_uris": {"android": "https://dc.lft.to/lastmile_qr_scan", "ios": "https://dc.lft.to/lastmile_qr_scan"}, "fusion_lon": 0.0, "lat": 38.905669333333336, "bike_id": "e1abb3c960cfd036a13a34a958ebc81e", "type": "electric_scooter", "is_reserved": 0, "lon": -77.00488683333333}, {"fusion_lat": 0.0, "name": "2ddf43884b795d07d383e81a9550bdc8", "is_disabled": 0, "rental_uris": {"android": "https://dc.lft.to/lastmile_qr_scan", "ios": "https://dc.lft.to/lastmile_qr_scan"}, "fusion_lon": 0.0, "lat": 38.892215, "bike_id": "2ddf43884b795d07d383e81a9550bdc8", "type": "electric_scooter", "is_reserved": 0, "lon": -77.0241465}, {"fusion_lat": 0.0, "name": "1fea7ca60275479fca6d62de7cd2cc0c", "is_disabled": 0, "rental_uris": {"android": "https://dc.lft.to/lastmile_qr_scan", "ios": "https://dc.lft.to/lastmile_qr_scan"}, "fusion_lon": 0.0, "lat": 38.892249, "bike_id": "1fea7ca60275479fca6d62de7cd2cc0c", "type": "electric_scooter", "is_reserved": 0, "lon": -77.0419585}, {"fusion_lat": 0.0, "name": "18ff478da8d3456a412129355aade571", "is_disabled": 0, "rental_uris": {"android": "https://dc.lft.to/lastmile_qr_scan", "ios": "https://dc.lft.to/lastmile_qr_scan"}, "fusion_lon": 0.0, "lat": 38.89683, "bike_id": "18ff478da8d3456a412129355aade571", "type": "electric_scooter", "is_reserved": 0, "lon": -77.04990016666666}, {"fusion_lat": 0.0, "name": "371f5bc1cdd78bb8c88c86f38d33e311", "is_disabled": 0, "rental_uris": {"android": "https://dc.lft.to/lastmile_qr_scan", "ios": "https://dc.lft.to/lastmile_qr_scan"}, "fusion_lon": 0.0, "lat": 38.919310833333334, "bike_id": "371f5bc1cdd78bb8c88c86f38d33e311", "type": "electric_scooter", "is_reserved": 0, "lon": -77.0317885}, {"fusion_lat": 0.0, "name": "a6ef504a6f0158e14498b92d4f0fb49e", "is_disabled": 0, "rental_uris": {"android": "https://dc.lft.to/lastmile_qr_scan", "ios": "https://dc.lft.to/lastmile_qr_scan"}, "fusion_lon": 0.0, "lat": 38.944645, "bike_id": "a6ef504a6f0158e14498b92d4f0fb49e", "type": "electric_scooter", "is_reserved": 0, "lon": -77.00657166666667}, {"fusion_lat": 0.0, "name": "8226e1286c490f8692273898f364f439", "is_disabled": 0, "rental_uris": {"android": "https://dc.lft.to/lastmile_qr_scan", "ios": "https://dc.lft.to/lastmile_qr_scan"}, "fusion_lon": 0.0, "lat": 38.923537833333334, "bike_id": "8226e1286c490f8692273898f364f439", "type": "electric_scooter", "is_reserved": 0, "lon": -77.04387666666666}, {"fusion_lat": 0.0, "name": "8d9b190828ae6f3b0583c271574f34de", "is_disabled": 0, "rental_uris": {"android": "https://dc.lft.to/lastmile_qr_scan", "ios": "https://dc.lft.to/lastmile_qr_scan"}, "fusion_lon": 0.0, "lat": 38.8850895, "bike_id": "8d9b190828ae6f3b0583c271574f34de", "type": "electric_scooter", "is_reserved": 0, "lon": -76.99764633333334}, {"fusion_lat": 0.0, "name": "3180b52a6aa701167bbd99a05fa3d1aa", "is_disabled": 0, "rental_uris": {"android": "https://dc.lft.to/lastmile_qr_scan", "ios": "https://dc.lft.to/lastmile_qr_scan"}, "fusion_lon": 0.0, "lat": 38.9416575, "bike_id": "3180b52a6aa701167bbd99a05fa3d1aa", "type": "electric_bike", "is_reserved": 0, "lon": -76.96648033333334}, {"fusion_lat": 0.0, "name": "60930636e335acd8eabffb8930432d30", "is_disabled": 0, "rental_uris": {"android": "https://dc.lft.to/lastmile_qr_scan", "ios": "https://dc.lft.to/lastmile_qr_scan"}, "fusion_lon": 0.0, "lat": 38.941561, "bike_id": "60930636e335acd8eabffb8930432d30", "type": "electric_bike", "is_reserved": 0, "lon": -77.00193233333333}, {"fusion_lat": 0.0, "name": "b4f3afd346ab37fa3562bf0a29d54ca5", "is_disabled": 0, "rental_uris": {"android": "https://dc.lft.to/lastmile_qr_scan", "ios": "https://dc.lft.to/lastmile_qr_scan"}, "fusion_lon": 0.0, "lat": 38.89219466666667, "bike_id": "b4f3afd346ab37fa3562bf0a29d54ca5", "type": "electric_scooter", "is_reserved": 0, "lon": -77.02412966666667}, {"fusion_lat": 0.0, "name": "8d9456a5d8dc1e8d1156b345d7f2bbc5", "is_disabled": 0, "rental_uris": {"android": "https://dc.lft.to/lastmile_qr_scan", "ios": "https://dc.lft.to/lastmile_qr_scan"}, "fusion_lon": 0.0, "lat": 38.913835666666664, "bike_id": "8d9456a5d8dc1e8d1156b345d7f2bbc5", "type": "electric_scooter", "is_reserved": 0, "lon": -77.039537}, {"fusion_lat": 0.0, "name": "86c826d8df68b5abd1c1d77b86767fe1", "is_disabled": 0, "rental_uris": {"android": "https://dc.lft.to/lastmile_qr_scan", "ios": "https://dc.lft.to/lastmile_qr_scan"}, "fusion_lon": 0.0, "lat": 38.987877166666664, "bike_id": "86c826d8df68b5abd1c1d77b86767fe1", "type": "electric_bike", "is_reserved": 0, "lon": -77.14100383333333}, {"fusion_lat": 0.0, "name": "a4b57b7d1c5844443221df28bdc528e5", "is_disabled": 0, "rental_uris": {"android": "https://dc.lft.to/lastmile_qr_scan", "ios": "https://dc.lft.to/lastmile_qr_scan"}, "fusion_lon": 0.0, "lat": 38.91710883333333, "bike_id": "a4b57b7d1c5844443221df28bdc528e5", "type": "electric_scooter", "is_reserved": 0, "lon": -77.00870066666667}, {"fusion_lat": 0.0, "name": "e963645f05ccc51938de1633f48dc622", "is_disabled": 0, "rental_uris": {"android": "https://dc.lft.to/lastmile_qr_scan", "ios": "https://dc.lft.to/lastmile_qr_scan"}, "fusion_lon": 0.0, "lat": 38.9297335, "bike_id": "e963645f05ccc51938de1633f48dc622", "type": "electric_scooter", "is_reserved": 0, "lon": -77.031348}, {"fusion_lat": 0.0, "name": "22b90d241494a9aa600e41b6e5e8f828", "is_disabled": 0, "rental_uris": {"android": "https://dc.lft.to/lastmile_qr_scan", "ios": "https://dc.lft.to/lastmile_qr_scan"}, "fusion_lon": 0.0, "lat": 38.925444, "bike_id": "22b90d241494a9aa600e41b6e5e8f828", "type": "electric_scooter", "is_reserved": 0, "lon": -77.03832866666667}, {"fusion_lat": 0.0, "name": "53d199bb36aaf2a8076b68d2a7f5b6c9", "is_disabled": 0, "rental_uris": {"android": "https://dc.lft.to/lastmile_qr_scan", "ios": "https://dc.lft.to/lastmile_qr_scan"}, "fusion_lon": 0.0, "lat": 38.913169333333336, "bike_id": "53d199bb36aaf2a8076b68d2a7f5b6c9", "type": "electric_scooter", "is_reserved": 0, "lon": -77.02131183333333}, {"fusion_lat": 0.0, "name": "312f1bb2860841e70ef6977b0708705c", "is_disabled": 0, "rental_uris": {"android": "https://dc.lft.to/lastmile_qr_scan", "ios": "https://dc.lft.to/lastmile_qr_scan"}, "fusion_lon": 0.0, "lat": 38.87967166666667, "bike_id": "312f1bb2860841e70ef6977b0708705c", "type": "electric_bike", "is_reserved": 0, "lon": -76.91616483333334}, {"fusion_lat": 0.0, "name": "e4778ff2b3a11183d1e169ce05dedb80", "is_disabled": 0, "rental_uris": {"android": "https://dc.lft.to/lastmile_qr_scan", "ios": "https://dc.lft.to/lastmile_qr_scan"}, "fusion_lon": 0.0, "lat": 38.917323, "bike_id": "e4778ff2b3a11183d1e169ce05dedb80", "type": "electric_scooter", "is_reserved": 0, "lon": -77.03657783333334}, {"fusion_lat": 0.0, "name": "dc85c7d67d9b947899714a62190e82ae", "is_disabled": 0, "rental_uris": {"android": "https://dc.lft.to/lastmile_qr_scan", "ios": "https://dc.lft.to/lastmile_qr_scan"}, "fusion_lon": 0.0, "lat": 38.90039383333333, "bike_id": "dc85c7d67d9b947899714a62190e82ae", "type": "electric_scooter", "is_reserved": 0, "lon": -76.98554066666667}, {"fusion_lat": 0.0, "name": "c9d43f87881acba0130f1ab3fee76ece", "is_disabled": 0, "rental_uris": {"android": "https://dc.lft.to/lastmile_qr_scan", "ios": "https://dc.lft.to/lastmile_qr_scan"}, "fusion_lon": 0.0, "lat": 38.91790566666667, "bike_id": "c9d43f87881acba0130f1ab3fee76ece", "type": "electric_scooter", "is_reserved": 0, "lon": -77.04022733333333}, {"fusion_lat": 0.0, "name": "c6d7246793af8292de53c93c2ae6f210", "is_disabled": 0, "rental_uris": {"android": "https://dc.lft.to/lastmile_qr_scan", "ios": "https://dc.lft.to/lastmile_qr_scan"}, "fusion_lon": 0.0, "lat": 38.897271833333335, "bike_id": "c6d7246793af8292de53c93c2ae6f210", "type": "electric_scooter", "is_reserved": 0, "lon": -77.02165616666667}, {"fusion_lat": 0.0, "name": "0577ec3d563e052704f777fa1383e660", "is_disabled": 0, "rental_uris": {"android": "https://dc.lft.to/lastmile_qr_scan", "ios": "https://dc.lft.to/lastmile_qr_scan"}, "fusion_lon": 0.0, "lat": 38.914982, "bike_id": "0577ec3d563e052704f777fa1383e660", "type": "electric_scooter", "is_reserved": 0, "lon": -77.032082}, {"fusion_lat": 0.0, "name": "d7608270962546a36b9359c608cda4d8", "is_disabled": 0, "rental_uris": {"android": "https://dc.lft.to/lastmile_qr_scan", "ios": "https://dc.lft.to/lastmile_qr_scan"}, "fusion_lon": 0.0, "lat": 38.9242325, "bike_id": "d7608270962546a36b9359c608cda4d8", "type": "electric_scooter", "is_reserved": 0, "lon": -77.01959866666667}, {"fusion_lat": 0.0, "name": "2594d9295737a251955cedc943ae3c84", "is_disabled": 0, "rental_uris": {"android": "https://dc.lft.to/lastmile_qr_scan", "ios": "https://dc.lft.to/lastmile_qr_scan"}, "fusion_lon": 0.0, "lat": 38.9388015, "bike_id": "2594d9295737a251955cedc943ae3c84", "type": "electric_scooter", "is_reserved": 0, "lon": -77.02461366666667}, {"fusion_lat": 0.0, "name": "8d4e34341c5f96d55ddde6d69548dc3c", "is_disabled": 0, "rental_uris": {"android": "https://dc.lft.to/lastmile_qr_scan", "ios": "https://dc.lft.to/lastmile_qr_scan"}, "fusion_lon": 0.0, "lat": 38.92225833333333, "bike_id": "8d4e34341c5f96d55ddde6d69548dc3c", "type": "electric_scooter", "is_reserved": 0, "lon": -77.02364866666667}, {"fusion_lat": 0.0, "name": "645f8f352db7c5eb3c5c33b785e16c90", "is_disabled": 0, "rental_uris": {"android": "https://dc.lft.to/lastmile_qr_scan", "ios": "https://dc.lft.to/lastmile_qr_scan"}, "fusion_lon": 0.0, "lat": 38.928213666666664, "bike_id": "645f8f352db7c5eb3c5c33b785e16c90", "type": "electric_scooter", "is_reserved": 0, "lon": -77.02262566666667}, {"fusion_lat": 0.0, "name": "8c2f1fea0f3b067723f9ec6dba56786d", "is_disabled": 0, "rental_uris": {"android": "https://dc.lft.to/lastmile_qr_scan", "ios": "https://dc.lft.to/lastmile_qr_scan"}, "fusion_lon": 0.0, "lat": 38.89715266666666, "bike_id": "8c2f1fea0f3b067723f9ec6dba56786d", "type": "electric_scooter", "is_reserved": 0, "lon": -77.0229055}, {"fusion_lat": 0.0, "name": "763c0a8d7a75c0a0546933dfbcbc6006", "is_disabled": 0, "rental_uris": {"android": "https://dc.lft.to/lastmile_qr_scan", "ios": "https://dc.lft.to/lastmile_qr_scan"}, "fusion_lon": 0.0, "lat": 38.79761333333333, "bike_id": "763c0a8d7a75c0a0546933dfbcbc6006", "type": "electric_bike", "is_reserved": 0, "lon": -77.0475185}, {"fusion_lat": 0.0, "name": "bc5b01a7a90bb2da8988bc2ab6b1ab85", "is_disabled": 0, "rental_uris": {"android": "https://dc.lft.to/lastmile_qr_scan", "ios": "https://dc.lft.to/lastmile_qr_scan"}, "fusion_lon": 0.0, "lat": 38.90763466666667, "bike_id": "bc5b01a7a90bb2da8988bc2ab6b1ab85", "type": "electric_scooter", "is_reserved": 0, "lon": -77.05653766666667}, {"fusion_lat": 0.0, "name": "01712d5660f37be9721cafaec59e0938", "is_disabled": 0, "rental_uris": {"android": "https://dc.lft.to/lastmile_qr_scan", "ios": "https://dc.lft.to/lastmile_qr_scan"}, "fusion_lon": 0.0, "lat": 38.883251666666666, "bike_id": "01712d5660f37be9721cafaec59e0938", "type": "electric_bike", "is_reserved": 0, "lon": -76.9605605}, {"fusion_lat": 0.0, "name": "3fd8ecc880682a5b4a87764eac89ff3d", "is_disabled": 0, "rental_uris": {"android": "https://dc.lft.to/lastmile_qr_scan", "ios": "https://dc.lft.to/lastmile_qr_scan"}, "fusion_lon": 0.0, "lat": 38.827914666666665, "bike_id": "3fd8ecc880682a5b4a87764eac89ff3d", "type": "electric_bike", "is_reserved": 0, "lon": -77.124864}, {"fusion_lat": 0.0, "name": "61f8139c856a398f8112b7a888107ab0", "is_disabled": 0, "rental_uris": {"android": "https://dc.lft.to/lastmile_qr_scan", "ios": "https://dc.lft.to/lastmile_qr_scan"}, "fusion_lon": 0.0, "lat": 38.881487166666666, "bike_id": "61f8139c856a398f8112b7a888107ab0", "type": "electric_scooter", "is_reserved": 0, "lon": -76.99506933333333}, {"fusion_lat": 0.0, "name": "297b786edfeb0aa18c33461634aae7f6", "is_disabled": 0, "rental_uris": {"android": "https://dc.lft.to/lastmile_qr_scan", "ios": "https://dc.lft.to/lastmile_qr_scan"}, "fusion_lon": 0.0, "lat": 38.9111325, "bike_id": "297b786edfeb0aa18c33461634aae7f6", "type": "electric_scooter", "is_reserved": 0, "lon": -77.08131533333334}, {"fusion_lat": 0.0, "name": "8d8e35e9cb8fbc4e9300fec80af6f6de", "is_disabled": 0, "rental_uris": {"android": "https://dc.lft.to/lastmile_qr_scan", "ios": "https://dc.lft.to/lastmile_qr_scan"}, "fusion_lon": 0.0, "lat": 38.92151583333333, "bike_id": "8d8e35e9cb8fbc4e9300fec80af6f6de", "type": "electric_scooter", "is_reserved": 0, "lon": -77.033652}, {"fusion_lat": 0.0, "name": "1f6ec8298ecabf52b8198f598a2a1dd4", "is_disabled": 0, "rental_uris": {"android": "https://dc.lft.to/lastmile_qr_scan", "ios": "https://dc.lft.to/lastmile_qr_scan"}, "fusion_lon": 0.0, "lat": 38.9104835, "bike_id": "1f6ec8298ecabf52b8198f598a2a1dd4", "type": "electric_scooter", "is_reserved": 0, "lon": -77.026834}, {"fusion_lat": 0.0, "name": "e6ce0756dc79b5494be766e230e6875b", "is_disabled": 0, "rental_uris": {"android": "https://dc.lft.to/lastmile_qr_scan", "ios": "https://dc.lft.to/lastmile_qr_scan"}, "fusion_lon": 0.0, "lat": 38.907526833333336, "bike_id": "e6ce0756dc79b5494be766e230e6875b", "type": "electric_scooter", "is_reserved": 0, "lon": -77.0295055}, {"fusion_lat": 0.0, "name": "231c52078cbc96a0da7bfe60eb22d35d", "is_disabled": 0, "rental_uris": {"android": "https://dc.lft.to/lastmile_qr_scan", "ios": "https://dc.lft.to/lastmile_qr_scan"}, "fusion_lon": 0.0, "lat": 38.91481983333333, "bike_id": "231c52078cbc96a0da7bfe60eb22d35d", "type": "electric_scooter", "is_reserved": 0, "lon": -77.04017666666667}, {"fusion_lat": 0.0, "name": "aaa60994d923f37dc7ce0446c228a09d", "is_disabled": 0, "rental_uris": {"android": "https://dc.lft.to/lastmile_qr_scan", "ios": "https://dc.lft.to/lastmile_qr_scan"}, "fusion_lon": 0.0, "lat": 38.939678666666666, "bike_id": "aaa60994d923f37dc7ce0446c228a09d", "type": "electric_scooter", "is_reserved": 0, "lon": -77.03282}, {"fusion_lat": 0.0, "name": "50352265e2226a091c087bbb258b0535", "is_disabled": 0, "rental_uris": {"android": "https://dc.lft.to/lastmile_qr_scan", "ios": "https://dc.lft.to/lastmile_qr_scan"}, "fusion_lon": 0.0, "lat": 38.93771366666667, "bike_id": "50352265e2226a091c087bbb258b0535", "type": "electric_scooter", "is_reserved": 0, "lon": -77.03261466666666}, {"fusion_lat": 0.0, "name": "9e7f3625385891fe571b7ae22519230a", "is_disabled": 0, "rental_uris": {"android": "https://dc.lft.to/lastmile_qr_scan", "ios": "https://dc.lft.to/lastmile_qr_scan"}, "fusion_lon": 0.0, "lat": 38.892259, "bike_id": "9e7f3625385891fe571b7ae22519230a", "type": "electric_scooter", "is_reserved": 0, "lon": -77.050328}, {"fusion_lat": 0.0, "name": "18ec961dae88aba8afc843a6affb0a6b", "is_disabled": 0, "rental_uris": {"android": "https://dc.lft.to/lastmile_qr_scan", "ios": "https://dc.lft.to/lastmile_qr_scan"}, "fusion_lon": 0.0, "lat": 38.91693016666667, "bike_id": "18ec961dae88aba8afc843a6affb0a6b", "type": "electric_scooter", "is_reserved": 0, "lon": -77.03494933333333}, {"fusion_lat": 0.0, "name": "be643f9fbd1e8c659ac4ec5a3c0d176c", "is_disabled": 0, "rental_uris": {"android": "https://dc.lft.to/lastmile_qr_scan", "ios": "https://dc.lft.to/lastmile_qr_scan"}, "fusion_lon": 0.0, "lat": 38.9220795, "bike_id": "be643f9fbd1e8c659ac4ec5a3c0d176c", "type": "electric_scooter", "is_reserved": 0, "lon": -77.0423815}, {"fusion_lat": 0.0, "name": "83da4154236e16a640fa38e0c657dc95", "is_disabled": 0, "rental_uris": {"android": "https://dc.lft.to/lastmile_qr_scan", "ios": "https://dc.lft.to/lastmile_qr_scan"}, "fusion_lon": 0.0, "lat": 38.94976066666667, "bike_id": "83da4154236e16a640fa38e0c657dc95", "type": "electric_scooter", "is_reserved": 0, "lon": -77.0244585}, {"fusion_lat": 0.0, "name": "5f0494d6637afe1dd70f9bd5d587b28b", "is_disabled": 0, "rental_uris": {"android": "https://dc.lft.to/lastmile_qr_scan", "ios": "https://dc.lft.to/lastmile_qr_scan"}, "fusion_lon": 0.0, "lat": 38.9097235, "bike_id": "5f0494d6637afe1dd70f9bd5d587b28b", "type": "electric_scooter", "is_reserved": 0, "lon": -77.03249616666666}, {"fusion_lat": 0.0, "name": "06a19381923c5dd1492b02ecf3ab285b", "is_disabled": 0, "rental_uris": {"android": "https://dc.lft.to/lastmile_qr_scan", "ios": "https://dc.lft.to/lastmile_qr_scan"}, "fusion_lon": 0.0, "lat": 38.917246166666665, "bike_id": "06a19381923c5dd1492b02ecf3ab285b", "type": "electric_scooter", "is_reserved": 0, "lon": -77.02973183333333}, {"fusion_lat": 0.0, "name": "8a56b668e0edf3136e29af8537dbcf75", "is_disabled": 0, "rental_uris": {"android": "https://dc.lft.to/lastmile_qr_scan", "ios": "https://dc.lft.to/lastmile_qr_scan"}, "fusion_lon": 0.0, "lat": 38.90636633333333, "bike_id": "8a56b668e0edf3136e29af8537dbcf75", "type": "electric_scooter", "is_reserved": 0, "lon": -77.03142816666667}, {"fusion_lat": 0.0, "name": "ea931766b5b2e4577744a7001276f04a", "is_disabled": 0, "rental_uris": {"android": "https://dc.lft.to/lastmile_qr_scan", "ios": "https://dc.lft.to/lastmile_qr_scan"}, "fusion_lon": 0.0, "lat": 38.90748416666667, "bike_id": "ea931766b5b2e4577744a7001276f04a", "type": "electric_scooter", "is_reserved": 0, "lon": -77.02954366666667}, {"fusion_lat": 0.0, "name": "aadf356a958f1076a6ddc9c4435aab50", "is_disabled": 0, "rental_uris": {"android": "https://dc.lft.to/lastmile_qr_scan", "ios": "https://dc.lft.to/lastmile_qr_scan"}, "fusion_lon": 0.0, "lat": 38.8871195, "bike_id": "aadf356a958f1076a6ddc9c4435aab50", "type": "electric_scooter", "is_reserved": 0, "lon": -76.99681216666667}, {"fusion_lat": 0.0, "name": "1bd7dde089ed765b928ce74d09fd252f", "is_disabled": 0, "rental_uris": {"android": "https://dc.lft.to/lastmile_qr_scan", "ios": "https://dc.lft.to/lastmile_qr_scan"}, "fusion_lon": 0.0, "lat": 38.9245095, "bike_id": "1bd7dde089ed765b928ce74d09fd252f", "type": "electric_scooter", "is_reserved": 0, "lon": -77.03972033333334}, {"fusion_lat": 0.0, "name": "c3e3bef13dc3ea4b7cd8cfea884759e3", "is_disabled": 0, "rental_uris": {"android": "https://dc.lft.to/lastmile_qr_scan", "ios": "https://dc.lft.to/lastmile_qr_scan"}, "fusion_lon": 0.0, "lat": 38.915761, "bike_id": "c3e3bef13dc3ea4b7cd8cfea884759e3", "type": "electric_scooter", "is_reserved": 0, "lon": -77.02288883333334}, {"fusion_lat": 0.0, "name": "8a95743941e8b9b9eec389ba54b55eb0", "is_disabled": 0, "rental_uris": {"android": "https://dc.lft.to/lastmile_qr_scan", "ios": "https://dc.lft.to/lastmile_qr_scan"}, "fusion_lon": 0.0, "lat": 38.93257583333333, "bike_id": "8a95743941e8b9b9eec389ba54b55eb0", "type": "electric_scooter", "is_reserved": 0, "lon": -77.0400575}, {"fusion_lat": 0.0, "name": "7e433cecb5b460d65867a7a9e1baee96", "is_disabled": 0, "rental_uris": {"android": "https://dc.lft.to/lastmile_qr_scan", "ios": "https://dc.lft.to/lastmile_qr_scan"}, "fusion_lon": 0.0, "lat": 38.92963983333333, "bike_id": "7e433cecb5b460d65867a7a9e1baee96", "type": "electric_scooter", "is_reserved": 0, "lon": -77.03185716666667}, {"fusion_lat": 0.0, "name": "1d9f56f6f89b6bf01d0ff021e6645487", "is_disabled": 0, "rental_uris": {"android": "https://dc.lft.to/lastmile_qr_scan", "ios": "https://dc.lft.to/lastmile_qr_scan"}, "fusion_lon": 0.0, "lat": 38.919670333333336, "bike_id": "1d9f56f6f89b6bf01d0ff021e6645487", "type": "electric_scooter", "is_reserved": 0, "lon": -77.02401433333333}, {"fusion_lat": 0.0, "name": "39a0a09d312d069956fa2a6a699b85c3", "is_disabled": 0, "rental_uris": {"android": "https://dc.lft.to/lastmile_qr_scan", "ios": "https://dc.lft.to/lastmile_qr_scan"}, "fusion_lon": 0.0, "lat": 38.87944566666667, "bike_id": "39a0a09d312d069956fa2a6a699b85c3", "type": "electric_bike", "is_reserved": 0, "lon": -77.01007683333333}, {"fusion_lat": 0.0, "name": "42098296e571485bfed97c41fce1ef4c", "is_disabled": 0, "rental_uris": {"android": "https://dc.lft.to/lastmile_qr_scan", "ios": "https://dc.lft.to/lastmile_qr_scan"}, "fusion_lon": 0.0, "lat": 38.89895766666667, "bike_id": "42098296e571485bfed97c41fce1ef4c", "type": "electric_scooter", "is_reserved": 0, "lon": -77.01506816666667}, {"fusion_lat": 0.0, "name": "a425e9ca3cb57a6e51c1e90e17a81c7d", "is_disabled": 0, "rental_uris": {"android": "https://dc.lft.to/lastmile_qr_scan", "ios": "https://dc.lft.to/lastmile_qr_scan"}, "fusion_lon": 0.0, "lat": 38.911964166666664, "bike_id": "a425e9ca3cb57a6e51c1e90e17a81c7d", "type": "electric_scooter", "is_reserved": 0, "lon": -77.04550766666667}, {"fusion_lat": 0.0, "name": "fe3d4203317b3f50976c65024de013c3", "is_disabled": 0, "rental_uris": {"android": "https://dc.lft.to/lastmile_qr_scan", "ios": "https://dc.lft.to/lastmile_qr_scan"}, "fusion_lon": 0.0, "lat": 38.901743833333335, "bike_id": "fe3d4203317b3f50976c65024de013c3", "type": "electric_scooter", "is_reserved": 0, "lon": -77.046447}, {"fusion_lat": 0.0, "name": "c740aef36ca53dfaa6af7a1270b08458", "is_disabled": 0, "rental_uris": {"android": "https://dc.lft.to/lastmile_qr_scan", "ios": "https://dc.lft.to/lastmile_qr_scan"}, "fusion_lon": 0.0, "lat": 38.94267933333333, "bike_id": "c740aef36ca53dfaa6af7a1270b08458", "type": "electric_bike", "is_reserved": 0, "lon": -76.994567}, {"fusion_lat": 0.0, "name": "17cf7fa9eb975f19698b6b399c74e824", "is_disabled": 0, "rental_uris": {"android": "https://dc.lft.to/lastmile_qr_scan", "ios": "https://dc.lft.to/lastmile_qr_scan"}, "fusion_lon": 0.0, "lat": 38.86621783333333, "bike_id": "17cf7fa9eb975f19698b6b399c74e824", "type": "electric_bike", "is_reserved": 0, "lon": -76.94568616666666}, {"fusion_lat": 0.0, "name": "49818d36a64574ee0ee7c7da66570c3e", "is_disabled": 0, "rental_uris": {"android": "https://dc.lft.to/lastmile_qr_scan", "ios": "https://dc.lft.to/lastmile_qr_scan"}, "fusion_lon": 0.0, "lat": 38.922647166666664, "bike_id": "49818d36a64574ee0ee7c7da66570c3e", "type": "electric_scooter", "is_reserved": 0, "lon": -77.07489966666667}, {"fusion_lat": 0.0, "name": "8aef7f917498847a67344a47dd27319c", "is_disabled": 0, "rental_uris": {"android": "https://dc.lft.to/lastmile_qr_scan", "ios": "https://dc.lft.to/lastmile_qr_scan"}, "fusion_lon": 0.0, "lat": 38.903705333333335, "bike_id": "8aef7f917498847a67344a47dd27319c", "type": "electric_scooter", "is_reserved": 0, "lon": -77.0449775}, {"fusion_lat": 0.0, "name": "b7892c638be52fe1dd037271ea18174c", "is_disabled": 0, "rental_uris": {"android": "https://dc.lft.to/lastmile_qr_scan", "ios": "https://dc.lft.to/lastmile_qr_scan"}, "fusion_lon": 0.0, "lat": 38.9049805, "bike_id": "b7892c638be52fe1dd037271ea18174c", "type": "electric_scooter", "is_reserved": 0, "lon": -77.02953316666667}, {"fusion_lat": 0.0, "name": "c90687ca5c0f02b873d12434558977bf", "is_disabled": 0, "rental_uris": {"android": "https://dc.lft.to/lastmile_qr_scan", "ios": "https://dc.lft.to/lastmile_qr_scan"}, "fusion_lon": 0.0, "lat": 38.876921, "bike_id": "c90687ca5c0f02b873d12434558977bf", "type": "electric_scooter", "is_reserved": 0, "lon": -77.00733733333334}, {"fusion_lat": 0.0, "name": "37ec56421a667716586528efd94d0555", "is_disabled": 0, "rental_uris": {"android": "https://dc.lft.to/lastmile_qr_scan", "ios": "https://dc.lft.to/lastmile_qr_scan"}, "fusion_lon": 0.0, "lat": 38.916938333333334, "bike_id": "37ec56421a667716586528efd94d0555", "type": "electric_scooter", "is_reserved": 0, "lon": -77.0321265}, {"fusion_lat": 0.0, "name": "ba55aae1925e60fdfac5497d9cc9a961", "is_disabled": 0, "rental_uris": {"android": "https://dc.lft.to/lastmile_qr_scan", "ios": "https://dc.lft.to/lastmile_qr_scan"}, "fusion_lon": 0.0, "lat": 38.90357616666667, "bike_id": "ba55aae1925e60fdfac5497d9cc9a961", "type": "electric_scooter", "is_reserved": 0, "lon": -77.06268083333333}, {"fusion_lat": 0.0, "name": "444c0cfe737ec45d54014f29b25e37bc", "is_disabled": 0, "rental_uris": {"android": "https://dc.lft.to/lastmile_qr_scan", "ios": "https://dc.lft.to/lastmile_qr_scan"}, "fusion_lon": 0.0, "lat": 38.865196166666664, "bike_id": "444c0cfe737ec45d54014f29b25e37bc", "type": "electric_bike", "is_reserved": 0, "lon": -76.9733435}, {"fusion_lat": 0.0, "name": "cf8245fd54d1e7e5393c03be11e03c92", "is_disabled": 0, "rental_uris": {"android": "https://dc.lft.to/lastmile_qr_scan", "ios": "https://dc.lft.to/lastmile_qr_scan"}, "fusion_lon": 0.0, "lat": 38.92810383333333, "bike_id": "cf8245fd54d1e7e5393c03be11e03c92", "type": "electric_scooter", "is_reserved": 0, "lon": -77.04361416666667}, {"fusion_lat": 0.0, "name": "c488e4456f1ae9c8b017a45d3053bdc1", "is_disabled": 0, "rental_uris": {"android": "https://dc.lft.to/lastmile_qr_scan", "ios": "https://dc.lft.to/lastmile_qr_scan"}, "fusion_lon": 0.0, "lat": 38.938784166666665, "bike_id": "c488e4456f1ae9c8b017a45d3053bdc1", "type": "electric_scooter", "is_reserved": 0, "lon": -77.02463283333333}, {"fusion_lat": 0.0, "name": "eea49701c472b5af92a6fbee0c016c9a", "is_disabled": 0, "rental_uris": {"android": "https://dc.lft.to/lastmile_qr_scan", "ios": "https://dc.lft.to/lastmile_qr_scan"}, "fusion_lon": 0.0, "lat": 38.919129833333336, "bike_id": "eea49701c472b5af92a6fbee0c016c9a", "type": "electric_scooter", "is_reserved": 0, "lon": -77.03198616666667}, {"fusion_lat": 0.0, "name": "8e2acbe11a063eac37f37287a629761e", "is_disabled": 0, "rental_uris": {"android": "https://dc.lft.to/lastmile_qr_scan", "ios": "https://dc.lft.to/lastmile_qr_scan"}, "fusion_lon": 0.0, "lat": 38.91014883333333, "bike_id": "8e2acbe11a063eac37f37287a629761e", "type": "electric_scooter", "is_reserved": 0, "lon": -77.02715083333334}, {"fusion_lat": 0.0, "name": "ae5307d9c2d20ccce7ff52449a06b7e8", "is_disabled": 0, "rental_uris": {"android": "https://dc.lft.to/lastmile_qr_scan", "ios": "https://dc.lft.to/lastmile_qr_scan"}, "fusion_lon": 0.0, "lat": 38.849116333333335, "bike_id": "ae5307d9c2d20ccce7ff52449a06b7e8", "type": "electric_bike", "is_reserved": 0, "lon": -77.09979416666667}, {"fusion_lat": 0.0, "name": "853e049cffd6fd086570edfe55a23aed", "is_disabled": 0, "rental_uris": {"android": "https://dc.lft.to/lastmile_qr_scan", "ios": "https://dc.lft.to/lastmile_qr_scan"}, "fusion_lon": 0.0, "lat": 38.91491583333333, "bike_id": "853e049cffd6fd086570edfe55a23aed", "type": "electric_scooter", "is_reserved": 0, "lon": -77.04162483333333}, {"fusion_lat": 0.0, "name": "218d0c7bd0d81839f93679126313f206", "is_disabled": 0, "rental_uris": {"android": "https://dc.lft.to/lastmile_qr_scan", "ios": "https://dc.lft.to/lastmile_qr_scan"}, "fusion_lon": 0.0, "lat": 38.91308266666667, "bike_id": "218d0c7bd0d81839f93679126313f206", "type": "electric_scooter", "is_reserved": 0, "lon": -77.03658316666667}, {"fusion_lat": 0.0, "name": "f8a588ee01f8c2b631c14605cca160fd", "is_disabled": 0, "rental_uris": {"android": "https://dc.lft.to/lastmile_qr_scan", "ios": "https://dc.lft.to/lastmile_qr_scan"}, "fusion_lon": 0.0, "lat": 38.90634216666667, "bike_id": "f8a588ee01f8c2b631c14605cca160fd", "type": "electric_scooter", "is_reserved": 0, "lon": -77.00655133333333}, {"fusion_lat": 0.0, "name": "22c71f13c015aa78be0e65feb62d0361", "is_disabled": 0, "rental_uris": {"android": "https://dc.lft.to/lastmile_qr_scan", "ios": "https://dc.lft.to/lastmile_qr_scan"}, "fusion_lon": 0.0, "lat": 38.9227745, "bike_id": "22c71f13c015aa78be0e65feb62d0361", "type": "electric_scooter", "is_reserved": 0, "lon": -77.03681783333333}, {"fusion_lat": 0.0, "name": "21cdca6f5d23e313e594b1f287dc71e3", "is_disabled": 0, "rental_uris": {"android": "https://dc.lft.to/lastmile_qr_scan", "ios": "https://dc.lft.to/lastmile_qr_scan"}, "fusion_lon": 0.0, "lat": 38.966694, "bike_id": "21cdca6f5d23e313e594b1f287dc71e3", "type": "electric_scooter", "is_reserved": 0, "lon": -77.02550083333334}, {"fusion_lat": 0.0, "name": "0ee5417c41d0617effdc2284254384a3", "is_disabled": 0, "rental_uris": {"android": "https://dc.lft.to/lastmile_qr_scan", "ios": "https://dc.lft.to/lastmile_qr_scan"}, "fusion_lon": 0.0, "lat": 38.89745283333333, "bike_id": "0ee5417c41d0617effdc2284254384a3", "type": "electric_scooter", "is_reserved": 0, "lon": -77.0454225}, {"fusion_lat": 0.0, "name": "fe123a895e05552b8ea240ace006fe18", "is_disabled": 0, "rental_uris": {"android": "https://dc.lft.to/lastmile_qr_scan", "ios": "https://dc.lft.to/lastmile_qr_scan"}, "fusion_lon": 0.0, "lat": 38.9126495, "bike_id": "fe123a895e05552b8ea240ace006fe18", "type": "electric_scooter", "is_reserved": 0, "lon": -77.0447125}, {"fusion_lat": 0.0, "name": "9faaf7d15e201bee7e3c2f3f0d81dbc9", "is_disabled": 0, "rental_uris": {"android": "https://dc.lft.to/lastmile_qr_scan", "ios": "https://dc.lft.to/lastmile_qr_scan"}, "fusion_lon": 0.0, "lat": 38.88146616666667, "bike_id": "9faaf7d15e201bee7e3c2f3f0d81dbc9", "type": "electric_scooter", "is_reserved": 0, "lon": -76.99504666666667}, {"fusion_lat": 0.0, "name": "e56c8fa49341f7328dcaf52998030d9e", "is_disabled": 0, "rental_uris": {"android": "https://dc.lft.to/lastmile_qr_scan", "ios": "https://dc.lft.to/lastmile_qr_scan"}, "fusion_lon": 0.0, "lat": 38.896791, "bike_id": "e56c8fa49341f7328dcaf52998030d9e", "type": "electric_scooter", "is_reserved": 0, "lon": -77.00551}, {"fusion_lat": 0.0, "name": "819ed4aae1195fbc9102af6101c69b55", "is_disabled": 0, "rental_uris": {"android": "https://dc.lft.to/lastmile_qr_scan", "ios": "https://dc.lft.to/lastmile_qr_scan"}, "fusion_lon": 0.0, "lat": 38.880663, "bike_id": "819ed4aae1195fbc9102af6101c69b55", "type": "electric_scooter", "is_reserved": 0, "lon": -76.98504383333334}, {"fusion_lat": 0.0, "name": "7bf90843985b7ef141f461c0ed1d22f6", "is_disabled": 0, "rental_uris": {"android": "https://dc.lft.to/lastmile_qr_scan", "ios": "https://dc.lft.to/lastmile_qr_scan"}, "fusion_lon": 0.0, "lat": 38.923415, "bike_id": "7bf90843985b7ef141f461c0ed1d22f6", "type": "electric_scooter", "is_reserved": 0, "lon": -77.03487683333333}, {"fusion_lat": 0.0, "name": "e50eefdaca8a1398fca1408ae9d1f143", "is_disabled": 0, "rental_uris": {"android": "https://dc.lft.to/lastmile_qr_scan", "ios": "https://dc.lft.to/lastmile_qr_scan"}, "fusion_lon": 0.0, "lat": 38.914893166666666, "bike_id": "e50eefdaca8a1398fca1408ae9d1f143", "type": "electric_scooter", "is_reserved": 0, "lon": -77.014137}, {"fusion_lat": 0.0, "name": "9a589a3ec1ab520d4fd14d6ab1b5036d", "is_disabled": 0, "rental_uris": {"android": "https://dc.lft.to/lastmile_qr_scan", "ios": "https://dc.lft.to/lastmile_qr_scan"}, "fusion_lon": 0.0, "lat": 38.902046166666665, "bike_id": "9a589a3ec1ab520d4fd14d6ab1b5036d", "type": "electric_scooter", "is_reserved": 0, "lon": -77.02210583333333}, {"fusion_lat": 0.0, "name": "3daa4bae0b11bf58a78cdf58ad70208c", "is_disabled": 0, "rental_uris": {"android": "https://dc.lft.to/lastmile_qr_scan", "ios": "https://dc.lft.to/lastmile_qr_scan"}, "fusion_lon": 0.0, "lat": 38.926684, "bike_id": "3daa4bae0b11bf58a78cdf58ad70208c", "type": "electric_scooter", "is_reserved": 0, "lon": -77.0515325}, {"fusion_lat": 0.0, "name": "75cc3707d4ac0a0d2b69dc7ddd2cb013", "is_disabled": 0, "rental_uris": {"android": "https://dc.lft.to/lastmile_qr_scan", "ios": "https://dc.lft.to/lastmile_qr_scan"}, "fusion_lon": 0.0, "lat": 38.907225833333335, "bike_id": "75cc3707d4ac0a0d2b69dc7ddd2cb013", "type": "electric_scooter", "is_reserved": 0, "lon": -77.02941933333334}, {"fusion_lat": 0.0, "name": "8a37e068bbac41b62c6ff0e598b309c7", "is_disabled": 0, "rental_uris": {"android": "https://dc.lft.to/lastmile_qr_scan", "ios": "https://dc.lft.to/lastmile_qr_scan"}, "fusion_lon": 0.0, "lat": 38.896262, "bike_id": "8a37e068bbac41b62c6ff0e598b309c7", "type": "electric_scooter", "is_reserved": 0, "lon": -77.02668566666667}, {"fusion_lat": 0.0, "name": "ea1486cd73e047fb4984fb58c0494e41", "is_disabled": 0, "rental_uris": {"android": "https://dc.lft.to/lastmile_qr_scan", "ios": "https://dc.lft.to/lastmile_qr_scan"}, "fusion_lon": 0.0, "lat": 38.924067, "bike_id": "ea1486cd73e047fb4984fb58c0494e41", "type": "electric_scooter", "is_reserved": 0, "lon": -77.02545083333334}, {"fusion_lat": 0.0, "name": "9d3e0a3bb421f55f377ab48c4f34d35e", "is_disabled": 0, "rental_uris": {"android": "https://dc.lft.to/lastmile_qr_scan", "ios": "https://dc.lft.to/lastmile_qr_scan"}, "fusion_lon": 0.0, "lat": 38.911576833333335, "bike_id": "9d3e0a3bb421f55f377ab48c4f34d35e", "type": "electric_scooter", "is_reserved": 0, "lon": -76.98723016666666}, {"fusion_lat": 0.0, "name": "87e39a9eac6de1a4e8a59bd7bf09753f", "is_disabled": 0, "rental_uris": {"android": "https://dc.lft.to/lastmile_qr_scan", "ios": "https://dc.lft.to/lastmile_qr_scan"}, "fusion_lon": 0.0, "lat": 38.907936166666666, "bike_id": "87e39a9eac6de1a4e8a59bd7bf09753f", "type": "electric_scooter", "is_reserved": 0, "lon": -76.99423183333333}, {"fusion_lat": 0.0, "name": "171056e7198f94d94bafd652825e0c43", "is_disabled": 0, "rental_uris": {"android": "https://dc.lft.to/lastmile_qr_scan", "ios": "https://dc.lft.to/lastmile_qr_scan"}, "fusion_lon": 0.0, "lat": 38.92270883333333, "bike_id": "171056e7198f94d94bafd652825e0c43", "type": "electric_bike", "is_reserved": 0, "lon": -77.02244316666666}, {"fusion_lat": 0.0, "name": "dc7ba90fe0ed87bf0dc8b28c41564e30", "is_disabled": 0, "rental_uris": {"android": "https://dc.lft.to/lastmile_qr_scan", "ios": "https://dc.lft.to/lastmile_qr_scan"}, "fusion_lon": 0.0, "lat": 38.9056165, "bike_id": "dc7ba90fe0ed87bf0dc8b28c41564e30", "type": "electric_scooter", "is_reserved": 0, "lon": -76.98200533333333}, {"fusion_lat": 0.0, "name": "ba563debb4ff48737b13863ebc87ef0b", "is_disabled": 0, "rental_uris": {"android": "https://dc.lft.to/lastmile_qr_scan", "ios": "https://dc.lft.to/lastmile_qr_scan"}, "fusion_lon": 0.0, "lat": 38.90549733333334, "bike_id": "ba563debb4ff48737b13863ebc87ef0b", "type": "electric_scooter", "is_reserved": 0, "lon": -77.065175}, {"fusion_lat": 0.0, "name": "8106a138e009dd55bb4715c5a34445ce", "is_disabled": 0, "rental_uris": {"android": "https://dc.lft.to/lastmile_qr_scan", "ios": "https://dc.lft.to/lastmile_qr_scan"}, "fusion_lon": 0.0, "lat": 38.922528166666666, "bike_id": "8106a138e009dd55bb4715c5a34445ce", "type": "electric_scooter", "is_reserved": 0, "lon": -77.07449866666667}, {"fusion_lat": 0.0, "name": "05a3791ed95512581d6d0640a3c64094", "is_disabled": 0, "rental_uris": {"android": "https://dc.lft.to/lastmile_qr_scan", "ios": "https://dc.lft.to/lastmile_qr_scan"}, "fusion_lon": 0.0, "lat": 38.9063565, "bike_id": "05a3791ed95512581d6d0640a3c64094", "type": "electric_scooter", "is_reserved": 0, "lon": -77.0314415}, {"fusion_lat": 0.0, "name": "c5ef46c59ab71370d95cafd52fbf6e9d", "is_disabled": 0, "rental_uris": {"android": "https://dc.lft.to/lastmile_qr_scan", "ios": "https://dc.lft.to/lastmile_qr_scan"}, "fusion_lon": 0.0, "lat": 38.91497966666667, "bike_id": "c5ef46c59ab71370d95cafd52fbf6e9d", "type": "electric_scooter", "is_reserved": 0, "lon": -76.98365916666667}, {"fusion_lat": 0.0, "name": "4c4220e60bcd278fc68180917408cdb7", "is_disabled": 0, "rental_uris": {"android": "https://dc.lft.to/lastmile_qr_scan", "ios": "https://dc.lft.to/lastmile_qr_scan"}, "fusion_lon": 0.0, "lat": 38.88826533333334, "bike_id": "4c4220e60bcd278fc68180917408cdb7", "type": "electric_scooter", "is_reserved": 0, "lon": -76.986643}, {"fusion_lat": 0.0, "name": "69aed01c2c95f31f98715d2a6ac616e9", "is_disabled": 0, "rental_uris": {"android": "https://dc.lft.to/lastmile_qr_scan", "ios": "https://dc.lft.to/lastmile_qr_scan"}, "fusion_lon": 0.0, "lat": 38.9206965, "bike_id": "69aed01c2c95f31f98715d2a6ac616e9", "type": "electric_scooter", "is_reserved": 0, "lon": -77.02416233333334}, {"fusion_lat": 0.0, "name": "70aef109b2c52209f34d09fe3df2cc3d", "is_disabled": 0, "rental_uris": {"android": "https://dc.lft.to/lastmile_qr_scan", "ios": "https://dc.lft.to/lastmile_qr_scan"}, "fusion_lon": 0.0, "lat": 38.92728733333333, "bike_id": "70aef109b2c52209f34d09fe3df2cc3d", "type": "electric_scooter", "is_reserved": 0, "lon": -77.02302116666667}, {"fusion_lat": 0.0, "name": "8f6a0d3b8ccb5cfda806563286fdfc1a", "is_disabled": 0, "rental_uris": {"android": "https://dc.lft.to/lastmile_qr_scan", "ios": "https://dc.lft.to/lastmile_qr_scan"}, "fusion_lon": 0.0, "lat": 38.85461033333333, "bike_id": "8f6a0d3b8ccb5cfda806563286fdfc1a", "type": "electric_scooter", "is_reserved": 0, "lon": -76.97217333333333}, {"fusion_lat": 0.0, "name": "7c1678223bcf0e5eaa93a8334587bc57", "is_disabled": 0, "rental_uris": {"android": "https://dc.lft.to/lastmile_qr_scan", "ios": "https://dc.lft.to/lastmile_qr_scan"}, "fusion_lon": 0.0, "lat": 38.8922185, "bike_id": "7c1678223bcf0e5eaa93a8334587bc57", "type": "electric_scooter", "is_reserved": 0, "lon": -77.032179}, {"fusion_lat": 0.0, "name": "d26144ce91d53ee60f4a550861829dcd", "is_disabled": 0, "rental_uris": {"android": "https://dc.lft.to/lastmile_qr_scan", "ios": "https://dc.lft.to/lastmile_qr_scan"}, "fusion_lon": 0.0, "lat": 38.90247183333334, "bike_id": "d26144ce91d53ee60f4a550861829dcd", "type": "electric_scooter", "is_reserved": 0, "lon": -77.0193085}, {"fusion_lat": 0.0, "name": "cfab29f17e53dd24570a1e5688731352", "is_disabled": 0, "rental_uris": {"android": "https://dc.lft.to/lastmile_qr_scan", "ios": "https://dc.lft.to/lastmile_qr_scan"}, "fusion_lon": 0.0, "lat": 38.907193166666666, "bike_id": "cfab29f17e53dd24570a1e5688731352", "type": "electric_scooter", "is_reserved": 0, "lon": -77.02940716666667}, {"fusion_lat": 0.0, "name": "bba2760a0fcc348122a6d6685432d41e", "is_disabled": 0, "rental_uris": {"android": "https://dc.lft.to/lastmile_qr_scan", "ios": "https://dc.lft.to/lastmile_qr_scan"}, "fusion_lon": 0.0, "lat": 38.91711516666667, "bike_id": "bba2760a0fcc348122a6d6685432d41e", "type": "electric_scooter", "is_reserved": 0, "lon": -77.03475083333333}, {"fusion_lat": 0.0, "name": "1f0a84c077d8e5fe56c1e3bfabb33976", "is_disabled": 0, "rental_uris": {"android": "https://dc.lft.to/lastmile_qr_scan", "ios": "https://dc.lft.to/lastmile_qr_scan"}, "fusion_lon": 0.0, "lat": 38.927484166666666, "bike_id": "1f0a84c077d8e5fe56c1e3bfabb33976", "type": "electric_scooter", "is_reserved": 0, "lon": -77.02535266666666}, {"fusion_lat": 0.0, "name": "6a3002ad5d9c239bda20e5efa5102f3e", "is_disabled": 0, "rental_uris": {"android": "https://dc.lft.to/lastmile_qr_scan", "ios": "https://dc.lft.to/lastmile_qr_scan"}, "fusion_lon": 0.0, "lat": 38.892287, "bike_id": "6a3002ad5d9c239bda20e5efa5102f3e", "type": "electric_scooter", "is_reserved": 0, "lon": -77.01713833333334}, {"fusion_lat": 0.0, "name": "d78c214555447b73e89ddbed30e540b0", "is_disabled": 0, "rental_uris": {"android": "https://dc.lft.to/lastmile_qr_scan", "ios": "https://dc.lft.to/lastmile_qr_scan"}, "fusion_lon": 0.0, "lat": 38.8922285, "bike_id": "d78c214555447b73e89ddbed30e540b0", "type": "electric_scooter", "is_reserved": 0, "lon": -77.0314305}, {"fusion_lat": 0.0, "name": "c7b97013af741a1fc66a5a982d5adf73", "is_disabled": 0, "rental_uris": {"android": "https://dc.lft.to/lastmile_qr_scan", "ios": "https://dc.lft.to/lastmile_qr_scan"}, "fusion_lon": 0.0, "lat": 38.88769, "bike_id": "c7b97013af741a1fc66a5a982d5adf73", "type": "electric_scooter", "is_reserved": 0, "lon": -76.977508}, {"fusion_lat": 0.0, "name": "feb6f7e094b75e6d55d501c59b002247", "is_disabled": 0, "rental_uris": {"android": "https://dc.lft.to/lastmile_qr_scan", "ios": "https://dc.lft.to/lastmile_qr_scan"}, "fusion_lon": 0.0, "lat": 38.91254133333333, "bike_id": "feb6f7e094b75e6d55d501c59b002247", "type": "electric_scooter", "is_reserved": 0, "lon": -77.03177733333334}, {"fusion_lat": 0.0, "name": "a1f85aaa619029896cf27a2e5ee844da", "is_disabled": 0, "rental_uris": {"android": "https://dc.lft.to/lastmile_qr_scan", "ios": "https://dc.lft.to/lastmile_qr_scan"}, "fusion_lon": 0.0, "lat": 38.8791155, "bike_id": "a1f85aaa619029896cf27a2e5ee844da", "type": "electric_scooter", "is_reserved": 0, "lon": -77.008134}, {"fusion_lat": 0.0, "name": "99266f7cc9e652cc9f189fbc16f420e2", "is_disabled": 0, "rental_uris": {"android": "https://dc.lft.to/lastmile_qr_scan", "ios": "https://dc.lft.to/lastmile_qr_scan"}, "fusion_lon": 0.0, "lat": 38.9265895, "bike_id": "99266f7cc9e652cc9f189fbc16f420e2", "type": "electric_scooter", "is_reserved": 0, "lon": -77.02422916666667}, {"fusion_lat": 0.0, "name": "8751cb5e24e01de54bb43e6151cfcea7", "is_disabled": 0, "rental_uris": {"android": "https://dc.lft.to/lastmile_qr_scan", "ios": "https://dc.lft.to/lastmile_qr_scan"}, "fusion_lon": 0.0, "lat": 38.932629666666664, "bike_id": "8751cb5e24e01de54bb43e6151cfcea7", "type": "electric_scooter", "is_reserved": 0, "lon": -77.01920233333334}, {"fusion_lat": 0.0, "name": "c8ec3401d9012853feb785a94f270f0a", "is_disabled": 0, "rental_uris": {"android": "https://dc.lft.to/lastmile_qr_scan", "ios": "https://dc.lft.to/lastmile_qr_scan"}, "fusion_lon": 0.0, "lat": 38.90739333333333, "bike_id": "c8ec3401d9012853feb785a94f270f0a", "type": "electric_scooter", "is_reserved": 0, "lon": -77.00101716666667}, {"fusion_lat": 0.0, "name": "ff2f68d9610ce9816a8ed94e659167c8", "is_disabled": 0, "rental_uris": {"android": "https://dc.lft.to/lastmile_qr_scan", "ios": "https://dc.lft.to/lastmile_qr_scan"}, "fusion_lon": 0.0, "lat": 38.927126333333334, "bike_id": "ff2f68d9610ce9816a8ed94e659167c8", "type": "electric_scooter", "is_reserved": 0, "lon": -77.02079866666666}, {"fusion_lat": 0.0, "name": "d8267f0a3e714314fd1580ebe3b25192", "is_disabled": 0, "rental_uris": {"android": "https://dc.lft.to/lastmile_qr_scan", "ios": "https://dc.lft.to/lastmile_qr_scan"}, "fusion_lon": 0.0, "lat": 38.931158, "bike_id": "d8267f0a3e714314fd1580ebe3b25192", "type": "electric_scooter", "is_reserved": 0, "lon": -77.02088433333333}, {"fusion_lat": 0.0, "name": "9ed916c30df3dcea02c586596ccf662b", "is_disabled": 0, "rental_uris": {"android": "https://dc.lft.to/lastmile_qr_scan", "ios": "https://dc.lft.to/lastmile_qr_scan"}, "fusion_lon": 0.0, "lat": 38.915257, "bike_id": "9ed916c30df3dcea02c586596ccf662b", "type": "electric_scooter", "is_reserved": 0, "lon": -77.07265233333334}, {"fusion_lat": 0.0, "name": "c2817670853d21d1861abc61b3a6851c", "is_disabled": 0, "rental_uris": {"android": "https://dc.lft.to/lastmile_qr_scan", "ios": "https://dc.lft.to/lastmile_qr_scan"}, "fusion_lon": 0.0, "lat": 38.939676666666664, "bike_id": "c2817670853d21d1861abc61b3a6851c", "type": "electric_scooter", "is_reserved": 0, "lon": -77.0328095}, {"fusion_lat": 0.0, "name": "9d4c80f52ee44d6a44f11a0c8a2fb3dd", "is_disabled": 0, "rental_uris": {"android": "https://dc.lft.to/lastmile_qr_scan", "ios": "https://dc.lft.to/lastmile_qr_scan"}, "fusion_lon": 0.0, "lat": 38.9093345, "bike_id": "9d4c80f52ee44d6a44f11a0c8a2fb3dd", "type": "electric_scooter", "is_reserved": 0, "lon": -77.06269983333334}, {"fusion_lat": 0.0, "name": "29136ca0084aca5d83376f7ae0ec31c1", "is_disabled": 0, "rental_uris": {"android": "https://dc.lft.to/lastmile_qr_scan", "ios": "https://dc.lft.to/lastmile_qr_scan"}, "fusion_lon": 0.0, "lat": 38.896620666666664, "bike_id": "29136ca0084aca5d83376f7ae0ec31c1", "type": "electric_scooter", "is_reserved": 0, "lon": -76.93206983333333}, {"fusion_lat": 0.0, "name": "a0081f1ffb947b13c9121bf7215253be", "is_disabled": 0, "rental_uris": {"android": "https://dc.lft.to/lastmile_qr_scan", "ios": "https://dc.lft.to/lastmile_qr_scan"}, "fusion_lon": 0.0, "lat": 38.936555, "bike_id": "a0081f1ffb947b13c9121bf7215253be", "type": "electric_scooter", "is_reserved": 0, "lon": -77.0365635}, {"fusion_lat": 0.0, "name": "a32e06a043fdbd3ec02a80dece273c8e", "is_disabled": 0, "rental_uris": {"android": "https://dc.lft.to/lastmile_qr_scan", "ios": "https://dc.lft.to/lastmile_qr_scan"}, "fusion_lon": 0.0, "lat": 38.924672, "bike_id": "a32e06a043fdbd3ec02a80dece273c8e", "type": "electric_bike", "is_reserved": 0, "lon": -77.23352183333333}, {"fusion_lat": 0.0, "name": "ec42c549145d43d558b7dcdbf61695ce", "is_disabled": 0, "rental_uris": {"android": "https://dc.lft.to/lastmile_qr_scan", "ios": "https://dc.lft.to/lastmile_qr_scan"}, "fusion_lon": 0.0, "lat": 38.973632333333335, "bike_id": "ec42c549145d43d558b7dcdbf61695ce", "type": "electric_scooter", "is_reserved": 0, "lon": -77.0129165}, {"fusion_lat": 0.0, "name": "3e4a7cd0a0aeba05e366737880a9a926", "is_disabled": 0, "rental_uris": {"android": "https://dc.lft.to/lastmile_qr_scan", "ios": "https://dc.lft.to/lastmile_qr_scan"}, "fusion_lon": 0.0, "lat": 38.90350466666666, "bike_id": "3e4a7cd0a0aeba05e366737880a9a926", "type": "electric_scooter", "is_reserved": 0, "lon": -76.97476983333334}, {"fusion_lat": 0.0, "name": "5520eb63c82e5f0c719581c37af33fab", "is_disabled": 0, "rental_uris": {"android": "https://dc.lft.to/lastmile_qr_scan", "ios": "https://dc.lft.to/lastmile_qr_scan"}, "fusion_lon": 0.0, "lat": 38.9210095, "bike_id": "5520eb63c82e5f0c719581c37af33fab", "type": "electric_scooter", "is_reserved": 0, "lon": -77.046892}, {"fusion_lat": 0.0, "name": "99a480746155bfbb44764b124939bca5", "is_disabled": 0, "rental_uris": {"android": "https://dc.lft.to/lastmile_qr_scan", "ios": "https://dc.lft.to/lastmile_qr_scan"}, "fusion_lon": 0.0, "lat": 38.898188, "bike_id": "99a480746155bfbb44764b124939bca5", "type": "electric_scooter", "is_reserved": 0, "lon": -77.04666583333334}, {"fusion_lat": 0.0, "name": "fcadf001a059bd1cb7e428e056812366", "is_disabled": 0, "rental_uris": {"android": "https://dc.lft.to/lastmile_qr_scan", "ios": "https://dc.lft.to/lastmile_qr_scan"}, "fusion_lon": 0.0, "lat": 38.90932016666667, "bike_id": "fcadf001a059bd1cb7e428e056812366", "type": "electric_scooter", "is_reserved": 0, "lon": -77.06257833333333}, {"fusion_lat": 0.0, "name": "6916c56b071947f0ee03dbe2cdd81376", "is_disabled": 0, "rental_uris": {"android": "https://dc.lft.to/lastmile_qr_scan", "ios": "https://dc.lft.to/lastmile_qr_scan"}, "fusion_lon": 0.0, "lat": 38.93464383333333, "bike_id": "6916c56b071947f0ee03dbe2cdd81376", "type": "electric_scooter", "is_reserved": 0, "lon": -77.033984}, {"fusion_lat": 0.0, "name": "c5a0bcaa3270736357a9793ea8029b06", "is_disabled": 0, "rental_uris": {"android": "https://dc.lft.to/lastmile_qr_scan", "ios": "https://dc.lft.to/lastmile_qr_scan"}, "fusion_lon": 0.0, "lat": 38.8832475, "bike_id": "c5a0bcaa3270736357a9793ea8029b06", "type": "electric_scooter", "is_reserved": 0, "lon": -77.014687}, {"fusion_lat": 0.0, "name": "436c9915a0eb6e23a566ab5700c59bf7", "is_disabled": 0, "rental_uris": {"android": "https://dc.lft.to/lastmile_qr_scan", "ios": "https://dc.lft.to/lastmile_qr_scan"}, "fusion_lon": 0.0, "lat": 38.916936, "bike_id": "436c9915a0eb6e23a566ab5700c59bf7", "type": "electric_scooter", "is_reserved": 0, "lon": -77.02595933333333}, {"fusion_lat": 0.0, "name": "fedddd26b4127ca6e4c199449bbb0f82", "is_disabled": 0, "rental_uris": {"android": "https://dc.lft.to/lastmile_qr_scan", "ios": "https://dc.lft.to/lastmile_qr_scan"}, "fusion_lon": 0.0, "lat": 38.9008965, "bike_id": "fedddd26b4127ca6e4c199449bbb0f82", "type": "electric_scooter", "is_reserved": 0, "lon": -77.05060866666666}, {"fusion_lat": 0.0, "name": "634e4b63290a3c5e807c03e7b3b6b66b", "is_disabled": 0, "rental_uris": {"android": "https://dc.lft.to/lastmile_qr_scan", "ios": "https://dc.lft.to/lastmile_qr_scan"}, "fusion_lon": 0.0, "lat": 38.93870116666667, "bike_id": "634e4b63290a3c5e807c03e7b3b6b66b", "type": "electric_scooter", "is_reserved": 0, "lon": -77.02466883333334}, {"fusion_lat": 0.0, "name": "2cfa5c51d53dfef589401405a74c727a", "is_disabled": 0, "rental_uris": {"android": "https://dc.lft.to/lastmile_qr_scan", "ios": "https://dc.lft.to/lastmile_qr_scan"}, "fusion_lon": 0.0, "lat": 38.93828466666667, "bike_id": "2cfa5c51d53dfef589401405a74c727a", "type": "electric_scooter", "is_reserved": 0, "lon": -77.0264885}, {"fusion_lat": 0.0, "name": "859dd933c3fae5bd98ec8c0ad55d8ee6", "is_disabled": 0, "rental_uris": {"android": "https://dc.lft.to/lastmile_qr_scan", "ios": "https://dc.lft.to/lastmile_qr_scan"}, "fusion_lon": 0.0, "lat": 38.87661383333333, "bike_id": "859dd933c3fae5bd98ec8c0ad55d8ee6", "type": "electric_scooter", "is_reserved": 0, "lon": -77.0090765}, {"fusion_lat": 0.0, "name": "cb6702ea5391d485282ae579fd1a951f", "is_disabled": 0, "rental_uris": {"android": "https://dc.lft.to/lastmile_qr_scan", "ios": "https://dc.lft.to/lastmile_qr_scan"}, "fusion_lon": 0.0, "lat": 38.9036675, "bike_id": "cb6702ea5391d485282ae579fd1a951f", "type": "electric_scooter", "is_reserved": 0, "lon": -77.01861583333333}, {"fusion_lat": 0.0, "name": "047b0b8a94f443bbe6de3365777249bf", "is_disabled": 0, "rental_uris": {"android": "https://dc.lft.to/lastmile_qr_scan", "ios": "https://dc.lft.to/lastmile_qr_scan"}, "fusion_lon": 0.0, "lat": 38.89844083333333, "bike_id": "047b0b8a94f443bbe6de3365777249bf", "type": "electric_scooter", "is_reserved": 0, "lon": -77.02333866666666}, {"fusion_lat": 0.0, "name": "5f8a2be0848cdb5abdb585034e4484ee", "is_disabled": 0, "rental_uris": {"android": "https://dc.lft.to/lastmile_qr_scan", "ios": "https://dc.lft.to/lastmile_qr_scan"}, "fusion_lon": 0.0, "lat": 38.915789333333336, "bike_id": "5f8a2be0848cdb5abdb585034e4484ee", "type": "electric_scooter", "is_reserved": 0, "lon": -77.032024}, {"fusion_lat": 0.0, "name": "c0fc147245ae30d7770e6eb9df1ec816", "is_disabled": 0, "rental_uris": {"android": "https://dc.lft.to/lastmile_qr_scan", "ios": "https://dc.lft.to/lastmile_qr_scan"}, "fusion_lon": 0.0, "lat": 38.913321, "bike_id": "c0fc147245ae30d7770e6eb9df1ec816", "type": "electric_scooter", "is_reserved": 0, "lon": -77.0428435}, {"fusion_lat": 0.0, "name": "5bda130d8a75a0386a78ec3624503101", "is_disabled": 0, "rental_uris": {"android": "https://dc.lft.to/lastmile_qr_scan", "ios": "https://dc.lft.to/lastmile_qr_scan"}, "fusion_lon": 0.0, "lat": 38.95880533333333, "bike_id": "5bda130d8a75a0386a78ec3624503101", "type": "electric_scooter", "is_reserved": 0, "lon": -77.01171033333334}, {"fusion_lat": 0.0, "name": "f4ecae7bb49ed88dacb5e916e3809319", "is_disabled": 0, "rental_uris": {"android": "https://dc.lft.to/lastmile_qr_scan", "ios": "https://dc.lft.to/lastmile_qr_scan"}, "fusion_lon": 0.0, "lat": 38.905775166666665, "bike_id": "f4ecae7bb49ed88dacb5e916e3809319", "type": "electric_scooter", "is_reserved": 0, "lon": -77.051248}, {"fusion_lat": 0.0, "name": "753094fa5fb67013b41612587ed2e7da", "is_disabled": 0, "rental_uris": {"android": "https://dc.lft.to/lastmile_qr_scan", "ios": "https://dc.lft.to/lastmile_qr_scan"}, "fusion_lon": 0.0, "lat": 38.89624366666666, "bike_id": "753094fa5fb67013b41612587ed2e7da", "type": "electric_scooter", "is_reserved": 0, "lon": -77.0227935}, {"fusion_lat": 0.0, "name": "31c8eea74bfcc7cad45f618800b5afb7", "is_disabled": 0, "rental_uris": {"android": "https://dc.lft.to/lastmile_qr_scan", "ios": "https://dc.lft.to/lastmile_qr_scan"}, "fusion_lon": 0.0, "lat": 38.907297666666665, "bike_id": "31c8eea74bfcc7cad45f618800b5afb7", "type": "electric_scooter", "is_reserved": 0, "lon": -77.04769616666667}, {"fusion_lat": 0.0, "name": "08c0e970177cdf3a446b7cf260370846", "is_disabled": 0, "rental_uris": {"android": "https://dc.lft.to/lastmile_qr_scan", "ios": "https://dc.lft.to/lastmile_qr_scan"}, "fusion_lon": 0.0, "lat": 38.939816666666665, "bike_id": "08c0e970177cdf3a446b7cf260370846", "type": "electric_scooter", "is_reserved": 0, "lon": -77.02872783333333}, {"fusion_lat": 0.0, "name": "d580f5d9f54f46758eaf249d7022ad8b", "is_disabled": 0, "rental_uris": {"android": "https://dc.lft.to/lastmile_qr_scan", "ios": "https://dc.lft.to/lastmile_qr_scan"}, "fusion_lon": 0.0, "lat": 38.91111516666667, "bike_id": "d580f5d9f54f46758eaf249d7022ad8b", "type": "electric_scooter", "is_reserved": 0, "lon": -77.01001416666666}, {"fusion_lat": 0.0, "name": "90222366c7e252d4d7909c18894a82c0", "is_disabled": 0, "rental_uris": {"android": "https://dc.lft.to/lastmile_qr_scan", "ios": "https://dc.lft.to/lastmile_qr_scan"}, "fusion_lon": 0.0, "lat": 38.89013966666667, "bike_id": "90222366c7e252d4d7909c18894a82c0", "type": "electric_scooter", "is_reserved": 0, "lon": -76.93742316666666}, {"fusion_lat": 0.0, "name": "f4077612eddcbb868ad26503a5f454d8", "is_disabled": 0, "rental_uris": {"android": "https://dc.lft.to/lastmile_qr_scan", "ios": "https://dc.lft.to/lastmile_qr_scan"}, "fusion_lon": 0.0, "lat": 38.897167333333336, "bike_id": "f4077612eddcbb868ad26503a5f454d8", "type": "electric_scooter", "is_reserved": 0, "lon": -77.02753616666666}, {"fusion_lat": 0.0, "name": "aa8cc88ef1d1644e0c591d767fbd19a2", "is_disabled": 0, "rental_uris": {"android": "https://dc.lft.to/lastmile_qr_scan", "ios": "https://dc.lft.to/lastmile_qr_scan"}, "fusion_lon": 0.0, "lat": 38.90837066666667, "bike_id": "aa8cc88ef1d1644e0c591d767fbd19a2", "type": "electric_scooter", "is_reserved": 0, "lon": -77.00106366666667}, {"fusion_lat": 0.0, "name": "744e499c94e497a6f8c6197644dc67f7", "is_disabled": 0, "rental_uris": {"android": "https://dc.lft.to/lastmile_qr_scan", "ios": "https://dc.lft.to/lastmile_qr_scan"}, "fusion_lon": 0.0, "lat": 38.887343666666666, "bike_id": "744e499c94e497a6f8c6197644dc67f7", "type": "electric_bike", "is_reserved": 0, "lon": -77.01531783333333}, {"fusion_lat": 0.0, "name": "2babd6d801baf8b452942c2f54f5910a", "is_disabled": 0, "rental_uris": {"android": "https://dc.lft.to/lastmile_qr_scan", "ios": "https://dc.lft.to/lastmile_qr_scan"}, "fusion_lon": 0.0, "lat": 38.89607, "bike_id": "2babd6d801baf8b452942c2f54f5910a", "type": "electric_scooter", "is_reserved": 0, "lon": -76.98107766666666}, {"fusion_lat": 0.0, "name": "042708c58610bd0dc03275632b52ac8d", "is_disabled": 0, "rental_uris": {"android": "https://dc.lft.to/lastmile_qr_scan", "ios": "https://dc.lft.to/lastmile_qr_scan"}, "fusion_lon": 0.0, "lat": 38.906696, "bike_id": "042708c58610bd0dc03275632b52ac8d", "type": "electric_scooter", "is_reserved": 0, "lon": -77.02392466666667}, {"fusion_lat": 0.0, "name": "c7d1a5a22903d0ddde13d8585c3e7d75", "is_disabled": 0, "rental_uris": {"android": "https://dc.lft.to/lastmile_qr_scan", "ios": "https://dc.lft.to/lastmile_qr_scan"}, "fusion_lon": 0.0, "lat": 38.887428, "bike_id": "c7d1a5a22903d0ddde13d8585c3e7d75", "type": "electric_scooter", "is_reserved": 0, "lon": -77.0220905}, {"fusion_lat": 0.0, "name": "e5372199cf8c99b94910244d6db487db", "is_disabled": 0, "rental_uris": {"android": "https://dc.lft.to/lastmile_qr_scan", "ios": "https://dc.lft.to/lastmile_qr_scan"}, "fusion_lon": 0.0, "lat": 38.922173666666666, "bike_id": "e5372199cf8c99b94910244d6db487db", "type": "electric_scooter", "is_reserved": 0, "lon": -77.035291}, {"fusion_lat": 0.0, "name": "2f0d81e56c8538a5158e5a1d11a2f145", "is_disabled": 0, "rental_uris": {"android": "https://dc.lft.to/lastmile_qr_scan", "ios": "https://dc.lft.to/lastmile_qr_scan"}, "fusion_lon": 0.0, "lat": 38.9052755, "bike_id": "2f0d81e56c8538a5158e5a1d11a2f145", "type": "electric_scooter", "is_reserved": 0, "lon": -77.06526866666667}, {"fusion_lat": 0.0, "name": "37c581fa2afa5ef5191df99e5b557b73", "is_disabled": 0, "rental_uris": {"android": "https://dc.lft.to/lastmile_qr_scan", "ios": "https://dc.lft.to/lastmile_qr_scan"}, "fusion_lon": 0.0, "lat": 38.884018, "bike_id": "37c581fa2afa5ef5191df99e5b557b73", "type": "electric_scooter", "is_reserved": 0, "lon": -76.93041433333333}, {"fusion_lat": 0.0, "name": "0a06d51893b405c5425476a2177c7712", "is_disabled": 0, "rental_uris": {"android": "https://dc.lft.to/lastmile_qr_scan", "ios": "https://dc.lft.to/lastmile_qr_scan"}, "fusion_lon": 0.0, "lat": 38.910162666666665, "bike_id": "0a06d51893b405c5425476a2177c7712", "type": "electric_scooter", "is_reserved": 0, "lon": -77.05266833333333}, {"fusion_lat": 0.0, "name": "be594ce4d3df6a1649c0ad3cf96e2460", "is_disabled": 0, "rental_uris": {"android": "https://dc.lft.to/lastmile_qr_scan", "ios": "https://dc.lft.to/lastmile_qr_scan"}, "fusion_lon": 0.0, "lat": 38.96630416666667, "bike_id": "be594ce4d3df6a1649c0ad3cf96e2460", "type": "electric_bike", "is_reserved": 0, "lon": -77.02751116666667}, {"fusion_lat": 0.0, "name": "1fd2511f05d505ae4338f65ce72197f7", "is_disabled": 0, "rental_uris": {"android": "https://dc.lft.to/lastmile_qr_scan", "ios": "https://dc.lft.to/lastmile_qr_scan"}, "fusion_lon": 0.0, "lat": 38.90390033333333, "bike_id": "1fd2511f05d505ae4338f65ce72197f7", "type": "electric_scooter", "is_reserved": 0, "lon": -77.06712966666667}, {"fusion_lat": 0.0, "name": "04e08b09881722601cd7fe73f59f57cb", "is_disabled": 0, "rental_uris": {"android": "https://dc.lft.to/lastmile_qr_scan", "ios": "https://dc.lft.to/lastmile_qr_scan"}, "fusion_lon": 0.0, "lat": 38.88289, "bike_id": "04e08b09881722601cd7fe73f59f57cb", "type": "electric_scooter", "is_reserved": 0, "lon": -77.01361933333334}, {"fusion_lat": 0.0, "name": "80fcfce9c34511494dbef2000af490c7", "is_disabled": 0, "rental_uris": {"android": "https://dc.lft.to/lastmile_qr_scan", "ios": "https://dc.lft.to/lastmile_qr_scan"}, "fusion_lon": 0.0, "lat": 38.92842016666667, "bike_id": "80fcfce9c34511494dbef2000af490c7", "type": "electric_scooter", "is_reserved": 0, "lon": -77.01586966666666}, {"fusion_lat": 0.0, "name": "061403528d79e2e93a06068748242d9e", "is_disabled": 0, "rental_uris": {"android": "https://dc.lft.to/lastmile_qr_scan", "ios": "https://dc.lft.to/lastmile_qr_scan"}, "fusion_lon": 0.0, "lat": 38.91912516666667, "bike_id": "061403528d79e2e93a06068748242d9e", "type": "electric_scooter", "is_reserved": 0, "lon": -77.0317345}, {"fusion_lat": 0.0, "name": "1d607b4508885d636cc3c6e337be41cd", "is_disabled": 0, "rental_uris": {"android": "https://dc.lft.to/lastmile_qr_scan", "ios": "https://dc.lft.to/lastmile_qr_scan"}, "fusion_lon": 0.0, "lat": 38.9353455, "bike_id": "1d607b4508885d636cc3c6e337be41cd", "type": "electric_scooter", "is_reserved": 0, "lon": -77.02352316666666}, {"fusion_lat": 0.0, "name": "aee32b5da496b64934f17b20e296c723", "is_disabled": 0, "rental_uris": {"android": "https://dc.lft.to/lastmile_qr_scan", "ios": "https://dc.lft.to/lastmile_qr_scan"}, "fusion_lon": 0.0, "lat": 38.91254983333333, "bike_id": "aee32b5da496b64934f17b20e296c723", "type": "electric_scooter", "is_reserved": 0, "lon": -77.00324116666667}, {"fusion_lat": 0.0, "name": "8ad25e17ba15e4ba41525a7c46c42ad6", "is_disabled": 0, "rental_uris": {"android": "https://dc.lft.to/lastmile_qr_scan", "ios": "https://dc.lft.to/lastmile_qr_scan"}, "fusion_lon": 0.0, "lat": 38.899153, "bike_id": "8ad25e17ba15e4ba41525a7c46c42ad6", "type": "electric_scooter", "is_reserved": 0, "lon": -76.93352716666666}, {"fusion_lat": 0.0, "name": "bccd0af6f3bbc3b674ebf8693b82ae27", "is_disabled": 0, "rental_uris": {"android": "https://dc.lft.to/lastmile_qr_scan", "ios": "https://dc.lft.to/lastmile_qr_scan"}, "fusion_lon": 0.0, "lat": 38.963144666666665, "bike_id": "bccd0af6f3bbc3b674ebf8693b82ae27", "type": "electric_scooter", "is_reserved": 0, "lon": -77.0749545}, {"fusion_lat": 0.0, "name": "fb3992441f918ec33669fb4f52562968", "is_disabled": 0, "rental_uris": {"android": "https://dc.lft.to/lastmile_qr_scan", "ios": "https://dc.lft.to/lastmile_qr_scan"}, "fusion_lon": 0.0, "lat": 38.899113666666665, "bike_id": "fb3992441f918ec33669fb4f52562968", "type": "electric_scooter", "is_reserved": 0, "lon": -76.94589133333334}, {"fusion_lat": 0.0, "name": "9401da0d04e21b3be65915da4c407347", "is_disabled": 0, "rental_uris": {"android": "https://dc.lft.to/lastmile_qr_scan", "ios": "https://dc.lft.to/lastmile_qr_scan"}, "fusion_lon": 0.0, "lat": 38.9328915, "bike_id": "9401da0d04e21b3be65915da4c407347", "type": "electric_scooter", "is_reserved": 0, "lon": -77.02833816666667}, {"fusion_lat": 0.0, "name": "cdb9a45f8803cc9b66b166f2e526e077", "is_disabled": 0, "rental_uris": {"android": "https://dc.lft.to/lastmile_qr_scan", "ios": "https://dc.lft.to/lastmile_qr_scan"}, "fusion_lon": 0.0, "lat": 38.88526516666667, "bike_id": "cdb9a45f8803cc9b66b166f2e526e077", "type": "electric_scooter", "is_reserved": 0, "lon": -76.929209}, {"fusion_lat": 0.0, "name": "c63afc552f7949adb4ff46560e62a60c", "is_disabled": 0, "rental_uris": {"android": "https://dc.lft.to/lastmile_qr_scan", "ios": "https://dc.lft.to/lastmile_qr_scan"}, "fusion_lon": 0.0, "lat": 38.9288015, "bike_id": "c63afc552f7949adb4ff46560e62a60c", "type": "electric_scooter", "is_reserved": 0, "lon": -77.033811}, {"fusion_lat": 0.0, "name": "e7060dc8d1305864412669ff8764ee6c", "is_disabled": 0, "rental_uris": {"android": "https://dc.lft.to/lastmile_qr_scan", "ios": "https://dc.lft.to/lastmile_qr_scan"}, "fusion_lon": 0.0, "lat": 38.91072716666667, "bike_id": "e7060dc8d1305864412669ff8764ee6c", "type": "electric_scooter", "is_reserved": 0, "lon": -77.02711416666666}, {"fusion_lat": 0.0, "name": "5815e1ce3f1973dc31681c3245031198", "is_disabled": 0, "rental_uris": {"android": "https://dc.lft.to/lastmile_qr_scan", "ios": "https://dc.lft.to/lastmile_qr_scan"}, "fusion_lon": 0.0, "lat": 38.91621766666667, "bike_id": "5815e1ce3f1973dc31681c3245031198", "type": "electric_scooter", "is_reserved": 0, "lon": -77.00329616666667}, {"fusion_lat": 0.0, "name": "03980ad3cdc86656be97b248f3180b96", "is_disabled": 0, "rental_uris": {"android": "https://dc.lft.to/lastmile_qr_scan", "ios": "https://dc.lft.to/lastmile_qr_scan"}, "fusion_lon": 0.0, "lat": 38.908638, "bike_id": "03980ad3cdc86656be97b248f3180b96", "type": "electric_scooter", "is_reserved": 0, "lon": -77.04736116666666}, {"fusion_lat": 0.0, "name": "48538236d2f852e1c3db4eb1e6ab688d", "is_disabled": 0, "rental_uris": {"android": "https://dc.lft.to/lastmile_qr_scan", "ios": "https://dc.lft.to/lastmile_qr_scan"}, "fusion_lon": 0.0, "lat": 38.870499333333335, "bike_id": "48538236d2f852e1c3db4eb1e6ab688d", "type": "electric_scooter", "is_reserved": 0, "lon": -77.00974366666667}, {"fusion_lat": 0.0, "name": "1bac3dd2d0c97f1229f05c350eadcdbe", "is_disabled": 0, "rental_uris": {"android": "https://dc.lft.to/lastmile_qr_scan", "ios": "https://dc.lft.to/lastmile_qr_scan"}, "fusion_lon": 0.0, "lat": 38.90715083333333, "bike_id": "1bac3dd2d0c97f1229f05c350eadcdbe", "type": "electric_scooter", "is_reserved": 0, "lon": -77.05054883333334}, {"fusion_lat": 0.0, "name": "7ebc7a8b988f4ac9800a20f3edced365", "is_disabled": 0, "rental_uris": {"android": "https://dc.lft.to/lastmile_qr_scan", "ios": "https://dc.lft.to/lastmile_qr_scan"}, "fusion_lon": 0.0, "lat": 38.900458, "bike_id": "7ebc7a8b988f4ac9800a20f3edced365", "type": "electric_scooter", "is_reserved": 0, "lon": -77.01992166666666}, {"fusion_lat": 0.0, "name": "159cbdb89aa04b51982bc3c0d63b04a0", "is_disabled": 0, "rental_uris": {"android": "https://dc.lft.to/lastmile_qr_scan", "ios": "https://dc.lft.to/lastmile_qr_scan"}, "fusion_lon": 0.0, "lat": 38.89606466666667, "bike_id": "159cbdb89aa04b51982bc3c0d63b04a0", "type": "electric_scooter", "is_reserved": 0, "lon": -77.00931216666666}, {"fusion_lat": 0.0, "name": "880abfd5d36998dec2467f4fe5683ed3", "is_disabled": 0, "rental_uris": {"android": "https://dc.lft.to/lastmile_qr_scan", "ios": "https://dc.lft.to/lastmile_qr_scan"}, "fusion_lon": 0.0, "lat": 38.917100833333336, "bike_id": "880abfd5d36998dec2467f4fe5683ed3", "type": "electric_bike", "is_reserved": 0, "lon": -77.04479483333333}, {"fusion_lat": 0.0, "name": "ecce8ebc95a738d59552dd31966c5500", "is_disabled": 0, "rental_uris": {"android": "https://dc.lft.to/lastmile_qr_scan", "ios": "https://dc.lft.to/lastmile_qr_scan"}, "fusion_lon": 0.0, "lat": 38.806767666666666, "bike_id": "ecce8ebc95a738d59552dd31966c5500", "type": "electric_bike", "is_reserved": 0, "lon": -77.0691455}, {"fusion_lat": 0.0, "name": "d9cf0b374a83d74160e5905cb1bc97dd", "is_disabled": 0, "rental_uris": {"android": "https://dc.lft.to/lastmile_qr_scan", "ios": "https://dc.lft.to/lastmile_qr_scan"}, "fusion_lon": 0.0, "lat": 38.89743716666667, "bike_id": "d9cf0b374a83d74160e5905cb1bc97dd", "type": "electric_scooter", "is_reserved": 0, "lon": -77.01959733333334}, {"fusion_lat": 0.0, "name": "f841806452a652b24cfd22e73f5e2fe5", "is_disabled": 0, "rental_uris": {"android": "https://dc.lft.to/lastmile_qr_scan", "ios": "https://dc.lft.to/lastmile_qr_scan"}, "fusion_lon": 0.0, "lat": 38.884534333333335, "bike_id": "f841806452a652b24cfd22e73f5e2fe5", "type": "electric_scooter", "is_reserved": 0, "lon": -76.99391}, {"fusion_lat": 0.0, "name": "20ec842b6f4177f1bf2266d6bcd14c76", "is_disabled": 0, "rental_uris": {"android": "https://dc.lft.to/lastmile_qr_scan", "ios": "https://dc.lft.to/lastmile_qr_scan"}, "fusion_lon": 0.0, "lat": 38.937370333333334, "bike_id": "20ec842b6f4177f1bf2266d6bcd14c76", "type": "electric_scooter", "is_reserved": 0, "lon": -77.035905}, {"fusion_lat": 0.0, "name": "1211fff34812129b80508a7fdd342e89", "is_disabled": 0, "rental_uris": {"android": "https://dc.lft.to/lastmile_qr_scan", "ios": "https://dc.lft.to/lastmile_qr_scan"}, "fusion_lon": 0.0, "lat": 38.90489816666667, "bike_id": "1211fff34812129b80508a7fdd342e89", "type": "electric_scooter", "is_reserved": 0, "lon": -77.04089366666666}, {"fusion_lat": 0.0, "name": "60f9dd2a98149daef950b2e7eebe2cb9", "is_disabled": 0, "rental_uris": {"android": "https://dc.lft.to/lastmile_qr_scan", "ios": "https://dc.lft.to/lastmile_qr_scan"}, "fusion_lon": 0.0, "lat": 38.9133315, "bike_id": "60f9dd2a98149daef950b2e7eebe2cb9", "type": "electric_scooter", "is_reserved": 0, "lon": -77.0103015}, {"fusion_lat": 0.0, "name": "26f83213b1380b066ef33077fcd76dc0", "is_disabled": 0, "rental_uris": {"android": "https://dc.lft.to/lastmile_qr_scan", "ios": "https://dc.lft.to/lastmile_qr_scan"}, "fusion_lon": 0.0, "lat": 38.916924, "bike_id": "26f83213b1380b066ef33077fcd76dc0", "type": "electric_scooter", "is_reserved": 0, "lon": -77.025957}, {"fusion_lat": 0.0, "name": "a04f0603fd68d7c2837b7b777a4a7103", "is_disabled": 0, "rental_uris": {"android": "https://dc.lft.to/lastmile_qr_scan", "ios": "https://dc.lft.to/lastmile_qr_scan"}, "fusion_lon": 0.0, "lat": 38.913346, "bike_id": "a04f0603fd68d7c2837b7b777a4a7103", "type": "electric_scooter", "is_reserved": 0, "lon": -77.03985766666666}, {"fusion_lat": 0.0, "name": "a68ee06ed98a6927da8ac71d2220e63b", "is_disabled": 0, "rental_uris": {"android": "https://dc.lft.to/lastmile_qr_scan", "ios": "https://dc.lft.to/lastmile_qr_scan"}, "fusion_lon": 0.0, "lat": 38.85704716666667, "bike_id": "a68ee06ed98a6927da8ac71d2220e63b", "type": "electric_scooter", "is_reserved": 0, "lon": -76.99591716666667}, {"fusion_lat": 0.0, "name": "59d73ed4e13d919b77ff23a2af731a0c", "is_disabled": 0, "rental_uris": {"android": "https://dc.lft.to/lastmile_qr_scan", "ios": "https://dc.lft.to/lastmile_qr_scan"}, "fusion_lon": 0.0, "lat": 38.900447166666666, "bike_id": "59d73ed4e13d919b77ff23a2af731a0c", "type": "electric_scooter", "is_reserved": 0, "lon": -77.032178}, {"fusion_lat": 0.0, "name": "9ae2a35f30f319f62e891001863e0c2d", "is_disabled": 0, "rental_uris": {"android": "https://dc.lft.to/lastmile_qr_scan", "ios": "https://dc.lft.to/lastmile_qr_scan"}, "fusion_lon": 0.0, "lat": 38.886897833333336, "bike_id": "9ae2a35f30f319f62e891001863e0c2d", "type": "electric_scooter", "is_reserved": 0, "lon": -77.03205683333333}, {"fusion_lat": 0.0, "name": "0ea3b74ee5f1f3a5723a2df41553a4fd", "is_disabled": 0, "rental_uris": {"android": "https://dc.lft.to/lastmile_qr_scan", "ios": "https://dc.lft.to/lastmile_qr_scan"}, "fusion_lon": 0.0, "lat": 38.9027575, "bike_id": "0ea3b74ee5f1f3a5723a2df41553a4fd", "type": "electric_scooter", "is_reserved": 0, "lon": -77.0168215}, {"fusion_lat": 0.0, "name": "4d81d5e68ca52c3a300c259773c533c5", "is_disabled": 0, "rental_uris": {"android": "https://dc.lft.to/lastmile_qr_scan", "ios": "https://dc.lft.to/lastmile_qr_scan"}, "fusion_lon": 0.0, "lat": 38.91963966666667, "bike_id": "4d81d5e68ca52c3a300c259773c533c5", "type": "electric_scooter", "is_reserved": 0, "lon": -77.02389166666667}, {"fusion_lat": 0.0, "name": "51a45b4b022b23864fb030c7667bd76c", "is_disabled": 0, "rental_uris": {"android": "https://dc.lft.to/lastmile_qr_scan", "ios": "https://dc.lft.to/lastmile_qr_scan"}, "fusion_lon": 0.0, "lat": 38.887972833333336, "bike_id": "51a45b4b022b23864fb030c7667bd76c", "type": "electric_bike", "is_reserved": 0, "lon": -76.92998966666667}, {"fusion_lat": 0.0, "name": "61c92debd196aa70a0018c17f614b70d", "is_disabled": 0, "rental_uris": {"android": "https://dc.lft.to/lastmile_qr_scan", "ios": "https://dc.lft.to/lastmile_qr_scan"}, "fusion_lon": 0.0, "lat": 38.8954855, "bike_id": "61c92debd196aa70a0018c17f614b70d", "type": "electric_scooter", "is_reserved": 0, "lon": -77.0109475}, {"fusion_lat": 0.0, "name": "ec73881042f9f56ce62051692aa9852e", "is_disabled": 0, "rental_uris": {"android": "https://dc.lft.to/lastmile_qr_scan", "ios": "https://dc.lft.to/lastmile_qr_scan"}, "fusion_lon": 0.0, "lat": 38.907966333333334, "bike_id": "ec73881042f9f56ce62051692aa9852e", "type": "electric_scooter", "is_reserved": 0, "lon": -77.043373}, {"fusion_lat": 0.0, "name": "a6401dee5912836c213670de5846be69", "is_disabled": 0, "rental_uris": {"android": "https://dc.lft.to/lastmile_qr_scan", "ios": "https://dc.lft.to/lastmile_qr_scan"}, "fusion_lon": 0.0, "lat": 38.91647416666667, "bike_id": "a6401dee5912836c213670de5846be69", "type": "electric_scooter", "is_reserved": 0, "lon": -77.02269816666667}, {"fusion_lat": 0.0, "name": "05aa90ea1aa755f466a5a6fa501b9bcd", "is_disabled": 0, "rental_uris": {"android": "https://dc.lft.to/lastmile_qr_scan", "ios": "https://dc.lft.to/lastmile_qr_scan"}, "fusion_lon": 0.0, "lat": 38.914262666666666, "bike_id": "05aa90ea1aa755f466a5a6fa501b9bcd", "type": "electric_scooter", "is_reserved": 0, "lon": -77.0320685}, {"fusion_lat": 0.0, "name": "a40133a6a1bc85ae1de1c0ea5d77685a", "is_disabled": 0, "rental_uris": {"android": "https://dc.lft.to/lastmile_qr_scan", "ios": "https://dc.lft.to/lastmile_qr_scan"}, "fusion_lon": 0.0, "lat": 38.90408216666667, "bike_id": "a40133a6a1bc85ae1de1c0ea5d77685a", "type": "electric_scooter", "is_reserved": 0, "lon": -76.97329166666667}, {"fusion_lat": 0.0, "name": "429dc32af5663b0ce0d45b503bcc08d3", "is_disabled": 0, "rental_uris": {"android": "https://dc.lft.to/lastmile_qr_scan", "ios": "https://dc.lft.to/lastmile_qr_scan"}, "fusion_lon": 0.0, "lat": 38.901693, "bike_id": "429dc32af5663b0ce0d45b503bcc08d3", "type": "electric_scooter", "is_reserved": 0, "lon": -77.02296533333333}, {"fusion_lat": 0.0, "name": "d5cbedf039186421867e1f8fd38e5722", "is_disabled": 0, "rental_uris": {"android": "https://dc.lft.to/lastmile_qr_scan", "ios": "https://dc.lft.to/lastmile_qr_scan"}, "fusion_lon": 0.0, "lat": 38.92926966666667, "bike_id": "d5cbedf039186421867e1f8fd38e5722", "type": "electric_scooter", "is_reserved": 0, "lon": -77.02336083333333}, {"fusion_lat": 0.0, "name": "04c4f31c14838e2474e1317424b5e3fb", "is_disabled": 0, "rental_uris": {"android": "https://dc.lft.to/lastmile_qr_scan", "ios": "https://dc.lft.to/lastmile_qr_scan"}, "fusion_lon": 0.0, "lat": 38.9072855, "bike_id": "04c4f31c14838e2474e1317424b5e3fb", "type": "electric_scooter", "is_reserved": 0, "lon": -77.028871}, {"fusion_lat": 0.0, "name": "bb87b7d4d459ab6595ee6af94f2aa777", "is_disabled": 0, "rental_uris": {"android": "https://dc.lft.to/lastmile_qr_scan", "ios": "https://dc.lft.to/lastmile_qr_scan"}, "fusion_lon": 0.0, "lat": 38.923174833333334, "bike_id": "bb87b7d4d459ab6595ee6af94f2aa777", "type": "electric_scooter", "is_reserved": 0, "lon": -77.02041166666666}, {"fusion_lat": 0.0, "name": "402f6c1f79d517f951672b726e4ae139", "is_disabled": 0, "rental_uris": {"android": "https://dc.lft.to/lastmile_qr_scan", "ios": "https://dc.lft.to/lastmile_qr_scan"}, "fusion_lon": 0.0, "lat": 38.930824333333334, "bike_id": "402f6c1f79d517f951672b726e4ae139", "type": "electric_scooter", "is_reserved": 0, "lon": -77.077603}, {"fusion_lat": 0.0, "name": "987e7ebe143f5eaf74935229243379e2", "is_disabled": 0, "rental_uris": {"android": "https://dc.lft.to/lastmile_qr_scan", "ios": "https://dc.lft.to/lastmile_qr_scan"}, "fusion_lon": 0.0, "lat": 38.919158833333334, "bike_id": "987e7ebe143f5eaf74935229243379e2", "type": "electric_scooter", "is_reserved": 0, "lon": -77.041542}, {"fusion_lat": 0.0, "name": "95eb7525123b13fe8abbc21ecfbb19bd", "is_disabled": 0, "rental_uris": {"android": "https://dc.lft.to/lastmile_qr_scan", "ios": "https://dc.lft.to/lastmile_qr_scan"}, "fusion_lon": 0.0, "lat": 38.9039795, "bike_id": "95eb7525123b13fe8abbc21ecfbb19bd", "type": "electric_scooter", "is_reserved": 0, "lon": -76.99010116666666}, {"fusion_lat": 0.0, "name": "6ee7a48c6775d2459790c7d7bbdb77d5", "is_disabled": 0, "rental_uris": {"android": "https://dc.lft.to/lastmile_qr_scan", "ios": "https://dc.lft.to/lastmile_qr_scan"}, "fusion_lon": 0.0, "lat": 38.952359666666666, "bike_id": "6ee7a48c6775d2459790c7d7bbdb77d5", "type": "electric_scooter", "is_reserved": 0, "lon": -76.99007333333333}, {"fusion_lat": 0.0, "name": "b2413830be3b8e679763a4a1d5d4f931", "is_disabled": 0, "rental_uris": {"android": "https://dc.lft.to/lastmile_qr_scan", "ios": "https://dc.lft.to/lastmile_qr_scan"}, "fusion_lon": 0.0, "lat": 38.9352345, "bike_id": "b2413830be3b8e679763a4a1d5d4f931", "type": "electric_scooter", "is_reserved": 0, "lon": -77.03263916666667}, {"fusion_lat": 0.0, "name": "419b2fb86a310d44594e60fe6cdad878", "is_disabled": 0, "rental_uris": {"android": "https://dc.lft.to/lastmile_qr_scan", "ios": "https://dc.lft.to/lastmile_qr_scan"}, "fusion_lon": 0.0, "lat": 38.9025715, "bike_id": "419b2fb86a310d44594e60fe6cdad878", "type": "electric_scooter", "is_reserved": 0, "lon": -76.97453133333333}, {"fusion_lat": 0.0, "name": "816963a99405d2b838a3ce24f984d057", "is_disabled": 0, "rental_uris": {"android": "https://dc.lft.to/lastmile_qr_scan", "ios": "https://dc.lft.to/lastmile_qr_scan"}, "fusion_lon": 0.0, "lat": 38.9069915, "bike_id": "816963a99405d2b838a3ce24f984d057", "type": "electric_scooter", "is_reserved": 0, "lon": -77.06518366666667}, {"fusion_lat": 0.0, "name": "40cbf061c40758c07f815d7647f59c6f", "is_disabled": 0, "rental_uris": {"android": "https://dc.lft.to/lastmile_qr_scan", "ios": "https://dc.lft.to/lastmile_qr_scan"}, "fusion_lon": 0.0, "lat": 38.918186166666665, "bike_id": "40cbf061c40758c07f815d7647f59c6f", "type": "electric_scooter", "is_reserved": 0, "lon": -77.025061}, {"fusion_lat": 0.0, "name": "f9a36575f5a94a0f3bb24e4ca849efce", "is_disabled": 0, "rental_uris": {"android": "https://dc.lft.to/lastmile_qr_scan", "ios": "https://dc.lft.to/lastmile_qr_scan"}, "fusion_lon": 0.0, "lat": 38.91818416666667, "bike_id": "f9a36575f5a94a0f3bb24e4ca849efce", "type": "electric_scooter", "is_reserved": 0, "lon": -77.02609666666666}, {"fusion_lat": 0.0, "name": "4a44237dff9d38ef16204121930f3471", "is_disabled": 0, "rental_uris": {"android": "https://dc.lft.to/lastmile_qr_scan", "ios": "https://dc.lft.to/lastmile_qr_scan"}, "fusion_lon": 0.0, "lat": 38.9238945, "bike_id": "4a44237dff9d38ef16204121930f3471", "type": "electric_scooter", "is_reserved": 0, "lon": -77.04021516666667}, {"fusion_lat": 0.0, "name": "e364100d3cec7baf8564ef1dcfa7383e", "is_disabled": 0, "rental_uris": {"android": "https://dc.lft.to/lastmile_qr_scan", "ios": "https://dc.lft.to/lastmile_qr_scan"}, "fusion_lon": 0.0, "lat": 38.90823783333333, "bike_id": "e364100d3cec7baf8564ef1dcfa7383e", "type": "electric_scooter", "is_reserved": 0, "lon": -77.041752}, {"fusion_lat": 0.0, "name": "af1bbfe2150b5fd3c3db3e9995143240", "is_disabled": 0, "rental_uris": {"android": "https://dc.lft.to/lastmile_qr_scan", "ios": "https://dc.lft.to/lastmile_qr_scan"}, "fusion_lon": 0.0, "lat": 38.910537833333336, "bike_id": "af1bbfe2150b5fd3c3db3e9995143240", "type": "electric_scooter", "is_reserved": 0, "lon": -77.02189116666666}, {"fusion_lat": 0.0, "name": "b43796d6cebc6f56f3827a7e54ebcbe6", "is_disabled": 0, "rental_uris": {"android": "https://dc.lft.to/lastmile_qr_scan", "ios": "https://dc.lft.to/lastmile_qr_scan"}, "fusion_lon": 0.0, "lat": 38.89329333333333, "bike_id": "b43796d6cebc6f56f3827a7e54ebcbe6", "type": "electric_scooter", "is_reserved": 0, "lon": -76.9392765}, {"fusion_lat": 0.0, "name": "e21be709a65a94bab5114960361a87cd", "is_disabled": 0, "rental_uris": {"android": "https://dc.lft.to/lastmile_qr_scan", "ios": "https://dc.lft.to/lastmile_qr_scan"}, "fusion_lon": 0.0, "lat": 38.887310166666666, "bike_id": "e21be709a65a94bab5114960361a87cd", "type": "electric_scooter", "is_reserved": 0, "lon": -77.01747983333334}, {"fusion_lat": 0.0, "name": "a6094fb79ae95ad6187fcdc4cd2e1b12", "is_disabled": 0, "rental_uris": {"android": "https://dc.lft.to/lastmile_qr_scan", "ios": "https://dc.lft.to/lastmile_qr_scan"}, "fusion_lon": 0.0, "lat": 38.9247715, "bike_id": "a6094fb79ae95ad6187fcdc4cd2e1b12", "type": "electric_scooter", "is_reserved": 0, "lon": -77.03913566666667}, {"fusion_lat": 0.0, "name": "57184ee39edc038c7e95338fa7453f94", "is_disabled": 0, "rental_uris": {"android": "https://dc.lft.to/lastmile_qr_scan", "ios": "https://dc.lft.to/lastmile_qr_scan"}, "fusion_lon": 0.0, "lat": 38.90623133333333, "bike_id": "57184ee39edc038c7e95338fa7453f94", "type": "electric_scooter", "is_reserved": 0, "lon": -77.06289383333333}, {"fusion_lat": 0.0, "name": "8628f0fa2c40c913f3111a3120d3b30a", "is_disabled": 0, "rental_uris": {"android": "https://dc.lft.to/lastmile_qr_scan", "ios": "https://dc.lft.to/lastmile_qr_scan"}, "fusion_lon": 0.0, "lat": 38.90064483333333, "bike_id": "8628f0fa2c40c913f3111a3120d3b30a", "type": "electric_scooter", "is_reserved": 0, "lon": -76.92741683333334}, {"fusion_lat": 0.0, "name": "b27a80bd4f5117a3c4004911e7da2e60", "is_disabled": 0, "rental_uris": {"android": "https://dc.lft.to/lastmile_qr_scan", "ios": "https://dc.lft.to/lastmile_qr_scan"}, "fusion_lon": 0.0, "lat": 38.89545566666666, "bike_id": "b27a80bd4f5117a3c4004911e7da2e60", "type": "electric_scooter", "is_reserved": 0, "lon": -76.94949283333334}, {"fusion_lat": 0.0, "name": "024d9f1c3619e57ffe09ff548761c52d", "is_disabled": 0, "rental_uris": {"android": "https://dc.lft.to/lastmile_qr_scan", "ios": "https://dc.lft.to/lastmile_qr_scan"}, "fusion_lon": 0.0, "lat": 38.880289833333336, "bike_id": "024d9f1c3619e57ffe09ff548761c52d", "type": "electric_scooter", "is_reserved": 0, "lon": -77.02502316666667}, {"fusion_lat": 0.0, "name": "ee1061ed84b543fbde4e212873477a20", "is_disabled": 0, "rental_uris": {"android": "https://dc.lft.to/lastmile_qr_scan", "ios": "https://dc.lft.to/lastmile_qr_scan"}, "fusion_lon": 0.0, "lat": 38.8774935, "bike_id": "ee1061ed84b543fbde4e212873477a20", "type": "electric_scooter", "is_reserved": 0, "lon": -77.01425933333333}, {"fusion_lat": 0.0, "name": "8bd25c029dbc73dd74606db8d2291eff", "is_disabled": 0, "rental_uris": {"android": "https://dc.lft.to/lastmile_qr_scan", "ios": "https://dc.lft.to/lastmile_qr_scan"}, "fusion_lon": 0.0, "lat": 38.915961333333335, "bike_id": "8bd25c029dbc73dd74606db8d2291eff", "type": "electric_scooter", "is_reserved": 0, "lon": -77.04555583333334}, {"fusion_lat": 0.0, "name": "b2c37f80ca4fa768e7574e5df542e404", "is_disabled": 0, "rental_uris": {"android": "https://dc.lft.to/lastmile_qr_scan", "ios": "https://dc.lft.to/lastmile_qr_scan"}, "fusion_lon": 0.0, "lat": 38.91608883333333, "bike_id": "b2c37f80ca4fa768e7574e5df542e404", "type": "electric_scooter", "is_reserved": 0, "lon": -77.04604266666666}, {"fusion_lat": 0.0, "name": "3948a1c1794b7d0c1b4df5a214d40038", "is_disabled": 0, "rental_uris": {"android": "https://dc.lft.to/lastmile_qr_scan", "ios": "https://dc.lft.to/lastmile_qr_scan"}, "fusion_lon": 0.0, "lat": 38.92052266666666, "bike_id": "3948a1c1794b7d0c1b4df5a214d40038", "type": "electric_scooter", "is_reserved": 0, "lon": -77.044096},