{"data": {"bikes": [{"rental_uris": {"ios": "https://dc.lft.to/lastmile_qr_scan", "android": "https://dc.lft.to/lastmile_qr_scan"}, "type": "electric_scooter", "name": "4192ca33af96d8d6740a1c4fa22972fb", "is_reserved": 0, "lon": -77.02182833333333, "is_disabled": 0, "fusion_lat": 0.0, "lat": 38.914647, "bike_id": "4192ca33af96d8d6740a1c4fa22972fb", "fusion_lon": 0.0}, {"rental_uris": {"ios": "https://dc.lft.to/lastmile_qr_scan", "android": "https://dc.lft.to/lastmile_qr_scan"}, "type": "electric_scooter", "name": "74409259f0b80cf0a0a1491db8adda30", "is_reserved": 0, "lon": -77.03184933333333, "is_disabled": 0, "fusion_lat": 0.0, "lat": 38.929770500000004, "bike_id": "74409259f0b80cf0a0a1491db8adda30", "fusion_lon": 0.0}, {"rental_uris": {"ios": "https://dc.lft.to/lastmile_qr_scan", "android": "https://dc.lft.to/lastmile_qr_scan"}, "type": "electric_scooter", "name": "13cd6837ebaf45bddc400efd4fde720d", "is_reserved": 0, "lon": -77.03041216666666, "is_disabled": 0, "fusion_lat": 0.0, "lat": 38.99033883333333, "bike_id": "13cd6837ebaf45bddc400efd4fde720d", "fusion_lon": 0.0}, {"rental_uris": {"ios": "https://dc.lft.to/lastmile_qr_scan", "android": "https://dc.lft.to/lastmile_qr_scan"}, "type": "electric_scooter", "name": "797108ced237f54aa518e2bd9fa860a1", "is_reserved": 0, "lon": -77.01692866666667, "is_disabled": 0, "fusion_lat": 0.0, "lat": 38.90402916666667, "bike_id": "797108ced237f54aa518e2bd9fa860a1", "fusion_lon": 0.0}, {"rental_uris": {"ios": "https://dc.lft.to/lastmile_qr_scan", "android": "https://dc.lft.to/lastmile_qr_scan"}, "type": "electric_bike", "name": "fb80fd8a51d4633472f06275bfb19c5e", "is_reserved": 0, "lon": -77.07161266666667, "is_disabled": 0, "fusion_lat": 0.0, "lat": 38.9079275, "bike_id": "fb80fd8a51d4633472f06275bfb19c5e", "fusion_lon": 0.0}, {"rental_uris": {"ios": "https://dc.lft.to/lastmile_qr_scan", "android": "https://dc.lft.to/lastmile_qr_scan"}, "type": "electric_scooter", "name": "42e87e20a8d69636a2e05ff2e4a8b22d", "is_reserved": 0, "lon": -77.0110075, "is_disabled": 0, "fusion_lat": 0.0, "lat": 38.88540866666666, "bike_id": "42e87e20a8d69636a2e05ff2e4a8b22d", "fusion_lon": 0.0}, {"rental_uris": {"ios": "https://dc.lft.to/lastmile_qr_scan", "android": "https://dc.lft.to/lastmile_qr_scan"}, "type": "electric_scooter", "name": "a44536b371b7b13efb24712354c0962c", "is_reserved": 0, "lon": -77.02709683333333, "is_disabled": 0, "fusion_lat": 0.0, "lat": 38.89986616666667, "bike_id": "a44536b371b7b13efb24712354c0962c", "fusion_lon": 0.0}, {"rental_uris": {"ios": "https://dc.lft.to/lastmile_qr_scan", "android": "https://dc.lft.to/lastmile_qr_scan"}, "type": "electric_scooter", "name": "7014519e9aeb4ea68d65e88e34dc20e0", "is_reserved": 0, "lon": -77.0522115, "is_disabled": 0, "fusion_lat": 0.0, "lat": 38.92494283333333, "bike_id": "7014519e9aeb4ea68d65e88e34dc20e0", "fusion_lon": 0.0}, {"rental_uris": {"ios": "https://dc.lft.to/lastmile_qr_scan", "android": "https://dc.lft.to/lastmile_qr_scan"}, "type": "electric_scooter", "name": "418527da8113a86b88ea81466c32243f", "is_reserved": 0, "lon": -77.040582, "is_disabled": 0, "fusion_lat": 0.0, "lat": 38.9176885, "bike_id": "418527da8113a86b88ea81466c32243f", "fusion_lon": 0.0}, {"rental_uris": {"ios": "https://dc.lft.to/lastmile_qr_scan", "android": "https://dc.lft.to/lastmile_qr_scan"}, "type": "electric_scooter", "name": "6dc2bf9131f7c7b1d0b48b05d44190e2", "is_reserved": 0, "lon": -77.04647766666666, "is_disabled": 0, "fusion_lat": 0.0, "lat": 38.900629, "bike_id": "6dc2bf9131f7c7b1d0b48b05d44190e2", "fusion_lon": 0.0}, {"rental_uris": {"ios": "https://dc.lft.to/lastmile_qr_scan", "android": "https://dc.lft.to/lastmile_qr_scan"}, "type": "electric_bike", "name": "d3c418f9ad495b170b6b1a6b9a7e381e", "is_reserved": 0, "lon": -76.96099, "is_disabled": 0, "fusion_lat": 0.0, "lat": 38.94961983333334, "bike_id": "d3c418f9ad495b170b6b1a6b9a7e381e", "fusion_lon": 0.0}, {"rental_uris": {"ios": "https://dc.lft.to/lastmile_qr_scan", "android": "https://dc.lft.to/lastmile_qr_scan"}, "type": "electric_scooter", "name": "bbf41708ce32d28e8400c839afbe1293", "is_reserved": 0, "lon": -77.05972166666666, "is_disabled": 0, "fusion_lat": 0.0, "lat": 38.905217666666665, "bike_id": "bbf41708ce32d28e8400c839afbe1293", "fusion_lon": 0.0}, {"rental_uris": {"ios": "https://dc.lft.to/lastmile_qr_scan", "android": "https://dc.lft.to/lastmile_qr_scan"}, "type": "electric_scooter", "name": "4be9f8fa0482f24fc3684b506afda246", "is_reserved": 0, "lon": -77.03976, "is_disabled": 0, "fusion_lat": 0.0, "lat": 38.90967233333333, "bike_id": "4be9f8fa0482f24fc3684b506afda246", "fusion_lon": 0.0}, {"rental_uris": {"ios": "https://dc.lft.to/lastmile_qr_scan", "android": "https://dc.lft.to/lastmile_qr_scan"}, "type": "electric_scooter", "name": "327a5b5278d09117396f87bf5e8d57b7", "is_reserved": 0, "lon": -77.02584283333333, "is_disabled": 0, "fusion_lat": 0.0, "lat": 38.88084933333333, "bike_id": "327a5b5278d09117396f87bf5e8d57b7", "fusion_lon": 0.0}, {"rental_uris": {"ios": "https://dc.lft.to/lastmile_qr_scan", "android": "https://dc.lft.to/lastmile_qr_scan"}, "type": "electric_scooter", "name": "c2f6c74006649b8761546a8df96d1ff4", "is_reserved": 0, "lon": -77.00196933333334, "is_disabled": 0, "fusion_lat": 0.0, "lat": 38.90160066666667, "bike_id": "c2f6c74006649b8761546a8df96d1ff4", "fusion_lon": 0.0}, {"rental_uris": {"ios": "https://dc.lft.to/lastmile_qr_scan", "android": "https://dc.lft.to/lastmile_qr_scan"}, "type": "electric_scooter", "name": "586a940628282f6607a9ba2fde70e6e2", "is_reserved": 0, "lon": -77.0287055, "is_disabled": 0, "fusion_lat": 0.0, "lat": 38.91269166666667, "bike_id": "586a940628282f6607a9ba2fde70e6e2", "fusion_lon": 0.0}, {"rental_uris": {"ios": "https://dc.lft.to/lastmile_qr_scan", "android": "https://dc.lft.to/lastmile_qr_scan"}, "type": "electric_bike", "name": "943321570cc3d959b8a9fc06d2a9db67", "is_reserved": 0, "lon": -76.95795016666666, "is_disabled": 0, "fusion_lat": 0.0, "lat": 38.980465, "bike_id": "943321570cc3d959b8a9fc06d2a9db67", "fusion_lon": 0.0}, {"rental_uris": {"ios": "https://dc.lft.to/lastmile_qr_scan", "android": "https://dc.lft.to/lastmile_qr_scan"}, "type": "electric_scooter", "name": "b6f73064942d978222b162664fc42531", "is_reserved": 0, "lon": -77.02346116666666, "is_disabled": 0, "fusion_lat": 0.0, "lat": 38.93097516666667, "bike_id": "b6f73064942d978222b162664fc42531", "fusion_lon": 0.0}, {"rental_uris": {"ios": "https://dc.lft.to/lastmile_qr_scan", "android": "https://dc.lft.to/lastmile_qr_scan"}, "type": "electric_scooter", "name": "266876741b0b15e07857c72b44c0fdd9", "is_reserved": 0, "lon": -76.97564733333333, "is_disabled": 0, "fusion_lat": 0.0, "lat": 38.9442275, "bike_id": "266876741b0b15e07857c72b44c0fdd9", "fusion_lon": 0.0}, {"rental_uris": {"ios": "https://dc.lft.to/lastmile_qr_scan", "android": "https://dc.lft.to/lastmile_qr_scan"}, "type": "electric_scooter", "name": "c83b681e89c19697e5d6e3218cf8eee7", "is_reserved": 0, "lon": -77.05504816666667, "is_disabled": 0, "fusion_lat": 0.0, "lat": 38.92840983333333, "bike_id": "c83b681e89c19697e5d6e3218cf8eee7", "fusion_lon": 0.0}, {"rental_uris": {"ios": "https://dc.lft.to/lastmile_qr_scan", "android": "https://dc.lft.to/lastmile_qr_scan"}, "type": "electric_bike", "name": "4488200e291fbdef6a43a210890acbad", "is_reserved": 0, "lon": -77.001357, "is_disabled": 0, "fusion_lat": 0.0, "lat": 38.995013666666665, "bike_id": "4488200e291fbdef6a43a210890acbad", "fusion_lon": 0.0}, {"rental_uris": {"ios": "https://dc.lft.to/lastmile_qr_scan", "android": "https://dc.lft.to/lastmile_qr_scan"}, "type": "electric_bike", "name": "08763c79fa75b1504eb556301527120f", "is_reserved": 0, "lon": -77.026219, "is_disabled": 0, "fusion_lat": 0.0, "lat": 38.962252, "bike_id": "08763c79fa75b1504eb556301527120f", "fusion_lon": 0.0}, {"rental_uris": {"ios": "https://dc.lft.to/lastmile_qr_scan", "android": "https://dc.lft.to/lastmile_qr_scan"}, "type": "electric_scooter", "name": "6013c7935be16b0078675aec3ac724fe", "is_reserved": 0, "lon": -76.99792316666667, "is_disabled": 0, "fusion_lat": 0.0, "lat": 38.876330333333335, "bike_id": "6013c7935be16b0078675aec3ac724fe", "fusion_lon": 0.0}, {"rental_uris": {"ios": "https://dc.lft.to/lastmile_qr_scan", "android": "https://dc.lft.to/lastmile_qr_scan"}, "type": "electric_scooter", "name": "cd9734c0bf856a8c1950a0879f2b1d7e", "is_reserved": 0, "lon": -77.041955, "is_disabled": 0, "fusion_lat": 0.0, "lat": 38.920714833333335, "bike_id": "cd9734c0bf856a8c1950a0879f2b1d7e", "fusion_lon": 0.0}, {"rental_uris": {"ios": "https://dc.lft.to/lastmile_qr_scan", "android": "https://dc.lft.to/lastmile_qr_scan"}, "type": "electric_scooter", "name": "ade895698a12ab1f02b9dfa9abf39a79", "is_reserved": 0, "lon": -77.0318645, "is_disabled": 0, "fusion_lat": 0.0, "lat": 38.913207666666665, "bike_id": "ade895698a12ab1f02b9dfa9abf39a79", "fusion_lon": 0.0}, {"rental_uris": {"ios": "https://dc.lft.to/lastmile_qr_scan", "android": "https://dc.lft.to/lastmile_qr_scan"}, "type": "electric_bike", "name": "ffaab5cb8e845fb09933d9454d7da002", "is_reserved": 0, "lon": -76.96320066666667, "is_disabled": 0, "fusion_lat": 0.0, "lat": 38.93894616666667, "bike_id": "ffaab5cb8e845fb09933d9454d7da002", "fusion_lon": 0.0}, {"rental_uris": {"ios": "https://dc.lft.to/lastmile_qr_scan", "android": "https://dc.lft.to/lastmile_qr_scan"}, "type": "electric_scooter", "name": "1fe11ac2d45f7e61acaeec57c9ef15b3", "is_reserved": 0, "lon": -77.0419715, "is_disabled": 0, "fusion_lat": 0.0, "lat": 38.91671316666667, "bike_id": "1fe11ac2d45f7e61acaeec57c9ef15b3", "fusion_lon": 0.0}, {"rental_uris": {"ios": "https://dc.lft.to/lastmile_qr_scan", "android": "https://dc.lft.to/lastmile_qr_scan"}, "type": "electric_scooter", "name": "f017001e72714e24b98d87c8413a50f7", "is_reserved": 0, "lon": -77.031475, "is_disabled": 0, "fusion_lat": 0.0, "lat": 38.91414283333334, "bike_id": "f017001e72714e24b98d87c8413a50f7", "fusion_lon": 0.0}, {"rental_uris": {"ios": "https://dc.lft.to/lastmile_qr_scan", "android": "https://dc.lft.to/lastmile_qr_scan"}, "type": "electric_scooter", "name": "57c83d3451289e652d2e680673c71a5c", "is_reserved": 0, "lon": -77.03857, "is_disabled": 0, "fusion_lat": 0.0, "lat": 38.9084385, "bike_id": "57c83d3451289e652d2e680673c71a5c", "fusion_lon": 0.0}, {"rental_uris": {"ios": "https://dc.lft.to/lastmile_qr_scan", "android": "https://dc.lft.to/lastmile_qr_scan"}, "type": "electric_scooter", "name": "e625d873c7f8386158729a42c9752156", "is_reserved": 0, "lon": -77.02961183333333, "is_disabled": 0, "fusion_lat": 0.0, "lat": 38.92846316666667, "bike_id": "e625d873c7f8386158729a42c9752156", "fusion_lon": 0.0}, {"rental_uris": {"ios": "https://dc.lft.to/lastmile_qr_scan", "android": "https://dc.lft.to/lastmile_qr_scan"}, "type": "electric_scooter", "name": "77c8aea542106503375628845185a259", "is_reserved": 0, "lon": -77.02433716666667, "is_disabled": 0, "fusion_lat": 0.0, "lat": 38.9071925, "bike_id": "77c8aea542106503375628845185a259", "fusion_lon": 0.0}, {"rental_uris": {"ios": "https://dc.lft.to/lastmile_qr_scan", "android": "https://dc.lft.to/lastmile_qr_scan"}, "type": "electric_scooter", "name": "a6bcddfd678bd04053968fd2bc9d0436", "is_reserved": 0, "lon": -77.029699, "is_disabled": 0, "fusion_lat": 0.0, "lat": 38.9168665, "bike_id": "a6bcddfd678bd04053968fd2bc9d0436", "fusion_lon": 0.0}, {"rental_uris": {"ios": "https://dc.lft.to/lastmile_qr_scan", "android": "https://dc.lft.to/lastmile_qr_scan"}, "type": "electric_scooter", "name": "b785b4114455987dfb794a426dd82629", "is_reserved": 0, "lon": -77.07860066666667, "is_disabled": 0, "fusion_lat": 0.0, "lat": 38.93144866666667, "bike_id": "b785b4114455987dfb794a426dd82629", "fusion_lon": 0.0}, {"rental_uris": {"ios": "https://dc.lft.to/lastmile_qr_scan", "android": "https://dc.lft.to/lastmile_qr_scan"}, "type": "electric_bike", "name": "2e6b58efd7c083c0516b51b665e8dfc7", "is_reserved": 0, "lon": -77.08134733333333, "is_disabled": 0, "fusion_lat": 0.0, "lat": 38.822993833333335, "bike_id": "2e6b58efd7c083c0516b51b665e8dfc7", "fusion_lon": 0.0}, {"rental_uris": {"ios": "https://dc.lft.to/lastmile_qr_scan", "android": "https://dc.lft.to/lastmile_qr_scan"}, "type": "electric_scooter", "name": "eeb655e2bd08a493b8d5ee6588279828", "is_reserved": 0, "lon": -77.04634566666667, "is_disabled": 0, "fusion_lat": 0.0, "lat": 38.900678666666664, "bike_id": "eeb655e2bd08a493b8d5ee6588279828", "fusion_lon": 0.0}, {"rental_uris": {"ios": "https://dc.lft.to/lastmile_qr_scan", "android": "https://dc.lft.to/lastmile_qr_scan"}, "type": "electric_scooter", "name": "e1a53f47dadfe06ed5ec46328b9618f1", "is_reserved": 0, "lon": -77.04284216666667, "is_disabled": 0, "fusion_lat": 0.0, "lat": 38.92269533333333, "bike_id": "e1a53f47dadfe06ed5ec46328b9618f1", "fusion_lon": 0.0}, {"rental_uris": {"ios": "https://dc.lft.to/lastmile_qr_scan", "android": "https://dc.lft.to/lastmile_qr_scan"}, "type": "electric_scooter", "name": "6153fb8bf3f53e6b4fb88b7e4a533722", "is_reserved": 0, "lon": -77.00841466666667, "is_disabled": 0, "fusion_lat": 0.0, "lat": 38.912631833333336, "bike_id": "6153fb8bf3f53e6b4fb88b7e4a533722", "fusion_lon": 0.0}, {"rental_uris": {"ios": "https://dc.lft.to/lastmile_qr_scan", "android": "https://dc.lft.to/lastmile_qr_scan"}, "type": "electric_scooter", "name": "c4b80904d42527ea6d62b3e5a23468a2", "is_reserved": 0, "lon": -77.0277445, "is_disabled": 0, "fusion_lat": 0.0, "lat": 38.887442166666666, "bike_id": "c4b80904d42527ea6d62b3e5a23468a2", "fusion_lon": 0.0}, {"rental_uris": {"ios": "https://dc.lft.to/lastmile_qr_scan", "android": "https://dc.lft.to/lastmile_qr_scan"}, "type": "electric_scooter", "name": "044161b4f435047120b40a3457d478c9", "is_reserved": 0, "lon": -77.028536, "is_disabled": 0, "fusion_lat": 0.0, "lat": 38.9174865, "bike_id": "044161b4f435047120b40a3457d478c9", "fusion_lon": 0.0}, {"rental_uris": {"ios": "https://dc.lft.to/lastmile_qr_scan", "android": "https://dc.lft.to/lastmile_qr_scan"}, "type": "electric_scooter", "name": "16977efbebe916df0ebd8b2ba788d6db", "is_reserved": 0, "lon": -77.011716, "is_disabled": 0, "fusion_lat": 0.0, "lat": 38.876609, "bike_id": "16977efbebe916df0ebd8b2ba788d6db", "fusion_lon": 0.0}, {"rental_uris": {"ios": "https://dc.lft.to/lastmile_qr_scan", "android": "https://dc.lft.to/lastmile_qr_scan"}, "type": "electric_scooter", "name": "5037da1f0c1d976b88db355fb8565f61", "is_reserved": 0, "lon": -76.95700783333334, "is_disabled": 0, "fusion_lat": 0.0, "lat": 38.892092, "bike_id": "5037da1f0c1d976b88db355fb8565f61", "fusion_lon": 0.0}, {"rental_uris": {"ios": "https://dc.lft.to/lastmile_qr_scan", "android": "https://dc.lft.to/lastmile_qr_scan"}, "type": "electric_scooter", "name": "21de974b46319750cb08ccf630f1d89b", "is_reserved": 0, "lon": -77.04351166666666, "is_disabled": 0, "fusion_lat": 0.0, "lat": 38.901247833333336, "bike_id": "21de974b46319750cb08ccf630f1d89b", "fusion_lon": 0.0}, {"rental_uris": {"ios": "https://dc.lft.to/lastmile_qr_scan", "android": "https://dc.lft.to/lastmile_qr_scan"}, "type": "electric_scooter", "name": "9422e5a4951ee75242c445c7151527cb", "is_reserved": 0, "lon": -77.03655033333334, "is_disabled": 0, "fusion_lat": 0.0, "lat": 38.90069166666667, "bike_id": "9422e5a4951ee75242c445c7151527cb", "fusion_lon": 0.0}, {"rental_uris": {"ios": "https://dc.lft.to/lastmile_qr_scan", "android": "https://dc.lft.to/lastmile_qr_scan"}, "type": "electric_scooter", "name": "d886d311310d4a31987b6f61d5032126", "is_reserved": 0, "lon": -77.00405416666666, "is_disabled": 0, "fusion_lat": 0.0, "lat": 38.874365833333336, "bike_id": "d886d311310d4a31987b6f61d5032126", "fusion_lon": 0.0}, {"rental_uris": {"ios": "https://dc.lft.to/lastmile_qr_scan", "android": "https://dc.lft.to/lastmile_qr_scan"}, "type": "electric_scooter", "name": "43fe934451e79950b8b651e91054c00c", "is_reserved": 0, "lon": -76.98704433333333, "is_disabled": 0, "fusion_lat": 0.0, "lat": 38.90704516666667, "bike_id": "43fe934451e79950b8b651e91054c00c", "fusion_lon": 0.0}, {"rental_uris": {"ios": "https://dc.lft.to/lastmile_qr_scan", "android": "https://dc.lft.to/lastmile_qr_scan"}, "type": "electric_scooter", "name": "24bb362843d0cfec4785345d4d1dda75", "is_reserved": 0, "lon": -77.024846, "is_disabled": 0, "fusion_lat": 0.0, "lat": 38.91818583333333, "bike_id": "24bb362843d0cfec4785345d4d1dda75", "fusion_lon": 0.0}, {"rental_uris": {"ios": "https://dc.lft.to/lastmile_qr_scan", "android": "https://dc.lft.to/lastmile_qr_scan"}, "type": "electric_scooter", "name": "5bfb70adebefb265f39b91bdec8236fb", "is_reserved": 0, "lon": -76.99035, "is_disabled": 0, "fusion_lat": 0.0, "lat": 38.888724333333336, "bike_id": "5bfb70adebefb265f39b91bdec8236fb", "fusion_lon": 0.0}, {"rental_uris": {"ios": "https://dc.lft.to/lastmile_qr_scan", "android": "https://dc.lft.to/lastmile_qr_scan"}, "type": "electric_scooter", "name": "41f73f8f42df7bdf06be0398ecd38ae0", "is_reserved": 0, "lon": -77.03995983333333, "is_disabled": 0, "fusion_lat": 0.0, "lat": 38.912569833333336, "bike_id": "41f73f8f42df7bdf06be0398ecd38ae0", "fusion_lon": 0.0}, {"rental_uris": {"ios": "https://dc.lft.to/lastmile_qr_scan", "android": "https://dc.lft.to/lastmile_qr_scan"}, "type": "electric_scooter", "name": "80e06277945100998dc4b09c5dbf8f51", "is_reserved": 0, "lon": -77.01904616666667, "is_disabled": 0, "fusion_lat": 0.0, "lat": 38.923462666666666, "bike_id": "80e06277945100998dc4b09c5dbf8f51", "fusion_lon": 0.0}, {"rental_uris": {"ios": "https://dc.lft.to/lastmile_qr_scan", "android": "https://dc.lft.to/lastmile_qr_scan"}, "type": "electric_scooter", "name": "ed8345e8cb4a9785c36a6c9e599bbf53", "is_reserved": 0, "lon": -77.0326375, "is_disabled": 0, "fusion_lat": 0.0, "lat": 38.90721766666667, "bike_id": "ed8345e8cb4a9785c36a6c9e599bbf53", "fusion_lon": 0.0}, {"rental_uris": {"ios": "https://dc.lft.to/lastmile_qr_scan", "android": "https://dc.lft.to/lastmile_qr_scan"}, "type": "electric_scooter", "name": "13797b7aaddd6b4381d2da20f5d20222", "is_reserved": 0, "lon": -77.01169716666666, "is_disabled": 0, "fusion_lat": 0.0, "lat": 38.91481516666666, "bike_id": "13797b7aaddd6b4381d2da20f5d20222", "fusion_lon": 0.0}, {"rental_uris": {"ios": "https://dc.lft.to/lastmile_qr_scan", "android": "https://dc.lft.to/lastmile_qr_scan"}, "type": "electric_scooter", "name": "32d7c41bff90237005d543b9c14c5d40", "is_reserved": 0, "lon": -77.006242, "is_disabled": 0, "fusion_lat": 0.0, "lat": 38.871747666666664, "bike_id": "32d7c41bff90237005d543b9c14c5d40", "fusion_lon": 0.0}, {"rental_uris": {"ios": "https://dc.lft.to/lastmile_qr_scan", "android": "https://dc.lft.to/lastmile_qr_scan"}, "type": "electric_scooter", "name": "20842882aaec495ed2471ad1b2fd828e", "is_reserved": 0, "lon": -77.06804416666667, "is_disabled": 0, "fusion_lat": 0.0, "lat": 38.905169666666666, "bike_id": "20842882aaec495ed2471ad1b2fd828e", "fusion_lon": 0.0}, {"rental_uris": {"ios": "https://dc.lft.to/lastmile_qr_scan", "android": "https://dc.lft.to/lastmile_qr_scan"}, "type": "electric_scooter", "name": "62663e11f3a6c9a36c2ef0bcb7839d7e", "is_reserved": 0, "lon": -77.031756, "is_disabled": 0, "fusion_lat": 0.0, "lat": 38.915562, "bike_id": "62663e11f3a6c9a36c2ef0bcb7839d7e", "fusion_lon": 0.0}, {"rental_uris": {"ios": "https://dc.lft.to/lastmile_qr_scan", "android": "https://dc.lft.to/lastmile_qr_scan"}, "type": "electric_scooter", "name": "e48361174ffc79e33a46ab21aa171330", "is_reserved": 0, "lon": -76.941566, "is_disabled": 0, "fusion_lat": 0.0, "lat": 38.9017325, "bike_id": "e48361174ffc79e33a46ab21aa171330", "fusion_lon": 0.0}, {"rental_uris": {"ios": "https://dc.lft.to/lastmile_qr_scan", "android": "https://dc.lft.to/lastmile_qr_scan"}, "type": "electric_scooter", "name": "841cc8d42fcffa959605bc9cdf522fd0", "is_reserved": 0, "lon": -77.02821416666667, "is_disabled": 0, "fusion_lat": 0.0, "lat": 38.885192, "bike_id": "841cc8d42fcffa959605bc9cdf522fd0", "fusion_lon": 0.0}, {"rental_uris": {"ios": "https://dc.lft.to/lastmile_qr_scan", "android": "https://dc.lft.to/lastmile_qr_scan"}, "type": "electric_scooter", "name": "01353454b5755c952a7fc2b76d2d8c78", "is_reserved": 0, "lon": -76.97652133333334, "is_disabled": 0, "fusion_lat": 0.0, "lat": 38.903642833333336, "bike_id": "01353454b5755c952a7fc2b76d2d8c78", "fusion_lon": 0.0}, {"rental_uris": {"ios": "https://dc.lft.to/lastmile_qr_scan", "android": "https://dc.lft.to/lastmile_qr_scan"}, "type": "electric_scooter", "name": "90f786a8f24ba00e5667cc324e3983fc", "is_reserved": 0, "lon": -77.04092316666667, "is_disabled": 0, "fusion_lat": 0.0, "lat": 38.920682166666666, "bike_id": "90f786a8f24ba00e5667cc324e3983fc", "fusion_lon": 0.0}, {"rental_uris": {"ios": "https://dc.lft.to/lastmile_qr_scan", "android": "https://dc.lft.to/lastmile_qr_scan"}, "type": "electric_scooter", "name": "ab664341cb5d83add6147192e4668c88", "is_reserved": 0, "lon": -77.01539716666667, "is_disabled": 0, "fusion_lat": 0.0, "lat": 38.88701316666667, "bike_id": "ab664341cb5d83add6147192e4668c88", "fusion_lon": 0.0}, {"rental_uris": {"ios": "https://dc.lft.to/lastmile_qr_scan", "android": "https://dc.lft.to/lastmile_qr_scan"}, "type": "electric_scooter", "name": "317110489bc3fba29e6f68e30123d060", "is_reserved": 0, "lon": -77.04337266666667, "is_disabled": 0, "fusion_lat": 0.0, "lat": 38.903538166666664, "bike_id": "317110489bc3fba29e6f68e30123d060", "fusion_lon": 0.0}, {"rental_uris": {"ios": "https://dc.lft.to/lastmile_qr_scan", "android": "https://dc.lft.to/lastmile_qr_scan"}, "type": "electric_scooter", "name": "e540a42b7b0ff072a11a29adb73ecf3c", "is_reserved": 0, "lon": -77.00073783333333, "is_disabled": 0, "fusion_lat": 0.0, "lat": 38.873871, "bike_id": "e540a42b7b0ff072a11a29adb73ecf3c", "fusion_lon": 0.0}, {"rental_uris": {"ios": "https://dc.lft.to/lastmile_qr_scan", "android": "https://dc.lft.to/lastmile_qr_scan"}, "type": "electric_scooter", "name": "90d4718559c9f7eac29ce3dfcd69d498", "is_reserved": 0, "lon": -77.04499533333333, "is_disabled": 0, "fusion_lat": 0.0, "lat": 38.90817333333333, "bike_id": "90d4718559c9f7eac29ce3dfcd69d498", "fusion_lon": 0.0}, {"rental_uris": {"ios": "https://dc.lft.to/lastmile_qr_scan", "android": "https://dc.lft.to/lastmile_qr_scan"}, "type": "electric_scooter", "name": "01757a8e7dd7b0d1a9f0a21c5d6d6134", "is_reserved": 0, "lon": -77.02550216666667, "is_disabled": 0, "fusion_lat": 0.0, "lat": 38.91710233333333, "bike_id": "01757a8e7dd7b0d1a9f0a21c5d6d6134", "fusion_lon": 0.0}, {"rental_uris": {"ios": "https://dc.lft.to/lastmile_qr_scan", "android": "https://dc.lft.to/lastmile_qr_scan"}, "type": "electric_scooter", "name": "389aeacc3fb1c61c576b2448698836f2", "is_reserved": 0, "lon": -77.03183683333333, "is_disabled": 0, "fusion_lat": 0.0, "lat": 38.91835666666667, "bike_id": "389aeacc3fb1c61c576b2448698836f2", "fusion_lon": 0.0}, {"rental_uris": {"ios": "https://dc.lft.to/lastmile_qr_scan", "android": "https://dc.lft.to/lastmile_qr_scan"}, "type": "electric_bike", "name": "5d59367f82fc0bb0f531c3d1df8171bc", "is_reserved": 0, "lon": -77.0962285, "is_disabled": 0, "fusion_lat": 0.0, "lat": 38.97438316666667, "bike_id": "5d59367f82fc0bb0f531c3d1df8171bc", "fusion_lon": 0.0}, {"rental_uris": {"ios": "https://dc.lft.to/lastmile_qr_scan", "android": "https://dc.lft.to/lastmile_qr_scan"}, "type": "electric_scooter", "name": "8ecb61172fbfd6948f04c3ddfb9d0413", "is_reserved": 0, "lon": -76.99629133333333, "is_disabled": 0, "fusion_lat": 0.0, "lat": 38.87736683333333, "bike_id": "8ecb61172fbfd6948f04c3ddfb9d0413", "fusion_lon": 0.0}, {"rental_uris": {"ios": "https://dc.lft.to/lastmile_qr_scan", "android": "https://dc.lft.to/lastmile_qr_scan"}, "type": "electric_scooter", "name": "f31f299bea5d52df7257c9165e1f5b9b", "is_reserved": 0, "lon": -77.05688866666667, "is_disabled": 0, "fusion_lat": 0.0, "lat": 38.9053605, "bike_id": "f31f299bea5d52df7257c9165e1f5b9b", "fusion_lon": 0.0}, {"rental_uris": {"ios": "https://dc.lft.to/lastmile_qr_scan", "android": "https://dc.lft.to/lastmile_qr_scan"}, "type": "electric_scooter", "name": "e5f6e7ae6781cd67c74afc87fdc08723", "is_reserved": 0, "lon": -76.94651783333333, "is_disabled": 0, "fusion_lat": 0.0, "lat": 38.89830883333333, "bike_id": "e5f6e7ae6781cd67c74afc87fdc08723", "fusion_lon": 0.0}, {"rental_uris": {"ios": "https://dc.lft.to/lastmile_qr_scan", "android": "https://dc.lft.to/lastmile_qr_scan"}, "type": "electric_scooter", "name": "89f98383f128362ca27041b1b56ef7f2", "is_reserved": 0, "lon": -77.01445166666667, "is_disabled": 0, "fusion_lat": 0.0, "lat": 38.913196, "bike_id": "89f98383f128362ca27041b1b56ef7f2", "fusion_lon": 0.0}, {"rental_uris": {"ios": "https://dc.lft.to/lastmile_qr_scan", "android": "https://dc.lft.to/lastmile_qr_scan"}, "type": "electric_scooter", "name": "789989f0a7933fc7a7baf93c910579f7", "is_reserved": 0, "lon": -77.033933, "is_disabled": 0, "fusion_lat": 0.0, "lat": 38.90972216666667, "bike_id": "789989f0a7933fc7a7baf93c910579f7", "fusion_lon": 0.0}, {"rental_uris": {"ios": "https://dc.lft.to/lastmile_qr_scan", "android": "https://dc.lft.to/lastmile_qr_scan"}, "type": "electric_bike", "name": "81e889e04c4d05072a75fd69d71b1c07", "is_reserved": 0, "lon": -76.93329333333334, "is_disabled": 0, "fusion_lat": 0.0, "lat": 38.9515155, "bike_id": "81e889e04c4d05072a75fd69d71b1c07", "fusion_lon": 0.0}, {"rental_uris": {"ios": "https://dc.lft.to/lastmile_qr_scan", "android": "https://dc.lft.to/lastmile_qr_scan"}, "type": "electric_scooter", "name": "6a99ef797f232aa6a09a183794483c88", "is_reserved": 0, "lon": -77.0205745, "is_disabled": 0, "fusion_lat": 0.0, "lat": 38.922478, "bike_id": "6a99ef797f232aa6a09a183794483c88", "fusion_lon": 0.0}, {"rental_uris": {"ios": "https://dc.lft.to/lastmile_qr_scan", "android": "https://dc.lft.to/lastmile_qr_scan"}, "type": "electric_scooter", "name": "e06f8ad91e151584a547cb4e6db5f1e5", "is_reserved": 0, "lon": -76.98608383333334, "is_disabled": 0, "fusion_lat": 0.0, "lat": 38.878366166666666, "bike_id": "e06f8ad91e151584a547cb4e6db5f1e5", "fusion_lon": 0.0}, {"rental_uris": {"ios": "https://dc.lft.to/lastmile_qr_scan", "android": "https://dc.lft.to/lastmile_qr_scan"}, "type": "electric_scooter", "name": "6c18cf34895e54e53356f788b595195b", "is_reserved": 0, "lon": -76.998342, "is_disabled": 0, "fusion_lat": 0.0, "lat": 38.90044983333333, "bike_id": "6c18cf34895e54e53356f788b595195b", "fusion_lon": 0.0}, {"rental_uris": {"ios": "https://dc.lft.to/lastmile_qr_scan", "android": "https://dc.lft.to/lastmile_qr_scan"}, "type": "electric_scooter", "name": "89922814c4f247ab80e9b11084e379a5", "is_reserved": 0, "lon": -77.05199183333333, "is_disabled": 0, "fusion_lat": 0.0, "lat": 38.92431666666667, "bike_id": "89922814c4f247ab80e9b11084e379a5", "fusion_lon": 0.0}, {"rental_uris": {"ios": "https://dc.lft.to/lastmile_qr_scan", "android": "https://dc.lft.to/lastmile_qr_scan"}, "type": "electric_bike", "name": "5f239900ff608d1d67ad36c1931b9519", "is_reserved": 0, "lon": -76.88976533333333, "is_disabled": 0, "fusion_lat": 0.0, "lat": 39.007849, "bike_id": "5f239900ff608d1d67ad36c1931b9519", "fusion_lon": 0.0}, {"rental_uris": {"ios": "https://dc.lft.to/lastmile_qr_scan", "android": "https://dc.lft.to/lastmile_qr_scan"}, "type": "electric_scooter", "name": "fb5f325555cef8dc7e732748fe5bd543", "is_reserved": 0, "lon": -77.0087305, "is_disabled": 0, "fusion_lat": 0.0, "lat": 38.91259066666667, "bike_id": "fb5f325555cef8dc7e732748fe5bd543", "fusion_lon": 0.0}, {"rental_uris": {"ios": "https://dc.lft.to/lastmile_qr_scan", "android": "https://dc.lft.to/lastmile_qr_scan"}, "type": "electric_scooter", "name": "2a3ce99b70a6fb3d6f74552eab0ab599", "is_reserved": 0, "lon": -76.9941575, "is_disabled": 0, "fusion_lat": 0.0, "lat": 38.87785, "bike_id": "2a3ce99b70a6fb3d6f74552eab0ab599", "fusion_lon": 0.0}, {"rental_uris": {"ios": "https://dc.lft.to/lastmile_qr_scan", "android": "https://dc.lft.to/lastmile_qr_scan"}, "type": "electric_scooter", "name": "6523083a4bc5f23ec517d34cf3617d7d", "is_reserved": 0, "lon": -77.034724, "is_disabled": 0, "fusion_lat": 0.0, "lat": 38.93021316666667, "bike_id": "6523083a4bc5f23ec517d34cf3617d7d", "fusion_lon": 0.0}, {"rental_uris": {"ios": "https://dc.lft.to/lastmile_qr_scan", "android": "https://dc.lft.to/lastmile_qr_scan"}, "type": "electric_scooter", "name": "90499b9aa6f914af84cfe89d5f79d134", "is_reserved": 0, "lon": -76.98401316666667, "is_disabled": 0, "fusion_lat": 0.0, "lat": 38.925154, "bike_id": "90499b9aa6f914af84cfe89d5f79d134", "fusion_lon": 0.0}, {"rental_uris": {"ios": "https://dc.lft.to/lastmile_qr_scan", "android": "https://dc.lft.to/lastmile_qr_scan"}, "type": "electric_scooter", "name": "815bf3035a640293b8db1fab48a84634", "is_reserved": 0, "lon": -77.0407265, "is_disabled": 0, "fusion_lat": 0.0, "lat": 38.914147, "bike_id": "815bf3035a640293b8db1fab48a84634", "fusion_lon": 0.0}, {"rental_uris": {"ios": "https://dc.lft.to/lastmile_qr_scan", "android": "https://dc.lft.to/lastmile_qr_scan"}, "type": "electric_scooter", "name": "8b39e7497e8cb1a864575032c3a5004d", "is_reserved": 0, "lon": -77.02321833333333, "is_disabled": 0, "fusion_lat": 0.0, "lat": 38.917806166666665, "bike_id": "8b39e7497e8cb1a864575032c3a5004d", "fusion_lon": 0.0}, {"rental_uris": {"ios": "https://dc.lft.to/lastmile_qr_scan", "android": "https://dc.lft.to/lastmile_qr_scan"}, "type": "electric_scooter", "name": "a8fa0c9011c7a081e2120b3163213efe", "is_reserved": 0, "lon": -77.02221983333334, "is_disabled": 0, "fusion_lat": 0.0, "lat": 38.91417166666667, "bike_id": "a8fa0c9011c7a081e2120b3163213efe", "fusion_lon": 0.0}, {"rental_uris": {"ios": "https://dc.lft.to/lastmile_qr_scan", "android": "https://dc.lft.to/lastmile_qr_scan"}, "type": "electric_scooter", "name": "2753a033d1b335c3b9363681e3b7ea3d", "is_reserved": 0, "lon": -77.01649233333333, "is_disabled": 0, "fusion_lat": 0.0, "lat": 38.900414, "bike_id": "2753a033d1b335c3b9363681e3b7ea3d", "fusion_lon": 0.0}, {"rental_uris": {"ios": "https://dc.lft.to/lastmile_qr_scan", "android": "https://dc.lft.to/lastmile_qr_scan"}, "type": "electric_scooter", "name": "1f9d0da4e68d7b414f20e2732375f30c", "is_reserved": 0, "lon": -77.0161345, "is_disabled": 0, "fusion_lat": 0.0, "lat": 38.885002666666665, "bike_id": "1f9d0da4e68d7b414f20e2732375f30c", "fusion_lon": 0.0}, {"rental_uris": {"ios": "https://dc.lft.to/lastmile_qr_scan", "android": "https://dc.lft.to/lastmile_qr_scan"}, "type": "electric_scooter", "name": "b3aee63fa1689cf6da78fdee418b9498", "is_reserved": 0, "lon": -77.0396785, "is_disabled": 0, "fusion_lat": 0.0, "lat": 38.8935245, "bike_id": "b3aee63fa1689cf6da78fdee418b9498", "fusion_lon": 0.0}, {"rental_uris": {"ios": "https://dc.lft.to/lastmile_qr_scan", "android": "https://dc.lft.to/lastmile_qr_scan"}, "type": "electric_scooter", "name": "2fe04cd0b38dcd9e5e524d3ceb257c9e", "is_reserved": 0, "lon": -76.9836865, "is_disabled": 0, "fusion_lat": 0.0, "lat": 38.8603035, "bike_id": "2fe04cd0b38dcd9e5e524d3ceb257c9e", "fusion_lon": 0.0}, {"rental_uris": {"ios": "https://dc.lft.to/lastmile_qr_scan", "android": "https://dc.lft.to/lastmile_qr_scan"}, "type": "electric_scooter", "name": "c7dffa5bf83e030dc4b3043c32bc563a", "is_reserved": 0, "lon": -77.0007805, "is_disabled": 0, "fusion_lat": 0.0, "lat": 38.87366316666667, "bike_id": "c7dffa5bf83e030dc4b3043c32bc563a", "fusion_lon": 0.0}, {"rental_uris": {"ios": "https://dc.lft.to/lastmile_qr_scan", "android": "https://dc.lft.to/lastmile_qr_scan"}, "type": "electric_scooter", "name": "fa2e723c9dbf40495792ff9c0e5b4611", "is_reserved": 0, "lon": -77.03183316666667, "is_disabled": 0, "fusion_lat": 0.0, "lat": 38.9167405, "bike_id": "fa2e723c9dbf40495792ff9c0e5b4611", "fusion_lon": 0.0}, {"rental_uris": {"ios": "https://dc.lft.to/lastmile_qr_scan", "android": "https://dc.lft.to/lastmile_qr_scan"}, "type": "electric_scooter", "name": "982949b086d4995e379e984c6eef80bd", "is_reserved": 0, "lon": -77.04788616666667, "is_disabled": 0, "fusion_lat": 0.0, "lat": 38.89781083333333, "bike_id": "982949b086d4995e379e984c6eef80bd", "fusion_lon": 0.0}, {"rental_uris": {"ios": "https://dc.lft.to/lastmile_qr_scan", "android": "https://dc.lft.to/lastmile_qr_scan"}, "type": "electric_scooter", "name": "3ebb25f05632bd234c7c72f5065779da", "is_reserved": 0, "lon": -77.0307675, "is_disabled": 0, "fusion_lat": 0.0, "lat": 38.9057705, "bike_id": "3ebb25f05632bd234c7c72f5065779da", "fusion_lon": 0.0}, {"rental_uris": {"ios": "https://dc.lft.to/lastmile_qr_scan", "android": "https://dc.lft.to/lastmile_qr_scan"}, "type": "electric_scooter", "name": "608cc307410e99bb9cb412dde49c0634", "is_reserved": 0, "lon": -76.9855445, "is_disabled": 0, "fusion_lat": 0.0, "lat": 38.883562, "bike_id": "608cc307410e99bb9cb412dde49c0634", "fusion_lon": 0.0}, {"rental_uris": {"ios": "https://dc.lft.to/lastmile_qr_scan", "android": "https://dc.lft.to/lastmile_qr_scan"}, "type": "electric_scooter", "name": "c2c1a8baba01570278c6381e9fedb819", "is_reserved": 0, "lon": -77.0414935, "is_disabled": 0, "fusion_lat": 0.0, "lat": 38.917411666666666, "bike_id": "c2c1a8baba01570278c6381e9fedb819", "fusion_lon": 0.0}, {"rental_uris": {"ios": "https://dc.lft.to/lastmile_qr_scan", "android": "https://dc.lft.to/lastmile_qr_scan"}, "type": "electric_scooter", "name": "50356b0f769131fb3c6ce34d3187db4b", "is_reserved": 0, "lon": -77.0011795, "is_disabled": 0, "fusion_lat": 0.0, "lat": 38.877959833333335, "bike_id": "50356b0f769131fb3c6ce34d3187db4b", "fusion_lon": 0.0}, {"rental_uris": {"ios": "https://dc.lft.to/lastmile_qr_scan", "android": "https://dc.lft.to/lastmile_qr_scan"}, "type": "electric_scooter", "name": "0ebbf509e7cd018f57531736cedc9056", "is_reserved": 0, "lon": -77.00378833333333, "is_disabled": 0, "fusion_lat": 0.0, "lat": 38.915612333333335, "bike_id": "0ebbf509e7cd018f57531736cedc9056", "fusion_lon": 0.0}, {"rental_uris": {"ios": "https://dc.lft.to/lastmile_qr_scan", "android": "https://dc.lft.to/lastmile_qr_scan"}, "type": "electric_scooter", "name": "add68b5383f74e48cd9f25ffebd004e3", "is_reserved": 0, "lon": -77.028366, "is_disabled": 0, "fusion_lat": 0.0, "lat": 38.88727266666667, "bike_id": "add68b5383f74e48cd9f25ffebd004e3", "fusion_lon": 0.0}, {"rental_uris": {"ios": "https://dc.lft.to/lastmile_qr_scan", "android": "https://dc.lft.to/lastmile_qr_scan"}, "type": "electric_scooter", "name": "e7568ed0e705eb8098c5f4a17d53b2aa", "is_reserved": 0, "lon": -77.01208233333334, "is_disabled": 0, "fusion_lat": 0.0, "lat": 38.901738, "bike_id": "e7568ed0e705eb8098c5f4a17d53b2aa", "fusion_lon": 0.0}, {"rental_uris": {"ios": "https://dc.lft.to/lastmile_qr_scan", "android": "https://dc.lft.to/lastmile_qr_scan"}, "type": "electric_scooter", "name": "3955545da24b09c5f087723aee584780", "is_reserved": 0, "lon": -77.019423, "is_disabled": 0, "fusion_lat": 0.0, "lat": 38.88376916666667, "bike_id": "3955545da24b09c5f087723aee584780", "fusion_lon": 0.0}, {"rental_uris": {"ios": "https://dc.lft.to/lastmile_qr_scan", "android": "https://dc.lft.to/lastmile_qr_scan"}, "type": "electric_scooter", "name": "0c5b346c42cda0dcc1da3c0cd4171767", "is_reserved": 0, "lon": -76.98907416666667, "is_disabled": 0, "fusion_lat": 0.0, "lat": 38.90008, "bike_id": "0c5b346c42cda0dcc1da3c0cd4171767", "fusion_lon": 0.0}, {"rental_uris": {"ios": "https://dc.lft.to/lastmile_qr_scan", "android": "https://dc.lft.to/lastmile_qr_scan"}, "type": "electric_scooter", "name": "d018b4a28b6cc9f3086570bea8a054bb", "is_reserved": 0, "lon": -76.98702366666667, "is_disabled": 0, "fusion_lat": 0.0, "lat": 38.85963983333333, "bike_id": "d018b4a28b6cc9f3086570bea8a054bb", "fusion_lon": 0.0}, {"rental_uris": {"ios": "https://dc.lft.to/lastmile_qr_scan", "android": "https://dc.lft.to/lastmile_qr_scan"}, "type": "electric_scooter", "name": "0f29d68e045c2acb00698aba1004d462", "is_reserved": 0, "lon": -77.0271445, "is_disabled": 0, "fusion_lat": 0.0, "lat": 38.91015733333333, "bike_id": "0f29d68e045c2acb00698aba1004d462", "fusion_lon": 0.0}, {"rental_uris": {"ios": "https://dc.lft.to/lastmile_qr_scan", "android": "https://dc.lft.to/lastmile_qr_scan"}, "type": "electric_scooter", "name": "a7d879baf85fcbe91bddf4f9f91ec542", "is_reserved": 0, "lon": -77.01424633333333, "is_disabled": 0, "fusion_lat": 0.0, "lat": 38.9203055, "bike_id": "a7d879baf85fcbe91bddf4f9f91ec542", "fusion_lon": 0.0}, {"rental_uris": {"ios": "https://dc.lft.to/lastmile_qr_scan", "android": "https://dc.lft.to/lastmile_qr_scan"}, "type": "electric_scooter", "name": "f16e2ab6e80d7ab6ed5b97cf19cf2d79", "is_reserved": 0, "lon": -76.97357233333334, "is_disabled": 0, "fusion_lat": 0.0, "lat": 38.850251666666665, "bike_id": "f16e2ab6e80d7ab6ed5b97cf19cf2d79", "fusion_lon": 0.0}, {"rental_uris": {"ios": "https://dc.lft.to/lastmile_qr_scan", "android": "https://dc.lft.to/lastmile_qr_scan"}, "type": "electric_scooter", "name": "935437e05ed6e7f1563447a6e2329588", "is_reserved": 0, "lon": -77.04461266666667, "is_disabled": 0, "fusion_lat": 0.0, "lat": 38.91115966666667, "bike_id": "935437e05ed6e7f1563447a6e2329588", "fusion_lon": 0.0}, {"rental_uris": {"ios": "https://dc.lft.to/lastmile_qr_scan", "android": "https://dc.lft.to/lastmile_qr_scan"}, "type": "electric_scooter", "name": "4e911d3b8f863533e3d4c69ab65530db", "is_reserved": 0, "lon": -77.02213516666667, "is_disabled": 0, "fusion_lat": 0.0, "lat": 38.88732666666667, "bike_id": "4e911d3b8f863533e3d4c69ab65530db", "fusion_lon": 0.0}, {"rental_uris": {"ios": "https://dc.lft.to/lastmile_qr_scan", "android": "https://dc.lft.to/lastmile_qr_scan"}, "type": "electric_bike", "name": "7a1ba1ab8fad1ff4d5eb4f9e62270774", "is_reserved": 0, "lon": -77.0795645, "is_disabled": 0, "fusion_lat": 0.0, "lat": 38.8490375, "bike_id": "7a1ba1ab8fad1ff4d5eb4f9e62270774", "fusion_lon": 0.0}, {"rental_uris": {"ios": "https://dc.lft.to/lastmile_qr_scan", "android": "https://dc.lft.to/lastmile_qr_scan"}, "type": "electric_scooter", "name": "e51b73e53f3f117ee9b7dee01a6463db", "is_reserved": 0, "lon": -77.03249816666667, "is_disabled": 0, "fusion_lat": 0.0, "lat": 38.911893, "bike_id": "e51b73e53f3f117ee9b7dee01a6463db", "fusion_lon": 0.0}, {"rental_uris": {"ios": "https://dc.lft.to/lastmile_qr_scan", "android": "https://dc.lft.to/lastmile_qr_scan"}, "type": "electric_scooter", "name": "ffe168c4a0fda6c84138286716864309", "is_reserved": 0, "lon": -77.02381733333333, "is_disabled": 0, "fusion_lat": 0.0, "lat": 38.91082183333333, "bike_id": "ffe168c4a0fda6c84138286716864309", "fusion_lon": 0.0}, {"rental_uris": {"ios": "https://dc.lft.to/lastmile_qr_scan", "android": "https://dc.lft.to/lastmile_qr_scan"}, "type": "electric_bike", "name": "706eaae9fd1cfad7cc32c167a7cd8d68", "is_reserved": 0, "lon": -77.02007333333333, "is_disabled": 0, "fusion_lat": 0.0, "lat": 38.96443033333333, "bike_id": "706eaae9fd1cfad7cc32c167a7cd8d68", "fusion_lon": 0.0}, {"rental_uris": {"ios": "https://dc.lft.to/lastmile_qr_scan", "android": "https://dc.lft.to/lastmile_qr_scan"}, "type": "electric_scooter", "name": "b06c325807a73d38dffde0aeac6f42b4", "is_reserved": 0, "lon": -77.02335216666667, "is_disabled": 0, "fusion_lat": 0.0, "lat": 38.923012666666665, "bike_id": "b06c325807a73d38dffde0aeac6f42b4", "fusion_lon": 0.0}, {"rental_uris": {"ios": "https://dc.lft.to/lastmile_qr_scan", "android": "https://dc.lft.to/lastmile_qr_scan"}, "type": "electric_scooter", "name": "59b3b510d1e65dc516797015219878bf", "is_reserved": 0, "lon": -76.9825875, "is_disabled": 0, "fusion_lat": 0.0, "lat": 38.866332166666666, "bike_id": "59b3b510d1e65dc516797015219878bf", "fusion_lon": 0.0}, {"rental_uris": {"ios": "https://dc.lft.to/lastmile_qr_scan", "android": "https://dc.lft.to/lastmile_qr_scan"}, "type": "electric_scooter", "name": "a1074c7835d89e45f0804f27a91532c9", "is_reserved": 0, "lon": -76.9835545, "is_disabled": 0, "fusion_lat": 0.0, "lat": 38.887426166666664, "bike_id": "a1074c7835d89e45f0804f27a91532c9", "fusion_lon": 0.0}, {"rental_uris": {"ios": "https://dc.lft.to/lastmile_qr_scan", "android": "https://dc.lft.to/lastmile_qr_scan"}, "type": "electric_scooter", "name": "d3ad99ec99c516b30ccaffad055c25f2", "is_reserved": 0, "lon": -77.052655, "is_disabled": 0, "fusion_lat": 0.0, "lat": 38.924212833333335, "bike_id": "d3ad99ec99c516b30ccaffad055c25f2", "fusion_lon": 0.0}, {"rental_uris": {"ios": "https://dc.lft.to/lastmile_qr_scan", "android": "https://dc.lft.to/lastmile_qr_scan"}, "type": "electric_scooter", "name": "498a8925a3c52e9b8f6506f4123c0a6a", "is_reserved": 0, "lon": -77.0009785, "is_disabled": 0, "fusion_lat": 0.0, "lat": 38.881250333333334, "bike_id": "498a8925a3c52e9b8f6506f4123c0a6a", "fusion_lon": 0.0}, {"rental_uris": {"ios": "https://dc.lft.to/lastmile_qr_scan", "android": "https://dc.lft.to/lastmile_qr_scan"}, "type": "electric_scooter", "name": "76fc3d84875d4c906efb1e65bfea9696", "is_reserved": 0, "lon": -77.053676, "is_disabled": 0, "fusion_lat": 0.0, "lat": 38.92791733333333, "bike_id": "76fc3d84875d4c906efb1e65bfea9696", "fusion_lon": 0.0}, {"rental_uris": {"ios": "https://dc.lft.to/lastmile_qr_scan", "android": "https://dc.lft.to/lastmile_qr_scan"}, "type": "electric_scooter", "name": "7c5a0ce645f93bc7cd437bdba294ac33", "is_reserved": 0, "lon": -77.02223466666666, "is_disabled": 0, "fusion_lat": 0.0, "lat": 38.914164166666666, "bike_id": "7c5a0ce645f93bc7cd437bdba294ac33", "fusion_lon": 0.0}, {"rental_uris": {"ios": "https://dc.lft.to/lastmile_qr_scan", "android": "https://dc.lft.to/lastmile_qr_scan"}, "type": "electric_bike", "name": "01f47d3b0a465a2d0ab47cc0fb5f0c1e", "is_reserved": 0, "lon": -76.92892583333334, "is_disabled": 0, "fusion_lat": 0.0, "lat": 38.978299, "bike_id": "01f47d3b0a465a2d0ab47cc0fb5f0c1e", "fusion_lon": 0.0}, {"rental_uris": {"ios": "https://dc.lft.to/lastmile_qr_scan", "android": "https://dc.lft.to/lastmile_qr_scan"}, "type": "electric_bike", "name": "269fb4c5d058d9632c8063fa46db6339", "is_reserved": 0, "lon": -76.9834695, "is_disabled": 0, "fusion_lat": 0.0, "lat": 38.8626, "bike_id": "269fb4c5d058d9632c8063fa46db6339", "fusion_lon": 0.0}, {"rental_uris": {"ios": "https://dc.lft.to/lastmile_qr_scan", "android": "https://dc.lft.to/lastmile_qr_scan"}, "type": "electric_scooter", "name": "247b10701cd98cdbe463e63a24290ec5", "is_reserved": 0, "lon": -77.027658, "is_disabled": 0, "fusion_lat": 0.0, "lat": 38.916983333333334, "bike_id": "247b10701cd98cdbe463e63a24290ec5", "fusion_lon": 0.0}, {"rental_uris": {"ios": "https://dc.lft.to/lastmile_qr_scan", "android": "https://dc.lft.to/lastmile_qr_scan"}, "type": "electric_scooter", "name": "00e26406f529fc049414dae534ad79a6", "is_reserved": 0, "lon": -77.03709016666667, "is_disabled": 0, "fusion_lat": 0.0, "lat": 38.918083, "bike_id": "00e26406f529fc049414dae534ad79a6", "fusion_lon": 0.0}, {"rental_uris": {"ios": "https://dc.lft.to/lastmile_qr_scan", "android": "https://dc.lft.to/lastmile_qr_scan"}, "type": "electric_scooter", "name": "bfa1385cccc5780c7cce2311e37bb44e", "is_reserved": 0, "lon": -77.044364, "is_disabled": 0, "fusion_lat": 0.0, "lat": 38.921297, "bike_id": "bfa1385cccc5780c7cce2311e37bb44e", "fusion_lon": 0.0}, {"rental_uris": {"ios": "https://dc.lft.to/lastmile_qr_scan", "android": "https://dc.lft.to/lastmile_qr_scan"}, "type": "electric_scooter", "name": "1bae333847a8f5b2ca0c8e0f6e6b6e5a", "is_reserved": 0, "lon": -77.01205316666666, "is_disabled": 0, "fusion_lat": 0.0, "lat": 38.87175533333333, "bike_id": "1bae333847a8f5b2ca0c8e0f6e6b6e5a", "fusion_lon": 0.0}, {"rental_uris": {"ios": "https://dc.lft.to/lastmile_qr_scan", "android": "https://dc.lft.to/lastmile_qr_scan"}, "type": "electric_scooter", "name": "0cd7bf4d26b0cac04962ed1477039987", "is_reserved": 0, "lon": -77.03867533333333, "is_disabled": 0, "fusion_lat": 0.0, "lat": 38.91116483333333, "bike_id": "0cd7bf4d26b0cac04962ed1477039987", "fusion_lon": 0.0}, {"rental_uris": {"ios": "https://dc.lft.to/lastmile_qr_scan", "android": "https://dc.lft.to/lastmile_qr_scan"}, "type": "electric_scooter", "name": "882ebc85c8dd33ad3b8cde2401ba21e5", "is_reserved": 0, "lon": -77.027167, "is_disabled": 0, "fusion_lat": 0.0, "lat": 38.91224583333333, "bike_id": "882ebc85c8dd33ad3b8cde2401ba21e5", "fusion_lon": 0.0}, {"rental_uris": {"ios": "https://dc.lft.to/lastmile_qr_scan", "android": "https://dc.lft.to/lastmile_qr_scan"}, "type": "electric_scooter", "name": "8c584040cd47b81920b0fa0da6cbe958", "is_reserved": 0, "lon": -77.00553116666667, "is_disabled": 0, "fusion_lat": 0.0, "lat": 38.9118855, "bike_id": "8c584040cd47b81920b0fa0da6cbe958", "fusion_lon": 0.0}, {"rental_uris": {"ios": "https://dc.lft.to/lastmile_qr_scan", "android": "https://dc.lft.to/lastmile_qr_scan"}, "type": "electric_bike", "name": "bec9fd832a65b919b79ec5a915a90b09", "is_reserved": 0, "lon": -77.020698, "is_disabled": 0, "fusion_lat": 0.0, "lat": 38.964440833333335, "bike_id": "bec9fd832a65b919b79ec5a915a90b09", "fusion_lon": 0.0}, {"rental_uris": {"ios": "https://dc.lft.to/lastmile_qr_scan", "android": "https://dc.lft.to/lastmile_qr_scan"}, "type": "electric_bike", "name": "e0e18a77c20d8d2863630a7548944bcd", "is_reserved": 0, "lon": -77.07656366666667, "is_disabled": 0, "fusion_lat": 0.0, "lat": 38.8098175, "bike_id": "e0e18a77c20d8d2863630a7548944bcd", "fusion_lon": 0.0}, {"rental_uris": {"ios": "https://dc.lft.to/lastmile_qr_scan", "android": "https://dc.lft.to/lastmile_qr_scan"}, "type": "electric_scooter", "name": "b4b67c49660a2edaa9cdc7554598dae2", "is_reserved": 0, "lon": -77.060305, "is_disabled": 0, "fusion_lat": 0.0, "lat": 38.9387985, "bike_id": "b4b67c49660a2edaa9cdc7554598dae2", "fusion_lon": 0.0}, {"rental_uris": {"ios": "https://dc.lft.to/lastmile_qr_scan", "android": "https://dc.lft.to/lastmile_qr_scan"}, "type": "electric_scooter", "name": "d3ef958de7fd0bfad650b034f661e856", "is_reserved": 0, "lon": -76.98539416666667, "is_disabled": 0, "fusion_lat": 0.0, "lat": 38.91454383333333, "bike_id": "d3ef958de7fd0bfad650b034f661e856", "fusion_lon": 0.0}, {"rental_uris": {"ios": "https://dc.lft.to/lastmile_qr_scan", "android": "https://dc.lft.to/lastmile_qr_scan"}, "type": "electric_scooter", "name": "b1da16136ecc1468c4820c2fed4ec445", "is_reserved": 0, "lon": -76.99152616666667, "is_disabled": 0, "fusion_lat": 0.0, "lat": 38.90039133333333, "bike_id": "b1da16136ecc1468c4820c2fed4ec445", "fusion_lon": 0.0}, {"rental_uris": {"ios": "https://dc.lft.to/lastmile_qr_scan", "android": "https://dc.lft.to/lastmile_qr_scan"}, "type": "electric_scooter", "name": "9e2d5d682ea98880bf143ec92ea04562", "is_reserved": 0, "lon": -76.999597, "is_disabled": 0, "fusion_lat": 0.0, "lat": 38.90850283333333, "bike_id": "9e2d5d682ea98880bf143ec92ea04562", "fusion_lon": 0.0}, {"rental_uris": {"ios": "https://dc.lft.to/lastmile_qr_scan", "android": "https://dc.lft.to/lastmile_qr_scan"}, "type": "electric_scooter", "name": "fa5ddc0e1617f7ab09c0278e3df587b7", "is_reserved": 0, "lon": -77.03623483333334, "is_disabled": 0, "fusion_lat": 0.0, "lat": 38.942862166666664, "bike_id": "fa5ddc0e1617f7ab09c0278e3df587b7", "fusion_lon": 0.0}, {"rental_uris": {"ios": "https://dc.lft.to/lastmile_qr_scan", "android": "https://dc.lft.to/lastmile_qr_scan"}, "type": "electric_scooter", "name": "a7ea3ca6ab482b3671c119a1889df062", "is_reserved": 0, "lon": -77.02531366666666, "is_disabled": 0, "fusion_lat": 0.0, "lat": 38.918179, "bike_id": "a7ea3ca6ab482b3671c119a1889df062", "fusion_lon": 0.0}, {"rental_uris": {"ios": "https://dc.lft.to/lastmile_qr_scan", "android": "https://dc.lft.to/lastmile_qr_scan"}, "type": "electric_scooter", "name": "2f1ec94acdb6152f8a7007496ef421b2", "is_reserved": 0, "lon": -77.02103633333333, "is_disabled": 0, "fusion_lat": 0.0, "lat": 38.966752166666666, "bike_id": "2f1ec94acdb6152f8a7007496ef421b2", "fusion_lon": 0.0}, {"rental_uris": {"ios": "https://dc.lft.to/lastmile_qr_scan", "android": "https://dc.lft.to/lastmile_qr_scan"}, "type": "electric_bike", "name": "0bd8f69e37d15f258b792b1453864738", "is_reserved": 0, "lon": -77.01923, "is_disabled": 0, "fusion_lat": 0.0, "lat": 38.976772, "bike_id": "0bd8f69e37d15f258b792b1453864738", "fusion_lon": 0.0}, {"rental_uris": {"ios": "https://dc.lft.to/lastmile_qr_scan", "android": "https://dc.lft.to/lastmile_qr_scan"}, "type": "electric_scooter", "name": "1bc20c6e04556b5825569de75965bc81", "is_reserved": 0, "lon": -76.9903315, "is_disabled": 0, "fusion_lat": 0.0, "lat": 38.8888105, "bike_id": "1bc20c6e04556b5825569de75965bc81", "fusion_lon": 0.0}, {"rental_uris": {"ios": "https://dc.lft.to/lastmile_qr_scan", "android": "https://dc.lft.to/lastmile_qr_scan"}, "type": "electric_scooter", "name": "2f3b17d9d849c8fc2b78a62e0bbfca60", "is_reserved": 0, "lon": -77.02381283333334, "is_disabled": 0, "fusion_lat": 0.0, "lat": 38.90590616666667, "bike_id": "2f3b17d9d849c8fc2b78a62e0bbfca60", "fusion_lon": 0.0}, {"rental_uris": {"ios": "https://dc.lft.to/lastmile_qr_scan", "android": "https://dc.lft.to/lastmile_qr_scan"}, "type": "electric_scooter", "name": "de4b3df28a4a29352023676d2a061bfb", "is_reserved": 0, "lon": -77.043796, "is_disabled": 0, "fusion_lat": 0.0, "lat": 38.9165365, "bike_id": "de4b3df28a4a29352023676d2a061bfb", "fusion_lon": 0.0}, {"rental_uris": {"ios": "https://dc.lft.to/lastmile_qr_scan", "android": "https://dc.lft.to/lastmile_qr_scan"}, "type": "electric_scooter", "name": "b94b2d44586a417f70698a00d8b709cc", "is_reserved": 0, "lon": -77.03575516666666, "is_disabled": 0, "fusion_lat": 0.0, "lat": 38.88180466666667, "bike_id": "b94b2d44586a417f70698a00d8b709cc", "fusion_lon": 0.0}, {"rental_uris": {"ios": "https://dc.lft.to/lastmile_qr_scan", "android": "https://dc.lft.to/lastmile_qr_scan"}, "type": "electric_scooter", "name": "60a4d71738e01530132ec44ef7230488", "is_reserved": 0, "lon": -77.05336233333334, "is_disabled": 0, "fusion_lat": 0.0, "lat": 38.90420866666667, "bike_id": "60a4d71738e01530132ec44ef7230488", "fusion_lon": 0.0}, {"rental_uris": {"ios": "https://dc.lft.to/lastmile_qr_scan", "android": "https://dc.lft.to/lastmile_qr_scan"}, "type": "electric_scooter", "name": "21ce7061339d173a6305bf9d51d19143", "is_reserved": 0, "lon": -77.00041333333333, "is_disabled": 0, "fusion_lat": 0.0, "lat": 38.87410416666667, "bike_id": "21ce7061339d173a6305bf9d51d19143", "fusion_lon": 0.0}, {"rental_uris": {"ios": "https://dc.lft.to/lastmile_qr_scan", "android": "https://dc.lft.to/lastmile_qr_scan"}, "type": "electric_bike", "name": "0502719b6aa17979b2054d35e4183a66", "is_reserved": 0, "lon": -76.94976183333333, "is_disabled": 0, "fusion_lat": 0.0, "lat": 38.88300816666667, "bike_id": "0502719b6aa17979b2054d35e4183a66", "fusion_lon": 0.0}, {"rental_uris": {"ios": "https://dc.lft.to/lastmile_qr_scan", "android": "https://dc.lft.to/lastmile_qr_scan"}, "type": "electric_scooter", "name": "fc6530755affe0010c77ffd259ad8551", "is_reserved": 0, "lon": -77.02078583333333, "is_disabled": 0, "fusion_lat": 0.0, "lat": 38.927007, "bike_id": "fc6530755affe0010c77ffd259ad8551", "fusion_lon": 0.0}, {"rental_uris": {"ios": "https://dc.lft.to/lastmile_qr_scan", "android": "https://dc.lft.to/lastmile_qr_scan"}, "type": "electric_scooter", "name": "bb15c4e09086a508e230bad86110e5ff", "is_reserved": 0, "lon": -77.04245116666667, "is_disabled": 0, "fusion_lat": 0.0, "lat": 38.92243466666667, "bike_id": "bb15c4e09086a508e230bad86110e5ff", "fusion_lon": 0.0}, {"rental_uris": {"ios": "https://dc.lft.to/lastmile_qr_scan", "android": "https://dc.lft.to/lastmile_qr_scan"}, "type": "electric_scooter", "name": "182fe2a61eeae6d0666840f0b8e0411d", "is_reserved": 0, "lon": -77.03220683333333, "is_disabled": 0, "fusion_lat": 0.0, "lat": 38.91849283333333, "bike_id": "182fe2a61eeae6d0666840f0b8e0411d", "fusion_lon": 0.0}, {"rental_uris": {"ios": "https://dc.lft.to/lastmile_qr_scan", "android": "https://dc.lft.to/lastmile_qr_scan"}, "type": "electric_scooter", "name": "61d6a3986aabcf53025f008b2d060c64", "is_reserved": 0, "lon": -76.97935566666666, "is_disabled": 0, "fusion_lat": 0.0, "lat": 38.90663, "bike_id": "61d6a3986aabcf53025f008b2d060c64", "fusion_lon": 0.0}, {"rental_uris": {"ios": "https://dc.lft.to/lastmile_qr_scan", "android": "https://dc.lft.to/lastmile_qr_scan"}, "type": "electric_scooter", "name": "6d0e4ef7c325bb9f22e5b7fcae1a51a9", "is_reserved": 0, "lon": -76.94654083333333, "is_disabled": 0, "fusion_lat": 0.0, "lat": 38.89829866666667, "bike_id": "6d0e4ef7c325bb9f22e5b7fcae1a51a9", "fusion_lon": 0.0}, {"rental_uris": {"ios": "https://dc.lft.to/lastmile_qr_scan", "android": "https://dc.lft.to/lastmile_qr_scan"}, "type": "electric_bike", "name": "2a6e5ec4d157a9caa3e1221cdb26ba38", "is_reserved": 0, "lon": -76.969164, "is_disabled": 0, "fusion_lat": 0.0, "lat": 38.846183833333335, "bike_id": "2a6e5ec4d157a9caa3e1221cdb26ba38", "fusion_lon": 0.0}, {"rental_uris": {"ios": "https://dc.lft.to/lastmile_qr_scan", "android": "https://dc.lft.to/lastmile_qr_scan"}, "type": "electric_scooter", "name": "7d9d57d113682516ab0c6eb763bc09af", "is_reserved": 0, "lon": -77.03510716666666, "is_disabled": 0, "fusion_lat": 0.0, "lat": 38.909700666666666, "bike_id": "7d9d57d113682516ab0c6eb763bc09af", "fusion_lon": 0.0}, {"rental_uris": {"ios": "https://dc.lft.to/lastmile_qr_scan", "android": "https://dc.lft.to/lastmile_qr_scan"}, "type": "electric_scooter", "name": "abc247d45a3f7350fc629744c73f28c3", "is_reserved": 0, "lon": -76.99640783333334, "is_disabled": 0, "fusion_lat": 0.0, "lat": 38.887681, "bike_id": "abc247d45a3f7350fc629744c73f28c3", "fusion_lon": 0.0}, {"rental_uris": {"ios": "https://dc.lft.to/lastmile_qr_scan", "android": "https://dc.lft.to/lastmile_qr_scan"}, "type": "electric_scooter", "name": "eba1973fa2bc8c6bd057fffe51984a1e", "is_reserved": 0, "lon": -77.009018, "is_disabled": 0, "fusion_lat": 0.0, "lat": 38.89879083333334, "bike_id": "eba1973fa2bc8c6bd057fffe51984a1e", "fusion_lon": 0.0}, {"rental_uris": {"ios": "https://dc.lft.to/lastmile_qr_scan", "android": "https://dc.lft.to/lastmile_qr_scan"}, "type": "electric_scooter", "name": "903aea15b7fb868ee8e49b6e4615968b", "is_reserved": 0, "lon": -77.0439785, "is_disabled": 0, "fusion_lat": 0.0, "lat": 38.9111635, "bike_id": "903aea15b7fb868ee8e49b6e4615968b", "fusion_lon": 0.0}, {"rental_uris": {"ios": "https://dc.lft.to/lastmile_qr_scan", "android": "https://dc.lft.to/lastmile_qr_scan"}, "type": "electric_scooter", "name": "c85ce55733834ff0580642a2d9e2a50a", "is_reserved": 0, "lon": -77.01661916666667, "is_disabled": 0, "fusion_lat": 0.0, "lat": 38.9390785, "bike_id": "c85ce55733834ff0580642a2d9e2a50a", "fusion_lon": 0.0}, {"rental_uris": {"ios": "https://dc.lft.to/lastmile_qr_scan", "android": "https://dc.lft.to/lastmile_qr_scan"}, "type": "electric_scooter", "name": "9a008b8ac66a0801dd1ec4fa08aa39a9", "is_reserved": 0, "lon": -77.05693266666667, "is_disabled": 0, "fusion_lat": 0.0, "lat": 38.904835166666665, "bike_id": "9a008b8ac66a0801dd1ec4fa08aa39a9", "fusion_lon": 0.0}, {"rental_uris": {"ios": "https://dc.lft.to/lastmile_qr_scan", "android": "https://dc.lft.to/lastmile_qr_scan"}, "type": "electric_scooter", "name": "8ea317a4574bbb43b98edefdede18df0", "is_reserved": 0, "lon": -77.02436616666667, "is_disabled": 0, "fusion_lat": 0.0, "lat": 38.902138, "bike_id": "8ea317a4574bbb43b98edefdede18df0", "fusion_lon": 0.0}, {"rental_uris": {"ios": "https://dc.lft.to/lastmile_qr_scan", "android": "https://dc.lft.to/lastmile_qr_scan"}, "type": "electric_scooter", "name": "673c09a033b6163be3ae1de47200ec60", "is_reserved": 0, "lon": -77.05789683333333, "is_disabled": 0, "fusion_lat": 0.0, "lat": 38.905151000000004, "bike_id": "673c09a033b6163be3ae1de47200ec60", "fusion_lon": 0.0}, {"rental_uris": {"ios": "https://dc.lft.to/lastmile_qr_scan", "android": "https://dc.lft.to/lastmile_qr_scan"}, "type": "electric_scooter", "name": "de282ccb41b3bb3541942b7a010652bb", "is_reserved": 0, "lon": -77.02811383333334, "is_disabled": 0, "fusion_lat": 0.0, "lat": 38.923712333333334, "bike_id": "de282ccb41b3bb3541942b7a010652bb", "fusion_lon": 0.0}, {"rental_uris": {"ios": "https://dc.lft.to/lastmile_qr_scan", "android": "https://dc.lft.to/lastmile_qr_scan"}, "type": "electric_scooter", "name": "e96d409eeb6809ee8f4493e61c872934", "is_reserved": 0, "lon": -77.03446616666666, "is_disabled": 0, "fusion_lat": 0.0, "lat": 38.908119666666664, "bike_id": "e96d409eeb6809ee8f4493e61c872934", "fusion_lon": 0.0}, {"rental_uris": {"ios": "https://dc.lft.to/lastmile_qr_scan", "android": "https://dc.lft.to/lastmile_qr_scan"}, "type": "electric_scooter", "name": "5197ea8b4359bba17909ec2f38cb769f", "is_reserved": 0, "lon": -77.04132716666666, "is_disabled": 0, "fusion_lat": 0.0, "lat": 38.90631783333333, "bike_id": "5197ea8b4359bba17909ec2f38cb769f", "fusion_lon": 0.0}, {"rental_uris": {"ios": "https://dc.lft.to/lastmile_qr_scan", "android": "https://dc.lft.to/lastmile_qr_scan"}, "type": "electric_scooter", "name": "af8e38764c187fa52966eb23c9fb421b", "is_reserved": 0, "lon": -77.02613866666667, "is_disabled": 0, "fusion_lat": 0.0, "lat": 38.883933, "bike_id": "af8e38764c187fa52966eb23c9fb421b", "fusion_lon": 0.0}, {"rental_uris": {"ios": "https://dc.lft.to/lastmile_qr_scan", "android": "https://dc.lft.to/lastmile_qr_scan"}, "type": "electric_bike", "name": "9310736b435c9dbf4dfe834ca2b62440", "is_reserved": 0, "lon": -77.03645533333334, "is_disabled": 0, "fusion_lat": 0.0, "lat": 38.991434, "bike_id": "9310736b435c9dbf4dfe834ca2b62440", "fusion_lon": 0.0}, {"rental_uris": {"ios": "https://dc.lft.to/lastmile_qr_scan", "android": "https://dc.lft.to/lastmile_qr_scan"}, "type": "electric_bike", "name": "15c3f4c20710ade2b2d87b3588f540d9", "is_reserved": 0, "lon": -77.02802833333334, "is_disabled": 0, "fusion_lat": 0.0, "lat": 38.911029, "bike_id": "15c3f4c20710ade2b2d87b3588f540d9", "fusion_lon": 0.0}, {"rental_uris": {"ios": "https://dc.lft.to/lastmile_qr_scan", "android": "https://dc.lft.to/lastmile_qr_scan"}, "type": "electric_scooter", "name": "f9bd4e769a690ac536d5736a7b3e9ac0", "is_reserved": 0, "lon": -77.0450445, "is_disabled": 0, "fusion_lat": 0.0, "lat": 38.8973125, "bike_id": "f9bd4e769a690ac536d5736a7b3e9ac0", "fusion_lon": 0.0}, {"rental_uris": {"ios": "https://dc.lft.to/lastmile_qr_scan", "android": "https://dc.lft.to/lastmile_qr_scan"}, "type": "electric_scooter", "name": "473bd8a99995f69e501ba942b324c766", "is_reserved": 0, "lon": -77.05910383333334, "is_disabled": 0, "fusion_lat": 0.0, "lat": 38.90220016666667, "bike_id": "473bd8a99995f69e501ba942b324c766", "fusion_lon": 0.0}, {"rental_uris": {"ios": "https://dc.lft.to/lastmile_qr_scan", "android": "https://dc.lft.to/lastmile_qr_scan"}, "type": "electric_scooter", "name": "c603de343caef5dcc5ca6175c1bfff26", "is_reserved": 0, "lon": -77.02317933333333, "is_disabled": 0, "fusion_lat": 0.0, "lat": 38.917870666666666, "bike_id": "c603de343caef5dcc5ca6175c1bfff26", "fusion_lon": 0.0}, {"rental_uris": {"ios": "https://dc.lft.to/lastmile_qr_scan", "android": "https://dc.lft.to/lastmile_qr_scan"}, "type": "electric_scooter", "name": "9caa7b4576cfd5d4698d91ac542949d4", "is_reserved": 0, "lon": -77.0259015, "is_disabled": 0, "fusion_lat": 0.0, "lat": 38.9145725, "bike_id": "9caa7b4576cfd5d4698d91ac542949d4", "fusion_lon": 0.0}, {"rental_uris": {"ios": "https://dc.lft.to/lastmile_qr_scan", "android": "https://dc.lft.to/lastmile_qr_scan"}, "type": "electric_scooter", "name": "c3310b7b152c34eabaf7608a43e60b42", "is_reserved": 0, "lon": -77.03518666666666, "is_disabled": 0, "fusion_lat": 0.0, "lat": 38.909665833333335, "bike_id": "c3310b7b152c34eabaf7608a43e60b42", "fusion_lon": 0.0}, {"rental_uris": {"ios": "https://dc.lft.to/lastmile_qr_scan", "android": "https://dc.lft.to/lastmile_qr_scan"}, "type": "electric_scooter", "name": "d5255ba494afd34a6980bd241c3e43c0", "is_reserved": 0, "lon": -77.035797, "is_disabled": 0, "fusion_lat": 0.0, "lat": 38.910432166666666, "bike_id": "d5255ba494afd34a6980bd241c3e43c0", "fusion_lon": 0.0}, {"rental_uris": {"ios": "https://dc.lft.to/lastmile_qr_scan", "android": "https://dc.lft.to/lastmile_qr_scan"}, "type": "electric_scooter", "name": "301ad14cbbba16375bef6677769fffba", "is_reserved": 0, "lon": -77.00510383333334, "is_disabled": 0, "fusion_lat": 0.0, "lat": 38.9604785, "bike_id": "301ad14cbbba16375bef6677769fffba", "fusion_lon": 0.0}, {"rental_uris": {"ios": "https://dc.lft.to/lastmile_qr_scan", "android": "https://dc.lft.to/lastmile_qr_scan"}, "type": "electric_scooter", "name": "78bcba60aa0e14ea1a93f02b99e3ae0e", "is_reserved": 0, "lon": -76.99939133333334, "is_disabled": 0, "fusion_lat": 0.0, "lat": 38.89165716666667, "bike_id": "78bcba60aa0e14ea1a93f02b99e3ae0e", "fusion_lon": 0.0}, {"rental_uris": {"ios": "https://dc.lft.to/lastmile_qr_scan", "android": "https://dc.lft.to/lastmile_qr_scan"}, "type": "electric_scooter", "name": "ac18ffcf4ed0d260f3b097514196bed4", "is_reserved": 0, "lon": -77.02978983333334, "is_disabled": 0, "fusion_lat": 0.0, "lat": 38.90736883333334, "bike_id": "ac18ffcf4ed0d260f3b097514196bed4", "fusion_lon": 0.0}, {"rental_uris": {"ios": "https://dc.lft.to/lastmile_qr_scan", "android": "https://dc.lft.to/lastmile_qr_scan"}, "type": "electric_scooter", "name": "e433d4325bea2df79c3681e95c3a47e9", "is_reserved": 0, "lon": -77.0135355, "is_disabled": 0, "fusion_lat": 0.0, "lat": 38.89597916666666, "bike_id": "e433d4325bea2df79c3681e95c3a47e9", "fusion_lon": 0.0}, {"rental_uris": {"ios": "https://dc.lft.to/lastmile_qr_scan", "android": "https://dc.lft.to/lastmile_qr_scan"}, "type": "electric_scooter", "name": "28a041d84c169861aa0c60f31990e2ef", "is_reserved": 0, "lon": -77.01753933333333, "is_disabled": 0, "fusion_lat": 0.0, "lat": 38.902605, "bike_id": "28a041d84c169861aa0c60f31990e2ef", "fusion_lon": 0.0}, {"rental_uris": {"ios": "https://dc.lft.to/lastmile_qr_scan", "android": "https://dc.lft.to/lastmile_qr_scan"}, "type": "electric_bike", "name": "4c640fe6bb51b673567ab666d4e179cc", "is_reserved": 0, "lon": -77.09818066666666, "is_disabled": 0, "fusion_lat": 0.0, "lat": 38.85023733333333, "bike_id": "4c640fe6bb51b673567ab666d4e179cc", "fusion_lon": 0.0}, {"rental_uris": {"ios": "https://dc.lft.to/lastmile_qr_scan", "android": "https://dc.lft.to/lastmile_qr_scan"}, "type": "electric_scooter", "name": "448129636c9ae4146c28515b27bdc417", "is_reserved": 0, "lon": -77.03300316666666, "is_disabled": 0, "fusion_lat": 0.0, "lat": 38.9097705, "bike_id": "448129636c9ae4146c28515b27bdc417", "fusion_lon": 0.0}, {"rental_uris": {"ios": "https://dc.lft.to/lastmile_qr_scan", "android": "https://dc.lft.to/lastmile_qr_scan"}, "type": "electric_scooter", "name": "8cd45d8dff0323ae59be54f722cf0572", "is_reserved": 0, "lon": -77.04403266666667, "is_disabled": 0, "fusion_lat": 0.0, "lat": 38.929516666666665, "bike_id": "8cd45d8dff0323ae59be54f722cf0572", "fusion_lon": 0.0}, {"rental_uris": {"ios": "https://dc.lft.to/lastmile_qr_scan", "android": "https://dc.lft.to/lastmile_qr_scan"}, "type": "electric_scooter", "name": "2478bbf453c726ef9d27be2b94212c3f", "is_reserved": 0, "lon": -77.042584, "is_disabled": 0, "fusion_lat": 0.0, "lat": 38.90422916666667, "bike_id": "2478bbf453c726ef9d27be2b94212c3f", "fusion_lon": 0.0}, {"rental_uris": {"ios": "https://dc.lft.to/lastmile_qr_scan", "android": "https://dc.lft.to/lastmile_qr_scan"}, "type": "electric_scooter", "name": "4578a32eccdca3441e088fdef4f597ea", "is_reserved": 0, "lon": -76.931911, "is_disabled": 0, "fusion_lat": 0.0, "lat": 38.898777, "bike_id": "4578a32eccdca3441e088fdef4f597ea", "fusion_lon": 0.0}, {"rental_uris": {"ios": "https://dc.lft.to/lastmile_qr_scan", "android": "https://dc.lft.to/lastmile_qr_scan"}, "type": "electric_scooter", "name": "14ef1ad9e6d7486530caa6694d46bc58", "is_reserved": 0, "lon": -76.994186, "is_disabled": 0, "fusion_lat": 0.0, "lat": 38.9169035, "bike_id": "14ef1ad9e6d7486530caa6694d46bc58", "fusion_lon": 0.0}, {"rental_uris": {"ios": "https://dc.lft.to/lastmile_qr_scan", "android": "https://dc.lft.to/lastmile_qr_scan"}, "type": "electric_scooter", "name": "c8257e1c3901b937baef1e2270209767", "is_reserved": 0, "lon": -77.047335, "is_disabled": 0, "fusion_lat": 0.0, "lat": 38.89553883333333, "bike_id": "c8257e1c3901b937baef1e2270209767", "fusion_lon": 0.0}, {"rental_uris": {"ios": "https://dc.lft.to/lastmile_qr_scan", "android": "https://dc.lft.to/lastmile_qr_scan"}, "type": "electric_scooter", "name": "3aef3b12f49089f53e089a9c1e6f73d7", "is_reserved": 0, "lon": -77.03826483333333, "is_disabled": 0, "fusion_lat": 0.0, "lat": 38.962650833333335, "bike_id": "3aef3b12f49089f53e089a9c1e6f73d7", "fusion_lon": 0.0}, {"rental_uris": {"ios": "https://dc.lft.to/lastmile_qr_scan", "android": "https://dc.lft.to/lastmile_qr_scan"}, "type": "electric_scooter", "name": "6fc5177ccc43a798db302b0e70325af7", "is_reserved": 0, "lon": -77.03175483333334, "is_disabled": 0, "fusion_lat": 0.0, "lat": 38.91554266666667, "bike_id": "6fc5177ccc43a798db302b0e70325af7", "fusion_lon": 0.0}, {"rental_uris": {"ios": "https://dc.lft.to/lastmile_qr_scan", "android": "https://dc.lft.to/lastmile_qr_scan"}, "type": "electric_scooter", "name": "647db57c8f891fc589b1678ca618edcc", "is_reserved": 0, "lon": -77.02694816666667, "is_disabled": 0, "fusion_lat": 0.0, "lat": 38.908426166666665, "bike_id": "647db57c8f891fc589b1678ca618edcc", "fusion_lon": 0.0}, {"rental_uris": {"ios": "https://dc.lft.to/lastmile_qr_scan", "android": "https://dc.lft.to/lastmile_qr_scan"}, "type": "electric_scooter", "name": "e41e97757ae07a9aa6843f50b269cb7c", "is_reserved": 0, "lon": -77.02477633333334, "is_disabled": 0, "fusion_lat": 0.0, "lat": 38.918162, "bike_id": "e41e97757ae07a9aa6843f50b269cb7c", "fusion_lon": 0.0}, {"rental_uris": {"ios": "https://dc.lft.to/lastmile_qr_scan", "android": "https://dc.lft.to/lastmile_qr_scan"}, "type": "electric_scooter", "name": "eabefb11309b41acd88de1df04c7b214", "is_reserved": 0, "lon": -76.99211933333333, "is_disabled": 0, "fusion_lat": 0.0, "lat": 38.88967316666667, "bike_id": "eabefb11309b41acd88de1df04c7b214", "fusion_lon": 0.0}, {"rental_uris": {"ios": "https://dc.lft.to/lastmile_qr_scan", "android": "https://dc.lft.to/lastmile_qr_scan"}, "type": "electric_scooter", "name": "83a665121482ef62d61c68be423a8f8e", "is_reserved": 0, "lon": -76.994784, "is_disabled": 0, "fusion_lat": 0.0, "lat": 38.862131166666664, "bike_id": "83a665121482ef62d61c68be423a8f8e", "fusion_lon": 0.0}, {"rental_uris": {"ios": "https://dc.lft.to/lastmile_qr_scan", "android": "https://dc.lft.to/lastmile_qr_scan"}, "type": "electric_scooter", "name": "1edb93ca65dddf8d246c5b01d0eb827a", "is_reserved": 0, "lon": -77.03067116666666, "is_disabled": 0, "fusion_lat": 0.0, "lat": 38.908333666666664, "bike_id": "1edb93ca65dddf8d246c5b01d0eb827a", "fusion_lon": 0.0}, {"rental_uris": {"ios": "https://dc.lft.to/lastmile_qr_scan", "android": "https://dc.lft.to/lastmile_qr_scan"}, "type": "electric_scooter", "name": "46b981066e0ff4bc7ee11b8cbb7e3754", "is_reserved": 0, "lon": -77.00553883333333, "is_disabled": 0, "fusion_lat": 0.0, "lat": 38.875321, "bike_id": "46b981066e0ff4bc7ee11b8cbb7e3754", "fusion_lon": 0.0}, {"rental_uris": {"ios": "https://dc.lft.to/lastmile_qr_scan", "android": "https://dc.lft.to/lastmile_qr_scan"}, "type": "electric_scooter", "name": "e97bea69d06b4ec9cbbf6f3f04d1ef2e", "is_reserved": 0, "lon": -77.06148583333334, "is_disabled": 0, "fusion_lat": 0.0, "lat": 38.91297183333333, "bike_id": "e97bea69d06b4ec9cbbf6f3f04d1ef2e", "fusion_lon": 0.0}, {"rental_uris": {"ios": "https://dc.lft.to/lastmile_qr_scan", "android": "https://dc.lft.to/lastmile_qr_scan"}, "type": "electric_bike", "name": "ebb6b16364bd69370a2f3dabe86971b2", "is_reserved": 0, "lon": -76.90730266666667, "is_disabled": 0, "fusion_lat": 0.0, "lat": 38.8961675, "bike_id": "ebb6b16364bd69370a2f3dabe86971b2", "fusion_lon": 0.0}, {"rental_uris": {"ios": "https://dc.lft.to/lastmile_qr_scan", "android": "https://dc.lft.to/lastmile_qr_scan"}, "type": "electric_scooter", "name": "5a6de9d5241d6ea34a3d9d3d0dc8f50b", "is_reserved": 0, "lon": -77.05622016666666, "is_disabled": 0, "fusion_lat": 0.0, "lat": 38.906895166666665, "bike_id": "5a6de9d5241d6ea34a3d9d3d0dc8f50b", "fusion_lon": 0.0}, {"rental_uris": {"ios": "https://dc.lft.to/lastmile_qr_scan", "android": "https://dc.lft.to/lastmile_qr_scan"}, "type": "electric_scooter", "name": "ad065543fe36ffdde35d50cc06b3e456", "is_reserved": 0, "lon": -77.00818783333334, "is_disabled": 0, "fusion_lat": 0.0, "lat": 38.9137545, "bike_id": "ad065543fe36ffdde35d50cc06b3e456", "fusion_lon": 0.0}, {"rental_uris": {"ios": "https://dc.lft.to/lastmile_qr_scan", "android": "https://dc.lft.to/lastmile_qr_scan"}, "type": "electric_scooter", "name": "fc4aff7fcb8c028ea8ba5a405c37f52a", "is_reserved": 0, "lon": -76.9923025, "is_disabled": 0, "fusion_lat": 0.0, "lat": 38.887543, "bike_id": "fc4aff7fcb8c028ea8ba5a405c37f52a", "fusion_lon": 0.0}, {"rental_uris": {"ios": "https://dc.lft.to/lastmile_qr_scan", "android": "https://dc.lft.to/lastmile_qr_scan"}, "type": "electric_scooter", "name": "d1d88858853606148ea672fadf968357", "is_reserved": 0, "lon": -77.04004216666667, "is_disabled": 0, "fusion_lat": 0.0, "lat": 38.90416833333333, "bike_id": "d1d88858853606148ea672fadf968357", "fusion_lon": 0.0}, {"rental_uris": {"ios": "https://dc.lft.to/lastmile_qr_scan", "android": "https://dc.lft.to/lastmile_qr_scan"}, "type": "electric_scooter", "name": "d0ba83a68248603269417e279a5295ba", "is_reserved": 0, "lon": -76.96548133333333, "is_disabled": 0, "fusion_lat": 0.0, "lat": 38.918544, "bike_id": "d0ba83a68248603269417e279a5295ba", "fusion_lon": 0.0}, {"rental_uris": {"ios": "https://dc.lft.to/lastmile_qr_scan", "android": "https://dc.lft.to/lastmile_qr_scan"}, "type": "electric_scooter", "name": "b0344271ae7cda924ddd6fe0827eedb4", "is_reserved": 0, "lon": -77.01223333333333, "is_disabled": 0, "fusion_lat": 0.0, "lat": 38.867206333333336, "bike_id": "b0344271ae7cda924ddd6fe0827eedb4", "fusion_lon": 0.0}, {"rental_uris": {"ios": "https://dc.lft.to/lastmile_qr_scan", "android": "https://dc.lft.to/lastmile_qr_scan"}, "type": "electric_scooter", "name": "708a5da0a1931040b422638d0135b8a4", "is_reserved": 0, "lon": -77.03095683333333, "is_disabled": 0, "fusion_lat": 0.0, "lat": 38.910902, "bike_id": "708a5da0a1931040b422638d0135b8a4", "fusion_lon": 0.0}, {"rental_uris": {"ios": "https://dc.lft.to/lastmile_qr_scan", "android": "https://dc.lft.to/lastmile_qr_scan"}, "type": "electric_scooter", "name": "288ac638d7d8afbe9533e2b0fc64c2a5", "is_reserved": 0, "lon": -77.0643165, "is_disabled": 0, "fusion_lat": 0.0, "lat": 38.909157666666665, "bike_id": "288ac638d7d8afbe9533e2b0fc64c2a5", "fusion_lon": 0.0}, {"rental_uris": {"ios": "https://dc.lft.to/lastmile_qr_scan", "android": "https://dc.lft.to/lastmile_qr_scan"}, "type": "electric_scooter", "name": "47969483bf7f40fbfb8b3ae56c39bcca", "is_reserved": 0, "lon": -77.04172966666667, "is_disabled": 0, "fusion_lat": 0.0, "lat": 38.91126783333333, "bike_id": "47969483bf7f40fbfb8b3ae56c39bcca", "fusion_lon": 0.0}, {"rental_uris": {"ios": "https://dc.lft.to/lastmile_qr_scan", "android": "https://dc.lft.to/lastmile_qr_scan"}, "type": "electric_scooter", "name": "79c8088e51475be6cf886551745f600a", "is_reserved": 0, "lon": -77.0476455, "is_disabled": 0, "fusion_lat": 0.0, "lat": 38.9409545, "bike_id": "79c8088e51475be6cf886551745f600a", "fusion_lon": 0.0}, {"rental_uris": {"ios": "https://dc.lft.to/lastmile_qr_scan", "android": "https://dc.lft.to/lastmile_qr_scan"}, "type": "electric_scooter", "name": "215a7c9661bf42d0ecc613bb13da0f4b", "is_reserved": 0, "lon": -77.02801966666667, "is_disabled": 0, "fusion_lat": 0.0, "lat": 38.90737516666667, "bike_id": "215a7c9661bf42d0ecc613bb13da0f4b", "fusion_lon": 0.0}, {"rental_uris": {"ios": "https://dc.lft.to/lastmile_qr_scan", "android": "https://dc.lft.to/lastmile_qr_scan"}, "type": "electric_scooter", "name": "e19111bcb05d8a85f61043f7fc8a209c", "is_reserved": 0, "lon": -76.98582916666666, "is_disabled": 0, "fusion_lat": 0.0, "lat": 38.8618615, "bike_id": "e19111bcb05d8a85f61043f7fc8a209c", "fusion_lon": 0.0}, {"rental_uris": {"ios": "https://dc.lft.to/lastmile_qr_scan", "android": "https://dc.lft.to/lastmile_qr_scan"}, "type": "electric_scooter", "name": "1b4eb8007956e014f7a87fc8458696f2", "is_reserved": 0, "lon": -77.02427566666667, "is_disabled": 0, "fusion_lat": 0.0, "lat": 38.9031095, "bike_id": "1b4eb8007956e014f7a87fc8458696f2", "fusion_lon": 0.0}, {"rental_uris": {"ios": "https://dc.lft.to/lastmile_qr_scan", "android": "https://dc.lft.to/lastmile_qr_scan"}, "type": "electric_scooter", "name": "543ffed6fde18274b4b24851e82598f8", "is_reserved": 0, "lon": -76.98355916666667, "is_disabled": 0, "fusion_lat": 0.0, "lat": 38.88740983333334, "bike_id": "543ffed6fde18274b4b24851e82598f8", "fusion_lon": 0.0}, {"rental_uris": {"ios": "https://dc.lft.to/lastmile_qr_scan", "android": "https://dc.lft.to/lastmile_qr_scan"}, "type": "electric_bike", "name": "c5c7ae081a3a9566a7fed2144f4306c2", "is_reserved": 0, "lon": -76.95687933333333, "is_disabled": 0, "fusion_lat": 0.0, "lat": 38.850979, "bike_id": "c5c7ae081a3a9566a7fed2144f4306c2", "fusion_lon": 0.0}, {"rental_uris": {"ios": "https://dc.lft.to/lastmile_qr_scan", "android": "https://dc.lft.to/lastmile_qr_scan"}, "type": "electric_scooter", "name": "4af9bd2bcca34ed122de063e5477bd9b", "is_reserved": 0, "lon": -77.02669866666666, "is_disabled": 0, "fusion_lat": 0.0, "lat": 38.8849115, "bike_id": "4af9bd2bcca34ed122de063e5477bd9b", "fusion_lon": 0.0}, {"rental_uris": {"ios": "https://dc.lft.to/lastmile_qr_scan", "android": "https://dc.lft.to/lastmile_qr_scan"}, "type": "electric_bike", "name": "be3e77241dd98b81dbf12500bce7f11d", "is_reserved": 0, "lon": -77.09014916666666, "is_disabled": 0, "fusion_lat": 0.0, "lat": 38.92649566666667, "bike_id": "be3e77241dd98b81dbf12500bce7f11d", "fusion_lon": 0.0}, {"rental_uris": {"ios": "https://dc.lft.to/lastmile_qr_scan", "android": "https://dc.lft.to/lastmile_qr_scan"}, "type": "electric_scooter", "name": "a85fb9edbaf72b5b293ab5c15dca7be5", "is_reserved": 0, "lon": -77.0075995, "is_disabled": 0, "fusion_lat": 0.0, "lat": 38.925344, "bike_id": "a85fb9edbaf72b5b293ab5c15dca7be5", "fusion_lon": 0.0}, {"rental_uris": {"ios": "https://dc.lft.to/lastmile_qr_scan", "android": "https://dc.lft.to/lastmile_qr_scan"}, "type": "electric_scooter", "name": "bb78da09f55df42eb2fb82791d15ee48", "is_reserved": 0, "lon": -76.958841, "is_disabled": 0, "fusion_lat": 0.0, "lat": 38.858435166666666, "bike_id": "bb78da09f55df42eb2fb82791d15ee48", "fusion_lon": 0.0}, {"rental_uris": {"ios": "https://dc.lft.to/lastmile_qr_scan", "android": "https://dc.lft.to/lastmile_qr_scan"}, "type": "electric_scooter", "name": "49784fbf355db5c6101e132ccb1f8b08", "is_reserved": 0, "lon": -77.02555783333334, "is_disabled": 0, "fusion_lat": 0.0, "lat": 38.938553666666664, "bike_id": "49784fbf355db5c6101e132ccb1f8b08", "fusion_lon": 0.0}, {"rental_uris": {"ios": "https://dc.lft.to/lastmile_qr_scan", "android": "https://dc.lft.to/lastmile_qr_scan"}, "type": "electric_scooter", "name": "64d18c546804cbb262ed9e390ac1bfa5", "is_reserved": 0, "lon": -76.98613683333333, "is_disabled": 0, "fusion_lat": 0.0, "lat": 38.90349366666667, "bike_id": "64d18c546804cbb262ed9e390ac1bfa5", "fusion_lon": 0.0}, {"rental_uris": {"ios": "https://dc.lft.to/lastmile_qr_scan", "android": "https://dc.lft.to/lastmile_qr_scan"}, "type": "electric_bike", "name": "4e4e25b4769fe06e7e54ccb726b05d39", "is_reserved": 0, "lon": -77.12698266666666, "is_disabled": 0, "fusion_lat": 0.0, "lat": 38.89562566666667, "bike_id": "4e4e25b4769fe06e7e54ccb726b05d39", "fusion_lon": 0.0}, {"rental_uris": {"ios": "https://dc.lft.to/lastmile_qr_scan", "android": "https://dc.lft.to/lastmile_qr_scan"}, "type": "electric_scooter", "name": "8fb968c6324c98def4e3cb71ff50f5a1", "is_reserved": 0, "lon": -77.06395666666667, "is_disabled": 0, "fusion_lat": 0.0, "lat": 38.90859066666667, "bike_id": "8fb968c6324c98def4e3cb71ff50f5a1", "fusion_lon": 0.0}, {"rental_uris": {"ios": "https://dc.lft.to/lastmile_qr_scan", "android": "https://dc.lft.to/lastmile_qr_scan"}, "type": "electric_scooter", "name": "5afc41a8d9942db508553ed3f7bcbae8", "is_reserved": 0, "lon": -76.99502233333334, "is_disabled": 0, "fusion_lat": 0.0, "lat": 38.88325866666667, "bike_id": "5afc41a8d9942db508553ed3f7bcbae8", "fusion_lon": 0.0}, {"rental_uris": {"ios": "https://dc.lft.to/lastmile_qr_scan", "android": "https://dc.lft.to/lastmile_qr_scan"}, "type": "electric_scooter", "name": "035d2a2bede8fa1ea9592fe28f3b8dbd", "is_reserved": 0, "lon": -76.9914075, "is_disabled": 0, "fusion_lat": 0.0, "lat": 38.873381, "bike_id": "035d2a2bede8fa1ea9592fe28f3b8dbd", "fusion_lon": 0.0}, {"rental_uris": {"ios": "https://dc.lft.to/lastmile_qr_scan", "android": "https://dc.lft.to/lastmile_qr_scan"}, "type": "electric_bike", "name": "048d7afc55c228de28f914a21294ec9f", "is_reserved": 0, "lon": -76.96883683333333, "is_disabled": 0, "fusion_lat": 0.0, "lat": 38.86983, "bike_id": "048d7afc55c228de28f914a21294ec9f", "fusion_lon": 0.0}, {"rental_uris": {"ios": "https://dc.lft.to/lastmile_qr_scan", "android": "https://dc.lft.to/lastmile_qr_scan"}, "type": "electric_scooter", "name": "c5469a9440f250dc15894f54fc0f598d", "is_reserved": 0, "lon": -77.02711783333334, "is_disabled": 0, "fusion_lat": 0.0, "lat": 38.92069016666667, "bike_id": "c5469a9440f250dc15894f54fc0f598d", "fusion_lon": 0.0}, {"rental_uris": {"ios": "https://dc.lft.to/lastmile_qr_scan", "android": "https://dc.lft.to/lastmile_qr_scan"}, "type": "electric_scooter", "name": "d133d7cb1d127a595ec1c362d057ae93", "is_reserved": 0, "lon": -77.04478783333333, "is_disabled": 0, "fusion_lat": 0.0, "lat": 38.910834, "bike_id": "d133d7cb1d127a595ec1c362d057ae93", "fusion_lon": 0.0}, {"rental_uris": {"ios": "https://dc.lft.to/lastmile_qr_scan", "android": "https://dc.lft.to/lastmile_qr_scan"}, "type": "electric_scooter", "name": "c36c00a12e8ca795acdc2219ffc59711", "is_reserved": 0, "lon": -77.03898083333333, "is_disabled": 0, "fusion_lat": 0.0, "lat": 38.90396633333334, "bike_id": "c36c00a12e8ca795acdc2219ffc59711", "fusion_lon": 0.0}, {"rental_uris": {"ios": "https://dc.lft.to/lastmile_qr_scan", "android": "https://dc.lft.to/lastmile_qr_scan"}, "type": "electric_scooter", "name": "6bb69833ccb6bd007dcad381dec1b8ed", "is_reserved": 0, "lon": -77.07154516666667, "is_disabled": 0, "fusion_lat": 0.0, "lat": 38.90780066666667, "bike_id": "6bb69833ccb6bd007dcad381dec1b8ed", "fusion_lon": 0.0}, {"rental_uris": {"ios": "https://dc.lft.to/lastmile_qr_scan", "android": "https://dc.lft.to/lastmile_qr_scan"}, "type": "electric_scooter", "name": "085411f363bcad3e8fa5e2f48408ed32", "is_reserved": 0, "lon": -77.05318483333333, "is_disabled": 0, "fusion_lat": 0.0, "lat": 38.940965, "bike_id": "085411f363bcad3e8fa5e2f48408ed32", "fusion_lon": 0.0}, {"rental_uris": {"ios": "https://dc.lft.to/lastmile_qr_scan", "android": "https://dc.lft.to/lastmile_qr_scan"}, "type": "electric_scooter", "name": "29e137318a47f0196e002053c9634384", "is_reserved": 0, "lon": -77.0423485, "is_disabled": 0, "fusion_lat": 0.0, "lat": 38.92274666666667, "bike_id": "29e137318a47f0196e002053c9634384", "fusion_lon": 0.0}, {"rental_uris": {"ios": "https://dc.lft.to/lastmile_qr_scan", "android": "https://dc.lft.to/lastmile_qr_scan"}, "type": "electric_bike", "name": "6aad32ee934b5d28983e17ad61f57aa7", "is_reserved": 0, "lon": -77.12878183333333, "is_disabled": 0, "fusion_lat": 0.0, "lat": 38.90605733333334, "bike_id": "6aad32ee934b5d28983e17ad61f57aa7", "fusion_lon": 0.0}, {"rental_uris": {"ios": "https://dc.lft.to/lastmile_qr_scan", "android": "https://dc.lft.to/lastmile_qr_scan"}, "type": "electric_scooter", "name": "9a9ddf65ba6d254399646b8516755f9f", "is_reserved": 0, "lon": -77.0400505, "is_disabled": 0, "fusion_lat": 0.0, "lat": 38.934279333333336, "bike_id": "9a9ddf65ba6d254399646b8516755f9f", "fusion_lon": 0.0}, {"rental_uris": {"ios": "https://dc.lft.to/lastmile_qr_scan", "android": "https://dc.lft.to/lastmile_qr_scan"}, "type": "electric_bike", "name": "cd58ff0a78dd44411f267c40dedac197", "is_reserved": 0, "lon": -76.90740966666667, "is_disabled": 0, "fusion_lat": 0.0, "lat": 38.896203, "bike_id": "cd58ff0a78dd44411f267c40dedac197", "fusion_lon": 0.0}, {"rental_uris": {"ios": "https://dc.lft.to/lastmile_qr_scan", "android": "https://dc.lft.to/lastmile_qr_scan"}, "type": "electric_scooter", "name": "f97e1d4a6c76404ca550c73b20db8f16", "is_reserved": 0, "lon": -77.04246166666667, "is_disabled": 0, "fusion_lat": 0.0, "lat": 38.92241083333333, "bike_id": "f97e1d4a6c76404ca550c73b20db8f16", "fusion_lon": 0.0}, {"rental_uris": {"ios": "https://dc.lft.to/lastmile_qr_scan", "android": "https://dc.lft.to/lastmile_qr_scan"}, "type": "electric_scooter", "name": "d0978ba853e22ac625c32f3ac098f25f", "is_reserved": 0, "lon": -77.0301605, "is_disabled": 0, "fusion_lat": 0.0, "lat": 38.878491833333335, "bike_id": "d0978ba853e22ac625c32f3ac098f25f", "fusion_lon": 0.0}, {"rental_uris": {"ios": "https://dc.lft.to/lastmile_qr_scan", "android": "https://dc.lft.to/lastmile_qr_scan"}, "type": "electric_scooter", "name": "074f67ef6ca9aa6b5d036f97cf36b144", "is_reserved": 0, "lon": -77.00746366666667, "is_disabled": 0, "fusion_lat": 0.0, "lat": 38.8989595, "bike_id": "074f67ef6ca9aa6b5d036f97cf36b144", "fusion_lon": 0.0}, {"rental_uris": {"ios": "https://dc.lft.to/lastmile_qr_scan", "android": "https://dc.lft.to/lastmile_qr_scan"}, "type": "electric_scooter", "name": "37aeffe85d087b02de32ad7413b712c3", "is_reserved": 0, "lon": -77.05786416666666, "is_disabled": 0, "fusion_lat": 0.0, "lat": 38.93483416666667, "bike_id": "37aeffe85d087b02de32ad7413b712c3", "fusion_lon": 0.0}, {"rental_uris": {"ios": "https://dc.lft.to/lastmile_qr_scan", "android": "https://dc.lft.to/lastmile_qr_scan"}, "type": "electric_scooter", "name": "5e87770a7b461c4da6695f57d5162a0c", "is_reserved": 0, "lon": -77.01368016666666, "is_disabled": 0, "fusion_lat": 0.0, "lat": 38.886839333333334, "bike_id": "5e87770a7b461c4da6695f57d5162a0c", "fusion_lon": 0.0}, {"rental_uris": {"ios": "https://dc.lft.to/lastmile_qr_scan", "android": "https://dc.lft.to/lastmile_qr_scan"}, "type": "electric_scooter", "name": "a67e54be3ab08f80c902146bbdbc2b08", "is_reserved": 0, "lon": -77.03232883333334, "is_disabled": 0, "fusion_lat": 0.0, "lat": 38.915683333333334, "bike_id": "a67e54be3ab08f80c902146bbdbc2b08", "fusion_lon": 0.0}, {"rental_uris": {"ios": "https://dc.lft.to/lastmile_qr_scan", "android": "https://dc.lft.to/lastmile_qr_scan"}, "type": "electric_bike", "name": "a1826c5a3fe326ec83f3bb968ce39b6e", "is_reserved": 0, "lon": -76.994992, "is_disabled": 0, "fusion_lat": 0.0, "lat": 38.86222566666667, "bike_id": "a1826c5a3fe326ec83f3bb968ce39b6e", "fusion_lon": 0.0}, {"rental_uris": {"ios": "https://dc.lft.to/lastmile_qr_scan", "android": "https://dc.lft.to/lastmile_qr_scan"}, "type": "electric_scooter", "name": "e37e9c44a0610a632d71d11ddda972b4", "is_reserved": 0, "lon": -77.03074566666666, "is_disabled": 0, "fusion_lat": 0.0, "lat": 38.915555833333336, "bike_id": "e37e9c44a0610a632d71d11ddda972b4", "fusion_lon": 0.0}, {"rental_uris": {"ios": "https://dc.lft.to/lastmile_qr_scan", "android": "https://dc.lft.to/lastmile_qr_scan"}, "type": "electric_scooter", "name": "e0e2162bddd85c3548917725a76e2e39", "is_reserved": 0, "lon": -77.04566716666666, "is_disabled": 0, "fusion_lat": 0.0, "lat": 38.91405866666667, "bike_id": "e0e2162bddd85c3548917725a76e2e39", "fusion_lon": 0.0}, {"rental_uris": {"ios": "https://dc.lft.to/lastmile_qr_scan", "android": "https://dc.lft.to/lastmile_qr_scan"}, "type": "electric_bike", "name": "bcf22fa8819b88696533c9f2d116cc9e", "is_reserved": 0, "lon": -76.9180605, "is_disabled": 0, "fusion_lat": 0.0, "lat": 38.999992666666664, "bike_id": "bcf22fa8819b88696533c9f2d116cc9e", "fusion_lon": 0.0}, {"rental_uris": {"ios": "https://dc.lft.to/lastmile_qr_scan", "android": "https://dc.lft.to/lastmile_qr_scan"}, "type": "electric_scooter", "name": "140242bf522c84990a7b2faa6ffc1e29", "is_reserved": 0, "lon": -77.03783683333333, "is_disabled": 0, "fusion_lat": 0.0, "lat": 38.9013805, "bike_id": "140242bf522c84990a7b2faa6ffc1e29", "fusion_lon": 0.0}, {"rental_uris": {"ios": "https://dc.lft.to/lastmile_qr_scan", "android": "https://dc.lft.to/lastmile_qr_scan"}, "type": "electric_scooter", "name": "c137e50585ab656d7c1bed35ad47b1bd", "is_reserved": 0, "lon": -77.01794466666666, "is_disabled": 0, "fusion_lat": 0.0, "lat": 38.885970666666665, "bike_id": "c137e50585ab656d7c1bed35ad47b1bd", "fusion_lon": 0.0}, {"rental_uris": {"ios": "https://dc.lft.to/lastmile_qr_scan", "android": "https://dc.lft.to/lastmile_qr_scan"}, "type": "electric_scooter", "name": "4e50c588cce33c6b53e305ea7c877743", "is_reserved": 0, "lon": -77.04186766666666, "is_disabled": 0, "fusion_lat": 0.0, "lat": 38.91664333333333, "bike_id": "4e50c588cce33c6b53e305ea7c877743", "fusion_lon": 0.0}, {"rental_uris": {"ios": "https://dc.lft.to/lastmile_qr_scan", "android": "https://dc.lft.to/lastmile_qr_scan"}, "type": "electric_bike", "name": "5160bf2a4b73ad30914954c306dfeead", "is_reserved": 0, "lon": -76.98340416666667, "is_disabled": 0, "fusion_lat": 0.0, "lat": 38.862654, "bike_id": "5160bf2a4b73ad30914954c306dfeead", "fusion_lon": 0.0}, {"rental_uris": {"ios": "https://dc.lft.to/lastmile_qr_scan", "android": "https://dc.lft.to/lastmile_qr_scan"}, "type": "electric_scooter", "name": "7fc7b3e331495d3411696b7c3047810b", "is_reserved": 0, "lon": -77.05917533333333, "is_disabled": 0, "fusion_lat": 0.0, "lat": 38.902799, "bike_id": "7fc7b3e331495d3411696b7c3047810b", "fusion_lon": 0.0}, {"rental_uris": {"ios": "https://dc.lft.to/lastmile_qr_scan", "android": "https://dc.lft.to/lastmile_qr_scan"}, "type": "electric_bike", "name": "d1e82c04123304051abdf74df7e075a0", "is_reserved": 0, "lon": -77.12976516666667, "is_disabled": 0, "fusion_lat": 0.0, "lat": 38.799888, "bike_id": "d1e82c04123304051abdf74df7e075a0", "fusion_lon": 0.0}, {"rental_uris": {"ios": "https://dc.lft.to/lastmile_qr_scan", "android": "https://dc.lft.to/lastmile_qr_scan"}, "type": "electric_scooter", "name": "606bdfd0eb1ee86039a3eba58c7bef08", "is_reserved": 0, "lon": -77.02440483333334, "is_disabled": 0, "fusion_lat": 0.0, "lat": 38.937496333333335, "bike_id": "606bdfd0eb1ee86039a3eba58c7bef08", "fusion_lon": 0.0}, {"rental_uris": {"ios": "https://dc.lft.to/lastmile_qr_scan", "android": "https://dc.lft.to/lastmile_qr_scan"}, "type": "electric_scooter", "name": "4ee0d00014c2f31d7373cc9d8848293a", "is_reserved": 0, "lon": -77.026653, "is_disabled": 0, "fusion_lat": 0.0, "lat": 38.9277515, "bike_id": "4ee0d00014c2f31d7373cc9d8848293a", "fusion_lon": 0.0}, {"rental_uris": {"ios": "https://dc.lft.to/lastmile_qr_scan", "android": "https://dc.lft.to/lastmile_qr_scan"}, "type": "electric_scooter", "name": "87a468ec986c4f89b5f4318bffe0bd34", "is_reserved": 0, "lon": -76.99069233333333, "is_disabled": 0, "fusion_lat": 0.0, "lat": 38.90136366666667, "bike_id": "87a468ec986c4f89b5f4318bffe0bd34", "fusion_lon": 0.0}, {"rental_uris": {"ios": "https://dc.lft.to/lastmile_qr_scan", "android": "https://dc.lft.to/lastmile_qr_scan"}, "type": "electric_scooter", "name": "70b275161d41cb63d1cee8f8a7f1d6c7", "is_reserved": 0, "lon": -77.02693783333333, "is_disabled": 0, "fusion_lat": 0.0, "lat": 38.908431, "bike_id": "70b275161d41cb63d1cee8f8a7f1d6c7", "fusion_lon": 0.0}, {"rental_uris": {"ios": "https://dc.lft.to/lastmile_qr_scan", "android": "https://dc.lft.to/lastmile_qr_scan"}, "type": "electric_scooter", "name": "08c74f2f7db7661cb5a5d3141133deb6", "is_reserved": 0, "lon": -77.0436855, "is_disabled": 0, "fusion_lat": 0.0, "lat": 38.92245483333333, "bike_id": "08c74f2f7db7661cb5a5d3141133deb6", "fusion_lon": 0.0}, {"rental_uris": {"ios": "https://dc.lft.to/lastmile_qr_scan", "android": "https://dc.lft.to/lastmile_qr_scan"}, "type": "electric_scooter", "name": "710ffda45b2d9adf17a9d09c43ddf589", "is_reserved": 0, "lon": -77.00399483333334, "is_disabled": 0, "fusion_lat": 0.0, "lat": 38.87673433333333, "bike_id": "710ffda45b2d9adf17a9d09c43ddf589", "fusion_lon": 0.0}, {"rental_uris": {"ios": "https://dc.lft.to/lastmile_qr_scan", "android": "https://dc.lft.to/lastmile_qr_scan"}, "type": "electric_scooter", "name": "6fdd78cf961e89c7889fe00e5fb73fe7", "is_reserved": 0, "lon": -76.932152, "is_disabled": 0, "fusion_lat": 0.0, "lat": 38.8966235, "bike_id": "6fdd78cf961e89c7889fe00e5fb73fe7", "fusion_lon": 0.0}, {"rental_uris": {"ios": "https://dc.lft.to/lastmile_qr_scan", "android": "https://dc.lft.to/lastmile_qr_scan"}, "type": "electric_scooter", "name": "019bf2199fac865c3fd560a2a8dc8871", "is_reserved": 0, "lon": -77.0627505, "is_disabled": 0, "fusion_lat": 0.0, "lat": 38.9051165, "bike_id": "019bf2199fac865c3fd560a2a8dc8871", "fusion_lon": 0.0}, {"rental_uris": {"ios": "https://dc.lft.to/lastmile_qr_scan", "android": "https://dc.lft.to/lastmile_qr_scan"}, "type": "electric_bike", "name": "07c7f7c4d7f22dc587e8de3510606db4", "is_reserved": 0, "lon": -77.076616, "is_disabled": 0, "fusion_lat": 0.0, "lat": 38.888535833333336, "bike_id": "07c7f7c4d7f22dc587e8de3510606db4", "fusion_lon": 0.0}, {"rental_uris": {"ios": "https://dc.lft.to/lastmile_qr_scan", "android": "https://dc.lft.to/lastmile_qr_scan"}, "type": "electric_scooter", "name": "63ab3d8117e031ca7098e272195a8c81", "is_reserved": 0, "lon": -77.030997, "is_disabled": 0, "fusion_lat": 0.0, "lat": 38.9466555, "bike_id": "63ab3d8117e031ca7098e272195a8c81", "fusion_lon": 0.0}, {"rental_uris": {"ios": "https://dc.lft.to/lastmile_qr_scan", "android": "https://dc.lft.to/lastmile_qr_scan"}, "type": "electric_scooter", "name": "583f3434400450e606c6ba1e3315f315", "is_reserved": 0, "lon": -76.983146, "is_disabled": 0, "fusion_lat": 0.0, "lat": 38.925898333333336, "bike_id": "583f3434400450e606c6ba1e3315f315", "fusion_lon": 0.0}, {"rental_uris": {"ios": "https://dc.lft.to/lastmile_qr_scan", "android": "https://dc.lft.to/lastmile_qr_scan"}, "type": "electric_scooter", "name": "d6abcd7583cdb32615737109f014afca", "is_reserved": 0, "lon": -77.01867516666667, "is_disabled": 0, "fusion_lat": 0.0, "lat": 38.951521166666666, "bike_id": "d6abcd7583cdb32615737109f014afca", "fusion_lon": 0.0}, {"rental_uris": {"ios": "https://dc.lft.to/lastmile_qr_scan", "android": "https://dc.lft.to/lastmile_qr_scan"}, "type": "electric_scooter", "name": "b37d2ba9626f728fcefcdbc89e4bb43a", "is_reserved": 0, "lon": -77.04348733333333, "is_disabled": 0, "fusion_lat": 0.0, "lat": 38.9218645, "bike_id": "b37d2ba9626f728fcefcdbc89e4bb43a", "fusion_lon": 0.0}, {"rental_uris": {"ios": "https://dc.lft.to/lastmile_qr_scan", "android": "https://dc.lft.to/lastmile_qr_scan"}, "type": "electric_scooter", "name": "f7b371ee041d98d291d1ec20897c6eb7", "is_reserved": 0, "lon": -77.02166183333334, "is_disabled": 0, "fusion_lat": 0.0, "lat": 38.894082833333336, "bike_id": "f7b371ee041d98d291d1ec20897c6eb7", "fusion_lon": 0.0}, {"rental_uris": {"ios": "https://dc.lft.to/lastmile_qr_scan", "android": "https://dc.lft.to/lastmile_qr_scan"}, "type": "electric_scooter", "name": "d4957262122cd2f6b4ce4006d6a8a524", "is_reserved": 0, "lon": -77.00570266666666, "is_disabled": 0, "fusion_lat": 0.0, "lat": 38.90575283333333, "bike_id": "d4957262122cd2f6b4ce4006d6a8a524", "fusion_lon": 0.0}, {"rental_uris": {"ios": "https://dc.lft.to/lastmile_qr_scan", "android": "https://dc.lft.to/lastmile_qr_scan"}, "type": "electric_scooter", "name": "3804e7921759313c3e9bf650774ce7a2", "is_reserved": 0, "lon": -77.01794783333334, "is_disabled": 0, "fusion_lat": 0.0, "lat": 38.919802, "bike_id": "3804e7921759313c3e9bf650774ce7a2", "fusion_lon": 0.0}, {"rental_uris": {"ios": "https://dc.lft.to/lastmile_qr_scan", "android": "https://dc.lft.to/lastmile_qr_scan"}, "type": "electric_scooter", "name": "196b91e4c5a3ca611dda7d9e058cf765", "is_reserved": 0, "lon": -77.0450385, "is_disabled": 0, "fusion_lat": 0.0, "lat": 38.892266166666666, "bike_id": "196b91e4c5a3ca611dda7d9e058cf765", "fusion_lon": 0.0}, {"rental_uris": {"ios": "https://dc.lft.to/lastmile_qr_scan", "android": "https://dc.lft.to/lastmile_qr_scan"}, "type": "electric_scooter", "name": "85b9181e52ef8f87027e4191de1a7be3", "is_reserved": 0, "lon": -77.05460083333334, "is_disabled": 0, "fusion_lat": 0.0, "lat": 38.929035, "bike_id": "85b9181e52ef8f87027e4191de1a7be3", "fusion_lon": 0.0}, {"rental_uris": {"ios": "https://dc.lft.to/lastmile_qr_scan", "android": "https://dc.lft.to/lastmile_qr_scan"}, "type": "electric_scooter", "name": "c8e314cbd3eabc05a06cccf650377656", "is_reserved": 0, "lon": -77.03665416666666, "is_disabled": 0, "fusion_lat": 0.0, "lat": 38.91600783333333, "bike_id": "c8e314cbd3eabc05a06cccf650377656", "fusion_lon": 0.0}, {"rental_uris": {"ios": "https://dc.lft.to/lastmile_qr_scan", "android": "https://dc.lft.to/lastmile_qr_scan"}, "type": "electric_scooter", "name": "03b3493c24df4e18a1286d3d9f611e52", "is_reserved": 0, "lon": -77.04160816666666, "is_disabled": 0, "fusion_lat": 0.0, "lat": 38.8926725, "bike_id": "03b3493c24df4e18a1286d3d9f611e52", "fusion_lon": 0.0}, {"rental_uris": {"ios": "https://dc.lft.to/lastmile_qr_scan", "android": "https://dc.lft.to/lastmile_qr_scan"}, "type": "electric_scooter", "name": "4b9e244f4f8fb40b1a9f240f6e6e52be", "is_reserved": 0, "lon": -77.04911233333333, "is_disabled": 0, "fusion_lat": 0.0, "lat": 38.91044, "bike_id": "4b9e244f4f8fb40b1a9f240f6e6e52be", "fusion_lon": 0.0}, {"rental_uris": {"ios": "https://dc.lft.to/lastmile_qr_scan", "android": "https://dc.lft.to/lastmile_qr_scan"}, "type": "electric_scooter", "name": "579e57dbfdbcc294770d2779ac1cae3a", "is_reserved": 0, "lon": -76.9987155, "is_disabled": 0, "fusion_lat": 0.0, "lat": 38.90023, "bike_id": "579e57dbfdbcc294770d2779ac1cae3a", "fusion_lon": 0.0}, {"rental_uris": {"ios": "https://dc.lft.to/lastmile_qr_scan", "android": "https://dc.lft.to/lastmile_qr_scan"}, "type": "electric_scooter", "name": "a77c33b9a0c0dfa01631b082306491d1", "is_reserved": 0, "lon": -77.03071433333334, "is_disabled": 0, "fusion_lat": 0.0, "lat": 38.938749666666666, "bike_id": "a77c33b9a0c0dfa01631b082306491d1", "fusion_lon": 0.0}, {"rental_uris": {"ios": "https://dc.lft.to/lastmile_qr_scan", "android": "https://dc.lft.to/lastmile_qr_scan"}, "type": "electric_bike", "name": "87d62634b4f24125ab994d93e0defdb9", "is_reserved": 0, "lon": -77.000041, "is_disabled": 0, "fusion_lat": 0.0, "lat": 38.92392516666666, "bike_id": "87d62634b4f24125ab994d93e0defdb9", "fusion_lon": 0.0}, {"rental_uris": {"ios": "https://dc.lft.to/lastmile_qr_scan", "android": "https://dc.lft.to/lastmile_qr_scan"}, "type": "electric_scooter", "name": "55de00f20ddcdee0af608c0af629c525", "is_reserved": 0, "lon": -77.0271525, "is_disabled": 0, "fusion_lat": 0.0, "lat": 38.9060005, "bike_id": "55de00f20ddcdee0af608c0af629c525", "fusion_lon": 0.0}, {"rental_uris": {"ios": "https://dc.lft.to/lastmile_qr_scan", "android": "https://dc.lft.to/lastmile_qr_scan"}, "type": "electric_scooter", "name": "d5aac844f562a8eea24483a1cf62d0dd", "is_reserved": 0, "lon": -77.02313833333334, "is_disabled": 0, "fusion_lat": 0.0, "lat": 38.90282366666667, "bike_id": "d5aac844f562a8eea24483a1cf62d0dd", "fusion_lon": 0.0}, {"rental_uris": {"ios": "https://dc.lft.to/lastmile_qr_scan", "android": "https://dc.lft.to/lastmile_qr_scan"}, "type": "electric_scooter", "name": "5acdea9053444fbbc3bb0edf06a5486d", "is_reserved": 0, "lon": -77.02424866666667, "is_disabled": 0, "fusion_lat": 0.0, "lat": 38.91559766666666, "bike_id": "5acdea9053444fbbc3bb0edf06a5486d", "fusion_lon": 0.0}, {"rental_uris": {"ios": "https://dc.lft.to/lastmile_qr_scan", "android": "https://dc.lft.to/lastmile_qr_scan"}, "type": "electric_scooter", "name": "3a79509bdd53b5d2eb32e9c3f27cce5a", "is_reserved": 0, "lon": -77.0283785, "is_disabled": 0, "fusion_lat": 0.0, "lat": 38.902359833333335, "bike_id": "3a79509bdd53b5d2eb32e9c3f27cce5a", "fusion_lon": 0.0}, {"rental_uris": {"ios": "https://dc.lft.to/lastmile_qr_scan", "android": "https://dc.lft.to/lastmile_qr_scan"}, "type": "electric_bike", "name": "775a6cf2ea29b562392e0d620e95d8a7", "is_reserved": 0, "lon": -77.0122325, "is_disabled": 0, "fusion_lat": 0.0, "lat": 38.95083833333333, "bike_id": "775a6cf2ea29b562392e0d620e95d8a7", "fusion_lon": 0.0}, {"rental_uris": {"ios": "https://dc.lft.to/lastmile_qr_scan", "android": "https://dc.lft.to/lastmile_qr_scan"}, "type": "electric_scooter", "name": "370260155f2b414977c5223f60f1b67c", "is_reserved": 0, "lon": -77.041245, "is_disabled": 0, "fusion_lat": 0.0, "lat": 38.93108566666667, "bike_id": "370260155f2b414977c5223f60f1b67c", "fusion_lon": 0.0}, {"rental_uris": {"ios": "https://dc.lft.to/lastmile_qr_scan", "android": "https://dc.lft.to/lastmile_qr_scan"}, "type": "electric_scooter", "name": "1666124d43973a0a6f2a36994d45172c", "is_reserved": 0, "lon": -76.985765, "is_disabled": 0, "fusion_lat": 0.0, "lat": 38.8545, "bike_id": "1666124d43973a0a6f2a36994d45172c", "fusion_lon": 0.0}, {"rental_uris": {"ios": "https://dc.lft.to/lastmile_qr_scan", "android": "https://dc.lft.to/lastmile_qr_scan"}, "type": "electric_scooter", "name": "1065b2ee8119f42f4700d25b8accf67d", "is_reserved": 0, "lon": -77.04483983333333, "is_disabled": 0, "fusion_lat": 0.0, "lat": 38.91089683333333, "bike_id": "1065b2ee8119f42f4700d25b8accf67d", "fusion_lon": 0.0}, {"rental_uris": {"ios": "https://dc.lft.to/lastmile_qr_scan", "android": "https://dc.lft.to/lastmile_qr_scan"}, "type": "electric_scooter", "name": "e361ce51a2352271c032f29c5e796376", "is_reserved": 0, "lon": -77.044613, "is_disabled": 0, "fusion_lat": 0.0, "lat": 38.9242815, "bike_id": "e361ce51a2352271c032f29c5e796376", "fusion_lon": 0.0}, {"rental_uris": {"ios": "https://dc.lft.to/lastmile_qr_scan", "android": "https://dc.lft.to/lastmile_qr_scan"}, "type": "electric_scooter", "name": "554eaf8ddee1b55049b3423ed8ca8e5e", "is_reserved": 0, "lon": -77.031863, "is_disabled": 0, "fusion_lat": 0.0, "lat": 38.91578766666667, "bike_id": "554eaf8ddee1b55049b3423ed8ca8e5e", "fusion_lon": 0.0}, {"rental_uris": {"ios": "https://dc.lft.to/lastmile_qr_scan", "android": "https://dc.lft.to/lastmile_qr_scan"}, "type": "electric_bike", "name": "7ccf6c73adb8eb525c4cc8b78a6a82cf", "is_reserved": 0, "lon": -77.08526833333333, "is_disabled": 0, "fusion_lat": 0.0, "lat": 38.856482666666665, "bike_id": "7ccf6c73adb8eb525c4cc8b78a6a82cf", "fusion_lon": 0.0}, {"rental_uris": {"ios": "https://dc.lft.to/lastmile_qr_scan", "android": "https://dc.lft.to/lastmile_qr_scan"}, "type": "electric_scooter", "name": "65e971cdc7d3ba05f2fa20a0fce390d2", "is_reserved": 0, "lon": -77.03418633333334, "is_disabled": 0, "fusion_lat": 0.0, "lat": 38.92199266666667, "bike_id": "65e971cdc7d3ba05f2fa20a0fce390d2", "fusion_lon": 0.0}, {"rental_uris": {"ios": "https://dc.lft.to/lastmile_qr_scan", "android": "https://dc.lft.to/lastmile_qr_scan"}, "type": "electric_scooter", "name": "eba2840ed2144e2c92125d8993c7aa9c", "is_reserved": 0, "lon": -77.02796683333334, "is_disabled": 0, "fusion_lat": 0.0, "lat": 38.930811166666665, "bike_id": "eba2840ed2144e2c92125d8993c7aa9c", "fusion_lon": 0.0}, {"rental_uris": {"ios": "https://dc.lft.to/lastmile_qr_scan", "android": "https://dc.lft.to/lastmile_qr_scan"}, "type": "electric_scooter", "name": "6a3b96013690c20508bf19c55db80bc5", "is_reserved": 0, "lon": -77.04040983333333, "is_disabled": 0, "fusion_lat": 0.0, "lat": 38.904042, "bike_id": "6a3b96013690c20508bf19c55db80bc5", "fusion_lon": 0.0}, {"rental_uris": {"ios": "https://dc.lft.to/lastmile_qr_scan", "android": "https://dc.lft.to/lastmile_qr_scan"}, "type": "electric_scooter", "name": "7b563f534c407732469ddca81eae74a0", "is_reserved": 0, "lon": -77.05916616666667, "is_disabled": 0, "fusion_lat": 0.0, "lat": 38.90276933333333, "bike_id": "7b563f534c407732469ddca81eae74a0", "fusion_lon": 0.0}, {"rental_uris": {"ios": "https://dc.lft.to/lastmile_qr_scan", "android": "https://dc.lft.to/lastmile_qr_scan"}, "type": "electric_scooter", "name": "7614a85eaea30f7259045e930bd227d3", "is_reserved": 0, "lon": -77.00604616666666, "is_disabled": 0, "fusion_lat": 0.0, "lat": 38.87570183333333, "bike_id": "7614a85eaea30f7259045e930bd227d3", "fusion_lon": 0.0}, {"rental_uris": {"ios": "https://dc.lft.to/lastmile_qr_scan", "android": "https://dc.lft.to/lastmile_qr_scan"}, "type": "electric_scooter", "name": "94b527312ff8c62ecb1f1925b046ef2a", "is_reserved": 0, "lon": -77.04161183333333, "is_disabled": 0, "fusion_lat": 0.0, "lat": 38.90158433333333, "bike_id": "94b527312ff8c62ecb1f1925b046ef2a", "fusion_lon": 0.0}, {"rental_uris": {"ios": "https://dc.lft.to/lastmile_qr_scan", "android": "https://dc.lft.to/lastmile_qr_scan"},