{"data": {"bikes": [{"rental_uris": {"ios": "https://dc.lft.to/lastmile_qr_scan", "android": "https://dc.lft.to/lastmile_qr_scan"}, "fusion_lon": 0.0, "type": "electric_scooter", "is_reserved": 0, "lon": -77.05343316666666, "is_disabled": 0, "fusion_lat": 0.0, "bike_id": "ba697d9e8337eb9510653d0e72f4c159", "name": "ba697d9e8337eb9510653d0e72f4c159", "lat": 38.902404833333335}, {"rental_uris": {"ios": "https://dc.lft.to/lastmile_qr_scan", "android": "https://dc.lft.to/lastmile_qr_scan"}, "fusion_lon": 0.0, "type": "electric_scooter", "is_reserved": 0, "lon": -77.03500416666667, "is_disabled": 0, "fusion_lat": 0.0, "bike_id": "0ed52a3fa504adca9089b85412ad9c50", "name": "0ed52a3fa504adca9089b85412ad9c50", "lat": 38.92141816666667}, {"rental_uris": {"ios": "https://dc.lft.to/lastmile_qr_scan", "android": "https://dc.lft.to/lastmile_qr_scan"}, "fusion_lon": 0.0, "type": "electric_scooter", "is_reserved": 0, "lon": -76.9984015, "is_disabled": 0, "fusion_lat": 0.0, "bike_id": "ce89bc53b4244520da7c8d378b4b476f", "name": "ce89bc53b4244520da7c8d378b4b476f", "lat": 38.90301016666667}, {"rental_uris": {"ios": "https://dc.lft.to/lastmile_qr_scan", "android": "https://dc.lft.to/lastmile_qr_scan"}, "fusion_lon": 0.0, "type": "electric_scooter", "is_reserved": 0, "lon": -76.94909666666666, "is_disabled": 0, "fusion_lat": 0.0, "bike_id": "6f1dc35977d6d4c608f67285e388a414", "name": "6f1dc35977d6d4c608f67285e388a414", "lat": 38.896680333333336}, {"rental_uris": {"ios": "https://dc.lft.to/lastmile_qr_scan", "android": "https://dc.lft.to/lastmile_qr_scan"}, "fusion_lon": 0.0, "type": "electric_scooter", "is_reserved": 0, "lon": -77.023421, "is_disabled": 0, "fusion_lat": 0.0, "bike_id": "d59ddb74f31d07613cb294421905a8a9", "name": "d59ddb74f31d07613cb294421905a8a9", "lat": 38.90850866666667}, {"rental_uris": {"ios": "https://dc.lft.to/lastmile_qr_scan", "android": "https://dc.lft.to/lastmile_qr_scan"}, "fusion_lon": 0.0, "type": "electric_scooter", "is_reserved": 0, "lon": -77.00083533333333, "is_disabled": 0, "fusion_lat": 0.0, "bike_id": "5bbc0dff26b6cc5fef563e1a3968fdb3", "name": "5bbc0dff26b6cc5fef563e1a3968fdb3", "lat": 38.907454}, {"rental_uris": {"ios": "https://dc.lft.to/lastmile_qr_scan", "android": "https://dc.lft.to/lastmile_qr_scan"}, "fusion_lon": 0.0, "type": "electric_scooter", "is_reserved": 0, "lon": -77.0418885, "is_disabled": 0, "fusion_lat": 0.0, "bike_id": "dfadcd93e9978aaeaa6f64ad4cb60f09", "name": "dfadcd93e9978aaeaa6f64ad4cb60f09", "lat": 38.92043733333333}, {"rental_uris": {"ios": "https://dc.lft.to/lastmile_qr_scan", "android": "https://dc.lft.to/lastmile_qr_scan"}, "fusion_lon": 0.0, "type": "electric_scooter", "is_reserved": 0, "lon": -77.02940666666667, "is_disabled": 0, "fusion_lat": 0.0, "bike_id": "74e4c662a5b7bccd5350ae51e825ac16", "name": "74e4c662a5b7bccd5350ae51e825ac16", "lat": 38.8952755}, {"rental_uris": {"ios": "https://dc.lft.to/lastmile_qr_scan", "android": "https://dc.lft.to/lastmile_qr_scan"}, "fusion_lon": 0.0, "type": "electric_scooter", "is_reserved": 0, "lon": -77.04422383333333, "is_disabled": 0, "fusion_lat": 0.0, "bike_id": "673ff770b37a94146149746028090c39", "name": "673ff770b37a94146149746028090c39", "lat": 38.901327333333334}, {"rental_uris": {"ios": "https://dc.lft.to/lastmile_qr_scan", "android": "https://dc.lft.to/lastmile_qr_scan"}, "fusion_lon": 0.0, "type": "electric_scooter", "is_reserved": 0, "lon": -77.0484325, "is_disabled": 0, "fusion_lat": 0.0, "bike_id": "8059c21a45646c4330f1aa96edbc6da6", "name": "8059c21a45646c4330f1aa96edbc6da6", "lat": 38.90457033333333}, {"rental_uris": {"ios": "https://dc.lft.to/lastmile_qr_scan", "android": "https://dc.lft.to/lastmile_qr_scan"}, "fusion_lon": 0.0, "type": "electric_scooter", "is_reserved": 0, "lon": -77.01855833333333, "is_disabled": 0, "fusion_lat": 0.0, "bike_id": "d19607f08493e731ce26fa9ab8a44776", "name": "d19607f08493e731ce26fa9ab8a44776", "lat": 38.949191666666664}, {"rental_uris": {"ios": "https://dc.lft.to/lastmile_qr_scan", "android": "https://dc.lft.to/lastmile_qr_scan"}, "fusion_lon": 0.0, "type": "electric_scooter", "is_reserved": 0, "lon": -77.02279766666666, "is_disabled": 0, "fusion_lat": 0.0, "bike_id": "5dfd9f5a8ceedf6992eee22e1c8476ec", "name": "5dfd9f5a8ceedf6992eee22e1c8476ec", "lat": 38.87832}, {"rental_uris": {"ios": "https://dc.lft.to/lastmile_qr_scan", "android": "https://dc.lft.to/lastmile_qr_scan"}, "fusion_lon": 0.0, "type": "electric_scooter", "is_reserved": 0, "lon": -77.04893683333333, "is_disabled": 0, "fusion_lat": 0.0, "bike_id": "0084ff913c69305d1275910aea4c7f67", "name": "0084ff913c69305d1275910aea4c7f67", "lat": 38.896705833333336}, {"rental_uris": {"ios": "https://dc.lft.to/lastmile_qr_scan", "android": "https://dc.lft.to/lastmile_qr_scan"}, "fusion_lon": 0.0, "type": "electric_scooter", "is_reserved": 0, "lon": -77.03442633333333, "is_disabled": 0, "fusion_lat": 0.0, "bike_id": "d92e9368022c6408168e44c5f5ab2e81", "name": "d92e9368022c6408168e44c5f5ab2e81", "lat": 38.912656166666665}, {"rental_uris": {"ios": "https://dc.lft.to/lastmile_qr_scan", "android": "https://dc.lft.to/lastmile_qr_scan"}, "fusion_lon": 0.0, "type": "electric_scooter", "is_reserved": 0, "lon": -77.04237966666666, "is_disabled": 0, "fusion_lat": 0.0, "bike_id": "83078820b843c400b4185d5a86d0a1e0", "name": "83078820b843c400b4185d5a86d0a1e0", "lat": 38.921557166666666}, {"rental_uris": {"ios": "https://dc.lft.to/lastmile_qr_scan", "android": "https://dc.lft.to/lastmile_qr_scan"}, "fusion_lon": 0.0, "type": "electric_scooter", "is_reserved": 0, "lon": -77.03091716666667, "is_disabled": 0, "fusion_lat": 0.0, "bike_id": "832afd20823328abdea9b475432609dd", "name": "832afd20823328abdea9b475432609dd", "lat": 38.921052833333334}, {"rental_uris": {"ios": "https://dc.lft.to/lastmile_qr_scan", "android": "https://dc.lft.to/lastmile_qr_scan"}, "fusion_lon": 0.0, "type": "electric_scooter", "is_reserved": 0, "lon": -77.04549433333334, "is_disabled": 0, "fusion_lat": 0.0, "bike_id": "5f703ae1dc002266cc531a86327d8d9e", "name": "5f703ae1dc002266cc531a86327d8d9e", "lat": 38.9005675}, {"rental_uris": {"ios": "https://dc.lft.to/lastmile_qr_scan", "android": "https://dc.lft.to/lastmile_qr_scan"}, "fusion_lon": 0.0, "type": "electric_scooter", "is_reserved": 0, "lon": -77.03334466666666, "is_disabled": 0, "fusion_lat": 0.0, "bike_id": "bbb19ce3af9ce41d27109dbb6ec5e798", "name": "bbb19ce3af9ce41d27109dbb6ec5e798", "lat": 38.90078366666667}, {"rental_uris": {"ios": "https://dc.lft.to/lastmile_qr_scan", "android": "https://dc.lft.to/lastmile_qr_scan"}, "fusion_lon": 0.0, "type": "electric_bike", "is_reserved": 0, "lon": -76.97229016666667, "is_disabled": 0, "fusion_lat": 0.0, "bike_id": "a82f5b2a3dcf86ebc9dd19f0cae27f71", "name": "a82f5b2a3dcf86ebc9dd19f0cae27f71", "lat": 38.9043155}, {"rental_uris": {"ios": "https://dc.lft.to/lastmile_qr_scan", "android": "https://dc.lft.to/lastmile_qr_scan"}, "fusion_lon": 0.0, "type": "electric_scooter", "is_reserved": 0, "lon": -77.047426, "is_disabled": 0, "fusion_lat": 0.0, "bike_id": "83746cb429723068604f353ae901573b", "name": "83746cb429723068604f353ae901573b", "lat": 38.9051755}, {"rental_uris": {"ios": "https://dc.lft.to/lastmile_qr_scan", "android": "https://dc.lft.to/lastmile_qr_scan"}, "fusion_lon": 0.0, "type": "electric_bike", "is_reserved": 0, "lon": -77.08405033333334, "is_disabled": 0, "fusion_lat": 0.0, "bike_id": "0d339d859450b5cf4ebe0cc5c3f05b3c", "name": "0d339d859450b5cf4ebe0cc5c3f05b3c", "lat": 38.832936833333335}, {"rental_uris": {"ios": "https://dc.lft.to/lastmile_qr_scan", "android": "https://dc.lft.to/lastmile_qr_scan"}, "fusion_lon": 0.0, "type": "electric_scooter", "is_reserved": 0, "lon": -76.92748616666667, "is_disabled": 0, "fusion_lat": 0.0, "bike_id": "00f40f5df39a9ef78f8cde0b8fd6cfa2", "name": "00f40f5df39a9ef78f8cde0b8fd6cfa2", "lat": 38.89845733333333}, {"rental_uris": {"ios": "https://dc.lft.to/lastmile_qr_scan", "android": "https://dc.lft.to/lastmile_qr_scan"}, "fusion_lon": 0.0, "type": "electric_scooter", "is_reserved": 0, "lon": -77.034973, "is_disabled": 0, "fusion_lat": 0.0, "bike_id": "46107ce23351aa65fbadae7c19ff60b3", "name": "46107ce23351aa65fbadae7c19ff60b3", "lat": 38.918636166666666}, {"rental_uris": {"ios": "https://dc.lft.to/lastmile_qr_scan", "android": "https://dc.lft.to/lastmile_qr_scan"}, "fusion_lon": 0.0, "type": "electric_scooter", "is_reserved": 0, "lon": -77.04641033333333, "is_disabled": 0, "fusion_lat": 0.0, "bike_id": "9075060e697fcb2d638823c686f57871", "name": "9075060e697fcb2d638823c686f57871", "lat": 38.91628983333333}, {"rental_uris": {"ios": "https://dc.lft.to/lastmile_qr_scan", "android": "https://dc.lft.to/lastmile_qr_scan"}, "fusion_lon": 0.0, "type": "electric_scooter", "is_reserved": 0, "lon": -77.01728516666667, "is_disabled": 0, "fusion_lat": 0.0, "bike_id": "39f88a5b882eb1e85b1db0256258d2b5", "name": "39f88a5b882eb1e85b1db0256258d2b5", "lat": 38.9204905}, {"rental_uris": {"ios": "https://dc.lft.to/lastmile_qr_scan", "android": "https://dc.lft.to/lastmile_qr_scan"}, "fusion_lon": 0.0, "type": "electric_scooter", "is_reserved": 0, "lon": -77.00920866666667, "is_disabled": 0, "fusion_lat": 0.0, "bike_id": "8774addd63f578708e8cc250f48e6fa1", "name": "8774addd63f578708e8cc250f48e6fa1", "lat": 38.914686}, {"rental_uris": {"ios": "https://dc.lft.to/lastmile_qr_scan", "android": "https://dc.lft.to/lastmile_qr_scan"}, "fusion_lon": 0.0, "type": "electric_scooter", "is_reserved": 0, "lon": -77.04823716666667, "is_disabled": 0, "fusion_lat": 0.0, "bike_id": "0ae7bc7586a5e6978f083c042e883df5", "name": "0ae7bc7586a5e6978f083c042e883df5", "lat": 38.916509}, {"rental_uris": {"ios": "https://dc.lft.to/lastmile_qr_scan", "android": "https://dc.lft.to/lastmile_qr_scan"}, "fusion_lon": 0.0, "type": "electric_scooter", "is_reserved": 0, "lon": -77.02831083333334, "is_disabled": 0, "fusion_lat": 0.0, "bike_id": "16770caa9a97cb1663b8ba31691f7dc4", "name": "16770caa9a97cb1663b8ba31691f7dc4", "lat": 38.93276133333333}, {"rental_uris": {"ios": "https://dc.lft.to/lastmile_qr_scan", "android": "https://dc.lft.to/lastmile_qr_scan"}, "fusion_lon": 0.0, "type": "electric_scooter", "is_reserved": 0, "lon": -77.02343066666667, "is_disabled": 0, "fusion_lat": 0.0, "bike_id": "223e4655109af9afbabcc55459566a94", "name": "223e4655109af9afbabcc55459566a94", "lat": 38.917022833333334}, {"rental_uris": {"ios": "https://dc.lft.to/lastmile_qr_scan", "android": "https://dc.lft.to/lastmile_qr_scan"}, "fusion_lon": 0.0, "type": "electric_scooter", "is_reserved": 0, "lon": -77.02499066666667, "is_disabled": 0, "fusion_lat": 0.0, "bike_id": "3b1002936bb020fbbae485f6936d394c", "name": "3b1002936bb020fbbae485f6936d394c", "lat": 38.88474383333333}, {"rental_uris": {"ios": "https://dc.lft.to/lastmile_qr_scan", "android": "https://dc.lft.to/lastmile_qr_scan"}, "fusion_lon": 0.0, "type": "electric_scooter", "is_reserved": 0, "lon": -77.00200616666666, "is_disabled": 0, "fusion_lat": 0.0, "bike_id": "464884ed85a559262dc307dad2d2826a", "name": "464884ed85a559262dc307dad2d2826a", "lat": 38.9308}, {"rental_uris": {"ios": "https://dc.lft.to/lastmile_qr_scan", "android": "https://dc.lft.to/lastmile_qr_scan"}, "fusion_lon": 0.0, "type": "electric_scooter", "is_reserved": 0, "lon": -77.03421116666667, "is_disabled": 0, "fusion_lat": 0.0, "bike_id": "7285e971b814043dd4a6ce2d0ba1538e", "name": "7285e971b814043dd4a6ce2d0ba1538e", "lat": 38.919234}, {"rental_uris": {"ios": "https://dc.lft.to/lastmile_qr_scan", "android": "https://dc.lft.to/lastmile_qr_scan"}, "fusion_lon": 0.0, "type": "electric_scooter", "is_reserved": 0, "lon": -77.03633733333334, "is_disabled": 0, "fusion_lat": 0.0, "bike_id": "b4056a70511f5a23af247cd4e0fd4415", "name": "b4056a70511f5a23af247cd4e0fd4415", "lat": 38.93481083333333}, {"rental_uris": {"ios": "https://dc.lft.to/lastmile_qr_scan", "android": "https://dc.lft.to/lastmile_qr_scan"}, "fusion_lon": 0.0, "type": "electric_bike", "is_reserved": 0, "lon": -77.0961565, "is_disabled": 0, "fusion_lat": 0.0, "bike_id": "0d6b0e4ddcdc47cb815377e2b5487dbe", "name": "0d6b0e4ddcdc47cb815377e2b5487dbe", "lat": 38.97437466666667}, {"rental_uris": {"ios": "https://dc.lft.to/lastmile_qr_scan", "android": "https://dc.lft.to/lastmile_qr_scan"}, "fusion_lon": 0.0, "type": "electric_scooter", "is_reserved": 0, "lon": -76.98609616666667, "is_disabled": 0, "fusion_lat": 0.0, "bike_id": "bd52bad7cde11e2a1149e297768bcb5a", "name": "bd52bad7cde11e2a1149e297768bcb5a", "lat": 38.85456466666667}, {"rental_uris": {"ios": "https://dc.lft.to/lastmile_qr_scan", "android": "https://dc.lft.to/lastmile_qr_scan"}, "fusion_lon": 0.0, "type": "electric_scooter", "is_reserved": 0, "lon": -76.986481, "is_disabled": 0, "fusion_lat": 0.0, "bike_id": "947e2de156bcdd3ae40669b6c29a240a", "name": "947e2de156bcdd3ae40669b6c29a240a", "lat": 38.9328345}, {"rental_uris": {"ios": "https://dc.lft.to/lastmile_qr_scan", "android": "https://dc.lft.to/lastmile_qr_scan"}, "fusion_lon": 0.0, "type": "electric_scooter", "is_reserved": 0, "lon": -77.02362333333333, "is_disabled": 0, "fusion_lat": 0.0, "bike_id": "c9d35755f7f3d7c9e5133e44522f1b31", "name": "c9d35755f7f3d7c9e5133e44522f1b31", "lat": 38.901908666666664}, {"rental_uris": {"ios": "https://dc.lft.to/lastmile_qr_scan", "android": "https://dc.lft.to/lastmile_qr_scan"}, "fusion_lon": 0.0, "type": "electric_scooter", "is_reserved": 0, "lon": -77.03475866666666, "is_disabled": 0, "fusion_lat": 0.0, "bike_id": "0c55b3b761b5e58e22e5532389257c7b", "name": "0c55b3b761b5e58e22e5532389257c7b", "lat": 38.935299}, {"rental_uris": {"ios": "https://dc.lft.to/lastmile_qr_scan", "android": "https://dc.lft.to/lastmile_qr_scan"}, "fusion_lon": 0.0, "type": "electric_scooter", "is_reserved": 0, "lon": -77.03358666666666, "is_disabled": 0, "fusion_lat": 0.0, "bike_id": "f53cf4e2216243e37d17295aabaa5afa", "name": "f53cf4e2216243e37d17295aabaa5afa", "lat": 38.91106383333333}, {"rental_uris": {"ios": "https://dc.lft.to/lastmile_qr_scan", "android": "https://dc.lft.to/lastmile_qr_scan"}, "fusion_lon": 0.0, "type": "electric_scooter", "is_reserved": 0, "lon": -77.02006533333333, "is_disabled": 0, "fusion_lat": 0.0, "bike_id": "4c9d4f6bd8dddcbf85892847ceb2f84b", "name": "4c9d4f6bd8dddcbf85892847ceb2f84b", "lat": 38.9240885}, {"rental_uris": {"ios": "https://dc.lft.to/lastmile_qr_scan", "android": "https://dc.lft.to/lastmile_qr_scan"}, "fusion_lon": 0.0, "type": "electric_scooter", "is_reserved": 0, "lon": -77.0221225, "is_disabled": 0, "fusion_lat": 0.0, "bike_id": "f6a5f2754f92e6208fc6ab2b4b21199b", "name": "f6a5f2754f92e6208fc6ab2b4b21199b", "lat": 38.957504666666665}, {"rental_uris": {"ios": "https://dc.lft.to/lastmile_qr_scan", "android": "https://dc.lft.to/lastmile_qr_scan"}, "fusion_lon": 0.0, "type": "electric_scooter", "is_reserved": 0, "lon": -77.02239483333334, "is_disabled": 0, "fusion_lat": 0.0, "bike_id": "da80857da0298cebfb18549cbd474d88", "name": "da80857da0298cebfb18549cbd474d88", "lat": 38.901580333333335}, {"rental_uris": {"ios": "https://dc.lft.to/lastmile_qr_scan", "android": "https://dc.lft.to/lastmile_qr_scan"}, "fusion_lon": 0.0, "type": "electric_scooter", "is_reserved": 0, "lon": -77.05340016666666, "is_disabled": 0, "fusion_lat": 0.0, "bike_id": "07c144ec429a0652ee807dbc0fac21bb", "name": "07c144ec429a0652ee807dbc0fac21bb", "lat": 38.90458133333333}, {"rental_uris": {"ios": "https://dc.lft.to/lastmile_qr_scan", "android": "https://dc.lft.to/lastmile_qr_scan"}, "fusion_lon": 0.0, "type": "electric_scooter", "is_reserved": 0, "lon": -76.9805255, "is_disabled": 0, "fusion_lat": 0.0, "bike_id": "9fcdf5980c7c6ed1e0c40a269a7afcc8", "name": "9fcdf5980c7c6ed1e0c40a269a7afcc8", "lat": 38.885288833333334}, {"rental_uris": {"ios": "https://dc.lft.to/lastmile_qr_scan", "android": "https://dc.lft.to/lastmile_qr_scan"}, "fusion_lon": 0.0, "type": "electric_scooter", "is_reserved": 0, "lon": -76.92440533333334, "is_disabled": 0, "fusion_lat": 0.0, "bike_id": "20856c7fdb20abedc7ea98d99f996733", "name": "20856c7fdb20abedc7ea98d99f996733", "lat": 38.885122333333335}, {"rental_uris": {"ios": "https://dc.lft.to/lastmile_qr_scan", "android": "https://dc.lft.to/lastmile_qr_scan"}, "fusion_lon": 0.0, "type": "electric_bike", "is_reserved": 0, "lon": -76.90749116666667, "is_disabled": 0, "fusion_lat": 0.0, "bike_id": "3a1ae62198d41782ebea9af603ff1bef", "name": "3a1ae62198d41782ebea9af603ff1bef", "lat": 38.89617783333333}, {"rental_uris": {"ios": "https://dc.lft.to/lastmile_qr_scan", "android": "https://dc.lft.to/lastmile_qr_scan"}, "fusion_lon": 0.0, "type": "electric_scooter", "is_reserved": 0, "lon": -77.07009683333334, "is_disabled": 0, "fusion_lat": 0.0, "bike_id": "544fb8ff55ad580488949d3f00b38060", "name": "544fb8ff55ad580488949d3f00b38060", "lat": 38.905943}, {"rental_uris": {"ios": "https://dc.lft.to/lastmile_qr_scan", "android": "https://dc.lft.to/lastmile_qr_scan"}, "fusion_lon": 0.0, "type": "electric_scooter", "is_reserved": 0, "lon": -76.97702683333333, "is_disabled": 0, "fusion_lat": 0.0, "bike_id": "4294dacf3cb51a38bbe9e2bbbc373089", "name": "4294dacf3cb51a38bbe9e2bbbc373089", "lat": 38.90253216666667}, {"rental_uris": {"ios": "https://dc.lft.to/lastmile_qr_scan", "android": "https://dc.lft.to/lastmile_qr_scan"}, "fusion_lon": 0.0, "type": "electric_scooter", "is_reserved": 0, "lon": -77.04290383333333, "is_disabled": 0, "fusion_lat": 0.0, "bike_id": "537fa78037231173a1ef4a7d0f5aa007", "name": "537fa78037231173a1ef4a7d0f5aa007", "lat": 38.922396666666664}, {"rental_uris": {"ios": "https://dc.lft.to/lastmile_qr_scan", "android": "https://dc.lft.to/lastmile_qr_scan"}, "fusion_lon": 0.0, "type": "electric_scooter", "is_reserved": 0, "lon": -77.0392875, "is_disabled": 0, "fusion_lat": 0.0, "bike_id": "71fbfed66f40d3201ec21631ed0f62ff", "name": "71fbfed66f40d3201ec21631ed0f62ff", "lat": 38.903490833333336}, {"rental_uris": {"ios": "https://dc.lft.to/lastmile_qr_scan", "android": "https://dc.lft.to/lastmile_qr_scan"}, "fusion_lon": 0.0, "type": "electric_scooter", "is_reserved": 0, "lon": -77.023534, "is_disabled": 0, "fusion_lat": 0.0, "bike_id": "d6498af2d2aed093fd8eaf47b850b994", "name": "d6498af2d2aed093fd8eaf47b850b994", "lat": 38.879273833333336}, {"rental_uris": {"ios": "https://dc.lft.to/lastmile_qr_scan", "android": "https://dc.lft.to/lastmile_qr_scan"}, "fusion_lon": 0.0, "type": "electric_scooter", "is_reserved": 0, "lon": -77.00658466666667, "is_disabled": 0, "fusion_lat": 0.0, "bike_id": "bcfc599783b52322ea06008c3906910c", "name": "bcfc599783b52322ea06008c3906910c", "lat": 38.944613}, {"rental_uris": {"ios": "https://dc.lft.to/lastmile_qr_scan", "android": "https://dc.lft.to/lastmile_qr_scan"}, "fusion_lon": 0.0, "type": "electric_scooter", "is_reserved": 0, "lon": -77.03148166666666, "is_disabled": 0, "fusion_lat": 0.0, "bike_id": "2849d543c51badee85f78203880c6298", "name": "2849d543c51badee85f78203880c6298", "lat": 38.9089445}, {"rental_uris": {"ios": "https://dc.lft.to/lastmile_qr_scan", "android": "https://dc.lft.to/lastmile_qr_scan"}, "fusion_lon": 0.0, "type": "electric_scooter", "is_reserved": 0, "lon": -76.987768, "is_disabled": 0, "fusion_lat": 0.0, "bike_id": "7112546825afc7e8fd9bb996513dc5d0", "name": "7112546825afc7e8fd9bb996513dc5d0", "lat": 38.910708}, {"rental_uris": {"ios": "https://dc.lft.to/lastmile_qr_scan", "android": "https://dc.lft.to/lastmile_qr_scan"}, "fusion_lon": 0.0, "type": "electric_scooter", "is_reserved": 0, "lon": -77.02276733333333, "is_disabled": 0, "fusion_lat": 0.0, "bike_id": "97bf14307f29310a483d03c2606bf1d2", "name": "97bf14307f29310a483d03c2606bf1d2", "lat": 38.90956033333333}, {"rental_uris": {"ios": "https://dc.lft.to/lastmile_qr_scan", "android": "https://dc.lft.to/lastmile_qr_scan"}, "fusion_lon": 0.0, "type": "electric_scooter", "is_reserved": 0, "lon": -77.07245516666667, "is_disabled": 0, "fusion_lat": 0.0, "bike_id": "f204a68c78f9a622d5afdcc9bb55461b", "name": "f204a68c78f9a622d5afdcc9bb55461b", "lat": 38.9077405}, {"rental_uris": {"ios": "https://dc.lft.to/lastmile_qr_scan", "android": "https://dc.lft.to/lastmile_qr_scan"}, "fusion_lon": 0.0, "type": "electric_scooter", "is_reserved": 0, "lon": -76.98822533333333, "is_disabled": 0, "fusion_lat": 0.0, "bike_id": "d7523a696cc35c85118299221ed12009", "name": "d7523a696cc35c85118299221ed12009", "lat": 38.90066783333333}, {"rental_uris": {"ios": "https://dc.lft.to/lastmile_qr_scan", "android": "https://dc.lft.to/lastmile_qr_scan"}, "fusion_lon": 0.0, "type": "electric_scooter", "is_reserved": 0, "lon": -77.00182116666667, "is_disabled": 0, "fusion_lat": 0.0, "bike_id": "04f2d47c4f4189c8d5cafe6be89e926d", "name": "04f2d47c4f4189c8d5cafe6be89e926d", "lat": 38.900134333333334}, {"rental_uris": {"ios": "https://dc.lft.to/lastmile_qr_scan", "android": "https://dc.lft.to/lastmile_qr_scan"}, "fusion_lon": 0.0, "type": "electric_scooter", "is_reserved": 0, "lon": -77.0214125, "is_disabled": 0, "fusion_lat": 0.0, "bike_id": "ea0ea47fb6d7b852f9658aac8b59da1a", "name": "ea0ea47fb6d7b852f9658aac8b59da1a", "lat": 38.92005833333333}, {"rental_uris": {"ios": "https://dc.lft.to/lastmile_qr_scan", "android": "https://dc.lft.to/lastmile_qr_scan"}, "fusion_lon": 0.0, "type": "electric_scooter", "is_reserved": 0, "lon": -76.97672416666667, "is_disabled": 0, "fusion_lat": 0.0, "bike_id": "892efee29b93105ad4ee546e95bc0aa9", "name": "892efee29b93105ad4ee546e95bc0aa9", "lat": 38.90182716666666}, {"rental_uris": {"ios": "https://dc.lft.to/lastmile_qr_scan", "android": "https://dc.lft.to/lastmile_qr_scan"}, "fusion_lon": 0.0, "type": "electric_scooter", "is_reserved": 0, "lon": -77.01968133333334, "is_disabled": 0, "fusion_lat": 0.0, "bike_id": "61f8f1adee1e9d7601183ae0bda715de", "name": "61f8f1adee1e9d7601183ae0bda715de", "lat": 38.919035666666666}, {"rental_uris": {"ios": "https://dc.lft.to/lastmile_qr_scan", "android": "https://dc.lft.to/lastmile_qr_scan"}, "fusion_lon": 0.0, "type": "electric_scooter", "is_reserved": 0, "lon": -77.031595, "is_disabled": 0, "fusion_lat": 0.0, "bike_id": "075b321614c63ba4db6f315d341c6b74", "name": "075b321614c63ba4db6f315d341c6b74", "lat": 38.901218666666665}, {"rental_uris": {"ios": "https://dc.lft.to/lastmile_qr_scan", "android": "https://dc.lft.to/lastmile_qr_scan"}, "fusion_lon": 0.0, "type": "electric_scooter", "is_reserved": 0, "lon": -76.9956245, "is_disabled": 0, "fusion_lat": 0.0, "bike_id": "7c569b1e15819a4952a11e62856ff4e2", "name": "7c569b1e15819a4952a11e62856ff4e2", "lat": 38.884249833333335}, {"rental_uris": {"ios": "https://dc.lft.to/lastmile_qr_scan", "android": "https://dc.lft.to/lastmile_qr_scan"}, "fusion_lon": 0.0, "type": "electric_scooter", "is_reserved": 0, "lon": -76.99838466666667, "is_disabled": 0, "fusion_lat": 0.0, "bike_id": "282de987016429c2572624e4bc62143c", "name": "282de987016429c2572624e4bc62143c", "lat": 38.90296033333333}, {"rental_uris": {"ios": "https://dc.lft.to/lastmile_qr_scan", "android": "https://dc.lft.to/lastmile_qr_scan"}, "fusion_lon": 0.0, "type": "electric_scooter", "is_reserved": 0, "lon": -77.005317, "is_disabled": 0, "fusion_lat": 0.0, "bike_id": "664453d73062505d140fec165e35b6bc", "name": "664453d73062505d140fec165e35b6bc", "lat": 38.87467816666667}, {"rental_uris": {"ios": "https://dc.lft.to/lastmile_qr_scan", "android": "https://dc.lft.to/lastmile_qr_scan"}, "fusion_lon": 0.0, "type": "electric_scooter", "is_reserved": 0, "lon": -77.03260633333333, "is_disabled": 0, "fusion_lat": 0.0, "bike_id": "3c37e8f58a792efbc0f14520527d9be9", "name": "3c37e8f58a792efbc0f14520527d9be9", "lat": 38.94330733333334}, {"rental_uris": {"ios": "https://dc.lft.to/lastmile_qr_scan", "android": "https://dc.lft.to/lastmile_qr_scan"}, "fusion_lon": 0.0, "type": "electric_scooter", "is_reserved": 0, "lon": -76.983803, "is_disabled": 0, "fusion_lat": 0.0, "bike_id": "1ca88cc30fa37b8a3646666d62cef7d2", "name": "1ca88cc30fa37b8a3646666d62cef7d2", "lat": 38.88712616666667}, {"rental_uris": {"ios": "https://dc.lft.to/lastmile_qr_scan", "android": "https://dc.lft.to/lastmile_qr_scan"}, "fusion_lon": 0.0, "type": "electric_scooter", "is_reserved": 0, "lon": -77.03446116666667, "is_disabled": 0, "fusion_lat": 0.0, "bike_id": "d70e02e8356a5af99b63fd886b5d60ee", "name": "d70e02e8356a5af99b63fd886b5d60ee", "lat": 38.9308675}, {"rental_uris": {"ios": "https://dc.lft.to/lastmile_qr_scan", "android": "https://dc.lft.to/lastmile_qr_scan"}, "fusion_lon": 0.0, "type": "electric_scooter", "is_reserved": 0, "lon": -77.08422533333334, "is_disabled": 0, "fusion_lat": 0.0, "bike_id": "fe67fe50d1acc6474d68167fbcaaf5ba", "name": "fe67fe50d1acc6474d68167fbcaaf5ba", "lat": 38.90817416666667}, {"rental_uris": {"ios": "https://dc.lft.to/lastmile_qr_scan", "android": "https://dc.lft.to/lastmile_qr_scan"}, "fusion_lon": 0.0, "type": "electric_scooter", "is_reserved": 0, "lon": -77.02216233333333, "is_disabled": 0, "fusion_lat": 0.0, "bike_id": "dbfa80b208ff9a267d5f87aaf841c8eb", "name": "dbfa80b208ff9a267d5f87aaf841c8eb", "lat": 38.924675}, {"rental_uris": {"ios": "https://dc.lft.to/lastmile_qr_scan", "android": "https://dc.lft.to/lastmile_qr_scan"}, "fusion_lon": 0.0, "type": "electric_scooter", "is_reserved": 0, "lon": -77.02181683333333, "is_disabled": 0, "fusion_lat": 0.0, "bike_id": "a54af201f3d998132c625b4e6e9a6915", "name": "a54af201f3d998132c625b4e6e9a6915", "lat": 38.919754}, {"rental_uris": {"ios": "https://dc.lft.to/lastmile_qr_scan", "android": "https://dc.lft.to/lastmile_qr_scan"}, "fusion_lon": 0.0, "type": "electric_scooter", "is_reserved": 0, "lon": -77.0435415, "is_disabled": 0, "fusion_lat": 0.0, "bike_id": "ea77521a920d8a852bd62f937e5801cd", "name": "ea77521a920d8a852bd62f937e5801cd", "lat": 38.90464016666667}, {"rental_uris": {"ios": "https://dc.lft.to/lastmile_qr_scan", "android": "https://dc.lft.to/lastmile_qr_scan"}, "fusion_lon": 0.0, "type": "electric_bike", "is_reserved": 0, "lon": -76.9782025, "is_disabled": 0, "fusion_lat": 0.0, "bike_id": "27c4e5663804e358d30ceb1ecfa4c8cf", "name": "27c4e5663804e358d30ceb1ecfa4c8cf", "lat": 38.84610133333334}, {"rental_uris": {"ios": "https://dc.lft.to/lastmile_qr_scan", "android": "https://dc.lft.to/lastmile_qr_scan"}, "fusion_lon": 0.0, "type": "electric_scooter", "is_reserved": 0, "lon": -76.98339033333333, "is_disabled": 0, "fusion_lat": 0.0, "bike_id": "a42566b6560a8ab756d0609090bc4cef", "name": "a42566b6560a8ab756d0609090bc4cef", "lat": 38.887079166666666}, {"rental_uris": {"ios": "https://dc.lft.to/lastmile_qr_scan", "android": "https://dc.lft.to/lastmile_qr_scan"}, "fusion_lon": 0.0, "type": "electric_scooter", "is_reserved": 0, "lon": -77.0326465, "is_disabled": 0, "fusion_lat": 0.0, "bike_id": "36f1d8461e57851b5d124564b0fc6c67", "name": "36f1d8461e57851b5d124564b0fc6c67", "lat": 38.91556583333333}, {"rental_uris": {"ios": "https://dc.lft.to/lastmile_qr_scan", "android": "https://dc.lft.to/lastmile_qr_scan"}, "fusion_lon": 0.0, "type": "electric_scooter", "is_reserved": 0, "lon": -77.0445035, "is_disabled": 0, "fusion_lat": 0.0, "bike_id": "34acb11afa76d0d6a30d068686155ee7", "name": "34acb11afa76d0d6a30d068686155ee7", "lat": 38.900664166666665}, {"rental_uris": {"ios": "https://dc.lft.to/lastmile_qr_scan", "android": "https://dc.lft.to/lastmile_qr_scan"}, "fusion_lon": 0.0, "type": "electric_scooter", "is_reserved": 0, "lon": -77.01213316666667, "is_disabled": 0, "fusion_lat": 0.0, "bike_id": "4e0e8ab14576f0aa1499c29cd43beb09", "name": "4e0e8ab14576f0aa1499c29cd43beb09", "lat": 38.885759}, {"rental_uris": {"ios": "https://dc.lft.to/lastmile_qr_scan", "android": "https://dc.lft.to/lastmile_qr_scan"}, "fusion_lon": 0.0, "type": "electric_scooter", "is_reserved": 0, "lon": -77.01622166666667, "is_disabled": 0, "fusion_lat": 0.0, "bike_id": "490eb316224acbd70bc62164e60012ca", "name": "490eb316224acbd70bc62164e60012ca", "lat": 38.89958883333333}, {"rental_uris": {"ios": "https://dc.lft.to/lastmile_qr_scan", "android": "https://dc.lft.to/lastmile_qr_scan"}, "fusion_lon": 0.0, "type": "electric_scooter", "is_reserved": 0, "lon": -77.0249775, "is_disabled": 0, "fusion_lat": 0.0, "bike_id": "d9c91d71fdda4b4e1aaa4dcc55d2cdd5", "name": "d9c91d71fdda4b4e1aaa4dcc55d2cdd5", "lat": 38.92592466666667}, {"rental_uris": {"ios": "https://dc.lft.to/lastmile_qr_scan", "android": "https://dc.lft.to/lastmile_qr_scan"}, "fusion_lon": 0.0, "type": "electric_scooter", "is_reserved": 0, "lon": -77.00434283333334, "is_disabled": 0, "fusion_lat": 0.0, "bike_id": "f0d7f14b51dee0a3df94c94b927d39f1", "name": "f0d7f14b51dee0a3df94c94b927d39f1", "lat": 38.904007}, {"rental_uris": {"ios": "https://dc.lft.to/lastmile_qr_scan", "android": "https://dc.lft.to/lastmile_qr_scan"}, "fusion_lon": 0.0, "type": "electric_scooter", "is_reserved": 0, "lon": -76.9983245, "is_disabled": 0, "fusion_lat": 0.0, "bike_id": "be84eee24cbb4fa8be24665bf676966c", "name": "be84eee24cbb4fa8be24665bf676966c", "lat": 38.880029666666665}, {"rental_uris": {"ios": "https://dc.lft.to/lastmile_qr_scan", "android": "https://dc.lft.to/lastmile_qr_scan"}, "fusion_lon": 0.0, "type": "electric_scooter", "is_reserved": 0, "lon": -77.0170905, "is_disabled": 0, "fusion_lat": 0.0, "bike_id": "d7668edab127d4a70d8d7e67188a27b6", "name": "d7668edab127d4a70d8d7e67188a27b6", "lat": 38.9050675}, {"rental_uris": {"ios": "https://dc.lft.to/lastmile_qr_scan", "android": "https://dc.lft.to/lastmile_qr_scan"}, "fusion_lon": 0.0, "type": "electric_scooter", "is_reserved": 0, "lon": -77.02938883333333, "is_disabled": 0, "fusion_lat": 0.0, "bike_id": "74d0a17613557f2d2bc7b4587f25034b", "name": "74d0a17613557f2d2bc7b4587f25034b", "lat": 38.8991695}, {"rental_uris": {"ios": "https://dc.lft.to/lastmile_qr_scan", "android": "https://dc.lft.to/lastmile_qr_scan"}, "fusion_lon": 0.0, "type": "electric_scooter", "is_reserved": 0, "lon": -76.99498433333333, "is_disabled": 0, "fusion_lat": 0.0, "bike_id": "fe372e9dca3624afdfa43af11f0cf6bd", "name": "fe372e9dca3624afdfa43af11f0cf6bd", "lat": 38.9270015}, {"rental_uris": {"ios": "https://dc.lft.to/lastmile_qr_scan", "android": "https://dc.lft.to/lastmile_qr_scan"}, "fusion_lon": 0.0, "type": "electric_bike", "is_reserved": 0, "lon": -77.1140965, "is_disabled": 0, "fusion_lat": 0.0, "bike_id": "c733349ac5cf4d30eab857f83218e5a8", "name": "c733349ac5cf4d30eab857f83218e5a8", "lat": 38.852441666666664}, {"rental_uris": {"ios": "https://dc.lft.to/lastmile_qr_scan", "android": "https://dc.lft.to/lastmile_qr_scan"}, "fusion_lon": 0.0, "type": "electric_scooter", "is_reserved": 0, "lon": -76.934836, "is_disabled": 0, "fusion_lat": 0.0, "bike_id": "8447e768955bbb8df519ec0327427285", "name": "8447e768955bbb8df519ec0327427285", "lat": 38.883058}, {"rental_uris": {"ios": "https://dc.lft.to/lastmile_qr_scan", "android": "https://dc.lft.to/lastmile_qr_scan"}, "fusion_lon": 0.0, "type": "electric_scooter", "is_reserved": 0, "lon": -77.0025435, "is_disabled": 0, "fusion_lat": 0.0, "bike_id": "e0bab9e0428e7261cc1fa5dd8deaf71e", "name": "e0bab9e0428e7261cc1fa5dd8deaf71e", "lat": 38.90115983333333}, {"rental_uris": {"ios": "https://dc.lft.to/lastmile_qr_scan", "android": "https://dc.lft.to/lastmile_qr_scan"}, "fusion_lon": 0.0, "type": "electric_scooter", "is_reserved": 0, "lon": -77.032777, "is_disabled": 0, "fusion_lat": 0.0, "bike_id": "2cb4303a972292a2da361576f6baea17", "name": "2cb4303a972292a2da361576f6baea17", "lat": 38.936218333333336}, {"rental_uris": {"ios": "https://dc.lft.to/lastmile_qr_scan", "android": "https://dc.lft.to/lastmile_qr_scan"}, "fusion_lon": 0.0, "type": "electric_scooter", "is_reserved": 0, "lon": -76.9961365, "is_disabled": 0, "fusion_lat": 0.0, "bike_id": "853bf497505270bc5ec9859b087f8972", "name": "853bf497505270bc5ec9859b087f8972", "lat": 38.8872465}, {"rental_uris": {"ios": "https://dc.lft.to/lastmile_qr_scan", "android": "https://dc.lft.to/lastmile_qr_scan"}, "fusion_lon": 0.0, "type": "electric_scooter", "is_reserved": 0, "lon": -77.022845, "is_disabled": 0, "fusion_lat": 0.0, "bike_id": "1d542d24c695ae7d4f7a0ef889b235bc", "name": "1d542d24c695ae7d4f7a0ef889b235bc", "lat": 38.92684216666667}, {"rental_uris": {"ios": "https://dc.lft.to/lastmile_qr_scan", "android": "https://dc.lft.to/lastmile_qr_scan"}, "fusion_lon": 0.0, "type": "electric_scooter", "is_reserved": 0, "lon": -77.003761, "is_disabled": 0, "fusion_lat": 0.0, "bike_id": "608faa4a6029852b7d159f4fb34825a2", "name": "608faa4a6029852b7d159f4fb34825a2", "lat": 38.8763325}, {"rental_uris": {"ios": "https://dc.lft.to/lastmile_qr_scan", "android": "https://dc.lft.to/lastmile_qr_scan"}, "fusion_lon": 0.0, "type": "electric_scooter", "is_reserved": 0, "lon": -76.93470116666667, "is_disabled": 0, "fusion_lat": 0.0, "bike_id": "5f2aafd8b1afa576d18b769c5c754d95", "name": "5f2aafd8b1afa576d18b769c5c754d95", "lat": 38.908344666666665}, {"rental_uris": {"ios": "https://dc.lft.to/lastmile_qr_scan", "android": "https://dc.lft.to/lastmile_qr_scan"}, "fusion_lon": 0.0, "type": "electric_scooter", "is_reserved": 0, "lon": -77.0211615, "is_disabled": 0, "fusion_lat": 0.0, "bike_id": "a86cd3e7e8ca764e11c159930af98512", "name": "a86cd3e7e8ca764e11c159930af98512", "lat": 38.9173785}, {"rental_uris": {"ios": "https://dc.lft.to/lastmile_qr_scan", "android": "https://dc.lft.to/lastmile_qr_scan"}, "fusion_lon": 0.0, "type": "electric_scooter", "is_reserved": 0, "lon": -77.03662666666666, "is_disabled": 0, "fusion_lat": 0.0, "bike_id": "150792e0dedd42aea0c152fe5d23053e", "name": "150792e0dedd42aea0c152fe5d23053e", "lat": 38.9223765}, {"rental_uris": {"ios": "https://dc.lft.to/lastmile_qr_scan", "android": "https://dc.lft.to/lastmile_qr_scan"}, "fusion_lon": 0.0, "type": "electric_bike", "is_reserved": 0, "lon": -76.90020483333333, "is_disabled": 0, "fusion_lat": 0.0, "bike_id": "91a0ebd2e12cde5ddc85e47a426feaa0", "name": "91a0ebd2e12cde5ddc85e47a426feaa0", "lat": 39.00648416666667}, {"rental_uris": {"ios": "https://dc.lft.to/lastmile_qr_scan", "android": "https://dc.lft.to/lastmile_qr_scan"}, "fusion_lon": 0.0, "type": "electric_scooter", "is_reserved": 0, "lon": -77.0467795, "is_disabled": 0, "fusion_lat": 0.0, "bike_id": "b261c11bbb1dde9fbd2218e84f6c4516", "name": "b261c11bbb1dde9fbd2218e84f6c4516", "lat": 38.8974665}, {"rental_uris": {"ios": "https://dc.lft.to/lastmile_qr_scan", "android": "https://dc.lft.to/lastmile_qr_scan"}, "fusion_lon": 0.0, "type": "electric_scooter", "is_reserved": 0, "lon": -77.03176716666667, "is_disabled": 0, "fusion_lat": 0.0, "bike_id": "1554e12650b4067a20d0cefc63903b58", "name": "1554e12650b4067a20d0cefc63903b58", "lat": 38.916504833333335}, {"rental_uris": {"ios": "https://dc.lft.to/lastmile_qr_scan", "android": "https://dc.lft.to/lastmile_qr_scan"}, "fusion_lon": 0.0, "type": "electric_scooter", "is_reserved": 0, "lon": -77.00494916666666, "is_disabled": 0, "fusion_lat": 0.0, "bike_id": "b699498b61feba3fce4a200172a4a1c1", "name": "b699498b61feba3fce4a200172a4a1c1", "lat": 38.878336}, {"rental_uris": {"ios": "https://dc.lft.to/lastmile_qr_scan", "android": "https://dc.lft.to/lastmile_qr_scan"}, "fusion_lon": 0.0, "type": "electric_scooter", "is_reserved": 0, "lon": -77.03349833333333, "is_disabled": 0, "fusion_lat": 0.0, "bike_id": "238f1eee6a227132d92cb8fd35496605", "name": "238f1eee6a227132d92cb8fd35496605", "lat": 38.895294666666665}, {"rental_uris": {"ios": "https://dc.lft.to/lastmile_qr_scan", "android": "https://dc.lft.to/lastmile_qr_scan"}, "fusion_lon": 0.0, "type": "electric_scooter", "is_reserved": 0, "lon": -77.00538783333333, "is_disabled": 0, "fusion_lat": 0.0, "bike_id": "f116325ba168ecaadcc969dc5127d743", "name": "f116325ba168ecaadcc969dc5127d743", "lat": 38.875442}, {"rental_uris": {"ios": "https://dc.lft.to/lastmile_qr_scan", "android": "https://dc.lft.to/lastmile_qr_scan"}, "fusion_lon": 0.0, "type": "electric_scooter", "is_reserved": 0, "lon": -77.037396, "is_disabled": 0, "fusion_lat": 0.0, "bike_id": "969c0a071ceef8e20b37e8ebc4e9e48b", "name": "969c0a071ceef8e20b37e8ebc4e9e48b", "lat": 38.92587983333333}, {"rental_uris": {"ios": "https://dc.lft.to/lastmile_qr_scan", "android": "https://dc.lft.to/lastmile_qr_scan"}, "fusion_lon": 0.0, "type": "electric_scooter", "is_reserved": 0, "lon": -76.98546483333334, "is_disabled": 0, "fusion_lat": 0.0, "bike_id": "1c98bf6dcb695bad5095cf6b7d53b915", "name": "1c98bf6dcb695bad5095cf6b7d53b915", "lat": 38.88605866666666}, {"rental_uris": {"ios": "https://dc.lft.to/lastmile_qr_scan", "android": "https://dc.lft.to/lastmile_qr_scan"}, "fusion_lon": 0.0, "type": "electric_scooter", "is_reserved": 0, "lon": -77.03853866666667, "is_disabled": 0, "fusion_lat": 0.0, "bike_id": "4135b4fe41ca0fd7a65a892eff27a815", "name": "4135b4fe41ca0fd7a65a892eff27a815", "lat": 38.91659533333333}, {"rental_uris": {"ios": "https://dc.lft.to/lastmile_qr_scan", "android": "https://dc.lft.to/lastmile_qr_scan"}, "fusion_lon": 0.0, "type": "electric_scooter", "is_reserved": 0, "lon": -77.0279565, "is_disabled": 0, "fusion_lat": 0.0, "bike_id": "b885f4f5ff5f592d4c5ee1f403e0d35a", "name": "b885f4f5ff5f592d4c5ee1f403e0d35a", "lat": 38.90478783333333}, {"rental_uris": {"ios": "https://dc.lft.to/lastmile_qr_scan", "android": "https://dc.lft.to/lastmile_qr_scan"}, "fusion_lon": 0.0, "type": "electric_scooter", "is_reserved": 0, "lon": -76.99346683333333, "is_disabled": 0, "fusion_lat": 0.0, "bike_id": "38b15d07a27e79d9236d6ebac6702917", "name": "38b15d07a27e79d9236d6ebac6702917", "lat": 38.88121}, {"rental_uris": {"ios": "https://dc.lft.to/lastmile_qr_scan", "android": "https://dc.lft.to/lastmile_qr_scan"}, "fusion_lon": 0.0, "type": "electric_scooter", "is_reserved": 0, "lon": -76.99569333333334, "is_disabled": 0, "fusion_lat": 0.0, "bike_id": "1860a9ceeeaa687565d5bcbb1a396d79", "name": "1860a9ceeeaa687565d5bcbb1a396d79", "lat": 38.862649166666664}, {"rental_uris": {"ios": "https://dc.lft.to/lastmile_qr_scan", "android": "https://dc.lft.to/lastmile_qr_scan"}, "fusion_lon": 0.0, "type": "electric_scooter", "is_reserved": 0, "lon": -77.02538916666667, "is_disabled": 0, "fusion_lat": 0.0, "bike_id": "5683a45b62060342588f603ca557cb81", "name": "5683a45b62060342588f603ca557cb81", "lat": 38.9207785}, {"rental_uris": {"ios": "https://dc.lft.to/lastmile_qr_scan", "android": "https://dc.lft.to/lastmile_qr_scan"}, "fusion_lon": 0.0, "type": "electric_scooter", "is_reserved": 0, "lon": -77.02109766666666, "is_disabled": 0, "fusion_lat": 0.0, "bike_id": "96bf97590f3bcdfa5b9d7a6d71589d62", "name": "96bf97590f3bcdfa5b9d7a6d71589d62", "lat": 38.9061105}, {"rental_uris": {"ios": "https://dc.lft.to/lastmile_qr_scan", "android": "https://dc.lft.to/lastmile_qr_scan"}, "fusion_lon": 0.0, "type": "electric_scooter", "is_reserved": 0, "lon": -77.042154, "is_disabled": 0, "fusion_lat": 0.0, "bike_id": "6346e6740fec4c16276d3a8f47226eec", "name": "6346e6740fec4c16276d3a8f47226eec", "lat": 38.92103483333333}, {"rental_uris": {"ios": "https://dc.lft.to/lastmile_qr_scan", "android": "https://dc.lft.to/lastmile_qr_scan"}, "fusion_lon": 0.0, "type": "electric_bike", "is_reserved": 0, "lon": -76.99874083333333, "is_disabled": 0, "fusion_lat": 0.0, "bike_id": "1e101c524f13d9e4b4560ed88ad43b43", "name": "1e101c524f13d9e4b4560ed88ad43b43", "lat": 38.932211}, {"rental_uris": {"ios": "https://dc.lft.to/lastmile_qr_scan", "android": "https://dc.lft.to/lastmile_qr_scan"}, "fusion_lon": 0.0, "type": "electric_bike", "is_reserved": 0, "lon": -76.9794485, "is_disabled": 0, "fusion_lat": 0.0, "bike_id": "b566319746cb52e9501e8879e9be7dca", "name": "b566319746cb52e9501e8879e9be7dca", "lat": 38.92033}, {"rental_uris": {"ios": "https://dc.lft.to/lastmile_qr_scan", "android": "https://dc.lft.to/lastmile_qr_scan"}, "fusion_lon": 0.0, "type": "electric_bike", "is_reserved": 0, "lon": -77.09623, "is_disabled": 0, "fusion_lat": 0.0, "bike_id": "37710024bda005e8e7d64a85a0ae6548", "name": "37710024bda005e8e7d64a85a0ae6548", "lat": 38.952477333333334}, {"rental_uris": {"ios": "https://dc.lft.to/lastmile_qr_scan", "android": "https://dc.lft.to/lastmile_qr_scan"}, "fusion_lon": 0.0, "type": "electric_scooter", "is_reserved": 0, "lon": -77.02477533333334, "is_disabled": 0, "fusion_lat": 0.0, "bike_id": "a7c187f3ace72a619c00123ca0bc2234", "name": "a7c187f3ace72a619c00123ca0bc2234", "lat": 38.9180955}, {"rental_uris": {"ios": "https://dc.lft.to/lastmile_qr_scan", "android": "https://dc.lft.to/lastmile_qr_scan"}, "fusion_lon": 0.0, "type": "electric_scooter", "is_reserved": 0, "lon": -77.05346533333334, "is_disabled": 0, "fusion_lat": 0.0, "bike_id": "73652468baaefbfe54b5b808c50635d6", "name": "73652468baaefbfe54b5b808c50635d6", "lat": 38.904508}, {"rental_uris": {"ios": "https://dc.lft.to/lastmile_qr_scan", "android": "https://dc.lft.to/lastmile_qr_scan"}, "fusion_lon": 0.0, "type": "electric_bike", "is_reserved": 0, "lon": -76.9906235, "is_disabled": 0, "fusion_lat": 0.0, "bike_id": "346f271eb4a988b131351b320f66dde1", "name": "346f271eb4a988b131351b320f66dde1", "lat": 38.9201185}, {"rental_uris": {"ios": "https://dc.lft.to/lastmile_qr_scan", "android": "https://dc.lft.to/lastmile_qr_scan"}, "fusion_lon": 0.0, "type": "electric_scooter", "is_reserved": 0, "lon": -77.0319185, "is_disabled": 0, "fusion_lat": 0.0, "bike_id": "0da9a0ffcec197e2aefafede92a8293e", "name": "0da9a0ffcec197e2aefafede92a8293e", "lat": 38.9173385}, {"rental_uris": {"ios": "https://dc.lft.to/lastmile_qr_scan", "android": "https://dc.lft.to/lastmile_qr_scan"}, "fusion_lon": 0.0, "type": "electric_bike", "is_reserved": 0, "lon": -77.0638095, "is_disabled": 0, "fusion_lat": 0.0, "bike_id": "1f4be6c0119be2cf4c4744ccf34a92de", "name": "1f4be6c0119be2cf4c4744ccf34a92de", "lat": 38.84292416666667}, {"rental_uris": {"ios": "https://dc.lft.to/lastmile_qr_scan", "android": "https://dc.lft.to/lastmile_qr_scan"}, "fusion_lon": 0.0, "type": "electric_scooter", "is_reserved": 0, "lon": -77.0639805, "is_disabled": 0, "fusion_lat": 0.0, "bike_id": "edb2bcfc200c7fa5941c2af9f4508303", "name": "edb2bcfc200c7fa5941c2af9f4508303", "lat": 38.9085345}, {"rental_uris": {"ios": "https://dc.lft.to/lastmile_qr_scan", "android": "https://dc.lft.to/lastmile_qr_scan"}, "fusion_lon": 0.0, "type": "electric_scooter", "is_reserved": 0, "lon": -77.0418165, "is_disabled": 0, "fusion_lat": 0.0, "bike_id": "abac3825001b02e979acfec680858202", "name": "abac3825001b02e979acfec680858202", "lat": 38.91345916666667}, {"rental_uris": {"ios": "https://dc.lft.to/lastmile_qr_scan", "android": "https://dc.lft.to/lastmile_qr_scan"}, "fusion_lon": 0.0, "type": "electric_scooter", "is_reserved": 0, "lon": -77.0241475, "is_disabled": 0, "fusion_lat": 0.0, "bike_id": "c3e0799afb6f0d542039e2d1bbbf9908", "name": "c3e0799afb6f0d542039e2d1bbbf9908", "lat": 38.909622166666665}, {"rental_uris": {"ios": "https://dc.lft.to/lastmile_qr_scan", "android": "https://dc.lft.to/lastmile_qr_scan"}, "fusion_lon": 0.0, "type": "electric_bike", "is_reserved": 0, "lon": -77.04642166666666, "is_disabled": 0, "fusion_lat": 0.0, "bike_id": "582048dc71be9e152acb210d06d68280", "name": "582048dc71be9e152acb210d06d68280", "lat": 38.8154205}, {"rental_uris": {"ios": "https://dc.lft.to/lastmile_qr_scan", "android": "https://dc.lft.to/lastmile_qr_scan"}, "fusion_lon": 0.0, "type": "electric_scooter", "is_reserved": 0, "lon": -77.04175566666666, "is_disabled": 0, "fusion_lat": 0.0, "bike_id": "07f47fa6f405b2292e4bf327be168fb5", "name": "07f47fa6f405b2292e4bf327be168fb5", "lat": 38.925503666666664}, {"rental_uris": {"ios": "https://dc.lft.to/lastmile_qr_scan", "android": "https://dc.lft.to/lastmile_qr_scan"}, "fusion_lon": 0.0, "type": "electric_scooter", "is_reserved": 0, "lon": -77.03374483333333, "is_disabled": 0, "fusion_lat": 0.0, "bike_id": "66fdaac4bbe8def1512a4d27a2878cd6", "name": "66fdaac4bbe8def1512a4d27a2878cd6", "lat": 38.92241716666667}, {"rental_uris": {"ios": "https://dc.lft.to/lastmile_qr_scan", "android": "https://dc.lft.to/lastmile_qr_scan"}, "fusion_lon": 0.0, "type": "electric_scooter", "is_reserved": 0, "lon": -77.05034666666667, "is_disabled": 0, "fusion_lat": 0.0, "bike_id": "fbf68725267a03c5a070986ee40651f4", "name": "fbf68725267a03c5a070986ee40651f4", "lat": 38.90081266666667}, {"rental_uris": {"ios": "https://dc.lft.to/lastmile_qr_scan", "android": "https://dc.lft.to/lastmile_qr_scan"}, "fusion_lon": 0.0, "type": "electric_scooter", "is_reserved": 0, "lon": -76.97855516666667, "is_disabled": 0, "fusion_lat": 0.0, "bike_id": "43e121f4ecbc4ccad00de541d72bb65d", "name": "43e121f4ecbc4ccad00de541d72bb65d", "lat": 38.897233166666666}, {"rental_uris": {"ios": "https://dc.lft.to/lastmile_qr_scan", "android": "https://dc.lft.to/lastmile_qr_scan"}, "fusion_lon": 0.0, "type": "electric_scooter", "is_reserved": 0, "lon": -77.03291383333334, "is_disabled": 0, "fusion_lat": 0.0, "bike_id": "f9734e80499431e37e02a3714270ffe8", "name": "f9734e80499431e37e02a3714270ffe8", "lat": 38.9324565}, {"rental_uris": {"ios": "https://dc.lft.to/lastmile_qr_scan", "android": "https://dc.lft.to/lastmile_qr_scan"}, "fusion_lon": 0.0, "type": "electric_scooter", "is_reserved": 0, "lon": -77.03467533333334, "is_disabled": 0, "fusion_lat": 0.0, "bike_id": "5f87c4bec0bd772c989d104b373e6047", "name": "5f87c4bec0bd772c989d104b373e6047", "lat": 38.902308833333336}, {"rental_uris": {"ios": "https://dc.lft.to/lastmile_qr_scan", "android": "https://dc.lft.to/lastmile_qr_scan"}, "fusion_lon": 0.0, "type": "electric_scooter", "is_reserved": 0, "lon": -77.03782033333333, "is_disabled": 0, "fusion_lat": 0.0, "bike_id": "6b359e9045cb27e90766d2e02c81cdb6", "name": "6b359e9045cb27e90766d2e02c81cdb6", "lat": 38.9301775}, {"rental_uris": {"ios": "https://dc.lft.to/lastmile_qr_scan", "android": "https://dc.lft.to/lastmile_qr_scan"}, "fusion_lon": 0.0, "type": "electric_scooter", "is_reserved": 0, "lon": -77.04494133333333, "is_disabled": 0, "fusion_lat": 0.0, "bike_id": "fc956c50f8979ce7c61352f13a12808e", "name": "fc956c50f8979ce7c61352f13a12808e", "lat": 38.90004666666667}, {"rental_uris": {"ios": "https://dc.lft.to/lastmile_qr_scan", "android": "https://dc.lft.to/lastmile_qr_scan"}, "fusion_lon": 0.0, "type": "electric_scooter", "is_reserved": 0, "lon": -77.02087066666667, "is_disabled": 0, "fusion_lat": 0.0, "bike_id": "03bc5411f0b0846eb5c7b761f19c313e", "name": "03bc5411f0b0846eb5c7b761f19c313e", "lat": 38.88500466666667}, {"rental_uris": {"ios": "https://dc.lft.to/lastmile_qr_scan", "android": "https://dc.lft.to/lastmile_qr_scan"}, "fusion_lon": 0.0, "type": "electric_scooter", "is_reserved": 0, "lon": -77.03877216666666, "is_disabled": 0, "fusion_lat": 0.0, "bike_id": "d67f22141ba3c0813447ffa0c508b1d4", "name": "d67f22141ba3c0813447ffa0c508b1d4", "lat": 38.93124}, {"rental_uris": {"ios": "https://dc.lft.to/lastmile_qr_scan", "android": "https://dc.lft.to/lastmile_qr_scan"}, "fusion_lon": 0.0, "type": "electric_scooter", "is_reserved": 0, "lon": -77.06002216666667, "is_disabled": 0, "fusion_lat": 0.0, "bike_id": "bec5be64f74a02e98fdfccc2ba529b5c", "name": "bec5be64f74a02e98fdfccc2ba529b5c", "lat": 38.92706366666667}, {"rental_uris": {"ios": "https://dc.lft.to/lastmile_qr_scan", "android": "https://dc.lft.to/lastmile_qr_scan"}, "fusion_lon": 0.0, "type": "electric_scooter", "is_reserved": 0, "lon": -77.02294783333333, "is_disabled": 0, "fusion_lat": 0.0, "bike_id": "63998526c98df7231cb6ecf90aac7057", "name": "63998526c98df7231cb6ecf90aac7057", "lat": 38.9182315}, {"rental_uris": {"ios": "https://dc.lft.to/lastmile_qr_scan", "android": "https://dc.lft.to/lastmile_qr_scan"}, "fusion_lon": 0.0, "type": "electric_scooter", "is_reserved": 0, "lon": -77.04459466666667, "is_disabled": 0, "fusion_lat": 0.0, "bike_id": "a881d313502668ef310f43706c4ada5d", "name": "a881d313502668ef310f43706c4ada5d", "lat": 38.91544183333333}, {"rental_uris": {"ios": "https://dc.lft.to/lastmile_qr_scan", "android": "https://dc.lft.to/lastmile_qr_scan"}, "fusion_lon": 0.0, "type": "electric_scooter", "is_reserved": 0, "lon": -76.98836016666667, "is_disabled": 0, "fusion_lat": 0.0, "bike_id": "89c2f756f7f9d89c2e5b2339a12c7df2", "name": "89c2f756f7f9d89c2e5b2339a12c7df2", "lat": 38.90039383333333}, {"rental_uris": {"ios": "https://dc.lft.to/lastmile_qr_scan", "android": "https://dc.lft.to/lastmile_qr_scan"}, "fusion_lon": 0.0, "type": "electric_scooter", "is_reserved": 0, "lon": -77.04328316666667, "is_disabled": 0, "fusion_lat": 0.0, "bike_id": "d0aa666d44ade99478ef7589c3787a5b", "name": "d0aa666d44ade99478ef7589c3787a5b", "lat": 38.927981333333335}, {"rental_uris": {"ios": "https://dc.lft.to/lastmile_qr_scan", "android": "https://dc.lft.to/lastmile_qr_scan"}, "fusion_lon": 0.0, "type": "electric_scooter", "is_reserved": 0, "lon": -77.01783066666667, "is_disabled": 0, "fusion_lat": 0.0, "bike_id": "8f7ae9a929a9318e23159df895cbc79e", "name": "8f7ae9a929a9318e23159df895cbc79e", "lat": 38.95581216666667}, {"rental_uris": {"ios": "https://dc.lft.to/lastmile_qr_scan", "android": "https://dc.lft.to/lastmile_qr_scan"}, "fusion_lon": 0.0, "type": "electric_scooter", "is_reserved": 0, "lon": -77.02041866666667, "is_disabled": 0, "fusion_lat": 0.0, "bike_id": "fe6c5919a24537408eb92b69d8bfcb51", "name": "fe6c5919a24537408eb92b69d8bfcb51", "lat": 38.92200016666666}, {"rental_uris": {"ios": "https://dc.lft.to/lastmile_qr_scan", "android": "https://dc.lft.to/lastmile_qr_scan"}, "fusion_lon": 0.0, "type": "electric_scooter", "is_reserved": 0, "lon": -77.07871283333333, "is_disabled": 0, "fusion_lat": 0.0, "bike_id": "07257e26005cc81a19205520050d17db", "name": "07257e26005cc81a19205520050d17db", "lat": 38.919503666666664}, {"rental_uris": {"ios": "https://dc.lft.to/lastmile_qr_scan", "android": "https://dc.lft.to/lastmile_qr_scan"}, "fusion_lon": 0.0, "type": "electric_scooter", "is_reserved": 0, "lon": -77.04353016666667, "is_disabled": 0, "fusion_lat": 0.0, "bike_id": "8272438ee20883630e2bc9852a7f5a7b", "name": "8272438ee20883630e2bc9852a7f5a7b", "lat": 38.9214115}, {"rental_uris": {"ios": "https://dc.lft.to/lastmile_qr_scan", "android": "https://dc.lft.to/lastmile_qr_scan"}, "fusion_lon": 0.0, "type": "electric_scooter", "is_reserved": 0, "lon": -76.9469035, "is_disabled": 0, "fusion_lat": 0.0, "bike_id": "ea065fba69201a70ea2079524d6748ef", "name": "ea065fba69201a70ea2079524d6748ef", "lat": 38.8974695}, {"rental_uris": {"ios": "https://dc.lft.to/lastmile_qr_scan", "android": "https://dc.lft.to/lastmile_qr_scan"}, "fusion_lon": 0.0, "type": "electric_scooter", "is_reserved": 0, "lon": -77.035019, "is_disabled": 0, "fusion_lat": 0.0, "bike_id": "8aa8af03fa8d00ab9fe6e82e1d34bc4e", "name": "8aa8af03fa8d00ab9fe6e82e1d34bc4e", "lat": 38.916972333333334}, {"rental_uris": {"ios": "https://dc.lft.to/lastmile_qr_scan", "android": "https://dc.lft.to/lastmile_qr_scan"}, "fusion_lon": 0.0, "type": "electric_bike", "is_reserved": 0, "lon": -77.03687483333333, "is_disabled": 0, "fusion_lat": 0.0, "bike_id": "a766ab85501ec3ba0bc8f2b7e612f4c0", "name": "a766ab85501ec3ba0bc8f2b7e612f4c0", "lat": 39.0264205}, {"rental_uris": {"ios": "https://dc.lft.to/lastmile_qr_scan", "android": "https://dc.lft.to/lastmile_qr_scan"}, "fusion_lon": 0.0, "type": "electric_scooter", "is_reserved": 0, "lon": -77.03425966666667, "is_disabled": 0, "fusion_lat": 0.0, "bike_id": "36be33a8c52de75c94f4d03bcd7e6327", "name": "36be33a8c52de75c94f4d03bcd7e6327", "lat": 38.90407883333334}, {"rental_uris": {"ios": "https://dc.lft.to/lastmile_qr_scan", "android": "https://dc.lft.to/lastmile_qr_scan"}, "fusion_lon": 0.0, "type": "electric_scooter", "is_reserved": 0, "lon": -76.99849883333333, "is_disabled": 0, "fusion_lat": 0.0, "bike_id": "a21b970329f1b624aa8ce3d739ef3dbf", "name": "a21b970329f1b624aa8ce3d739ef3dbf", "lat": 38.90112283333333}, {"rental_uris": {"ios": "https://dc.lft.to/lastmile_qr_scan", "android": "https://dc.lft.to/lastmile_qr_scan"}, "fusion_lon": 0.0, "type": "electric_scooter", "is_reserved": 0, "lon": -76.99491766666667, "is_disabled": 0, "fusion_lat": 0.0, "bike_id": "43b28fd7e34b17b03ac7a0b2545f54ca", "name": "43b28fd7e34b17b03ac7a0b2545f54ca", "lat": 38.92575983333333}, {"rental_uris": {"ios": "https://dc.lft.to/lastmile_qr_scan", "android": "https://dc.lft.to/lastmile_qr_scan"}, "fusion_lon": 0.0, "type": "electric_scooter", "is_reserved": 0, "lon": -76.92633766666667, "is_disabled": 0, "fusion_lat": 0.0, "bike_id": "e577b7d3f233e45a656fabf5f3a3d069", "name": "e577b7d3f233e45a656fabf5f3a3d069", "lat": 38.88617716666667}, {"rental_uris": {"ios": "https://dc.lft.to/lastmile_qr_scan", "android": "https://dc.lft.to/lastmile_qr_scan"}, "fusion_lon": 0.0, "type": "electric_scooter", "is_reserved": 0, "lon": -77.0199095, "is_disabled": 0, "fusion_lat": 0.0, "bike_id": "486b2a73f6d48c941e338f68965823d0", "name": "486b2a73f6d48c941e338f68965823d0", "lat": 38.885477333333334}, {"rental_uris": {"ios": "https://dc.lft.to/lastmile_qr_scan", "android": "https://dc.lft.to/lastmile_qr_scan"}, "fusion_lon": 0.0, "type": "electric_scooter", "is_reserved": 0, "lon": -77.02155316666666, "is_disabled": 0, "fusion_lat": 0.0, "bike_id": "cd4228b0365d0c51de283d7bacb4c81f", "name": "cd4228b0365d0c51de283d7bacb4c81f", "lat": 38.91618966666667}, {"rental_uris": {"ios": "https://dc.lft.to/lastmile_qr_scan", "android": "https://dc.lft.to/lastmile_qr_scan"}, "fusion_lon": 0.0, "type": "electric_bike", "is_reserved": 0, "lon": -76.91084166666667, "is_disabled": 0, "fusion_lat": 0.0, "bike_id": "cfd06f43540f1b045dd1cfd91b7318c2", "name": "cfd06f43540f1b045dd1cfd91b7318c2", "lat": 38.998894}, {"rental_uris": {"ios": "https://dc.lft.to/lastmile_qr_scan", "android": "https://dc.lft.to/lastmile_qr_scan"}, "fusion_lon": 0.0, "type": "electric_scooter", "is_reserved": 0, "lon": -76.99096216666666, "is_disabled": 0, "fusion_lat": 0.0, "bike_id": "1d7d342341d1a9c45db0e54136274c46", "name": "1d7d342341d1a9c45db0e54136274c46", "lat": 38.905808}, {"rental_uris": {"ios": "https://dc.lft.to/lastmile_qr_scan", "android": "https://dc.lft.to/lastmile_qr_scan"}, "fusion_lon": 0.0, "type": "electric_bike", "is_reserved": 0, "lon": -76.9457025, "is_disabled": 0, "fusion_lat": 0.0, "bike_id": "da54697fa70a21038f50ba9bc7a9ca3b", "name": "da54697fa70a21038f50ba9bc7a9ca3b", "lat": 38.8661945}, {"rental_uris": {"ios": "https://dc.lft.to/lastmile_qr_scan", "android": "https://dc.lft.to/lastmile_qr_scan"}, "fusion_lon": 0.0, "type": "electric_bike", "is_reserved": 0, "lon": -77.02524083333333, "is_disabled": 0, "fusion_lat": 0.0, "bike_id": "322701032e12a4a57561dc2f972b3c75", "name": "322701032e12a4a57561dc2f972b3c75", "lat": 38.91965733333333}, {"rental_uris": {"ios": "https://dc.lft.to/lastmile_qr_scan", "android": "https://dc.lft.to/lastmile_qr_scan"}, "fusion_lon": 0.0, "type": "electric_scooter", "is_reserved": 0, "lon": -77.06613416666667, "is_disabled": 0, "fusion_lat": 0.0, "bike_id": "8cbc0f73de3e02e3504d031e881180e3", "name": "8cbc0f73de3e02e3504d031e881180e3", "lat": 38.91185333333333}, {"rental_uris": {"ios": "https://dc.lft.to/lastmile_qr_scan", "android": "https://dc.lft.to/lastmile_qr_scan"}, "fusion_lon": 0.0, "type": "electric_scooter", "is_reserved": 0, "lon": -77.04791383333334, "is_disabled": 0, "fusion_lat": 0.0, "bike_id": "1027ca00f151eaac8d776756bac6c2d4", "name": "1027ca00f151eaac8d776756bac6c2d4", "lat": 38.9126915}, {"rental_uris": {"ios": "https://dc.lft.to/lastmile_qr_scan", "android": "https://dc.lft.to/lastmile_qr_scan"}, "fusion_lon": 0.0, "type": "electric_bike", "is_reserved": 0, "lon": -76.97216966666667, "is_disabled": 0, "fusion_lat": 0.0, "bike_id": "36979050859b2d2747eae73335f842d5", "name": "36979050859b2d2747eae73335f842d5", "lat": 38.90034583333333}, {"rental_uris": {"ios": "https://dc.lft.to/lastmile_qr_scan", "android": "https://dc.lft.to/lastmile_qr_scan"}, "fusion_lon": 0.0, "type": "electric_scooter", "is_reserved": 0, "lon": -77.02982933333334, "is_disabled": 0, "fusion_lat": 0.0, "bike_id": "354730cdd2370d6db59adbcee986eec8", "name": "354730cdd2370d6db59adbcee986eec8", "lat": 38.91552333333333}, {"rental_uris": {"ios": "https://dc.lft.to/lastmile_qr_scan", "android": "https://dc.lft.to/lastmile_qr_scan"}, "fusion_lon": 0.0, "type": "electric_scooter", "is_reserved": 0, "lon": -77.07145016666666, "is_disabled": 0, "fusion_lat": 0.0, "bike_id": "db5fe813e6b5efb306c7973da8df7e95", "name": "db5fe813e6b5efb306c7973da8df7e95", "lat": 38.92022216666667}, {"rental_uris": {"ios": "https://dc.lft.to/lastmile_qr_scan", "android": "https://dc.lft.to/lastmile_qr_scan"}, "fusion_lon": 0.0, "type": "electric_scooter", "is_reserved": 0, "lon": -77.02696, "is_disabled": 0, "fusion_lat": 0.0, "bike_id": "94a404a20a5c8bd95031f3c265ba77b0", "name": "94a404a20a5c8bd95031f3c265ba77b0", "lat": 38.972387}, {"rental_uris": {"ios": "https://dc.lft.to/lastmile_qr_scan", "android": "https://dc.lft.to/lastmile_qr_scan"}, "fusion_lon": 0.0, "type": "electric_bike", "is_reserved": 0, "lon": -77.00192166666666, "is_disabled": 0, "fusion_lat": 0.0, "bike_id": "275a7b2628f1942d3a5b033ff2f35f52", "name": "275a7b2628f1942d3a5b033ff2f35f52", "lat": 38.941494166666665}, {"rental_uris": {"ios": "https://dc.lft.to/lastmile_qr_scan", "android": "https://dc.lft.to/lastmile_qr_scan"}, "fusion_lon": 0.0, "type": "electric_scooter", "is_reserved": 0, "lon": -77.07543383333334, "is_disabled": 0, "fusion_lat": 0.0, "bike_id": "d070d25c1b2aeb900c5d2d4adce96d93", "name": "d070d25c1b2aeb900c5d2d4adce96d93", "lat": 38.915309666666666}, {"rental_uris": {"ios": "https://dc.lft.to/lastmile_qr_scan", "android": "https://dc.lft.to/lastmile_qr_scan"}, "fusion_lon": 0.0, "type": "electric_scooter", "is_reserved": 0, "lon": -77.022439, "is_disabled": 0, "fusion_lat": 0.0, "bike_id": "19a6a3fcefc7435e57c2ead1df63c1cc", "name": "19a6a3fcefc7435e57c2ead1df63c1cc", "lat": 38.92461383333333}, {"rental_uris": {"ios": "https://dc.lft.to/lastmile_qr_scan", "android": "https://dc.lft.to/lastmile_qr_scan"}, "fusion_lon": 0.0, "type": "electric_scooter", "is_reserved": 0, "lon": -77.02605383333334, "is_disabled": 0, "fusion_lat": 0.0, "bike_id": "e1be03f604d8081310ee93586f93bf68", "name": "e1be03f604d8081310ee93586f93bf68", "lat": 38.94339266666667}, {"rental_uris": {"ios": "https://dc.lft.to/lastmile_qr_scan", "android": "https://dc.lft.to/lastmile_qr_scan"}, "fusion_lon": 0.0, "type": "electric_scooter", "is_reserved": 0, "lon": -77.02825183333333, "is_disabled": 0, "fusion_lat": 0.0, "bike_id": "1058e21e659b9c89e05f8788a68d25cb", "name": "1058e21e659b9c89e05f8788a68d25cb", "lat": 38.9222135}, {"rental_uris": {"ios": "https://dc.lft.to/lastmile_qr_scan", "android": "https://dc.lft.to/lastmile_qr_scan"}, "fusion_lon": 0.0, "type": "electric_scooter", "is_reserved": 0, "lon": -77.0212275, "is_disabled": 0, "fusion_lat": 0.0, "bike_id": "6443c6e1f12b1c8ce4ae6df836732ab8", "name": "6443c6e1f12b1c8ce4ae6df836732ab8", "lat": 38.92222}, {"rental_uris": {"ios": "https://dc.lft.to/lastmile_qr_scan", "android": "https://dc.lft.to/lastmile_qr_scan"}, "fusion_lon": 0.0, "type": "electric_scooter", "is_reserved": 0, "lon": -77.0259445, "is_disabled": 0, "fusion_lat": 0.0, "bike_id": "867d6abbee8ad37716f92cd190f98eac", "name": "867d6abbee8ad37716f92cd190f98eac", "lat": 38.91691683333333}, {"rental_uris": {"ios": "https://dc.lft.to/lastmile_qr_scan", "android": "https://dc.lft.to/lastmile_qr_scan"}, "fusion_lon": 0.0, "type": "electric_scooter", "is_reserved": 0, "lon": -77.02702233333333, "is_disabled": 0, "fusion_lat": 0.0, "bike_id": "cdcdab9f5b672b0bd4513005164a2f37", "name": "cdcdab9f5b672b0bd4513005164a2f37", "lat": 38.881417166666665}, {"rental_uris": {"ios": "https://dc.lft.to/lastmile_qr_scan", "android": "https://dc.lft.to/lastmile_qr_scan"}, "fusion_lon": 0.0, "type": "electric_scooter", "is_reserved": 0, "lon": -77.0282075, "is_disabled": 0, "fusion_lat": 0.0, "bike_id": "a91dbb94bc830692dd64314cb5a832ea", "name": "a91dbb94bc830692dd64314cb5a832ea", "lat": 38.91606783333334}, {"rental_uris": {"ios": "https://dc.lft.to/lastmile_qr_scan", "android": "https://dc.lft.to/lastmile_qr_scan"}, "fusion_lon": 0.0, "type": "electric_scooter", "is_reserved": 0, "lon": -77.073959, "is_disabled": 0, "fusion_lat": 0.0, "bike_id": "088270477d0d251a0c38ce33d120831d", "name": "088270477d0d251a0c38ce33d120831d", "lat": 38.910197833333335}, {"rental_uris": {"ios": "https://dc.lft.to/lastmile_qr_scan", "android": "https://dc.lft.to/lastmile_qr_scan"}, "fusion_lon": 0.0, "type": "electric_scooter", "is_reserved": 0, "lon": -77.02301783333333, "is_disabled": 0, "fusion_lat": 0.0, "bike_id": "c4ed82e5d2a42d549e1ea8eaf192819e", "name": "c4ed82e5d2a42d549e1ea8eaf192819e", "lat": 38.92673466666667}, {"rental_uris": {"ios": "https://dc.lft.to/lastmile_qr_scan", "android": "https://dc.lft.to/lastmile_qr_scan"}, "fusion_lon": 0.0, "type": "electric_scooter", "is_reserved": 0, "lon": -77.02932566666667, "is_disabled": 0, "fusion_lat": 0.0, "bike_id": "375d83333fda5b6760e648e55b3ee0f6", "name": "375d83333fda5b6760e648e55b3ee0f6", "lat": 38.942678}, {"rental_uris": {"ios": "https://dc.lft.to/lastmile_qr_scan", "android": "https://dc.lft.to/lastmile_qr_scan"}, "fusion_lon": 0.0, "type": "electric_scooter", "is_reserved": 0, "lon": -77.00434333333334, "is_disabled": 0, "fusion_lat": 0.0, "bike_id": "1ad77f31eb7f75f29556eecda0e88487", "name": "1ad77f31eb7f75f29556eecda0e88487", "lat": 38.876413666666664}, {"rental_uris": {"ios": "https://dc.lft.to/lastmile_qr_scan", "android": "https://dc.lft.to/lastmile_qr_scan"}, "fusion_lon": 0.0, "type": "electric_scooter", "is_reserved": 0, "lon": -77.06504, "is_disabled": 0, "fusion_lat": 0.0, "bike_id": "b80a6dec309921ea34e7cdb87c613217", "name": "b80a6dec309921ea34e7cdb87c613217", "lat": 38.90521316666667}, {"rental_uris": {"ios": "https://dc.lft.to/lastmile_qr_scan", "android": "https://dc.lft.to/lastmile_qr_scan"}, "fusion_lon": 0.0, "type": "electric_scooter", "is_reserved": 0, "lon": -77.003754, "is_disabled": 0, "fusion_lat": 0.0, "bike_id": "bcebc928a7ab917865351a509a9cd3f5", "name": "bcebc928a7ab917865351a509a9cd3f5", "lat": 38.907699}, {"rental_uris": {"ios": "https://dc.lft.to/lastmile_qr_scan", "android": "https://dc.lft.to/lastmile_qr_scan"}, "fusion_lon": 0.0, "type": "electric_scooter", "is_reserved": 0, "lon": -77.0399505, "is_disabled": 0, "fusion_lat": 0.0, "bike_id": "876ab2603ba28926bc2252ec34b42355", "name": "876ab2603ba28926bc2252ec34b42355", "lat": 38.91755783333333}, {"rental_uris": {"ios": "https://dc.lft.to/lastmile_qr_scan", "android": "https://dc.lft.to/lastmile_qr_scan"}, "fusion_lon": 0.0, "type": "electric_scooter", "is_reserved": 0, "lon": -77.01205383333334, "is_disabled": 0, "fusion_lat": 0.0, "bike_id": "7de6ba9e5affb46612d39cd90d90aeb8", "name": "7de6ba9e5affb46612d39cd90d90aeb8", "lat": 38.896725}, {"rental_uris": {"ios": "https://dc.lft.to/lastmile_qr_scan", "android": "https://dc.lft.to/lastmile_qr_scan"}, "fusion_lon": 0.0, "type": "electric_scooter", "is_reserved": 0, "lon": -77.04452283333333, "is_disabled": 0, "fusion_lat": 0.0, "bike_id": "01a885c722e87bbeed1591d5348ba065", "name": "01a885c722e87bbeed1591d5348ba065", "lat": 38.91540466666667}, {"rental_uris": {"ios": "https://dc.lft.to/lastmile_qr_scan", "android": "https://dc.lft.to/lastmile_qr_scan"}, "fusion_lon": 0.0, "type": "electric_scooter", "is_reserved": 0, "lon": -77.04042933333334, "is_disabled": 0, "fusion_lat": 0.0, "bike_id": "e6921fedbe330786fa3177d8ec212b5f", "name": "e6921fedbe330786fa3177d8ec212b5f", "lat": 38.924284666666665}, {"rental_uris": {"ios": "https://dc.lft.to/lastmile_qr_scan", "android": "https://dc.lft.to/lastmile_qr_scan"}, "fusion_lon": 0.0, "type": "electric_scooter", "is_reserved": 0, "lon": -77.03260333333333, "is_disabled": 0, "fusion_lat": 0.0, "bike_id": "ae18665d7f7a8516c614a58a4fc7b8e2", "name": "ae18665d7f7a8516c614a58a4fc7b8e2", "lat": 38.914014333333334}, {"rental_uris": {"ios": "https://dc.lft.to/lastmile_qr_scan", "android": "https://dc.lft.to/lastmile_qr_scan"}, "fusion_lon": 0.0, "type": "electric_scooter", "is_reserved": 0, "lon": -77.02129583333334, "is_disabled": 0, "fusion_lat": 0.0, "bike_id": "1864a95901555a145b780b326659ea91", "name": "1864a95901555a145b780b326659ea91", "lat": 38.9211655}, {"rental_uris": {"ios": "https://dc.lft.to/lastmile_qr_scan", "android": "https://dc.lft.to/lastmile_qr_scan"}, "fusion_lon": 0.0, "type": "electric_scooter", "is_reserved": 0, "lon": -77.05587866666667, "is_disabled": 0, "fusion_lat": 0.0, "bike_id": "02a52573d34613925fd524c775c0a1f0", "name": "02a52573d34613925fd524c775c0a1f0", "lat": 38.93605616666667}, {"rental_uris": {"ios": "https://dc.lft.to/lastmile_qr_scan", "android": "https://dc.lft.to/lastmile_qr_scan"}, "fusion_lon": 0.0, "type": "electric_scooter", "is_reserved": 0, "lon": -77.02238966666667, "is_disabled": 0, "fusion_lat": 0.0, "bike_id": "a6a77b9ad0dd36ca6d575cfba00c6c22", "name": "a6a77b9ad0dd36ca6d575cfba00c6c22", "lat": 38.924283}, {"rental_uris": {"ios": "https://dc.lft.to/lastmile_qr_scan", "android": "https://dc.lft.to/lastmile_qr_scan"}, "fusion_lon": 0.0, "type": "electric_scooter", "is_reserved": 0, "lon": -77.02137133333333, "is_disabled": 0, "fusion_lat": 0.0, "bike_id": "883f7e3356295126e4e370df1f54ccba", "name": "883f7e3356295126e4e370df1f54ccba", "lat": 38.924187333333336}, {"rental_uris": {"ios": "https://dc.lft.to/lastmile_qr_scan", "android": "https://dc.lft.to/lastmile_qr_scan"}, "fusion_lon": 0.0, "type": "electric_scooter", "is_reserved": 0, "lon": -77.04430533333333, "is_disabled": 0, "fusion_lat": 0.0, "bike_id": "1399a3bf63e111bb7733a87e5808423c", "name": "1399a3bf63e111bb7733a87e5808423c", "lat": 38.921229333333336}, {"rental_uris": {"ios": "https://dc.lft.to/lastmile_qr_scan", "android": "https://dc.lft.to/lastmile_qr_scan"}, "fusion_lon": 0.0, "type": "electric_scooter", "is_reserved": 0, "lon": -77.0253275, "is_disabled": 0, "fusion_lat": 0.0, "bike_id": "b0eeb2077bb40b65eb48c6d6fcffe2b5", "name": "b0eeb2077bb40b65eb48c6d6fcffe2b5", "lat": 38.901067833333336}, {"rental_uris": {"ios": "https://dc.lft.to/lastmile_qr_scan", "android": "https://dc.lft.to/lastmile_qr_scan"}, "fusion_lon": 0.0, "type": "electric_bike", "is_reserved": 0, "lon": -76.937453, "is_disabled": 0, "fusion_lat": 0.0, "bike_id": "32035f5dfb21d75ecb2b3b3731ca5e27", "name": "32035f5dfb21d75ecb2b3b3731ca5e27", "lat": 38.9037465}, {"rental_uris": {"ios": "https://dc.lft.to/lastmile_qr_scan", "android": "https://dc.lft.to/lastmile_qr_scan"}, "fusion_lon": 0.0, "type": "electric_scooter", "is_reserved": 0, "lon": -77.00816816666666, "is_disabled": 0, "fusion_lat": 0.0, "bike_id": "f89c0e7d9c1c312ed2cf6b3111a13a6e", "name": "f89c0e7d9c1c312ed2cf6b3111a13a6e", "lat": 38.87643083333333}, {"rental_uris": {"ios": "https://dc.lft.to/lastmile_qr_scan", "android": "https://dc.lft.to/lastmile_qr_scan"}, "fusion_lon": 0.0, "type": "electric_bike", "is_reserved": 0, "lon": -76.99700183333333, "is_disabled": 0, "fusion_lat": 0.0, "bike_id": "94ef695e22a0b3bfba23e5ba3e0215ad", "name": "94ef695e22a0b3bfba23e5ba3e0215ad", "lat": 38.83863366666667}, {"rental_uris": {"ios": "https://dc.lft.to/lastmile_qr_scan", "android": "https://dc.lft.to/lastmile_qr_scan"}, "fusion_lon": 0.0, "type": "electric_scooter", "is_reserved": 0, "lon": -77.00353366666667, "is_disabled": 0, "fusion_lat": 0.0, "bike_id": "d218916221bc1bf1d2b2175d40ff7797", "name": "d218916221bc1bf1d2b2175d40ff7797", "lat": 38.882737666666664}, {"rental_uris": {"ios": "https://dc.lft.to/lastmile_qr_scan", "android": "https://dc.lft.to/lastmile_qr_scan"}, "fusion_lon": 0.0, "type": "electric_scooter", "is_reserved": 0, "lon": -77.03235816666667, "is_disabled": 0, "fusion_lat": 0.0, "bike_id": "1e5aea97949aea036bf6c4c9a4db67f4", "name": "1e5aea97949aea036bf6c4c9a4db67f4", "lat": 38.92870766666667}, {"rental_uris": {"ios": "https://dc.lft.to/lastmile_qr_scan", "android": "https://dc.lft.to/lastmile_qr_scan"}, "fusion_lon": 0.0, "type": "electric_scooter", "is_reserved": 0, "lon": -77.0161925, "is_disabled": 0, "fusion_lat": 0.0, "bike_id": "1fd01b4e6cb6f9644fbe5abbb82ae3b6", "name": "1fd01b4e6cb6f9644fbe5abbb82ae3b6", "lat": 38.8995615}, {"rental_uris": {"ios": "https://dc.lft.to/lastmile_qr_scan", "android": "https://dc.lft.to/lastmile_qr_scan"}, "fusion_lon": 0.0, "type": "electric_scooter", "is_reserved": 0, "lon": -77.04637333333334, "is_disabled": 0, "fusion_lat": 0.0, "bike_id": "ddbc516aae5fa01c28587e92990a3c6d", "name": "ddbc516aae5fa01c28587e92990a3c6d", "lat": 38.919224}, {"rental_uris": {"ios": "https://dc.lft.to/lastmile_qr_scan", "android": "https://dc.lft.to/lastmile_qr_scan"}, "fusion_lon": 0.0, "type": "electric_scooter", "is_reserved": 0, "lon": -77.01969983333333, "is_disabled": 0, "fusion_lat": 0.0, "bike_id": "82328bc1d1bc31723b0ea7c210e60eec", "name": "82328bc1d1bc31723b0ea7c210e60eec", "lat": 38.92037333333333}, {"rental_uris": {"ios": "https://dc.lft.to/lastmile_qr_scan", "android": "https://dc.lft.to/lastmile_qr_scan"}, "fusion_lon": 0.0, "type": "electric_scooter", "is_reserved": 0, "lon": -77.0357915, "is_disabled": 0, "fusion_lat": 0.0, "bike_id": "5f54f51cb779ba73d36b00df1bb57220", "name": "5f54f51cb779ba73d36b00df1bb57220", "lat": 38.9086895}, {"rental_uris": {"ios": "https://dc.lft.to/lastmile_qr_scan", "android": "https://dc.lft.to/lastmile_qr_scan"}, "fusion_lon": 0.0, "type": "electric_scooter", "is_reserved": 0, "lon": -77.00742933333333, "is_disabled": 0, "fusion_lat": 0.0, "bike_id": "291bff346bc6cdfaab4e6ac5a4396458", "name": "291bff346bc6cdfaab4e6ac5a4396458", "lat": 38.876683666666665}, {"rental_uris": {"ios": "https://dc.lft.to/lastmile_qr_scan", "android": "https://dc.lft.to/lastmile_qr_scan"}, "fusion_lon": 0.0, "type": "electric_scooter", "is_reserved": 0, "lon": -77.01000566666667, "is_disabled": 0, "fusion_lat": 0.0, "bike_id": "791aeb3c7a87fb0f9f89e2e1773307bb", "name": "791aeb3c7a87fb0f9f89e2e1773307bb", "lat": 38.87942866666667}, {"rental_uris": {"ios": "https://dc.lft.to/lastmile_qr_scan", "android": "https://dc.lft.to/lastmile_qr_scan"}, "fusion_lon": 0.0, "type": "electric_scooter", "is_reserved": 0, "lon": -77.03643783333334, "is_disabled": 0, "fusion_lat": 0.0, "bike_id": "249dd68f54ce4de396c2ca116d8ea90b", "name": "249dd68f54ce4de396c2ca116d8ea90b", "lat": 38.90378316666666}, {"rental_uris": {"ios": "https://dc.lft.to/lastmile_qr_scan", "android": "https://dc.lft.to/lastmile_qr_scan"}, "fusion_lon": 0.0, "type": "electric_bike", "is_reserved": 0, "lon": -77.0705395, "is_disabled": 0, "fusion_lat": 0.0, "bike_id": "5fc9f2ca75060ad71abf0a004e22ce16", "name": "5fc9f2ca75060ad71abf0a004e22ce16", "lat": 38.89758283333333}, {"rental_uris": {"ios": "https://dc.lft.to/lastmile_qr_scan", "android": "https://dc.lft.to/lastmile_qr_scan"}, "fusion_lon": 0.0, "type": "electric_scooter", "is_reserved": 0, "lon": -77.01500633333333, "is_disabled": 0, "fusion_lat": 0.0, "bike_id": "bbaab173e41f41a753d44ddeb99bd41c", "name": "bbaab173e41f41a753d44ddeb99bd41c", "lat": 38.92664083333333}, {"rental_uris": {"ios": "https://dc.lft.to/lastmile_qr_scan", "android": "https://dc.lft.to/lastmile_qr_scan"}, "fusion_lon": 0.0, "type": "electric_scooter", "is_reserved": 0, "lon": -77.0349945, "is_disabled": 0, "fusion_lat": 0.0, "bike_id": "d8cba9565c29958c3a053789b354b785", "name": "d8cba9565c29958c3a053789b354b785", "lat": 38.923388833333334}, {"rental_uris": {"ios": "https://dc.lft.to/lastmile_qr_scan", "android": "https://dc.lft.to/lastmile_qr_scan"}, "fusion_lon": 0.0, "type": "electric_scooter", "is_reserved": 0, "lon": -77.010142, "is_disabled": 0, "fusion_lat": 0.0, "bike_id": "fb9e00b4331d562cd1f10844f3df24d2", "name": "fb9e00b4331d562cd1f10844f3df24d2", "lat": 38.906839166666664}, {"rental_uris": {"ios": "https://dc.lft.to/lastmile_qr_scan", "android": "https://dc.lft.to/lastmile_qr_scan"}, "fusion_lon": 0.0, "type": "electric_scooter", "is_reserved": 0, "lon": -76.98381916666666, "is_disabled": 0, "fusion_lat": 0.0, "bike_id": "e638f15019b1b65d8c305fa0bc68a11c", "name": "e638f15019b1b65d8c305fa0bc68a11c", "lat": 38.88711466666667}, {"rental_uris": {"ios": "https://dc.lft.to/lastmile_qr_scan", "android": "https://dc.lft.to/lastmile_qr_scan"}, "fusion_lon": 0.0, "type": "electric_scooter", "is_reserved": 0, "lon": -77.03078266666667, "is_disabled": 0, "fusion_lat": 0.0, "bike_id": "6ccb0d6c29feb33f14fbea9e3f90f55e", "name": "6ccb0d6c29feb33f14fbea9e3f90f55e", "lat": 38.932956833333336}, {"rental_uris": {"ios": "https://dc.lft.to/lastmile_qr_scan", "android": "https://dc.lft.to/lastmile_qr_scan"}, "fusion_lon": 0.0, "type": "electric_scooter", "is_reserved": 0, "lon": -77.02122183333333, "is_disabled": 0, "fusion_lat": 0.0, "bike_id": "59bd3d08227db34d93cf0f6cc47a37c2", "name": "59bd3d08227db34d93cf0f6cc47a37c2", "lat": 38.921137333333334}, {"rental_uris": {"ios": "https://dc.lft.to/lastmile_qr_scan", "android": "https://dc.lft.to/lastmile_qr_scan"}, "fusion_lon": 0.0, "type": "electric_scooter", "is_reserved": 0, "lon": -77.07242766666667, "is_disabled": 0, "fusion_lat": 0.0, "bike_id": "2e9a65f6b95abd84fc59018d69a30668", "name": "2e9a65f6b95abd84fc59018d69a30668", "lat": 38.907791833333334}, {"rental_uris": {"ios": "https://dc.lft.to/lastmile_qr_scan", "android": "https://dc.lft.to/lastmile_qr_scan"}, "fusion_lon": 0.0, "type": "electric_scooter", "is_reserved": 0, "lon": -77.03207566666667, "is_disabled": 0, "fusion_lat": 0.0, "bike_id": "07f68cde7b853a120d5fb65a01048250", "name": "07f68cde7b853a120d5fb65a01048250", "lat": 38.896601833333335}, {"rental_uris": {"ios": "https://dc.lft.to/lastmile_qr_scan", "android": "https://dc.lft.to/lastmile_qr_scan"}, "fusion_lon": 0.0, "type": "electric_scooter", "is_reserved": 0, "lon": -76.986173, "is_disabled": 0, "fusion_lat": 0.0, "bike_id": "5ae590015b2bdaef422237ea20f9c43e", "name": "5ae590015b2bdaef422237ea20f9c43e", "lat": 38.903487}, {"rental_uris": {"ios": "https://dc.lft.to/lastmile_qr_scan", "android": "https://dc.lft.to/lastmile_qr_scan"}, "fusion_lon": 0.0, "type": "electric_scooter", "is_reserved": 0, "lon": -77.04458716666667, "is_disabled": 0, "fusion_lat": 0.0, "bike_id": "29329389f38e306f10cf539a83dbe640", "name": "29329389f38e306f10cf539a83dbe640", "lat": 38.92330716666667}, {"rental_uris": {"ios": "https://dc.lft.to/lastmile_qr_scan", "android": "https://dc.lft.to/lastmile_qr_scan"}, "fusion_lon": 0.0, "type": "electric_scooter", "is_reserved": 0, "lon": -77.0420815, "is_disabled": 0, "fusion_lat": 0.0, "bike_id": "c3e8849d4f482e0af149cec5de4d1f4f", "name": "c3e8849d4f482e0af149cec5de4d1f4f", "lat": 38.911194333333334}, {"rental_uris": {"ios": "https://dc.lft.to/lastmile_qr_scan", "android": "https://dc.lft.to/lastmile_qr_scan"}, "fusion_lon": 0.0, "type": "electric_scooter", "is_reserved": 0, "lon": -76.977079, "is_disabled": 0, "fusion_lat": 0.0, "bike_id": "8fb1e428d319a7b24562e5c7ebef1035", "name": "8fb1e428d319a7b24562e5c7ebef1035", "lat": 38.885157166666666}, {"rental_uris": {"ios": "https://dc.lft.to/lastmile_qr_scan", "android": "https://dc.lft.to/lastmile_qr_scan"}, "fusion_lon": 0.0, "type": "electric_scooter", "is_reserved": 0, "lon": -77.06908933333334, "is_disabled": 0, "fusion_lat": 0.0, "bike_id": "93d8c999ee8dfd5cfc6442d77c74373e", "name": "93d8c999ee8dfd5cfc6442d77c74373e", "lat": 38.91755066666666}, {"rental_uris": {"ios": "https://dc.lft.to/lastmile_qr_scan", "android": "https://dc.lft.to/lastmile_qr_scan"}, "fusion_lon": 0.0, "type": "electric_scooter", "is_reserved": 0, "lon": -77.01181683333333, "is_disabled": 0, "fusion_lat": 0.0, "bike_id": "b8262acd8cbc1179f1ec0b2b8b9e0779", "name": "b8262acd8cbc1179f1ec0b2b8b9e0779", "lat": 38.90963983333333}, {"rental_uris": {"ios": "https://dc.lft.to/lastmile_qr_scan", "android": "https://dc.lft.to/lastmile_qr_scan"}, "fusion_lon": 0.0, "type": "electric_scooter", "is_reserved": 0, "lon": -77.00069583333334, "is_disabled": 0, "fusion_lat": 0.0, "bike_id": "19aafde7bd1ff2f25d8dcdb7cf87dff4", "name": "19aafde7bd1ff2f25d8dcdb7cf87dff4", "lat": 38.87338183333333}, {"rental_uris": {"ios": "https://dc.lft.to/lastmile_qr_scan", "android": "https://dc.lft.to/lastmile_qr_scan"}, "fusion_lon": 0.0, "type": "electric_scooter", "is_reserved": 0, "lon": -77.03349683333333, "is_disabled": 0, "fusion_lat": 0.0, "bike_id": "66de7ee69cdc66635686dfca70b66fbe", "name": "66de7ee69cdc66635686dfca70b66fbe", "lat": 38.900815}, {"rental_uris": {"ios": "https://dc.lft.to/lastmile_qr_scan", "android": "https://dc.lft.to/lastmile_qr_scan"}, "fusion_lon": 0.0, "type": "electric_scooter", "is_reserved": 0, "lon": -77.04433583333334, "is_disabled": 0, "fusion_lat": 0.0, "bike_id": "538774df55e3cf2feca55f9f42d97106", "name": "538774df55e3cf2feca55f9f42d97106", "lat": 38.918041333333335}, {"rental_uris": {"ios": "https://dc.lft.to/lastmile_qr_scan", "android": "https://dc.lft.to/lastmile_qr_scan"}, "fusion_lon": 0.0, "type": "electric_scooter", "is_reserved": 0, "lon": -77.00067683333333, "is_disabled": 0, "fusion_lat": 0.0, "bike_id": "909e963e623267dd27ee18cbfc787c3c", "name": "909e963e623267dd27ee18cbfc787c3c", "lat": 38.8766525}, {"rental_uris": {"ios": "https://dc.lft.to/lastmile_qr_scan", "android": "https://dc.lft.to/lastmile_qr_scan"}, "fusion_lon": 0.0, "type": "electric_scooter", "is_reserved": 0, "lon": -77.02045166666667, "is_disabled": 0, "fusion_lat": 0.0, "bike_id": "8438de7bc5ced7db5921b2e97dec7bf7", "name": "8438de7bc5ced7db5921b2e97dec7bf7", "lat": 38.92192566666667}, {"rental_uris": {"ios": "https://dc.lft.to/lastmile_qr_scan", "android": "https://dc.lft.to/lastmile_qr_scan"}, "fusion_lon": 0.0, "type": "electric_scooter", "is_reserved": 0, "lon": -77.04152166666667, "is_disabled": 0, "fusion_lat": 0.0, "bike_id": "0b13d762a6df1af07a313557323036a4", "name": "0b13d762a6df1af07a313557323036a4", "lat": 38.917319666666664}, {"rental_uris": {"ios": "https://dc.lft.to/lastmile_qr_scan", "android": "https://dc.lft.to/lastmile_qr_scan"}, "fusion_lon": 0.0, "type": "electric_scooter", "is_reserved": 0, "lon": -77.00451633333333, "is_disabled": 0, "fusion_lat": 0.0, "bike_id": "0ad0b9160ab8b2becc0a8ae7681583cd", "name": "0ad0b9160ab8b2becc0a8ae7681583cd", "lat": 38.917574}, {"rental_uris": {"ios": "https://dc.lft.to/lastmile_qr_scan", "android": "https://dc.lft.to/lastmile_qr_scan"}, "fusion_lon": 0.0, "type": "electric_scooter", "is_reserved": 0, "lon": -77.04236466666667, "is_disabled": 0, "fusion_lat": 0.0, "bike_id": "e4a3ce65afa6a3ed8e1e0e27840a0326", "name": "e4a3ce65afa6a3ed8e1e0e27840a0326", "lat": 38.92431633333333}, {"rental_uris": {"ios": "https://dc.lft.to/lastmile_qr_scan", "android": "https://dc.lft.to/lastmile_qr_scan"}, "fusion_lon": 0.0, "type": "electric_scooter", "is_reserved": 0, "lon": -76.93930583333334, "is_disabled": 0, "fusion_lat": 0.0, "bike_id": "c7bc2f01670fd5de7806b1247402c7b8", "name": "c7bc2f01670fd5de7806b1247402c7b8", "lat": 38.893268166666665}, {"rental_uris": {"ios": "https://dc.lft.to/lastmile_qr_scan", "android": "https://dc.lft.to/lastmile_qr_scan"}, "fusion_lon": 0.0, "type": "electric_scooter", "is_reserved": 0, "lon": -77.02147966666666, "is_disabled": 0, "fusion_lat": 0.0, "bike_id": "dda94231d8d80c2bbc6eedf006186734", "name": "dda94231d8d80c2bbc6eedf006186734", "lat": 38.89983266666667}, {"rental_uris": {"ios": "https://dc.lft.to/lastmile_qr_scan", "android": "https://dc.lft.to/lastmile_qr_scan"}, "fusion_lon": 0.0, "type": "electric_scooter", "is_reserved": 0, "lon": -77.005378, "is_disabled": 0, "fusion_lat": 0.0, "bike_id": "b7374b8156ece08401c45efb4a0397a0", "name": "b7374b8156ece08401c45efb4a0397a0", "lat": 38.875439166666666}, {"rental_uris": {"ios": "https://dc.lft.to/lastmile_qr_scan", "android": "https://dc.lft.to/lastmile_qr_scan"}, "fusion_lon": 0.0, "type": "electric_scooter", "is_reserved": 0, "lon": -77.03840216666667, "is_disabled": 0, "fusion_lat": 0.0, "bike_id": "f34e85f966ad8035199a1387ece4a542", "name": "f34e85f966ad8035199a1387ece4a542", "lat": 38.91108933333334}, {"rental_uris": {"ios": "https://dc.lft.to/lastmile_qr_scan", "android": "https://dc.lft.to/lastmile_qr_scan"}, "fusion_lon": 0.0, "type": "electric_bike", "is_reserved": 0, "lon": -77.23410283333334, "is_disabled": 0, "fusion_lat": 0.0, "bike_id": "06bd48208a72aac96d8a0f3bee5f3528", "name": "06bd48208a72aac96d8a0f3bee5f3528", "lat": 38.8757875}, {"rental_uris": {"ios": "https://dc.lft.to/lastmile_qr_scan", "android": "https://dc.lft.to/lastmile_qr_scan"}, "fusion_lon": 0.0, "type": "electric_scooter", "is_reserved": 0, "lon": -77.04746366666667, "is_disabled": 0, "fusion_lat": 0.0, "bike_id": "8a33e58cb1ec037af8c8c9923d116aa3", "name": "8a33e58cb1ec037af8c8c9923d116aa3", "lat": 38.905222333333334}, {"rental_uris": {"ios": "https://dc.lft.to/lastmile_qr_scan", "android": "https://dc.lft.to/lastmile_qr_scan"}, "fusion_lon": 0.0, "type": "electric_scooter", "is_reserved": 0, "lon": -77.0502285, "is_disabled": 0, "fusion_lat": 0.0, "bike_id": "ea6b16b5b34757949380cde94e28d130", "name": "ea6b16b5b34757949380cde94e28d130", "lat": 38.90094083333334}, {"rental_uris": {"ios": "https://dc.lft.to/lastmile_qr_scan", "android": "https://dc.lft.to/lastmile_qr_scan"}, "fusion_lon": 0.0, "type": "electric_scooter", "is_reserved": 0, "lon": -77.02363183333334, "is_disabled": 0, "fusion_lat": 0.0, "bike_id": "0fd2476b6584cd3c16aca103bb26a481", "name": "0fd2476b6584cd3c16aca103bb26a481", "lat": 38.901993833333336}, {"rental_uris": {"ios": "https://dc.lft.to/lastmile_qr_scan", "android": "https://dc.lft.to/lastmile_qr_scan"}, "fusion_lon": 0.0, "type": "electric_scooter", "is_reserved": 0, "lon": -77.04429683333333, "is_disabled": 0, "fusion_lat": 0.0, "bike_id": "2d0faff429f1dd032392462eb8b88f63", "name": "2d0faff429f1dd032392462eb8b88f63", "lat": 38.9113885}, {"rental_uris": {"ios": "https://dc.lft.to/lastmile_qr_scan", "android": "https://dc.lft.to/lastmile_qr_scan"}, "fusion_lon": 0.0, "type": "electric_scooter", "is_reserved": 0, "lon": -77.03077033333334, "is_disabled": 0, "fusion_lat": 0.0, "bike_id": "e5998becff269abfd309cad08db21125", "name": "e5998becff269abfd309cad08db21125", "lat": 38.89691716666667}, {"rental_uris": {"ios": "https://dc.lft.to/lastmile_qr_scan", "android": "https://dc.lft.to/lastmile_qr_scan"}, "fusion_lon": 0.0, "type": "electric_scooter", "is_reserved": 0, "lon": -77.08037733333333, "is_disabled": 0, "fusion_lat": 0.0, "bike_id": "39349ba0873e89c7523a1b8fbff1a0ed", "name": "39349ba0873e89c7523a1b8fbff1a0ed", "lat": 38.9560175}, {"rental_uris": {"ios": "https://dc.lft.to/lastmile_qr_scan", "android": "https://dc.lft.to/lastmile_qr_scan"}, "fusion_lon": 0.0, "type": "electric_scooter", "is_reserved": 0, "lon": -77.0142835, "is_disabled": 0, "fusion_lat": 0.0, "bike_id": "354e6104fbff8ff82da04bb34918c5e9", "name": "354e6104fbff8ff82da04bb34918c5e9", "lat": 38.955613}, {"rental_uris": {"ios": "https://dc.lft.to/lastmile_qr_scan", "android": "https://dc.lft.to/lastmile_qr_scan"}, "fusion_lon": 0.0, "type": "electric_scooter", "is_reserved": 0, "lon": -77.01868033333334, "is_disabled": 0, "fusion_lat": 0.0, "bike_id": "dd54ae8c60befa9ff9e0c671c06c8f0b", "name": "dd54ae8c60befa9ff9e0c671c06c8f0b", "lat": 38.97373}, {"rental_uris": {"ios": "https://dc.lft.to/lastmile_qr_scan", "android": "https://dc.lft.to/lastmile_qr_scan"}, "fusion_lon": 0.0, "type": "electric_scooter", "is_reserved": 0, "lon": -77.02021883333333, "is_disabled": 0, "fusion_lat": 0.0, "bike_id": "5abeecaba432310e94af1634622d23ce", "name": "5abeecaba432310e94af1634622d23ce", "lat": 38.89454833333333}, {"rental_uris": {"ios": "https://dc.lft.to/lastmile_qr_scan", "android": "https://dc.lft.to/lastmile_qr_scan"}, "fusion_lon": 0.0, "type": "electric_scooter", "is_reserved": 0, "lon": -77.03308833333334, "is_disabled": 0, "fusion_lat": 0.0, "bike_id": "f244ea6186ed6b4b93d31067bb79ee11", "name": "f244ea6186ed6b4b93d31067bb79ee11", "lat": 38.9344075}, {"rental_uris": {"ios": "https://dc.lft.to/lastmile_qr_scan", "android": "https://dc.lft.to/lastmile_qr_scan"}, "fusion_lon": 0.0, "type": "electric_scooter", "is_reserved": 0, "lon": -77.0281745, "is_disabled": 0, "fusion_lat": 0.0, "bike_id": "0aac34ce590c545dc3d91adab08b76ca", "name": "0aac34ce590c545dc3d91adab08b76ca", "lat": 38.902629166666664}, {"rental_uris": {"ios": "https://dc.lft.to/lastmile_qr_scan", "android": "https://dc.lft.to/lastmile_qr_scan"}, "fusion_lon": 0.0, "type": "electric_scooter", "is_reserved": 0, "lon": -77.04996516666667, "is_disabled": 0, "fusion_lat": 0.0, "bike_id": "0b5be598f5d7fceb3bafd55809ba9c42", "name": "0b5be598f5d7fceb3bafd55809ba9c42", "lat": 38.89776883333333}, {"rental_uris": {"ios": "https://dc.lft.to/lastmile_qr_scan", "android": "https://dc.lft.to/lastmile_qr_scan"}, "fusion_lon": 0.0, "type": "electric_scooter", "is_reserved": 0, "lon": -76.93173233333333, "is_disabled": 0, "fusion_lat": 0.0, "bike_id": "ce7d724e1ee6ccbb243d9581ee9e9394", "name": "ce7d724e1ee6ccbb243d9581ee9e9394", "lat": 38.898817333333334}, {"rental_uris": {"ios": "https://dc.lft.to/lastmile_qr_scan", "android": "https://dc.lft.to/lastmile_qr_scan"}, "fusion_lon": 0.0, "type": "electric_scooter", "is_reserved": 0, "lon": -77.0250345, "is_disabled": 0, "fusion_lat": 0.0, "bike_id": "b12ef328b11428f4a85db51c286f8ee5", "name": "b12ef328b11428f4a85db51c286f8ee5", "lat": 38.9263775}, {"rental_uris": {"ios": "https://dc.lft.to/lastmile_qr_scan", "android": "https://dc.lft.to/lastmile_qr_scan"}, "fusion_lon": 0.0, "type": "electric_bike", "is_reserved": 0, "lon": -76.95539533333333, "is_disabled": 0, "fusion_lat": 0.0, "bike_id": "0e188e1b259c0517bdd52bc4a3de8a9a", "name": "0e188e1b259c0517bdd52bc4a3de8a9a", "lat": 38.972478833333334}, {"rental_uris": {"ios": "https://dc.lft.to/lastmile_qr_scan", "android": "https://dc.lft.to/lastmile_qr_scan"}, "fusion_lon": 0.0, "type": "electric_scooter", "is_reserved": 0, "lon": -77.0486985, "is_disabled": 0, "fusion_lat": 0.0, "bike_id": "535c690913a038847c2e02f4828400e0", "name": "535c690913a038847c2e02f4828400e0", "lat": 38.90083383333333}, {"rental_uris": {"ios": "https://dc.lft.to/lastmile_qr_scan", "android": "https://dc.lft.to/lastmile_qr_scan"}, "fusion_lon": 0.0, "type": "electric_scooter", "is_reserved": 0, "lon": -76.97731866666666, "is_disabled": 0, "fusion_lat": 0.0, "bike_id": "5ce22bc06e6aeee51f389a6f94a4b80c", "name": "5ce22bc06e6aeee51f389a6f94a4b80c", "lat": 38.887694}, {"rental_uris": {"ios": "https://dc.lft.to/lastmile_qr_scan", "android": "https://dc.lft.to/lastmile_qr_scan"}, "fusion_lon": 0.0, "type": "electric_scooter", "is_reserved": 0, "lon": -77.0403685, "is_disabled": 0, "fusion_lat": 0.0, "bike_id": "8b973d5956937b2f5f3fec962cd46de7", "name": "8b973d5956937b2f5f3fec962cd46de7", "lat": 38.91844783333333}, {"rental_uris": {"ios": "https://dc.lft.to/lastmile_qr_scan", "android": "https://dc.lft.to/lastmile_qr_scan"}, "fusion_lon": 0.0, "type": "electric_scooter", "is_reserved": 0, "lon": -77.06119283333334, "is_disabled": 0, "fusion_lat": 0.0, "bike_id": "76b2434f741bdfd220312cf835289054", "name": "76b2434f741bdfd220312cf835289054", "lat": 38.903778333333335}, {"rental_uris": {"ios": "https://dc.lft.to/lastmile_qr_scan", "android": "https://dc.lft.to/lastmile_qr_scan"}, "fusion_lon": 0.0, "type": "electric_scooter", "is_reserved": 0, "lon": -76.97732583333334, "is_disabled": 0, "fusion_lat": 0.0, "bike_id": "46e107a066df2f19fc1673983c2a265f", "name": "46e107a066df2f19fc1673983c2a265f", "lat": 38.88771216666667}, {"rental_uris": {"ios": "https://dc.lft.to/lastmile_qr_scan", "android": "https://dc.lft.to/lastmile_qr_scan"}, "fusion_lon": 0.0, "type": "electric_scooter", "is_reserved": 0, "lon": -77.02978916666666, "is_disabled": 0, "fusion_lat": 0.0, "bike_id": "a04d365ff504711595cfb44b3f09e37a", "name": "a04d365ff504711595cfb44b3f09e37a", "lat": 38.9155215}, {"rental_uris": {"ios": "https://dc.lft.to/lastmile_qr_scan", "android": "https://dc.lft.to/lastmile_qr_scan"}, "fusion_lon": 0.0, "type": "electric_scooter", "is_reserved": 0, "lon": -77.0020465, "is_disabled": 0, "fusion_lat": 0.0, "bike_id": "db64e52a5579bb3fbc435bc04edd165a", "name": "db64e52a5579bb3fbc435bc04edd165a", "lat": 38.87639383333333}, {"rental_uris": {"ios": "https://dc.lft.to/lastmile_qr_scan", "android": "https://dc.lft.to/lastmile_qr_scan"}, "fusion_lon": 0.0, "type": "electric_scooter", "is_reserved": 0, "lon": -77.02328666666666, "is_disabled": 0, "fusion_lat": 0.0, "bike_id": "c586227e67826aa9ddc574d26ebcfa8e", "name": "c586227e67826aa9ddc574d26ebcfa8e", "lat": 38.917774333333334}, {"rental_uris": {"ios": "https://dc.lft.to/lastmile_qr_scan", "android": "https://dc.lft.to/lastmile_qr_scan"}, "fusion_lon": 0.0, "type": "electric_scooter", "is_reserved": 0, "lon": -77.0396185, "is_disabled": 0, "fusion_lat": 0.0, "bike_id": "99db6c42054afe32c2ab6e197a9413e6", "name": "99db6c42054afe32c2ab6e197a9413e6", "lat": 38.902527666666664}, {"rental_uris": {"ios": "https://dc.lft.to/lastmile_qr_scan", "android": "https://dc.lft.to/lastmile_qr_scan"}, "fusion_lon": 0.0, "type": "electric_scooter", "is_reserved": 0, "lon": -77.03972116666667, "is_disabled": 0, "fusion_lat": 0.0, "bike_id": "20de4ede2189e788a6603fabaa05bd80", "name": "20de4ede2189e788a6603fabaa05bd80", "lat": 38.903012}, {"rental_uris": {"ios": "https://dc.lft.to/lastmile_qr_scan", "android": "https://dc.lft.to/lastmile_qr_scan"}, "fusion_lon": 0.0, "type": "electric_scooter", "is_reserved": 0, "lon": -77.06796116666666, "is_disabled": 0, "fusion_lat": 0.0, "bike_id": "1341ba268fcd08518770ce25a6480f2a", "name": "1341ba268fcd08518770ce25a6480f2a", "lat": 38.91279516666667}, {"rental_uris": {"ios": "https://dc.lft.to/lastmile_qr_scan", "android": "https://dc.lft.to/lastmile_qr_scan"}, "fusion_lon": 0.0, "type": "electric_scooter", "is_reserved": 0, "lon": -77.04741166666666, "is_disabled": 0, "fusion_lat": 0.0, "bike_id": "ad19e340e75ae1a6c7b8af6d4c5fe9a1", "name": "ad19e340e75ae1a6c7b8af6d4c5fe9a1", "lat": 38.90046666666667}, {"rental_uris": {"ios": "https://dc.lft.to/lastmile_qr_scan", "android": "https://dc.lft.to/lastmile_qr_scan"}, "fusion_lon": 0.0, "type": "electric_scooter", "is_reserved": 0, "lon": -76.94661633333334, "is_disabled": 0, "fusion_lat": 0.0, "bike_id": "196d6c3ab60d2bc0ccf2506b3e2f3e73", "name": "196d6c3ab60d2bc0ccf2506b3e2f3e73", "lat": 38.89865316666667}, {"rental_uris": {"ios": "https://dc.lft.to/lastmile_qr_scan", "android": "https://dc.lft.to/lastmile_qr_scan"}, "fusion_lon": 0.0, "type": "electric_scooter", "is_reserved": 0, "lon": -77.04764816666666, "is_disabled": 0, "fusion_lat": 0.0, "bike_id": "848c9e1ec3e32eccca059389a6d05a77", "name": "848c9e1ec3e32eccca059389a6d05a77", "lat": 38.912606833333335}, {"rental_uris": {"ios": "https://dc.lft.to/lastmile_qr_scan", "android": "https://dc.lft.to/lastmile_qr_scan"}, "fusion_lon": 0.0, "type": "electric_scooter", "is_reserved": 0, "lon": -77.01949183333333, "is_disabled": 0, "fusion_lat": 0.0, "bike_id": "f79605c3143cd6dcba691e05bd5890d0", "name": "f79605c3143cd6dcba691e05bd5890d0", "lat": 38.924294}, {"rental_uris": {"ios": "https://dc.lft.to/lastmile_qr_scan", "android": "https://dc.lft.to/lastmile_qr_scan"}, "fusion_lon": 0.0, "type": "electric_scooter", "is_reserved": 0, "lon": -77.000421, "is_disabled": 0, "fusion_lat": 0.0, "bike_id": "8abaa5bbdfc7b708c5d1c233196341aa", "name": "8abaa5bbdfc7b708c5d1c233196341aa", "lat": 38.8743125}, {"rental_uris": {"ios": "https://dc.lft.to/lastmile_qr_scan", "android": "https://dc.lft.to/lastmile_qr_scan"}, "fusion_lon": 0.0, "type": "electric_scooter", "is_reserved": 0, "lon": -77.028457, "is_disabled": 0, "fusion_lat": 0.0, "bike_id": "3042e0a5b0df8329f2a9768487323da6", "name": "3042e0a5b0df8329f2a9768487323da6", "lat": 38.934992}, {"rental_uris": {"ios": "https://dc.lft.to/lastmile_qr_scan", "android": "https://dc.lft.to/lastmile_qr_scan"}, "fusion_lon": 0.0, "type": "electric_scooter", "is_reserved": 0, "lon": -77.022755, "is_disabled": 0, "fusion_lat": 0.0, "bike_id": "deb7fc5fea323e6446df7b9e738a7724", "name": "deb7fc5fea323e6446df7b9e738a7724", "lat": 38.901353}, {"rental_uris": {"ios": "https://dc.lft.to/lastmile_qr_scan", "android": "https://dc.lft.to/lastmile_qr_scan"}, "fusion_lon": 0.0, "type": "electric_scooter", "is_reserved": 0, "lon": -76.97421766666666, "is_disabled": 0, "fusion_lat": 0.0, "bike_id": "ee4d1853302f890b3a2f663588c0a186", "name": "ee4d1853302f890b3a2f663588c0a186", "lat": 38.86412333333333}, {"rental_uris": {"ios": "https://dc.lft.to/lastmile_qr_scan", "android": "https://dc.lft.to/lastmile_qr_scan"}, "fusion_lon": 0.0, "type": "electric_scooter", "is_reserved": 0, "lon": -77.04324733333333, "is_disabled": 0, "fusion_lat": 0.0, "bike_id": "440537a469dd74a59e043bf0889d4c38", "name": "440537a469dd74a59e043bf0889d4c38", "lat": 38.9002105}, {"rental_uris": {"ios": "https://dc.lft.to/lastmile_qr_scan", "android": "https://dc.lft.to/lastmile_qr_scan"}, "fusion_lon": 0.0, "type": "electric_scooter", "is_reserved": 0, "lon": -77.07423283333334, "is_disabled": 0, "fusion_lat": 0.0, "bike_id": "c14a3bf14356e0084fd7df9e7794effb", "name": "c14a3bf14356e0084fd7df9e7794effb", "lat": 38.964273}, {"rental_uris": {"ios": "https://dc.lft.to/lastmile_qr_scan", "android": "https://dc.lft.to/lastmile_qr_scan"}, "fusion_lon": 0.0, "type": "electric_scooter", "is_reserved": 0, "lon": -76.99142066666667, "is_disabled": 0, "fusion_lat": 0.0, "bike_id": "e7e5ce0701c3543e8e9dfdc277350711", "name": "e7e5ce0701c3543e8e9dfdc277350711", "lat": 38.900354166666666}, {"rental_uris": {"ios": "https://dc.lft.to/lastmile_qr_scan", "android": "https://dc.lft.to/lastmile_qr_scan"}, "fusion_lon": 0.0, "type": "electric_scooter", "is_reserved": 0, "lon": -77.01450916666667, "is_disabled": 0, "fusion_lat": 0.0, "bike_id": "717ccb4e2881de60174bfcd52d3fb66a", "name": "717ccb4e2881de60174bfcd52d3fb66a", "lat": 38.9581215}, {"rental_uris": {"ios": "https://dc.lft.to/lastmile_qr_scan", "android": "https://dc.lft.to/lastmile_qr_scan"}, "fusion_lon": 0.0, "type": "electric_scooter", "is_reserved": 0, "lon": -76.98563083333333, "is_disabled": 0, "fusion_lat": 0.0, "bike_id": "f1c0622971b7a3c4bbb7f9c631fb2708", "name": "f1c0622971b7a3c4bbb7f9c631fb2708", "lat": 38.88429566666667}, {"rental_uris": {"ios": "https://dc.lft.to/lastmile_qr_scan", "android": "https://dc.lft.to/lastmile_qr_scan"}, "fusion_lon": 0.0, "type": "electric_scooter", "is_reserved": 0, "lon": -77.0046555, "is_disabled": 0, "fusion_lat": 0.0, "bike_id": "eb8c0dca93cbea3b9be7ec8c406617bb", "name": "eb8c0dca93cbea3b9be7ec8c406617bb", "lat": 38.9099215}, {"rental_uris": {"ios": "https://dc.lft.to/lastmile_qr_scan", "android": "https://dc.lft.to/lastmile_qr_scan"}, "fusion_lon": 0.0, "type": "electric_scooter", "is_reserved": 0, "lon": -77.04504433333334, "is_disabled": 0, "fusion_lat": 0.0, "bike_id": "ddddfde2f74bbcb9b5b104cee89fe859", "name": "ddddfde2f74bbcb9b5b104cee89fe859", "lat": 38.88491}, {"rental_uris": {"ios": "https://dc.lft.to/lastmile_qr_scan", "android": "https://dc.lft.to/lastmile_qr_scan"}, "fusion_lon": 0.0, "type": "electric_scooter", "is_reserved": 0, "lon": -77.02438816666667, "is_disabled": 0, "fusion_lat": 0.0, "bike_id": "83b071e4b3031d3859244d500c17216b", "name": "83b071e4b3031d3859244d500c17216b", "lat": 38.92266266666667}, {"rental_uris": {"ios": "https://dc.lft.to/lastmile_qr_scan", "android": "https://dc.lft.to/lastmile_qr_scan"}, "fusion_lon": 0.0, "type": "electric_scooter", "is_reserved": 0, "lon": -77.0229335, "is_disabled": 0, "fusion_lat": 0.0, "bike_id": "d61216067211edf7f6ef32e3a9c8af18", "name": "d61216067211edf7f6ef32e3a9c8af18", "lat": 38.91609866666667}, {"rental_uris": {"ios": "https://dc.lft.to/lastmile_qr_scan", "android": "https://dc.lft.to/lastmile_qr_scan"}, "fusion_lon": 0.0, "type": "electric_scooter", "is_reserved": 0, "lon": -77.043535, "is_disabled": 0, "fusion_lat": 0.0, "bike_id": "f9735ae0e4a9f63f4e08831e3570b1a0", "name": "f9735ae0e4a9f63f4e08831e3570b1a0", "lat": 38.892216833333336}, {"rental_uris": {"ios": "https://dc.lft.to/lastmile_qr_scan", "android": "https://dc.lft.to/lastmile_qr_scan"}, "fusion_lon": 0.0, "type": "electric_scooter", "is_reserved": 0, "lon": -77.02268116666667, "is_disabled": 0, "fusion_lat": 0.0, "bike_id": "7101e8f6ee0021eeb2ae62b868aca2a0", "name": "7101e8f6ee0021eeb2ae62b868aca2a0", "lat": 38.9463155}, {"rental_uris": {"ios": "https://dc.lft.to/lastmile_qr_scan", "android": "https://dc.lft.to/lastmile_qr_scan"}, "fusion_lon": 0.0, "type": "electric_scooter", "is_reserved": 0, "lon": -77.03289483333333, "is_disabled": 0, "fusion_lat": 0.0, "bike_id": "9cd5b51a34bf423fdb1d583e74782f18", "name": "9cd5b51a34bf423fdb1d583e74782f18", "lat": 38.935101333333336}, {"rental_uris": {"ios": "https://dc.lft.to/lastmile_qr_scan", "android": "https://dc.lft.to/lastmile_qr_scan"}, "fusion_lon": 0.0, "type": "electric_bike", "is_reserved": 0, "lon": -77.0240935, "is_disabled": 0, "fusion_lat": 0.0, "bike_id": "931b1a0ee4500fd2f99e1b84ec708b8b", "name": "931b1a0ee4500fd2f99e1b84ec708b8b", "lat": 38.90623}, {"rental_uris": {"ios": "https://dc.lft.to/lastmile_qr_scan", "android": "https://dc.lft.to/lastmile_qr_scan"}, "fusion_lon": 0.0, "type": "electric_scooter", "is_reserved": 0, "lon": -76.9969685, "is_disabled": 0, "fusion_lat": 0.0, "bike_id": "74016c698db1d24d842b3ac3808929a7", "name": "74016c698db1d24d842b3ac3808929a7", "lat": 38.90833633333333}, {"rental_uris": {"ios": "https://dc.lft.to/lastmile_qr_scan", "android": "https://dc.lft.to/lastmile_qr_scan"}, "fusion_lon": 0.0, "type": "electric_scooter", "is_reserved": 0, "lon": -76.93175733333334, "is_disabled": 0, "fusion_lat": 0.0, "bike_id": "e35451f40fa045ed59536a8dc137b734", "name": "e35451f40fa045ed59536a8dc137b734", "lat": 38.898846}, {"rental_uris": {"ios": "https://dc.lft.to/lastmile_qr_scan", "android": "https://dc.lft.to/lastmile_qr_scan"}, "fusion_lon": 0.0, "type": "electric_scooter", "is_reserved": 0, "lon": -77.04189866666667, "is_disabled": 0, "fusion_lat": 0.0, "bike_id": "d170dc62bb76c6dc7e6b9832e9725bca", "name": "d170dc62bb76c6dc7e6b9832e9725bca", "lat": 38.92046116666667}, {"rental_uris": {"ios": "https://dc.lft.to/lastmile_qr_scan", "android": "https://dc.lft.to/lastmile_qr_scan"}, "fusion_lon": 0.0, "type": "electric_bike", "is_reserved": 0, "lon": -77.22930116666667, "is_disabled": 0, "fusion_lat": 0.0, "bike_id": "6a061dab2e9d712458022874f08b7bd1", "name": "6a061dab2e9d712458022874f08b7bd1", "lat": 38.927913833333335}, {"rental_uris": {"ios": "https://dc.lft.to/lastmile_qr_scan", "android": "https://dc.lft.to/lastmile_qr_scan"}, "fusion_lon": 0.0, "type": "electric_scooter", "is_reserved": 0, "lon": -77.06403566666667, "is_disabled": 0, "fusion_lat": 0.0, "bike_id": "8b01219311f714c269317344f1213204", "name": "8b01219311f714c269317344f1213204", "lat": 38.945575}, {"rental_uris": {"ios": "https://dc.lft.to/lastmile_qr_scan", "android": "https://dc.lft.to/lastmile_qr_scan"}, "fusion_lon": 0.0, "type": "electric_scooter", "is_reserved": 0, "lon": -77.03188816666666, "is_disabled": 0, "fusion_lat": 0.0, "bike_id": "8584374aaa766f24d43ff3ee32d33ef3", "name": "8584374aaa766f24d43ff3ee32d33ef3", "lat": 38.91462933333333}, {"rental_uris": {"ios": "https://dc.lft.to/lastmile_qr_scan", "android": "https://dc.lft.to/lastmile_qr_scan"}, "fusion_lon": 0.0, "type": "electric_scooter", "is_reserved": 0, "lon": -77.04258, "is_disabled": 0, "fusion_lat": 0.0, "bike_id": "8e28a6781e97dcd1b92cb93c6e3b3f2b", "name": "8e28a6781e97dcd1b92cb93c6e3b3f2b", "lat": 38.9253345}, {"rental_uris": {"ios": "https://dc.lft.to/lastmile_qr_scan", "android": "https://dc.lft.to/lastmile_qr_scan"}, "fusion_lon": 0.0, "type": "electric_scooter", "is_reserved": 0, "lon": -77.00580816666667, "is_disabled": 0, "fusion_lat": 0.0, "bike_id": "6401d053ada46ecc75dffd079aa965e7", "name": "6401d053ada46ecc75dffd079aa965e7", "lat": 38.882734}, {"rental_uris": {"ios": "https://dc.lft.to/lastmile_qr_scan", "android": "https://dc.lft.to/lastmile_qr_scan"}, "fusion_lon": 0.0, "type": "electric_scooter", "is_reserved": 0, "lon": -76.97941666666667, "is_disabled": 0, "fusion_lat": 0.0, "bike_id": "47b52a4184e55b83cd09bb53ea73f1b0", "name": "47b52a4184e55b83cd09bb53ea73f1b0", "lat": 38.87068933333333}, {"rental_uris": {"ios": "https://dc.lft.to/lastmile_qr_scan", "android": "https://dc.lft.to/lastmile_qr_scan"}, "fusion_lon": 0.0, "type": "electric_scooter", "is_reserved": 0, "lon": -77.04037983333333, "is_disabled": 0, "fusion_lat": 0.0, "bike_id": "69869848c3c6ba6fac71d667ae226225", "name": "69869848c3c6ba6fac71d667ae226225", "lat": 38.9176635}, {"rental_uris": {"ios": "https://dc.lft.to/lastmile_qr_scan", "android": "https://dc.lft.to/lastmile_qr_scan"},