{"data": {"bikes": [{"bike_id": "fd65602eaa374c8c87c686e684422af5", "lon": -77.04705183333333, "lat": 38.9060245, "fusion_lon": 0.0, "rental_uris": {"ios": "https://dc.lft.to/lastmile_qr_scan", "android": "https://dc.lft.to/lastmile_qr_scan"}, "is_disabled": 0, "is_reserved": 0, "name": "fd65602eaa374c8c87c686e684422af5", "type": "electric_scooter", "fusion_lat": 0.0}, {"bike_id": "31fcd70dd654651c6138ae2ce94e46fe", "lon": -77.02386666666666, "lat": 38.9128945, "fusion_lon": 0.0, "rental_uris": {"ios": "https://dc.lft.to/lastmile_qr_scan", "android": "https://dc.lft.to/lastmile_qr_scan"}, "is_disabled": 0, "is_reserved": 0, "name": "31fcd70dd654651c6138ae2ce94e46fe", "type": "electric_scooter", "fusion_lat": 0.0}, {"bike_id": "508342d7a754abddb7dba2ff3157b83a", "lon": -77.03293366666666, "lat": 38.934449666666666, "fusion_lon": 0.0, "rental_uris": {"ios": "https://dc.lft.to/lastmile_qr_scan", "android": "https://dc.lft.to/lastmile_qr_scan"}, "is_disabled": 0, "is_reserved": 0, "name": "508342d7a754abddb7dba2ff3157b83a", "type": "electric_scooter", "fusion_lat": 0.0}, {"bike_id": "b6d718c3a3ff63b14806880f1e6d0513", "lon": -77.01127933333333, "lat": 38.880460666666664, "fusion_lon": 0.0, "rental_uris": {"ios": "https://dc.lft.to/lastmile_qr_scan", "android": "https://dc.lft.to/lastmile_qr_scan"}, "is_disabled": 0, "is_reserved": 0, "name": "b6d718c3a3ff63b14806880f1e6d0513", "type": "electric_bike", "fusion_lat": 0.0}, {"bike_id": "cef5d0e63420c4984060c9c945584849", "lon": -77.0527405, "lat": 38.91018016666666, "fusion_lon": 0.0, "rental_uris": {"ios": "https://dc.lft.to/lastmile_qr_scan", "android": "https://dc.lft.to/lastmile_qr_scan"}, "is_disabled": 0, "is_reserved": 0, "name": "cef5d0e63420c4984060c9c945584849", "type": "electric_scooter", "fusion_lat": 0.0}, {"bike_id": "1eb83423f65ec17e4cbf04497a91821e", "lon": -77.0056295, "lat": 38.8744485, "fusion_lon": 0.0, "rental_uris": {"ios": "https://dc.lft.to/lastmile_qr_scan", "android": "https://dc.lft.to/lastmile_qr_scan"}, "is_disabled": 0, "is_reserved": 0, "name": "1eb83423f65ec17e4cbf04497a91821e", "type": "electric_scooter", "fusion_lat": 0.0}, {"bike_id": "d17b5dd70af12c85f92e6ebdf747455f", "lon": -77.03842333333333, "lat": 38.92173916666667, "fusion_lon": 0.0, "rental_uris": {"ios": "https://dc.lft.to/lastmile_qr_scan", "android": "https://dc.lft.to/lastmile_qr_scan"}, "is_disabled": 0, "is_reserved": 0, "name": "d17b5dd70af12c85f92e6ebdf747455f", "type": "electric_scooter", "fusion_lat": 0.0}, {"bike_id": "cb71aec41726d4e2dac2455d8e830ea7", "lon": -77.02581516666666, "lat": 38.895102333333334, "fusion_lon": 0.0, "rental_uris": {"ios": "https://dc.lft.to/lastmile_qr_scan", "android": "https://dc.lft.to/lastmile_qr_scan"}, "is_disabled": 0, "is_reserved": 0, "name": "cb71aec41726d4e2dac2455d8e830ea7", "type": "electric_scooter", "fusion_lat": 0.0}, {"bike_id": "8cb93749466a3ff4984e0007584da54a", "lon": -77.03286266666667, "lat": 38.90259016666667, "fusion_lon": 0.0, "rental_uris": {"ios": "https://dc.lft.to/lastmile_qr_scan", "android": "https://dc.lft.to/lastmile_qr_scan"}, "is_disabled": 0, "is_reserved": 0, "name": "8cb93749466a3ff4984e0007584da54a", "type": "electric_scooter", "fusion_lat": 0.0}, {"bike_id": "82107e6906fb31fec539623276b67193", "lon": -77.04573933333333, "lat": 38.9035915, "fusion_lon": 0.0, "rental_uris": {"ios": "https://dc.lft.to/lastmile_qr_scan", "android": "https://dc.lft.to/lastmile_qr_scan"}, "is_disabled": 0, "is_reserved": 0, "name": "82107e6906fb31fec539623276b67193", "type": "electric_scooter", "fusion_lat": 0.0}, {"bike_id": "a12b1fdba9b5b615a71693300c0ce6a8", "lon": -76.9962155, "lat": 38.90005933333333, "fusion_lon": 0.0, "rental_uris": {"ios": "https://dc.lft.to/lastmile_qr_scan", "android": "https://dc.lft.to/lastmile_qr_scan"}, "is_disabled": 0, "is_reserved": 0, "name": "a12b1fdba9b5b615a71693300c0ce6a8", "type": "electric_scooter", "fusion_lat": 0.0}, {"bike_id": "8082f35a84084a68945000cbdf44f1cf", "lon": -77.0308125, "lat": 38.907494, "fusion_lon": 0.0, "rental_uris": {"ios": "https://dc.lft.to/lastmile_qr_scan", "android": "https://dc.lft.to/lastmile_qr_scan"}, "is_disabled": 0, "is_reserved": 0, "name": "8082f35a84084a68945000cbdf44f1cf", "type": "electric_scooter", "fusion_lat": 0.0}, {"bike_id": "be912474755828c166c74b46407779f4", "lon": -77.037113, "lat": 38.91651866666667, "fusion_lon": 0.0, "rental_uris": {"ios": "https://dc.lft.to/lastmile_qr_scan", "android": "https://dc.lft.to/lastmile_qr_scan"}, "is_disabled": 0, "is_reserved": 0, "name": "be912474755828c166c74b46407779f4", "type": "electric_scooter", "fusion_lat": 0.0}, {"bike_id": "e147ce2254d2b84a9dc822bac853c9a3", "lon": -77.00434516666667, "lat": 38.990071, "fusion_lon": 0.0, "rental_uris": {"ios": "https://dc.lft.to/lastmile_qr_scan", "android": "https://dc.lft.to/lastmile_qr_scan"}, "is_disabled": 0, "is_reserved": 0, "name": "e147ce2254d2b84a9dc822bac853c9a3", "type": "electric_bike", "fusion_lat": 0.0}, {"bike_id": "d70fdec7246eed95579c9209ff9b5922", "lon": -77.0154665, "lat": 38.89369533333333, "fusion_lon": 0.0, "rental_uris": {"ios": "https://dc.lft.to/lastmile_qr_scan", "android": "https://dc.lft.to/lastmile_qr_scan"}, "is_disabled": 0, "is_reserved": 0, "name": "d70fdec7246eed95579c9209ff9b5922", "type": "electric_scooter", "fusion_lat": 0.0}, {"bike_id": "bcfac0f3fd27e08c8c74a47e48a1ccb5", "lon": -77.01283716666667, "lat": 38.95650666666667, "fusion_lon": 0.0, "rental_uris": {"ios": "https://dc.lft.to/lastmile_qr_scan", "android": "https://dc.lft.to/lastmile_qr_scan"}, "is_disabled": 0, "is_reserved": 0, "name": "bcfac0f3fd27e08c8c74a47e48a1ccb5", "type": "electric_bike", "fusion_lat": 0.0}, {"bike_id": "86a5e485c65bc31a762c450153e9dc2b", "lon": -77.0149695, "lat": 38.9005975, "fusion_lon": 0.0, "rental_uris": {"ios": "https://dc.lft.to/lastmile_qr_scan", "android": "https://dc.lft.to/lastmile_qr_scan"}, "is_disabled": 0, "is_reserved": 0, "name": "86a5e485c65bc31a762c450153e9dc2b", "type": "electric_scooter", "fusion_lat": 0.0}, {"bike_id": "de17a09fa867c3073f32ce006bc90486", "lon": -77.07138066666667, "lat": 38.9066525, "fusion_lon": 0.0, "rental_uris": {"ios": "https://dc.lft.to/lastmile_qr_scan", "android": "https://dc.lft.to/lastmile_qr_scan"}, "is_disabled": 0, "is_reserved": 0, "name": "de17a09fa867c3073f32ce006bc90486", "type": "electric_scooter", "fusion_lat": 0.0}, {"bike_id": "b2c849d93ceddefefc70a81eed114ea8", "lon": -77.022006, "lat": 38.91988533333333, "fusion_lon": 0.0, "rental_uris": {"ios": "https://dc.lft.to/lastmile_qr_scan", "android": "https://dc.lft.to/lastmile_qr_scan"}, "is_disabled": 0, "is_reserved": 0, "name": "b2c849d93ceddefefc70a81eed114ea8", "type": "electric_scooter", "fusion_lat": 0.0}, {"bike_id": "8bdd697cfb4c71472e254abd23f2e8b8", "lon": -76.9888435, "lat": 38.866572833333336, "fusion_lon": 0.0, "rental_uris": {"ios": "https://dc.lft.to/lastmile_qr_scan", "android": "https://dc.lft.to/lastmile_qr_scan"}, "is_disabled": 0, "is_reserved": 0, "name": "8bdd697cfb4c71472e254abd23f2e8b8", "type": "electric_scooter", "fusion_lat": 0.0}, {"bike_id": "96c6be687ee57db99939000e36d8fb0c", "lon": -77.04658683333334, "lat": 38.90648783333334, "fusion_lon": 0.0, "rental_uris": {"ios": "https://dc.lft.to/lastmile_qr_scan", "android": "https://dc.lft.to/lastmile_qr_scan"}, "is_disabled": 0, "is_reserved": 0, "name": "96c6be687ee57db99939000e36d8fb0c", "type": "electric_scooter", "fusion_lat": 0.0}, {"bike_id": "c70ab658861da942b94a76e0d700dac7", "lon": -77.03299983333334, "lat": 38.93032866666667, "fusion_lon": 0.0, "rental_uris": {"ios": "https://dc.lft.to/lastmile_qr_scan", "android": "https://dc.lft.to/lastmile_qr_scan"}, "is_disabled": 0, "is_reserved": 0, "name": "c70ab658861da942b94a76e0d700dac7", "type": "electric_scooter", "fusion_lat": 0.0}, {"bike_id": "a6000536ffd525673b006467ea7d4db9", "lon": -77.04885216666666, "lat": 38.900865333333336, "fusion_lon": 0.0, "rental_uris": {"ios": "https://dc.lft.to/lastmile_qr_scan", "android": "https://dc.lft.to/lastmile_qr_scan"}, "is_disabled": 0, "is_reserved": 0, "name": "a6000536ffd525673b006467ea7d4db9", "type": "electric_scooter", "fusion_lat": 0.0}, {"bike_id": "eade0bfd235529941500e518b82e74ef", "lon": -77.03153066666667, "lat": 38.911179, "fusion_lon": 0.0, "rental_uris": {"ios": "https://dc.lft.to/lastmile_qr_scan", "android": "https://dc.lft.to/lastmile_qr_scan"}, "is_disabled": 0, "is_reserved": 0, "name": "eade0bfd235529941500e518b82e74ef", "type": "electric_scooter", "fusion_lat": 0.0}, {"bike_id": "dd72e0ce1a9022aa16c5790c6ddc6b6b", "lon": -77.03938366666667, "lat": 38.904521, "fusion_lon": 0.0, "rental_uris": {"ios": "https://dc.lft.to/lastmile_qr_scan", "android": "https://dc.lft.to/lastmile_qr_scan"}, "is_disabled": 0, "is_reserved": 0, "name": "dd72e0ce1a9022aa16c5790c6ddc6b6b", "type": "electric_scooter", "fusion_lat": 0.0}, {"bike_id": "58b3548382f078e3946f097ae80152d2", "lon": -77.02322033333333, "lat": 38.9169435, "fusion_lon": 0.0, "rental_uris": {"ios": "https://dc.lft.to/lastmile_qr_scan", "android": "https://dc.lft.to/lastmile_qr_scan"}, "is_disabled": 0, "is_reserved": 0, "name": "58b3548382f078e3946f097ae80152d2", "type": "electric_scooter", "fusion_lat": 0.0}, {"bike_id": "b0242440f90596580dbe215c5ae510fb", "lon": -76.98100866666667, "lat": 38.905294833333336, "fusion_lon": 0.0, "rental_uris": {"ios": "https://dc.lft.to/lastmile_qr_scan", "android": "https://dc.lft.to/lastmile_qr_scan"}, "is_disabled": 0, "is_reserved": 0, "name": "b0242440f90596580dbe215c5ae510fb", "type": "electric_scooter", "fusion_lat": 0.0}, {"bike_id": "6a91c1cb5ac5c882850076723fffe04e", "lon": -76.98348166666666, "lat": 38.862639, "fusion_lon": 0.0, "rental_uris": {"ios": "https://dc.lft.to/lastmile_qr_scan", "android": "https://dc.lft.to/lastmile_qr_scan"}, "is_disabled": 0, "is_reserved": 0, "name": "6a91c1cb5ac5c882850076723fffe04e", "type": "electric_bike", "fusion_lat": 0.0}, {"bike_id": "6a254af0818cefa8ec9bd623ce45c5ac", "lon": -76.929613, "lat": 38.8952385, "fusion_lon": 0.0, "rental_uris": {"ios": "https://dc.lft.to/lastmile_qr_scan", "android": "https://dc.lft.to/lastmile_qr_scan"}, "is_disabled": 0, "is_reserved": 0, "name": "6a254af0818cefa8ec9bd623ce45c5ac", "type": "electric_scooter", "fusion_lat": 0.0}, {"bike_id": "b94f7292e14ee865b06a7ae4ad0b5733", "lon": -77.12020733333334, "lat": 38.85787666666667, "fusion_lon": 0.0, "rental_uris": {"ios": "https://dc.lft.to/lastmile_qr_scan", "android": "https://dc.lft.to/lastmile_qr_scan"}, "is_disabled": 0, "is_reserved": 0, "name": "b94f7292e14ee865b06a7ae4ad0b5733", "type": "electric_bike", "fusion_lat": 0.0}, {"bike_id": "43d0b3e34b8e9399f78994555db16904", "lon": -77.053335, "lat": 38.926948, "fusion_lon": 0.0, "rental_uris": {"ios": "https://dc.lft.to/lastmile_qr_scan", "android": "https://dc.lft.to/lastmile_qr_scan"}, "is_disabled": 0, "is_reserved": 0, "name": "43d0b3e34b8e9399f78994555db16904", "type": "electric_scooter", "fusion_lat": 0.0}, {"bike_id": "fda3723e8b93d012c024dd52bbeea85c", "lon": -77.03825633333334, "lat": 38.9077365, "fusion_lon": 0.0, "rental_uris": {"ios": "https://dc.lft.to/lastmile_qr_scan", "android": "https://dc.lft.to/lastmile_qr_scan"}, "is_disabled": 0, "is_reserved": 0, "name": "fda3723e8b93d012c024dd52bbeea85c", "type": "electric_scooter", "fusion_lat": 0.0}, {"bike_id": "93e42fef23767eaa7bbe80a10dee31cf", "lon": -77.054938, "lat": 38.893622666666666, "fusion_lon": 0.0, "rental_uris": {"ios": "https://dc.lft.to/lastmile_qr_scan", "android": "https://dc.lft.to/lastmile_qr_scan"}, "is_disabled": 0, "is_reserved": 0, "name": "93e42fef23767eaa7bbe80a10dee31cf", "type": "electric_scooter", "fusion_lat": 0.0}, {"bike_id": "b574976b0be6c2a41091dc125f824352", "lon": -77.05567233333333, "lat": 38.899793833333334, "fusion_lon": 0.0, "rental_uris": {"ios": "https://dc.lft.to/lastmile_qr_scan", "android": "https://dc.lft.to/lastmile_qr_scan"}, "is_disabled": 0, "is_reserved": 0, "name": "b574976b0be6c2a41091dc125f824352", "type": "electric_scooter", "fusion_lat": 0.0}, {"bike_id": "19b83e42f3f4f0502f32fdd1fd9ae1b3", "lon": -77.04299583333334, "lat": 38.923022333333336, "fusion_lon": 0.0, "rental_uris": {"ios": "https://dc.lft.to/lastmile_qr_scan", "android": "https://dc.lft.to/lastmile_qr_scan"}, "is_disabled": 0, "is_reserved": 0, "name": "19b83e42f3f4f0502f32fdd1fd9ae1b3", "type": "electric_scooter", "fusion_lat": 0.0}, {"bike_id": "822888435ce7c49699127609d939db33", "lon": -77.02305883333334, "lat": 38.90888066666667, "fusion_lon": 0.0, "rental_uris": {"ios": "https://dc.lft.to/lastmile_qr_scan", "android": "https://dc.lft.to/lastmile_qr_scan"}, "is_disabled": 0, "is_reserved": 0, "name": "822888435ce7c49699127609d939db33", "type": "electric_scooter", "fusion_lat": 0.0}, {"bike_id": "0437d199334ff0b550b27db55c1ccbee", "lon": -77.030706, "lat": 38.90750666666667, "fusion_lon": 0.0, "rental_uris": {"ios": "https://dc.lft.to/lastmile_qr_scan", "android": "https://dc.lft.to/lastmile_qr_scan"}, "is_disabled": 0, "is_reserved": 0, "name": "0437d199334ff0b550b27db55c1ccbee", "type": "electric_scooter", "fusion_lat": 0.0}, {"bike_id": "9783e566e862ec1892f8807a6c73f96a", "lon": -76.981669, "lat": 38.8961705, "fusion_lon": 0.0, "rental_uris": {"ios": "https://dc.lft.to/lastmile_qr_scan", "android": "https://dc.lft.to/lastmile_qr_scan"}, "is_disabled": 0, "is_reserved": 0, "name": "9783e566e862ec1892f8807a6c73f96a", "type": "electric_scooter", "fusion_lat": 0.0}, {"bike_id": "40a08a416aea18dfe1c00de9aaff39b5", "lon": -76.99830416666667, "lat": 38.907087833333335, "fusion_lon": 0.0, "rental_uris": {"ios": "https://dc.lft.to/lastmile_qr_scan", "android": "https://dc.lft.to/lastmile_qr_scan"}, "is_disabled": 0, "is_reserved": 0, "name": "40a08a416aea18dfe1c00de9aaff39b5", "type": "electric_scooter", "fusion_lat": 0.0}, {"bike_id": "99d23004be53e3848e8ae22a8408f607", "lon": -76.9544435, "lat": 38.88390716666667, "fusion_lon": 0.0, "rental_uris": {"ios": "https://dc.lft.to/lastmile_qr_scan", "android": "https://dc.lft.to/lastmile_qr_scan"}, "is_disabled": 0, "is_reserved": 0, "name": "99d23004be53e3848e8ae22a8408f607", "type": "electric_scooter", "fusion_lat": 0.0}, {"bike_id": "84917d763e456af872239b237d2fae43", "lon": -77.0467115, "lat": 38.90228333333334, "fusion_lon": 0.0, "rental_uris": {"ios": "https://dc.lft.to/lastmile_qr_scan", "android": "https://dc.lft.to/lastmile_qr_scan"}, "is_disabled": 0, "is_reserved": 0, "name": "84917d763e456af872239b237d2fae43", "type": "electric_scooter", "fusion_lat": 0.0}, {"bike_id": "8cdff390f9df5ca42993ed3cf75ffac7", "lon": -77.04265933333333, "lat": 38.922949833333334, "fusion_lon": 0.0, "rental_uris": {"ios": "https://dc.lft.to/lastmile_qr_scan", "android": "https://dc.lft.to/lastmile_qr_scan"}, "is_disabled": 0, "is_reserved": 0, "name": "8cdff390f9df5ca42993ed3cf75ffac7", "type": "electric_scooter", "fusion_lat": 0.0}, {"bike_id": "12f2af5faed390620388329dbe88a6b3", "lon": -77.02614316666667, "lat": 38.95182783333333, "fusion_lon": 0.0, "rental_uris": {"ios": "https://dc.lft.to/lastmile_qr_scan", "android": "https://dc.lft.to/lastmile_qr_scan"}, "is_disabled": 0, "is_reserved": 0, "name": "12f2af5faed390620388329dbe88a6b3", "type": "electric_scooter", "fusion_lat": 0.0}, {"bike_id": "0fc77d99395eeb18f1014dd26ea4c7d0", "lon": -77.01725466666667, "lat": 38.877127, "fusion_lon": 0.0, "rental_uris": {"ios": "https://dc.lft.to/lastmile_qr_scan", "android": "https://dc.lft.to/lastmile_qr_scan"}, "is_disabled": 0, "is_reserved": 0, "name": "0fc77d99395eeb18f1014dd26ea4c7d0", "type": "electric_scooter", "fusion_lat": 0.0}, {"bike_id": "a6dcc898bd23b6a3c3164e70b212e74e", "lon": -77.02358883333333, "lat": 38.9250245, "fusion_lon": 0.0, "rental_uris": {"ios": "https://dc.lft.to/lastmile_qr_scan", "android": "https://dc.lft.to/lastmile_qr_scan"}, "is_disabled": 0, "is_reserved": 0, "name": "a6dcc898bd23b6a3c3164e70b212e74e", "type": "electric_scooter", "fusion_lat": 0.0}, {"bike_id": "90d82ffda58877cf8ca7570fdd085d52", "lon": -77.02655733333333, "lat": 38.884708333333336, "fusion_lon": 0.0, "rental_uris": {"ios": "https://dc.lft.to/lastmile_qr_scan", "android": "https://dc.lft.to/lastmile_qr_scan"}, "is_disabled": 0, "is_reserved": 0, "name": "90d82ffda58877cf8ca7570fdd085d52", "type": "electric_scooter", "fusion_lat": 0.0}, {"bike_id": "ca60d7b684221aae4f5a07ca9c27fdcc", "lon": -76.99621716666667, "lat": 38.88140816666667, "fusion_lon": 0.0, "rental_uris": {"ios": "https://dc.lft.to/lastmile_qr_scan", "android": "https://dc.lft.to/lastmile_qr_scan"}, "is_disabled": 0, "is_reserved": 0, "name": "ca60d7b684221aae4f5a07ca9c27fdcc", "type": "electric_scooter", "fusion_lat": 0.0}, {"bike_id": "f3d5116b831c083a295651cd74aaa0a1", "lon": -77.02709183333333, "lat": 38.93162683333333, "fusion_lon": 0.0, "rental_uris": {"ios": "https://dc.lft.to/lastmile_qr_scan", "android": "https://dc.lft.to/lastmile_qr_scan"}, "is_disabled": 0, "is_reserved": 0, "name": "f3d5116b831c083a295651cd74aaa0a1", "type": "electric_bike", "fusion_lat": 0.0}, {"bike_id": "9afc1f4a31f912567a73a401eab3b847", "lon": -76.96912183333333, "lat": 38.87155883333333, "fusion_lon": 0.0, "rental_uris": {"ios": "https://dc.lft.to/lastmile_qr_scan", "android": "https://dc.lft.to/lastmile_qr_scan"}, "is_disabled": 0, "is_reserved": 0, "name": "9afc1f4a31f912567a73a401eab3b847", "type": "electric_scooter", "fusion_lat": 0.0}, {"bike_id": "ead5acd5b92e7ce23912d42164e1f532", "lon": -77.050829, "lat": 38.923444833333335, "fusion_lon": 0.0, "rental_uris": {"ios": "https://dc.lft.to/lastmile_qr_scan", "android": "https://dc.lft.to/lastmile_qr_scan"}, "is_disabled": 0, "is_reserved": 0, "name": "ead5acd5b92e7ce23912d42164e1f532", "type": "electric_scooter", "fusion_lat": 0.0}, {"bike_id": "224c50504f00274c19691416f2c2ee05", "lon": -77.050603, "lat": 38.92415366666667, "fusion_lon": 0.0, "rental_uris": {"ios": "https://dc.lft.to/lastmile_qr_scan", "android": "https://dc.lft.to/lastmile_qr_scan"}, "is_disabled": 0, "is_reserved": 0, "name": "224c50504f00274c19691416f2c2ee05", "type": "electric_scooter", "fusion_lat": 0.0}, {"bike_id": "5321a2c3d6425c9355b0e9fded9fb6b1", "lon": -77.03904266666666, "lat": 38.92585116666667, "fusion_lon": 0.0, "rental_uris": {"ios": "https://dc.lft.to/lastmile_qr_scan", "android": "https://dc.lft.to/lastmile_qr_scan"}, "is_disabled": 0, "is_reserved": 0, "name": "5321a2c3d6425c9355b0e9fded9fb6b1", "type": "electric_scooter", "fusion_lat": 0.0}, {"bike_id": "9e403d0be411161b4871f725efc4bb6e", "lon": -76.97214066666666, "lat": 38.9836195, "fusion_lon": 0.0, "rental_uris": {"ios": "https://dc.lft.to/lastmile_qr_scan", "android": "https://dc.lft.to/lastmile_qr_scan"}, "is_disabled": 0, "is_reserved": 0, "name": "9e403d0be411161b4871f725efc4bb6e", "type": "electric_bike", "fusion_lat": 0.0}, {"bike_id": "a398a98cc80b9bfbce3cdac8a61779ed", "lon": -76.99496216666667, "lat": 38.862423166666666, "fusion_lon": 0.0, "rental_uris": {"ios": "https://dc.lft.to/lastmile_qr_scan", "android": "https://dc.lft.to/lastmile_qr_scan"}, "is_disabled": 0, "is_reserved": 0, "name": "a398a98cc80b9bfbce3cdac8a61779ed", "type": "electric_scooter", "fusion_lat": 0.0}, {"bike_id": "804f897e4e24c0cb66aa903162184003", "lon": -77.03197, "lat": 38.903299, "fusion_lon": 0.0, "rental_uris": {"ios": "https://dc.lft.to/lastmile_qr_scan", "android": "https://dc.lft.to/lastmile_qr_scan"}, "is_disabled": 0, "is_reserved": 0, "name": "804f897e4e24c0cb66aa903162184003", "type": "electric_scooter", "fusion_lat": 0.0}, {"bike_id": "b48e607634252f0ff1b38d95d48142b1", "lon": -77.02962083333334, "lat": 38.884358, "fusion_lon": 0.0, "rental_uris": {"ios": "https://dc.lft.to/lastmile_qr_scan", "android": "https://dc.lft.to/lastmile_qr_scan"}, "is_disabled": 0, "is_reserved": 0, "name": "b48e607634252f0ff1b38d95d48142b1", "type": "electric_scooter", "fusion_lat": 0.0}, {"bike_id": "5b8bd89cc9f41bd71a49d447cb700e71", "lon": -77.0252665, "lat": 38.880523, "fusion_lon": 0.0, "rental_uris": {"ios": "https://dc.lft.to/lastmile_qr_scan", "android": "https://dc.lft.to/lastmile_qr_scan"}, "is_disabled": 0, "is_reserved": 0, "name": "5b8bd89cc9f41bd71a49d447cb700e71", "type": "electric_bike", "fusion_lat": 0.0}, {"bike_id": "9a30d1e97c22e4f60133568b3473babe", "lon": -76.9734365, "lat": 38.897200833333336, "fusion_lon": 0.0, "rental_uris": {"ios": "https://dc.lft.to/lastmile_qr_scan", "android": "https://dc.lft.to/lastmile_qr_scan"}, "is_disabled": 0, "is_reserved": 0, "name": "9a30d1e97c22e4f60133568b3473babe", "type": "electric_scooter", "fusion_lat": 0.0}, {"bike_id": "b1667b61459c45c929f26e1bf827e245", "lon": -77.04538033333333, "lat": 38.90065466666667, "fusion_lon": 0.0, "rental_uris": {"ios": "https://dc.lft.to/lastmile_qr_scan", "android": "https://dc.lft.to/lastmile_qr_scan"}, "is_disabled": 0, "is_reserved": 0, "name": "b1667b61459c45c929f26e1bf827e245", "type": "electric_scooter", "fusion_lat": 0.0}, {"bike_id": "cd87a4c641d28703bee18e6cd89824b5", "lon": -77.0206615, "lat": 38.95746233333333, "fusion_lon": 0.0, "rental_uris": {"ios": "https://dc.lft.to/lastmile_qr_scan", "android": "https://dc.lft.to/lastmile_qr_scan"}, "is_disabled": 0, "is_reserved": 0, "name": "cd87a4c641d28703bee18e6cd89824b5", "type": "electric_scooter", "fusion_lat": 0.0}, {"bike_id": "1e0fcc296fdf674220024500e12e9136", "lon": -77.02711283333333, "lat": 38.9181715, "fusion_lon": 0.0, "rental_uris": {"ios": "https://dc.lft.to/lastmile_qr_scan", "android": "https://dc.lft.to/lastmile_qr_scan"}, "is_disabled": 0, "is_reserved": 0, "name": "1e0fcc296fdf674220024500e12e9136", "type": "electric_scooter", "fusion_lat": 0.0}, {"bike_id": "545ec01a2a86ed14c6c6edcb355485eb", "lon": -76.93063766666667, "lat": 38.90155983333333, "fusion_lon": 0.0, "rental_uris": {"ios": "https://dc.lft.to/lastmile_qr_scan", "android": "https://dc.lft.to/lastmile_qr_scan"}, "is_disabled": 0, "is_reserved": 0, "name": "545ec01a2a86ed14c6c6edcb355485eb", "type": "electric_scooter", "fusion_lat": 0.0}, {"bike_id": "244bbccdc2d0ae316cf79ce882e8e2ff", "lon": -77.03702466666667, "lat": 38.9064475, "fusion_lon": 0.0, "rental_uris": {"ios": "https://dc.lft.to/lastmile_qr_scan", "android": "https://dc.lft.to/lastmile_qr_scan"}, "is_disabled": 0, "is_reserved": 0, "name": "244bbccdc2d0ae316cf79ce882e8e2ff", "type": "electric_scooter", "fusion_lat": 0.0}, {"bike_id": "76d415130dce7646a92dc1489734a682", "lon": -76.93773833333333, "lat": 38.9037215, "fusion_lon": 0.0, "rental_uris": {"ios": "https://dc.lft.to/lastmile_qr_scan", "android": "https://dc.lft.to/lastmile_qr_scan"}, "is_disabled": 0, "is_reserved": 0, "name": "76d415130dce7646a92dc1489734a682", "type": "electric_scooter", "fusion_lat": 0.0}, {"bike_id": "f7bddf59f33277c7a5a3e054f34ba2ba", "lon": -77.0312825, "lat": 38.92017833333333, "fusion_lon": 0.0, "rental_uris": {"ios": "https://dc.lft.to/lastmile_qr_scan", "android": "https://dc.lft.to/lastmile_qr_scan"}, "is_disabled": 0, "is_reserved": 0, "name": "f7bddf59f33277c7a5a3e054f34ba2ba", "type": "electric_scooter", "fusion_lat": 0.0}, {"bike_id": "5ef2cf4071b07f3ddb0f85dea39d8c9c", "lon": -77.0235315, "lat": 38.93532866666666, "fusion_lon": 0.0, "rental_uris": {"ios": "https://dc.lft.to/lastmile_qr_scan", "android": "https://dc.lft.to/lastmile_qr_scan"}, "is_disabled": 0, "is_reserved": 0, "name": "5ef2cf4071b07f3ddb0f85dea39d8c9c", "type": "electric_scooter", "fusion_lat": 0.0}, {"bike_id": "9a6e755755dc8d7ea3ae60b7309d6385", "lon": -77.04083083333333, "lat": 38.892224166666665, "fusion_lon": 0.0, "rental_uris": {"ios": "https://dc.lft.to/lastmile_qr_scan", "android": "https://dc.lft.to/lastmile_qr_scan"}, "is_disabled": 0, "is_reserved": 0, "name": "9a6e755755dc8d7ea3ae60b7309d6385", "type": "electric_scooter", "fusion_lat": 0.0}, {"bike_id": "9bdc24cdfc4475272014e6ca70171276", "lon": -77.01954533333334, "lat": 38.92314616666667, "fusion_lon": 0.0, "rental_uris": {"ios": "https://dc.lft.to/lastmile_qr_scan", "android": "https://dc.lft.to/lastmile_qr_scan"}, "is_disabled": 0, "is_reserved": 0, "name": "9bdc24cdfc4475272014e6ca70171276", "type": "electric_scooter", "fusion_lat": 0.0}, {"bike_id": "6da374073ec89349e8a6596fdf4e4b0c", "lon": -77.04982333333334, "lat": 39.06294283333333, "fusion_lon": 0.0, "rental_uris": {"ios": "https://dc.lft.to/lastmile_qr_scan", "android": "https://dc.lft.to/lastmile_qr_scan"}, "is_disabled": 0, "is_reserved": 0, "name": "6da374073ec89349e8a6596fdf4e4b0c", "type": "electric_bike", "fusion_lat": 0.0}, {"bike_id": "1c74b6cce40960c112065ed3a9cb6efb", "lon": -77.05050966666667, "lat": 38.90063633333333, "fusion_lon": 0.0, "rental_uris": {"ios": "https://dc.lft.to/lastmile_qr_scan", "android": "https://dc.lft.to/lastmile_qr_scan"}, "is_disabled": 0, "is_reserved": 0, "name": "1c74b6cce40960c112065ed3a9cb6efb", "type": "electric_scooter", "fusion_lat": 0.0}, {"bike_id": "aee56ee781905727ad543d7b4b156021", "lon": -77.22306716666667, "lat": 38.913086166666666, "fusion_lon": 0.0, "rental_uris": {"ios": "https://dc.lft.to/lastmile_qr_scan", "android": "https://dc.lft.to/lastmile_qr_scan"}, "is_disabled": 0, "is_reserved": 0, "name": "aee56ee781905727ad543d7b4b156021", "type": "electric_bike", "fusion_lat": 0.0}, {"bike_id": "3003ed62f8aad34c10986ea4f42cf018", "lon": -77.02497266666667, "lat": 38.942185333333335, "fusion_lon": 0.0, "rental_uris": {"ios": "https://dc.lft.to/lastmile_qr_scan", "android": "https://dc.lft.to/lastmile_qr_scan"}, "is_disabled": 0, "is_reserved": 0, "name": "3003ed62f8aad34c10986ea4f42cf018", "type": "electric_scooter", "fusion_lat": 0.0}, {"bike_id": "d8b09d1e3d92de55702741053ec24b47", "lon": -76.99036616666666, "lat": 38.888722, "fusion_lon": 0.0, "rental_uris": {"ios": "https://dc.lft.to/lastmile_qr_scan", "android": "https://dc.lft.to/lastmile_qr_scan"}, "is_disabled": 0, "is_reserved": 0, "name": "d8b09d1e3d92de55702741053ec24b47", "type": "electric_scooter", "fusion_lat": 0.0}, {"bike_id": "a78c1eeef959f8b62a862125300ac627", "lon": -76.99058816666667, "lat": 38.86374, "fusion_lon": 0.0, "rental_uris": {"ios": "https://dc.lft.to/lastmile_qr_scan", "android": "https://dc.lft.to/lastmile_qr_scan"}, "is_disabled": 0, "is_reserved": 0, "name": "a78c1eeef959f8b62a862125300ac627", "type": "electric_scooter", "fusion_lat": 0.0}, {"bike_id": "52f4677696e2805e28c425eda1f15143", "lon": -77.0295135, "lat": 38.91419716666667, "fusion_lon": 0.0, "rental_uris": {"ios": "https://dc.lft.to/lastmile_qr_scan", "android": "https://dc.lft.to/lastmile_qr_scan"}, "is_disabled": 0, "is_reserved": 0, "name": "52f4677696e2805e28c425eda1f15143", "type": "electric_scooter", "fusion_lat": 0.0}, {"bike_id": "00bd74414124b336f8582086f6be25cf", "lon": -76.97744283333333, "lat": 38.87166083333334, "fusion_lon": 0.0, "rental_uris": {"ios": "https://dc.lft.to/lastmile_qr_scan", "android": "https://dc.lft.to/lastmile_qr_scan"}, "is_disabled": 0, "is_reserved": 0, "name": "00bd74414124b336f8582086f6be25cf", "type": "electric_scooter", "fusion_lat": 0.0}, {"bike_id": "357de7890474c0c32592005fcc9ea2ec", "lon": -77.03836216666667, "lat": 38.9066955, "fusion_lon": 0.0, "rental_uris": {"ios": "https://dc.lft.to/lastmile_qr_scan", "android": "https://dc.lft.to/lastmile_qr_scan"}, "is_disabled": 0, "is_reserved": 0, "name": "357de7890474c0c32592005fcc9ea2ec", "type": "electric_scooter", "fusion_lat": 0.0}, {"bike_id": "462ae82e278f9de10e65a7842978bf3a", "lon": -77.03959833333333, "lat": 38.914849833333335, "fusion_lon": 0.0, "rental_uris": {"ios": "https://dc.lft.to/lastmile_qr_scan", "android": "https://dc.lft.to/lastmile_qr_scan"}, "is_disabled": 0, "is_reserved": 0, "name": "462ae82e278f9de10e65a7842978bf3a", "type": "electric_scooter", "fusion_lat": 0.0}, {"bike_id": "172df4d9592980d46beefbc4afdda87f", "lon": -77.02088666666667, "lat": 38.92146366666667, "fusion_lon": 0.0, "rental_uris": {"ios": "https://dc.lft.to/lastmile_qr_scan", "android": "https://dc.lft.to/lastmile_qr_scan"}, "is_disabled": 0, "is_reserved": 0, "name": "172df4d9592980d46beefbc4afdda87f", "type": "electric_scooter", "fusion_lat": 0.0}, {"bike_id": "e161ee0a4f34cf9bd1ea3db618bf9822", "lon": -76.99122616666666, "lat": 38.882450666666664, "fusion_lon": 0.0, "rental_uris": {"ios": "https://dc.lft.to/lastmile_qr_scan", "android": "https://dc.lft.to/lastmile_qr_scan"}, "is_disabled": 0, "is_reserved": 0, "name": "e161ee0a4f34cf9bd1ea3db618bf9822", "type": "electric_scooter", "fusion_lat": 0.0}, {"bike_id": "e5958d47ca0aac7e05039cec7684fcba", "lon": -77.047646, "lat": 38.91873116666667, "fusion_lon": 0.0, "rental_uris": {"ios": "https://dc.lft.to/lastmile_qr_scan", "android": "https://dc.lft.to/lastmile_qr_scan"}, "is_disabled": 0, "is_reserved": 0, "name": "e5958d47ca0aac7e05039cec7684fcba", "type": "electric_scooter", "fusion_lat": 0.0}, {"bike_id": "8c64d1ccf28c8975168e348d8331d76a", "lon": -76.9733285, "lat": 38.90410166666667, "fusion_lon": 0.0, "rental_uris": {"ios": "https://dc.lft.to/lastmile_qr_scan", "android": "https://dc.lft.to/lastmile_qr_scan"}, "is_disabled": 0, "is_reserved": 0, "name": "8c64d1ccf28c8975168e348d8331d76a", "type": "electric_scooter", "fusion_lat": 0.0}, {"bike_id": "dc6d8fb2cd334489ac8bb9a03ac04c4a", "lon": -77.0248715, "lat": 38.880296, "fusion_lon": 0.0, "rental_uris": {"ios": "https://dc.lft.to/lastmile_qr_scan", "android": "https://dc.lft.to/lastmile_qr_scan"}, "is_disabled": 0, "is_reserved": 0, "name": "dc6d8fb2cd334489ac8bb9a03ac04c4a", "type": "electric_scooter", "fusion_lat": 0.0}, {"bike_id": "ae47adf29c5b5cadd0c96053f6dbbb84", "lon": -76.99096333333334, "lat": 38.88599383333333, "fusion_lon": 0.0, "rental_uris": {"ios": "https://dc.lft.to/lastmile_qr_scan", "android": "https://dc.lft.to/lastmile_qr_scan"}, "is_disabled": 0, "is_reserved": 0, "name": "ae47adf29c5b5cadd0c96053f6dbbb84", "type": "electric_scooter", "fusion_lat": 0.0}, {"bike_id": "c75a83547b49ccd21a577dcca75fc6e0", "lon": -77.0218035, "lat": 38.911150166666665, "fusion_lon": 0.0, "rental_uris": {"ios": "https://dc.lft.to/lastmile_qr_scan", "android": "https://dc.lft.to/lastmile_qr_scan"}, "is_disabled": 0, "is_reserved": 0, "name": "c75a83547b49ccd21a577dcca75fc6e0", "type": "electric_scooter", "fusion_lat": 0.0}, {"bike_id": "f855cf7a7ef762bd716d2d51755ef03e", "lon": -77.04560366666666, "lat": 38.89612116666667, "fusion_lon": 0.0, "rental_uris": {"ios": "https://dc.lft.to/lastmile_qr_scan", "android": "https://dc.lft.to/lastmile_qr_scan"}, "is_disabled": 0, "is_reserved": 0, "name": "f855cf7a7ef762bd716d2d51755ef03e", "type": "electric_scooter", "fusion_lat": 0.0}, {"bike_id": "a1907cf9f5585d6c84dc68725007a520", "lon": -77.04365866666667, "lat": 38.90867166666666, "fusion_lon": 0.0, "rental_uris": {"ios": "https://dc.lft.to/lastmile_qr_scan", "android": "https://dc.lft.to/lastmile_qr_scan"}, "is_disabled": 0, "is_reserved": 0, "name": "a1907cf9f5585d6c84dc68725007a520", "type": "electric_scooter", "fusion_lat": 0.0}, {"bike_id": "7a5b0922da87d72ff4e8564cb65024ed", "lon": -77.04150716666666, "lat": 38.9062935, "fusion_lon": 0.0, "rental_uris": {"ios": "https://dc.lft.to/lastmile_qr_scan", "android": "https://dc.lft.to/lastmile_qr_scan"}, "is_disabled": 0, "is_reserved": 0, "name": "7a5b0922da87d72ff4e8564cb65024ed", "type": "electric_scooter", "fusion_lat": 0.0}, {"bike_id": "962017a7ad465f43e37fc626054ed25e", "lon": -77.05159116666667, "lat": 38.90264466666667, "fusion_lon": 0.0, "rental_uris": {"ios": "https://dc.lft.to/lastmile_qr_scan", "android": "https://dc.lft.to/lastmile_qr_scan"}, "is_disabled": 0, "is_reserved": 0, "name": "962017a7ad465f43e37fc626054ed25e", "type": "electric_scooter", "fusion_lat": 0.0}, {"bike_id": "21a96078f8f20b0e489a8fd022571b63", "lon": -77.03297433333333, "lat": 38.92866983333333, "fusion_lon": 0.0, "rental_uris": {"ios": "https://dc.lft.to/lastmile_qr_scan", "android": "https://dc.lft.to/lastmile_qr_scan"}, "is_disabled": 0, "is_reserved": 0, "name": "21a96078f8f20b0e489a8fd022571b63", "type": "electric_scooter", "fusion_lat": 0.0}, {"bike_id": "849edf54ecaa4a27b00a9656bf29163d", "lon": -77.02204533333334, "lat": 38.91616583333333, "fusion_lon": 0.0, "rental_uris": {"ios": "https://dc.lft.to/lastmile_qr_scan", "android": "https://dc.lft.to/lastmile_qr_scan"}, "is_disabled": 0, "is_reserved": 0, "name": "849edf54ecaa4a27b00a9656bf29163d", "type": "electric_scooter", "fusion_lat": 0.0}, {"bike_id": "9444c6eb3db7d0039ae9dab8eec87a93", "lon": -77.02402416666666, "lat": 38.957314, "fusion_lon": 0.0, "rental_uris": {"ios": "https://dc.lft.to/lastmile_qr_scan", "android": "https://dc.lft.to/lastmile_qr_scan"}, "is_disabled": 0, "is_reserved": 0, "name": "9444c6eb3db7d0039ae9dab8eec87a93", "type": "electric_scooter", "fusion_lat": 0.0}, {"bike_id": "b4229e3af06975cb645c33c28de209e3", "lon": -76.973326, "lat": 38.904070833333336, "fusion_lon": 0.0, "rental_uris": {"ios": "https://dc.lft.to/lastmile_qr_scan", "android": "https://dc.lft.to/lastmile_qr_scan"}, "is_disabled": 0, "is_reserved": 0, "name": "b4229e3af06975cb645c33c28de209e3", "type": "electric_scooter", "fusion_lat": 0.0}, {"bike_id": "f02ad90d699c11eea5ed68d01d03af1f", "lon": -77.02337883333334, "lat": 38.925194, "fusion_lon": 0.0, "rental_uris": {"ios": "https://dc.lft.to/lastmile_qr_scan", "android": "https://dc.lft.to/lastmile_qr_scan"}, "is_disabled": 0, "is_reserved": 0, "name": "f02ad90d699c11eea5ed68d01d03af1f", "type": "electric_scooter", "fusion_lat": 0.0}, {"bike_id": "281cab077879a23f37d9e4f1f381a0c6", "lon": -77.03842516666667, "lat": 38.906429333333335, "fusion_lon": 0.0, "rental_uris": {"ios": "https://dc.lft.to/lastmile_qr_scan", "android": "https://dc.lft.to/lastmile_qr_scan"}, "is_disabled": 0, "is_reserved": 0, "name": "281cab077879a23f37d9e4f1f381a0c6", "type": "electric_scooter", "fusion_lat": 0.0}, {"bike_id": "118d95c42d63bf57ed029377320a66e7", "lon": -77.05250883333333, "lat": 38.927355, "fusion_lon": 0.0, "rental_uris": {"ios": "https://dc.lft.to/lastmile_qr_scan", "android": "https://dc.lft.to/lastmile_qr_scan"}, "is_disabled": 0, "is_reserved": 0, "name": "118d95c42d63bf57ed029377320a66e7", "type": "electric_scooter", "fusion_lat": 0.0}, {"bike_id": "f6d3682d23320c638b82a6173aaebae9", "lon": -77.05145966666667, "lat": 39.0505375, "fusion_lon": 0.0, "rental_uris": {"ios": "https://dc.lft.to/lastmile_qr_scan", "android": "https://dc.lft.to/lastmile_qr_scan"}, "is_disabled": 0, "is_reserved": 0, "name": "f6d3682d23320c638b82a6173aaebae9", "type": "electric_bike", "fusion_lat": 0.0}, {"bike_id": "f563d266d1f251399f3bb8bd58770a7d", "lon": -76.94615683333333, "lat": 38.83238266666667, "fusion_lon": 0.0, "rental_uris": {"ios": "https://dc.lft.to/lastmile_qr_scan", "android": "https://dc.lft.to/lastmile_qr_scan"}, "is_disabled": 0, "is_reserved": 0, "name": "f563d266d1f251399f3bb8bd58770a7d", "type": "electric_bike", "fusion_lat": 0.0}, {"bike_id": "c8e08c39c06644b403351b87c6554662", "lon": -77.02046216666666, "lat": 38.93242133333333, "fusion_lon": 0.0, "rental_uris": {"ios": "https://dc.lft.to/lastmile_qr_scan", "android": "https://dc.lft.to/lastmile_qr_scan"}, "is_disabled": 0, "is_reserved": 0, "name": "c8e08c39c06644b403351b87c6554662", "type": "electric_scooter", "fusion_lat": 0.0}, {"bike_id": "cbe5862ea2267de5f5b2028d1e692f35", "lon": -77.06309233333333, "lat": 38.93024416666667, "fusion_lon": 0.0, "rental_uris": {"ios": "https://dc.lft.to/lastmile_qr_scan", "android": "https://dc.lft.to/lastmile_qr_scan"}, "is_disabled": 0, "is_reserved": 0, "name": "cbe5862ea2267de5f5b2028d1e692f35", "type": "electric_scooter", "fusion_lat": 0.0}, {"bike_id": "26ea9d2dce4e1013f97eea410d4edd26", "lon": -77.04645033333334, "lat": 38.906441, "fusion_lon": 0.0, "rental_uris": {"ios": "https://dc.lft.to/lastmile_qr_scan", "android": "https://dc.lft.to/lastmile_qr_scan"}, "is_disabled": 0, "is_reserved": 0, "name": "26ea9d2dce4e1013f97eea410d4edd26", "type": "electric_scooter", "fusion_lat": 0.0}, {"bike_id": "32efa48e427ade7abb5c64b02922d05e", "lon": -77.0186805, "lat": 38.874827833333335, "fusion_lon": 0.0, "rental_uris": {"ios": "https://dc.lft.to/lastmile_qr_scan", "android": "https://dc.lft.to/lastmile_qr_scan"}, "is_disabled": 0, "is_reserved": 0, "name": "32efa48e427ade7abb5c64b02922d05e", "type": "electric_scooter", "fusion_lat": 0.0}, {"bike_id": "dd039982fbf69f935151583646665e98", "lon": -77.038184, "lat": 38.90981466666667, "fusion_lon": 0.0, "rental_uris": {"ios": "https://dc.lft.to/lastmile_qr_scan", "android": "https://dc.lft.to/lastmile_qr_scan"}, "is_disabled": 0, "is_reserved": 0, "name": "dd039982fbf69f935151583646665e98", "type": "electric_scooter", "fusion_lat": 0.0}, {"bike_id": "36278f9736b5698d6f5de3c774017ef4", "lon": -77.02794283333333, "lat": 38.894073166666665, "fusion_lon": 0.0, "rental_uris": {"ios": "https://dc.lft.to/lastmile_qr_scan", "android": "https://dc.lft.to/lastmile_qr_scan"}, "is_disabled": 0, "is_reserved": 0, "name": "36278f9736b5698d6f5de3c774017ef4", "type": "electric_scooter", "fusion_lat": 0.0}, {"bike_id": "c7475d6357ae4c9f85be5999f1bad426", "lon": -77.040593, "lat": 38.925422166666664, "fusion_lon": 0.0, "rental_uris": {"ios": "https://dc.lft.to/lastmile_qr_scan", "android": "https://dc.lft.to/lastmile_qr_scan"}, "is_disabled": 0, "is_reserved": 0, "name": "c7475d6357ae4c9f85be5999f1bad426", "type": "electric_scooter", "fusion_lat": 0.0}, {"bike_id": "a22a6c2ff269a87072c8b765b14a0996", "lon": -77.025088, "lat": 38.94203516666666, "fusion_lon": 0.0, "rental_uris": {"ios": "https://dc.lft.to/lastmile_qr_scan", "android": "https://dc.lft.to/lastmile_qr_scan"}, "is_disabled": 0, "is_reserved": 0, "name": "a22a6c2ff269a87072c8b765b14a0996", "type": "electric_scooter", "fusion_lat": 0.0}, {"bike_id": "a81946e4cfe4d0b8bfc9016a7833ee0c", "lon": -76.98819016666667, "lat": 38.9018045, "fusion_lon": 0.0, "rental_uris": {"ios": "https://dc.lft.to/lastmile_qr_scan", "android": "https://dc.lft.to/lastmile_qr_scan"}, "is_disabled": 0, "is_reserved": 0, "name": "a81946e4cfe4d0b8bfc9016a7833ee0c", "type": "electric_scooter", "fusion_lat": 0.0}, {"bike_id": "db88454acde45b40282c95887132ba9c", "lon": -77.01542933333333, "lat": 38.94128333333333, "fusion_lon": 0.0, "rental_uris": {"ios": "https://dc.lft.to/lastmile_qr_scan", "android": "https://dc.lft.to/lastmile_qr_scan"}, "is_disabled": 0, "is_reserved": 0, "name": "db88454acde45b40282c95887132ba9c", "type": "electric_scooter", "fusion_lat": 0.0}, {"bike_id": "d49857436f570a28bd78599f9fcead38", "lon": -77.00580033333334, "lat": 38.87647183333333, "fusion_lon": 0.0, "rental_uris": {"ios": "https://dc.lft.to/lastmile_qr_scan", "android": "https://dc.lft.to/lastmile_qr_scan"}, "is_disabled": 0, "is_reserved": 0, "name": "d49857436f570a28bd78599f9fcead38", "type": "electric_scooter", "fusion_lat": 0.0}, {"bike_id": "eaa398018f1faefed843a007e58dc0af", "lon": -77.032107, "lat": 38.916453833333335, "fusion_lon": 0.0, "rental_uris": {"ios": "https://dc.lft.to/lastmile_qr_scan", "android": "https://dc.lft.to/lastmile_qr_scan"}, "is_disabled": 0, "is_reserved": 0, "name": "eaa398018f1faefed843a007e58dc0af", "type": "electric_scooter", "fusion_lat": 0.0}, {"bike_id": "4acd9ebd5d492b63be03b302fb9742b8", "lon": -77.03355333333333, "lat": 38.901317, "fusion_lon": 0.0, "rental_uris": {"ios": "https://dc.lft.to/lastmile_qr_scan", "android": "https://dc.lft.to/lastmile_qr_scan"}, "is_disabled": 0, "is_reserved": 0, "name": "4acd9ebd5d492b63be03b302fb9742b8", "type": "electric_scooter", "fusion_lat": 0.0}, {"bike_id": "a0f204e3d7733f3e96ed2979dfcf44c3", "lon": -77.0241945, "lat": 38.91779733333333, "fusion_lon": 0.0, "rental_uris": {"ios": "https://dc.lft.to/lastmile_qr_scan", "android": "https://dc.lft.to/lastmile_qr_scan"}, "is_disabled": 0, "is_reserved": 0, "name": "a0f204e3d7733f3e96ed2979dfcf44c3", "type": "electric_scooter", "fusion_lat": 0.0}, {"bike_id": "38d801a350588929c0ff7a1f4e944993", "lon": -77.036838, "lat": 38.9232295, "fusion_lon": 0.0, "rental_uris": {"ios": "https://dc.lft.to/lastmile_qr_scan", "android": "https://dc.lft.to/lastmile_qr_scan"}, "is_disabled": 0, "is_reserved": 0, "name": "38d801a350588929c0ff7a1f4e944993", "type": "electric_scooter", "fusion_lat": 0.0}, {"bike_id": "91668c551d9699c826acdef179b9cf49", "lon": -76.98266433333333, "lat": 38.866311, "fusion_lon": 0.0, "rental_uris": {"ios": "https://dc.lft.to/lastmile_qr_scan", "android": "https://dc.lft.to/lastmile_qr_scan"}, "is_disabled": 0, "is_reserved": 0, "name": "91668c551d9699c826acdef179b9cf49", "type": "electric_scooter", "fusion_lat": 0.0}, {"bike_id": "302ff01ce0fcbdd73967d8956fcd4c4b", "lon": -77.04349466666666, "lat": 38.90415333333333, "fusion_lon": 0.0, "rental_uris": {"ios": "https://dc.lft.to/lastmile_qr_scan", "android": "https://dc.lft.to/lastmile_qr_scan"}, "is_disabled": 0, "is_reserved": 0, "name": "302ff01ce0fcbdd73967d8956fcd4c4b", "type": "electric_scooter", "fusion_lat": 0.0}, {"bike_id": "686364a45815af79ada17f8f5f99ce21", "lon": -77.00133183333334, "lat": 38.89470766666667, "fusion_lon": 0.0, "rental_uris": {"ios": "https://dc.lft.to/lastmile_qr_scan", "android": "https://dc.lft.to/lastmile_qr_scan"}, "is_disabled": 0, "is_reserved": 0, "name": "686364a45815af79ada17f8f5f99ce21", "type": "electric_scooter", "fusion_lat": 0.0}, {"bike_id": "9a56e5bf5690e3636e6d7bc5db295dfa", "lon": -77.0222195, "lat": 38.90309766666667, "fusion_lon": 0.0, "rental_uris": {"ios": "https://dc.lft.to/lastmile_qr_scan", "android": "https://dc.lft.to/lastmile_qr_scan"}, "is_disabled": 0, "is_reserved": 0, "name": "9a56e5bf5690e3636e6d7bc5db295dfa", "type": "electric_scooter", "fusion_lat": 0.0}, {"bike_id": "a1cf18368047f8f6c2c6d8bf66d8035f", "lon": -77.03330466666667, "lat": 38.9499295, "fusion_lon": 0.0, "rental_uris": {"ios": "https://dc.lft.to/lastmile_qr_scan", "android": "https://dc.lft.to/lastmile_qr_scan"}, "is_disabled": 0, "is_reserved": 0, "name": "a1cf18368047f8f6c2c6d8bf66d8035f", "type": "electric_scooter", "fusion_lat": 0.0}, {"bike_id": "6653a80a4977f5e0a346fdf7cfeca47b", "lon": -77.022123, "lat": 38.894137, "fusion_lon": 0.0, "rental_uris": {"ios": "https://dc.lft.to/lastmile_qr_scan", "android": "https://dc.lft.to/lastmile_qr_scan"}, "is_disabled": 0, "is_reserved": 0, "name": "6653a80a4977f5e0a346fdf7cfeca47b", "type": "electric_scooter", "fusion_lat": 0.0}, {"bike_id": "0fee9485512356b5006a7d096a77ca06", "lon": -77.015152, "lat": 38.967783, "fusion_lon": 0.0, "rental_uris": {"ios": "https://dc.lft.to/lastmile_qr_scan", "android": "https://dc.lft.to/lastmile_qr_scan"}, "is_disabled": 0, "is_reserved": 0, "name": "0fee9485512356b5006a7d096a77ca06", "type": "electric_scooter", "fusion_lat": 0.0}, {"bike_id": "3353381e7d2bd0b4c843b79c65ccf7dd", "lon": -76.9767805, "lat": 38.952472666666665, "fusion_lon": 0.0, "rental_uris": {"ios": "https://dc.lft.to/lastmile_qr_scan", "android": "https://dc.lft.to/lastmile_qr_scan"}, "is_disabled": 0, "is_reserved": 0, "name": "3353381e7d2bd0b4c843b79c65ccf7dd", "type": "electric_bike", "fusion_lat": 0.0}, {"bike_id": "42eb220675fc19bf722f73dbabaf0f91", "lon": -77.0071165, "lat": 38.946029333333335, "fusion_lon": 0.0, "rental_uris": {"ios": "https://dc.lft.to/lastmile_qr_scan", "android": "https://dc.lft.to/lastmile_qr_scan"}, "is_disabled": 0, "is_reserved": 0, "name": "42eb220675fc19bf722f73dbabaf0f91", "type": "electric_bike", "fusion_lat": 0.0}, {"bike_id": "a177d00e693fef5cf06e9fbd668437a2", "lon": -77.00990716666666, "lat": 38.90639616666667, "fusion_lon": 0.0, "rental_uris": {"ios": "https://dc.lft.to/lastmile_qr_scan", "android": "https://dc.lft.to/lastmile_qr_scan"}, "is_disabled": 0, "is_reserved": 0, "name": "a177d00e693fef5cf06e9fbd668437a2", "type": "electric_scooter", "fusion_lat": 0.0}, {"bike_id": "f3277a58afb707e01a7745dd5c90b2e2", "lon": -77.0482105, "lat": 38.9187695, "fusion_lon": 0.0, "rental_uris": {"ios": "https://dc.lft.to/lastmile_qr_scan", "android": "https://dc.lft.to/lastmile_qr_scan"}, "is_disabled": 0, "is_reserved": 0, "name": "f3277a58afb707e01a7745dd5c90b2e2", "type": "electric_scooter", "fusion_lat": 0.0}, {"bike_id": "a4df1169e8ab2a244d8d37e3fd3d1d69", "lon": -77.0839635, "lat": 38.9289245, "fusion_lon": 0.0, "rental_uris": {"ios": "https://dc.lft.to/lastmile_qr_scan", "android": "https://dc.lft.to/lastmile_qr_scan"}, "is_disabled": 0, "is_reserved": 0, "name": "a4df1169e8ab2a244d8d37e3fd3d1d69", "type": "electric_bike", "fusion_lat": 0.0}, {"bike_id": "91980ad6f83f500ca3ac67361d2c0395", "lon": -77.02219583333333, "lat": 38.9210585, "fusion_lon": 0.0, "rental_uris": {"ios": "https://dc.lft.to/lastmile_qr_scan", "android": "https://dc.lft.to/lastmile_qr_scan"}, "is_disabled": 0, "is_reserved": 0, "name": "91980ad6f83f500ca3ac67361d2c0395", "type": "electric_scooter", "fusion_lat": 0.0}, {"bike_id": "912af019d83bda402afb13aa58ed2823", "lon": -76.98223516666667, "lat": 38.8662295, "fusion_lon": 0.0, "rental_uris": {"ios": "https://dc.lft.to/lastmile_qr_scan", "android": "https://dc.lft.to/lastmile_qr_scan"}, "is_disabled": 0, "is_reserved": 0, "name": "912af019d83bda402afb13aa58ed2823", "type": "electric_scooter", "fusion_lat": 0.0}, {"bike_id": "a4da43eec4fd680734eb0643dffce12a", "lon": -77.00219133333333, "lat": 38.8236705, "fusion_lon": 0.0, "rental_uris": {"ios": "https://dc.lft.to/lastmile_qr_scan", "android": "https://dc.lft.to/lastmile_qr_scan"}, "is_disabled": 0, "is_reserved": 0, "name": "a4da43eec4fd680734eb0643dffce12a", "type": "electric_bike", "fusion_lat": 0.0}, {"bike_id": "43d6b6b145096f7cb72b89967bcab7a1", "lon": -77.04706683333333, "lat": 38.9223615, "fusion_lon": 0.0, "rental_uris": {"ios": "https://dc.lft.to/lastmile_qr_scan", "android": "https://dc.lft.to/lastmile_qr_scan"}, "is_disabled": 0, "is_reserved": 0, "name": "43d6b6b145096f7cb72b89967bcab7a1", "type": "electric_scooter", "fusion_lat": 0.0}, {"bike_id": "bcbd5747c3737ebd7143091b7ed2ded9", "lon": -77.06475666666667, "lat": 38.9098745, "fusion_lon": 0.0, "rental_uris": {"ios": "https://dc.lft.to/lastmile_qr_scan", "android": "https://dc.lft.to/lastmile_qr_scan"}, "is_disabled": 0, "is_reserved": 0, "name": "bcbd5747c3737ebd7143091b7ed2ded9", "type": "electric_scooter", "fusion_lat": 0.0}, {"bike_id": "8f4d2cffee8c3caa0135d4b28616624f", "lon": -77.0337745, "lat": 38.9021285, "fusion_lon": 0.0, "rental_uris": {"ios": "https://dc.lft.to/lastmile_qr_scan", "android": "https://dc.lft.to/lastmile_qr_scan"}, "is_disabled": 0, "is_reserved": 0, "name": "8f4d2cffee8c3caa0135d4b28616624f", "type": "electric_scooter", "fusion_lat": 0.0}, {"bike_id": "57665eac29e5488a520e92d7d76f4d0a", "lon": -77.11830983333333, "lat": 38.85935166666667, "fusion_lon": 0.0, "rental_uris": {"ios": "https://dc.lft.to/lastmile_qr_scan", "android": "https://dc.lft.to/lastmile_qr_scan"}, "is_disabled": 0, "is_reserved": 0, "name": "57665eac29e5488a520e92d7d76f4d0a", "type": "electric_bike", "fusion_lat": 0.0}, {"bike_id": "deb19da55d63bdff18a23dd562177042", "lon": -77.026534, "lat": 38.94984433333333, "fusion_lon": 0.0, "rental_uris": {"ios": "https://dc.lft.to/lastmile_qr_scan", "android": "https://dc.lft.to/lastmile_qr_scan"}, "is_disabled": 0, "is_reserved": 0, "name": "deb19da55d63bdff18a23dd562177042", "type": "electric_scooter", "fusion_lat": 0.0}, {"bike_id": "0111ab72235f41ed3647e959c92b5ab0", "lon": -77.0043615, "lat": 38.876722666666666, "fusion_lon": 0.0, "rental_uris": {"ios": "https://dc.lft.to/lastmile_qr_scan", "android": "https://dc.lft.to/lastmile_qr_scan"}, "is_disabled": 0, "is_reserved": 0, "name": "0111ab72235f41ed3647e959c92b5ab0", "type": "electric_scooter", "fusion_lat": 0.0}, {"bike_id": "533523651d2f15de7c49f072d2911dbd", "lon": -77.0014125, "lat": 38.88611233333334, "fusion_lon": 0.0, "rental_uris": {"ios": "https://dc.lft.to/lastmile_qr_scan", "android": "https://dc.lft.to/lastmile_qr_scan"}, "is_disabled": 0, "is_reserved": 0, "name": "533523651d2f15de7c49f072d2911dbd", "type": "electric_scooter", "fusion_lat": 0.0}, {"bike_id": "f41ba0cca7d30bc66b20d8374ea3a147", "lon": -77.0279315, "lat": 38.95842666666667, "fusion_lon": 0.0, "rental_uris": {"ios": "https://dc.lft.to/lastmile_qr_scan", "android": "https://dc.lft.to/lastmile_qr_scan"}, "is_disabled": 0, "is_reserved": 0, "name": "f41ba0cca7d30bc66b20d8374ea3a147", "type": "electric_scooter", "fusion_lat": 0.0}, {"bike_id": "89d4b24052a2077b37e1bd770211490f", "lon": -76.9733075, "lat": 38.90409233333333, "fusion_lon": 0.0, "rental_uris": {"ios": "https://dc.lft.to/lastmile_qr_scan", "android": "https://dc.lft.to/lastmile_qr_scan"}, "is_disabled": 0, "is_reserved": 0, "name": "89d4b24052a2077b37e1bd770211490f", "type": "electric_scooter", "fusion_lat": 0.0}, {"bike_id": "e3746649d90487467ff47ece1727d957", "lon": -77.04350766666667, "lat": 38.92315116666666, "fusion_lon": 0.0, "rental_uris": {"ios": "https://dc.lft.to/lastmile_qr_scan", "android": "https://dc.lft.to/lastmile_qr_scan"}, "is_disabled": 0, "is_reserved": 0, "name": "e3746649d90487467ff47ece1727d957", "type": "electric_scooter", "fusion_lat": 0.0}, {"bike_id": "f1f28f6b6df8dcc68b325504efba725d", "lon": -77.0629835, "lat": 38.903975333333335, "fusion_lon": 0.0, "rental_uris": {"ios": "https://dc.lft.to/lastmile_qr_scan", "android": "https://dc.lft.to/lastmile_qr_scan"}, "is_disabled": 0, "is_reserved": 0, "name": "f1f28f6b6df8dcc68b325504efba725d", "type": "electric_scooter", "fusion_lat": 0.0}, {"bike_id": "f5eaa5f17dd9863a212d85cc8b762cdc", "lon": -77.02066583333334, "lat": 38.921424333333334, "fusion_lon": 0.0, "rental_uris": {"ios": "https://dc.lft.to/lastmile_qr_scan", "android": "https://dc.lft.to/lastmile_qr_scan"}, "is_disabled": 0, "is_reserved": 0, "name": "f5eaa5f17dd9863a212d85cc8b762cdc", "type": "electric_scooter", "fusion_lat": 0.0}, {"bike_id": "b5aa9862a3af65e3d9a5ea8a334a1c78", "lon": -77.01921966666667, "lat": 38.921707833333336, "fusion_lon": 0.0, "rental_uris": {"ios": "https://dc.lft.to/lastmile_qr_scan", "android": "https://dc.lft.to/lastmile_qr_scan"}, "is_disabled": 0, "is_reserved": 0, "name": "b5aa9862a3af65e3d9a5ea8a334a1c78", "type": "electric_scooter", "fusion_lat": 0.0}, {"bike_id": "8b2a5fb2284ee6c1d8d2daad60f4ef14", "lon": -77.03906466666666, "lat": 38.9103405, "fusion_lon": 0.0, "rental_uris": {"ios": "https://dc.lft.to/lastmile_qr_scan", "android": "https://dc.lft.to/lastmile_qr_scan"}, "is_disabled": 0, "is_reserved": 0, "name": "8b2a5fb2284ee6c1d8d2daad60f4ef14", "type": "electric_scooter", "fusion_lat": 0.0}, {"bike_id": "0c04b6655547c484247f62f3f14023c0", "lon": -76.98705833333334, "lat": 38.90063583333333, "fusion_lon": 0.0, "rental_uris": {"ios": "https://dc.lft.to/lastmile_qr_scan", "android": "https://dc.lft.to/lastmile_qr_scan"}, "is_disabled": 0, "is_reserved": 0, "name": "0c04b6655547c484247f62f3f14023c0", "type": "electric_scooter", "fusion_lat": 0.0}, {"bike_id": "df1d8723c3da03786b17010fa45e1de1", "lon": -77.0186835, "lat": 38.951499166666665, "fusion_lon": 0.0, "rental_uris": {"ios": "https://dc.lft.to/lastmile_qr_scan", "android": "https://dc.lft.to/lastmile_qr_scan"}, "is_disabled": 0, "is_reserved": 0, "name": "df1d8723c3da03786b17010fa45e1de1", "type": "electric_scooter", "fusion_lat": 0.0}, {"bike_id": "b22856bacfa11bea1e46f9c5437572ea", "lon": -77.03323616666667, "lat": 38.903692666666664, "fusion_lon": 0.0, "rental_uris": {"ios": "https://dc.lft.to/lastmile_qr_scan", "android": "https://dc.lft.to/lastmile_qr_scan"}, "is_disabled": 0, "is_reserved": 0, "name": "b22856bacfa11bea1e46f9c5437572ea", "type": "electric_scooter", "fusion_lat": 0.0}, {"bike_id": "9f3be0af2725b1f5841a1e694fc81ffb", "lon": -77.046772, "lat": 38.90555666666667, "fusion_lon": 0.0, "rental_uris": {"ios": "https://dc.lft.to/lastmile_qr_scan", "android": "https://dc.lft.to/lastmile_qr_scan"}, "is_disabled": 0, "is_reserved": 0, "name": "9f3be0af2725b1f5841a1e694fc81ffb", "type": "electric_scooter", "fusion_lat": 0.0}, {"bike_id": "cf11bfd83d9a056db088757441e23b1b", "lon": -77.0421725, "lat": 38.9209265, "fusion_lon": 0.0, "rental_uris": {"ios": "https://dc.lft.to/lastmile_qr_scan", "android": "https://dc.lft.to/lastmile_qr_scan"}, "is_disabled": 0, "is_reserved": 0, "name": "cf11bfd83d9a056db088757441e23b1b", "type": "electric_scooter", "fusion_lat": 0.0}, {"bike_id": "abd9c428f786ec56c93378a41917bed8", "lon": -77.02557766666666, "lat": 38.9186185, "fusion_lon": 0.0, "rental_uris": {"ios": "https://dc.lft.to/lastmile_qr_scan", "android": "https://dc.lft.to/lastmile_qr_scan"}, "is_disabled": 0, "is_reserved": 0, "name": "abd9c428f786ec56c93378a41917bed8", "type": "electric_scooter", "fusion_lat": 0.0}, {"bike_id": "c5e11e1aaf776e7b45c302bb9ae6f6cb", "lon": -77.04335766666667, "lat": 38.90140383333333, "fusion_lon": 0.0, "rental_uris": {"ios": "https://dc.lft.to/lastmile_qr_scan", "android": "https://dc.lft.to/lastmile_qr_scan"}, "is_disabled": 0, "is_reserved": 0, "name": "c5e11e1aaf776e7b45c302bb9ae6f6cb", "type": "electric_scooter", "fusion_lat": 0.0}, {"bike_id": "ddb67b25a53176d295033869260be139", "lon": -76.99850616666667, "lat": 38.89624933333333, "fusion_lon": 0.0, "rental_uris": {"ios": "https://dc.lft.to/lastmile_qr_scan", "android": "https://dc.lft.to/lastmile_qr_scan"}, "is_disabled": 0, "is_reserved": 0, "name": "ddb67b25a53176d295033869260be139", "type": "electric_scooter", "fusion_lat": 0.0}, {"bike_id": "52d90fd4c3f7e35e98f4fb73e7b29b76", "lon": -76.9274365, "lat": 38.900678, "fusion_lon": 0.0, "rental_uris": {"ios": "https://dc.lft.to/lastmile_qr_scan", "android": "https://dc.lft.to/lastmile_qr_scan"}, "is_disabled": 0, "is_reserved": 0, "name": "52d90fd4c3f7e35e98f4fb73e7b29b76", "type": "electric_scooter", "fusion_lat": 0.0}, {"bike_id": "ecaa3e0bce42f9e38ea0e046acd1e633", "lon": -77.02502083333333, "lat": 38.94204083333333, "fusion_lon": 0.0, "rental_uris": {"ios": "https://dc.lft.to/lastmile_qr_scan", "android": "https://dc.lft.to/lastmile_qr_scan"}, "is_disabled": 0, "is_reserved": 0, "name": "ecaa3e0bce42f9e38ea0e046acd1e633", "type": "electric_scooter", "fusion_lat": 0.0}, {"bike_id": "cf755653993a59c7a4e7c331e83b69f9", "lon": -77.0349895, "lat": 38.944987166666664, "fusion_lon": 0.0, "rental_uris": {"ios": "https://dc.lft.to/lastmile_qr_scan", "android": "https://dc.lft.to/lastmile_qr_scan"}, "is_disabled": 0, "is_reserved": 0, "name": "cf755653993a59c7a4e7c331e83b69f9", "type": "electric_scooter", "fusion_lat": 0.0}, {"bike_id": "14cc1eedc4e505700a6ef52e884f8ffa", "lon": -77.069401, "lat": 38.960971666666666, "fusion_lon": 0.0, "rental_uris": {"ios": "https://dc.lft.to/lastmile_qr_scan", "android": "https://dc.lft.to/lastmile_qr_scan"}, "is_disabled": 0, "is_reserved": 0, "name": "14cc1eedc4e505700a6ef52e884f8ffa", "type": "electric_bike", "fusion_lat": 0.0}, {"bike_id": "446d0e607ef20efc4504a687131965a0", "lon": -77.0248505, "lat": 38.9170405, "fusion_lon": 0.0, "rental_uris": {"ios": "https://dc.lft.to/lastmile_qr_scan", "android": "https://dc.lft.to/lastmile_qr_scan"}, "is_disabled": 0, "is_reserved": 0, "name": "446d0e607ef20efc4504a687131965a0", "type": "electric_scooter", "fusion_lat": 0.0}, {"bike_id": "3e3773eecf329491d00735ef211e6ceb", "lon": -77.02515783333334, "lat": 38.91691433333333, "fusion_lon": 0.0, "rental_uris": {"ios": "https://dc.lft.to/lastmile_qr_scan", "android": "https://dc.lft.to/lastmile_qr_scan"}, "is_disabled": 0, "is_reserved": 0, "name": "3e3773eecf329491d00735ef211e6ceb", "type": "electric_scooter", "fusion_lat": 0.0}, {"bike_id": "63edfd60486f007c76ea9e073beda0aa", "lon": -76.93026916666666, "lat": 38.90085233333333, "fusion_lon": 0.0, "rental_uris": {"ios": "https://dc.lft.to/lastmile_qr_scan", "android": "https://dc.lft.to/lastmile_qr_scan"}, "is_disabled": 0, "is_reserved": 0, "name": "63edfd60486f007c76ea9e073beda0aa", "type": "electric_scooter", "fusion_lat": 0.0}, {"bike_id": "af02b6e2a58d244db0f0773fc5b0310e", "lon": -77.00781183333334, "lat": 38.90571466666667, "fusion_lon": 0.0, "rental_uris": {"ios": "https://dc.lft.to/lastmile_qr_scan", "android": "https://dc.lft.to/lastmile_qr_scan"}, "is_disabled": 0, "is_reserved": 0, "name": "af02b6e2a58d244db0f0773fc5b0310e", "type": "electric_scooter", "fusion_lat": 0.0}, {"bike_id": "f4db7aa3f5b7ece850beb00da9b3cea0", "lon": -77.0088325, "lat": 38.884994166666665, "fusion_lon": 0.0, "rental_uris": {"ios": "https://dc.lft.to/lastmile_qr_scan", "android": "https://dc.lft.to/lastmile_qr_scan"}, "is_disabled": 0, "is_reserved": 0, "name": "f4db7aa3f5b7ece850beb00da9b3cea0", "type": "electric_scooter", "fusion_lat": 0.0}, {"bike_id": "d1ebe975658db634ec2d651b344f37c7", "lon": -77.03507, "lat": 38.91870566666667, "fusion_lon": 0.0, "rental_uris": {"ios": "https://dc.lft.to/lastmile_qr_scan", "android": "https://dc.lft.to/lastmile_qr_scan"}, "is_disabled": 0, "is_reserved": 0, "name": "d1ebe975658db634ec2d651b344f37c7", "type": "electric_scooter", "fusion_lat": 0.0}, {"bike_id": "ec5da563ec519efb594f8acf1d0dbfa6", "lon": -77.040593, "lat": 38.92394, "fusion_lon": 0.0, "rental_uris": {"ios": "https://dc.lft.to/lastmile_qr_scan", "android": "https://dc.lft.to/lastmile_qr_scan"}, "is_disabled": 0, "is_reserved": 0, "name": "ec5da563ec519efb594f8acf1d0dbfa6", "type": "electric_scooter", "fusion_lat": 0.0}, {"bike_id": "a7cb7885f982a4a6b670d540465c80d6", "lon": -77.0398695, "lat": 38.90338783333333, "fusion_lon": 0.0, "rental_uris": {"ios": "https://dc.lft.to/lastmile_qr_scan", "android": "https://dc.lft.to/lastmile_qr_scan"}, "is_disabled": 0, "is_reserved": 0, "name": "a7cb7885f982a4a6b670d540465c80d6", "type": "electric_scooter", "fusion_lat": 0.0}, {"bike_id": "3bd15cba790d4682f234ce0e699a9b4a", "lon": -77.043839, "lat": 38.9166335, "fusion_lon": 0.0, "rental_uris": {"ios": "https://dc.lft.to/lastmile_qr_scan", "android": "https://dc.lft.to/lastmile_qr_scan"}, "is_disabled": 0, "is_reserved": 0, "name": "3bd15cba790d4682f234ce0e699a9b4a", "type": "electric_scooter", "fusion_lat": 0.0}, {"bike_id": "583b5c50395cd679915bd5d5ba881275", "lon": -77.033148, "lat": 38.916918, "fusion_lon": 0.0, "rental_uris": {"ios": "https://dc.lft.to/lastmile_qr_scan", "android": "https://dc.lft.to/lastmile_qr_scan"}, "is_disabled": 0, "is_reserved": 0, "name": "583b5c50395cd679915bd5d5ba881275", "type": "electric_scooter", "fusion_lat": 0.0}, {"bike_id": "80cbf94a3dc6c0b8c1202034d1e2ed5d", "lon": -77.02385516666666, "lat": 38.9095455, "fusion_lon": 0.0, "rental_uris": {"ios": "https://dc.lft.to/lastmile_qr_scan", "android": "https://dc.lft.to/lastmile_qr_scan"}, "is_disabled": 0, "is_reserved": 0, "name": "80cbf94a3dc6c0b8c1202034d1e2ed5d", "type": "electric_scooter", "fusion_lat": 0.0}, {"bike_id": "0bde725d4f2d61bb8c7e2232f1b374f5", "lon": -77.09453183333333, "lat": 38.80753283333333, "fusion_lon": 0.0, "rental_uris": {"ios": "https://dc.lft.to/lastmile_qr_scan", "android": "https://dc.lft.to/lastmile_qr_scan"}, "is_disabled": 0, "is_reserved": 0, "name": "0bde725d4f2d61bb8c7e2232f1b374f5", "type": "electric_bike", "fusion_lat": 0.0}, {"bike_id": "4ecac73a60bf2db5cd542e6ee42e2e75", "lon": -77.04359866666667, "lat": 38.904567166666666, "fusion_lon": 0.0, "rental_uris": {"ios": "https://dc.lft.to/lastmile_qr_scan", "android": "https://dc.lft.to/lastmile_qr_scan"}, "is_disabled": 0, "is_reserved": 0, "name": "4ecac73a60bf2db5cd542e6ee42e2e75", "type": "electric_scooter", "fusion_lat": 0.0}, {"bike_id": "065526e45f2b24c8e9ece35f032f23b7", "lon": -77.04491366666667, "lat": 38.91052233333333, "fusion_lon": 0.0, "rental_uris": {"ios": "https://dc.lft.to/lastmile_qr_scan", "android": "https://dc.lft.to/lastmile_qr_scan"}, "is_disabled": 0, "is_reserved": 0, "name": "065526e45f2b24c8e9ece35f032f23b7", "type": "electric_scooter", "fusion_lat": 0.0}, {"bike_id": "7017762aca82c2042addb752f01d18e4", "lon": -77.043348, "lat": 38.91120866666667, "fusion_lon": 0.0, "rental_uris": {"ios": "https://dc.lft.to/lastmile_qr_scan", "android": "https://dc.lft.to/lastmile_qr_scan"}, "is_disabled": 0, "is_reserved": 0, "name": "7017762aca82c2042addb752f01d18e4", "type": "electric_scooter", "fusion_lat": 0.0}, {"bike_id": "ffa06c5392c6c8780f67a0f1b4ca08ea", "lon": -77.0268725, "lat": 38.8961605, "fusion_lon": 0.0, "rental_uris": {"ios": "https://dc.lft.to/lastmile_qr_scan", "android": "https://dc.lft.to/lastmile_qr_scan"}, "is_disabled": 0, "is_reserved": 0, "name": "ffa06c5392c6c8780f67a0f1b4ca08ea", "type": "electric_scooter", "fusion_lat": 0.0}, {"bike_id": "12c4c4a794077c327a59c603d082c603", "lon": -77.070599, "lat": 38.899239, "fusion_lon": 0.0, "rental_uris": {"ios": "https://dc.lft.to/lastmile_qr_scan", "android": "https://dc.lft.to/lastmile_qr_scan"}, "is_disabled": 0, "is_reserved": 0, "name": "12c4c4a794077c327a59c603d082c603", "type": "electric_scooter", "fusion_lat": 0.0}, {"bike_id": "702e96c43db938a9d06d4d26615d67b1", "lon": -77.02129166666667, "lat": 38.93687766666667, "fusion_lon": 0.0, "rental_uris": {"ios": "https://dc.lft.to/lastmile_qr_scan", "android": "https://dc.lft.to/lastmile_qr_scan"}, "is_disabled": 0, "is_reserved": 0, "name": "702e96c43db938a9d06d4d26615d67b1", "type": "electric_bike", "fusion_lat": 0.0}, {"bike_id": "f3ee4cfdf868dc93652777b9ea1bae73", "lon": -76.98898333333334, "lat": 38.866276666666664, "fusion_lon": 0.0, "rental_uris": {"ios": "https://dc.lft.to/lastmile_qr_scan", "android": "https://dc.lft.to/lastmile_qr_scan"}, "is_disabled": 0, "is_reserved": 0, "name": "f3ee4cfdf868dc93652777b9ea1bae73", "type": "electric_scooter", "fusion_lat": 0.0}, {"bike_id": "737c5d9eaa143fccc88fd0221e1f21cb", "lon": -76.98228766666666, "lat": 38.916545666666664, "fusion_lon": 0.0, "rental_uris": {"ios": "https://dc.lft.to/lastmile_qr_scan", "android": "https://dc.lft.to/lastmile_qr_scan"}, "is_disabled": 0, "is_reserved": 0, "name": "737c5d9eaa143fccc88fd0221e1f21cb", "type": "electric_scooter", "fusion_lat": 0.0}, {"bike_id": "723895d0365cab373823a2d34ad4f18c", "lon": -76.92995266666667, "lat": 38.89700916666666, "fusion_lon": 0.0, "rental_uris": {"ios": "https://dc.lft.to/lastmile_qr_scan", "android": "https://dc.lft.to/lastmile_qr_scan"}, "is_disabled": 0, "is_reserved": 0, "name": "723895d0365cab373823a2d34ad4f18c", "type": "electric_scooter", "fusion_lat": 0.0}, {"bike_id": "fd2f1ca0de81b532be0cab6948af8727", "lon": -77.0229515, "lat": 38.91641383333334, "fusion_lon": 0.0, "rental_uris": {"ios": "https://dc.lft.to/lastmile_qr_scan", "android": "https://dc.lft.to/lastmile_qr_scan"}, "is_disabled": 0, "is_reserved": 0, "name": "fd2f1ca0de81b532be0cab6948af8727", "type": "electric_scooter", "fusion_lat": 0.0}, {"bike_id": "3beed1a76166c1c445743efc59965318", "lon": -77.0088755, "lat": 38.92357633333334, "fusion_lon": 0.0, "rental_uris": {"ios": "https://dc.lft.to/lastmile_qr_scan", "android": "https://dc.lft.to/lastmile_qr_scan"}, "is_disabled": 0, "is_reserved": 0, "name": "3beed1a76166c1c445743efc59965318", "type": "electric_scooter", "fusion_lat": 0.0}, {"bike_id": "4062708c427b83fe9b0db39def9fd60e", "lon": -77.02310233333333, "lat": 38.909618333333334, "fusion_lon": 0.0, "rental_uris": {"ios": "https://dc.lft.to/lastmile_qr_scan", "android": "https://dc.lft.to/lastmile_qr_scan"}, "is_disabled": 0, "is_reserved": 0, "name": "4062708c427b83fe9b0db39def9fd60e", "type": "electric_scooter", "fusion_lat": 0.0}, {"bike_id": "d51f4cea8319e0aa38e126b5a44cc564", "lon": -77.04503366666667, "lat": 38.903655, "fusion_lon": 0.0, "rental_uris": {"ios": "https://dc.lft.to/lastmile_qr_scan", "android": "https://dc.lft.to/lastmile_qr_scan"}, "is_disabled": 0, "is_reserved": 0, "name": "d51f4cea8319e0aa38e126b5a44cc564", "type": "electric_scooter", "fusion_lat": 0.0}, {"bike_id": "255fc087209c703b0699ae90761fd2eb", "lon": -77.05011233333333, "lat": 38.903649333333334, "fusion_lon": 0.0, "rental_uris": {"ios": "https://dc.lft.to/lastmile_qr_scan", "android": "https://dc.lft.to/lastmile_qr_scan"}, "is_disabled": 0, "is_reserved": 0, "name": "255fc087209c703b0699ae90761fd2eb", "type": "electric_scooter", "fusion_lat": 0.0}, {"bike_id": "31c04b98bf9fa96c668a097e229e1254", "lon": -77.03220616666667, "lat": 38.919946333333336, "fusion_lon": 0.0, "rental_uris": {"ios": "https://dc.lft.to/lastmile_qr_scan", "android": "https://dc.lft.to/lastmile_qr_scan"}, "is_disabled": 0, "is_reserved": 0, "name": "31c04b98bf9fa96c668a097e229e1254", "type": "electric_scooter", "fusion_lat": 0.0}, {"bike_id": "ee5da84116a0e9d6c1aa1645cf4d3257", "lon": -77.02402583333334, "lat": 38.91639766666667, "fusion_lon": 0.0, "rental_uris": {"ios": "https://dc.lft.to/lastmile_qr_scan", "android": "https://dc.lft.to/lastmile_qr_scan"}, "is_disabled": 0, "is_reserved": 0, "name": "ee5da84116a0e9d6c1aa1645cf4d3257", "type": "electric_scooter", "fusion_lat": 0.0}, {"bike_id": "7e96a3181ff61105cfa6b03c8eab2d74", "lon": -77.048132, "lat": 38.91103183333333, "fusion_lon": 0.0, "rental_uris": {"ios": "https://dc.lft.to/lastmile_qr_scan", "android": "https://dc.lft.to/lastmile_qr_scan"}, "is_disabled": 0, "is_reserved": 0, "name": "7e96a3181ff61105cfa6b03c8eab2d74", "type": "electric_scooter", "fusion_lat": 0.0}, {"bike_id": "69fc84fa4572b8b8b4d1c84a73c1e341", "lon": -76.92131816666667, "lat": 39.01369283333333, "fusion_lon": 0.0, "rental_uris": {"ios": "https://dc.lft.to/lastmile_qr_scan", "android": "https://dc.lft.to/lastmile_qr_scan"}, "is_disabled": 0, "is_reserved": 0, "name": "69fc84fa4572b8b8b4d1c84a73c1e341", "type": "electric_bike", "fusion_lat": 0.0}, {"bike_id": "589dff1a4ea0109d51a5865252f29964", "lon": -76.99610483333333, "lat": 38.8858355, "fusion_lon": 0.0, "rental_uris": {"ios": "https://dc.lft.to/lastmile_qr_scan", "android": "https://dc.lft.to/lastmile_qr_scan"}, "is_disabled": 0, "is_reserved": 0, "name": "589dff1a4ea0109d51a5865252f29964", "type": "electric_scooter", "fusion_lat": 0.0}, {"bike_id": "e0f388c262fa206ad39f0f125a14234b", "lon": -77.04332966666666, "lat": 38.89222633333333, "fusion_lon": 0.0, "rental_uris": {"ios": "https://dc.lft.to/lastmile_qr_scan", "android": "https://dc.lft.to/lastmile_qr_scan"}, "is_disabled": 0, "is_reserved": 0, "name": "e0f388c262fa206ad39f0f125a14234b", "type": "electric_scooter", "fusion_lat": 0.0}, {"bike_id": "b46f873feef3ccc969bfa0828b9dec4d", "lon": -77.0385575, "lat": 38.919671666666666, "fusion_lon": 0.0, "rental_uris": {"ios": "https://dc.lft.to/lastmile_qr_scan", "android": "https://dc.lft.to/lastmile_qr_scan"}, "is_disabled": 0, "is_reserved": 0, "name": "b46f873feef3ccc969bfa0828b9dec4d", "type": "electric_scooter", "fusion_lat": 0.0}, {"bike_id": "7878a060445d1eb94e031bd78ba65225", "lon": -77.07378516666667, "lat": 38.919241, "fusion_lon": 0.0, "rental_uris": {"ios": "https://dc.lft.to/lastmile_qr_scan", "android": "https://dc.lft.to/lastmile_qr_scan"}, "is_disabled": 0, "is_reserved": 0, "name": "7878a060445d1eb94e031bd78ba65225", "type": "electric_bike", "fusion_lat": 0.0}, {"bike_id": "cefdfd33c35ffb5c2ea2a2a487529810", "lon": -77.01586233333333, "lat": 38.917038, "fusion_lon": 0.0, "rental_uris": {"ios": "https://dc.lft.to/lastmile_qr_scan", "android": "https://dc.lft.to/lastmile_qr_scan"}, "is_disabled": 0, "is_reserved": 0, "name": "cefdfd33c35ffb5c2ea2a2a487529810", "type": "electric_scooter", "fusion_lat": 0.0}, {"bike_id": "d88005c12ecb5cfd8d8d7d172d5602d7", "lon": -77.033649, "lat": 38.909635, "fusion_lon": 0.0, "rental_uris": {"ios": "https://dc.lft.to/lastmile_qr_scan", "android": "https://dc.lft.to/lastmile_qr_scan"}, "is_disabled": 0, "is_reserved": 0, "name": "d88005c12ecb5cfd8d8d7d172d5602d7", "type": "electric_scooter", "fusion_lat": 0.0}, {"bike_id": "592c7f286520302c53430c2a7038e957", "lon": -76.98846716666667, "lat": 38.900525333333334, "fusion_lon": 0.0, "rental_uris": {"ios": "https://dc.lft.to/lastmile_qr_scan", "android": "https://dc.lft.to/lastmile_qr_scan"}, "is_disabled": 0, "is_reserved": 0, "name": "592c7f286520302c53430c2a7038e957", "type": "electric_scooter", "fusion_lat": 0.0}, {"bike_id": "7fec377062fd613171e4eb699a86c6de", "lon": -77.0199755, "lat": 38.91530066666667, "fusion_lon": 0.0, "rental_uris": {"ios": "https://dc.lft.to/lastmile_qr_scan", "android": "https://dc.lft.to/lastmile_qr_scan"}, "is_disabled": 0, "is_reserved": 0, "name": "7fec377062fd613171e4eb699a86c6de", "type": "electric_scooter", "fusion_lat": 0.0}, {"bike_id": "90b5851a29f641541d2d941b511007a4", "lon": -77.023392, "lat": 38.91681916666667, "fusion_lon": 0.0, "rental_uris": {"ios": "https://dc.lft.to/lastmile_qr_scan", "android": "https://dc.lft.to/lastmile_qr_scan"}, "is_disabled": 0, "is_reserved": 0, "name": "90b5851a29f641541d2d941b511007a4", "type": "electric_scooter", "fusion_lat": 0.0}, {"bike_id": "0610992dddb0cce32895e4c750c93d50", "lon": -77.00857066666667, "lat": 38.882645833333335, "fusion_lon": 0.0, "rental_uris": {"ios": "https://dc.lft.to/lastmile_qr_scan", "android": "https://dc.lft.to/lastmile_qr_scan"}, "is_disabled": 0, "is_reserved": 0, "name": "0610992dddb0cce32895e4c750c93d50", "type": "electric_scooter", "fusion_lat": 0.0}, {"bike_id": "c931a02825b09c32c789d9d885af7ec6", "lon": -77.050821, "lat": 38.9234425, "fusion_lon": 0.0, "rental_uris": {"ios": "https://dc.lft.to/lastmile_qr_scan", "android": "https://dc.lft.to/lastmile_qr_scan"}, "is_disabled": 0, "is_reserved": 0, "name": "c931a02825b09c32c789d9d885af7ec6", "type": "electric_scooter", "fusion_lat": 0.0}, {"bike_id": "b5f9e3e58d4b1faa06cd5787de84db0f", "lon": -77.01218533333333, "lat": 38.869766166666665, "fusion_lon": 0.0, "rental_uris": {"ios": "https://dc.lft.to/lastmile_qr_scan", "android": "https://dc.lft.to/lastmile_qr_scan"}, "is_disabled": 0, "is_reserved": 0, "name": "b5f9e3e58d4b1faa06cd5787de84db0f", "type": "electric_scooter", "fusion_lat": 0.0}, {"bike_id": "01c79ee17c071ca7fcc381074747c342", "lon": -76.9996255, "lat": 38.90321133333333, "fusion_lon": 0.0, "rental_uris": {"ios": "https://dc.lft.to/lastmile_qr_scan", "android": "https://dc.lft.to/lastmile_qr_scan"}, "is_disabled": 0, "is_reserved": 0, "name": "01c79ee17c071ca7fcc381074747c342", "type": "electric_scooter", "fusion_lat": 0.0}, {"bike_id": "d951019462b5ffc521ac604622266512", "lon": -77.020129, "lat": 38.924461, "fusion_lon": 0.0, "rental_uris": {"ios": "https://dc.lft.to/lastmile_qr_scan", "android": "https://dc.lft.to/lastmile_qr_scan"}, "is_disabled": 0, "is_reserved": 0, "name": "d951019462b5ffc521ac604622266512", "type": "electric_scooter", "fusion_lat": 0.0}, {"bike_id": "c4fab4946b4cd2164044b8674f6f42e0", "lon": -77.02890216666667, "lat": 38.91945116666667, "fusion_lon": 0.0, "rental_uris": {"ios": "https://dc.lft.to/lastmile_qr_scan", "android": "https://dc.lft.to/lastmile_qr_scan"}, "is_disabled": 0, "is_reserved": 0, "name": "c4fab4946b4cd2164044b8674f6f42e0", "type": "electric_scooter", "fusion_lat": 0.0}, {"bike_id": "33db6d05b484902e950650eb53a24332", "lon": -77.06580183333334, "lat": 38.9113515, "fusion_lon": 0.0, "rental_uris": {"ios": "https://dc.lft.to/lastmile_qr_scan", "android": "https://dc.lft.to/lastmile_qr_scan"}, "is_disabled": 0, "is_reserved": 0, "name": "33db6d05b484902e950650eb53a24332", "type": "electric_bike", "fusion_lat": 0.0}, {"bike_id": "dedd224c7c8491ef1e1947e4029f26f4", "lon": -76.99357866666666, "lat": 38.95503683333333, "fusion_lon": 0.0, "rental_uris": {"ios": "https://dc.lft.to/lastmile_qr_scan", "android": "https://dc.lft.to/lastmile_qr_scan"}, "is_disabled": 0, "is_reserved": 0, "name": "dedd224c7c8491ef1e1947e4029f26f4", "type": "electric_bike", "fusion_lat": 0.0}, {"bike_id": "38fd279f165d163c87372d2ddfc1db3d", "lon": -77.015124, "lat": 38.95838333333333, "fusion_lon": 0.0, "rental_uris": {"ios": "https://dc.lft.to/lastmile_qr_scan", "android": "https://dc.lft.to/lastmile_qr_scan"}, "is_disabled": 0, "is_reserved": 0, "name": "38fd279f165d163c87372d2ddfc1db3d", "type": "electric_scooter", "fusion_lat": 0.0}, {"bike_id": "1c17eae037efd77f66c53be942c790d0", "lon": -77.04309916666666, "lat": 38.892195, "fusion_lon": 0.0, "rental_uris": {"ios": "https://dc.lft.to/lastmile_qr_scan", "android": "https://dc.lft.to/lastmile_qr_scan"}, "is_disabled": 0, "is_reserved": 0, "name": "1c17eae037efd77f66c53be942c790d0", "type": "electric_scooter", "fusion_lat": 0.0}, {"bike_id": "5556ec633749307803a9a6bae44d5878", "lon": -77.00199933333333, "lat": 38.873721, "fusion_lon": 0.0, "rental_uris": {"ios": "https://dc.lft.to/lastmile_qr_scan", "android": "https://dc.lft.to/lastmile_qr_scan"}, "is_disabled": 0, "is_reserved": 0, "name": "5556ec633749307803a9a6bae44d5878", "type": "electric_scooter", "fusion_lat": 0.0}, {"bike_id": "1cf1ee9d4e75c878fede921c8f757590", "lon": -77.02519666666667, "lat": 38.921385666666666, "fusion_lon": 0.0, "rental_uris": {"ios": "https://dc.lft.to/lastmile_qr_scan", "android": "https://dc.lft.to/lastmile_qr_scan"}, "is_disabled": 0, "is_reserved": 0, "name": "1cf1ee9d4e75c878fede921c8f757590", "type": "electric_scooter", "fusion_lat": 0.0}, {"bike_id": "970ac15ea36bfd6c19eb93c8f5ca6d8c", "lon": -77.0271575, "lat": 38.951344666666664, "fusion_lon": 0.0, "rental_uris": {"ios": "https://dc.lft.to/lastmile_qr_scan", "android": "https://dc.lft.to/lastmile_qr_scan"}, "is_disabled": 0, "is_reserved": 0, "name": "970ac15ea36bfd6c19eb93c8f5ca6d8c", "type": "electric_scooter", "fusion_lat": 0.0}, {"bike_id": "e1729709f58c230715b875e68fa515e3", "lon": -77.03405416666666, "lat": 38.9348435, "fusion_lon": 0.0, "rental_uris": {"ios": "https://dc.lft.to/lastmile_qr_scan", "android": "https://dc.lft.to/lastmile_qr_scan"}, "is_disabled": 0, "is_reserved": 0, "name": "e1729709f58c230715b875e68fa515e3", "type": "electric_scooter", "fusion_lat": 0.0}, {"bike_id": "426f2366fffb2c74f418a9c20327cc27", "lon": -77.0248315, "lat": 38.8990705, "fusion_lon": 0.0, "rental_uris": {"ios": "https://dc.lft.to/lastmile_qr_scan", "android": "https://dc.lft.to/lastmile_qr_scan"}, "is_disabled": 0, "is_reserved": 0, "name": "426f2366fffb2c74f418a9c20327cc27", "type": "electric_scooter", "fusion_lat": 0.0}, {"bike_id": "cfa7a1d57d782516af624ecfe8cff355", "lon": -77.03075933333334, "lat": 39.04235533333333, "fusion_lon": 0.0, "rental_uris": {"ios": "https://dc.lft.to/lastmile_qr_scan", "android": "https://dc.lft.to/lastmile_qr_scan"}, "is_disabled": 0, "is_reserved": 0, "name": "cfa7a1d57d782516af624ecfe8cff355", "type": "electric_bike", "fusion_lat": 0.0}, {"bike_id": "110dcf04f392567f7d19ae33396fbfa2", "lon": -77.00123116666667, "lat": 38.90747066666667, "fusion_lon": 0.0, "rental_uris": {"ios": "https://dc.lft.to/lastmile_qr_scan", "android": "https://dc.lft.to/lastmile_qr_scan"}, "is_disabled": 0, "is_reserved": 0, "name": "110dcf04f392567f7d19ae33396fbfa2", "type": "electric_scooter", "fusion_lat": 0.0}, {"bike_id": "482a4b2f980c7a9b9ee7e3dc0fd033ad", "lon": -76.997117, "lat": 38.932364166666666, "fusion_lon": 0.0, "rental_uris": {"ios": "https://dc.lft.to/lastmile_qr_scan", "android": "https://dc.lft.to/lastmile_qr_scan"}, "is_disabled": 0, "is_reserved": 0, "name": "482a4b2f980c7a9b9ee7e3dc0fd033ad", "type": "electric_scooter", "fusion_lat": 0.0}, {"bike_id": "e6e12ce1d617cf20a024e28e3660d0d1", "lon": -77.03573483333334, "lat": 38.90961033333333, "fusion_lon": 0.0, "rental_uris": {"ios": "https://dc.lft.to/lastmile_qr_scan", "android": "https://dc.lft.to/lastmile_qr_scan"}, "is_disabled": 0, "is_reserved": 0, "name": "e6e12ce1d617cf20a024e28e3660d0d1", "type": "electric_scooter", "fusion_lat": 0.0}, {"bike_id": "460299a48128e18eefd2494db794167e", "lon": -77.04557516666667, "lat": 38.9036595, "fusion_lon": 0.0, "rental_uris": {"ios": "https://dc.lft.to/lastmile_qr_scan", "android": "https://dc.lft.to/lastmile_qr_scan"}, "is_disabled": 0, "is_reserved": 0, "name": "460299a48128e18eefd2494db794167e", "type": "electric_scooter", "fusion_lat": 0.0}, {"bike_id": "c707f5fe8e39769026a563b033561526", "lon": -77.0417405, "lat": 38.9198415, "fusion_lon": 0.0, "rental_uris": {"ios": "https://dc.lft.to/lastmile_qr_scan", "android": "https://dc.lft.to/lastmile_qr_scan"}, "is_disabled": 0, "is_reserved": 0, "name": "c707f5fe8e39769026a563b033561526", "type": "electric_scooter", "fusion_lat": 0.0}, {"bike_id": "732ce8affda0bba0c9cde7038937700d", "lon": -76.93212466666667, "lat": 38.880485666666665, "fusion_lon": 0.0, "rental_uris": {"ios": "https://dc.lft.to/lastmile_qr_scan", "android": "https://dc.lft.to/lastmile_qr_scan"}, "is_disabled": 0, "is_reserved": 0, "name": "732ce8affda0bba0c9cde7038937700d", "type": "electric_scooter", "fusion_lat": 0.0}, {"bike_id": "31fdbf0a17c0d2aa861296eebdcf67f5", "lon": -77.02743366666667, "lat": 38.899905833333335, "fusion_lon": 0.0, "rental_uris": {"ios": "https://dc.lft.to/lastmile_qr_scan", "android": "https://dc.lft.to/lastmile_qr_scan"}, "is_disabled": 0, "is_reserved": 0, "name": "31fdbf0a17c0d2aa861296eebdcf67f5", "type": "electric_scooter", "fusion_lat": 0.0}, {"bike_id": "ed0be5f6c75202eefc902796c80f6f0a", "lon": -77.01779066666667, "lat": 38.88598866666667, "fusion_lon": 0.0, "rental_uris": {"ios": "https://dc.lft.to/lastmile_qr_scan", "android": "https://dc.lft.to/lastmile_qr_scan"}, "is_disabled": 0, "is_reserved": 0, "name": "ed0be5f6c75202eefc902796c80f6f0a", "type": "electric_scooter", "fusion_lat": 0.0}, {"bike_id": "264f9a43bd921d83b88a49871d054e6b", "lon": -77.04268766666667, "lat": 38.90861566666667, "fusion_lon": 0.0, "rental_uris": {"ios": "https://dc.lft.to/lastmile_qr_scan", "android": "https://dc.lft.to/lastmile_qr_scan"}, "is_disabled": 0, "is_reserved": 0, "name": "264f9a43bd921d83b88a49871d054e6b", "type": "electric_scooter", "fusion_lat": 0.0}, {"bike_id": "100455eec9135212fcce0646c4c53260", "lon": -76.9975095, "lat": 38.837874166666666, "fusion_lon": 0.0, "rental_uris": {"ios": "https://dc.lft.to/lastmile_qr_scan", "android": "https://dc.lft.to/lastmile_qr_scan"}, "is_disabled": 0, "is_reserved": 0, "name": "100455eec9135212fcce0646c4c53260", "type": "electric_bike", "fusion_lat": 0.0}, {"bike_id": "1a3319ab78316312c5707532ca44aa7c", "lon": -77.041894, "lat": 38.90365383333334, "fusion_lon": 0.0, "rental_uris": {"ios": "https://dc.lft.to/lastmile_qr_scan", "android": "https://dc.lft.to/lastmile_qr_scan"}, "is_disabled": 0, "is_reserved": 0, "name": "1a3319ab78316312c5707532ca44aa7c", "type": "electric_scooter", "fusion_lat": 0.0}, {"bike_id": "e2005de8a64bc9cb7bdbaff197897a7e", "lon": -77.00708183333333, "lat": 38.8792115, "fusion_lon": 0.0, "rental_uris": {"ios": "https://dc.lft.to/lastmile_qr_scan", "android": "https://dc.lft.to/lastmile_qr_scan"}, "is_disabled": 0, "is_reserved": 0, "name": "e2005de8a64bc9cb7bdbaff197897a7e", "type": "electric_scooter", "fusion_lat": 0.0}, {"bike_id": "78f9e03d8c231651755bdc49fe30498b", "lon": -77.016239, "lat": 38.913614333333335, "fusion_lon": 0.0, "rental_uris": {"ios": "https://dc.lft.to/lastmile_qr_scan", "android": "https://dc.lft.to/lastmile_qr_scan"}, "is_disabled": 0, "is_reserved": 0, "name": "78f9e03d8c231651755bdc49fe30498b", "type": "electric_scooter", "fusion_lat": 0.0}, {"bike_id": "ce553bde49acd7c96213750c9d4309e3", "lon": -76.98499866666667, "lat": 38.91319766666667, "fusion_lon": 0.0, "rental_uris": {"ios": "https://dc.lft.to/lastmile_qr_scan", "android": "https://dc.lft.to/lastmile_qr_scan"}, "is_disabled": 0, "is_reserved": 0, "name": "ce553bde49acd7c96213750c9d4309e3", "type": "electric_scooter", "fusion_lat": 0.0}, {"bike_id": "5fdda205d029bef38bd9ef00b3e3b48a", "lon": -76.93186483333334, "lat": 38.898765, "fusion_lon": 0.0, "rental_uris": {"ios": "https://dc.lft.to/lastmile_qr_scan", "android": "https://dc.lft.to/lastmile_qr_scan"}, "is_disabled": 0, "is_reserved": 0, "name": "5fdda205d029bef38bd9ef00b3e3b48a", "type": "electric_scooter", "fusion_lat": 0.0}, {"bike_id": "241223ff14a89734412b385d6a0753e2", "lon": -77.0296, "lat": 38.9226915, "fusion_lon": 0.0, "rental_uris": {"ios": "https://dc.lft.to/lastmile_qr_scan", "android": "https://dc.lft.to/lastmile_qr_scan"}, "is_disabled": 0, "is_reserved": 0, "name": "241223ff14a89734412b385d6a0753e2", "type": "electric_scooter", "fusion_lat": 0.0}, {"bike_id": "8b4273c3b35817a21efa80d6b1f1f0ee", "lon": -77.03183966666667, "lat": 38.91795116666667, "fusion_lon": 0.0, "rental_uris": {"ios": "https://dc.lft.to/lastmile_qr_scan", "android": "https://dc.lft.to/lastmile_qr_scan"}, "is_disabled": 0, "is_reserved": 0, "name": "8b4273c3b35817a21efa80d6b1f1f0ee", "type": "electric_scooter", "fusion_lat": 0.0}, {"bike_id": "72d7b508b3e83ca46845d2d580de5e94", "lon": -77.01821183333334, "lat": 38.921034666666664, "fusion_lon": 0.0, "rental_uris": {"ios": "https://dc.lft.to/lastmile_qr_scan", "android": "https://dc.lft.to/lastmile_qr_scan"}, "is_disabled": 0, "is_reserved": 0, "name": "72d7b508b3e83ca46845d2d580de5e94", "type": "electric_scooter", "fusion_lat": 0.0}, {"bike_id": "280e399f0ea6ca165904cd789cc8b3f3", "lon": -76.91197533333333, "lat": 38.89183366666666, "fusion_lon": 0.0, "rental_uris": {"ios": "https://dc.lft.to/lastmile_qr_scan", "android": "https://dc.lft.to/lastmile_qr_scan"}, "is_disabled": 0, "is_reserved": 0, "name": "280e399f0ea6ca165904cd789cc8b3f3", "type": "electric_scooter", "fusion_lat": 0.0}, {"bike_id": "5701e889bdd3ab88e71e226a73af532d", "lon": -77.04375033333334, "lat": 38.9011065, "fusion_lon": 0.0, "rental_uris": {"ios": "https://dc.lft.to/lastmile_qr_scan", "android": "https://dc.lft.to/lastmile_qr_scan"}, "is_disabled": 0, "is_reserved": 0, "name": "5701e889bdd3ab88e71e226a73af532d", "type": "electric_scooter", "fusion_lat": 0.0}, {"bike_id": "b8a15c6d124b1d80f6055ef13f2bd0cb", "lon": -77.0344425, "lat": 38.909716, "fusion_lon": 0.0, "rental_uris": {"ios": "https://dc.lft.to/lastmile_qr_scan", "android": "https://dc.lft.to/lastmile_qr_scan"}, "is_disabled": 0, "is_reserved": 0, "name": "b8a15c6d124b1d80f6055ef13f2bd0cb", "type": "electric_scooter", "fusion_lat": 0.0}, {"bike_id": "7efee0ab4e2d41965bed15e6c946a6e1", "lon": -77.03839566666667, "lat": 38.91144383333334, "fusion_lon": 0.0, "rental_uris": {"ios": "https://dc.lft.to/lastmile_qr_scan", "android": "https://dc.lft.to/lastmile_qr_scan"}, "is_disabled": 0, "is_reserved": 0, "name": "7efee0ab4e2d41965bed15e6c946a6e1", "type": "electric_scooter", "fusion_lat": 0.0}, {"bike_id": "4ef61774db68eafe355e46e03dc5ed0d", "lon": -76.9774845, "lat": 38.87165533333334, "fusion_lon": 0.0, "rental_uris": {"ios": "https://dc.lft.to/lastmile_qr_scan", "android": "https://dc.lft.to/lastmile_qr_scan"}, "is_disabled": 0, "is_reserved": 0, "name": "4ef61774db68eafe355e46e03dc5ed0d", "type": "electric_scooter", "fusion_lat": 0.0}, {"bike_id": "2bb9922f2c264efcc185c71749adba6c", "lon": -77.00789433333334, "lat": 38.92689516666667, "fusion_lon": 0.0, "rental_uris": {"ios": "https://dc.lft.to/lastmile_qr_scan", "android": "https://dc.lft.to/lastmile_qr_scan"}, "is_disabled": 0, "is_reserved": 0, "name": "2bb9922f2c264efcc185c71749adba6c", "type": "electric_scooter", "fusion_lat": 0.0}, {"bike_id": "b310d8f845842f4530d9b8c9464c64f5", "lon": -76.99618716666667, "lat": 38.88527366666667, "fusion_lon": 0.0, "rental_uris": {"ios": "https://dc.lft.to/lastmile_qr_scan", "android": "https://dc.lft.to/lastmile_qr_scan"}, "is_disabled": 0, "is_reserved": 0, "name": "b310d8f845842f4530d9b8c9464c64f5", "type": "electric_scooter", "fusion_lat": 0.0}, {"bike_id": "234ab312d096eec33aa86bc4af3fbbed", "lon": -77.02623633333333, "lat": 38.962296, "fusion_lon": 0.0, "rental_uris": {"ios": "https://dc.lft.to/lastmile_qr_scan", "android": "https://dc.lft.to/lastmile_qr_scan"}, "is_disabled": 0, "is_reserved": 0, "name": "234ab312d096eec33aa86bc4af3fbbed", "type": "electric_bike", "fusion_lat": 0.0}, {"bike_id": "8e106c3f35902a51c34ca59234d3c004", "lon": -77.02112983333333, "lat": 38.906013, "fusion_lon": 0.0, "rental_uris": {"ios": "https://dc.lft.to/lastmile_qr_scan", "android": "https://dc.lft.to/lastmile_qr_scan"}, "is_disabled": 0, "is_reserved": 0, "name": "8e106c3f35902a51c34ca59234d3c004", "type": "electric_scooter", "fusion_lat": 0.0}, {"bike_id": "b75501adf7bcbb7b8c5c769775dcfb22", "lon": -76.92624566666667, "lat": 38.88457283333334, "fusion_lon": 0.0, "rental_uris": {"ios": "https://dc.lft.to/lastmile_qr_scan", "android": "https://dc.lft.to/lastmile_qr_scan"}, "is_disabled": 0, "is_reserved": 0, "name": "b75501adf7bcbb7b8c5c769775dcfb22", "type": "electric_scooter", "fusion_lat": 0.0}, {"bike_id": "f4dc8213028c044c2ac3d3ef07c52d48", "lon": -77.0436005, "lat": 38.9010185, "fusion_lon": 0.0, "rental_uris": {"ios": "https://dc.lft.to/lastmile_qr_scan", "android": "https://dc.lft.to/lastmile_qr_scan"}, "is_disabled": 0, "is_reserved": 0, "name": "f4dc8213028c044c2ac3d3ef07c52d48", "type": "electric_scooter", "fusion_lat": 0.0}, {"bike_id": "886a18fa26ebdcbe149f6a56d3d96924", "lon": -77.02838333333334, "lat": 38.903747833333334, "fusion_lon": 0.0, "rental_uris": {"ios": "https://dc.lft.to/lastmile_qr_scan", "android": "https://dc.lft.to/lastmile_qr_scan"}, "is_disabled": 0, "is_reserved": 0, "name": "886a18fa26ebdcbe149f6a56d3d96924", "type": "electric_scooter", "fusion_lat": 0.0}, {"bike_id": "bd3cb5f732e88e044af3b3a173f21d5f", "lon": -77.02293983333334, "lat": 38.91455933333334, "fusion_lon": 0.0, "rental_uris": {"ios": "https://dc.lft.to/lastmile_qr_scan", "android": "https://dc.lft.to/lastmile_qr_scan"}, "is_disabled": 0, "is_reserved": 0, "name": "bd3cb5f732e88e044af3b3a173f21d5f", "type": "electric_scooter", "fusion_lat": 0.0}, {"bike_id": "3a3fdced8a46afe2e0b29976b51b5ed2", "lon": -77.03210016666667, "lat": 38.892362, "fusion_lon": 0.0, "rental_uris": {"ios": "https://dc.lft.to/lastmile_qr_scan", "android": "https://dc.lft.to/lastmile_qr_scan"}, "is_disabled": 0, "is_reserved": 0, "name": "3a3fdced8a46afe2e0b29976b51b5ed2", "type": "electric_scooter", "fusion_lat": 0.0}, {"bike_id": "55db472a9598710d1c04cc645a1ea778", "lon": -77.03661583333333, "lat": 38.91316916666667, "fusion_lon": 0.0, "rental_uris": {"ios": "https://dc.lft.to/lastmile_qr_scan", "android": "https://dc.lft.to/lastmile_qr_scan"}, "is_disabled": 0, "is_reserved": 0, "name": "55db472a9598710d1c04cc645a1ea778", "type": "electric_scooter", "fusion_lat": 0.0}, {"bike_id": "8db107b418db4b8aa820544ce5f8fa0e", "lon": -77.0282985, "lat": 38.965027166666665, "fusion_lon": 0.0, "rental_uris": {"ios": "https://dc.lft.to/lastmile_qr_scan", "android": "https://dc.lft.to/lastmile_qr_scan"}, "is_disabled": 0, "is_reserved": 0, "name": "8db107b418db4b8aa820544ce5f8fa0e", "type": "electric_bike", "fusion_lat": 0.0}, {"bike_id": "dbcd06c235804da907a1d86140dd2393", "lon": -77.01176116666667, "lat": 38.91569166666667, "fusion_lon": 0.0, "rental_uris": {"ios": "https://dc.lft.to/lastmile_qr_scan", "android": "https://dc.lft.to/lastmile_qr_scan"}, "is_disabled": 0, "is_reserved": 0, "name": "dbcd06c235804da907a1d86140dd2393", "type": "electric_scooter", "fusion_lat": 0.0}, {"bike_id": "359615f4f17f371e00b57efe3dbb4890", "lon": -77.10836, "lat": 38.812014, "fusion_lon": 0.0, "rental_uris": {"ios": "https://dc.lft.to/lastmile_qr_scan", "android": "https://dc.lft.to/lastmile_qr_scan"}, "is_disabled": 0, "is_reserved": 0, "name": "359615f4f17f371e00b57efe3dbb4890", "type": "electric_bike", "fusion_lat": 0.0}, {"bike_id": "5cd99021cb663ca9f6559903f79f2a40", "lon": -77.04527083333333, "lat": 38.9131145, "fusion_lon": 0.0, "rental_uris": {"ios": "https://dc.lft.to/lastmile_qr_scan", "android": "https://dc.lft.to/lastmile_qr_scan"}, "is_disabled": 0, "is_reserved": 0, "name": "5cd99021cb663ca9f6559903f79f2a40", "type": "electric_scooter", "fusion_lat": 0.0}, {"bike_id": "79a5ff50298db3543c2c581ce3699966", "lon": -76.99512483333334, "lat": 38.88606133333333, "fusion_lon": 0.0, "rental_uris": {"ios": "https://dc.lft.to/lastmile_qr_scan", "android": "https://dc.lft.to/lastmile_qr_scan"}, "is_disabled": 0, "is_reserved": 0, "name": "79a5ff50298db3543c2c581ce3699966", "type": "electric_scooter", "fusion_lat": 0.0}, {"bike_id": "455fc59d9a3fed7562921b59a72fd6aa", "lon": -77.013537, "lat": 38.87089316666667, "fusion_lon": 0.0, "rental_uris": {"ios": "https://dc.lft.to/lastmile_qr_scan", "android": "https://dc.lft.to/lastmile_qr_scan"}, "is_disabled": 0, "is_reserved": 0, "name": "455fc59d9a3fed7562921b59a72fd6aa", "type": "electric_scooter", "fusion_lat": 0.0}, {"bike_id": "5ab194e7d52fec88ee7b54062a30a524", "lon": -77.03899666666666, "lat": 38.9183175, "fusion_lon": 0.0, "rental_uris": {"ios": "https://dc.lft.to/lastmile_qr_scan", "android": "https://dc.lft.to/lastmile_qr_scan"}, "is_disabled": 0, "is_reserved": 0, "name": "5ab194e7d52fec88ee7b54062a30a524", "type": "electric_scooter", "fusion_lat": 0.0}, {"bike_id": "8ec253656bfc2afebc41b4fffa5b729a", "lon": -76.97427283333333, "lat": 38.9049535, "fusion_lon": 0.0, "rental_uris": {"ios": "https://dc.lft.to/lastmile_qr_scan", "android": "https://dc.lft.to/lastmile_qr_scan"}, "is_disabled": 0, "is_reserved": 0, "name": "8ec253656bfc2afebc41b4fffa5b729a", "type": "electric_bike", "fusion_lat": 0.0}, {"bike_id": "bf7bfb5f0bff34c73ccfd810bcdde565", "lon": -77.03349166666666, "lat": 38.928753, "fusion_lon": 0.0, "rental_uris": {"ios": "https://dc.lft.to/lastmile_qr_scan", "android": "https://dc.lft.to/lastmile_qr_scan"}, "is_disabled": 0, "is_reserved": 0, "name": "bf7bfb5f0bff34c73ccfd810bcdde565", "type": "electric_scooter", "fusion_lat": 0.0}, {"bike_id": "ad8846bacf504fba3dc2a410364ee47e", "lon": -77.0412255, "lat": 38.9170735, "fusion_lon": 0.0, "rental_uris": {"ios": "https://dc.lft.to/lastmile_qr_scan", "android": "https://dc.lft.to/lastmile_qr_scan"}, "is_disabled": 0, "is_reserved": 0, "name": "ad8846bacf504fba3dc2a410364ee47e", "type": "electric_scooter", "fusion_lat": 0.0}, {"bike_id": "03a1ed1e3756c28d17117e8b1d7567a7", "lon": -77.01775916666666, "lat": 38.90264583333333, "fusion_lon": 0.0, "rental_uris": {"ios": "https://dc.lft.to/lastmile_qr_scan", "android": "https://dc.lft.to/lastmile_qr_scan"}, "is_disabled": 0, "is_reserved": 0, "name": "03a1ed1e3756c28d17117e8b1d7567a7", "type": "electric_scooter", "fusion_lat": 0.0}, {"bike_id": "3e98e6e92a4538da03b5544bb40e2cb3", "lon": -77.0156925, "lat": 38.915105, "fusion_lon": 0.0, "rental_uris": {"ios": "https://dc.lft.to/lastmile_qr_scan", "android": "https://dc.lft.to/lastmile_qr_scan"}, "is_disabled": 0, "is_reserved": 0, "name": "3e98e6e92a4538da03b5544bb40e2cb3", "type": "electric_scooter", "fusion_lat": 0.0}, {"bike_id": "c17a019c056fcb4defc30edadc3add6d", "lon": -77.02333133333333, "lat": 38.922332, "fusion_lon": 0.0, "rental_uris": {"ios": "https://dc.lft.to/lastmile_qr_scan", "android": "https://dc.lft.to/lastmile_qr_scan"}, "is_disabled": 0, "is_reserved": 0, "name": "c17a019c056fcb4defc30edadc3add6d", "type": "electric_scooter", "fusion_lat": 0.0}, {"bike_id": "3c6c0a2f6b19912f81ee123d365f9cc2", "lon": -77.04493883333333, "lat": 38.905658833333334, "fusion_lon": 0.0, "rental_uris": {"ios": "https://dc.lft.to/lastmile_qr_scan", "android": "https://dc.lft.to/lastmile_qr_scan"}, "is_disabled": 0, "is_reserved": 0, "name": "3c6c0a2f6b19912f81ee123d365f9cc2", "type": "electric_scooter", "fusion_lat": 0.0}, {"bike_id": "58c0ab757ca606a234a73da6d38d92bb", "lon": -77.02938916666666, "lat": 38.91251183333333, "fusion_lon": 0.0, "rental_uris": {"ios": "https://dc.lft.to/lastmile_qr_scan", "android": "https://dc.lft.to/lastmile_qr_scan"}, "is_disabled": 0, "is_reserved": 0, "name": "58c0ab757ca606a234a73da6d38d92bb", "type": "electric_scooter", "fusion_lat": 0.0}, {"bike_id": "34ac599a04791fe3fa290e440d270604", "lon": -77.04870516666666, "lat": 38.8922345, "fusion_lon": 0.0, "rental_uris": {"ios": "https://dc.lft.to/lastmile_qr_scan", "android": "https://dc.lft.to/lastmile_qr_scan"}, "is_disabled": 0, "is_reserved": 0, "name": "34ac599a04791fe3fa290e440d270604", "type": "electric_scooter", "fusion_lat": 0.0}, {"bike_id": "5c6d94a873f9897c56ae813ede23b4c2", "lon": -76.97446633333334, "lat": 38.86402416666667, "fusion_lon": 0.0, "rental_uris": {"ios": "https://dc.lft.to/lastmile_qr_scan", "android": "https://dc.lft.to/lastmile_qr_scan"}, "is_disabled": 0, "is_reserved": 0, "name": "5c6d94a873f9897c56ae813ede23b4c2", "type": "electric_scooter", "fusion_lat": 0.0}, {"bike_id": "2ad680f7ecf6792004b2e9dfd3d63671", "lon": -77.13100083333333, "lat": 39.02433666666666, "fusion_lon": 0.0, "rental_uris": {"ios": "https://dc.lft.to/lastmile_qr_scan", "android": "https://dc.lft.to/lastmile_qr_scan"}, "is_disabled": 0, "is_reserved": 0, "name": "2ad680f7ecf6792004b2e9dfd3d63671", "type": "electric_bike", "fusion_lat": 0.0}, {"bike_id": "a365e376b83371385a9051bd10d17d7e", "lon": -76.96897216666666, "lat": 38.86072466666667, "fusion_lon": 0.0, "rental_uris": {"ios": "https://dc.lft.to/lastmile_qr_scan", "android": "https://dc.lft.to/lastmile_qr_scan"}, "is_disabled": 0, "is_reserved": 0, "name": "a365e376b83371385a9051bd10d17d7e", "type": "electric_scooter", "fusion_lat": 0.0}, {"bike_id": "2aeeceaf41fcd0a468558dfea93a0e10", "lon": -77.04671866666666, "lat": 38.905598833333336, "fusion_lon": 0.0, "rental_uris": {"ios": "https://dc.lft.to/lastmile_qr_scan", "android": "https://dc.lft.to/lastmile_qr_scan"}, "is_disabled": 0, "is_reserved": 0, "name": "2aeeceaf41fcd0a468558dfea93a0e10", "type": "electric_scooter", "fusion_lat": 0.0}, {"bike_id": "917a11d31a667f56c99d1de2cee4d8df", "lon": -77.124953, "lat": 39.0581455, "fusion_lon": 0.0, "rental_uris": {"ios": "https://dc.lft.to/lastmile_qr_scan", "android": "https://dc.lft.to/lastmile_qr_scan"}, "is_disabled": 0, "is_reserved": 0, "name": "917a11d31a667f56c99d1de2cee4d8df", "type": "electric_bike", "fusion_lat": 0.0}, {"bike_id": "393f04d5e0958ba731977e69026d243b", "lon": -76.9721135, "lat": 38.94785133333333, "fusion_lon": 0.0, "rental_uris": {"ios": "https://dc.lft.to/lastmile_qr_scan", "android": "https://dc.lft.to/lastmile_qr_scan"}, "is_disabled": 0, "is_reserved": 0, "name": "393f04d5e0958ba731977e69026d243b", "type": "electric_bike", "fusion_lat": 0.0}, {"bike_id": "600f264d7ec2ee46c11777486c313481", "lon": -76.95598966666667, "lat": 38.887609166666664, "fusion_lon": 0.0, "rental_uris": {"ios": "https://dc.lft.to/lastmile_qr_scan", "android": "https://dc.lft.to/lastmile_qr_scan"}, "is_disabled": 0, "is_reserved": 0, "name": "600f264d7ec2ee46c11777486c313481", "type": "electric_scooter", "fusion_lat": 0.0}, {"bike_id": "2e6a9c937bee8c92b5e31e4575992551", "lon": -77.0400605, "lat": 38.907858166666664, "fusion_lon": 0.0, "rental_uris": {"ios": "https://dc.lft.to/lastmile_qr_scan", "android": "https://dc.lft.to/lastmile_qr_scan"}, "is_disabled": 0, "is_reserved": 0, "name": "2e6a9c937bee8c92b5e31e4575992551", "type": "electric_scooter", "fusion_lat": 0.0}, {"bike_id": "d5c5efc35f2b0870c9a29c3ce2bb3c86", "lon": -77.03442233333334, "lat": 38.916941666666666, "fusion_lon": 0.0, "rental_uris": {"ios": "https://dc.lft.to/lastmile_qr_scan", "android": "https://dc.lft.to/lastmile_qr_scan"}, "is_disabled": 0, "is_reserved": 0, "name": "d5c5efc35f2b0870c9a29c3ce2bb3c86", "type": "electric_scooter", "fusion_lat": 0.0}, {"bike_id": "b13685eb2b1ae1a855d6cb6e1d3a8f40", "lon": -77.026337, "lat": 38.9621805, "fusion_lon": 0.0, "rental_uris": {"ios": "https://dc.lft.to/lastmile_qr_scan", "android": "https://dc.lft.to/lastmile_qr_scan"}, "is_disabled": 0, "is_reserved": 0, "name": "b13685eb2b1ae1a855d6cb6e1d3a8f40", "type": "electric_bike", "fusion_lat": 0.0}, {"bike_id": "3db4fe4ba4335eea2afea1b38a7a3f0f", "lon": -77.07155083333333, "lat": 38.9068285, "fusion_lon": 0.0, "rental_uris": {"ios": "https://dc.lft.to/lastmile_qr_scan", "android": "https://dc.lft.to/lastmile_qr_scan"}, "is_disabled": 0, "is_reserved": 0, "name": "3db4fe4ba4335eea2afea1b38a7a3f0f", "type": "electric_scooter", "fusion_lat": 0.0}, {"bike_id": "19095d7016bc4f51ad358ab02c1128e2", "lon": -77.00747316666667, "lat": 38.898367666666665, "fusion_lon": 0.0, "rental_uris": {"ios": "https://dc.lft.to/lastmile_qr_scan", "android": "https://dc.lft.to/lastmile_qr_scan"}, "is_disabled": 0, "is_reserved": 0, "name": "19095d7016bc4f51ad358ab02c1128e2", "type": "electric_scooter", "fusion_lat": 0.0}, {"bike_id": "01e5e5e4a8b8c7a2ebc157531e8fb8e2", "lon": -77.00200116666667, "lat": 38.8737585, "fusion_lon": 0.0, "rental_uris": {"ios": "https://dc.lft.to/lastmile_qr_scan", "android": "https://dc.lft.to/lastmile_qr_scan"}, "is_disabled": 0, "is_reserved": 0, "name": "01e5e5e4a8b8c7a2ebc157531e8fb8e2", "type": "electric_scooter", "fusion_lat": 0.0}, {"bike_id": "8c4b3fdd8c37e1703df3f92a9272f73d", "lon": -77.04671383333333, "lat": 38.907966333333334, "fusion_lon": 0.0, "rental_uris": {"ios": "https://dc.lft.to/lastmile_qr_scan", "android": "https://dc.lft.to/lastmile_qr_scan"}, "is_disabled": 0, "is_reserved": 0, "name": "8c4b3fdd8c37e1703df3f92a9272f73d", "type": "electric_scooter", "fusion_lat": 0.0}, {"bike_id": "fd848b7bee63410cbaf246c58a338005", "lon": -76.94574, "lat": 38.89933883333333, "fusion_lon": 0.0, "rental_uris": {"ios": "https://dc.lft.to/lastmile_qr_scan", "android": "https://dc.lft.to/lastmile_qr_scan"}, "is_disabled": 0, "is_reserved": 0, "name": "fd848b7bee63410cbaf246c58a338005", "type": "electric_scooter", "fusion_lat": 0.0}, {"bike_id": "93980bc6e7e2161f2482808fc18c364b", "lon": -77.00016466666666, "lat": 38.873909166666664, "fusion_lon": 0.0, "rental_uris": {"ios": "https://dc.lft.to/lastmile_qr_scan", "android": "https://dc.lft.to/lastmile_qr_scan"}, "is_disabled": 0, "is_reserved": 0, "name": "93980bc6e7e2161f2482808fc18c364b", "type": "electric_scooter", "fusion_lat": 0.0}, {"bike_id": "39d8cd31833f43381b61e918821f1c72", "lon": -76.9338105, "lat": 38.899145, "fusion_lon": 0.0, "rental_uris": {"ios": "https://dc.lft.to/lastmile_qr_scan", "android": "https://dc.lft.to/lastmile_qr_scan"}, "is_disabled": 0, "is_reserved": 0, "name": "39d8cd31833f43381b61e918821f1c72", "type": "electric_scooter", "fusion_lat": 0.0}, {"bike_id": "2b0159482d5a62102e2f4de16616cbef", "lon": -77.046363, "lat": 38.90060366666667, "fusion_lon": 0.0, "rental_uris": {"ios": "https://dc.lft.to/lastmile_qr_scan", "android": "https://dc.lft.to/lastmile_qr_scan"}, "is_disabled": 0, "is_reserved": 0, "name": "2b0159482d5a62102e2f4de16616cbef", "type": "electric_scooter", "fusion_lat": 0.0}, {"bike_id": "b4b534b43a5e60900ecca322ab4f4a3f", "lon": -77.1719185, "lat": 38.882869166666666, "fusion_lon": 0.0, "rental_uris": {"ios": "https://dc.lft.to/lastmile_qr_scan", "android": "https://dc.lft.to/lastmile_qr_scan"}, "is_disabled": 0, "is_reserved": 0, "name": "b4b534b43a5e60900ecca322ab4f4a3f", "type": "electric_bike", "fusion_lat": 0.0}, {"bike_id": "6dd3c928f771e3f6e1fad6ee47574933", "lon": -77.033682, "lat": 38.89977433333333, "fusion_lon": 0.0, "rental_uris": {"ios": "https://dc.lft.to/lastmile_qr_scan", "android": "https://dc.lft.to/lastmile_qr_scan"}, "is_disabled": 0, "is_reserved": 0, "name": "6dd3c928f771e3f6e1fad6ee47574933", "type": "electric_scooter", "fusion_lat": 0.0}, {"bike_id": "019dba20aab80ac122e2219273b73b3f", "lon": -77.07346566666666, "lat": 38.9126515, "fusion_lon": 0.0, "rental_uris": {"ios": "https://dc.lft.to/lastmile_qr_scan", "android": "https://dc.lft.to/lastmile_qr_scan"}, "is_disabled": 0, "is_reserved": 0, "name": "019dba20aab80ac122e2219273b73b3f", "type": "electric_scooter", "fusion_lat": 0.0}, {"bike_id": "b8eafc8fcab88be5eb89e56f1e7888d0", "lon": -77.02961133333334, "lat": 38.90776566666667, "fusion_lon": 0.0, "rental_uris": {"ios": "https://dc.lft.to/lastmile_qr_scan", "android": "https://dc.lft.to/lastmile_qr_scan"}, "is_disabled": 0, "is_reserved": 0, "name": "b8eafc8fcab88be5eb89e56f1e7888d0", "type": "electric_scooter", "fusion_lat": 0.0}, {"bike_id": "7da4821ce9e3260264c4fb919d847d0e", "lon": -77.03208616666667, "lat": 38.907877666666664, "fusion_lon": 0.0, "rental_uris": {"ios": "https://dc.lft.to/lastmile_qr_scan", "android": "https://dc.lft.to/lastmile_qr_scan"}, "is_disabled": 0, "is_reserved": 0, "name": "7da4821ce9e3260264c4fb919d847d0e", "type": "electric_scooter", "fusion_lat": 0.0}, {"bike_id": "0462483cad46085e6554029cd391eccc", "lon": -77.11988, "lat": 38.84730883333334, "fusion_lon": 0.0, "rental_uris": {"ios": "https://dc.lft.to/lastmile_qr_scan", "android": "https://dc.lft.to/lastmile_qr_scan"}, "is_disabled": 0, "is_reserved": 0, "name": "0462483cad46085e6554029cd391eccc", "type": "electric_bike", "fusion_lat": 0.0}, {"bike_id": "93392f7c20097ba87dd313491fa4b25b", "lon": -76.97584116666667, "lat": 38.903384333333335, "fusion_lon": 0.0, "rental_uris": {"ios": "https://dc.lft.to/lastmile_qr_scan", "android": "https://dc.lft.to/lastmile_qr_scan"},