{"data": {"bikes": [{"rental_uris": {"android": "https://dc.lft.to/lastmile_qr_scan", "ios": "https://dc.lft.to/lastmile_qr_scan"}, "bike_id": "fcfce5d1cbdfba68bb5fa4cd91458229", "name": "fcfce5d1cbdfba68bb5fa4cd91458229", "type": "electric_scooter", "lon": -77.0176595, "lat": 38.91268, "is_disabled": 0, "is_reserved": 0, "fusion_lat": 0.0, "fusion_lon": 0.0}, {"rental_uris": {"android": "https://dc.lft.to/lastmile_qr_scan", "ios": "https://dc.lft.to/lastmile_qr_scan"}, "bike_id": "2b7e7c3106e78cf47c17886fba5c9c4c", "name": "2b7e7c3106e78cf47c17886fba5c9c4c", "type": "electric_scooter", "lon": -77.03659083333334, "lat": 38.91797016666666, "is_disabled": 0, "is_reserved": 0, "fusion_lat": 0.0, "fusion_lon": 0.0}, {"rental_uris": {"android": "https://dc.lft.to/lastmile_qr_scan", "ios": "https://dc.lft.to/lastmile_qr_scan"}, "bike_id": "d2a5cd8c5b5d3fcb97a641ce1b3b2eec", "name": "d2a5cd8c5b5d3fcb97a641ce1b3b2eec", "type": "electric_scooter", "lon": -77.00798366666666, "lat": 38.89716633333333, "is_disabled": 0, "is_reserved": 0, "fusion_lat": 0.0, "fusion_lon": 0.0}, {"rental_uris": {"android": "https://dc.lft.to/lastmile_qr_scan", "ios": "https://dc.lft.to/lastmile_qr_scan"}, "bike_id": "9df0c13878879abdfd830f001aee3063", "name": "9df0c13878879abdfd830f001aee3063", "type": "electric_scooter", "lon": -77.030764, "lat": 38.89728683333333, "is_disabled": 0, "is_reserved": 0, "fusion_lat": 0.0, "fusion_lon": 0.0}, {"rental_uris": {"android": "https://dc.lft.to/lastmile_qr_scan", "ios": "https://dc.lft.to/lastmile_qr_scan"}, "bike_id": "29e942239f612ae0fc23929497adde82", "name": "29e942239f612ae0fc23929497adde82", "type": "electric_scooter", "lon": -77.02801133333334, "lat": 38.9171995, "is_disabled": 0, "is_reserved": 0, "fusion_lat": 0.0, "fusion_lon": 0.0}, {"rental_uris": {"android": "https://dc.lft.to/lastmile_qr_scan", "ios": "https://dc.lft.to/lastmile_qr_scan"}, "bike_id": "74c6ca7608f24daee6f44e286e130262", "name": "74c6ca7608f24daee6f44e286e130262", "type": "electric_scooter", "lon": -77.043584, "lat": 38.90001866666667, "is_disabled": 0, "is_reserved": 0, "fusion_lat": 0.0, "fusion_lon": 0.0}, {"rental_uris": {"android": "https://dc.lft.to/lastmile_qr_scan", "ios": "https://dc.lft.to/lastmile_qr_scan"}, "bike_id": "2804c203bb9c8eeb8810daeaf3b9bd2c", "name": "2804c203bb9c8eeb8810daeaf3b9bd2c", "type": "electric_scooter", "lon": -77.00564516666667, "lat": 38.88504366666667, "is_disabled": 0, "is_reserved": 0, "fusion_lat": 0.0, "fusion_lon": 0.0}, {"rental_uris": {"android": "https://dc.lft.to/lastmile_qr_scan", "ios": "https://dc.lft.to/lastmile_qr_scan"}, "bike_id": "e62b1f23b9af1879179c72d0c78acc73", "name": "e62b1f23b9af1879179c72d0c78acc73", "type": "electric_scooter", "lon": -77.03445966666666, "lat": 38.918133, "is_disabled": 0, "is_reserved": 0, "fusion_lat": 0.0, "fusion_lon": 0.0}, {"rental_uris": {"android": "https://dc.lft.to/lastmile_qr_scan", "ios": "https://dc.lft.to/lastmile_qr_scan"}, "bike_id": "c6ff82b3bd07d43a410b5eefaed2eedf", "name": "c6ff82b3bd07d43a410b5eefaed2eedf", "type": "electric_scooter", "lon": -77.02420366666666, "lat": 38.907342, "is_disabled": 0, "is_reserved": 0, "fusion_lat": 0.0, "fusion_lon": 0.0}, {"rental_uris": {"android": "https://dc.lft.to/lastmile_qr_scan", "ios": "https://dc.lft.to/lastmile_qr_scan"}, "bike_id": "671b3a9190f92d2da42491ae4082d58b", "name": "671b3a9190f92d2da42491ae4082d58b", "type": "electric_scooter", "lon": -76.98666, "lat": 38.9025315, "is_disabled": 0, "is_reserved": 0, "fusion_lat": 0.0, "fusion_lon": 0.0}, {"rental_uris": {"android": "https://dc.lft.to/lastmile_qr_scan", "ios": "https://dc.lft.to/lastmile_qr_scan"}, "bike_id": "3ce9df6477f151a685db23ba5a47027c", "name": "3ce9df6477f151a685db23ba5a47027c", "type": "electric_scooter", "lon": -77.039892, "lat": 38.917664333333335, "is_disabled": 0, "is_reserved": 0, "fusion_lat": 0.0, "fusion_lon": 0.0}, {"rental_uris": {"android": "https://dc.lft.to/lastmile_qr_scan", "ios": "https://dc.lft.to/lastmile_qr_scan"}, "bike_id": "836efc419542ab22c32d7ecb21aefe97", "name": "836efc419542ab22c32d7ecb21aefe97", "type": "electric_bike", "lon": -77.13468183333333, "lat": 38.853542833333336, "is_disabled": 0, "is_reserved": 0, "fusion_lat": 0.0, "fusion_lon": 0.0}, {"rental_uris": {"android": "https://dc.lft.to/lastmile_qr_scan", "ios": "https://dc.lft.to/lastmile_qr_scan"}, "bike_id": "077421d1645c3d82ad9f5add94951c6e", "name": "077421d1645c3d82ad9f5add94951c6e", "type": "electric_scooter", "lon": -77.03264516666667, "lat": 38.937243333333335, "is_disabled": 0, "is_reserved": 0, "fusion_lat": 0.0, "fusion_lon": 0.0}, {"rental_uris": {"android": "https://dc.lft.to/lastmile_qr_scan", "ios": "https://dc.lft.to/lastmile_qr_scan"}, "bike_id": "24bcb172130b6fa7eba465e9b6ee31dd", "name": "24bcb172130b6fa7eba465e9b6ee31dd", "type": "electric_scooter", "lon": -77.03392166666667, "lat": 38.931391, "is_disabled": 0, "is_reserved": 0, "fusion_lat": 0.0, "fusion_lon": 0.0}, {"rental_uris": {"android": "https://dc.lft.to/lastmile_qr_scan", "ios": "https://dc.lft.to/lastmile_qr_scan"}, "bike_id": "f28248c04a4b73c4be98a8eb422bd6eb", "name": "f28248c04a4b73c4be98a8eb422bd6eb", "type": "electric_scooter", "lon": -77.0405135, "lat": 38.8991975, "is_disabled": 0, "is_reserved": 0, "fusion_lat": 0.0, "fusion_lon": 0.0}, {"rental_uris": {"android": "https://dc.lft.to/lastmile_qr_scan", "ios": "https://dc.lft.to/lastmile_qr_scan"}, "bike_id": "ed42f07fcb0cc12677ef68226336291c", "name": "ed42f07fcb0cc12677ef68226336291c", "type": "electric_scooter", "lon": -77.00241866666667, "lat": 38.874946666666666, "is_disabled": 0, "is_reserved": 0, "fusion_lat": 0.0, "fusion_lon": 0.0}, {"rental_uris": {"android": "https://dc.lft.to/lastmile_qr_scan", "ios": "https://dc.lft.to/lastmile_qr_scan"}, "bike_id": "6498decd7cf08ae3740a4e2c9df0d3cd", "name": "6498decd7cf08ae3740a4e2c9df0d3cd", "type": "electric_scooter", "lon": -77.03952783333334, "lat": 38.898604666666664, "is_disabled": 0, "is_reserved": 0, "fusion_lat": 0.0, "fusion_lon": 0.0}, {"rental_uris": {"android": "https://dc.lft.to/lastmile_qr_scan", "ios": "https://dc.lft.to/lastmile_qr_scan"}, "bike_id": "26f27cdddd439683fc1c185bc17b20a3", "name": "26f27cdddd439683fc1c185bc17b20a3", "type": "electric_scooter", "lon": -76.9981475, "lat": 38.8443405, "is_disabled": 0, "is_reserved": 0, "fusion_lat": 0.0, "fusion_lon": 0.0}, {"rental_uris": {"android": "https://dc.lft.to/lastmile_qr_scan", "ios": "https://dc.lft.to/lastmile_qr_scan"}, "bike_id": "cf1aa5522c88e0c3bb1302d850eff0d5", "name": "cf1aa5522c88e0c3bb1302d850eff0d5", "type": "electric_scooter", "lon": -77.00071033333333, "lat": 38.901393666666664, "is_disabled": 0, "is_reserved": 0, "fusion_lat": 0.0, "fusion_lon": 0.0}, {"rental_uris": {"android": "https://dc.lft.to/lastmile_qr_scan", "ios": "https://dc.lft.to/lastmile_qr_scan"}, "bike_id": "32df7a969d20a1464d1c8c1d6919cacb", "name": "32df7a969d20a1464d1c8c1d6919cacb", "type": "electric_bike", "lon": -77.03633016666667, "lat": 38.90276933333333, "is_disabled": 0, "is_reserved": 0, "fusion_lat": 0.0, "fusion_lon": 0.0}, {"rental_uris": {"android": "https://dc.lft.to/lastmile_qr_scan", "ios": "https://dc.lft.to/lastmile_qr_scan"}, "bike_id": "6157f5867f91f919700660a188fbdf3e", "name": "6157f5867f91f919700660a188fbdf3e", "type": "electric_bike", "lon": -77.01990733333334, "lat": 38.92281, "is_disabled": 0, "is_reserved": 0, "fusion_lat": 0.0, "fusion_lon": 0.0}, {"rental_uris": {"android": "https://dc.lft.to/lastmile_qr_scan", "ios": "https://dc.lft.to/lastmile_qr_scan"}, "bike_id": "849e1258b733dc06f0e537fc6ff021d7", "name": "849e1258b733dc06f0e537fc6ff021d7", "type": "electric_scooter", "lon": -77.0019975, "lat": 38.90236066666667, "is_disabled": 0, "is_reserved": 0, "fusion_lat": 0.0, "fusion_lon": 0.0}, {"rental_uris": {"android": "https://dc.lft.to/lastmile_qr_scan", "ios": "https://dc.lft.to/lastmile_qr_scan"}, "bike_id": "15d3286833a3ea69bc3c2997ae1abf18", "name": "15d3286833a3ea69bc3c2997ae1abf18", "type": "electric_scooter", "lon": -76.98652283333334, "lat": 38.8580805, "is_disabled": 0, "is_reserved": 0, "fusion_lat": 0.0, "fusion_lon": 0.0}, {"rental_uris": {"android": "https://dc.lft.to/lastmile_qr_scan", "ios": "https://dc.lft.to/lastmile_qr_scan"}, "bike_id": "af749fa304c48d5b229b9ce42ed9de54", "name": "af749fa304c48d5b229b9ce42ed9de54", "type": "electric_scooter", "lon": -76.989252, "lat": 38.85809616666667, "is_disabled": 0, "is_reserved": 0, "fusion_lat": 0.0, "fusion_lon": 0.0}, {"rental_uris": {"android": "https://dc.lft.to/lastmile_qr_scan", "ios": "https://dc.lft.to/lastmile_qr_scan"}, "bike_id": "9a1bd6ff306c8900e3cceeb127b2724a", "name": "9a1bd6ff306c8900e3cceeb127b2724a", "type": "electric_scooter", "lon": -77.05235116666667, "lat": 38.92709966666666, "is_disabled": 0, "is_reserved": 0, "fusion_lat": 0.0, "fusion_lon": 0.0}, {"rental_uris": {"android": "https://dc.lft.to/lastmile_qr_scan", "ios": "https://dc.lft.to/lastmile_qr_scan"}, "bike_id": "56a4718288a37ed0fa28b9a435f53b0c", "name": "56a4718288a37ed0fa28b9a435f53b0c", "type": "electric_scooter", "lon": -77.04903283333333, "lat": 38.905218166666664, "is_disabled": 0, "is_reserved": 0, "fusion_lat": 0.0, "fusion_lon": 0.0}, {"rental_uris": {"android": "https://dc.lft.to/lastmile_qr_scan", "ios": "https://dc.lft.to/lastmile_qr_scan"}, "bike_id": "7ef0fced799ba5c2ec55e770e9b9288b", "name": "7ef0fced799ba5c2ec55e770e9b9288b", "type": "electric_scooter", "lon": -77.0289875, "lat": 38.9141225, "is_disabled": 0, "is_reserved": 0, "fusion_lat": 0.0, "fusion_lon": 0.0}, {"rental_uris": {"android": "https://dc.lft.to/lastmile_qr_scan", "ios": "https://dc.lft.to/lastmile_qr_scan"}, "bike_id": "5f7a20e57ad94a6bd6520206152e70e4", "name": "5f7a20e57ad94a6bd6520206152e70e4", "type": "electric_bike", "lon": -76.90708883333333, "lat": 38.89598983333333, "is_disabled": 0, "is_reserved": 0, "fusion_lat": 0.0, "fusion_lon": 0.0}, {"rental_uris": {"android": "https://dc.lft.to/lastmile_qr_scan", "ios": "https://dc.lft.to/lastmile_qr_scan"}, "bike_id": "809ec8c0f95b4c53031ab6d88402765b", "name": "809ec8c0f95b4c53031ab6d88402765b", "type": "electric_scooter", "lon": -77.032299, "lat": 38.90238333333333, "is_disabled": 0, "is_reserved": 0, "fusion_lat": 0.0, "fusion_lon": 0.0}, {"rental_uris": {"android": "https://dc.lft.to/lastmile_qr_scan", "ios": "https://dc.lft.to/lastmile_qr_scan"}, "bike_id": "8efd18faf94a1fa3b1d9c24393507608", "name": "8efd18faf94a1fa3b1d9c24393507608", "type": "electric_scooter", "lon": -77.02185066666667, "lat": 38.914563333333334, "is_disabled": 0, "is_reserved": 0, "fusion_lat": 0.0, "fusion_lon": 0.0}, {"rental_uris": {"android": "https://dc.lft.to/lastmile_qr_scan", "ios": "https://dc.lft.to/lastmile_qr_scan"}, "bike_id": "7309062348645a738dde008e28fe9ecf", "name": "7309062348645a738dde008e28fe9ecf", "type": "electric_scooter", "lon": -77.05238133333333, "lat": 38.9235935, "is_disabled": 0, "is_reserved": 0, "fusion_lat": 0.0, "fusion_lon": 0.0}, {"rental_uris": {"android": "https://dc.lft.to/lastmile_qr_scan", "ios": "https://dc.lft.to/lastmile_qr_scan"}, "bike_id": "3c1d40d0241f684d093bfd71a1f1267d", "name": "3c1d40d0241f684d093bfd71a1f1267d", "type": "electric_scooter", "lon": -77.038127, "lat": 38.906883, "is_disabled": 0, "is_reserved": 0, "fusion_lat": 0.0, "fusion_lon": 0.0}, {"rental_uris": {"android": "https://dc.lft.to/lastmile_qr_scan", "ios": "https://dc.lft.to/lastmile_qr_scan"}, "bike_id": "b7411d848cd85a6f2f6991cb38032296", "name": "b7411d848cd85a6f2f6991cb38032296", "type": "electric_scooter", "lon": -77.02792916666667, "lat": 38.954035833333336, "is_disabled": 0, "is_reserved": 0, "fusion_lat": 0.0, "fusion_lon": 0.0}, {"rental_uris": {"android": "https://dc.lft.to/lastmile_qr_scan", "ios": "https://dc.lft.to/lastmile_qr_scan"}, "bike_id": "5e80dfcbc8ffcbd7f73fad8f82e53a00", "name": "5e80dfcbc8ffcbd7f73fad8f82e53a00", "type": "electric_scooter", "lon": -77.051203, "lat": 38.923473333333334, "is_disabled": 0, "is_reserved": 0, "fusion_lat": 0.0, "fusion_lon": 0.0}, {"rental_uris": {"android": "https://dc.lft.to/lastmile_qr_scan", "ios": "https://dc.lft.to/lastmile_qr_scan"}, "bike_id": "cdf2580e73a2decc81a61096f1b7d317", "name": "cdf2580e73a2decc81a61096f1b7d317", "type": "electric_scooter", "lon": -77.03842233333333, "lat": 38.89323066666667, "is_disabled": 0, "is_reserved": 0, "fusion_lat": 0.0, "fusion_lon": 0.0}, {"rental_uris": {"android": "https://dc.lft.to/lastmile_qr_scan", "ios": "https://dc.lft.to/lastmile_qr_scan"}, "bike_id": "411771b3e22f19c738d47933770105f9", "name": "411771b3e22f19c738d47933770105f9", "type": "electric_bike", "lon": -77.0316445, "lat": 38.99959783333333, "is_disabled": 0, "is_reserved": 0, "fusion_lat": 0.0, "fusion_lon": 0.0}, {"rental_uris": {"android": "https://dc.lft.to/lastmile_qr_scan", "ios": "https://dc.lft.to/lastmile_qr_scan"}, "bike_id": "dad69a0cf018eeaf354c3f46873594b8", "name": "dad69a0cf018eeaf354c3f46873594b8", "type": "electric_scooter", "lon": -77.03287716666667, "lat": 38.920484333333334, "is_disabled": 0, "is_reserved": 0, "fusion_lat": 0.0, "fusion_lon": 0.0}, {"rental_uris": {"android": "https://dc.lft.to/lastmile_qr_scan", "ios": "https://dc.lft.to/lastmile_qr_scan"}, "bike_id": "c62819ff109cc9aeac04ede9502f17de", "name": "c62819ff109cc9aeac04ede9502f17de", "type": "electric_scooter", "lon": -77.0415625, "lat": 38.91834433333333, "is_disabled": 0, "is_reserved": 0, "fusion_lat": 0.0, "fusion_lon": 0.0}, {"rental_uris": {"android": "https://dc.lft.to/lastmile_qr_scan", "ios": "https://dc.lft.to/lastmile_qr_scan"}, "bike_id": "ac9b327b11681ad90168c2af2d84f4be", "name": "ac9b327b11681ad90168c2af2d84f4be", "type": "electric_scooter", "lon": -77.041762, "lat": 38.9183885, "is_disabled": 0, "is_reserved": 0, "fusion_lat": 0.0, "fusion_lon": 0.0}, {"rental_uris": {"android": "https://dc.lft.to/lastmile_qr_scan", "ios": "https://dc.lft.to/lastmile_qr_scan"}, "bike_id": "3fc650f6c3e643255e05e3c3b57d9f0e", "name": "3fc650f6c3e643255e05e3c3b57d9f0e", "type": "electric_scooter", "lon": -77.01566833333334, "lat": 38.915114, "is_disabled": 0, "is_reserved": 0, "fusion_lat": 0.0, "fusion_lon": 0.0}, {"rental_uris": {"android": "https://dc.lft.to/lastmile_qr_scan", "ios": "https://dc.lft.to/lastmile_qr_scan"}, "bike_id": "51c90b2b64169b85b8b2db9256a89025", "name": "51c90b2b64169b85b8b2db9256a89025", "type": "electric_scooter", "lon": -77.00353583333333, "lat": 38.90257916666667, "is_disabled": 0, "is_reserved": 0, "fusion_lat": 0.0, "fusion_lon": 0.0}, {"rental_uris": {"android": "https://dc.lft.to/lastmile_qr_scan", "ios": "https://dc.lft.to/lastmile_qr_scan"}, "bike_id": "0b7bdb3ba68c37f82d02b2f6ec5846ac", "name": "0b7bdb3ba68c37f82d02b2f6ec5846ac", "type": "electric_scooter", "lon": -76.98378666666666, "lat": 38.88595016666667, "is_disabled": 0, "is_reserved": 0, "fusion_lat": 0.0, "fusion_lon": 0.0}, {"rental_uris": {"android": "https://dc.lft.to/lastmile_qr_scan", "ios": "https://dc.lft.to/lastmile_qr_scan"}, "bike_id": "3834e433f1538f77a5c84f84c438de67", "name": "3834e433f1538f77a5c84f84c438de67", "type": "electric_bike", "lon": -76.9857025, "lat": 38.89957866666666, "is_disabled": 0, "is_reserved": 0, "fusion_lat": 0.0, "fusion_lon": 0.0}, {"rental_uris": {"android": "https://dc.lft.to/lastmile_qr_scan", "ios": "https://dc.lft.to/lastmile_qr_scan"}, "bike_id": "2a27364db6e539b24193d268cdafd60e", "name": "2a27364db6e539b24193d268cdafd60e", "type": "electric_scooter", "lon": -77.00258116666667, "lat": 38.92239883333333, "is_disabled": 0, "is_reserved": 0, "fusion_lat": 0.0, "fusion_lon": 0.0}, {"rental_uris": {"android": "https://dc.lft.to/lastmile_qr_scan", "ios": "https://dc.lft.to/lastmile_qr_scan"}, "bike_id": "10c66b9759980b5d03d2712b5e421a68", "name": "10c66b9759980b5d03d2712b5e421a68", "type": "electric_bike", "lon": -77.05175866666667, "lat": 38.9234945, "is_disabled": 0, "is_reserved": 0, "fusion_lat": 0.0, "fusion_lon": 0.0}, {"rental_uris": {"android": "https://dc.lft.to/lastmile_qr_scan", "ios": "https://dc.lft.to/lastmile_qr_scan"}, "bike_id": "caf54e64da30902d675f445950e22688", "name": "caf54e64da30902d675f445950e22688", "type": "electric_scooter", "lon": -77.01678833333334, "lat": 38.88177266666667, "is_disabled": 0, "is_reserved": 0, "fusion_lat": 0.0, "fusion_lon": 0.0}, {"rental_uris": {"android": "https://dc.lft.to/lastmile_qr_scan", "ios": "https://dc.lft.to/lastmile_qr_scan"}, "bike_id": "5f8073ab4254c6fc3fe96a3f64261450", "name": "5f8073ab4254c6fc3fe96a3f64261450", "type": "electric_scooter", "lon": -77.00890666666666, "lat": 38.9249125, "is_disabled": 0, "is_reserved": 0, "fusion_lat": 0.0, "fusion_lon": 0.0}, {"rental_uris": {"android": "https://dc.lft.to/lastmile_qr_scan", "ios": "https://dc.lft.to/lastmile_qr_scan"}, "bike_id": "9e46bbe0f0b113fabe1dd51a34edcc93", "name": "9e46bbe0f0b113fabe1dd51a34edcc93", "type": "electric_scooter", "lon": -77.03852133333334, "lat": 38.91696916666667, "is_disabled": 0, "is_reserved": 0, "fusion_lat": 0.0, "fusion_lon": 0.0}, {"rental_uris": {"android": "https://dc.lft.to/lastmile_qr_scan", "ios": "https://dc.lft.to/lastmile_qr_scan"}, "bike_id": "4af989e4705269fc1dc577c8df28bba1", "name": "4af989e4705269fc1dc577c8df28bba1", "type": "electric_scooter", "lon": -77.02292566666667, "lat": 38.901379166666665, "is_disabled": 0, "is_reserved": 0, "fusion_lat": 0.0, "fusion_lon": 0.0}, {"rental_uris": {"android": "https://dc.lft.to/lastmile_qr_scan", "ios": "https://dc.lft.to/lastmile_qr_scan"}, "bike_id": "60f46f266219023cbe4f2551ee06b9e3", "name": "60f46f266219023cbe4f2551ee06b9e3", "type": "electric_scooter", "lon": -77.07156483333333, "lat": 38.9202925, "is_disabled": 0, "is_reserved": 0, "fusion_lat": 0.0, "fusion_lon": 0.0}, {"rental_uris": {"android": "https://dc.lft.to/lastmile_qr_scan", "ios": "https://dc.lft.to/lastmile_qr_scan"}, "bike_id": "766ef12ca9d5253219d016f357412075", "name": "766ef12ca9d5253219d016f357412075", "type": "electric_bike", "lon": -76.98776466666666, "lat": 38.86593933333333, "is_disabled": 0, "is_reserved": 0, "fusion_lat": 0.0, "fusion_lon": 0.0}, {"rental_uris": {"android": "https://dc.lft.to/lastmile_qr_scan", "ios": "https://dc.lft.to/lastmile_qr_scan"}, "bike_id": "463d0885dddb0b729da50fc7f273ce75", "name": "463d0885dddb0b729da50fc7f273ce75", "type": "electric_scooter", "lon": -77.034193, "lat": 38.92254116666667, "is_disabled": 0, "is_reserved": 0, "fusion_lat": 0.0, "fusion_lon": 0.0}, {"rental_uris": {"android": "https://dc.lft.to/lastmile_qr_scan", "ios": "https://dc.lft.to/lastmile_qr_scan"}, "bike_id": "a896baf00d4eb674461279c954d21686", "name": "a896baf00d4eb674461279c954d21686", "type": "electric_scooter", "lon": -77.03853083333334, "lat": 38.91021216666667, "is_disabled": 0, "is_reserved": 0, "fusion_lat": 0.0, "fusion_lon": 0.0}, {"rental_uris": {"android": "https://dc.lft.to/lastmile_qr_scan", "ios": "https://dc.lft.to/lastmile_qr_scan"}, "bike_id": "a6fd623d9c248fb7525734833ff3feff", "name": "a6fd623d9c248fb7525734833ff3feff", "type": "electric_scooter", "lon": -77.04515116666667, "lat": 38.89227316666667, "is_disabled": 0, "is_reserved": 0, "fusion_lat": 0.0, "fusion_lon": 0.0}, {"rental_uris": {"android": "https://dc.lft.to/lastmile_qr_scan", "ios": "https://dc.lft.to/lastmile_qr_scan"}, "bike_id": "41219fa412e5c85f6fbdbbefe9dec389", "name": "41219fa412e5c85f6fbdbbefe9dec389", "type": "electric_scooter", "lon": -77.00199466666666, "lat": 38.89350116666667, "is_disabled": 0, "is_reserved": 0, "fusion_lat": 0.0, "fusion_lon": 0.0}, {"rental_uris": {"android": "https://dc.lft.to/lastmile_qr_scan", "ios": "https://dc.lft.to/lastmile_qr_scan"}, "bike_id": "8e972d20da67068f378d5b052e156d3d", "name": "8e972d20da67068f378d5b052e156d3d", "type": "electric_scooter", "lon": -77.035624, "lat": 38.9171945, "is_disabled": 0, "is_reserved": 0, "fusion_lat": 0.0, "fusion_lon": 0.0}, {"rental_uris": {"android": "https://dc.lft.to/lastmile_qr_scan", "ios": "https://dc.lft.to/lastmile_qr_scan"}, "bike_id": "a5897000645fb2db604b5aca98c7260b", "name": "a5897000645fb2db604b5aca98c7260b", "type": "electric_scooter", "lon": -77.004995, "lat": 38.8969755, "is_disabled": 0, "is_reserved": 0, "fusion_lat": 0.0, "fusion_lon": 0.0}, {"rental_uris": {"android": "https://dc.lft.to/lastmile_qr_scan", "ios": "https://dc.lft.to/lastmile_qr_scan"}, "bike_id": "8920288a3b4fedd4a55fe8b4fe463e77", "name": "8920288a3b4fedd4a55fe8b4fe463e77", "type": "electric_scooter", "lon": -77.0442015, "lat": 38.91127633333333, "is_disabled": 0, "is_reserved": 0, "fusion_lat": 0.0, "fusion_lon": 0.0}, {"rental_uris": {"android": "https://dc.lft.to/lastmile_qr_scan", "ios": "https://dc.lft.to/lastmile_qr_scan"}, "bike_id": "044011e9975a29fa9efa283067c0ff79", "name": "044011e9975a29fa9efa283067c0ff79", "type": "electric_scooter", "lon": -77.041939, "lat": 38.893604, "is_disabled": 0, "is_reserved": 0, "fusion_lat": 0.0, "fusion_lon": 0.0}, {"rental_uris": {"android": "https://dc.lft.to/lastmile_qr_scan", "ios": "https://dc.lft.to/lastmile_qr_scan"}, "bike_id": "096e2e9848fdfa050c6982507a44613d", "name": "096e2e9848fdfa050c6982507a44613d", "type": "electric_bike", "lon": -77.12024266666667, "lat": 38.85534416666667, "is_disabled": 0, "is_reserved": 0, "fusion_lat": 0.0, "fusion_lon": 0.0}, {"rental_uris": {"android": "https://dc.lft.to/lastmile_qr_scan", "ios": "https://dc.lft.to/lastmile_qr_scan"}, "bike_id": "279b441382b169f345734e9e162ab21d", "name": "279b441382b169f345734e9e162ab21d", "type": "electric_scooter", "lon": -77.044718, "lat": 38.9186685, "is_disabled": 0, "is_reserved": 0, "fusion_lat": 0.0, "fusion_lon": 0.0}, {"rental_uris": {"android": "https://dc.lft.to/lastmile_qr_scan", "ios": "https://dc.lft.to/lastmile_qr_scan"}, "bike_id": "10979c0c33fc36daf06daed272d08aff", "name": "10979c0c33fc36daf06daed272d08aff", "type": "electric_scooter", "lon": -77.04520083333334, "lat": 38.9028035, "is_disabled": 0, "is_reserved": 0, "fusion_lat": 0.0, "fusion_lon": 0.0}, {"rental_uris": {"android": "https://dc.lft.to/lastmile_qr_scan", "ios": "https://dc.lft.to/lastmile_qr_scan"}, "bike_id": "7800c0e462f88dbcdb1dfecfae120a0d", "name": "7800c0e462f88dbcdb1dfecfae120a0d", "type": "electric_scooter", "lon": -76.9418725, "lat": 38.89742483333333, "is_disabled": 0, "is_reserved": 0, "fusion_lat": 0.0, "fusion_lon": 0.0}, {"rental_uris": {"android": "https://dc.lft.to/lastmile_qr_scan", "ios": "https://dc.lft.to/lastmile_qr_scan"}, "bike_id": "27a7580f0d4b70cf6489ba6b2b42015d", "name": "27a7580f0d4b70cf6489ba6b2b42015d", "type": "electric_scooter", "lon": -77.032002, "lat": 38.9147535, "is_disabled": 0, "is_reserved": 0, "fusion_lat": 0.0, "fusion_lon": 0.0}, {"rental_uris": {"android": "https://dc.lft.to/lastmile_qr_scan", "ios": "https://dc.lft.to/lastmile_qr_scan"}, "bike_id": "fc88833021c5b2b038a813b03333b401", "name": "fc88833021c5b2b038a813b03333b401", "type": "electric_bike", "lon": -77.09486233333334, "lat": 39.0305835, "is_disabled": 0, "is_reserved": 0, "fusion_lat": 0.0, "fusion_lon": 0.0}, {"rental_uris": {"android": "https://dc.lft.to/lastmile_qr_scan", "ios": "https://dc.lft.to/lastmile_qr_scan"}, "bike_id": "6fc30bc0a4516f0587f7666a15af0801", "name": "6fc30bc0a4516f0587f7666a15af0801", "type": "electric_scooter", "lon": -77.02705383333333, "lat": 38.90855333333333, "is_disabled": 0, "is_reserved": 0, "fusion_lat": 0.0, "fusion_lon": 0.0}, {"rental_uris": {"android": "https://dc.lft.to/lastmile_qr_scan", "ios": "https://dc.lft.to/lastmile_qr_scan"}, "bike_id": "9fa1d1372bde82dad7b02fbd1515ff25", "name": "9fa1d1372bde82dad7b02fbd1515ff25", "type": "electric_scooter", "lon": -77.0208135, "lat": 38.8756725, "is_disabled": 0, "is_reserved": 0, "fusion_lat": 0.0, "fusion_lon": 0.0}, {"rental_uris": {"android": "https://dc.lft.to/lastmile_qr_scan", "ios": "https://dc.lft.to/lastmile_qr_scan"}, "bike_id": "6c43f6e85f26ad7f51036d3a28d96fde", "name": "6c43f6e85f26ad7f51036d3a28d96fde", "type": "electric_scooter", "lon": -76.97425333333334, "lat": 38.904518333333336, "is_disabled": 0, "is_reserved": 0, "fusion_lat": 0.0, "fusion_lon": 0.0}, {"rental_uris": {"android": "https://dc.lft.to/lastmile_qr_scan", "ios": "https://dc.lft.to/lastmile_qr_scan"}, "bike_id": "4265de423a30ad468a1bc832e6db5923", "name": "4265de423a30ad468a1bc832e6db5923", "type": "electric_scooter", "lon": -77.04643966666667, "lat": 38.90170783333333, "is_disabled": 0, "is_reserved": 0, "fusion_lat": 0.0, "fusion_lon": 0.0}, {"rental_uris": {"android": "https://dc.lft.to/lastmile_qr_scan", "ios": "https://dc.lft.to/lastmile_qr_scan"}, "bike_id": "5a76865fa72f52a73b595146c9d1c877", "name": "5a76865fa72f52a73b595146c9d1c877", "type": "electric_scooter", "lon": -77.0251045, "lat": 38.9206265, "is_disabled": 0, "is_reserved": 0, "fusion_lat": 0.0, "fusion_lon": 0.0}, {"rental_uris": {"android": "https://dc.lft.to/lastmile_qr_scan", "ios": "https://dc.lft.to/lastmile_qr_scan"}, "bike_id": "a148e9ee76cc6c13a30d748b3259efa0", "name": "a148e9ee76cc6c13a30d748b3259efa0", "type": "electric_scooter", "lon": -77.0366535, "lat": 38.909988166666665, "is_disabled": 0, "is_reserved": 0, "fusion_lat": 0.0, "fusion_lon": 0.0}, {"rental_uris": {"android": "https://dc.lft.to/lastmile_qr_scan", "ios": "https://dc.lft.to/lastmile_qr_scan"}, "bike_id": "46670ab35ee643f2621e207d21c44cff", "name": "46670ab35ee643f2621e207d21c44cff", "type": "electric_scooter", "lon": -77.02332866666667, "lat": 38.924771666666665, "is_disabled": 0, "is_reserved": 0, "fusion_lat": 0.0, "fusion_lon": 0.0}, {"rental_uris": {"android": "https://dc.lft.to/lastmile_qr_scan", "ios": "https://dc.lft.to/lastmile_qr_scan"}, "bike_id": "778cfe0bde1a25bde947e95de95e30c3", "name": "778cfe0bde1a25bde947e95de95e30c3", "type": "electric_scooter", "lon": -77.03736916666666, "lat": 38.91114916666667, "is_disabled": 0, "is_reserved": 0, "fusion_lat": 0.0, "fusion_lon": 0.0}, {"rental_uris": {"android": "https://dc.lft.to/lastmile_qr_scan", "ios": "https://dc.lft.to/lastmile_qr_scan"}, "bike_id": "c5a6184a939906c5eae7b7fa92629178", "name": "c5a6184a939906c5eae7b7fa92629178", "type": "electric_scooter", "lon": -77.01977483333333, "lat": 38.899678333333334, "is_disabled": 0, "is_reserved": 0, "fusion_lat": 0.0, "fusion_lon": 0.0}, {"rental_uris": {"android": "https://dc.lft.to/lastmile_qr_scan", "ios": "https://dc.lft.to/lastmile_qr_scan"}, "bike_id": "32f4e9b3fe12b513ffbf31232c7a672b", "name": "32f4e9b3fe12b513ffbf31232c7a672b", "type": "electric_scooter", "lon": -77.01976166666667, "lat": 38.88473066666667, "is_disabled": 0, "is_reserved": 0, "fusion_lat": 0.0, "fusion_lon": 0.0}, {"rental_uris": {"android": "https://dc.lft.to/lastmile_qr_scan", "ios": "https://dc.lft.to/lastmile_qr_scan"}, "bike_id": "fa06538d1784b03c3fa93fb9bbccecc5", "name": "fa06538d1784b03c3fa93fb9bbccecc5", "type": "electric_scooter", "lon": -77.0324895, "lat": 38.918031, "is_disabled": 0, "is_reserved": 0, "fusion_lat": 0.0, "fusion_lon": 0.0}, {"rental_uris": {"android": "https://dc.lft.to/lastmile_qr_scan", "ios": "https://dc.lft.to/lastmile_qr_scan"}, "bike_id": "898a53b6a64fb5493ab38fffa5d8be69", "name": "898a53b6a64fb5493ab38fffa5d8be69", "type": "electric_scooter", "lon": -76.9771755, "lat": 38.888185, "is_disabled": 0, "is_reserved": 0, "fusion_lat": 0.0, "fusion_lon": 0.0}, {"rental_uris": {"android": "https://dc.lft.to/lastmile_qr_scan", "ios": "https://dc.lft.to/lastmile_qr_scan"}, "bike_id": "4e28841893a06d6b3bee9f4d989062eb", "name": "4e28841893a06d6b3bee9f4d989062eb", "type": "electric_scooter", "lon": -77.04170633333334, "lat": 38.91735633333333, "is_disabled": 0, "is_reserved": 0, "fusion_lat": 0.0, "fusion_lon": 0.0}, {"rental_uris": {"android": "https://dc.lft.to/lastmile_qr_scan", "ios": "https://dc.lft.to/lastmile_qr_scan"}, "bike_id": "f1aeb5c3ed2e81bb0e84b5e3351216aa", "name": "f1aeb5c3ed2e81bb0e84b5e3351216aa", "type": "electric_scooter", "lon": -77.01783883333333, "lat": 38.901367, "is_disabled": 0, "is_reserved": 0, "fusion_lat": 0.0, "fusion_lon": 0.0}, {"rental_uris": {"android": "https://dc.lft.to/lastmile_qr_scan", "ios": "https://dc.lft.to/lastmile_qr_scan"}, "bike_id": "fb5f9d53b1ebbd4b0dcf6f6b353d0789", "name": "fb5f9d53b1ebbd4b0dcf6f6b353d0789", "type": "electric_scooter", "lon": -77.04180016666666, "lat": 38.91884666666667, "is_disabled": 0, "is_reserved": 0, "fusion_lat": 0.0, "fusion_lon": 0.0}, {"rental_uris": {"android": "https://dc.lft.to/lastmile_qr_scan", "ios": "https://dc.lft.to/lastmile_qr_scan"}, "bike_id": "0d6398f76bcfe178b52d3020ad9d9929", "name": "0d6398f76bcfe178b52d3020ad9d9929", "type": "electric_bike", "lon": -76.96051583333333, "lat": 38.884033, "is_disabled": 0, "is_reserved": 0, "fusion_lat": 0.0, "fusion_lon": 0.0}, {"rental_uris": {"android": "https://dc.lft.to/lastmile_qr_scan", "ios": "https://dc.lft.to/lastmile_qr_scan"}, "bike_id": "4274e9659e01c90cbd0169ffe6b90ed3", "name": "4274e9659e01c90cbd0169ffe6b90ed3", "type": "electric_bike", "lon": -77.06401533333333, "lat": 38.840647, "is_disabled": 0, "is_reserved": 0, "fusion_lat": 0.0, "fusion_lon": 0.0}, {"rental_uris": {"android": "https://dc.lft.to/lastmile_qr_scan", "ios": "https://dc.lft.to/lastmile_qr_scan"}, "bike_id": "b571a1fba6bc741ff16f045a0503fab2", "name": "b571a1fba6bc741ff16f045a0503fab2", "type": "electric_scooter", "lon": -76.9952685, "lat": 38.86248283333333, "is_disabled": 0, "is_reserved": 0, "fusion_lat": 0.0, "fusion_lon": 0.0}, {"rental_uris": {"android": "https://dc.lft.to/lastmile_qr_scan", "ios": "https://dc.lft.to/lastmile_qr_scan"}, "bike_id": "80a25e6f89ccceae13ee28ef4ac79cec", "name": "80a25e6f89ccceae13ee28ef4ac79cec", "type": "electric_scooter", "lon": -76.98381033333334, "lat": 38.86121683333333, "is_disabled": 0, "is_reserved": 0, "fusion_lat": 0.0, "fusion_lon": 0.0}, {"rental_uris": {"android": "https://dc.lft.to/lastmile_qr_scan", "ios": "https://dc.lft.to/lastmile_qr_scan"}, "bike_id": "ef9342517dab963691309505b073c578", "name": "ef9342517dab963691309505b073c578", "type": "electric_scooter", "lon": -76.98118083333334, "lat": 38.9146955, "is_disabled": 0, "is_reserved": 0, "fusion_lat": 0.0, "fusion_lon": 0.0}, {"rental_uris": {"android": "https://dc.lft.to/lastmile_qr_scan", "ios": "https://dc.lft.to/lastmile_qr_scan"}, "bike_id": "2cbc86ea336a4228b692200d8cb1e1dd", "name": "2cbc86ea336a4228b692200d8cb1e1dd", "type": "electric_scooter", "lon": -77.03205483333333, "lat": 38.90805183333333, "is_disabled": 0, "is_reserved": 0, "fusion_lat": 0.0, "fusion_lon": 0.0}, {"rental_uris": {"android": "https://dc.lft.to/lastmile_qr_scan", "ios": "https://dc.lft.to/lastmile_qr_scan"}, "bike_id": "9f553062863ebe58acf978b1af944b39", "name": "9f553062863ebe58acf978b1af944b39", "type": "electric_scooter", "lon": -77.03189083333334, "lat": 38.923777666666666, "is_disabled": 0, "is_reserved": 0, "fusion_lat": 0.0, "fusion_lon": 0.0}, {"rental_uris": {"android": "https://dc.lft.to/lastmile_qr_scan", "ios": "https://dc.lft.to/lastmile_qr_scan"}, "bike_id": "8172bef1230f0343c5516d9c5d2cabc5", "name": "8172bef1230f0343c5516d9c5d2cabc5", "type": "electric_scooter", "lon": -77.07254316666666, "lat": 38.93952, "is_disabled": 0, "is_reserved": 0, "fusion_lat": 0.0, "fusion_lon": 0.0}, {"rental_uris": {"android": "https://dc.lft.to/lastmile_qr_scan", "ios": "https://dc.lft.to/lastmile_qr_scan"}, "bike_id": "f10be3f53f587ebce7284b260f5573d2", "name": "f10be3f53f587ebce7284b260f5573d2", "type": "electric_scooter", "lon": -77.012029, "lat": 38.900156833333334, "is_disabled": 0, "is_reserved": 0, "fusion_lat": 0.0, "fusion_lon": 0.0}, {"rental_uris": {"android": "https://dc.lft.to/lastmile_qr_scan", "ios": "https://dc.lft.to/lastmile_qr_scan"}, "bike_id": "40d2cf54f711a52c9029683e864a1ef5", "name": "40d2cf54f711a52c9029683e864a1ef5", "type": "electric_scooter", "lon": -77.0180115, "lat": 38.87673933333333, "is_disabled": 0, "is_reserved": 0, "fusion_lat": 0.0, "fusion_lon": 0.0}, {"rental_uris": {"android": "https://dc.lft.to/lastmile_qr_scan", "ios": "https://dc.lft.to/lastmile_qr_scan"}, "bike_id": "82eccc58ccac64caa9a75328cbdd53bd", "name": "82eccc58ccac64caa9a75328cbdd53bd", "type": "electric_scooter", "lon": -77.03366583333333, "lat": 38.920437166666666, "is_disabled": 0, "is_reserved": 0, "fusion_lat": 0.0, "fusion_lon": 0.0}, {"rental_uris": {"android": "https://dc.lft.to/lastmile_qr_scan", "ios": "https://dc.lft.to/lastmile_qr_scan"}, "bike_id": "626a48e1d957b02430299d923f88130b", "name": "626a48e1d957b02430299d923f88130b", "type": "electric_bike", "lon": -76.99350833333334, "lat": 38.84510266666667, "is_disabled": 0, "is_reserved": 0, "fusion_lat": 0.0, "fusion_lon": 0.0}, {"rental_uris": {"android": "https://dc.lft.to/lastmile_qr_scan", "ios": "https://dc.lft.to/lastmile_qr_scan"}, "bike_id": "9065bfcd5b5729e746f71e68da60191e", "name": "9065bfcd5b5729e746f71e68da60191e", "type": "electric_scooter", "lon": -77.0271095, "lat": 38.906673, "is_disabled": 0, "is_reserved": 0, "fusion_lat": 0.0, "fusion_lon": 0.0}, {"rental_uris": {"android": "https://dc.lft.to/lastmile_qr_scan", "ios": "https://dc.lft.to/lastmile_qr_scan"}, "bike_id": "4eb684c3ba022822978924cb0c76563e", "name": "4eb684c3ba022822978924cb0c76563e", "type": "electric_scooter", "lon": -77.02010866666667, "lat": 38.879274833333334, "is_disabled": 0, "is_reserved": 0, "fusion_lat": 0.0, "fusion_lon": 0.0}, {"rental_uris": {"android": "https://dc.lft.to/lastmile_qr_scan", "ios": "https://dc.lft.to/lastmile_qr_scan"}, "bike_id": "41b1a796280604172a8e0790f8a70f3f", "name": "41b1a796280604172a8e0790f8a70f3f", "type": "electric_scooter", "lon": -77.022365, "lat": 38.87897066666667, "is_disabled": 0, "is_reserved": 0, "fusion_lat": 0.0, "fusion_lon": 0.0}, {"rental_uris": {"android": "https://dc.lft.to/lastmile_qr_scan", "ios": "https://dc.lft.to/lastmile_qr_scan"}, "bike_id": "5bec97a3922d22e5f8a05cb3424f5480", "name": "5bec97a3922d22e5f8a05cb3424f5480", "type": "electric_scooter", "lon": -77.03212, "lat": 38.901399166666664, "is_disabled": 0, "is_reserved": 0, "fusion_lat": 0.0, "fusion_lon": 0.0}, {"rental_uris": {"android": "https://dc.lft.to/lastmile_qr_scan", "ios": "https://dc.lft.to/lastmile_qr_scan"}, "bike_id": "09b49baf2d2ec46ba9f60e0843981c5a", "name": "09b49baf2d2ec46ba9f60e0843981c5a", "type": "electric_scooter", "lon": -77.02199366666666, "lat": 38.920595, "is_disabled": 0, "is_reserved": 0, "fusion_lat": 0.0, "fusion_lon": 0.0}, {"rental_uris": {"android": "https://dc.lft.to/lastmile_qr_scan", "ios": "https://dc.lft.to/lastmile_qr_scan"}, "bike_id": "c93cbafbb93d2f2cdad173bea1444c22", "name": "c93cbafbb93d2f2cdad173bea1444c22", "type": "electric_scooter", "lon": -77.05530216666666, "lat": 38.929862, "is_disabled": 0, "is_reserved": 0, "fusion_lat": 0.0, "fusion_lon": 0.0}, {"rental_uris": {"android": "https://dc.lft.to/lastmile_qr_scan", "ios": "https://dc.lft.to/lastmile_qr_scan"}, "bike_id": "427266754b0a963ecc66bdf48fb7e4f0", "name": "427266754b0a963ecc66bdf48fb7e4f0", "type": "electric_bike", "lon": -77.03010583333334, "lat": 38.9914765, "is_disabled": 0, "is_reserved": 0, "fusion_lat": 0.0, "fusion_lon": 0.0}, {"rental_uris": {"android": "https://dc.lft.to/lastmile_qr_scan", "ios": "https://dc.lft.to/lastmile_qr_scan"}, "bike_id": "856f035286106e81e3064e5194b9b08c", "name": "856f035286106e81e3064e5194b9b08c", "type": "electric_scooter", "lon": -76.98711266666666, "lat": 38.8670425, "is_disabled": 0, "is_reserved": 0, "fusion_lat": 0.0, "fusion_lon": 0.0}, {"rental_uris": {"android": "https://dc.lft.to/lastmile_qr_scan", "ios": "https://dc.lft.to/lastmile_qr_scan"}, "bike_id": "a1872d3559a8672d4a530b7fa535b265", "name": "a1872d3559a8672d4a530b7fa535b265", "type": "electric_bike", "lon": -76.9457625, "lat": 38.937444666666664, "is_disabled": 0, "is_reserved": 0, "fusion_lat": 0.0, "fusion_lon": 0.0}, {"rental_uris": {"android": "https://dc.lft.to/lastmile_qr_scan", "ios": "https://dc.lft.to/lastmile_qr_scan"}, "bike_id": "35e418421dd5e4b9356df48c0478f81b", "name": "35e418421dd5e4b9356df48c0478f81b", "type": "electric_scooter", "lon": -77.03828216666666, "lat": 38.90313166666667, "is_disabled": 0, "is_reserved": 0, "fusion_lat": 0.0, "fusion_lon": 0.0}, {"rental_uris": {"android": "https://dc.lft.to/lastmile_qr_scan", "ios": "https://dc.lft.to/lastmile_qr_scan"}, "bike_id": "b1cec814b0e110696438a9bfe23712be", "name": "b1cec814b0e110696438a9bfe23712be", "type": "electric_scooter", "lon": -77.022135, "lat": 38.914241833333335, "is_disabled": 0, "is_reserved": 0, "fusion_lat": 0.0, "fusion_lon": 0.0}, {"rental_uris": {"android": "https://dc.lft.to/lastmile_qr_scan", "ios": "https://dc.lft.to/lastmile_qr_scan"}, "bike_id": "095881a2a5d725313d8378659cd6a79c", "name": "095881a2a5d725313d8378659cd6a79c", "type": "electric_scooter", "lon": -76.94836433333333, "lat": 38.89586333333333, "is_disabled": 0, "is_reserved": 0, "fusion_lat": 0.0, "fusion_lon": 0.0}, {"rental_uris": {"android": "https://dc.lft.to/lastmile_qr_scan", "ios": "https://dc.lft.to/lastmile_qr_scan"}, "bike_id": "062d1c577f2c04e2e5182d2574a75ffd", "name": "062d1c577f2c04e2e5182d2574a75ffd", "type": "electric_scooter", "lon": -77.0452165, "lat": 38.902464333333334, "is_disabled": 0, "is_reserved": 0, "fusion_lat": 0.0, "fusion_lon": 0.0}, {"rental_uris": {"android": "https://dc.lft.to/lastmile_qr_scan", "ios": "https://dc.lft.to/lastmile_qr_scan"}, "bike_id": "ff7dfe9a47ef3623553c962a732a6478", "name": "ff7dfe9a47ef3623553c962a732a6478", "type": "electric_scooter", "lon": -77.017744, "lat": 38.90262033333333, "is_disabled": 0, "is_reserved": 0, "fusion_lat": 0.0, "fusion_lon": 0.0}, {"rental_uris": {"android": "https://dc.lft.to/lastmile_qr_scan", "ios": "https://dc.lft.to/lastmile_qr_scan"}, "bike_id": "c3fa69fcefd987e218a5705c40eb3060", "name": "c3fa69fcefd987e218a5705c40eb3060", "type": "electric_scooter", "lon": -77.02386733333333, "lat": 38.916781, "is_disabled": 0, "is_reserved": 0, "fusion_lat": 0.0, "fusion_lon": 0.0}, {"rental_uris": {"android": "https://dc.lft.to/lastmile_qr_scan", "ios": "https://dc.lft.to/lastmile_qr_scan"}, "bike_id": "25eb28240170af8d96511794a3f738da", "name": "25eb28240170af8d96511794a3f738da", "type": "electric_scooter", "lon": -77.03500733333334, "lat": 38.924901, "is_disabled": 0, "is_reserved": 0, "fusion_lat": 0.0, "fusion_lon": 0.0}, {"rental_uris": {"android": "https://dc.lft.to/lastmile_qr_scan", "ios": "https://dc.lft.to/lastmile_qr_scan"}, "bike_id": "af3b37708c63a1ab2bbbb76f704c25a8", "name": "af3b37708c63a1ab2bbbb76f704c25a8", "type": "electric_scooter", "lon": -77.02772883333333, "lat": 38.917084833333334, "is_disabled": 0, "is_reserved": 0, "fusion_lat": 0.0, "fusion_lon": 0.0}, {"rental_uris": {"android": "https://dc.lft.to/lastmile_qr_scan", "ios": "https://dc.lft.to/lastmile_qr_scan"}, "bike_id": "247b170d405a28e7ebab0fc33e7a3cd8", "name": "247b170d405a28e7ebab0fc33e7a3cd8", "type": "electric_scooter", "lon": -77.03273633333333, "lat": 38.9274625, "is_disabled": 0, "is_reserved": 0, "fusion_lat": 0.0, "fusion_lon": 0.0}, {"rental_uris": {"android": "https://dc.lft.to/lastmile_qr_scan", "ios": "https://dc.lft.to/lastmile_qr_scan"}, "bike_id": "5009f70c26e510ab83f33b831f485d8f", "name": "5009f70c26e510ab83f33b831f485d8f", "type": "electric_scooter", "lon": -77.046318, "lat": 38.9012845, "is_disabled": 0, "is_reserved": 0, "fusion_lat": 0.0, "fusion_lon": 0.0}, {"rental_uris": {"android": "https://dc.lft.to/lastmile_qr_scan", "ios": "https://dc.lft.to/lastmile_qr_scan"}, "bike_id": "0740236196649894b2fde2bb34db8df9", "name": "0740236196649894b2fde2bb34db8df9", "type": "electric_scooter", "lon": -77.028233, "lat": 38.91399916666667, "is_disabled": 0, "is_reserved": 0, "fusion_lat": 0.0, "fusion_lon": 0.0}, {"rental_uris": {"android": "https://dc.lft.to/lastmile_qr_scan", "ios": "https://dc.lft.to/lastmile_qr_scan"}, "bike_id": "ccdbd110b22e4248278e30c4a5d01638", "name": "ccdbd110b22e4248278e30c4a5d01638", "type": "electric_scooter", "lon": -77.007583, "lat": 38.90378, "is_disabled": 0, "is_reserved": 0, "fusion_lat": 0.0, "fusion_lon": 0.0}, {"rental_uris": {"android": "https://dc.lft.to/lastmile_qr_scan", "ios": "https://dc.lft.to/lastmile_qr_scan"}, "bike_id": "329322373a0c7d72a2aefd2992a4ef65", "name": "329322373a0c7d72a2aefd2992a4ef65", "type": "electric_scooter", "lon": -77.03182366666667, "lat": 38.9037255, "is_disabled": 0, "is_reserved": 0, "fusion_lat": 0.0, "fusion_lon": 0.0}, {"rental_uris": {"android": "https://dc.lft.to/lastmile_qr_scan", "ios": "https://dc.lft.to/lastmile_qr_scan"}, "bike_id": "ffe56ecf439efd6f125edb51d84f600c", "name": "ffe56ecf439efd6f125edb51d84f600c", "type": "electric_bike", "lon": -77.06699316666666, "lat": 38.831822833333334, "is_disabled": 0, "is_reserved": 0, "fusion_lat": 0.0, "fusion_lon": 0.0}, {"rental_uris": {"android": "https://dc.lft.to/lastmile_qr_scan", "ios": "https://dc.lft.to/lastmile_qr_scan"}, "bike_id": "6e0fd54d71183bcf78bbf60e9186653b", "name": "6e0fd54d71183bcf78bbf60e9186653b", "type": "electric_scooter", "lon": -77.02409716666666, "lat": 38.88628466666667, "is_disabled": 0, "is_reserved": 0, "fusion_lat": 0.0, "fusion_lon": 0.0}, {"rental_uris": {"android": "https://dc.lft.to/lastmile_qr_scan", "ios": "https://dc.lft.to/lastmile_qr_scan"}, "bike_id": "95a3b358ef2ad8c2c50b25691331a6b6", "name": "95a3b358ef2ad8c2c50b25691331a6b6", "type": "electric_scooter", "lon": -77.03851833333333, "lat": 38.902987333333336, "is_disabled": 0, "is_reserved": 0, "fusion_lat": 0.0, "fusion_lon": 0.0}, {"rental_uris": {"android": "https://dc.lft.to/lastmile_qr_scan", "ios": "https://dc.lft.to/lastmile_qr_scan"}, "bike_id": "2b11b4424853bfa0cc098745eea7a336", "name": "2b11b4424853bfa0cc098745eea7a336", "type": "electric_scooter", "lon": -77.064221, "lat": 38.912947, "is_disabled": 0, "is_reserved": 0, "fusion_lat": 0.0, "fusion_lon": 0.0}, {"rental_uris": {"android": "https://dc.lft.to/lastmile_qr_scan", "ios": "https://dc.lft.to/lastmile_qr_scan"}, "bike_id": "f2bb03e6191c8a765fab42716ecb28de", "name": "f2bb03e6191c8a765fab42716ecb28de", "type": "electric_scooter", "lon": -77.02710033333334, "lat": 38.908269, "is_disabled": 0, "is_reserved": 0, "fusion_lat": 0.0, "fusion_lon": 0.0}, {"rental_uris": {"android": "https://dc.lft.to/lastmile_qr_scan", "ios": "https://dc.lft.to/lastmile_qr_scan"}, "bike_id": "51027f1403cf9dcad54008677cee5d3f", "name": "51027f1403cf9dcad54008677cee5d3f", "type": "electric_scooter", "lon": -76.99264283333333, "lat": 38.90022666666667, "is_disabled": 0, "is_reserved": 0, "fusion_lat": 0.0, "fusion_lon": 0.0}, {"rental_uris": {"android": "https://dc.lft.to/lastmile_qr_scan", "ios": "https://dc.lft.to/lastmile_qr_scan"}, "bike_id": "9a1ae6ff1438268705cd5d6b1de73903", "name": "9a1ae6ff1438268705cd5d6b1de73903", "type": "electric_scooter", "lon": -77.0213345, "lat": 38.92488866666667, "is_disabled": 0, "is_reserved": 0, "fusion_lat": 0.0, "fusion_lon": 0.0}, {"rental_uris": {"android": "https://dc.lft.to/lastmile_qr_scan", "ios": "https://dc.lft.to/lastmile_qr_scan"}, "bike_id": "35ae3b3c5a2f3badf3ea7bbc3addd651", "name": "35ae3b3c5a2f3badf3ea7bbc3addd651", "type": "electric_scooter", "lon": -77.00976783333333, "lat": 38.915532166666665, "is_disabled": 0, "is_reserved": 0, "fusion_lat": 0.0, "fusion_lon": 0.0}, {"rental_uris": {"android": "https://dc.lft.to/lastmile_qr_scan", "ios": "https://dc.lft.to/lastmile_qr_scan"}, "bike_id": "5f66a6318400868535f9d3b65b60398f", "name": "5f66a6318400868535f9d3b65b60398f", "type": "electric_scooter", "lon": -77.03857066666667, "lat": 38.917779833333334, "is_disabled": 0, "is_reserved": 0, "fusion_lat": 0.0, "fusion_lon": 0.0}, {"rental_uris": {"android": "https://dc.lft.to/lastmile_qr_scan", "ios": "https://dc.lft.to/lastmile_qr_scan"}, "bike_id": "244b6bf56bedbf885a78f5c23edec908", "name": "244b6bf56bedbf885a78f5c23edec908", "type": "electric_scooter", "lon": -77.03542833333333, "lat": 38.924174, "is_disabled": 0, "is_reserved": 0, "fusion_lat": 0.0, "fusion_lon": 0.0}, {"rental_uris": {"android": "https://dc.lft.to/lastmile_qr_scan", "ios": "https://dc.lft.to/lastmile_qr_scan"}, "bike_id": "700fdec136d363b51e7d41eee99830f5", "name": "700fdec136d363b51e7d41eee99830f5", "type": "electric_scooter", "lon": -77.04353116666667, "lat": 38.908066, "is_disabled": 0, "is_reserved": 0, "fusion_lat": 0.0, "fusion_lon": 0.0}, {"rental_uris": {"android": "https://dc.lft.to/lastmile_qr_scan", "ios": "https://dc.lft.to/lastmile_qr_scan"}, "bike_id": "75df84a547ebc6d0b2b7872741b1a4c1", "name": "75df84a547ebc6d0b2b7872741b1a4c1", "type": "electric_scooter", "lon": -77.0199815, "lat": 38.90948316666667, "is_disabled": 0, "is_reserved": 0, "fusion_lat": 0.0, "fusion_lon": 0.0}, {"rental_uris": {"android": "https://dc.lft.to/lastmile_qr_scan", "ios": "https://dc.lft.to/lastmile_qr_scan"}, "bike_id": "c8f988fba74c98092c6f7f747459bad3", "name": "c8f988fba74c98092c6f7f747459bad3", "type": "electric_scooter", "lon": -77.0324195, "lat": 38.92860866666667, "is_disabled": 0, "is_reserved": 0, "fusion_lat": 0.0, "fusion_lon": 0.0}, {"rental_uris": {"android": "https://dc.lft.to/lastmile_qr_scan", "ios": "https://dc.lft.to/lastmile_qr_scan"}, "bike_id": "111eb189b55dc1c9683302fb1eba78de", "name": "111eb189b55dc1c9683302fb1eba78de", "type": "electric_scooter", "lon": -77.03491516666666, "lat": 38.93271516666667, "is_disabled": 0, "is_reserved": 0, "fusion_lat": 0.0, "fusion_lon": 0.0}, {"rental_uris": {"android": "https://dc.lft.to/lastmile_qr_scan", "ios": "https://dc.lft.to/lastmile_qr_scan"}, "bike_id": "ecac6abe41902392e4771cd888dd78ce", "name": "ecac6abe41902392e4771cd888dd78ce", "type": "electric_scooter", "lon": -77.02296033333333, "lat": 38.91566133333333, "is_disabled": 0, "is_reserved": 0, "fusion_lat": 0.0, "fusion_lon": 0.0}, {"rental_uris": {"android": "https://dc.lft.to/lastmile_qr_scan", "ios": "https://dc.lft.to/lastmile_qr_scan"}, "bike_id": "3b58490b0368920dcb8cd2e625561f80", "name": "3b58490b0368920dcb8cd2e625561f80", "type": "electric_scooter", "lon": -77.04246916666666, "lat": 38.906575, "is_disabled": 0, "is_reserved": 0, "fusion_lat": 0.0, "fusion_lon": 0.0}, {"rental_uris": {"android": "https://dc.lft.to/lastmile_qr_scan", "ios": "https://dc.lft.to/lastmile_qr_scan"}, "bike_id": "caab14b6f4ad9055e3947beced4bea34", "name": "caab14b6f4ad9055e3947beced4bea34", "type": "electric_scooter", "lon": -77.0542455, "lat": 38.92366666666667, "is_disabled": 0, "is_reserved": 0, "fusion_lat": 0.0, "fusion_lon": 0.0}, {"rental_uris": {"android": "https://dc.lft.to/lastmile_qr_scan", "ios": "https://dc.lft.to/lastmile_qr_scan"}, "bike_id": "ea48d20e047c1e2db362793f96b28c1e", "name": "ea48d20e047c1e2db362793f96b28c1e", "type": "electric_scooter", "lon": -77.04195216666666, "lat": 38.9227665, "is_disabled": 0, "is_reserved": 0, "fusion_lat": 0.0, "fusion_lon": 0.0}, {"rental_uris": {"android": "https://dc.lft.to/lastmile_qr_scan", "ios": "https://dc.lft.to/lastmile_qr_scan"}, "bike_id": "a3e1e349a411f862b2849f57c0b95d23", "name": "a3e1e349a411f862b2849f57c0b95d23", "type": "electric_scooter", "lon": -77.0335025, "lat": 38.899432166666664, "is_disabled": 0, "is_reserved": 0, "fusion_lat": 0.0, "fusion_lon": 0.0}, {"rental_uris": {"android": "https://dc.lft.to/lastmile_qr_scan", "ios": "https://dc.lft.to/lastmile_qr_scan"}, "bike_id": "71a591a7a6da76679d138e147376e892", "name": "71a591a7a6da76679d138e147376e892", "type": "electric_scooter", "lon": -77.02739683333333, "lat": 38.9240385, "is_disabled": 0, "is_reserved": 0, "fusion_lat": 0.0, "fusion_lon": 0.0}, {"rental_uris": {"android": "https://dc.lft.to/lastmile_qr_scan", "ios": "https://dc.lft.to/lastmile_qr_scan"}, "bike_id": "df0a791a4f3da29256c29becba5dfb1f", "name": "df0a791a4f3da29256c29becba5dfb1f", "type": "electric_scooter", "lon": -77.04672316666667, "lat": 38.895060666666666, "is_disabled": 0, "is_reserved": 0, "fusion_lat": 0.0, "fusion_lon": 0.0}, {"rental_uris": {"android": "https://dc.lft.to/lastmile_qr_scan", "ios": "https://dc.lft.to/lastmile_qr_scan"}, "bike_id": "d888bceca305cd06c968177af22675ef", "name": "d888bceca305cd06c968177af22675ef", "type": "electric_scooter", "lon": -77.06989766666666, "lat": 38.95291983333333, "is_disabled": 0, "is_reserved": 0, "fusion_lat": 0.0, "fusion_lon": 0.0}, {"rental_uris": {"android": "https://dc.lft.to/lastmile_qr_scan", "ios": "https://dc.lft.to/lastmile_qr_scan"}, "bike_id": "e5d3c20ea734f302af8f6b5c51407d82", "name": "e5d3c20ea734f302af8f6b5c51407d82", "type": "electric_scooter", "lon": -77.0366075, "lat": 38.91799616666667, "is_disabled": 0, "is_reserved": 0, "fusion_lat": 0.0, "fusion_lon": 0.0}, {"rental_uris": {"android": "https://dc.lft.to/lastmile_qr_scan", "ios": "https://dc.lft.to/lastmile_qr_scan"}, "bike_id": "0fcc2bfb270ad8ba6d8f66ad1402cf52", "name": "0fcc2bfb270ad8ba6d8f66ad1402cf52", "type": "electric_scooter", "lon": -77.03995333333333, "lat": 38.90386733333333, "is_disabled": 0, "is_reserved": 0, "fusion_lat": 0.0, "fusion_lon": 0.0}, {"rental_uris": {"android": "https://dc.lft.to/lastmile_qr_scan", "ios": "https://dc.lft.to/lastmile_qr_scan"}, "bike_id": "9f3497ce1ad6ae77ec6b875dd6ce091a", "name": "9f3497ce1ad6ae77ec6b875dd6ce091a", "type": "electric_scooter", "lon": -77.04553366666667, "lat": 38.9242295, "is_disabled": 0, "is_reserved": 0, "fusion_lat": 0.0, "fusion_lon": 0.0}, {"rental_uris": {"android": "https://dc.lft.to/lastmile_qr_scan", "ios": "https://dc.lft.to/lastmile_qr_scan"}, "bike_id": "fb738077af2f37af26d7c5a889d7332f", "name": "fb738077af2f37af26d7c5a889d7332f", "type": "electric_scooter", "lon": -76.93738283333333, "lat": 38.89027216666667, "is_disabled": 0, "is_reserved": 0, "fusion_lat": 0.0, "fusion_lon": 0.0}, {"rental_uris": {"android": "https://dc.lft.to/lastmile_qr_scan", "ios": "https://dc.lft.to/lastmile_qr_scan"}, "bike_id": "2afff1a2c821b307b2e463293bd79d61", "name": "2afff1a2c821b307b2e463293bd79d61", "type": "electric_scooter", "lon": -76.946349, "lat": 38.898447833333336, "is_disabled": 0, "is_reserved": 0, "fusion_lat": 0.0, "fusion_lon": 0.0}, {"rental_uris": {"android": "https://dc.lft.to/lastmile_qr_scan", "ios": "https://dc.lft.to/lastmile_qr_scan"}, "bike_id": "f62136eb82cce648e0245d2a5b51cdb8", "name": "f62136eb82cce648e0245d2a5b51cdb8", "type": "electric_scooter", "lon": -77.02361433333333, "lat": 38.93087233333333, "is_disabled": 0, "is_reserved": 0, "fusion_lat": 0.0, "fusion_lon": 0.0}, {"rental_uris": {"android": "https://dc.lft.to/lastmile_qr_scan", "ios": "https://dc.lft.to/lastmile_qr_scan"}, "bike_id": "3694355dd47ad4c08f1c5b26e58679d8", "name": "3694355dd47ad4c08f1c5b26e58679d8", "type": "electric_scooter", "lon": -77.03788383333334, "lat": 38.93223666666667, "is_disabled": 0, "is_reserved": 0, "fusion_lat": 0.0, "fusion_lon": 0.0}, {"rental_uris": {"android": "https://dc.lft.to/lastmile_qr_scan", "ios": "https://dc.lft.to/lastmile_qr_scan"}, "bike_id": "6d0004bd19498f6be81a8d72b9eec38e", "name": "6d0004bd19498f6be81a8d72b9eec38e", "type": "electric_scooter", "lon": -77.049088, "lat": 38.888376666666666, "is_disabled": 0, "is_reserved": 0, "fusion_lat": 0.0, "fusion_lon": 0.0}, {"rental_uris": {"android": "https://dc.lft.to/lastmile_qr_scan", "ios": "https://dc.lft.to/lastmile_qr_scan"}, "bike_id": "6f76b05b0d78a22aa1052d15437ac32d", "name": "6f76b05b0d78a22aa1052d15437ac32d", "type": "electric_scooter", "lon": -77.02625133333333, "lat": 38.896626499999996, "is_disabled": 0, "is_reserved": 0, "fusion_lat": 0.0, "fusion_lon": 0.0}, {"rental_uris": {"android": "https://dc.lft.to/lastmile_qr_scan", "ios": "https://dc.lft.to/lastmile_qr_scan"}, "bike_id": "0486746d27edacf08d22354b935880f2", "name": "0486746d27edacf08d22354b935880f2", "type": "electric_scooter", "lon": -77.00475616666667, "lat": 38.825392, "is_disabled": 0, "is_reserved": 0, "fusion_lat": 0.0, "fusion_lon": 0.0}, {"rental_uris": {"android": "https://dc.lft.to/lastmile_qr_scan", "ios": "https://dc.lft.to/lastmile_qr_scan"}, "bike_id": "81cebd2614f77cd134d9135758d24dd5", "name": "81cebd2614f77cd134d9135758d24dd5", "type": "electric_scooter", "lon": -76.98398333333333, "lat": 38.86695316666667, "is_disabled": 0, "is_reserved": 0, "fusion_lat": 0.0, "fusion_lon": 0.0}, {"rental_uris": {"android": "https://dc.lft.to/lastmile_qr_scan", "ios": "https://dc.lft.to/lastmile_qr_scan"}, "bike_id": "748ad1a797b0d6a51de203182c9a0b26", "name": "748ad1a797b0d6a51de203182c9a0b26", "type": "electric_scooter", "lon": -77.0229085, "lat": 38.916249666666666, "is_disabled": 0, "is_reserved": 0, "fusion_lat": 0.0, "fusion_lon": 0.0}, {"rental_uris": {"android": "https://dc.lft.to/lastmile_qr_scan", "ios": "https://dc.lft.to/lastmile_qr_scan"}, "bike_id": "592d14acb3cd6dbb3e36e92cd89213be", "name": "592d14acb3cd6dbb3e36e92cd89213be", "type": "electric_bike", "lon": -77.13897033333333, "lat": 38.8968685, "is_disabled": 0, "is_reserved": 0, "fusion_lat": 0.0, "fusion_lon": 0.0}, {"rental_uris": {"android": "https://dc.lft.to/lastmile_qr_scan", "ios": "https://dc.lft.to/lastmile_qr_scan"}, "bike_id": "fdfae8bfcc99d9ffd790a7c1c9c680c1", "name": "fdfae8bfcc99d9ffd790a7c1c9c680c1", "type": "electric_scooter", "lon": -77.006995, "lat": 38.897165, "is_disabled": 0, "is_reserved": 0, "fusion_lat": 0.0, "fusion_lon": 0.0}, {"rental_uris": {"android": "https://dc.lft.to/lastmile_qr_scan", "ios": "https://dc.lft.to/lastmile_qr_scan"}, "bike_id": "7de4f4aae73d62107e6161ae4405b83f", "name": "7de4f4aae73d62107e6161ae4405b83f", "type": "electric_scooter", "lon": -76.931968, "lat": 38.89877833333333, "is_disabled": 0, "is_reserved": 0, "fusion_lat": 0.0, "fusion_lon": 0.0}, {"rental_uris": {"android": "https://dc.lft.to/lastmile_qr_scan", "ios": "https://dc.lft.to/lastmile_qr_scan"}, "bike_id": "738407a8197e0ab6ee4bcb14c2c3516d", "name": "738407a8197e0ab6ee4bcb14c2c3516d", "type": "electric_scooter", "lon": -77.0270135, "lat": 38.92878833333333, "is_disabled": 0, "is_reserved": 0, "fusion_lat": 0.0, "fusion_lon": 0.0}, {"rental_uris": {"android": "https://dc.lft.to/lastmile_qr_scan", "ios": "https://dc.lft.to/lastmile_qr_scan"}, "bike_id": "b20c84d05a4f281ea9ac4bf1d5ae41b3", "name": "b20c84d05a4f281ea9ac4bf1d5ae41b3", "type": "electric_bike", "lon": -77.11059633333333, "lat": 38.870524833333334, "is_disabled": 0, "is_reserved": 0, "fusion_lat": 0.0, "fusion_lon": 0.0}, {"rental_uris": {"android": "https://dc.lft.to/lastmile_qr_scan", "ios": "https://dc.lft.to/lastmile_qr_scan"}, "bike_id": "1b907ee095ed132a04c7eb9fac383aec", "name": "1b907ee095ed132a04c7eb9fac383aec", "type": "electric_scooter", "lon": -76.97950383333334, "lat": 38.9168905, "is_disabled": 0, "is_reserved": 0, "fusion_lat": 0.0, "fusion_lon": 0.0}, {"rental_uris": {"android": "https://dc.lft.to/lastmile_qr_scan", "ios": "https://dc.lft.to/lastmile_qr_scan"}, "bike_id": "599d38facd89c849e3ff6cb776da7e96", "name": "599d38facd89c849e3ff6cb776da7e96", "type": "electric_scooter", "lon": -77.04078316666667, "lat": 38.923855833333334, "is_disabled": 0, "is_reserved": 0, "fusion_lat": 0.0, "fusion_lon": 0.0}, {"rental_uris": {"android": "https://dc.lft.to/lastmile_qr_scan", "ios": "https://dc.lft.to/lastmile_qr_scan"}, "bike_id": "cb4adaa4adb970f5320bbeea4ce9b6ea", "name": "cb4adaa4adb970f5320bbeea4ce9b6ea", "type": "electric_scooter", "lon": -77.07030716666667, "lat": 38.90637433333333, "is_disabled": 0, "is_reserved": 0, "fusion_lat": 0.0, "fusion_lon": 0.0}, {"rental_uris": {"android": "https://dc.lft.to/lastmile_qr_scan", "ios": "https://dc.lft.to/lastmile_qr_scan"}, "bike_id": "8b0d20b710ac98d39d9d17de545f3060", "name": "8b0d20b710ac98d39d9d17de545f3060", "type": "electric_scooter", "lon": -76.99902233333333, "lat": 38.948136166666664, "is_disabled": 0, "is_reserved": 0, "fusion_lat": 0.0, "fusion_lon": 0.0}, {"rental_uris": {"android": "https://dc.lft.to/lastmile_qr_scan", "ios": "https://dc.lft.to/lastmile_qr_scan"}, "bike_id": "729a5d175c5231e77b599b5d589191c2", "name": "729a5d175c5231e77b599b5d589191c2", "type": "electric_scooter", "lon": -77.029482, "lat": 38.89935333333333, "is_disabled": 0, "is_reserved": 0, "fusion_lat": 0.0, "fusion_lon": 0.0}, {"rental_uris": {"android": "https://dc.lft.to/lastmile_qr_scan", "ios": "https://dc.lft.to/lastmile_qr_scan"}, "bike_id": "c68b59dbac033e7717f7f7395bd1e2ce", "name": "c68b59dbac033e7717f7f7395bd1e2ce", "type": "electric_scooter", "lon": -77.0418355, "lat": 38.91879616666667, "is_disabled": 0, "is_reserved": 0, "fusion_lat": 0.0, "fusion_lon": 0.0}, {"rental_uris": {"android": "https://dc.lft.to/lastmile_qr_scan", "ios": "https://dc.lft.to/lastmile_qr_scan"}, "bike_id": "9fbcccc845190ca90175c3d805c42f4b", "name": "9fbcccc845190ca90175c3d805c42f4b", "type": "electric_scooter", "lon": -77.063455, "lat": 38.90688683333333, "is_disabled": 0, "is_reserved": 0, "fusion_lat": 0.0, "fusion_lon": 0.0}, {"rental_uris": {"android": "https://dc.lft.to/lastmile_qr_scan", "ios": "https://dc.lft.to/lastmile_qr_scan"}, "bike_id": "ca6b430778e5ea2ad51d04b274d0fb68", "name": "ca6b430778e5ea2ad51d04b274d0fb68", "type": "electric_scooter", "lon": -77.03639416666667, "lat": 38.92745516666667, "is_disabled": 0, "is_reserved": 0, "fusion_lat": 0.0, "fusion_lon": 0.0}, {"rental_uris": {"android": "https://dc.lft.to/lastmile_qr_scan", "ios": "https://dc.lft.to/lastmile_qr_scan"}, "bike_id": "17b20db752351f231d291a23a8ebb6bb", "name": "17b20db752351f231d291a23a8ebb6bb", "type": "electric_bike", "lon": -77.11850266666667, "lat": 38.87736233333333, "is_disabled": 0, "is_reserved": 0, "fusion_lat": 0.0, "fusion_lon": 0.0}, {"rental_uris": {"android": "https://dc.lft.to/lastmile_qr_scan", "ios": "https://dc.lft.to/lastmile_qr_scan"}, "bike_id": "3d3b05140da7e0fd16dae97199b97a08", "name": "3d3b05140da7e0fd16dae97199b97a08", "type": "electric_bike", "lon": -76.93541966666666, "lat": 38.9518375, "is_disabled": 0, "is_reserved": 0, "fusion_lat": 0.0, "fusion_lon": 0.0}, {"rental_uris": {"android": "https://dc.lft.to/lastmile_qr_scan", "ios": "https://dc.lft.to/lastmile_qr_scan"}, "bike_id": "705cd7990dcbaa9ae117d86c41c6075c", "name": "705cd7990dcbaa9ae117d86c41c6075c", "type": "electric_scooter", "lon": -77.04689133333333, "lat": 38.89220316666667, "is_disabled": 0, "is_reserved": 0, "fusion_lat": 0.0, "fusion_lon": 0.0}, {"rental_uris": {"android": "https://dc.lft.to/lastmile_qr_scan", "ios": "https://dc.lft.to/lastmile_qr_scan"}, "bike_id": "4463022e589d191cc5011262ae75fb72", "name": "4463022e589d191cc5011262ae75fb72", "type": "electric_scooter", "lon": -77.0276405, "lat": 38.90727416666667, "is_disabled": 0, "is_reserved": 0, "fusion_lat": 0.0, "fusion_lon": 0.0}, {"rental_uris": {"android": "https://dc.lft.to/lastmile_qr_scan", "ios": "https://dc.lft.to/lastmile_qr_scan"}, "bike_id": "67fc8531da4518ceff0f74a157dd1c5d", "name": "67fc8531da4518ceff0f74a157dd1c5d", "type": "electric_scooter", "lon": -77.013579, "lat": 38.86969916666666, "is_disabled": 0, "is_reserved": 0, "fusion_lat": 0.0, "fusion_lon": 0.0}, {"rental_uris": {"android": "https://dc.lft.to/lastmile_qr_scan", "ios": "https://dc.lft.to/lastmile_qr_scan"}, "bike_id": "5555ae638de8536c41072a5e93fac4bb", "name": "5555ae638de8536c41072a5e93fac4bb", "type": "electric_scooter", "lon": -77.03965833333334, "lat": 38.906055333333335, "is_disabled": 0, "is_reserved": 0, "fusion_lat": 0.0, "fusion_lon": 0.0}, {"rental_uris": {"android": "https://dc.lft.to/lastmile_qr_scan", "ios": "https://dc.lft.to/lastmile_qr_scan"}, "bike_id": "715b76babc463c2c0b392ba591cf8e95", "name": "715b76babc463c2c0b392ba591cf8e95", "type": "electric_scooter", "lon": -77.022502, "lat": 38.92478783333333, "is_disabled": 0, "is_reserved": 0, "fusion_lat": 0.0, "fusion_lon": 0.0}, {"rental_uris": {"android": "https://dc.lft.to/lastmile_qr_scan", "ios": "https://dc.lft.to/lastmile_qr_scan"}, "bike_id": "22d87f99ae26de0fd38a84976c3dce19", "name": "22d87f99ae26de0fd38a84976c3dce19", "type": "electric_scooter", "lon": -77.00213533333333, "lat": 38.92459016666667, "is_disabled": 0, "is_reserved": 0, "fusion_lat": 0.0, "fusion_lon": 0.0}, {"rental_uris": {"android": "https://dc.lft.to/lastmile_qr_scan", "ios": "https://dc.lft.to/lastmile_qr_scan"}, "bike_id": "5bb27a49f776d85f8df6ccd1c3860fb5", "name": "5bb27a49f776d85f8df6ccd1c3860fb5", "type": "electric_scooter", "lon": -76.99871233333333, "lat": 38.900364333333336, "is_disabled": 0, "is_reserved": 0, "fusion_lat": 0.0, "fusion_lon": 0.0}, {"rental_uris": {"android": "https://dc.lft.to/lastmile_qr_scan", "ios": "https://dc.lft.to/lastmile_qr_scan"}, "bike_id": "c515db4ffd10b5595f023e6ca1c3aea8", "name": "c515db4ffd10b5595f023e6ca1c3aea8", "type": "electric_scooter", "lon": -77.02725533333333, "lat": 38.8963475, "is_disabled": 0, "is_reserved": 0, "fusion_lat": 0.0, "fusion_lon": 0.0}, {"rental_uris": {"android": "https://dc.lft.to/lastmile_qr_scan", "ios": "https://dc.lft.to/lastmile_qr_scan"}, "bike_id": "e4e464bca33c8c0646f38a045e534116", "name": "e4e464bca33c8c0646f38a045e534116", "type": "electric_scooter", "lon": -77.0326705, "lat": 38.90416066666667, "is_disabled": 0, "is_reserved": 0, "fusion_lat": 0.0, "fusion_lon": 0.0}, {"rental_uris": {"android": "https://dc.lft.to/lastmile_qr_scan", "ios": "https://dc.lft.to/lastmile_qr_scan"}, "bike_id": "ca6ab3cfa887f598b973e718f3c791ef", "name": "ca6ab3cfa887f598b973e718f3c791ef", "type": "electric_scooter", "lon": -77.02266733333333, "lat": 38.901315333333336, "is_disabled": 0, "is_reserved": 0, "fusion_lat": 0.0, "fusion_lon": 0.0}, {"rental_uris": {"android": "https://dc.lft.to/lastmile_qr_scan", "ios": "https://dc.lft.to/lastmile_qr_scan"}, "bike_id": "23ffeaee19466a791c6334b1965d6b21", "name": "23ffeaee19466a791c6334b1965d6b21", "type": "electric_scooter", "lon": -77.03340216666666, "lat": 38.898214833333334, "is_disabled": 0, "is_reserved": 0, "fusion_lat": 0.0, "fusion_lon": 0.0}, {"rental_uris": {"android": "https://dc.lft.to/lastmile_qr_scan", "ios": "https://dc.lft.to/lastmile_qr_scan"}, "bike_id": "11211ad6185d760273b660375a0e55f7", "name": "11211ad6185d760273b660375a0e55f7", "type": "electric_scooter", "lon": -76.98250983333334, "lat": 38.90452883333333, "is_disabled": 0, "is_reserved": 0, "fusion_lat": 0.0, "fusion_lon": 0.0}, {"rental_uris": {"android": "https://dc.lft.to/lastmile_qr_scan", "ios": "https://dc.lft.to/lastmile_qr_scan"}, "bike_id": "50dda198f6d7ed04e1e3ecfdb68d4cb0", "name": "50dda198f6d7ed04e1e3ecfdb68d4cb0", "type": "electric_bike", "lon": -77.12074783333334, "lat": 38.85418283333333, "is_disabled": 0, "is_reserved": 0, "fusion_lat": 0.0, "fusion_lon": 0.0}, {"rental_uris": {"android": "https://dc.lft.to/lastmile_qr_scan", "ios": "https://dc.lft.to/lastmile_qr_scan"}, "bike_id": "1b5c180470cdfb40175df2cacbb09242", "name": "1b5c180470cdfb40175df2cacbb09242", "type": "electric_scooter", "lon": -77.06330833333334, "lat": 38.9441775, "is_disabled": 0, "is_reserved": 0, "fusion_lat": 0.0, "fusion_lon": 0.0}, {"rental_uris": {"android": "https://dc.lft.to/lastmile_qr_scan", "ios": "https://dc.lft.to/lastmile_qr_scan"}, "bike_id": "4d17c31c004ac6f8f132c3db0c7781fc", "name": "4d17c31c004ac6f8f132c3db0c7781fc", "type": "electric_scooter", "lon": -77.0231715, "lat": 38.920731833333335, "is_disabled": 0, "is_reserved": 0, "fusion_lat": 0.0, "fusion_lon": 0.0}, {"rental_uris": {"android": "https://dc.lft.to/lastmile_qr_scan", "ios": "https://dc.lft.to/lastmile_qr_scan"}, "bike_id": "c15b8196bd666136f906b8f2ddfe5042", "name": "c15b8196bd666136f906b8f2ddfe5042", "type": "electric_scooter", "lon": -77.02704416666667, "lat": 38.89964966666667, "is_disabled": 0, "is_reserved": 0, "fusion_lat": 0.0, "fusion_lon": 0.0}, {"rental_uris": {"android": "https://dc.lft.to/lastmile_qr_scan", "ios": "https://dc.lft.to/lastmile_qr_scan"}, "bike_id": "d4d043ebba9fa138e4a26bb3015963ce", "name": "d4d043ebba9fa138e4a26bb3015963ce", "type": "electric_scooter", "lon": -77.07099816666667, "lat": 38.9197895, "is_disabled": 0, "is_reserved": 0, "fusion_lat": 0.0, "fusion_lon": 0.0}, {"rental_uris": {"android": "https://dc.lft.to/lastmile_qr_scan", "ios": "https://dc.lft.to/lastmile_qr_scan"}, "bike_id": "bb0210cab0f556b77383fdf0a5ec6ec9", "name": "bb0210cab0f556b77383fdf0a5ec6ec9", "type": "electric_scooter", "lon": -77.02682666666666, "lat": 38.89610866666666, "is_disabled": 0, "is_reserved": 0, "fusion_lat": 0.0, "fusion_lon": 0.0}, {"rental_uris": {"android": "https://dc.lft.to/lastmile_qr_scan", "ios": "https://dc.lft.to/lastmile_qr_scan"}, "bike_id": "bb1577a2dac98ec866bd851230b4cff2", "name": "bb1577a2dac98ec866bd851230b4cff2", "type": "electric_scooter", "lon": -77.0186325, "lat": 38.92268133333334, "is_disabled": 0, "is_reserved": 0, "fusion_lat": 0.0, "fusion_lon": 0.0}, {"rental_uris": {"android": "https://dc.lft.to/lastmile_qr_scan", "ios": "https://dc.lft.to/lastmile_qr_scan"}, "bike_id": "411141f631bd86237c13ede5cb2a062d", "name": "411141f631bd86237c13ede5cb2a062d", "type": "electric_scooter", "lon": -77.0412815, "lat": 38.92161683333333, "is_disabled": 0, "is_reserved": 0, "fusion_lat": 0.0, "fusion_lon": 0.0}, {"rental_uris": {"android": "https://dc.lft.to/lastmile_qr_scan", "ios": "https://dc.lft.to/lastmile_qr_scan"}, "bike_id": "738f0485ce14b5423e1e67232cbe8ec5", "name": "738f0485ce14b5423e1e67232cbe8ec5", "type": "electric_scooter", "lon": -77.041838, "lat": 38.89220866666667, "is_disabled": 0, "is_reserved": 0, "fusion_lat": 0.0, "fusion_lon": 0.0}, {"rental_uris": {"android": "https://dc.lft.to/lastmile_qr_scan", "ios": "https://dc.lft.to/lastmile_qr_scan"}, "bike_id": "9b6374d8932b03bfb6222065d40de755", "name": "9b6374d8932b03bfb6222065d40de755", "type": "electric_scooter", "lon": -77.03841966666667, "lat": 38.90905983333333, "is_disabled": 0, "is_reserved": 0, "fusion_lat": 0.0, "fusion_lon": 0.0}, {"rental_uris": {"android": "https://dc.lft.to/lastmile_qr_scan", "ios": "https://dc.lft.to/lastmile_qr_scan"}, "bike_id": "3400a7596a760d9458506d0af9ef1e82", "name": "3400a7596a760d9458506d0af9ef1e82", "type": "electric_bike", "lon": -77.052002, "lat": 38.92463433333333, "is_disabled": 0, "is_reserved": 0, "fusion_lat": 0.0, "fusion_lon": 0.0}, {"rental_uris": {"android": "https://dc.lft.to/lastmile_qr_scan", "ios": "https://dc.lft.to/lastmile_qr_scan"}, "bike_id": "1937258c6458185f1fa51c957dc677f9", "name": "1937258c6458185f1fa51c957dc677f9", "type": "electric_bike", "lon": -76.94807283333333, "lat": 38.861865, "is_disabled": 0, "is_reserved": 0, "fusion_lat": 0.0, "fusion_lon": 0.0}, {"rental_uris": {"android": "https://dc.lft.to/lastmile_qr_scan", "ios": "https://dc.lft.to/lastmile_qr_scan"}, "bike_id": "4716744acc43fff06f102094dee88302", "name": "4716744acc43fff06f102094dee88302", "type": "electric_scooter", "lon": -77.032084, "lat": 38.9172085, "is_disabled": 0, "is_reserved": 0, "fusion_lat": 0.0, "fusion_lon": 0.0}, {"rental_uris": {"android": "https://dc.lft.to/lastmile_qr_scan", "ios": "https://dc.lft.to/lastmile_qr_scan"}, "bike_id": "18c39e26f1e8f99da0080498a6ccf0c3", "name": "18c39e26f1e8f99da0080498a6ccf0c3", "type": "electric_scooter", "lon": -76.93744483333333, "lat": 38.890226, "is_disabled": 0, "is_reserved": 0, "fusion_lat": 0.0, "fusion_lon": 0.0}, {"rental_uris": {"android": "https://dc.lft.to/lastmile_qr_scan", "ios": "https://dc.lft.to/lastmile_qr_scan"}, "bike_id": "b887c2536c8b891148c4faa152af91cd", "name": "b887c2536c8b891148c4faa152af91cd", "type": "electric_scooter", "lon": -77.03909483333334, "lat": 38.924773333333334, "is_disabled": 0, "is_reserved": 0, "fusion_lat": 0.0, "fusion_lon": 0.0}, {"rental_uris": {"android": "https://dc.lft.to/lastmile_qr_scan", "ios": "https://dc.lft.to/lastmile_qr_scan"}, "bike_id": "da99fcde6b1a72581bdeffc27ebc92e6", "name": "da99fcde6b1a72581bdeffc27ebc92e6", "type": "electric_scooter", "lon": -77.03265266666666, "lat": 38.929548, "is_disabled": 0, "is_reserved": 0, "fusion_lat": 0.0, "fusion_lon": 0.0}, {"rental_uris": {"android": "https://dc.lft.to/lastmile_qr_scan", "ios": "https://dc.lft.to/lastmile_qr_scan"}, "bike_id": "e89169536c8d0971ba7d1fb52aa52883", "name": "e89169536c8d0971ba7d1fb52aa52883", "type": "electric_scooter", "lon": -77.01405783333334, "lat": 38.88741, "is_disabled": 0, "is_reserved": 0, "fusion_lat": 0.0, "fusion_lon": 0.0}, {"rental_uris": {"android": "https://dc.lft.to/lastmile_qr_scan", "ios": "https://dc.lft.to/lastmile_qr_scan"}, "bike_id": "abfd8d14a37f4c4266278383a1cdac43", "name": "abfd8d14a37f4c4266278383a1cdac43", "type": "electric_scooter", "lon": -77.028453, "lat": 38.88747866666667, "is_disabled": 0, "is_reserved": 0, "fusion_lat": 0.0, "fusion_lon": 0.0}, {"rental_uris": {"android": "https://dc.lft.to/lastmile_qr_scan", "ios": "https://dc.lft.to/lastmile_qr_scan"}, "bike_id": "7bd82050c2632e8c3d88594f7be02722", "name": "7bd82050c2632e8c3d88594f7be02722", "type": "electric_scooter", "lon": -77.049984, "lat": 38.8923095, "is_disabled": 0, "is_reserved": 0, "fusion_lat": 0.0, "fusion_lon": 0.0}, {"rental_uris": {"android": "https://dc.lft.to/lastmile_qr_scan", "ios": "https://dc.lft.to/lastmile_qr_scan"}, "bike_id": "8b918f1e223598c77cdc411283452135", "name": "8b918f1e223598c77cdc411283452135", "type": "electric_scooter", "lon": -77.00333516666667, "lat": 38.88987516666667, "is_disabled": 0, "is_reserved": 0, "fusion_lat": 0.0, "fusion_lon": 0.0}, {"rental_uris": {"android": "https://dc.lft.to/lastmile_qr_scan", "ios": "https://dc.lft.to/lastmile_qr_scan"}, "bike_id": "40ac081e28ced3bbdc7c38991c73a01b", "name": "40ac081e28ced3bbdc7c38991c73a01b", "type": "electric_scooter", "lon": -76.98833683333334, "lat": 38.900338833333336, "is_disabled": 0, "is_reserved": 0, "fusion_lat": 0.0, "fusion_lon": 0.0}, {"rental_uris": {"android": "https://dc.lft.to/lastmile_qr_scan", "ios": "https://dc.lft.to/lastmile_qr_scan"}, "bike_id": "ae5fe554c1614da75b04bedc9a3af182", "name": "ae5fe554c1614da75b04bedc9a3af182", "type": "electric_scooter", "lon": -76.9931275, "lat": 38.90002166666667, "is_disabled": 0, "is_reserved": 0, "fusion_lat": 0.0, "fusion_lon": 0.0}, {"rental_uris": {"android": "https://dc.lft.to/lastmile_qr_scan", "ios": "https://dc.lft.to/lastmile_qr_scan"}, "bike_id": "2c116ee3d7a789151a3c51771eced379", "name": "2c116ee3d7a789151a3c51771eced379", "type": "electric_scooter", "lon": -77.013925, "lat": 38.928151, "is_disabled": 0, "is_reserved": 0, "fusion_lat": 0.0, "fusion_lon": 0.0}, {"rental_uris": {"android": "https://dc.lft.to/lastmile_qr_scan", "ios": "https://dc.lft.to/lastmile_qr_scan"}, "bike_id": "a35d78cc2f859c87ad73414080ed2276", "name": "a35d78cc2f859c87ad73414080ed2276", "type": "electric_scooter", "lon": -76.99902916666667, "lat": 38.9482565, "is_disabled": 0, "is_reserved": 0, "fusion_lat": 0.0, "fusion_lon": 0.0}, {"rental_uris": {"android": "https://dc.lft.to/lastmile_qr_scan", "ios": "https://dc.lft.to/lastmile_qr_scan"}, "bike_id": "7efc7126ae56b818d896768aacb7af54", "name": "7efc7126ae56b818d896768aacb7af54", "type": "electric_scooter", "lon": -77.04023283333333, "lat": 38.91836683333333, "is_disabled": 0, "is_reserved": 0, "fusion_lat": 0.0, "fusion_lon": 0.0}, {"rental_uris": {"android": "https://dc.lft.to/lastmile_qr_scan", "ios": "https://dc.lft.to/lastmile_qr_scan"}, "bike_id": "bb292d96dc6074fce72ecaacbdded346", "name": "bb292d96dc6074fce72ecaacbdded346", "type": "electric_scooter", "lon": -77.02811, "lat": 38.910485, "is_disabled": 0, "is_reserved": 0, "fusion_lat": 0.0, "fusion_lon": 0.0}, {"rental_uris": {"android": "https://dc.lft.to/lastmile_qr_scan", "ios": "https://dc.lft.to/lastmile_qr_scan"}, "bike_id": "6d0f6f8f4aa75b92a343a3b11495542a", "name": "6d0f6f8f4aa75b92a343a3b11495542a", "type": "electric_bike", "lon": -76.996768, "lat": 38.924878666666665, "is_disabled": 0, "is_reserved": 0, "fusion_lat": 0.0, "fusion_lon": 0.0}, {"rental_uris": {"android": "https://dc.lft.to/lastmile_qr_scan", "ios": "https://dc.lft.to/lastmile_qr_scan"}, "bike_id": "354a8adf97d86f038f0f7af72307f866", "name": "354a8adf97d86f038f0f7af72307f866", "type": "electric_scooter", "lon": -77.02999416666667, "lat": 38.89746866666667, "is_disabled": 0, "is_reserved": 0, "fusion_lat": 0.0, "fusion_lon": 0.0}, {"rental_uris": {"android": "https://dc.lft.to/lastmile_qr_scan", "ios": "https://dc.lft.to/lastmile_qr_scan"}, "bike_id": "9e71b488562b6bf9785a69a5aff8edf8", "name": "9e71b488562b6bf9785a69a5aff8edf8", "type": "electric_scooter", "lon": -77.04034133333333, "lat": 38.903889166666666, "is_disabled": 0, "is_reserved": 0, "fusion_lat": 0.0, "fusion_lon": 0.0}, {"rental_uris": {"android": "https://dc.lft.to/lastmile_qr_scan", "ios": "https://dc.lft.to/lastmile_qr_scan"}, "bike_id": "6e84f1743ae8110f86cf2cc55c785cf1", "name": "6e84f1743ae8110f86cf2cc55c785cf1", "type": "electric_bike", "lon": -76.98688316666667, "lat": 38.944811, "is_disabled": 0, "is_reserved": 0, "fusion_lat": 0.0, "fusion_lon": 0.0}, {"rental_uris": {"android": "https://dc.lft.to/lastmile_qr_scan", "ios": "https://dc.lft.to/lastmile_qr_scan"}, "bike_id": "583bf2ebe1c4e14298ae05aef2d825c3", "name": "583bf2ebe1c4e14298ae05aef2d825c3", "type": "electric_scooter", "lon": -77.02490833333333, "lat": 38.9430605, "is_disabled": 0, "is_reserved": 0, "fusion_lat": 0.0, "fusion_lon": 0.0}, {"rental_uris": {"android": "https://dc.lft.to/lastmile_qr_scan", "ios": "https://dc.lft.to/lastmile_qr_scan"}, "bike_id": "8dfe5fc8e9ff296b6ec93a8e78265bb8", "name": "8dfe5fc8e9ff296b6ec93a8e78265bb8", "type": "electric_bike", "lon": -77.08146633333334, "lat": 38.952663666666666, "is_disabled": 0, "is_reserved": 0, "fusion_lat": 0.0, "fusion_lon": 0.0}, {"rental_uris": {"android": "https://dc.lft.to/lastmile_qr_scan", "ios": "https://dc.lft.to/lastmile_qr_scan"}, "bike_id": "d42e549c3f10170fc32bb0a0cce612ce", "name": "d42e549c3f10170fc32bb0a0cce612ce", "type": "electric_scooter", "lon": -77.05545416666666, "lat": 38.93009933333333, "is_disabled": 0, "is_reserved": 0, "fusion_lat": 0.0, "fusion_lon": 0.0}, {"rental_uris": {"android": "https://dc.lft.to/lastmile_qr_scan", "ios": "https://dc.lft.to/lastmile_qr_scan"}, "bike_id": "70807a91f899a603f7bdf2ffa6bb0953", "name": "70807a91f899a603f7bdf2ffa6bb0953", "type": "electric_scooter", "lon": -77.036676, "lat": 38.92723433333333, "is_disabled": 0, "is_reserved": 0, "fusion_lat": 0.0, "fusion_lon": 0.0}, {"rental_uris": {"android": "https://dc.lft.to/lastmile_qr_scan", "ios": "https://dc.lft.to/lastmile_qr_scan"}, "bike_id": "0af3bddd98a706b607a807344451aa43", "name": "0af3bddd98a706b607a807344451aa43", "type": "electric_scooter", "lon": -77.02413133333333, "lat": 38.905793, "is_disabled": 0, "is_reserved": 0, "fusion_lat": 0.0, "fusion_lon": 0.0}, {"rental_uris": {"android": "https://dc.lft.to/lastmile_qr_scan", "ios": "https://dc.lft.to/lastmile_qr_scan"}, "bike_id": "5afc33ddfede8e1ed2c0a0b29098991f", "name": "5afc33ddfede8e1ed2c0a0b29098991f", "type": "electric_scooter", "lon": -77.06003283333334, "lat": 38.901712, "is_disabled": 0, "is_reserved": 0, "fusion_lat": 0.0, "fusion_lon": 0.0}, {"rental_uris": {"android": "https://dc.lft.to/lastmile_qr_scan", "ios": "https://dc.lft.to/lastmile_qr_scan"}, "bike_id": "5f8af3bbb18deb5acd170b91f887367c", "name": "5f8af3bbb18deb5acd170b91f887367c", "type": "electric_scooter", "lon": -77.02556666666666, "lat": 38.88064416666667, "is_disabled": 0, "is_reserved": 0, "fusion_lat": 0.0, "fusion_lon": 0.0}, {"rental_uris": {"android": "https://dc.lft.to/lastmile_qr_scan", "ios": "https://dc.lft.to/lastmile_qr_scan"}, "bike_id": "4d005c7ce593577bd9a9a4e051b9d33f", "name": "4d005c7ce593577bd9a9a4e051b9d33f", "type": "electric_scooter", "lon": -77.02973283333333, "lat": 38.914068666666665, "is_disabled": 0, "is_reserved": 0, "fusion_lat": 0.0, "fusion_lon": 0.0}, {"rental_uris": {"android": "https://dc.lft.to/lastmile_qr_scan", "ios": "https://dc.lft.to/lastmile_qr_scan"}, "bike_id": "bb14e7956f573695b89583ffc804113b", "name": "bb14e7956f573695b89583ffc804113b", "type": "electric_scooter", "lon": -77.05852883333333, "lat": 38.93585216666666, "is_disabled": 0, "is_reserved": 0, "fusion_lat": 0.0, "fusion_lon": 0.0}, {"rental_uris": {"android": "https://dc.lft.to/lastmile_qr_scan", "ios": "https://dc.lft.to/lastmile_qr_scan"}, "bike_id": "c45ce0a4386a53a1d513b60f7d06db22", "name": "c45ce0a4386a53a1d513b60f7d06db22", "type": "electric_scooter", "lon": -77.02697083333334, "lat": 38.9112735, "is_disabled": 0, "is_reserved": 0, "fusion_lat": 0.0, "fusion_lon": 0.0}, {"rental_uris": {"android": "https://dc.lft.to/lastmile_qr_scan", "ios": "https://dc.lft.to/lastmile_qr_scan"}, "bike_id": "35c25ef587902c669f0ff3d4ed4c193f", "name": "35c25ef587902c669f0ff3d4ed4c193f", "type": "electric_scooter", "lon": -77.04493533333333, "lat": 38.91923466666667, "is_disabled": 0, "is_reserved": 0, "fusion_lat": 0.0, "fusion_lon": 0.0}, {"rental_uris": {"android": "https://dc.lft.to/lastmile_qr_scan", "ios": "https://dc.lft.to/lastmile_qr_scan"}, "bike_id": "5ed453a5e2a29e071bc7aeef465e282d", "name": "5ed453a5e2a29e071bc7aeef465e282d", "type": "electric_scooter", "lon": -77.04489683333334, "lat": 38.913296, "is_disabled": 0, "is_reserved": 0, "fusion_lat": 0.0, "fusion_lon": 0.0}, {"rental_uris": {"android": "https://dc.lft.to/lastmile_qr_scan", "ios": "https://dc.lft.to/lastmile_qr_scan"}, "bike_id": "87e1687614e829b85595cb9dce40e9d7", "name": "87e1687614e829b85595cb9dce40e9d7", "type": "electric_scooter", "lon": -77.0328945, "lat": 38.932567, "is_disabled": 0, "is_reserved": 0, "fusion_lat": 0.0, "fusion_lon": 0.0}, {"rental_uris": {"android": "https://dc.lft.to/lastmile_qr_scan", "ios": "https://dc.lft.to/lastmile_qr_scan"}, "bike_id": "fa54bdc37ba7aa3cfd655d2e8c44c066", "name": "fa54bdc37ba7aa3cfd655d2e8c44c066", "type": "electric_scooter", "lon": -77.01741383333334, "lat": 38.87258833333333, "is_disabled": 0, "is_reserved": 0, "fusion_lat": 0.0, "fusion_lon": 0.0}, {"rental_uris": {"android": "https://dc.lft.to/lastmile_qr_scan", "ios": "https://dc.lft.to/lastmile_qr_scan"}, "bike_id": "102c8ec11dfce8c6bc479f83cd5aa421", "name": "102c8ec11dfce8c6bc479f83cd5aa421", "type": "electric_scooter", "lon": -76.933625, "lat": 38.898903833333335, "is_disabled": 0, "is_reserved": 0, "fusion_lat": 0.0, "fusion_lon": 0.0}, {"rental_uris": {"android": "https://dc.lft.to/lastmile_qr_scan", "ios": "https://dc.lft.to/lastmile_qr_scan"}, "bike_id": "160aa8805a869975d930deba4bef81b5", "name": "160aa8805a869975d930deba4bef81b5", "type": "electric_scooter", "lon": -77.034982, "lat": 38.9170645, "is_disabled": 0, "is_reserved": 0, "fusion_lat": 0.0, "fusion_lon": 0.0}, {"rental_uris": {"android": "https://dc.lft.to/lastmile_qr_scan", "ios": "https://dc.lft.to/lastmile_qr_scan"}, "bike_id": "fc85c31ebcd9dfdd014a0b96097ef236", "name": "fc85c31ebcd9dfdd014a0b96097ef236", "type": "electric_scooter", "lon": -77.01322016666667, "lat": 38.901844, "is_disabled": 0, "is_reserved": 0, "fusion_lat": 0.0, "fusion_lon": 0.0}, {"rental_uris": {"android": "https://dc.lft.to/lastmile_qr_scan", "ios": "https://dc.lft.to/lastmile_qr_scan"}, "bike_id": "8e09bf5d87277ca2e1fb19988e04419b", "name": "8e09bf5d87277ca2e1fb19988e04419b", "type": "electric_scooter", "lon": -77.017548, "lat": 38.8747585, "is_disabled": 0, "is_reserved": 0, "fusion_lat": 0.0, "fusion_lon": 0.0}, {"rental_uris": {"android": "https://dc.lft.to/lastmile_qr_scan", "ios": "https://dc.lft.to/lastmile_qr_scan"}, "bike_id": "153699a8d97c6f65cfb0c1efa1fe3053", "name": "153699a8d97c6f65cfb0c1efa1fe3053", "type": "electric_scooter", "lon": -77.02397683333334, "lat": 38.916100666666665, "is_disabled": 0, "is_reserved": 0, "fusion_lat": 0.0, "fusion_lon": 0.0}, {"rental_uris": {"android": "https://dc.lft.to/lastmile_qr_scan", "ios": "https://dc.lft.to/lastmile_qr_scan"}, "bike_id": "b61f28e73747cba727d47306b678ca7f", "name": "b61f28e73747cba727d47306b678ca7f", "type": "electric_scooter", "lon": -77.04140383333333, "lat": 38.92154466666667, "is_disabled": 0, "is_reserved": 0, "fusion_lat": 0.0, "fusion_lon": 0.0}, {"rental_uris": {"android": "https://dc.lft.to/lastmile_qr_scan", "ios": "https://dc.lft.to/lastmile_qr_scan"}, "bike_id": "92e80bfa85455e44af2d243b10bd9928", "name": "92e80bfa85455e44af2d243b10bd9928", "type": "electric_scooter", "lon": -77.04025916666667, "lat": 38.92263883333333, "is_disabled": 0, "is_reserved": 0, "fusion_lat": 0.0, "fusion_lon": 0.0}, {"rental_uris": {"android": "https://dc.lft.to/lastmile_qr_scan", "ios": "https://dc.lft.to/lastmile_qr_scan"}, "bike_id": "8330c6e54d3f66f752c1929aed198c6a", "name": "8330c6e54d3f66f752c1929aed198c6a", "type": "electric_scooter", "lon": -77.04128966666667, "lat": 38.923137833333335, "is_disabled": 0, "is_reserved": 0, "fusion_lat": 0.0, "fusion_lon": 0.0}, {"rental_uris": {"android": "https://dc.lft.to/lastmile_qr_scan", "ios": "https://dc.lft.to/lastmile_qr_scan"}, "bike_id": "962df35b59af716d2da5bc2dbee51b14", "name": "962df35b59af716d2da5bc2dbee51b14", "type": "electric_scooter", "lon": -77.02276833333333, "lat": 38.925238666666665, "is_disabled": 0, "is_reserved": 0, "fusion_lat": 0.0, "fusion_lon": 0.0}, {"rental_uris": {"android": "https://dc.lft.to/lastmile_qr_scan", "ios": "https://dc.lft.to/lastmile_qr_scan"}, "bike_id": "6d8e24c3669cdc799e6e531a883f0e88", "name": "6d8e24c3669cdc799e6e531a883f0e88", "type": "electric_scooter", "lon": -77.02704416666667, "lat": 38.927221333333335, "is_disabled": 0, "is_reserved": 0, "fusion_lat": 0.0, "fusion_lon": 0.0}, {"rental_uris": {"android": "https://dc.lft.to/lastmile_qr_scan", "ios": "https://dc.lft.to/lastmile_qr_scan"}, "bike_id": "87ba04e90feabd35a512742c2899da8a", "name": "87ba04e90feabd35a512742c2899da8a", "type": "electric_bike", "lon": -77.00205116666666, "lat": 38.819418166666665, "is_disabled": 0, "is_reserved": 0, "fusion_lat": 0.0, "fusion_lon": 0.0}, {"rental_uris": {"android": "https://dc.lft.to/lastmile_qr_scan", "ios": "https://dc.lft.to/lastmile_qr_scan"}, "bike_id": "51a1635904626404d2516ec56751cfde", "name": "51a1635904626404d2516ec56751cfde", "type": "electric_scooter", "lon": -77.02300733333334, "lat": 38.915499, "is_disabled": 0, "is_reserved": 0, "fusion_lat": 0.0, "fusion_lon": 0.0}, {"rental_uris": {"android": "https://dc.lft.to/lastmile_qr_scan", "ios": "https://dc.lft.to/lastmile_qr_scan"}, "bike_id": "85bec4babdea8ffd39e33f2d89e7de03", "name": "85bec4babdea8ffd39e33f2d89e7de03", "type": "electric_scooter", "lon": -77.02974116666667, "lat": 38.922773666666664, "is_disabled": 0, "is_reserved": 0, "fusion_lat": 0.0, "fusion_lon": 0.0}, {"rental_uris": {"android": "https://dc.lft.to/lastmile_qr_scan", "ios": "https://dc.lft.to/lastmile_qr_scan"}, "bike_id": "9950df694a4e9953087d1639ff023f57", "name": "9950df694a4e9953087d1639ff023f57", "type": "electric_scooter", "lon": -77.031735, "lat": 38.90375516666667, "is_disabled": 0, "is_reserved": 0, "fusion_lat": 0.0, "fusion_lon": 0.0}, {"rental_uris": {"android": "https://dc.lft.to/lastmile_qr_scan", "ios": "https://dc.lft.to/lastmile_qr_scan"}, "bike_id": "94dfe840c2a5d26e307db663cb89a881", "name": "94dfe840c2a5d26e307db663cb89a881", "type": "electric_scooter", "lon": -77.0470045, "lat": 38.90537, "is_disabled": 0, "is_reserved": 0, "fusion_lat": 0.0, "fusion_lon": 0.0}, {"rental_uris": {"android": "https://dc.lft.to/lastmile_qr_scan", "ios": "https://dc.lft.to/lastmile_qr_scan"}, "bike_id": "a8a21d9954a6f8cff864d9b6e0024f02", "name": "a8a21d9954a6f8cff864d9b6e0024f02", "type": "electric_scooter", "lon": -77.03181183333334, "lat": 38.911728333333336, "is_disabled": 0, "is_reserved": 0, "fusion_lat": 0.0, "fusion_lon": 0.0}, {"rental_uris": {"android": "https://dc.lft.to/lastmile_qr_scan", "ios": "https://dc.lft.to/lastmile_qr_scan"}, "bike_id": "742c46a1300c1b21585fe2eb24e3db8d", "name": "742c46a1300c1b21585fe2eb24e3db8d", "type": "electric_scooter", "lon": -76.95096283333334, "lat": 38.88451516666667, "is_disabled": 0, "is_reserved": 0, "fusion_lat": 0.0, "fusion_lon": 0.0}, {"rental_uris": {"android": "https://dc.lft.to/lastmile_qr_scan", "ios": "https://dc.lft.to/lastmile_qr_scan"}, "bike_id": "a669a66f00890a553a29eeee38d8f72a", "name": "a669a66f00890a553a29eeee38d8f72a", "type": "electric_bike", "lon": -76.9903895, "lat": 38.938121333333335, "is_disabled": 0, "is_reserved": 0, "fusion_lat": 0.0, "fusion_lon": 0.0}, {"rental_uris": {"android": "https://dc.lft.to/lastmile_qr_scan", "ios": "https://dc.lft.to/lastmile_qr_scan"}, "bike_id": "cbb53bc354e9e1383b653d8931d9f3b9", "name": "cbb53bc354e9e1383b653d8931d9f3b9", "type": "electric_bike", "lon": -77.04129616666667, "lat": 38.80500033333333, "is_disabled": 0, "is_reserved": 0, "fusion_lat": 0.0, "fusion_lon": 0.0}, {"rental_uris": {"android": "https://dc.lft.to/lastmile_qr_scan", "ios": "https://dc.lft.to/lastmile_qr_scan"}, "bike_id": "cf4812ce02821e03fb1d9a118bb79b21", "name": "cf4812ce02821e03fb1d9a118bb79b21", "type": "electric_scooter", "lon": -77.02616533333334, "lat": 38.92755183333333, "is_disabled": 0, "is_reserved": 0, "fusion_lat": 0.0, "fusion_lon": 0.0}, {"rental_uris": {"android": "https://dc.lft.to/lastmile_qr_scan", "ios": "https://dc.lft.to/lastmile_qr_scan"}, "bike_id": "79085b29dceffad12367e43bcd35948d", "name": "79085b29dceffad12367e43bcd35948d", "type": "electric_bike", "lon": -77.0032095, "lat": 38.95373516666667, "is_disabled": 0, "is_reserved": 0, "fusion_lat": 0.0, "fusion_lon": 0.0}, {"rental_uris": {"android": "https://dc.lft.to/lastmile_qr_scan", "ios": "https://dc.lft.to/lastmile_qr_scan"}, "bike_id": "0b1cfce2ce17bea3642c9226349b1cc3", "name": "0b1cfce2ce17bea3642c9226349b1cc3", "type": "electric_bike", "lon": -76.9723835, "lat": 38.949072666666666, "is_disabled": 0, "is_reserved": 0, "fusion_lat": 0.0, "fusion_lon": 0.0}, {"rental_uris": {"android": "https://dc.lft.to/lastmile_qr_scan", "ios": "https://dc.lft.to/lastmile_qr_scan"}, "bike_id": "48b04d286ec2ac1cf4f48653bce72a97", "name": "48b04d286ec2ac1cf4f48653bce72a97", "type": "electric_scooter", "lon": -77.03659733333333, "lat": 38.91798566666667, "is_disabled": 0, "is_reserved": 0, "fusion_lat": 0.0, "fusion_lon": 0.0}, {"rental_uris": {"android": "https://dc.lft.to/lastmile_qr_scan", "ios": "https://dc.lft.to/lastmile_qr_scan"}, "bike_id": "a7bfbadff21cb831d6ecf1a8032c0ff8", "name": "a7bfbadff21cb831d6ecf1a8032c0ff8", "type": "electric_scooter", "lon": -77.02208, "lat": 38.886413833333336, "is_disabled": 0, "is_reserved": 0, "fusion_lat": 0.0, "fusion_lon": 0.0}, {"rental_uris": {"android": "https://dc.lft.to/lastmile_qr_scan", "ios": "https://dc.lft.to/lastmile_qr_scan"}, "bike_id": "6c58d9d03695093e0921a1abb6aa96d1", "name": "6c58d9d03695093e0921a1abb6aa96d1", "type": "electric_scooter", "lon": -77.0298535, "lat": 38.93454833333333, "is_disabled": 0, "is_reserved": 0, "fusion_lat": 0.0, "fusion_lon": 0.0}, {"rental_uris": {"android": "https://dc.lft.to/lastmile_qr_scan", "ios": "https://dc.lft.to/lastmile_qr_scan"}, "bike_id": "3be00fca4c486ad5c262a72de47cb778", "name": "3be00fca4c486ad5c262a72de47cb778", "type": "electric_scooter", "lon": -77.0551785, "lat": 38.9296525, "is_disabled": 0, "is_reserved": 0, "fusion_lat": 0.0, "fusion_lon": 0.0}, {"rental_uris": {"android": "https://dc.lft.to/lastmile_qr_scan", "ios": "https://dc.lft.to/lastmile_qr_scan"}, "bike_id": "febab5724d4210d937e8a030c2197b77", "name": "febab5724d4210d937e8a030c2197b77", "type": "electric_scooter", "lon": -77.00141066666667, "lat": 38.90563616666667, "is_disabled": 0, "is_reserved": 0, "fusion_lat": 0.0, "fusion_lon": 0.0}, {"rental_uris": {"android": "https://dc.lft.to/lastmile_qr_scan", "ios": "https://dc.lft.to/lastmile_qr_scan"}, "bike_id": "ed3059136866c3783e8ee127056c9601", "name": "ed3059136866c3783e8ee127056c9601", "type": "electric_bike", "lon": -77.09837166666667, "lat": 38.99103133333333, "is_disabled": 0, "is_reserved": 0, "fusion_lat": 0.0, "fusion_lon": 0.0}, {"rental_uris": {"android": "https://dc.lft.to/lastmile_qr_scan", "ios": "https://dc.lft.to/lastmile_qr_scan"}, "bike_id": "92c6c98e0e51040b4ddf7ea41e4ed78a", "name": "92c6c98e0e51040b4ddf7ea41e4ed78a", "type": "electric_scooter", "lon": -76.99333133333333, "lat": 38.924367833333335, "is_disabled": 0, "is_reserved": 0, "fusion_lat": 0.0, "fusion_lon": 0.0}, {"rental_uris": {"android": "https://dc.lft.to/lastmile_qr_scan", "ios": "https://dc.lft.to/lastmile_qr_scan"}, "bike_id": "0a0608e20aaae0410d7c60bb99eaea3b", "name": "0a0608e20aaae0410d7c60bb99eaea3b", "type": "electric_scooter", "lon": -77.02089833333334, "lat": 38.92686833333333, "is_disabled": 0, "is_reserved": 0, "fusion_lat": 0.0, "fusion_lon": 0.0}, {"rental_uris": {"android": "https://dc.lft.to/lastmile_qr_scan", "ios": "https://dc.lft.to/lastmile_qr_scan"}, "bike_id": "f2b99093e9790b513e58f57b36da312d", "name": "f2b99093e9790b513e58f57b36da312d", "type": "electric_bike", "lon": -77.08587633333333, "lat": 38.84440766666667, "is_disabled": 0, "is_reserved": 0, "fusion_lat": 0.0, "fusion_lon": 0.0}, {"rental_uris": {"android": "https://dc.lft.to/lastmile_qr_scan", "ios": "https://dc.lft.to/lastmile_qr_scan"}, "bike_id": "0f7bbc431098ab63d1e421fc5948349f", "name": "0f7bbc431098ab63d1e421fc5948349f", "type": "electric_scooter", "lon": -77.03478466666667, "lat": 38.92543366666666, "is_disabled": 0, "is_reserved": 0, "fusion_lat": 0.0, "fusion_lon": 0.0}, {"rental_uris": {"android": "https://dc.lft.to/lastmile_qr_scan", "ios": "https://dc.lft.to/lastmile_qr_scan"}, "bike_id": "0584c4f05dcf0d92b7c7258940258842", "name": "0584c4f05dcf0d92b7c7258940258842", "type": "electric_bike", "lon": -76.98154516666666, "lat": 38.92267116666667, "is_disabled": 0, "is_reserved": 0, "fusion_lat": 0.0, "fusion_lon": 0.0}, {"rental_uris": {"android": "https://dc.lft.to/lastmile_qr_scan", "ios": "https://dc.lft.to/lastmile_qr_scan"}, "bike_id": "df29e07a243e1a7ecaf7ee743318b7c9", "name": "df29e07a243e1a7ecaf7ee743318b7c9", "type": "electric_scooter", "lon": -77.03996583333333, "lat": 38.914102166666666, "is_disabled": 0, "is_reserved": 0, "fusion_lat": 0.0, "fusion_lon": 0.0}, {"rental_uris": {"android": "https://dc.lft.to/lastmile_qr_scan", "ios": "https://dc.lft.to/lastmile_qr_scan"}, "bike_id": "6588e1bb3c22ceceee4296595a5afaaf", "name": "6588e1bb3c22ceceee4296595a5afaaf", "type": "electric_scooter", "lon": -77.0442955, "lat": 38.92115, "is_disabled": 0, "is_reserved": 0, "fusion_lat": 0.0, "fusion_lon": 0.0}, {"rental_uris": {"android": "https://dc.lft.to/lastmile_qr_scan", "ios": "https://dc.lft.to/lastmile_qr_scan"}, "bike_id": "60a6f656a04ba9b3a8dc179543e2192b", "name": "60a6f656a04ba9b3a8dc179543e2192b", "type": "electric_scooter", "lon": -77.033163, "lat": 38.89906216666667, "is_disabled": 0, "is_reserved": 0, "fusion_lat": 0.0, "fusion_lon": 0.0}, {"rental_uris": {"android": "https://dc.lft.to/lastmile_qr_scan", "ios": "https://dc.lft.to/lastmile_qr_scan"}, "bike_id": "11729754a1b9757d7e060678a1086db9", "name": "11729754a1b9757d7e060678a1086db9", "type": "electric_bike", "lon": -77.04926083333334, "lat": 39.02930683333334, "is_disabled": 0, "is_reserved": 0, "fusion_lat": 0.0, "fusion_lon": 0.0}, {"rental_uris": {"android": "https://dc.lft.to/lastmile_qr_scan", "ios": "https://dc.lft.to/lastmile_qr_scan"}, "bike_id": "6a20dcf58d067d71e8be14fc01c13093", "name": "6a20dcf58d067d71e8be14fc01c13093", "type": "electric_scooter", "lon": -77.0433795, "lat": 38.904994333333335, "is_disabled": 0, "is_reserved": 0, "fusion_lat": 0.0, "fusion_lon": 0.0}, {"rental_uris": {"android": "https://dc.lft.to/lastmile_qr_scan", "ios": "https://dc.lft.to/lastmile_qr_scan"}, "bike_id": "3db13f864049c66a250de5e4f4b82723", "name": "3db13f864049c66a250de5e4f4b82723", "type": "electric_scooter", "lon": -77.05039766666667, "lat": 38.900773666666666, "is_disabled": 0, "is_reserved": 0, "fusion_lat": 0.0, "fusion_lon": 0.0}, {"rental_uris": {"android": "https://dc.lft.to/lastmile_qr_scan", "ios": "https://dc.lft.to/lastmile_qr_scan"}, "bike_id": "47a71c757873139f1509b947d9f36678", "name": "47a71c757873139f1509b947d9f36678", "type": "electric_scooter", "lon": -77.02983716666667, "lat": 38.9312885, "is_disabled": 0, "is_reserved": 0, "fusion_lat": 0.0, "fusion_lon": 0.0}, {"rental_uris": {"android": "https://dc.lft.to/lastmile_qr_scan", "ios": "https://dc.lft.to/lastmile_qr_scan"}, "bike_id": "ae2f13d5b9f1d5db08b93c42703eff20", "name": "ae2f13d5b9f1d5db08b93c42703eff20", "type": "electric_scooter", "lon": -77.027252, "lat": 38.91567633333333, "is_disabled": 0, "is_reserved": 0, "fusion_lat": 0.0, "fusion_lon": 0.0}, {"rental_uris": {"android": "https://dc.lft.to/lastmile_qr_scan", "ios": "https://dc.lft.to/lastmile_qr_scan"}, "bike_id": "c66d9d9f1611e21ebc9cb48274e79d4e", "name": "c66d9d9f1611e21ebc9cb48274e79d4e", "type": "electric_scooter", "lon": -76.99456366666666, "lat": 38.90819316666666, "is_disabled": 0, "is_reserved": 0, "fusion_lat": 0.0, "fusion_lon": 0.0}, {"rental_uris": {"android": "https://dc.lft.to/lastmile_qr_scan", "ios": "https://dc.lft.to/lastmile_qr_scan"}, "bike_id": "e485e411b72cd5168baff6fd8412adca", "name": "e485e411b72cd5168baff6fd8412adca", "type": "electric_scooter", "lon": -77.0433765, "lat": 38.895228333333336, "is_disabled": 0, "is_reserved": 0, "fusion_lat": 0.0, "fusion_lon": 0.0}, {"rental_uris": {"android": "https://dc.lft.to/lastmile_qr_scan", "ios": "https://dc.lft.to/lastmile_qr_scan"}, "bike_id": "ef549a45f816ff47bf56d8975cf758b7", "name": "ef549a45f816ff47bf56d8975cf758b7", "type": "electric_scooter", "lon": -77.002263, "lat": 38.90008516666666, "is_disabled": 0, "is_reserved": 0, "fusion_lat": 0.0, "fusion_lon": 0.0}, {"rental_uris": {"android": "https://dc.lft.to/lastmile_qr_scan", "ios": "https://dc.lft.to/lastmile_qr_scan"}, "bike_id": "78c6292e4550fc0a53c8b8ce0028f15e", "name": "78c6292e4550fc0a53c8b8ce0028f15e", "type": "electric_scooter", "lon": -77.039078, "lat": 38.9182495, "is_disabled": 0, "is_reserved": 0, "fusion_lat": 0.0, "fusion_lon": 0.0}, {"rental_uris": {"android": "https://dc.lft.to/lastmile_qr_scan", "ios": "https://dc.lft.to/lastmile_qr_scan"}, "bike_id": "0a1bbd6908b83fb84af615d624d73c43", "name": "0a1bbd6908b83fb84af615d624d73c43", "type": "electric_scooter", "lon": -77.03404783333333, "lat": 38.916953, "is_disabled": 0, "is_reserved": 0, "fusion_lat": 0.0, "fusion_lon": 0.0}, {"rental_uris": {"android": "https://dc.lft.to/lastmile_qr_scan", "ios": "https://dc.lft.to/lastmile_qr_scan"}, "bike_id": "99819442e6370fa94a1920a45a2dd07a", "name": "99819442e6370fa94a1920a45a2dd07a", "type": "electric_scooter", "lon": -77.0386445, "lat": 38.9171235, "is_disabled": 0, "is_reserved": 0, "fusion_lat": 0.0, "fusion_lon": 0.0}, {"rental_uris": {"android": "https://dc.lft.to/lastmile_qr_scan", "ios": "https://dc.lft.to/lastmile_qr_scan"}, "bike_id": "f04b2c30cdd0bcb1d7e234229ddb160c", "name": "f04b2c30cdd0bcb1d7e234229ddb160c", "type": "electric_scooter", "lon": -77.0616135, "lat": 38.91302183333333, "is_disabled": 0, "is_reserved": 0, "fusion_lat": 0.0, "fusion_lon": 0.0}, {"rental_uris": {"android": "https://dc.lft.to/lastmile_qr_scan", "ios": "https://dc.lft.to/lastmile_qr_scan"}, "bike_id": "246f7e42d5cb63d55a3b85915ac3e933", "name": "246f7e42d5cb63d55a3b85915ac3e933", "type": "electric_scooter", "lon": -77.03228716666666, "lat": 38.91408533333333, "is_disabled": 0, "is_reserved": 0, "fusion_lat": 0.0, "fusion_lon": 0.0}, {"rental_uris": {"android": "https://dc.lft.to/lastmile_qr_scan", "ios": "https://dc.lft.to/lastmile_qr_scan"}, "bike_id": "4cbed179baef4ea40f211c2699738594", "name": "4cbed179baef4ea40f211c2699738594", "type": "electric_scooter", "lon": -77.03272666666666, "lat": 38.92751116666667, "is_disabled": 0, "is_reserved": 0, "fusion_lat": 0.0, "fusion_lon": 0.0}, {"rental_uris": {"android": "https://dc.lft.to/lastmile_qr_scan", "ios": "https://dc.lft.to/lastmile_qr_scan"}, "bike_id": "be4bf8f80892bc2c18cf651b540a8ca4", "name": "be4bf8f80892bc2c18cf651b540a8ca4", "type": "electric_scooter", "lon": -77.004377, "lat": 38.912483, "is_disabled": 0, "is_reserved": 0, "fusion_lat": 0.0, "fusion_lon": 0.0}, {"rental_uris": {"android": "https://dc.lft.to/lastmile_qr_scan", "ios": "https://dc.lft.to/lastmile_qr_scan"}, "bike_id": "264c390cc0a42d8fd966bbda7ce6d2a4", "name": "264c390cc0a42d8fd966bbda7ce6d2a4", "type": "electric_scooter", "lon": -76.96526916666667, "lat": 38.876311333333334, "is_disabled": 0, "is_reserved": 0, "fusion_lat": 0.0, "fusion_lon": 0.0}, {"rental_uris": {"android": "https://dc.lft.to/lastmile_qr_scan", "ios": "https://dc.lft.to/lastmile_qr_scan"}, "bike_id": "861263134d06808b078432113cb47a94", "name": "861263134d06808b078432113cb47a94", "type": "electric_scooter", "lon": -77.03236833333334, "lat": 38.917175, "is_disabled": 0, "is_reserved": 0, "fusion_lat": 0.0, "fusion_lon": 0.0}, {"rental_uris": {"android": "https://dc.lft.to/lastmile_qr_scan", "ios": "https://dc.lft.to/lastmile_qr_scan"}, "bike_id": "4d7a31bec141a3ed256e9fd6ae0cc346", "name": "4d7a31bec141a3ed256e9fd6ae0cc346", "type": "electric_scooter", "lon": -77.0020515, "lat": 38.900754, "is_disabled": 0, "is_reserved": 0, "fusion_lat": 0.0, "fusion_lon": 0.0}, {"rental_uris": {"android": "https://dc.lft.to/lastmile_qr_scan", "ios": "https://dc.lft.to/lastmile_qr_scan"}, "bike_id": "cf181229be3c844cc21e42dc3622404d", "name": "cf181229be3c844cc21e42dc3622404d", "type": "electric_scooter", "lon": -77.04472633333333, "lat": 38.92141016666667, "is_disabled": 0, "is_reserved": 0, "fusion_lat": 0.0, "fusion_lon": 0.0}, {"rental_uris": {"android": "https://dc.lft.to/lastmile_qr_scan", "ios": "https://dc.lft.to/lastmile_qr_scan"}, "bike_id": "1a34b27a12a673b882ef84a4de753fab", "name": "1a34b27a12a673b882ef84a4de753fab", "type": "electric_scooter", "lon": -77.027148, "lat": 38.909094333333336, "is_disabled": 0, "is_reserved": 0, "fusion_lat": 0.0, "fusion_lon": 0.0}, {"rental_uris": {"android": "https://dc.lft.to/lastmile_qr_scan", "ios": "https://dc.lft.to/lastmile_qr_scan"}, "bike_id": "8306eb0708a30d6b1f246981099d1a94", "name": "8306eb0708a30d6b1f246981099d1a94", "type": "electric_scooter", "lon": -77.0377305, "lat": 38.91697633333333, "is_disabled": 0, "is_reserved": 0, "fusion_lat": 0.0, "fusion_lon": 0.0}, {"rental_uris": {"android": "https://dc.lft.to/lastmile_qr_scan", "ios": "https://dc.lft.to/lastmile_qr_scan"}, "bike_id": "90a71294ebaae9189b54c72251460ebd", "name": "90a71294ebaae9189b54c72251460ebd", "type": "electric_scooter", "lon": -77.0220105, "lat": 38.89547616666667, "is_disabled": 0, "is_reserved": 0, "fusion_lat": 0.0, "fusion_lon": 0.0}, {"rental_uris": {"android": "https://dc.lft.to/lastmile_qr_scan", "ios": "https://dc.lft.to/lastmile_qr_scan"}, "bike_id": "bf27f6f5b02965955ae91d12957c5027", "name": "bf27f6f5b02965955ae91d12957c5027", "type": "electric_scooter", "lon": -77.02565133333333, "lat": 38.91820666666667, "is_disabled": 0, "is_reserved": 0, "fusion_lat": 0.0, "fusion_lon": 0.0}, {"rental_uris": {"android": "https://dc.lft.to/lastmile_qr_scan", "ios": "https://dc.lft.to/lastmile_qr_scan"}, "bike_id": "59db7f3e9752ac5e579fc07a4095f95e", "name": "59db7f3e9752ac5e579fc07a4095f95e", "type": "electric_bike", "lon": -76.98516016666667, "lat": 38.880679666666666, "is_disabled": 0, "is_reserved": 0, "fusion_lat": 0.0, "fusion_lon": 0.0}, {"rental_uris": {"android": "https://dc.lft.to/lastmile_qr_scan", "ios": "https://dc.lft.to/lastmile_qr_scan"}, "bike_id": "43edb642f47e6e83f14ddbcfddbe38c6", "name": "43edb642f47e6e83f14ddbcfddbe38c6", "type": "electric_scooter", "lon": -77.00402916666667, "lat": 38.87640416666667, "is_disabled": 0, "is_reserved": 0, "fusion_lat": 0.0, "fusion_lon": 0.0}, {"rental_uris": {"android": "https://dc.lft.to/lastmile_qr_scan", "ios": "https://dc.lft.to/lastmile_qr_scan"}, "bike_id": "ee2f61b7b49381310264530d13042287", "name": "ee2f61b7b49381310264530d13042287", "type": "electric_scooter", "lon": -77.035407, "lat": 38.92402516666667, "is_disabled": 0, "is_reserved": 0, "fusion_lat": 0.0, "fusion_lon": 0.0}, {"rental_uris": {"android": "https://dc.lft.to/lastmile_qr_scan", "ios": "https://dc.lft.to/lastmile_qr_scan"}, "bike_id": "29069969e7d82d2b81d724f43d405d14", "name": "29069969e7d82d2b81d724f43d405d14", "type": "electric_scooter", "lon": -77.0419745, "lat": 38.9187795, "is_disabled": 0, "is_reserved": 0, "fusion_lat": 0.0, "fusion_lon": 0.0}, {"rental_uris": {"android": "https://dc.lft.to/lastmile_qr_scan", "ios": "https://dc.lft.to/lastmile_qr_scan"},