{"data": {"bikes": [{"is_disabled": 0, "type": "electric_scooter", "is_reserved": 0, "lat": 38.91808566666667, "rental_uris": {"ios": "https://dc.lft.to/lastmile_qr_scan", "android": "https://dc.lft.to/lastmile_qr_scan"}, "fusion_lon": 0.0, "fusion_lat": 0.0, "bike_id": "aaee7a77461d19a827794aff51cd239c", "name": "aaee7a77461d19a827794aff51cd239c", "lon": -77.01604783333333}, {"is_disabled": 0, "type": "electric_scooter", "is_reserved": 0, "lat": 38.862526833333334, "rental_uris": {"ios": "https://dc.lft.to/lastmile_qr_scan", "android": "https://dc.lft.to/lastmile_qr_scan"}, "fusion_lon": 0.0, "fusion_lat": 0.0, "bike_id": "b854e52cf9e4bab4154b9d8cee7f88db", "name": "b854e52cf9e4bab4154b9d8cee7f88db", "lon": -76.98703166666667}, {"is_disabled": 0, "type": "electric_scooter", "is_reserved": 0, "lat": 38.900982166666665, "rental_uris": {"ios": "https://dc.lft.to/lastmile_qr_scan", "android": "https://dc.lft.to/lastmile_qr_scan"}, "fusion_lon": 0.0, "fusion_lat": 0.0, "bike_id": "a915200c764a874bb64f148274a92bd2", "name": "a915200c764a874bb64f148274a92bd2", "lon": -77.00641516666667}, {"is_disabled": 0, "type": "electric_scooter", "is_reserved": 0, "lat": 38.923746333333334, "rental_uris": {"ios": "https://dc.lft.to/lastmile_qr_scan", "android": "https://dc.lft.to/lastmile_qr_scan"}, "fusion_lon": 0.0, "fusion_lat": 0.0, "bike_id": "ff657c1529ee9049919d2e9d2dd03c60", "name": "ff657c1529ee9049919d2e9d2dd03c60", "lon": -77.03132816666667}, {"is_disabled": 0, "type": "electric_scooter", "is_reserved": 0, "lat": 38.91179866666667, "rental_uris": {"ios": "https://dc.lft.to/lastmile_qr_scan", "android": "https://dc.lft.to/lastmile_qr_scan"}, "fusion_lon": 0.0, "fusion_lat": 0.0, "bike_id": "3253433686b4913b4d6bfb771e4b7a3c", "name": "3253433686b4913b4d6bfb771e4b7a3c", "lon": -77.03205516666667}, {"is_disabled": 0, "type": "electric_scooter", "is_reserved": 0, "lat": 38.95421983333333, "rental_uris": {"ios": "https://dc.lft.to/lastmile_qr_scan", "android": "https://dc.lft.to/lastmile_qr_scan"}, "fusion_lon": 0.0, "fusion_lat": 0.0, "bike_id": "1a9408716510ff2a52d5e5251830d3f3", "name": "1a9408716510ff2a52d5e5251830d3f3", "lon": -77.02767566666667}, {"is_disabled": 0, "type": "electric_scooter", "is_reserved": 0, "lat": 38.9237515, "rental_uris": {"ios": "https://dc.lft.to/lastmile_qr_scan", "android": "https://dc.lft.to/lastmile_qr_scan"}, "fusion_lon": 0.0, "fusion_lat": 0.0, "bike_id": "489de002712aacc8eb3d76afee336e77", "name": "489de002712aacc8eb3d76afee336e77", "lon": -77.03133533333333}, {"is_disabled": 0, "type": "electric_scooter", "is_reserved": 0, "lat": 38.88248216666667, "rental_uris": {"ios": "https://dc.lft.to/lastmile_qr_scan", "android": "https://dc.lft.to/lastmile_qr_scan"}, "fusion_lon": 0.0, "fusion_lat": 0.0, "bike_id": "21598bc6edbcc521ac191f93d0f2c324", "name": "21598bc6edbcc521ac191f93d0f2c324", "lon": -76.995134}, {"is_disabled": 0, "type": "electric_scooter", "is_reserved": 0, "lat": 38.919773166666666, "rental_uris": {"ios": "https://dc.lft.to/lastmile_qr_scan", "android": "https://dc.lft.to/lastmile_qr_scan"}, "fusion_lon": 0.0, "fusion_lat": 0.0, "bike_id": "201ed0f0815cc8c54015ce2872bea121", "name": "201ed0f0815cc8c54015ce2872bea121", "lon": -77.021798}, {"is_disabled": 0, "type": "electric_scooter", "is_reserved": 0, "lat": 38.90513716666667, "rental_uris": {"ios": "https://dc.lft.to/lastmile_qr_scan", "android": "https://dc.lft.to/lastmile_qr_scan"}, "fusion_lon": 0.0, "fusion_lat": 0.0, "bike_id": "73db901a7af400c680d7eb072f2382ee", "name": "73db901a7af400c680d7eb072f2382ee", "lon": -77.0492775}, {"is_disabled": 0, "type": "electric_scooter", "is_reserved": 0, "lat": 38.901375, "rental_uris": {"ios": "https://dc.lft.to/lastmile_qr_scan", "android": "https://dc.lft.to/lastmile_qr_scan"}, "fusion_lon": 0.0, "fusion_lat": 0.0, "bike_id": "debe72edb4474727163665a90a5d4861", "name": "debe72edb4474727163665a90a5d4861", "lon": -77.02730366666667}, {"is_disabled": 0, "type": "electric_scooter", "is_reserved": 0, "lat": 38.923539, "rental_uris": {"ios": "https://dc.lft.to/lastmile_qr_scan", "android": "https://dc.lft.to/lastmile_qr_scan"}, "fusion_lon": 0.0, "fusion_lat": 0.0, "bike_id": "b4abdb46335779bb9cc247c758c7ee21", "name": "b4abdb46335779bb9cc247c758c7ee21", "lon": -77.0534795}, {"is_disabled": 0, "type": "electric_scooter", "is_reserved": 0, "lat": 38.8925175, "rental_uris": {"ios": "https://dc.lft.to/lastmile_qr_scan", "android": "https://dc.lft.to/lastmile_qr_scan"}, "fusion_lon": 0.0, "fusion_lat": 0.0, "bike_id": "90435f729fb9134b03cfb3b345a4b029", "name": "90435f729fb9134b03cfb3b345a4b029", "lon": -77.046603}, {"is_disabled": 0, "type": "electric_scooter", "is_reserved": 0, "lat": 38.90368133333333, "rental_uris": {"ios": "https://dc.lft.to/lastmile_qr_scan", "android": "https://dc.lft.to/lastmile_qr_scan"}, "fusion_lon": 0.0, "fusion_lat": 0.0, "bike_id": "18bf51b1a4ab8849d33f4584b30a8fe4", "name": "18bf51b1a4ab8849d33f4584b30a8fe4", "lon": -77.05019133333333}, {"is_disabled": 0, "type": "electric_scooter", "is_reserved": 0, "lat": 38.92872666666667, "rental_uris": {"ios": "https://dc.lft.to/lastmile_qr_scan", "android": "https://dc.lft.to/lastmile_qr_scan"}, "fusion_lon": 0.0, "fusion_lat": 0.0, "bike_id": "caaf8b31dbf58236fd9f085befe7de24", "name": "caaf8b31dbf58236fd9f085befe7de24", "lon": -77.01371816666666}, {"is_disabled": 0, "type": "electric_scooter", "is_reserved": 0, "lat": 38.92410316666667, "rental_uris": {"ios": "https://dc.lft.to/lastmile_qr_scan", "android": "https://dc.lft.to/lastmile_qr_scan"}, "fusion_lon": 0.0, "fusion_lat": 0.0, "bike_id": "207d29f5651ec8e74baa31ff9d2b19e8", "name": "207d29f5651ec8e74baa31ff9d2b19e8", "lon": -77.0403035}, {"is_disabled": 0, "type": "electric_bike", "is_reserved": 0, "lat": 38.96201533333333, "rental_uris": {"ios": "https://dc.lft.to/lastmile_qr_scan", "android": "https://dc.lft.to/lastmile_qr_scan"}, "fusion_lon": 0.0, "fusion_lat": 0.0, "bike_id": "1ed42ebfc347cae2108903a2bce217d6", "name": "1ed42ebfc347cae2108903a2bce217d6", "lon": -77.0351915}, {"is_disabled": 0, "type": "electric_scooter", "is_reserved": 0, "lat": 38.91402, "rental_uris": {"ios": "https://dc.lft.to/lastmile_qr_scan", "android": "https://dc.lft.to/lastmile_qr_scan"}, "fusion_lon": 0.0, "fusion_lat": 0.0, "bike_id": "a6f3f677c6137c08e735b326eb4bb31f", "name": "a6f3f677c6137c08e735b326eb4bb31f", "lon": -77.012961}, {"is_disabled": 0, "type": "electric_scooter", "is_reserved": 0, "lat": 38.897923, "rental_uris": {"ios": "https://dc.lft.to/lastmile_qr_scan", "android": "https://dc.lft.to/lastmile_qr_scan"}, "fusion_lon": 0.0, "fusion_lat": 0.0, "bike_id": "4fcb3506cc0546a9c651df5c7bcdadf2", "name": "4fcb3506cc0546a9c651df5c7bcdadf2", "lon": -77.026632}, {"is_disabled": 0, "type": "electric_scooter", "is_reserved": 0, "lat": 38.92338133333333, "rental_uris": {"ios": "https://dc.lft.to/lastmile_qr_scan", "android": "https://dc.lft.to/lastmile_qr_scan"}, "fusion_lon": 0.0, "fusion_lat": 0.0, "bike_id": "58d0735a50865001b6f61d0dc52701e7", "name": "58d0735a50865001b6f61d0dc52701e7", "lon": -77.050977}, {"is_disabled": 0, "type": "electric_scooter", "is_reserved": 0, "lat": 38.9181935, "rental_uris": {"ios": "https://dc.lft.to/lastmile_qr_scan", "android": "https://dc.lft.to/lastmile_qr_scan"}, "fusion_lon": 0.0, "fusion_lat": 0.0, "bike_id": "f9d004094b94232a2c2a6d3fefddc9c6", "name": "f9d004094b94232a2c2a6d3fefddc9c6", "lon": -77.038672}, {"is_disabled": 0, "type": "electric_scooter", "is_reserved": 0, "lat": 38.910525666666665, "rental_uris": {"ios": "https://dc.lft.to/lastmile_qr_scan", "android": "https://dc.lft.to/lastmile_qr_scan"}, "fusion_lon": 0.0, "fusion_lat": 0.0, "bike_id": "3f4e7420a8ca91e3329fab79467f9a87", "name": "3f4e7420a8ca91e3329fab79467f9a87", "lon": -77.02185966666667}, {"is_disabled": 0, "type": "electric_scooter", "is_reserved": 0, "lat": 38.90052016666667, "rental_uris": {"ios": "https://dc.lft.to/lastmile_qr_scan", "android": "https://dc.lft.to/lastmile_qr_scan"}, "fusion_lon": 0.0, "fusion_lat": 0.0, "bike_id": "5b80ad3a5c42239cd3a40b04f38d0070", "name": "5b80ad3a5c42239cd3a40b04f38d0070", "lon": -77.03500933333333}, {"is_disabled": 0, "type": "electric_scooter", "is_reserved": 0, "lat": 38.911950166666664, "rental_uris": {"ios": "https://dc.lft.to/lastmile_qr_scan", "android": "https://dc.lft.to/lastmile_qr_scan"}, "fusion_lon": 0.0, "fusion_lat": 0.0, "bike_id": "342d37ac479a5cc8a1529e18105afe5a", "name": "342d37ac479a5cc8a1529e18105afe5a", "lon": -77.00708483333334}, {"is_disabled": 0, "type": "electric_scooter", "is_reserved": 0, "lat": 38.9236865, "rental_uris": {"ios": "https://dc.lft.to/lastmile_qr_scan", "android": "https://dc.lft.to/lastmile_qr_scan"}, "fusion_lon": 0.0, "fusion_lat": 0.0, "bike_id": "c920a99bb79eeca8d2eeb8abe421b4ce", "name": "c920a99bb79eeca8d2eeb8abe421b4ce", "lon": -77.01820316666667}, {"is_disabled": 0, "type": "electric_scooter", "is_reserved": 0, "lat": 38.9001125, "rental_uris": {"ios": "https://dc.lft.to/lastmile_qr_scan", "android": "https://dc.lft.to/lastmile_qr_scan"}, "fusion_lon": 0.0, "fusion_lat": 0.0, "bike_id": "453cbe69e5280ce9ee92e138f39e6a0b", "name": "453cbe69e5280ce9ee92e138f39e6a0b", "lon": -77.00682616666667}, {"is_disabled": 0, "type": "electric_scooter", "is_reserved": 0, "lat": 38.887393, "rental_uris": {"ios": "https://dc.lft.to/lastmile_qr_scan", "android": "https://dc.lft.to/lastmile_qr_scan"}, "fusion_lon": 0.0, "fusion_lat": 0.0, "bike_id": "f98eb5833c77ddef3654ff64ef378617", "name": "f98eb5833c77ddef3654ff64ef378617", "lon": -77.01534466666666}, {"is_disabled": 0, "type": "electric_scooter", "is_reserved": 0, "lat": 38.89822916666667, "rental_uris": {"ios": "https://dc.lft.to/lastmile_qr_scan", "android": "https://dc.lft.to/lastmile_qr_scan"}, "fusion_lon": 0.0, "fusion_lat": 0.0, "bike_id": "8652cac44f34da38e9fbaa2384256bc5", "name": "8652cac44f34da38e9fbaa2384256bc5", "lon": -77.0294055}, {"is_disabled": 0, "type": "electric_scooter", "is_reserved": 0, "lat": 38.919827166666664, "rental_uris": {"ios": "https://dc.lft.to/lastmile_qr_scan", "android": "https://dc.lft.to/lastmile_qr_scan"}, "fusion_lon": 0.0, "fusion_lat": 0.0, "bike_id": "d4c9d22fadfba088ffe9ef469cb69a32", "name": "d4c9d22fadfba088ffe9ef469cb69a32", "lon": -77.021899}, {"is_disabled": 0, "type": "electric_scooter", "is_reserved": 0, "lat": 38.9340755, "rental_uris": {"ios": "https://dc.lft.to/lastmile_qr_scan", "android": "https://dc.lft.to/lastmile_qr_scan"}, "fusion_lon": 0.0, "fusion_lat": 0.0, "bike_id": "e84e2507d2c11f78b3751216c5477169", "name": "e84e2507d2c11f78b3751216c5477169", "lon": -77.045572}, {"is_disabled": 0, "type": "electric_scooter", "is_reserved": 0, "lat": 38.9174655, "rental_uris": {"ios": "https://dc.lft.to/lastmile_qr_scan", "android": "https://dc.lft.to/lastmile_qr_scan"}, "fusion_lon": 0.0, "fusion_lat": 0.0, "bike_id": "c8b54ba6f683e9efa3bbd86ecf743749", "name": "c8b54ba6f683e9efa3bbd86ecf743749", "lon": -77.02377116666666}, {"is_disabled": 0, "type": "electric_scooter", "is_reserved": 0, "lat": 38.914142, "rental_uris": {"ios": "https://dc.lft.to/lastmile_qr_scan", "android": "https://dc.lft.to/lastmile_qr_scan"}, "fusion_lon": 0.0, "fusion_lat": 0.0, "bike_id": "8f2bf68e198c666f8810bc2a5d38e339", "name": "8f2bf68e198c666f8810bc2a5d38e339", "lon": -77.04573766666667}, {"is_disabled": 0, "type": "electric_scooter", "is_reserved": 0, "lat": 38.916826, "rental_uris": {"ios": "https://dc.lft.to/lastmile_qr_scan", "android": "https://dc.lft.to/lastmile_qr_scan"}, "fusion_lon": 0.0, "fusion_lat": 0.0, "bike_id": "1e7a6172f614cd9b6212f9638089046f", "name": "1e7a6172f614cd9b6212f9638089046f", "lon": -77.037716}, {"is_disabled": 0, "type": "electric_scooter", "is_reserved": 0, "lat": 38.90557, "rental_uris": {"ios": "https://dc.lft.to/lastmile_qr_scan", "android": "https://dc.lft.to/lastmile_qr_scan"}, "fusion_lon": 0.0, "fusion_lat": 0.0, "bike_id": "760797e30732d018585ccc616be8d18b", "name": "760797e30732d018585ccc616be8d18b", "lon": -77.0418955}, {"is_disabled": 0, "type": "electric_scooter", "is_reserved": 0, "lat": 38.936047, "rental_uris": {"ios": "https://dc.lft.to/lastmile_qr_scan", "android": "https://dc.lft.to/lastmile_qr_scan"}, "fusion_lon": 0.0, "fusion_lat": 0.0, "bike_id": "59c63051000cadbc83f90149705bd993", "name": "59c63051000cadbc83f90149705bd993", "lon": -77.05862583333334}, {"is_disabled": 0, "type": "electric_scooter", "is_reserved": 0, "lat": 38.90373733333333, "rental_uris": {"ios": "https://dc.lft.to/lastmile_qr_scan", "android": "https://dc.lft.to/lastmile_qr_scan"}, "fusion_lon": 0.0, "fusion_lat": 0.0, "bike_id": "2688d2cf960f06b7fd64eecd62878c58", "name": "2688d2cf960f06b7fd64eecd62878c58", "lon": -77.04500283333333}, {"is_disabled": 0, "type": "electric_scooter", "is_reserved": 0, "lat": 38.924836166666665, "rental_uris": {"ios": "https://dc.lft.to/lastmile_qr_scan", "android": "https://dc.lft.to/lastmile_qr_scan"}, "fusion_lon": 0.0, "fusion_lat": 0.0, "bike_id": "cd07599f7b39d1ccb003d8cb0bf13c28", "name": "cd07599f7b39d1ccb003d8cb0bf13c28", "lon": -77.00890183333334}, {"is_disabled": 0, "type": "electric_scooter", "is_reserved": 0, "lat": 38.916872, "rental_uris": {"ios": "https://dc.lft.to/lastmile_qr_scan", "android": "https://dc.lft.to/lastmile_qr_scan"}, "fusion_lon": 0.0, "fusion_lat": 0.0, "bike_id": "e18373e5849f3d9ded97b2d30b5f058a", "name": "e18373e5849f3d9ded97b2d30b5f058a", "lon": -77.03860516666667}, {"is_disabled": 0, "type": "electric_bike", "is_reserved": 0, "lat": 38.86598266666667, "rental_uris": {"ios": "https://dc.lft.to/lastmile_qr_scan", "android": "https://dc.lft.to/lastmile_qr_scan"}, "fusion_lon": 0.0, "fusion_lat": 0.0, "bike_id": "a6af8ac5454b0b9fefd3e7e6975e1e91", "name": "a6af8ac5454b0b9fefd3e7e6975e1e91", "lon": -76.98783766666666}, {"is_disabled": 0, "type": "electric_scooter", "is_reserved": 0, "lat": 38.929501, "rental_uris": {"ios": "https://dc.lft.to/lastmile_qr_scan", "android": "https://dc.lft.to/lastmile_qr_scan"}, "fusion_lon": 0.0, "fusion_lat": 0.0, "bike_id": "4a9e04c5d532ed3f995afe8348eda9fc", "name": "4a9e04c5d532ed3f995afe8348eda9fc", "lon": -77.00523933333334}, {"is_disabled": 0, "type": "electric_scooter", "is_reserved": 0, "lat": 38.881431666666664, "rental_uris": {"ios": "https://dc.lft.to/lastmile_qr_scan", "android": "https://dc.lft.to/lastmile_qr_scan"}, "fusion_lon": 0.0, "fusion_lat": 0.0, "bike_id": "2c209c38e9776a9439e26ded0c07c4d1", "name": "2c209c38e9776a9439e26ded0c07c4d1", "lon": -77.01651666666666}, {"is_disabled": 0, "type": "electric_scooter", "is_reserved": 0, "lat": 38.90602716666667, "rental_uris": {"ios": "https://dc.lft.to/lastmile_qr_scan", "android": "https://dc.lft.to/lastmile_qr_scan"}, "fusion_lon": 0.0, "fusion_lat": 0.0, "bike_id": "6f96077483251def0e03eba776b83945", "name": "6f96077483251def0e03eba776b83945", "lon": -77.03956766666667}, {"is_disabled": 0, "type": "electric_scooter", "is_reserved": 0, "lat": 38.91018716666667, "rental_uris": {"ios": "https://dc.lft.to/lastmile_qr_scan", "android": "https://dc.lft.to/lastmile_qr_scan"}, "fusion_lon": 0.0, "fusion_lat": 0.0, "bike_id": "3a2ceeb75be95b2b1c7d521735fa32df", "name": "3a2ceeb75be95b2b1c7d521735fa32df", "lon": -77.01668966666666}, {"is_disabled": 0, "type": "electric_scooter", "is_reserved": 0, "lat": 38.9083075, "rental_uris": {"ios": "https://dc.lft.to/lastmile_qr_scan", "android": "https://dc.lft.to/lastmile_qr_scan"}, "fusion_lon": 0.0, "fusion_lat": 0.0, "bike_id": "d75189f46a056a188d66a6b573ea65ad", "name": "d75189f46a056a188d66a6b573ea65ad", "lon": -77.01803516666666}, {"is_disabled": 0, "type": "electric_scooter", "is_reserved": 0, "lat": 38.926314166666664, "rental_uris": {"ios": "https://dc.lft.to/lastmile_qr_scan", "android": "https://dc.lft.to/lastmile_qr_scan"}, "fusion_lon": 0.0, "fusion_lat": 0.0, "bike_id": "0835ab920cbc1e5ac644641e8a0024b3", "name": "0835ab920cbc1e5ac644641e8a0024b3", "lon": -77.03506633333333}, {"is_disabled": 0, "type": "electric_scooter", "is_reserved": 0, "lat": 38.9264485, "rental_uris": {"ios": "https://dc.lft.to/lastmile_qr_scan", "android": "https://dc.lft.to/lastmile_qr_scan"}, "fusion_lon": 0.0, "fusion_lat": 0.0, "bike_id": "992daaa9f7d42b21af3b319ed27e8992", "name": "992daaa9f7d42b21af3b319ed27e8992", "lon": -77.03703883333333}, {"is_disabled": 0, "type": "electric_scooter", "is_reserved": 0, "lat": 38.883532333333335, "rental_uris": {"ios": "https://dc.lft.to/lastmile_qr_scan", "android": "https://dc.lft.to/lastmile_qr_scan"}, "fusion_lon": 0.0, "fusion_lat": 0.0, "bike_id": "977b9a715bb2cc60b75b3fbb914705bd", "name": "977b9a715bb2cc60b75b3fbb914705bd", "lon": -77.02592283333334}, {"is_disabled": 0, "type": "electric_scooter", "is_reserved": 0, "lat": 38.92565283333333, "rental_uris": {"ios": "https://dc.lft.to/lastmile_qr_scan", "android": "https://dc.lft.to/lastmile_qr_scan"}, "fusion_lon": 0.0, "fusion_lat": 0.0, "bike_id": "624c3e20360b6905c80a8068eb0c1f1d", "name": "624c3e20360b6905c80a8068eb0c1f1d", "lon": -76.9964005}, {"is_disabled": 0, "type": "electric_scooter", "is_reserved": 0, "lat": 38.90754583333333, "rental_uris": {"ios": "https://dc.lft.to/lastmile_qr_scan", "android": "https://dc.lft.to/lastmile_qr_scan"}, "fusion_lon": 0.0, "fusion_lat": 0.0, "bike_id": "7e7a0966fd6a66bcfb9f32b882e8225f", "name": "7e7a0966fd6a66bcfb9f32b882e8225f", "lon": -77.0347075}, {"is_disabled": 0, "type": "electric_scooter", "is_reserved": 0, "lat": 38.92335633333333, "rental_uris": {"ios": "https://dc.lft.to/lastmile_qr_scan", "android": "https://dc.lft.to/lastmile_qr_scan"}, "fusion_lon": 0.0, "fusion_lat": 0.0, "bike_id": "bbffeb5a5d825600eec2c9b23def221b", "name": "bbffeb5a5d825600eec2c9b23def221b", "lon": -77.02305}, {"is_disabled": 0, "type": "electric_scooter", "is_reserved": 0, "lat": 38.918175166666664, "rental_uris": {"ios": "https://dc.lft.to/lastmile_qr_scan", "android": "https://dc.lft.to/lastmile_qr_scan"}, "fusion_lon": 0.0, "fusion_lat": 0.0, "bike_id": "bbd52f760eab33dee0048a8e6adbe62e", "name": "bbd52f760eab33dee0048a8e6adbe62e", "lon": -77.03199666666667}, {"is_disabled": 0, "type": "electric_scooter", "is_reserved": 0, "lat": 38.905677833333336, "rental_uris": {"ios": "https://dc.lft.to/lastmile_qr_scan", "android": "https://dc.lft.to/lastmile_qr_scan"}, "fusion_lon": 0.0, "fusion_lat": 0.0, "bike_id": "9dd2852346096bea33cab64b780e2cb6", "name": "9dd2852346096bea33cab64b780e2cb6", "lon": -77.0059765}, {"is_disabled": 0, "type": "electric_scooter", "is_reserved": 0, "lat": 38.91723533333333, "rental_uris": {"ios": "https://dc.lft.to/lastmile_qr_scan", "android": "https://dc.lft.to/lastmile_qr_scan"}, "fusion_lon": 0.0, "fusion_lat": 0.0, "bike_id": "ae851be4732d8b9289364cae77ed22fd", "name": "ae851be4732d8b9289364cae77ed22fd", "lon": -77.04600433333333}, {"is_disabled": 0, "type": "electric_scooter", "is_reserved": 0, "lat": 38.926144666666666, "rental_uris": {"ios": "https://dc.lft.to/lastmile_qr_scan", "android": "https://dc.lft.to/lastmile_qr_scan"}, "fusion_lon": 0.0, "fusion_lat": 0.0, "bike_id": "4c224698fdc1694c17be61b85e04508f", "name": "4c224698fdc1694c17be61b85e04508f", "lon": -77.02160766666667}, {"is_disabled": 0, "type": "electric_scooter", "is_reserved": 0, "lat": 38.922564, "rental_uris": {"ios": "https://dc.lft.to/lastmile_qr_scan", "android": "https://dc.lft.to/lastmile_qr_scan"}, "fusion_lon": 0.0, "fusion_lat": 0.0, "bike_id": "78578604040ea982a20a358510aaf6e8", "name": "78578604040ea982a20a358510aaf6e8", "lon": -77.01830083333333}, {"is_disabled": 0, "type": "electric_bike", "is_reserved": 0, "lat": 38.901002, "rental_uris": {"ios": "https://dc.lft.to/lastmile_qr_scan", "android": "https://dc.lft.to/lastmile_qr_scan"}, "fusion_lon": 0.0, "fusion_lat": 0.0, "bike_id": "86fe44412d2e8c6323361d7679d2614d", "name": "86fe44412d2e8c6323361d7679d2614d", "lon": -77.048755}, {"is_disabled": 0, "type": "electric_bike", "is_reserved": 0, "lat": 38.840875833333335, "rental_uris": {"ios": "https://dc.lft.to/lastmile_qr_scan", "android": "https://dc.lft.to/lastmile_qr_scan"}, "fusion_lon": 0.0, "fusion_lat": 0.0, "bike_id": "6a5466b031353f4bc47257c36ba3162f", "name": "6a5466b031353f4bc47257c36ba3162f", "lon": -77.0770565}, {"is_disabled": 0, "type": "electric_scooter", "is_reserved": 0, "lat": 38.92334366666667, "rental_uris": {"ios": "https://dc.lft.to/lastmile_qr_scan", "android": "https://dc.lft.to/lastmile_qr_scan"}, "fusion_lon": 0.0, "fusion_lat": 0.0, "bike_id": "e511ff5055413d7272aa1c394a5ec2d6", "name": "e511ff5055413d7272aa1c394a5ec2d6", "lon": -77.02964466666667}, {"is_disabled": 0, "type": "electric_scooter", "is_reserved": 0, "lat": 38.9096275, "rental_uris": {"ios": "https://dc.lft.to/lastmile_qr_scan", "android": "https://dc.lft.to/lastmile_qr_scan"}, "fusion_lon": 0.0, "fusion_lat": 0.0, "bike_id": "cb6a253fefb42beada53a814a218a020", "name": "cb6a253fefb42beada53a814a218a020", "lon": -77.0253125}, {"is_disabled": 0, "type": "electric_scooter", "is_reserved": 0, "lat": 38.884055000000004, "rental_uris": {"ios": "https://dc.lft.to/lastmile_qr_scan", "android": "https://dc.lft.to/lastmile_qr_scan"}, "fusion_lon": 0.0, "fusion_lat": 0.0, "bike_id": "c646abf1192ffaf7132bb4df647fbc62", "name": "c646abf1192ffaf7132bb4df647fbc62", "lon": -77.0151925}, {"is_disabled": 0, "type": "electric_scooter", "is_reserved": 0, "lat": 38.901877999999996, "rental_uris": {"ios": "https://dc.lft.to/lastmile_qr_scan", "android": "https://dc.lft.to/lastmile_qr_scan"}, "fusion_lon": 0.0, "fusion_lat": 0.0, "bike_id": "0e4098bdf560fc8a4f6df27246e5a7ea", "name": "0e4098bdf560fc8a4f6df27246e5a7ea", "lon": -76.99026383333333}, {"is_disabled": 0, "type": "electric_scooter", "is_reserved": 0, "lat": 38.892242333333336, "rental_uris": {"ios": "https://dc.lft.to/lastmile_qr_scan", "android": "https://dc.lft.to/lastmile_qr_scan"}, "fusion_lon": 0.0, "fusion_lat": 0.0, "bike_id": "0952d8e4c16961626732114b1b13c2c9", "name": "0952d8e4c16961626732114b1b13c2c9", "lon": -77.04329783333333}, {"is_disabled": 0, "type": "electric_scooter", "is_reserved": 0, "lat": 38.89272283333333, "rental_uris": {"ios": "https://dc.lft.to/lastmile_qr_scan", "android": "https://dc.lft.to/lastmile_qr_scan"}, "fusion_lon": 0.0, "fusion_lat": 0.0, "bike_id": "dc78eb54e30839def01e43e4823e0ce6", "name": "dc78eb54e30839def01e43e4823e0ce6", "lon": -77.0203845}, {"is_disabled": 0, "type": "electric_scooter", "is_reserved": 0, "lat": 38.90556683333333, "rental_uris": {"ios": "https://dc.lft.to/lastmile_qr_scan", "android": "https://dc.lft.to/lastmile_qr_scan"}, "fusion_lon": 0.0, "fusion_lat": 0.0, "bike_id": "607f0aecf19fc47405138f9ea6f385c5", "name": "607f0aecf19fc47405138f9ea6f385c5", "lon": -77.04185933333333}, {"is_disabled": 0, "type": "electric_scooter", "is_reserved": 0, "lat": 38.91815733333333, "rental_uris": {"ios": "https://dc.lft.to/lastmile_qr_scan", "android": "https://dc.lft.to/lastmile_qr_scan"}, "fusion_lon": 0.0, "fusion_lat": 0.0, "bike_id": "a848fb0d96fd798a71afc2af4ae965fe", "name": "a848fb0d96fd798a71afc2af4ae965fe", "lon": -77.02475716666666}, {"is_disabled": 0, "type": "electric_scooter", "is_reserved": 0, "lat": 38.9077875, "rental_uris": {"ios": "https://dc.lft.to/lastmile_qr_scan", "android": "https://dc.lft.to/lastmile_qr_scan"}, "fusion_lon": 0.0, "fusion_lat": 0.0, "bike_id": "0cb0c6f47e0c38462e229f7cc531c423", "name": "0cb0c6f47e0c38462e229f7cc531c423", "lon": -77.01778066666667}, {"is_disabled": 0, "type": "electric_scooter", "is_reserved": 0, "lat": 38.908387166666664, "rental_uris": {"ios": "https://dc.lft.to/lastmile_qr_scan", "android": "https://dc.lft.to/lastmile_qr_scan"}, "fusion_lon": 0.0, "fusion_lat": 0.0, "bike_id": "a2a0ad924764758e6c9d006649bf7322", "name": "a2a0ad924764758e6c9d006649bf7322", "lon": -77.03568733333333}, {"is_disabled": 0, "type": "electric_scooter", "is_reserved": 0, "lat": 38.92513866666667, "rental_uris": {"ios": "https://dc.lft.to/lastmile_qr_scan", "android": "https://dc.lft.to/lastmile_qr_scan"}, "fusion_lon": 0.0, "fusion_lat": 0.0, "bike_id": "13f369bf8b84ab2fd7cd5da3161d93d1", "name": "13f369bf8b84ab2fd7cd5da3161d93d1", "lon": -77.023652}, {"is_disabled": 0, "type": "electric_scooter", "is_reserved": 0, "lat": 38.890170166666664, "rental_uris": {"ios": "https://dc.lft.to/lastmile_qr_scan", "android": "https://dc.lft.to/lastmile_qr_scan"}, "fusion_lon": 0.0, "fusion_lat": 0.0, "bike_id": "20f7dab223ebbc2a7b15d06b8ad7e746", "name": "20f7dab223ebbc2a7b15d06b8ad7e746", "lon": -76.93737}, {"is_disabled": 0, "type": "electric_scooter", "is_reserved": 0, "lat": 38.8754625, "rental_uris": {"ios": "https://dc.lft.to/lastmile_qr_scan", "android": "https://dc.lft.to/lastmile_qr_scan"}, "fusion_lon": 0.0, "fusion_lat": 0.0, "bike_id": "e04ff98f5c3d319bc9d573206680a0e8", "name": "e04ff98f5c3d319bc9d573206680a0e8", "lon": -77.00539483333333}, {"is_disabled": 0, "type": "electric_scooter", "is_reserved": 0, "lat": 38.8850135, "rental_uris": {"ios": "https://dc.lft.to/lastmile_qr_scan", "android": "https://dc.lft.to/lastmile_qr_scan"}, "fusion_lon": 0.0, "fusion_lat": 0.0, "bike_id": "a8652995de7707def681010fa895d127", "name": "a8652995de7707def681010fa895d127", "lon": -77.00571816666667}, {"is_disabled": 0, "type": "electric_scooter", "is_reserved": 0, "lat": 38.8651485, "rental_uris": {"ios": "https://dc.lft.to/lastmile_qr_scan", "android": "https://dc.lft.to/lastmile_qr_scan"}, "fusion_lon": 0.0, "fusion_lat": 0.0, "bike_id": "2505602e7d24a4b5764b9b1d18cfae7f", "name": "2505602e7d24a4b5764b9b1d18cfae7f", "lon": -76.9898075}, {"is_disabled": 0, "type": "electric_scooter", "is_reserved": 0, "lat": 38.90519233333333, "rental_uris": {"ios": "https://dc.lft.to/lastmile_qr_scan", "android": "https://dc.lft.to/lastmile_qr_scan"}, "fusion_lon": 0.0, "fusion_lat": 0.0, "bike_id": "3ad0c753ce1a9615da9271eea8ed5db9", "name": "3ad0c753ce1a9615da9271eea8ed5db9", "lon": -77.00135166666666}, {"is_disabled": 0, "type": "electric_scooter", "is_reserved": 0, "lat": 38.90739933333333, "rental_uris": {"ios": "https://dc.lft.to/lastmile_qr_scan", "android": "https://dc.lft.to/lastmile_qr_scan"}, "fusion_lon": 0.0, "fusion_lat": 0.0, "bike_id": "7378e4390df77fb4c56af77ec1c9705e", "name": "7378e4390df77fb4c56af77ec1c9705e", "lon": -76.95186783333334}, {"is_disabled": 0, "type": "electric_bike", "is_reserved": 0, "lat": 38.85566216666667, "rental_uris": {"ios": "https://dc.lft.to/lastmile_qr_scan", "android": "https://dc.lft.to/lastmile_qr_scan"}, "fusion_lon": 0.0, "fusion_lat": 0.0, "bike_id": "aabe0eb2b00d116f7993d93dcc59bd03", "name": "aabe0eb2b00d116f7993d93dcc59bd03", "lon": -77.0818795}, {"is_disabled": 0, "type": "electric_scooter", "is_reserved": 0, "lat": 38.9206585, "rental_uris": {"ios": "https://dc.lft.to/lastmile_qr_scan", "android": "https://dc.lft.to/lastmile_qr_scan"}, "fusion_lon": 0.0, "fusion_lat": 0.0, "bike_id": "18a44ef7bb6a47a4a7fcf0c69fe5f67e", "name": "18a44ef7bb6a47a4a7fcf0c69fe5f67e", "lon": -77.04400833333334}, {"is_disabled": 0, "type": "electric_scooter", "is_reserved": 0, "lat": 38.90333, "rental_uris": {"ios": "https://dc.lft.to/lastmile_qr_scan", "android": "https://dc.lft.to/lastmile_qr_scan"}, "fusion_lon": 0.0, "fusion_lat": 0.0, "bike_id": "7f985e1f707eb9f0fd917edd5216081d", "name": "7f985e1f707eb9f0fd917edd5216081d", "lon": -77.0432415}, {"is_disabled": 0, "type": "electric_scooter", "is_reserved": 0, "lat": 38.9086425, "rental_uris": {"ios": "https://dc.lft.to/lastmile_qr_scan", "android": "https://dc.lft.to/lastmile_qr_scan"}, "fusion_lon": 0.0, "fusion_lat": 0.0, "bike_id": "88eca2dd200e21af97e3d1fe1f479c04", "name": "88eca2dd200e21af97e3d1fe1f479c04", "lon": -77.04486466666667}, {"is_disabled": 0, "type": "electric_scooter", "is_reserved": 0, "lat": 38.9101585, "rental_uris": {"ios": "https://dc.lft.to/lastmile_qr_scan", "android": "https://dc.lft.to/lastmile_qr_scan"}, "fusion_lon": 0.0, "fusion_lat": 0.0, "bike_id": "fa9c671906d9a58847b04f69e27135e1", "name": "fa9c671906d9a58847b04f69e27135e1", "lon": -77.038462}, {"is_disabled": 0, "type": "electric_scooter", "is_reserved": 0, "lat": 38.92218833333333, "rental_uris": {"ios": "https://dc.lft.to/lastmile_qr_scan", "android": "https://dc.lft.to/lastmile_qr_scan"}, "fusion_lon": 0.0, "fusion_lat": 0.0, "bike_id": "a5e52a4bf96d60a40f1c71504a27796c", "name": "a5e52a4bf96d60a40f1c71504a27796c", "lon": -77.0352945}, {"is_disabled": 0, "type": "electric_scooter", "is_reserved": 0, "lat": 38.8922165, "rental_uris": {"ios": "https://dc.lft.to/lastmile_qr_scan", "android": "https://dc.lft.to/lastmile_qr_scan"}, "fusion_lon": 0.0, "fusion_lat": 0.0, "bike_id": "90df5d6534c08edd3615964543bfc1b7", "name": "90df5d6534c08edd3615964543bfc1b7", "lon": -77.04515533333333}, {"is_disabled": 0, "type": "electric_scooter", "is_reserved": 0, "lat": 38.89345766666667, "rental_uris": {"ios": "https://dc.lft.to/lastmile_qr_scan", "android": "https://dc.lft.to/lastmile_qr_scan"}, "fusion_lon": 0.0, "fusion_lat": 0.0, "bike_id": "88d2cd08da2fe29c2ce82c439a62ff0e", "name": "88d2cd08da2fe29c2ce82c439a62ff0e", "lon": -77.00203766666667}, {"is_disabled": 0, "type": "electric_bike", "is_reserved": 0, "lat": 38.8960645, "rental_uris": {"ios": "https://dc.lft.to/lastmile_qr_scan", "android": "https://dc.lft.to/lastmile_qr_scan"}, "fusion_lon": 0.0, "fusion_lat": 0.0, "bike_id": "82cefcfc95b100af6d9784055caec735", "name": "82cefcfc95b100af6d9784055caec735", "lon": -77.022139}, {"is_disabled": 0, "type": "electric_scooter", "is_reserved": 0, "lat": 38.89693533333333, "rental_uris": {"ios": "https://dc.lft.to/lastmile_qr_scan", "android": "https://dc.lft.to/lastmile_qr_scan"}, "fusion_lon": 0.0, "fusion_lat": 0.0, "bike_id": "2dd7c422a89c074e0d414c065bd9ca0c", "name": "2dd7c422a89c074e0d414c065bd9ca0c", "lon": -77.00501816666667}, {"is_disabled": 0, "type": "electric_bike", "is_reserved": 0, "lat": 38.85516716666667, "rental_uris": {"ios": "https://dc.lft.to/lastmile_qr_scan", "android": "https://dc.lft.to/lastmile_qr_scan"}, "fusion_lon": 0.0, "fusion_lat": 0.0, "bike_id": "7aa0402bc3ca078f8efcbc951eeab864", "name": "7aa0402bc3ca078f8efcbc951eeab864", "lon": -77.12023316666667}, {"is_disabled": 0, "type": "electric_scooter", "is_reserved": 0, "lat": 38.893595166666664, "rental_uris": {"ios": "https://dc.lft.to/lastmile_qr_scan", "android": "https://dc.lft.to/lastmile_qr_scan"}, "fusion_lon": 0.0, "fusion_lat": 0.0, "bike_id": "775e927d473d0307c1be5aaee947d4ab", "name": "775e927d473d0307c1be5aaee947d4ab", "lon": -77.041932}, {"is_disabled": 0, "type": "electric_scooter", "is_reserved": 0, "lat": 38.9140255, "rental_uris": {"ios": "https://dc.lft.to/lastmile_qr_scan", "android": "https://dc.lft.to/lastmile_qr_scan"}, "fusion_lon": 0.0, "fusion_lat": 0.0, "bike_id": "22f36ae21f41ae72e3128af8ce031917", "name": "22f36ae21f41ae72e3128af8ce031917", "lon": -77.032285}, {"is_disabled": 0, "type": "electric_scooter", "is_reserved": 0, "lat": 38.9024635, "rental_uris": {"ios": "https://dc.lft.to/lastmile_qr_scan", "android": "https://dc.lft.to/lastmile_qr_scan"}, "fusion_lon": 0.0, "fusion_lat": 0.0, "bike_id": "8f9dfbed6aea5160968d2662fbf94f92", "name": "8f9dfbed6aea5160968d2662fbf94f92", "lon": -77.04518833333333}, {"is_disabled": 0, "type": "electric_scooter", "is_reserved": 0, "lat": 38.92238783333333, "rental_uris": {"ios": "https://dc.lft.to/lastmile_qr_scan", "android": "https://dc.lft.to/lastmile_qr_scan"}, "fusion_lon": 0.0, "fusion_lat": 0.0, "bike_id": "166013d679d9eccc641ee732d5429261", "name": "166013d679d9eccc641ee732d5429261", "lon": -77.0342705}, {"is_disabled": 0, "type": "electric_scooter", "is_reserved": 0, "lat": 38.897550833333334, "rental_uris": {"ios": "https://dc.lft.to/lastmile_qr_scan", "android": "https://dc.lft.to/lastmile_qr_scan"}, "fusion_lon": 0.0, "fusion_lat": 0.0, "bike_id": "abf2ae1dd332adcdf2b8fab10ff9bea7", "name": "abf2ae1dd332adcdf2b8fab10ff9bea7", "lon": -76.94183616666666}, {"is_disabled": 0, "type": "electric_scooter", "is_reserved": 0, "lat": 38.908693, "rental_uris": {"ios": "https://dc.lft.to/lastmile_qr_scan", "android": "https://dc.lft.to/lastmile_qr_scan"}, "fusion_lon": 0.0, "fusion_lat": 0.0, "bike_id": "9541c7a3cd999e0195b5087136e56be4", "name": "9541c7a3cd999e0195b5087136e56be4", "lon": -77.0270375}, {"is_disabled": 0, "type": "electric_scooter", "is_reserved": 0, "lat": 38.9050485, "rental_uris": {"ios": "https://dc.lft.to/lastmile_qr_scan", "android": "https://dc.lft.to/lastmile_qr_scan"}, "fusion_lon": 0.0, "fusion_lat": 0.0, "bike_id": "5e555610cd823b39c5920eeedea66189", "name": "5e555610cd823b39c5920eeedea66189", "lon": -77.02946733333333}, {"is_disabled": 0, "type": "electric_scooter", "is_reserved": 0, "lat": 38.90368266666667, "rental_uris": {"ios": "https://dc.lft.to/lastmile_qr_scan", "android": "https://dc.lft.to/lastmile_qr_scan"}, "fusion_lon": 0.0, "fusion_lat": 0.0, "bike_id": "ba14365f1eaac75d633970cfd48eca0c", "name": "ba14365f1eaac75d633970cfd48eca0c", "lon": -77.04017466666667}, {"is_disabled": 0, "type": "electric_scooter", "is_reserved": 0, "lat": 38.905753, "rental_uris": {"ios": "https://dc.lft.to/lastmile_qr_scan", "android": "https://dc.lft.to/lastmile_qr_scan"}, "fusion_lon": 0.0, "fusion_lat": 0.0, "bike_id": "1c5e87c5f825534239b299f791d32647", "name": "1c5e87c5f825534239b299f791d32647", "lon": -77.02180783333333}, {"is_disabled": 0, "type": "electric_scooter", "is_reserved": 0, "lat": 38.900239666666664, "rental_uris": {"ios": "https://dc.lft.to/lastmile_qr_scan", "android": "https://dc.lft.to/lastmile_qr_scan"}, "fusion_lon": 0.0, "fusion_lat": 0.0, "bike_id": "6afd82f9846f6e793dcfab1c637e240b", "name": "6afd82f9846f6e793dcfab1c637e240b", "lon": -76.98837216666666}, {"is_disabled": 0, "type": "electric_scooter", "is_reserved": 0, "lat": 38.902099166666666, "rental_uris": {"ios": "https://dc.lft.to/lastmile_qr_scan", "android": "https://dc.lft.to/lastmile_qr_scan"}, "fusion_lon": 0.0, "fusion_lat": 0.0, "bike_id": "3c50c708087d9024d8576ec89f1a2816", "name": "3c50c708087d9024d8576ec89f1a2816", "lon": -77.04663616666667}, {"is_disabled": 0, "type": "electric_scooter", "is_reserved": 0, "lat": 38.90378616666667, "rental_uris": {"ios": "https://dc.lft.to/lastmile_qr_scan", "android": "https://dc.lft.to/lastmile_qr_scan"}, "fusion_lon": 0.0, "fusion_lat": 0.0, "bike_id": "0b279187c421795f927bbc467575d832", "name": "0b279187c421795f927bbc467575d832", "lon": -77.03868883333334}, {"is_disabled": 0, "type": "electric_scooter", "is_reserved": 0, "lat": 38.9044985, "rental_uris": {"ios": "https://dc.lft.to/lastmile_qr_scan", "android": "https://dc.lft.to/lastmile_qr_scan"}, "fusion_lon": 0.0, "fusion_lat": 0.0, "bike_id": "75236e62d5bc5879d97abfe77cd84f67", "name": "75236e62d5bc5879d97abfe77cd84f67", "lon": -76.97428266666667}, {"is_disabled": 0, "type": "electric_bike", "is_reserved": 0, "lat": 39.030526333333334, "rental_uris": {"ios": "https://dc.lft.to/lastmile_qr_scan", "android": "https://dc.lft.to/lastmile_qr_scan"}, "fusion_lon": 0.0, "fusion_lat": 0.0, "bike_id": "90b306181dacaf0487935c8b379d447d", "name": "90b306181dacaf0487935c8b379d447d", "lon": -77.09487516666667}, {"is_disabled": 0, "type": "electric_scooter", "is_reserved": 0, "lat": 38.9247675, "rental_uris": {"ios": "https://dc.lft.to/lastmile_qr_scan", "android": "https://dc.lft.to/lastmile_qr_scan"}, "fusion_lon": 0.0, "fusion_lat": 0.0, "bike_id": "376b3a0446c289f21fd4ef644495d0aa", "name": "376b3a0446c289f21fd4ef644495d0aa", "lon": -77.02337066666666}, {"is_disabled": 0, "type": "electric_scooter", "is_reserved": 0, "lat": 38.90999583333333, "rental_uris": {"ios": "https://dc.lft.to/lastmile_qr_scan", "android": "https://dc.lft.to/lastmile_qr_scan"}, "fusion_lon": 0.0, "fusion_lat": 0.0, "bike_id": "b4c72f02694eba38a6f84b3b3c830da6", "name": "b4c72f02694eba38a6f84b3b3c830da6", "lon": -77.0366785}, {"is_disabled": 0, "type": "electric_scooter", "is_reserved": 0, "lat": 38.914760333333334, "rental_uris": {"ios": "https://dc.lft.to/lastmile_qr_scan", "android": "https://dc.lft.to/lastmile_qr_scan"}, "fusion_lon": 0.0, "fusion_lat": 0.0, "bike_id": "150a87dbb95fd36d7b6fc599fcc8a3b3", "name": "150a87dbb95fd36d7b6fc599fcc8a3b3", "lon": -77.0321635}, {"is_disabled": 0, "type": "electric_scooter", "is_reserved": 0, "lat": 38.884911333333335, "rental_uris": {"ios": "https://dc.lft.to/lastmile_qr_scan", "android": "https://dc.lft.to/lastmile_qr_scan"}, "fusion_lon": 0.0, "fusion_lat": 0.0, "bike_id": "a89754e04d1df119c9579d83aa3efb4b", "name": "a89754e04d1df119c9579d83aa3efb4b", "lon": -77.019777}, {"is_disabled": 0, "type": "electric_scooter", "is_reserved": 0, "lat": 38.94823383333333, "rental_uris": {"ios": "https://dc.lft.to/lastmile_qr_scan", "android": "https://dc.lft.to/lastmile_qr_scan"}, "fusion_lon": 0.0, "fusion_lat": 0.0, "bike_id": "0ba3e8df6b18557a0a08001815cc5b67", "name": "0ba3e8df6b18557a0a08001815cc5b67", "lon": -76.99902066666667}, {"is_disabled": 0, "type": "electric_scooter", "is_reserved": 0, "lat": 38.927824333333334, "rental_uris": {"ios": "https://dc.lft.to/lastmile_qr_scan", "android": "https://dc.lft.to/lastmile_qr_scan"}, "fusion_lon": 0.0, "fusion_lat": 0.0, "bike_id": "4d39cf388653758d01c5ecb8dca31bd4", "name": "4d39cf388653758d01c5ecb8dca31bd4", "lon": -77.01407933333333}, {"is_disabled": 0, "type": "electric_scooter", "is_reserved": 0, "lat": 38.930136833333336, "rental_uris": {"ios": "https://dc.lft.to/lastmile_qr_scan", "android": "https://dc.lft.to/lastmile_qr_scan"}, "fusion_lon": 0.0, "fusion_lat": 0.0, "bike_id": "07615288653381e2cd1beb61a30ae73a", "name": "07615288653381e2cd1beb61a30ae73a", "lon": -77.05544783333333}, {"is_disabled": 0, "type": "electric_bike", "is_reserved": 0, "lat": 38.94474266666667, "rental_uris": {"ios": "https://dc.lft.to/lastmile_qr_scan", "android": "https://dc.lft.to/lastmile_qr_scan"}, "fusion_lon": 0.0, "fusion_lat": 0.0, "bike_id": "826a855ccd6c5264ccf8ce3dc85496b2", "name": "826a855ccd6c5264ccf8ce3dc85496b2", "lon": -76.98692183333333}, {"is_disabled": 0, "type": "electric_scooter", "is_reserved": 0, "lat": 38.897383, "rental_uris": {"ios": "https://dc.lft.to/lastmile_qr_scan", "android": "https://dc.lft.to/lastmile_qr_scan"}, "fusion_lon": 0.0, "fusion_lat": 0.0, "bike_id": "4c76cb43fffe0952453fc5c12c3313d4", "name": "4c76cb43fffe0952453fc5c12c3313d4", "lon": -77.02985516666666}, {"is_disabled": 0, "type": "electric_scooter", "is_reserved": 0, "lat": 38.90071016666667, "rental_uris": {"ios": "https://dc.lft.to/lastmile_qr_scan", "android": "https://dc.lft.to/lastmile_qr_scan"}, "fusion_lon": 0.0, "fusion_lat": 0.0, "bike_id": "e823b5a7ffe0866d253889b5bc2ff70b", "name": "e823b5a7ffe0866d253889b5bc2ff70b", "lon": -76.98715466666667}, {"is_disabled": 0, "type": "electric_scooter", "is_reserved": 0, "lat": 38.894966333333336, "rental_uris": {"ios": "https://dc.lft.to/lastmile_qr_scan", "android": "https://dc.lft.to/lastmile_qr_scan"}, "fusion_lon": 0.0, "fusion_lat": 0.0, "bike_id": "7a3f3e60115512e09cca1511c8b1bad4", "name": "7a3f3e60115512e09cca1511c8b1bad4", "lon": -76.94941783333333}, {"is_disabled": 0, "type": "electric_scooter", "is_reserved": 0, "lat": 38.903705, "rental_uris": {"ios": "https://dc.lft.to/lastmile_qr_scan", "android": "https://dc.lft.to/lastmile_qr_scan"}, "fusion_lon": 0.0, "fusion_lat": 0.0, "bike_id": "edbb8019f7a3909c6495e8e93f9a4895", "name": "edbb8019f7a3909c6495e8e93f9a4895", "lon": -77.04013483333334}, {"is_disabled": 0, "type": "electric_scooter", "is_reserved": 0, "lat": 38.94308633333333, "rental_uris": {"ios": "https://dc.lft.to/lastmile_qr_scan", "android": "https://dc.lft.to/lastmile_qr_scan"}, "fusion_lon": 0.0, "fusion_lat": 0.0, "bike_id": "52c4a8ecd83a146570da46fcf192ba12", "name": "52c4a8ecd83a146570da46fcf192ba12", "lon": -77.024999}, {"is_disabled": 0, "type": "electric_scooter", "is_reserved": 0, "lat": 38.905188833333334, "rental_uris": {"ios": "https://dc.lft.to/lastmile_qr_scan", "android": "https://dc.lft.to/lastmile_qr_scan"}, "fusion_lon": 0.0, "fusion_lat": 0.0, "bike_id": "cc7e355d6fe4707ee7fd37d9b00b337e", "name": "cc7e355d6fe4707ee7fd37d9b00b337e", "lon": -77.051049}, {"is_disabled": 0, "type": "electric_scooter", "is_reserved": 0, "lat": 38.927238, "rental_uris": {"ios": "https://dc.lft.to/lastmile_qr_scan", "android": "https://dc.lft.to/lastmile_qr_scan"}, "fusion_lon": 0.0, "fusion_lat": 0.0, "bike_id": "110ff65a6150b74fec50881f6cefbf07", "name": "110ff65a6150b74fec50881f6cefbf07", "lon": -77.03671566666667}, {"is_disabled": 0, "type": "electric_scooter", "is_reserved": 0, "lat": 38.900763166666664, "rental_uris": {"ios": "https://dc.lft.to/lastmile_qr_scan", "android": "https://dc.lft.to/lastmile_qr_scan"}, "fusion_lon": 0.0, "fusion_lat": 0.0, "bike_id": "157216868d72c691da30c6d4498e531c", "name": "157216868d72c691da30c6d4498e531c", "lon": -77.020898}, {"is_disabled": 0, "type": "electric_scooter", "is_reserved": 0, "lat": 38.90174716666667, "rental_uris": {"ios": "https://dc.lft.to/lastmile_qr_scan", "android": "https://dc.lft.to/lastmile_qr_scan"}, "fusion_lon": 0.0, "fusion_lat": 0.0, "bike_id": "8583bd98bcbab97eb98538686ae6025c", "name": "8583bd98bcbab97eb98538686ae6025c", "lon": -77.060082}, {"is_disabled": 0, "type": "electric_scooter", "is_reserved": 0, "lat": 38.905542833333335, "rental_uris": {"ios": "https://dc.lft.to/lastmile_qr_scan", "android": "https://dc.lft.to/lastmile_qr_scan"}, "fusion_lon": 0.0, "fusion_lat": 0.0, "bike_id": "b5cbe91626fd8eb186eed1dc79c183b1", "name": "b5cbe91626fd8eb186eed1dc79c183b1", "lon": -77.006116}, {"is_disabled": 0, "type": "electric_bike", "is_reserved": 0, "lat": 38.92461, "rental_uris": {"ios": "https://dc.lft.to/lastmile_qr_scan", "android": "https://dc.lft.to/lastmile_qr_scan"}, "fusion_lon": 0.0, "fusion_lat": 0.0, "bike_id": "b2fb3a93b50165954cb765fae5b70de7", "name": "b2fb3a93b50165954cb765fae5b70de7", "lon": -77.20837366666666}, {"is_disabled": 0, "type": "electric_scooter", "is_reserved": 0, "lat": 38.9357075, "rental_uris": {"ios": "https://dc.lft.to/lastmile_qr_scan", "android": "https://dc.lft.to/lastmile_qr_scan"}, "fusion_lon": 0.0, "fusion_lat": 0.0, "bike_id": "9dacb1c4ce5c59ff91950697219ea562", "name": "9dacb1c4ce5c59ff91950697219ea562", "lon": -77.03735633333334}, {"is_disabled": 0, "type": "electric_scooter", "is_reserved": 0, "lat": 38.91051316666667, "rental_uris": {"ios": "https://dc.lft.to/lastmile_qr_scan", "android": "https://dc.lft.to/lastmile_qr_scan"}, "fusion_lon": 0.0, "fusion_lat": 0.0, "bike_id": "bae3519976633e176856c84ef48c0954", "name": "bae3519976633e176856c84ef48c0954", "lon": -77.05848133333333}, {"is_disabled": 0, "type": "electric_scooter", "is_reserved": 0, "lat": 38.90715, "rental_uris": {"ios": "https://dc.lft.to/lastmile_qr_scan", "android": "https://dc.lft.to/lastmile_qr_scan"}, "fusion_lon": 0.0, "fusion_lat": 0.0, "bike_id": "6e6c202f1504ec0fd7fdd75f86ce896f", "name": "6e6c202f1504ec0fd7fdd75f86ce896f", "lon": -77.023921}, {"is_disabled": 0, "type": "electric_bike", "is_reserved": 0, "lat": 38.831558333333334, "rental_uris": {"ios": "https://dc.lft.to/lastmile_qr_scan", "android": "https://dc.lft.to/lastmile_qr_scan"}, "fusion_lon": 0.0, "fusion_lat": 0.0, "bike_id": "1b9bbc6d503673c82b59b0bad7db3a4c", "name": "1b9bbc6d503673c82b59b0bad7db3a4c", "lon": -77.11327066666666}, {"is_disabled": 0, "type": "electric_scooter", "is_reserved": 0, "lat": 38.907971833333335, "rental_uris": {"ios": "https://dc.lft.to/lastmile_qr_scan", "android": "https://dc.lft.to/lastmile_qr_scan"}, "fusion_lon": 0.0, "fusion_lat": 0.0, "bike_id": "781c70589cf63a24adb6e1f2f89147a8", "name": "781c70589cf63a24adb6e1f2f89147a8", "lon": -77.04839933333334}, {"is_disabled": 0, "type": "electric_scooter", "is_reserved": 0, "lat": 38.892224, "rental_uris": {"ios": "https://dc.lft.to/lastmile_qr_scan", "android": "https://dc.lft.to/lastmile_qr_scan"}, "fusion_lon": 0.0, "fusion_lat": 0.0, "bike_id": "3854fb142a717cf011bf8662a0792d16", "name": "3854fb142a717cf011bf8662a0792d16", "lon": -77.04865333333333}, {"is_disabled": 0, "type": "electric_scooter", "is_reserved": 0, "lat": 38.927939, "rental_uris": {"ios": "https://dc.lft.to/lastmile_qr_scan", "android": "https://dc.lft.to/lastmile_qr_scan"}, "fusion_lon": 0.0, "fusion_lat": 0.0, "bike_id": "4b5f0760c55d399e115a6f6044c926bc", "name": "4b5f0760c55d399e115a6f6044c926bc", "lon": -77.0141635}, {"is_disabled": 0, "type": "electric_scooter", "is_reserved": 0, "lat": 38.92265, "rental_uris": {"ios": "https://dc.lft.to/lastmile_qr_scan", "android": "https://dc.lft.to/lastmile_qr_scan"}, "fusion_lon": 0.0, "fusion_lat": 0.0, "bike_id": "490f076d9814ec5a51b11ba19cd4bfa5", "name": "490f076d9814ec5a51b11ba19cd4bfa5", "lon": -77.01889683333333}, {"is_disabled": 0, "type": "electric_scooter", "is_reserved": 0, "lat": 38.906496833333335, "rental_uris": {"ios": "https://dc.lft.to/lastmile_qr_scan", "android": "https://dc.lft.to/lastmile_qr_scan"}, "fusion_lon": 0.0, "fusion_lat": 0.0, "bike_id": "d9510e1012742c47caf95bc9620cc67b", "name": "d9510e1012742c47caf95bc9620cc67b", "lon": -77.034528}, {"is_disabled": 0, "type": "electric_scooter", "is_reserved": 0, "lat": 38.903073, "rental_uris": {"ios": "https://dc.lft.to/lastmile_qr_scan", "android": "https://dc.lft.to/lastmile_qr_scan"}, "fusion_lon": 0.0, "fusion_lat": 0.0, "bike_id": "71ce9d86c91ae078dd2ca3a85796e7fa", "name": "71ce9d86c91ae078dd2ca3a85796e7fa", "lon": -77.059048}, {"is_disabled": 0, "type": "electric_scooter", "is_reserved": 0, "lat": 38.923763666666666, "rental_uris": {"ios": "https://dc.lft.to/lastmile_qr_scan", "android": "https://dc.lft.to/lastmile_qr_scan"}, "fusion_lon": 0.0, "fusion_lat": 0.0, "bike_id": "648543344d17249d5e071d5361c00ee8", "name": "648543344d17249d5e071d5361c00ee8", "lon": -77.031335}, {"is_disabled": 0, "type": "electric_scooter", "is_reserved": 0, "lat": 38.92037766666667, "rental_uris": {"ios": "https://dc.lft.to/lastmile_qr_scan", "android": "https://dc.lft.to/lastmile_qr_scan"}, "fusion_lon": 0.0, "fusion_lat": 0.0, "bike_id": "3efea7b081421ff34ab743f7102a1e67", "name": "3efea7b081421ff34ab743f7102a1e67", "lon": -76.99925066666667}, {"is_disabled": 0, "type": "electric_scooter", "is_reserved": 0, "lat": 38.884998833333334, "rental_uris": {"ios": "https://dc.lft.to/lastmile_qr_scan", "android": "https://dc.lft.to/lastmile_qr_scan"}, "fusion_lon": 0.0, "fusion_lat": 0.0, "bike_id": "f7e8e238eab7f51a78359167683f4d3b", "name": "f7e8e238eab7f51a78359167683f4d3b", "lon": -77.00569816666666}, {"is_disabled": 0, "type": "electric_scooter", "is_reserved": 0, "lat": 38.897149, "rental_uris": {"ios": "https://dc.lft.to/lastmile_qr_scan", "android": "https://dc.lft.to/lastmile_qr_scan"}, "fusion_lon": 0.0, "fusion_lat": 0.0, "bike_id": "5afc5565c07aa0ca468b993f12b213c6", "name": "5afc5565c07aa0ca468b993f12b213c6", "lon": -77.00799233333333}, {"is_disabled": 0, "type": "electric_scooter", "is_reserved": 0, "lat": 38.89740466666667, "rental_uris": {"ios": "https://dc.lft.to/lastmile_qr_scan", "android": "https://dc.lft.to/lastmile_qr_scan"}, "fusion_lon": 0.0, "fusion_lat": 0.0, "bike_id": "5b29c59d9c3b367fc2340ff2d5df28fe", "name": "5b29c59d9c3b367fc2340ff2d5df28fe", "lon": -77.03074}, {"is_disabled": 0, "type": "electric_scooter", "is_reserved": 0, "lat": 38.918167333333336, "rental_uris": {"ios": "https://dc.lft.to/lastmile_qr_scan", "android": "https://dc.lft.to/lastmile_qr_scan"}, "fusion_lon": 0.0, "fusion_lat": 0.0, "bike_id": "dfb0c3718eb210c20c75bb082070a033", "name": "dfb0c3718eb210c20c75bb082070a033", "lon": -77.03448033333333}, {"is_disabled": 0, "type": "electric_scooter", "is_reserved": 0, "lat": 38.900393333333334, "rental_uris": {"ios": "https://dc.lft.to/lastmile_qr_scan", "android": "https://dc.lft.to/lastmile_qr_scan"}, "fusion_lon": 0.0, "fusion_lat": 0.0, "bike_id": "edec545356012ffc6606b36893aef1a6", "name": "edec545356012ffc6606b36893aef1a6", "lon": -77.04374333333334}, {"is_disabled": 0, "type": "electric_scooter", "is_reserved": 0, "lat": 38.917063166666665, "rental_uris": {"ios": "https://dc.lft.to/lastmile_qr_scan", "android": "https://dc.lft.to/lastmile_qr_scan"}, "fusion_lon": 0.0, "fusion_lat": 0.0, "bike_id": "641bed5ed986a1cf03789cebd6a9f3e5", "name": "641bed5ed986a1cf03789cebd6a9f3e5", "lon": -77.0096215}, {"is_disabled": 0, "type": "electric_bike", "is_reserved": 0, "lat": 38.853529, "rental_uris": {"ios": "https://dc.lft.to/lastmile_qr_scan", "android": "https://dc.lft.to/lastmile_qr_scan"}, "fusion_lon": 0.0, "fusion_lat": 0.0, "bike_id": "7c47aab271a36e7432ba69019311cbea", "name": "7c47aab271a36e7432ba69019311cbea", "lon": -77.13471966666667}, {"is_disabled": 0, "type": "electric_scooter", "is_reserved": 0, "lat": 38.931286666666665, "rental_uris": {"ios": "https://dc.lft.to/lastmile_qr_scan", "android": "https://dc.lft.to/lastmile_qr_scan"}, "fusion_lon": 0.0, "fusion_lat": 0.0, "bike_id": "145d7392c40242d20cf07a7f886e103d", "name": "145d7392c40242d20cf07a7f886e103d", "lon": -77.03402716666666}, {"is_disabled": 0, "type": "electric_scooter", "is_reserved": 0, "lat": 38.917587, "rental_uris": {"ios": "https://dc.lft.to/lastmile_qr_scan", "android": "https://dc.lft.to/lastmile_qr_scan"}, "fusion_lon": 0.0, "fusion_lat": 0.0, "bike_id": "369ebd313e8a7b62194cb4bb1a81970d", "name": "369ebd313e8a7b62194cb4bb1a81970d", "lon": -77.03991683333334}, {"is_disabled": 0, "type": "electric_scooter", "is_reserved": 0, "lat": 38.90251116666666, "rental_uris": {"ios": "https://dc.lft.to/lastmile_qr_scan", "android": "https://dc.lft.to/lastmile_qr_scan"}, "fusion_lon": 0.0, "fusion_lat": 0.0, "bike_id": "746b27239d6b469714ed1628833fdd96", "name": "746b27239d6b469714ed1628833fdd96", "lon": -76.9867}, {"is_disabled": 0, "type": "electric_scooter", "is_reserved": 0, "lat": 38.93721566666667, "rental_uris": {"ios": "https://dc.lft.to/lastmile_qr_scan", "android": "https://dc.lft.to/lastmile_qr_scan"}, "fusion_lon": 0.0, "fusion_lat": 0.0, "bike_id": "7892c1a3e1e2f0d31fb1b9571255ae06", "name": "7892c1a3e1e2f0d31fb1b9571255ae06", "lon": -77.03263133333333}, {"is_disabled": 0, "type": "electric_scooter", "is_reserved": 0, "lat": 38.91551916666667, "rental_uris": {"ios": "https://dc.lft.to/lastmile_qr_scan", "android": "https://dc.lft.to/lastmile_qr_scan"}, "fusion_lon": 0.0, "fusion_lat": 0.0, "bike_id": "18ae8e7bf467cb7e93a39ae1f624fc6c", "name": "18ae8e7bf467cb7e93a39ae1f624fc6c", "lon": -77.03126116666667}, {"is_disabled": 0, "type": "electric_scooter", "is_reserved": 0, "lat": 38.876386, "rental_uris": {"ios": "https://dc.lft.to/lastmile_qr_scan", "android": "https://dc.lft.to/lastmile_qr_scan"}, "fusion_lon": 0.0, "fusion_lat": 0.0, "bike_id": "af3d0f9d287a1b75ae9b16c450d999f9", "name": "af3d0f9d287a1b75ae9b16c450d999f9", "lon": -77.00627233333333}, {"is_disabled": 0, "type": "electric_scooter", "is_reserved": 0, "lat": 38.874824333333336, "rental_uris": {"ios": "https://dc.lft.to/lastmile_qr_scan", "android": "https://dc.lft.to/lastmile_qr_scan"}, "fusion_lon": 0.0, "fusion_lat": 0.0, "bike_id": "af80d032560d88423ece20847b48268e", "name": "af80d032560d88423ece20847b48268e", "lon": -77.002248}, {"is_disabled": 0, "type": "electric_scooter", "is_reserved": 0, "lat": 38.89894366666667, "rental_uris": {"ios": "https://dc.lft.to/lastmile_qr_scan", "android": "https://dc.lft.to/lastmile_qr_scan"}, "fusion_lon": 0.0, "fusion_lat": 0.0, "bike_id": "b4aeb7c09da8de2d9c2ce2749aa985ee", "name": "b4aeb7c09da8de2d9c2ce2749aa985ee", "lon": -77.04071183333333}, {"is_disabled": 0, "type": "electric_scooter", "is_reserved": 0, "lat": 38.898638, "rental_uris": {"ios": "https://dc.lft.to/lastmile_qr_scan", "android": "https://dc.lft.to/lastmile_qr_scan"}, "fusion_lon": 0.0, "fusion_lat": 0.0, "bike_id": "6caf053706d97d1d9e55a0f48921b791", "name": "6caf053706d97d1d9e55a0f48921b791", "lon": -77.03943266666667}, {"is_disabled": 0, "type": "electric_scooter", "is_reserved": 0, "lat": 38.84431166666667, "rental_uris": {"ios": "https://dc.lft.to/lastmile_qr_scan", "android": "https://dc.lft.to/lastmile_qr_scan"}, "fusion_lon": 0.0, "fusion_lat": 0.0, "bike_id": "673665891faf47a3499cd63c4582324e", "name": "673665891faf47a3499cd63c4582324e", "lon": -76.99817233333333}, {"is_disabled": 0, "type": "electric_scooter", "is_reserved": 0, "lat": 38.9002325, "rental_uris": {"ios": "https://dc.lft.to/lastmile_qr_scan", "android": "https://dc.lft.to/lastmile_qr_scan"}, "fusion_lon": 0.0, "fusion_lat": 0.0, "bike_id": "8127e4309440d0c5d6e8300c3141d435", "name": "8127e4309440d0c5d6e8300c3141d435", "lon": -76.9980095}, {"is_disabled": 0, "type": "electric_bike", "is_reserved": 0, "lat": 38.881257833333336, "rental_uris": {"ios": "https://dc.lft.to/lastmile_qr_scan", "android": "https://dc.lft.to/lastmile_qr_scan"}, "fusion_lon": 0.0, "fusion_lat": 0.0, "bike_id": "f16dac4500ed80dd454d8d17689ee547", "name": "f16dac4500ed80dd454d8d17689ee547", "lon": -77.02710266666666}, {"is_disabled": 0, "type": "electric_scooter", "is_reserved": 0, "lat": 38.91269666666667, "rental_uris": {"ios": "https://dc.lft.to/lastmile_qr_scan", "android": "https://dc.lft.to/lastmile_qr_scan"}, "fusion_lon": 0.0, "fusion_lat": 0.0, "bike_id": "b458e299569632c3bb51881c74440161", "name": "b458e299569632c3bb51881c74440161", "lon": -77.03871383333333}, {"is_disabled": 0, "type": "electric_bike", "is_reserved": 0, "lat": 38.9227765, "rental_uris": {"ios": "https://dc.lft.to/lastmile_qr_scan", "android": "https://dc.lft.to/lastmile_qr_scan"}, "fusion_lon": 0.0, "fusion_lat": 0.0, "bike_id": "9585b94442e7be578524299958a22e99", "name": "9585b94442e7be578524299958a22e99", "lon": -77.01989766666667}, {"is_disabled": 0, "type": "electric_scooter", "is_reserved": 0, "lat": 38.85810583333333, "rental_uris": {"ios": "https://dc.lft.to/lastmile_qr_scan", "android": "https://dc.lft.to/lastmile_qr_scan"}, "fusion_lon": 0.0, "fusion_lat": 0.0, "bike_id": "ee0232a9e509892e1c574ac277296079", "name": "ee0232a9e509892e1c574ac277296079", "lon": -76.9892415}, {"is_disabled": 0, "type": "electric_scooter", "is_reserved": 0, "lat": 38.85808183333333, "rental_uris": {"ios": "https://dc.lft.to/lastmile_qr_scan", "android": "https://dc.lft.to/lastmile_qr_scan"}, "fusion_lon": 0.0, "fusion_lat": 0.0, "bike_id": "23a921bcbc8d88d47a6f016c1b92fa20", "name": "23a921bcbc8d88d47a6f016c1b92fa20", "lon": -76.98650716666667}, {"is_disabled": 0, "type": "electric_scooter", "is_reserved": 0, "lat": 38.927022666666666, "rental_uris": {"ios": "https://dc.lft.to/lastmile_qr_scan", "android": "https://dc.lft.to/lastmile_qr_scan"}, "fusion_lon": 0.0, "fusion_lat": 0.0, "bike_id": "11bd038618ba9014ff843e5374a439c1", "name": "11bd038618ba9014ff843e5374a439c1", "lon": -77.05236383333333}, {"is_disabled": 0, "type": "electric_bike", "is_reserved": 0, "lat": 38.8959725, "rental_uris": {"ios": "https://dc.lft.to/lastmile_qr_scan", "android": "https://dc.lft.to/lastmile_qr_scan"}, "fusion_lon": 0.0, "fusion_lat": 0.0, "bike_id": "57855e7374412f922e5b56d775bd9fc7", "name": "57855e7374412f922e5b56d775bd9fc7", "lon": -76.9070735}, {"is_disabled": 0, "type": "electric_scooter", "is_reserved": 0, "lat": 38.914044833333335, "rental_uris": {"ios": "https://dc.lft.to/lastmile_qr_scan", "android": "https://dc.lft.to/lastmile_qr_scan"}, "fusion_lon": 0.0, "fusion_lat": 0.0, "bike_id": "3ab0e6d06feb1a1c02dd41fce4ac7707", "name": "3ab0e6d06feb1a1c02dd41fce4ac7707", "lon": -77.028997}, {"is_disabled": 0, "type": "electric_scooter", "is_reserved": 0, "lat": 38.923593833333335, "rental_uris": {"ios": "https://dc.lft.to/lastmile_qr_scan", "android": "https://dc.lft.to/lastmile_qr_scan"}, "fusion_lon": 0.0, "fusion_lat": 0.0, "bike_id": "476fe1fb1ef53c80297a05a50a05af28", "name": "476fe1fb1ef53c80297a05a50a05af28", "lon": -77.05037866666666}, {"is_disabled": 0, "type": "electric_scooter", "is_reserved": 0, "lat": 38.914053, "rental_uris": {"ios": "https://dc.lft.to/lastmile_qr_scan", "android": "https://dc.lft.to/lastmile_qr_scan"}, "fusion_lon": 0.0, "fusion_lat": 0.0, "bike_id": "c3d8740cf48e308a61576e75c2a199ab", "name": "c3d8740cf48e308a61576e75c2a199ab", "lon": -77.013115}, {"is_disabled": 0, "type": "electric_scooter", "is_reserved": 0, "lat": 38.88996, "rental_uris": {"ios": "https://dc.lft.to/lastmile_qr_scan", "android": "https://dc.lft.to/lastmile_qr_scan"}, "fusion_lon": 0.0, "fusion_lat": 0.0, "bike_id": "6e4b81b3119fedbdfe3dab7d793b2d8f", "name": "6e4b81b3119fedbdfe3dab7d793b2d8f", "lon": -77.00347966666666}, {"is_disabled": 0, "type": "electric_scooter", "is_reserved": 0, "lat": 38.90533766666667, "rental_uris": {"ios": "https://dc.lft.to/lastmile_qr_scan", "android": "https://dc.lft.to/lastmile_qr_scan"}, "fusion_lon": 0.0, "fusion_lat": 0.0, "bike_id": "b40b296b39eaa84a4768e79ee80baeb9", "name": "b40b296b39eaa84a4768e79ee80baeb9", "lon": -77.0576235}, {"is_disabled": 0, "type": "electric_bike", "is_reserved": 0, "lat": 38.9108995, "rental_uris": {"ios": "https://dc.lft.to/lastmile_qr_scan", "android": "https://dc.lft.to/lastmile_qr_scan"}, "fusion_lon": 0.0, "fusion_lat": 0.0, "bike_id": "551a64564c8e19e9245a74670cb9a144", "name": "551a64564c8e19e9245a74670cb9a144", "lon": -77.008893}, {"is_disabled": 0, "type": "electric_bike", "is_reserved": 0, "lat": 38.951287, "rental_uris": {"ios": "https://dc.lft.to/lastmile_qr_scan", "android": "https://dc.lft.to/lastmile_qr_scan"}, "fusion_lon": 0.0, "fusion_lat": 0.0, "bike_id": "e3dd68757248ac39ce46ab22c579cc6a", "name": "e3dd68757248ac39ce46ab22c579cc6a", "lon": -77.03335316666667}, {"is_disabled": 0, "type": "electric_bike", "is_reserved": 0, "lat": 38.92245283333333, "rental_uris": {"ios": "https://dc.lft.to/lastmile_qr_scan", "android": "https://dc.lft.to/lastmile_qr_scan"}, "fusion_lon": 0.0, "fusion_lat": 0.0, "bike_id": "a4074548dcd06a55f74ffe7e4c509bfd", "name": "a4074548dcd06a55f74ffe7e4c509bfd", "lon": -77.07269983333333}, {"is_disabled": 0, "type": "electric_scooter", "is_reserved": 0, "lat": 38.913974333333336, "rental_uris": {"ios": "https://dc.lft.to/lastmile_qr_scan", "android": "https://dc.lft.to/lastmile_qr_scan"}, "fusion_lon": 0.0, "fusion_lat": 0.0, "bike_id": "1db6508e97a91430dcf655f71384645b", "name": "1db6508e97a91430dcf655f71384645b", "lon": -77.03264216666666}, {"is_disabled": 0, "type": "electric_scooter", "is_reserved": 0, "lat": 38.92468316666667, "rental_uris": {"ios": "https://dc.lft.to/lastmile_qr_scan", "android": "https://dc.lft.to/lastmile_qr_scan"}, "fusion_lon": 0.0, "fusion_lat": 0.0, "bike_id": "db68e2440219ec81024d25ccc4db575d", "name": "db68e2440219ec81024d25ccc4db575d", "lon": -77.05239933333333}, {"is_disabled": 0, "type": "electric_scooter", "is_reserved": 0, "lat": 38.91274, "rental_uris": {"ios": "https://dc.lft.to/lastmile_qr_scan", "android": "https://dc.lft.to/lastmile_qr_scan"}, "fusion_lon": 0.0, "fusion_lat": 0.0, "bike_id": "37f55dea846262818f2421a2c989ba61", "name": "37f55dea846262818f2421a2c989ba61", "lon": -77.07824566666666}, {"is_disabled": 0, "type": "electric_scooter", "is_reserved": 0, "lat": 38.90871033333333, "rental_uris": {"ios": "https://dc.lft.to/lastmile_qr_scan", "android": "https://dc.lft.to/lastmile_qr_scan"}, "fusion_lon": 0.0, "fusion_lat": 0.0, "bike_id": "7996f0010943dffab82f25b8e29f5743", "name": "7996f0010943dffab82f25b8e29f5743", "lon": -77.026973}, {"is_disabled": 0, "type": "electric_scooter", "is_reserved": 0, "lat": 38.899833666666666, "rental_uris": {"ios": "https://dc.lft.to/lastmile_qr_scan", "android": "https://dc.lft.to/lastmile_qr_scan"}, "fusion_lon": 0.0, "fusion_lat": 0.0, "bike_id": "5da2243694dc8bd7ed7ea4bdb2b1a6a8", "name": "5da2243694dc8bd7ed7ea4bdb2b1a6a8", "lon": -76.98291083333334}, {"is_disabled": 0, "type": "electric_scooter", "is_reserved": 0, "lat": 38.93194916666667, "rental_uris": {"ios": "https://dc.lft.to/lastmile_qr_scan", "android": "https://dc.lft.to/lastmile_qr_scan"}, "fusion_lon": 0.0, "fusion_lat": 0.0, "bike_id": "f2c0520c95d895334f4096c84f111419", "name": "f2c0520c95d895334f4096c84f111419", "lon": -77.02966}, {"is_disabled": 0, "type": "electric_scooter", "is_reserved": 0, "lat": 38.956420333333334, "rental_uris": {"ios": "https://dc.lft.to/lastmile_qr_scan", "android": "https://dc.lft.to/lastmile_qr_scan"}, "fusion_lon": 0.0, "fusion_lat": 0.0, "bike_id": "c0fd6097cf7ad30a1443755e2cd4847d", "name": "c0fd6097cf7ad30a1443755e2cd4847d", "lon": -77.03292483333334}, {"is_disabled": 0, "type": "electric_scooter", "is_reserved": 0, "lat": 38.9021905, "rental_uris": {"ios": "https://dc.lft.to/lastmile_qr_scan", "android": "https://dc.lft.to/lastmile_qr_scan"}, "fusion_lon": 0.0, "fusion_lat": 0.0, "bike_id": "d110b18c9fa12036f08172291526f637", "name": "d110b18c9fa12036f08172291526f637", "lon": -77.04563133333333}, {"is_disabled": 0, "type": "electric_scooter", "is_reserved": 0, "lat": 38.906736333333335, "rental_uris": {"ios": "https://dc.lft.to/lastmile_qr_scan", "android": "https://dc.lft.to/lastmile_qr_scan"}, "fusion_lon": 0.0, "fusion_lat": 0.0, "bike_id": "9dccfa5d96f9abe432ef90f032742bf2", "name": "9dccfa5d96f9abe432ef90f032742bf2", "lon": -77.04643933333334}, {"is_disabled": 0, "type": "electric_scooter", "is_reserved": 0, "lat": 38.901859, "rental_uris": {"ios": "https://dc.lft.to/lastmile_qr_scan", "android": "https://dc.lft.to/lastmile_qr_scan"}, "fusion_lon": 0.0, "fusion_lat": 0.0, "bike_id": "e6fc182f58623c4ad0a6daf86617067b", "name": "e6fc182f58623c4ad0a6daf86617067b", "lon": -76.929968}, {"is_disabled": 0, "type": "electric_scooter", "is_reserved": 0, "lat": 38.90889683333333, "rental_uris": {"ios": "https://dc.lft.to/lastmile_qr_scan", "android": "https://dc.lft.to/lastmile_qr_scan"}, "fusion_lon": 0.0, "fusion_lat": 0.0, "bike_id": "4acfe3a082053b01103fc99144812720", "name": "4acfe3a082053b01103fc99144812720", "lon": -77.04333683333333}, {"is_disabled": 0, "type": "electric_scooter", "is_reserved": 0, "lat": 38.905376833333335, "rental_uris": {"ios": "https://dc.lft.to/lastmile_qr_scan", "android": "https://dc.lft.to/lastmile_qr_scan"}, "fusion_lon": 0.0, "fusion_lat": 0.0, "bike_id": "646e9f3f070f1c2ed8b451493900e5b6", "name": "646e9f3f070f1c2ed8b451493900e5b6", "lon": -77.0398085}, {"is_disabled": 0, "type": "electric_scooter", "is_reserved": 0, "lat": 38.914100833333336, "rental_uris": {"ios": "https://dc.lft.to/lastmile_qr_scan", "android": "https://dc.lft.to/lastmile_qr_scan"}, "fusion_lon": 0.0, "fusion_lat": 0.0, "bike_id": "f3c118c79e68e266a8f0bcb33513a7dc", "name": "f3c118c79e68e266a8f0bcb33513a7dc", "lon": -77.04285333333333}, {"is_disabled": 0, "type": "electric_scooter", "is_reserved": 0, "lat": 38.863778333333336, "rental_uris": {"ios": "https://dc.lft.to/lastmile_qr_scan", "android": "https://dc.lft.to/lastmile_qr_scan"}, "fusion_lon": 0.0, "fusion_lat": 0.0, "bike_id": "13e3b62e5b24d322211c1d3a41beb438", "name": "13e3b62e5b24d322211c1d3a41beb438", "lon": -76.99034066666667}, {"is_disabled": 0, "type": "electric_scooter", "is_reserved": 0, "lat": 38.91424383333333, "rental_uris": {"ios": "https://dc.lft.to/lastmile_qr_scan", "android": "https://dc.lft.to/lastmile_qr_scan"}, "fusion_lon": 0.0, "fusion_lat": 0.0, "bike_id": "c8a43ff52297c81d955b2af96ddf3bcc", "name": "c8a43ff52297c81d955b2af96ddf3bcc", "lon": -77.03202316666666}, {"is_disabled": 0, "type": "electric_scooter", "is_reserved": 0, "lat": 38.898209, "rental_uris": {"ios": "https://dc.lft.to/lastmile_qr_scan", "android": "https://dc.lft.to/lastmile_qr_scan"}, "fusion_lon": 0.0, "fusion_lat": 0.0, "bike_id": "abc7baa9c57302a86f111ee7f625e566", "name": "abc7baa9c57302a86f111ee7f625e566", "lon": -77.02944616666667}, {"is_disabled": 0, "type": "electric_bike", "is_reserved": 0, "lat": 38.887182833333334, "rental_uris": {"ios": "https://dc.lft.to/lastmile_qr_scan", "android": "https://dc.lft.to/lastmile_qr_scan"}, "fusion_lon": 0.0, "fusion_lat": 0.0, "bike_id": "10948bf248ce85a63f65371c6c6d75f4", "name": "10948bf248ce85a63f65371c6c6d75f4", "lon": -77.13308266666667}, {"is_disabled": 0, "type": "electric_bike", "is_reserved": 0, "lat": 39.051984833333336, "rental_uris": {"ios": "https://dc.lft.to/lastmile_qr_scan", "android": "https://dc.lft.to/lastmile_qr_scan"}, "fusion_lon": 0.0, "fusion_lat": 0.0, "bike_id": "60b44a2d9729585823ddb02e98601398", "name": "60b44a2d9729585823ddb02e98601398", "lon": -77.1092345}, {"is_disabled": 0, "type": "electric_scooter", "is_reserved": 0, "lat": 38.89961566666667, "rental_uris": {"ios": "https://dc.lft.to/lastmile_qr_scan", "android": "https://dc.lft.to/lastmile_qr_scan"}, "fusion_lon": 0.0, "fusion_lat": 0.0, "bike_id": "df854d9744378afe8394edd958333f2c", "name": "df854d9744378afe8394edd958333f2c", "lon": -77.02121866666667}, {"is_disabled": 0, "type": "electric_scooter", "is_reserved": 0, "lat": 38.949595, "rental_uris": {"ios": "https://dc.lft.to/lastmile_qr_scan", "android": "https://dc.lft.to/lastmile_qr_scan"}, "fusion_lon": 0.0, "fusion_lat": 0.0, "bike_id": "3c362334aa415cf797491a26037771fc", "name": "3c362334aa415cf797491a26037771fc", "lon": -77.02724216666667}, {"is_disabled": 0, "type": "electric_scooter", "is_reserved": 0, "lat": 38.8969125, "rental_uris": {"ios": "https://dc.lft.to/lastmile_qr_scan", "android": "https://dc.lft.to/lastmile_qr_scan"}, "fusion_lon": 0.0, "fusion_lat": 0.0, "bike_id": "1caa1f18e3e733365c6431286eca3e2e", "name": "1caa1f18e3e733365c6431286eca3e2e", "lon": -77.02672066666666}, {"is_disabled": 0, "type": "electric_scooter", "is_reserved": 0, "lat": 38.906491, "rental_uris": {"ios": "https://dc.lft.to/lastmile_qr_scan", "android": "https://dc.lft.to/lastmile_qr_scan"}, "fusion_lon": 0.0, "fusion_lat": 0.0, "bike_id": "e9eed7c99ef9e0c7ba63e04dc2b55664", "name": "e9eed7c99ef9e0c7ba63e04dc2b55664", "lon": -77.0487975}, {"is_disabled": 0, "type": "electric_scooter", "is_reserved": 0, "lat": 38.905623166666665, "rental_uris": {"ios": "https://dc.lft.to/lastmile_qr_scan", "android": "https://dc.lft.to/lastmile_qr_scan"}, "fusion_lon": 0.0, "fusion_lat": 0.0, "bike_id": "280ff619569fad3fcd55313722fc7d29", "name": "280ff619569fad3fcd55313722fc7d29", "lon": -77.044304}, {"is_disabled": 0, "type": "electric_scooter", "is_reserved": 0, "lat": 38.89224883333333, "rental_uris": {"ios": "https://dc.lft.to/lastmile_qr_scan", "android": "https://dc.lft.to/lastmile_qr_scan"}, "fusion_lon": 0.0, "fusion_lat": 0.0, "bike_id": "8127dffb956a3c0032a2798325fa4820", "name": "8127dffb956a3c0032a2798325fa4820", "lon": -77.04332}, {"is_disabled": 0, "type": "electric_scooter", "is_reserved": 0, "lat": 38.93589933333333, "rental_uris": {"ios": "https://dc.lft.to/lastmile_qr_scan", "android": "https://dc.lft.to/lastmile_qr_scan"}, "fusion_lon": 0.0, "fusion_lat": 0.0, "bike_id": "2ca818d45768718d186b2b983796672c", "name": "2ca818d45768718d186b2b983796672c", "lon": -77.03515316666666}, {"is_disabled": 0, "type": "electric_scooter", "is_reserved": 0, "lat": 38.8921945, "rental_uris": {"ios": "https://dc.lft.to/lastmile_qr_scan", "android": "https://dc.lft.to/lastmile_qr_scan"}, "fusion_lon": 0.0, "fusion_lat": 0.0, "bike_id": "91e2b03d425be237c07726ad4c1c9b89", "name": "91e2b03d425be237c07726ad4c1c9b89", "lon": -77.02590933333333}, {"is_disabled": 0, "type": "electric_scooter", "is_reserved": 0, "lat": 38.937847, "rental_uris": {"ios": "https://dc.lft.to/lastmile_qr_scan", "android": "https://dc.lft.to/lastmile_qr_scan"}, "fusion_lon": 0.0, "fusion_lat": 0.0, "bike_id": "40623e8e7448fcacbe112a28ef9ec049", "name": "40623e8e7448fcacbe112a28ef9ec049", "lon": -77.02314183333333}, {"is_disabled": 0, "type": "electric_scooter", "is_reserved": 0, "lat": 38.905148, "rental_uris": {"ios": "https://dc.lft.to/lastmile_qr_scan", "android": "https://dc.lft.to/lastmile_qr_scan"}, "fusion_lon": 0.0, "fusion_lat": 0.0, "bike_id": "44be86765d43fc23e684fda202a075f2", "name": "44be86765d43fc23e684fda202a075f2", "lon": -77.04187766666666}, {"is_disabled": 0, "type": "electric_scooter", "is_reserved": 0, "lat": 38.900682333333336, "rental_uris": {"ios": "https://dc.lft.to/lastmile_qr_scan", "android": "https://dc.lft.to/lastmile_qr_scan"}, "fusion_lon": 0.0, "fusion_lat": 0.0, "bike_id": "f22ba59d489ad003b5bc47c207fa8e63", "name": "f22ba59d489ad003b5bc47c207fa8e63", "lon": -77.04910216666667}, {"is_disabled": 0, "type": "electric_scooter", "is_reserved": 0, "lat": 38.9322185, "rental_uris": {"ios": "https://dc.lft.to/lastmile_qr_scan", "android": "https://dc.lft.to/lastmile_qr_scan"}, "fusion_lon": 0.0, "fusion_lat": 0.0, "bike_id": "167c832b094b678caaef84c74dfa4643", "name": "167c832b094b678caaef84c74dfa4643", "lon": -77.03388833333334}, {"is_disabled": 0, "type": "electric_scooter", "is_reserved": 0, "lat": 38.90956333333333, "rental_uris": {"ios": "https://dc.lft.to/lastmile_qr_scan", "android": "https://dc.lft.to/lastmile_qr_scan"}, "fusion_lon": 0.0, "fusion_lat": 0.0, "bike_id": "4c89431ccd54c2f473cc4103616413b3", "name": "4c89431ccd54c2f473cc4103616413b3", "lon": -77.02192833333334}, {"is_disabled": 0, "type": "electric_scooter", "is_reserved": 0, "lat": 38.866511833333334, "rental_uris": {"ios": "https://dc.lft.to/lastmile_qr_scan", "android": "https://dc.lft.to/lastmile_qr_scan"}, "fusion_lon": 0.0, "fusion_lat": 0.0, "bike_id": "a2111641644304ebd67cd5a3ce5c8a01", "name": "a2111641644304ebd67cd5a3ce5c8a01", "lon": -76.98536516666667}, {"is_disabled": 0, "type": "electric_scooter", "is_reserved": 0, "lat": 38.89222766666666, "rental_uris": {"ios": "https://dc.lft.to/lastmile_qr_scan", "android": "https://dc.lft.to/lastmile_qr_scan"}, "fusion_lon": 0.0, "fusion_lat": 0.0, "bike_id": "48c9decde1f7d50c0b4dcae2c23d9aa5", "name": "48c9decde1f7d50c0b4dcae2c23d9aa5", "lon": -77.0418315}, {"is_disabled": 0, "type": "electric_scooter", "is_reserved": 0, "lat": 38.92876966666667, "rental_uris": {"ios": "https://dc.lft.to/lastmile_qr_scan", "android": "https://dc.lft.to/lastmile_qr_scan"}, "fusion_lon": 0.0, "fusion_lat": 0.0, "bike_id": "f7970b2d429988e5597fc9857a1474bb", "name": "f7970b2d429988e5597fc9857a1474bb", "lon": -77.03252116666667}, {"is_disabled": 0, "type": "electric_scooter", "is_reserved": 0, "lat": 38.8874585, "rental_uris": {"ios": "https://dc.lft.to/lastmile_qr_scan", "android": "https://dc.lft.to/lastmile_qr_scan"}, "fusion_lon": 0.0, "fusion_lat": 0.0, "bike_id": "a3ab15e1adf97ff149b65e1f73c231f9", "name": "a3ab15e1adf97ff149b65e1f73c231f9", "lon": -77.028451}, {"is_disabled": 0, "type": "electric_bike", "is_reserved": 0, "lat": 38.924655666666666, "rental_uris": {"ios": "https://dc.lft.to/lastmile_qr_scan", "android": "https://dc.lft.to/lastmile_qr_scan"}, "fusion_lon": 0.0, "fusion_lat": 0.0, "bike_id": "cc7f2ecba2e890c3e6c505ee4aeff44a", "name": "cc7f2ecba2e890c3e6c505ee4aeff44a", "lon": -77.0519625}, {"is_disabled": 0, "type": "electric_scooter", "is_reserved": 0, "lat": 38.91365783333333, "rental_uris": {"ios": "https://dc.lft.to/lastmile_qr_scan", "android": "https://dc.lft.to/lastmile_qr_scan"}, "fusion_lon": 0.0, "fusion_lat": 0.0, "bike_id": "2bf94745d7595116689dc61e12c9dda4", "name": "2bf94745d7595116689dc61e12c9dda4", "lon": -77.044975}, {"is_disabled": 0, "type": "electric_scooter", "is_reserved": 0, "lat": 38.8901975, "rental_uris": {"ios": "https://dc.lft.to/lastmile_qr_scan", "android": "https://dc.lft.to/lastmile_qr_scan"}, "fusion_lon": 0.0, "fusion_lat": 0.0, "bike_id": "e91706f4fd2b31d37c91899f055068c2", "name": "e91706f4fd2b31d37c91899f055068c2", "lon": -76.93739366666667}, {"is_disabled": 0, "type": "electric_scooter", "is_reserved": 0, "lat": 38.8874415, "rental_uris": {"ios": "https://dc.lft.to/lastmile_qr_scan", "android": "https://dc.lft.to/lastmile_qr_scan"}, "fusion_lon": 0.0, "fusion_lat": 0.0, "bike_id": "16e0736535b8567be2e1220680d0056b", "name": "16e0736535b8567be2e1220680d0056b", "lon": -77.01406033333333}, {"is_disabled": 0, "type": "electric_scooter", "is_reserved": 0, "lat": 38.889934833333335, "rental_uris": {"ios": "https://dc.lft.to/lastmile_qr_scan", "android": "https://dc.lft.to/lastmile_qr_scan"}, "fusion_lon": 0.0, "fusion_lat": 0.0, "bike_id": "00bdc4d6611a5b09a26e640c2a42d520", "name": "00bdc4d6611a5b09a26e640c2a42d520", "lon": -77.00332033333333}, {"is_disabled": 0, "type": "electric_scooter", "is_reserved": 0, "lat": 38.90033483333333, "rental_uris": {"ios": "https://dc.lft.to/lastmile_qr_scan", "android": "https://dc.lft.to/lastmile_qr_scan"}, "fusion_lon": 0.0, "fusion_lat": 0.0, "bike_id": "d0d3ce82c112fde3eac693c946b3312c", "name": "d0d3ce82c112fde3eac693c946b3312c", "lon": -76.988357}, {"is_disabled": 0, "type": "electric_scooter", "is_reserved": 0, "lat": 38.89948033333334, "rental_uris": {"ios": "https://dc.lft.to/lastmile_qr_scan", "android": "https://dc.lft.to/lastmile_qr_scan"}, "fusion_lon": 0.0, "fusion_lat": 0.0, "bike_id": "555b7839e4f6ae01dfb53a0d21df90fe", "name": "555b7839e4f6ae01dfb53a0d21df90fe", "lon": -77.046704}, {"is_disabled": 0, "type": "electric_scooter", "is_reserved": 0, "lat": 38.900103666666666, "rental_uris": {"ios": "https://dc.lft.to/lastmile_qr_scan", "android": "https://dc.lft.to/lastmile_qr_scan"}, "fusion_lon": 0.0, "fusion_lat": 0.0, "bike_id": "6aa2d259af0e79af67a285694beb7eb4", "name": "6aa2d259af0e79af67a285694beb7eb4", "lon": -76.993065}, {"is_disabled": 0, "type": "electric_scooter", "is_reserved": 0, "lat": 38.9089915, "rental_uris": {"ios": "https://dc.lft.to/lastmile_qr_scan", "android": "https://dc.lft.to/lastmile_qr_scan"}, "fusion_lon": 0.0, "fusion_lat": 0.0, "bike_id": "edd0eb16c0742f76442b368145e9f2e8", "name": "edd0eb16c0742f76442b368145e9f2e8", "lon": -77.03835583333333}, {"is_disabled": 0, "type": "electric_scooter", "is_reserved": 0, "lat": 38.9217, "rental_uris": {"ios": "https://dc.lft.to/lastmile_qr_scan", "android": "https://dc.lft.to/lastmile_qr_scan"}, "fusion_lon": 0.0, "fusion_lat": 0.0, "bike_id": "7a0be38170931a9815c8a149b5a897b7", "name": "7a0be38170931a9815c8a149b5a897b7", "lon": -77.04124833333333}, {"is_disabled": 0, "type": "electric_scooter", "is_reserved": 0, "lat": 38.93084416666667, "rental_uris": {"ios": "https://dc.lft.to/lastmile_qr_scan", "android": "https://dc.lft.to/lastmile_qr_scan"}, "fusion_lon": 0.0, "fusion_lat": 0.0, "bike_id": "0773c34542852852081451efdd53415a", "name": "0773c34542852852081451efdd53415a", "lon": -77.02808733333333}, {"is_disabled": 0, "type": "electric_scooter", "is_reserved": 0, "lat": 38.924331, "rental_uris": {"ios": "https://dc.lft.to/lastmile_qr_scan", "android": "https://dc.lft.to/lastmile_qr_scan"}, "fusion_lon": 0.0, "fusion_lat": 0.0, "bike_id": "74f11ef6d94af4d4dd9ac5ceed854616", "name": "74f11ef6d94af4d4dd9ac5ceed854616", "lon": -77.040089}, {"is_disabled": 0, "type": "electric_scooter", "is_reserved": 0, "lat": 38.89232766666667, "rental_uris": {"ios": "https://dc.lft.to/lastmile_qr_scan", "android": "https://dc.lft.to/lastmile_qr_scan"}, "fusion_lon": 0.0, "fusion_lat": 0.0, "bike_id": "3b6926a8fd3aba6caee6a865b77b486a", "name": "3b6926a8fd3aba6caee6a865b77b486a", "lon": -77.04999183333334}, {"is_disabled": 0, "type": "electric_scooter", "is_reserved": 0, "lat": 38.892198666666665, "rental_uris": {"ios": "https://dc.lft.to/lastmile_qr_scan", "android": "https://dc.lft.to/lastmile_qr_scan"}, "fusion_lon": 0.0, "fusion_lat": 0.0, "bike_id": "5bbb52be085178eea2bf158352d46a77", "name": "5bbb52be085178eea2bf158352d46a77", "lon": -77.0451425}, {"is_disabled": 0, "type": "electric_scooter", "is_reserved": 0, "lat": 38.93382533333333, "rental_uris": {"ios": "https://dc.lft.to/lastmile_qr_scan", "android": "https://dc.lft.to/lastmile_qr_scan"}, "fusion_lon": 0.0, "fusion_lat": 0.0, "bike_id": "4236ed204f51aadc4fe97e501bc48137", "name": "4236ed204f51aadc4fe97e501bc48137", "lon": -77.05766916666667}, {"is_disabled": 0, "type": "electric_scooter", "is_reserved": 0, "lat": 38.92691683333334, "rental_uris": {"ios": "https://dc.lft.to/lastmile_qr_scan", "android": "https://dc.lft.to/lastmile_qr_scan"}, "fusion_lon": 0.0, "fusion_lat": 0.0, "bike_id": "4bb21cbd10d3218c883d3311697fb0ad", "name": "4bb21cbd10d3218c883d3311697fb0ad", "lon": -77.0373825}, {"is_disabled": 0, "type": "electric_scooter", "is_reserved": 0, "lat": 38.8922245, "rental_uris": {"ios": "https://dc.lft.to/lastmile_qr_scan", "android": "https://dc.lft.to/lastmile_qr_scan"}, "fusion_lon": 0.0, "fusion_lat": 0.0, "bike_id": "5f2e45eda5191bf96e3003d43289ff83", "name": "5f2e45eda5191bf96e3003d43289ff83", "lon": -77.04516066666666}, {"is_disabled": 0, "type": "electric_scooter", "is_reserved": 0, "lat": 38.885987666666665, "rental_uris": {"ios": "https://dc.lft.to/lastmile_qr_scan", "android": "https://dc.lft.to/lastmile_qr_scan"}, "fusion_lon": 0.0, "fusion_lat": 0.0, "bike_id": "471d76b10f4c103e0b3693a3a234648c", "name": "471d76b10f4c103e0b3693a3a234648c", "lon": -77.01985}, {"is_disabled": 0, "type": "electric_scooter", "is_reserved": 0, "lat": 38.900194, "rental_uris": {"ios": "https://dc.lft.to/lastmile_qr_scan", "android": "https://dc.lft.to/lastmile_qr_scan"}, "fusion_lon": 0.0, "fusion_lat": 0.0, "bike_id": "61b46f0f330972f04fd8e29ae23a9fba", "name": "61b46f0f330972f04fd8e29ae23a9fba", "lon": -77.0008255}, {"is_disabled": 0, "type": "electric_scooter", "is_reserved": 0, "lat": 38.9420245, "rental_uris": {"ios": "https://dc.lft.to/lastmile_qr_scan", "android": "https://dc.lft.to/lastmile_qr_scan"}, "fusion_lon": 0.0, "fusion_lat": 0.0, "bike_id": "a8606a848baa011515fedd38233e79b5", "name": "a8606a848baa011515fedd38233e79b5", "lon": -77.01836616666667}, {"is_disabled": 0, "type": "electric_scooter", "is_reserved": 0, "lat": 38.904252166666666, "rental_uris": {"ios": "https://dc.lft.to/lastmile_qr_scan", "android": "https://dc.lft.to/lastmile_qr_scan"}, "fusion_lon": 0.0, "fusion_lat": 0.0, "bike_id": "ee0340040a95a6e36bcd9177e0d3e5ac", "name": "ee0340040a95a6e36bcd9177e0d3e5ac", "lon": -77.04342416666667}, {"is_disabled": 0, "type": "electric_scooter", "is_reserved": 0, "lat": 38.89577416666667, "rental_uris": {"ios": "https://dc.lft.to/lastmile_qr_scan", "android": "https://dc.lft.to/lastmile_qr_scan"}, "fusion_lon": 0.0, "fusion_lat": 0.0, "bike_id": "4e86fa704f49037b8e0ad28f24b75533", "name": "4e86fa704f49037b8e0ad28f24b75533", "lon": -77.02188883333334}, {"is_disabled": 0, "type": "electric_scooter", "is_reserved": 0, "lat": 38.916925666666664, "rental_uris": {"ios": "https://dc.lft.to/lastmile_qr_scan", "android": "https://dc.lft.to/lastmile_qr_scan"}, "fusion_lon": 0.0, "fusion_lat": 0.0, "bike_id": "4556d1c18dd161ad8e3ebdd2bbf93436", "name": "4556d1c18dd161ad8e3ebdd2bbf93436", "lon": -77.03772116666667}, {"is_disabled": 0, "type": "electric_bike", "is_reserved": 0, "lat": 38.88076183333333, "rental_uris": {"ios": "https://dc.lft.to/lastmile_qr_scan", "android": "https://dc.lft.to/lastmile_qr_scan"}, "fusion_lon": 0.0, "fusion_lat": 0.0, "bike_id": "c2d1b41ffc98047089cfd5dbb643c7f5", "name": "c2d1b41ffc98047089cfd5dbb643c7f5", "lon": -76.9851565}, {"is_disabled": 0, "type": "electric_scooter", "is_reserved": 0, "lat": 38.9077885, "rental_uris": {"ios": "https://dc.lft.to/lastmile_qr_scan", "android": "https://dc.lft.to/lastmile_qr_scan"}, "fusion_lon": 0.0, "fusion_lat": 0.0, "bike_id": "d58c53f1216be02370c01e7b93ceb967", "name": "d58c53f1216be02370c01e7b93ceb967", "lon": -77.03862333333333}, {"is_disabled": 0, "type": "electric_scooter", "is_reserved": 0, "lat": 38.91819, "rental_uris": {"ios": "https://dc.lft.to/lastmile_qr_scan", "android": "https://dc.lft.to/lastmile_qr_scan"}, "fusion_lon": 0.0, "fusion_lat": 0.0, "bike_id": "40b7c5398d72784d8eb3de32089f6edd", "name": "40b7c5398d72784d8eb3de32089f6edd", "lon": -77.02562133333333}, {"is_disabled": 0, "type": "electric_bike", "is_reserved": 0, "lat": 38.89752766666667, "rental_uris": {"ios": "https://dc.lft.to/lastmile_qr_scan", "android": "https://dc.lft.to/lastmile_qr_scan"}, "fusion_lon": 0.0, "fusion_lat": 0.0, "bike_id": "2b8fcb055dd006849b27876474907084", "name": "2b8fcb055dd006849b27876474907084", "lon": -77.0092605}, {"is_disabled": 0, "type": "electric_scooter", "is_reserved": 0, "lat": 38.902537333333335, "rental_uris": {"ios": "https://dc.lft.to/lastmile_qr_scan", "android": "https://dc.lft.to/lastmile_qr_scan"}, "fusion_lon": 0.0, "fusion_lat": 0.0, "bike_id": "a6941714f88e5f6f228266e677411f00", "name": "a6941714f88e5f6f228266e677411f00", "lon": -77.03397566666666}, {"is_disabled": 0, "type": "electric_scooter", "is_reserved": 0, "lat": 38.876371166666665, "rental_uris": {"ios": "https://dc.lft.to/lastmile_qr_scan", "android": "https://dc.lft.to/lastmile_qr_scan"}, "fusion_lon": 0.0, "fusion_lat": 0.0, "bike_id": "9f3527a5c7397ea0d65554c3fa461407", "name": "9f3527a5c7397ea0d65554c3fa461407", "lon": -77.003777}, {"is_disabled": 0, "type": "electric_scooter", "is_reserved": 0, "lat": 38.90819883333333, "rental_uris": {"ios": "https://dc.lft.to/lastmile_qr_scan", "android": "https://dc.lft.to/lastmile_qr_scan"}, "fusion_lon": 0.0, "fusion_lat": 0.0, "bike_id": "f93ad785ab2582375dec14621260860a", "name": "f93ad785ab2582375dec14621260860a", "lon": -77.03939833333334}, {"is_disabled": 0, "type": "electric_scooter", "is_reserved": 0, "lat": 38.923417, "rental_uris": {"ios": "https://dc.lft.to/lastmile_qr_scan", "android": "https://dc.lft.to/lastmile_qr_scan"}, "fusion_lon": 0.0, "fusion_lat": 0.0, "bike_id": "ddb3faab68cf980d1adb2e0eea504a83", "name": "ddb3faab68cf980d1adb2e0eea504a83", "lon": -77.050524}, {"is_disabled": 0, "type": "electric_scooter", "is_reserved": 0, "lat": 38.868277, "rental_uris": {"ios": "https://dc.lft.to/lastmile_qr_scan", "android": "https://dc.lft.to/lastmile_qr_scan"}, "fusion_lon": 0.0, "fusion_lat": 0.0, "bike_id": "99e2615335a94e20167c1d10b3e77cf8", "name": "99e2615335a94e20167c1d10b3e77cf8", "lon": -76.97748266666666}, {"is_disabled": 0, "type": "electric_scooter", "is_reserved": 0, "lat": 38.951957, "rental_uris": {"ios": "https://dc.lft.to/lastmile_qr_scan", "android": "https://dc.lft.to/lastmile_qr_scan"}, "fusion_lon": 0.0, "fusion_lat": 0.0, "bike_id": "12d556b6d7c569d48094614c912bd9c8", "name": "12d556b6d7c569d48094614c912bd9c8", "lon": -77.02979433333333}, {"is_disabled": 0, "type": "electric_scooter", "is_reserved": 0, "lat": 38.911356166666664, "rental_uris": {"ios": "https://dc.lft.to/lastmile_qr_scan", "android": "https://dc.lft.to/lastmile_qr_scan"}, "fusion_lon": 0.0, "fusion_lat": 0.0, "bike_id": "68e78116c84b78051437048cea530c72", "name": "68e78116c84b78051437048cea530c72", "lon": -77.02694033333333}, {"is_disabled": 0, "type": "electric_scooter", "is_reserved": 0, "lat": 38.923989, "rental_uris": {"ios": "https://dc.lft.to/lastmile_qr_scan", "android": "https://dc.lft.to/lastmile_qr_scan"}, "fusion_lon": 0.0, "fusion_lat": 0.0, "bike_id": "b299ea70888585f20eefa2c7242152b7", "name": "b299ea70888585f20eefa2c7242152b7", "lon": -77.03529883333333}, {"is_disabled": 0, "type": "electric_scooter", "is_reserved": 0, "lat": 38.9024365, "rental_uris": {"ios": "https://dc.lft.to/lastmile_qr_scan", "android": "https://dc.lft.to/lastmile_qr_scan"}, "fusion_lon": 0.0, "fusion_lat": 0.0, "bike_id": "50fb1269f82f8f9f7f7f3c74bb7bc7dd", "name": "50fb1269f82f8f9f7f7f3c74bb7bc7dd", "lon": -77.031747}, {"is_disabled": 0, "type": "electric_scooter", "is_reserved": 0, "lat": 38.894489, "rental_uris": {"ios": "https://dc.lft.to/lastmile_qr_scan", "android": "https://dc.lft.to/lastmile_qr_scan"}, "fusion_lon": 0.0, "fusion_lat": 0.0, "bike_id": "73ae38ed6d85384e2dfa2abbfda78f56", "name": "73ae38ed6d85384e2dfa2abbfda78f56", "lon": -77.0022245}, {"is_disabled": 0, "type": "electric_bike", "is_reserved": 0, "lat": 38.87285133333334, "rental_uris": {"ios": "https://dc.lft.to/lastmile_qr_scan", "android": "https://dc.lft.to/lastmile_qr_scan"}, "fusion_lon": 0.0, "fusion_lat": 0.0, "bike_id": "735d4b15176dc85cdf0fd8ca8fd160a3", "name": "735d4b15176dc85cdf0fd8ca8fd160a3", "lon": -77.23321216666666}, {"is_disabled": 0, "type": "electric_scooter", "is_reserved": 0, "lat": 38.909680333333334, "rental_uris": {"ios": "https://dc.lft.to/lastmile_qr_scan", "android": "https://dc.lft.to/lastmile_qr_scan"}, "fusion_lon": 0.0, "fusion_lat": 0.0, "bike_id": "d7f75a2c5a12359a3902158257e1d99f", "name": "d7f75a2c5a12359a3902158257e1d99f", "lon": -77.0468955}, {"is_disabled": 0, "type": "electric_scooter", "is_reserved": 0, "lat": 38.89224516666667, "rental_uris": {"ios": "https://dc.lft.to/lastmile_qr_scan", "android": "https://dc.lft.to/lastmile_qr_scan"}, "fusion_lon": 0.0, "fusion_lat": 0.0, "bike_id": "b5080178c41a8aadc0e4f0befaaa3d9a", "name": "b5080178c41a8aadc0e4f0befaaa3d9a", "lon": -77.04328}, {"is_disabled": 0, "type": "electric_bike", "is_reserved": 0, "lat": 38.88190983333333, "rental_uris": {"ios": "https://dc.lft.to/lastmile_qr_scan", "android": "https://dc.lft.to/lastmile_qr_scan"}, "fusion_lon": 0.0, "fusion_lat": 0.0, "bike_id": "a76a365c2619a6d62b4aec59a2a8221b", "name": "a76a365c2619a6d62b4aec59a2a8221b", "lon": -77.24482766666667}, {"is_disabled": 0, "type": "electric_scooter", "is_reserved": 0, "lat": 38.961597166666664, "rental_uris": {"ios": "https://dc.lft.to/lastmile_qr_scan", "android": "https://dc.lft.to/lastmile_qr_scan"}, "fusion_lon": 0.0, "fusion_lat": 0.0, "bike_id": "021de89331d77fe0ce3e58ab1ad19149", "name": "021de89331d77fe0ce3e58ab1ad19149", "lon": -77.0323535}, {"is_disabled": 0, "type": "electric_scooter", "is_reserved": 0, "lat": 38.8624845, "rental_uris": {"ios": "https://dc.lft.to/lastmile_qr_scan", "android": "https://dc.lft.to/lastmile_qr_scan"}, "fusion_lon": 0.0, "fusion_lat": 0.0, "bike_id": "347482ae38b416c2d6108b33edfb30fd", "name": "347482ae38b416c2d6108b33edfb30fd", "lon": -76.99529666666666}, {"is_disabled": 0, "type": "electric_scooter", "is_reserved": 0, "lat": 38.8905025, "rental_uris": {"ios": "https://dc.lft.to/lastmile_qr_scan", "android": "https://dc.lft.to/lastmile_qr_scan"}, "fusion_lon": 0.0, "fusion_lat": 0.0, "bike_id": "046053de76798de409a7849e6cb61d62", "name": "046053de76798de409a7849e6cb61d62", "lon": -76.9375275}, {"is_disabled": 0, "type": "electric_scooter", "is_reserved": 0, "lat": 38.88332116666667, "rental_uris": {"ios": "https://dc.lft.to/lastmile_qr_scan", "android": "https://dc.lft.to/lastmile_qr_scan"}, "fusion_lon": 0.0, "fusion_lat": 0.0, "bike_id": "81bcea485385b19ba77b7b6ffaaeefcf", "name": "81bcea485385b19ba77b7b6ffaaeefcf", "lon": -77.02173633333334}, {"is_disabled": 0, "type": "electric_scooter", "is_reserved": 0, "lat": 38.918177166666666, "rental_uris": {"ios": "https://dc.lft.to/lastmile_qr_scan", "android": "https://dc.lft.to/lastmile_qr_scan"}, "fusion_lon": 0.0, "fusion_lat": 0.0, "bike_id": "536e875fff801229d9e356b76b93101d", "name": "536e875fff801229d9e356b76b93101d", "lon": -77.02718866666666}, {"is_disabled": 0, "type": "electric_scooter", "is_reserved": 0, "lat": 38.9036455, "rental_uris": {"ios": "https://dc.lft.to/lastmile_qr_scan", "android": "https://dc.lft.to/lastmile_qr_scan"}, "fusion_lon": 0.0, "fusion_lat": 0.0, "bike_id": "1b6330d47121ab2679f058dce23f4f9c", "name": "1b6330d47121ab2679f058dce23f4f9c", "lon": -77.04189366666667}, {"is_disabled": 0, "type": "electric_bike", "is_reserved": 0, "lat": 38.91642616666667, "rental_uris": {"ios": "https://dc.lft.to/lastmile_qr_scan", "android": "https://dc.lft.to/lastmile_qr_scan"}, "fusion_lon": 0.0, "fusion_lat": 0.0, "bike_id": "c6428707d6cc62d893d08fce0dc3bce2", "name": "c6428707d6cc62d893d08fce0dc3bce2", "lon": -76.97172933333333}, {"is_disabled": 0, "type": "electric_scooter", "is_reserved": 0, "lat": 38.92050183333333, "rental_uris": {"ios": "https://dc.lft.to/lastmile_qr_scan", "android": "https://dc.lft.to/lastmile_qr_scan"}, "fusion_lon": 0.0, "fusion_lat": 0.0, "bike_id": "cc8862b0ae67f03b2124346ffe64af01", "name": "cc8862b0ae67f03b2124346ffe64af01", "lon": -77.03387983333333}, {"is_disabled": 0, "type": "electric_bike", "is_reserved": 0, "lat": 38.87923, "rental_uris": {"ios": "https://dc.lft.to/lastmile_qr_scan", "android": "https://dc.lft.to/lastmile_qr_scan"}, "fusion_lon": 0.0, "fusion_lat": 0.0, "bike_id": "7643ef51aa18b37dc8ab5674296aa555", "name": "7643ef51aa18b37dc8ab5674296aa555", "lon": -77.02386133333333}, {"is_disabled": 0, "type": "electric_scooter", "is_reserved": 0, "lat": 38.89035966666667, "rental_uris": {"ios": "https://dc.lft.to/lastmile_qr_scan", "android": "https://dc.lft.to/lastmile_qr_scan"}, "fusion_lon": 0.0, "fusion_lat": 0.0, "bike_id": "e980ca6d2f7d7afe4581d9d07602a359", "name": "e980ca6d2f7d7afe4581d9d07602a359", "lon": -76.95144766666667}, {"is_disabled": 0, "type": "electric_bike", "is_reserved": 0, "lat": 38.998304, "rental_uris": {"ios": "https://dc.lft.to/lastmile_qr_scan", "android": "https://dc.lft.to/lastmile_qr_scan"}, "fusion_lon": 0.0, "fusion_lat": 0.0, "bike_id": "bd3579af488e96f1b48f7561735610c9", "name": "bd3579af488e96f1b48f7561735610c9", "lon": -76.8837295}, {"is_disabled": 0, "type": "electric_scooter", "is_reserved": 0, "lat": 38.902659, "rental_uris": {"ios": "https://dc.lft.to/lastmile_qr_scan", "android": "https://dc.lft.to/lastmile_qr_scan"}, "fusion_lon": 0.0, "fusion_lat": 0.0, "bike_id": "0d2adc0d14b1a1400ff000a6dff7984a", "name": "0d2adc0d14b1a1400ff000a6dff7984a", "lon": -77.03836783333334}, {"is_disabled": 0, "type": "electric_scooter", "is_reserved": 0, "lat": 38.92289366666667, "rental_uris": {"ios": "https://dc.lft.to/lastmile_qr_scan", "android": "https://dc.lft.to/lastmile_qr_scan"}, "fusion_lon": 0.0, "fusion_lat": 0.0, "bike_id": "2a54599f97e1b8554fcfca2075f4feb1", "name": "2a54599f97e1b8554fcfca2075f4feb1", "lon": -77.036629}, {"is_disabled": 0, "type": "electric_scooter", "is_reserved": 0, "lat": 38.908810833333334, "rental_uris": {"ios": "https://dc.lft.to/lastmile_qr_scan", "android": "https://dc.lft.to/lastmile_qr_scan"}, "fusion_lon": 0.0, "fusion_lat": 0.0, "bike_id": "90c25ebd8ae149a76b5c25b5ec63f6cc", "name": "90c25ebd8ae149a76b5c25b5ec63f6cc", "lon": -77.043274}, {"is_disabled": 0, "type": "electric_scooter", "is_reserved": 0, "lat": 38.895563333333335, "rental_uris": {"ios": "https://dc.lft.to/lastmile_qr_scan", "android": "https://dc.lft.to/lastmile_qr_scan"}, "fusion_lon": 0.0, "fusion_lat": 0.0, "bike_id": "b9324ee8c04b1ee755a2bdf145d3cd0f", "name": "b9324ee8c04b1ee755a2bdf145d3cd0f", "lon": -77.029802}, {"is_disabled": 0, "type": "electric_scooter", "is_reserved": 0, "lat": 38.91997633333333, "rental_uris": {"ios": "https://dc.lft.to/lastmile_qr_scan", "android": "https://dc.lft.to/lastmile_qr_scan"}, "fusion_lon": 0.0, "fusion_lat": 0.0, "bike_id": "b923e46a67fa232f323b81afe5d70634", "name": "b923e46a67fa232f323b81afe5d70634", "lon": -77.041761}, {"is_disabled": 0, "type": "electric_bike", "is_reserved": 0, "lat": 38.949163666666664, "rental_uris": {"ios": "https://dc.lft.to/lastmile_qr_scan", "android": "https://dc.lft.to/lastmile_qr_scan"}, "fusion_lon": 0.0, "fusion_lat": 0.0, "bike_id": "8d5b01a6d4744089c064d28bfde159dd", "name": "8d5b01a6d4744089c064d28bfde159dd", "lon": -76.9770835}, {"is_disabled": 0, "type": "electric_bike", "is_reserved": 0, "lat": 38.939593, "rental_uris": {"ios": "https://dc.lft.to/lastmile_qr_scan", "android": "https://dc.lft.to/lastmile_qr_scan"}, "fusion_lon": 0.0, "fusion_lat": 0.0, "bike_id": "d8066ea704a315c9520388b3560bd410", "name": "d8066ea704a315c9520388b3560bd410", "lon": -77.36097433333333}, {"is_disabled": 0, "type": "electric_scooter", "is_reserved": 0, "lat": 38.9000335, "rental_uris": {"ios": "https://dc.lft.to/lastmile_qr_scan", "android": "https://dc.lft.to/lastmile_qr_scan"}, "fusion_lon": 0.0, "fusion_lat": 0.0, "bike_id": "924ecb5feab29a4c037eaf26054003f2", "name": "924ecb5feab29a4c037eaf26054003f2", "lon": -77.03278383333334}, {"is_disabled": 0, "type": "electric_bike", "is_reserved": 0, "lat": 38.9621835, "rental_uris": {"ios": "https://dc.lft.to/lastmile_qr_scan", "android": "https://dc.lft.to/lastmile_qr_scan"}, "fusion_lon": 0.0, "fusion_lat": 0.0, "bike_id": "b948bcfb570fe5e07807b51ac4c24a2d", "name": "b948bcfb570fe5e07807b51ac4c24a2d", "lon": -77.02627116666666}, {"is_disabled": 0, "type": "electric_scooter", "is_reserved": 0, "lat": 38.90595016666666, "rental_uris": {"ios": "https://dc.lft.to/lastmile_qr_scan", "android": "https://dc.lft.to/lastmile_qr_scan"}, "fusion_lon": 0.0, "fusion_lat": 0.0, "bike_id": "dea1cc8d641719a41939dbbb6b64c46f", "name": "dea1cc8d641719a41939dbbb6b64c46f", "lon": -77.0700265}, {"is_disabled": 0, "type": "electric_scooter", "is_reserved": 0, "lat": 38.9119355, "rental_uris": {"ios": "https://dc.lft.to/lastmile_qr_scan", "android": "https://dc.lft.to/lastmile_qr_scan"}, "fusion_lon": 0.0, "fusion_lat": 0.0, "bike_id": "af12dcc2678d1e3c79f9d8da9607294e", "name": "af12dcc2678d1e3c79f9d8da9607294e", "lon": -77.039684}, {"is_disabled": 0, "type": "electric_scooter", "is_reserved": 0, "lat": 38.89220433333333, "rental_uris": {"ios": "https://dc.lft.to/lastmile_qr_scan", "android": "https://dc.lft.to/lastmile_qr_scan"}, "fusion_lon": 0.0, "fusion_lat": 0.0, "bike_id": "6698bd1f0eb2288ebcf10857eb476131", "name": "6698bd1f0eb2288ebcf10857eb476131", "lon": -77.0221965}, {"is_disabled": 0, "type": "electric_bike", "is_reserved": 0, "lat": 39.02935933333333, "rental_uris": {"ios": "https://dc.lft.to/lastmile_qr_scan", "android": "https://dc.lft.to/lastmile_qr_scan"}, "fusion_lon": 0.0, "fusion_lat": 0.0, "bike_id": "39a0ff73f7074228f2189cc4a66f0b02", "name": "39a0ff73f7074228f2189cc4a66f0b02", "lon": -77.04930666666667}, {"is_disabled": 0, "type": "electric_scooter", "is_reserved": 0, "lat": 38.921297333333335, "rental_uris": {"ios": "https://dc.lft.to/lastmile_qr_scan", "android": "https://dc.lft.to/lastmile_qr_scan"}, "fusion_lon": 0.0, "fusion_lat": 0.0, "bike_id": "d5059e97310dc0ab5e83733caaaceaf8", "name": "d5059e97310dc0ab5e83733caaaceaf8", "lon": -77.0442785}, {"is_disabled": 0, "type": "electric_scooter", "is_reserved": 0, "lat": 38.900952333333336, "rental_uris": {"ios": "https://dc.lft.to/lastmile_qr_scan", "android": "https://dc.lft.to/lastmile_qr_scan"}, "fusion_lon": 0.0, "fusion_lat": 0.0, "bike_id": "11c2347075f0f5f5b214b5e92e7c9bac", "name": "11c2347075f0f5f5b214b5e92e7c9bac", "lon": -77.05038766666667}, {"is_disabled": 0, "type": "electric_scooter", "is_reserved": 0, "lat": 38.931174666666664, "rental_uris": {"ios": "https://dc.lft.to/lastmile_qr_scan", "android": "https://dc.lft.to/lastmile_qr_scan"}, "fusion_lon": 0.0, "fusion_lat": 0.0, "bike_id": "23c5924123add8b96726ae0c4f9b8cae", "name": "23c5924123add8b96726ae0c4f9b8cae", "lon": -77.02985133333334}, {"is_disabled": 0, "type": "electric_scooter", "is_reserved": 0, "lat": 38.9082755, "rental_uris": {"ios": "https://dc.lft.to/lastmile_qr_scan", "android": "https://dc.lft.to/lastmile_qr_scan"}, "fusion_lon": 0.0, "fusion_lat": 0.0, "bike_id": "43fab014ede928daa50e7bbe861eb9bf", "name": "43fab014ede928daa50e7bbe861eb9bf", "lon": -76.99452283333333}, {"is_disabled": 0, "type": "electric_scooter", "is_reserved": 0, "lat": 38.915660833333334, "rental_uris": {"ios": "https://dc.lft.to/lastmile_qr_scan", "android": "https://dc.lft.to/lastmile_qr_scan"}, "fusion_lon": 0.0, "fusion_lat": 0.0, "bike_id": "9ddd58278ef114159153d154a7e8eeaf", "name": "9ddd58278ef114159153d154a7e8eeaf", "lon": -77.02726983333334}, {"is_disabled": 0, "type": "electric_scooter", "is_reserved": 0, "lat": 38.89521416666667, "rental_uris": {"ios": "https://dc.lft.to/lastmile_qr_scan", "android": "https://dc.lft.to/lastmile_qr_scan"}, "fusion_lon": 0.0, "fusion_lat": 0.0, "bike_id": "27a52287156e56a88dba08ba8a4a55a4", "name": "27a52287156e56a88dba08ba8a4a55a4", "lon": -77.043391}, {"is_disabled": 0, "type": "electric_bike", "is_reserved": 0, "lat": 38.922624166666665, "rental_uris": {"ios": "https://dc.lft.to/lastmile_qr_scan", "android": "https://dc.lft.to/lastmile_qr_scan"}, "fusion_lon": 0.0, "fusion_lat": 0.0, "bike_id": "225e2d289bf385bed974a25b98bf9977", "name": "225e2d289bf385bed974a25b98bf9977", "lon": -76.981545}, {"is_disabled": 0, "type": "electric_scooter", "is_reserved": 0, "lat": 38.913039833333336, "rental_uris": {"ios": "https://dc.lft.to/lastmile_qr_scan", "android": "https://dc.lft.to/lastmile_qr_scan"}, "fusion_lon": 0.0, "fusion_lat": 0.0, "bike_id": "c90c784523d07205fc91c4dad78cdcb7", "name": "c90c784523d07205fc91c4dad78cdcb7", "lon": -77.04170566666667}, {"is_disabled": 0, "type": "electric_scooter", "is_reserved": 0, "lat": 38.956313333333334, "rental_uris": {"ios": "https://dc.lft.to/lastmile_qr_scan", "android": "https://dc.lft.to/lastmile_qr_scan"}, "fusion_lon": 0.0, "fusion_lat": 0.0, "bike_id": "5cc6906cc6c2321fc29b76d519824afc", "name": "5cc6906cc6c2321fc29b76d519824afc", "lon": -77.03296833333333}, {"is_disabled": 0, "type": "electric_scooter", "is_reserved": 0, "lat": 38.9057225, "rental_uris": {"ios": "https://dc.lft.to/lastmile_qr_scan", "android": "https://dc.lft.to/lastmile_qr_scan"}, "fusion_lon": 0.0, "fusion_lat": 0.0, "bike_id": "52a28941961471a2e4fdbb68c4ba5ad5", "name": "52a28941961471a2e4fdbb68c4ba5ad5", "lon": -77.02178916666666}, {"is_disabled": 0, "type": "electric_scooter", "is_reserved": 0, "lat": 38.924967333333335, "rental_uris": {"ios": "https://dc.lft.to/lastmile_qr_scan", "android": "https://dc.lft.to/lastmile_qr_scan"}, "fusion_lon": 0.0, "fusion_lat": 0.0, "bike_id": "dda7200648daa9f9bb27b4fe897bac4c", "name": "dda7200648daa9f9bb27b4fe897bac4c", "lon": -77.057564}, {"is_disabled": 0, "type": "electric_scooter", "is_reserved": 0, "lat": 38.92482566666666, "rental_uris": {"ios": "https://dc.lft.to/lastmile_qr_scan", "android": "https://dc.lft.to/lastmile_qr_scan"}, "fusion_lon": 0.0, "fusion_lat": 0.0, "bike_id": "f197992bc418a6d5f40b0e171181e497", "name": "f197992bc418a6d5f40b0e171181e497", "lon": -77.00897416666666}, {"is_disabled": 0, "type": "electric_scooter", "is_reserved": 0, "lat": 38.917590833333335, "rental_uris": {"ios": "https://dc.lft.to/lastmile_qr_scan", "android": "https://dc.lft.to/lastmile_qr_scan"}, "fusion_lon": 0.0, "fusion_lat": 0.0, "bike_id": "b00b8856b1f96d437c4cd974b2c66884", "name": "b00b8856b1f96d437c4cd974b2c66884", "lon": -77.02826716666667}, {"is_disabled": 0, "type": "electric_scooter", "is_reserved": 0, "lat": 38.9026665, "rental_uris": {"ios": "https://dc.lft.to/lastmile_qr_scan", "android": "https://dc.lft.to/lastmile_qr_scan"}, "fusion_lon": 0.0, "fusion_lat": 0.0, "bike_id": "d4d2485a621cd0cdbdbcf32d918ba536", "name": "d4d2485a621cd0cdbdbcf32d918ba536", "lon": -77.03955583333334}, {"is_disabled": 0, "type": "electric_bike", "is_reserved": 0, "lat": 38.85515083333333, "rental_uris": {"ios": "https://dc.lft.to/lastmile_qr_scan", "android": "https://dc.lft.to/lastmile_qr_scan"}, "fusion_lon": 0.0, "fusion_lat": 0.0, "bike_id": "9ec9bf66642aa50fc6818410744fe0e4", "name": "9ec9bf66642aa50fc6818410744fe0e4", "lon": -76.98405733333334}, {"is_disabled": 0, "type": "electric_scooter", "is_reserved": 0, "lat": 38.91635316666667, "rental_uris": {"ios": "https://dc.lft.to/lastmile_qr_scan", "android": "https://dc.lft.to/lastmile_qr_scan"}, "fusion_lon": 0.0, "fusion_lat": 0.0, "bike_id": "1b873356fb01ea38c8275fdee11e234a", "name": "1b873356fb01ea38c8275fdee11e234a", "lon": -77.025545}, {"is_disabled": 0, "type": "electric_scooter", "is_reserved": 0, "lat": 38.89532333333333, "rental_uris": {"ios": "https://dc.lft.to/lastmile_qr_scan", "android": "https://dc.lft.to/lastmile_qr_scan"}, "fusion_lon": 0.0, "fusion_lat": 0.0, "bike_id": "9dc7f6822d9cfbbcaaf693ea2effb82b", "name": "9dc7f6822d9cfbbcaaf693ea2effb82b", "lon": -77.03207133333333}, {"is_disabled": 0, "type": "electric_bike", "is_reserved": 0, "lat": 38.85770383333333, "rental_uris": {"ios": "https://dc.lft.to/lastmile_qr_scan", "android": "https://dc.lft.to/lastmile_qr_scan"}, "fusion_lon": 0.0, "fusion_lat": 0.0, "bike_id": "2f554d315e3531962d53f747c35d20b8", "name": "2f554d315e3531962d53f747c35d20b8", "lon": -76.98760783333333}, {"is_disabled": 0, "type": "electric_bike", "is_reserved": 0, "lat": 39.062919666666666, "rental_uris": {"ios": "https://dc.lft.to/lastmile_qr_scan", "android": "https://dc.lft.to/lastmile_qr_scan"}, "fusion_lon": 0.0, "fusion_lat": 0.0, "bike_id": "182c6621b9236fab636fa07ea45dc7f6", "name": "182c6621b9236fab636fa07ea45dc7f6", "lon": -77.049794}, {"is_disabled": 0, "type": "electric_scooter", "is_reserved": 0, "lat": 38.885155166666664, "rental_uris": {"ios": "https://dc.lft.to/lastmile_qr_scan", "android": "https://dc.lft.to/lastmile_qr_scan"}, "fusion_lon": 0.0, "fusion_lat": 0.0, "bike_id": "f3a9329506df980e9822627c90bdb1b4", "name": "f3a9329506df980e9822627c90bdb1b4", "lon": -77.00247383333334},