{"data": {"bikes": [{"lon": -77.01419566666667, "fusion_lon": 0.0, "bike_id": "fb344f3cb54f020dd848b74c29dd6624", "type": "electric_scooter", "name": "fb344f3cb54f020dd848b74c29dd6624", "rental_uris": {"android": "https://dc.lft.to/lastmile_qr_scan", "ios": "https://dc.lft.to/lastmile_qr_scan"}, "is_disabled": 0, "fusion_lat": 0.0, "lat": 38.92801266666667, "is_reserved": 0}, {"lon": -76.949416, "fusion_lon": 0.0, "bike_id": "50f73eb80f448798929310cee2ed60f6", "type": "electric_scooter", "name": "50f73eb80f448798929310cee2ed60f6", "rental_uris": {"android": "https://dc.lft.to/lastmile_qr_scan", "ios": "https://dc.lft.to/lastmile_qr_scan"}, "is_disabled": 0, "fusion_lat": 0.0, "lat": 38.893588, "is_reserved": 0}, {"lon": -77.07020883333334, "fusion_lon": 0.0, "bike_id": "5fd63395aac05be4b5bf0edf05fc656d", "type": "electric_scooter", "name": "5fd63395aac05be4b5bf0edf05fc656d", "rental_uris": {"android": "https://dc.lft.to/lastmile_qr_scan", "ios": "https://dc.lft.to/lastmile_qr_scan"}, "is_disabled": 0, "fusion_lat": 0.0, "lat": 38.906780833333336, "is_reserved": 0}, {"lon": -76.9791725, "fusion_lon": 0.0, "bike_id": "e59e36782715d9abfb8c935fc3dce1a1", "type": "electric_scooter", "name": "e59e36782715d9abfb8c935fc3dce1a1", "rental_uris": {"android": "https://dc.lft.to/lastmile_qr_scan", "ios": "https://dc.lft.to/lastmile_qr_scan"}, "is_disabled": 0, "fusion_lat": 0.0, "lat": 38.884134333333336, "is_reserved": 0}, {"lon": -77.02410316666666, "fusion_lon": 0.0, "bike_id": "66908815f5bb46d28a9fe0458e101ec1", "type": "electric_scooter", "name": "66908815f5bb46d28a9fe0458e101ec1", "rental_uris": {"android": "https://dc.lft.to/lastmile_qr_scan", "ios": "https://dc.lft.to/lastmile_qr_scan"}, "is_disabled": 0, "fusion_lat": 0.0, "lat": 38.91544, "is_reserved": 0}, {"lon": -77.03191483333333, "fusion_lon": 0.0, "bike_id": "fc5d432cbfb6401160d10761a436fd67", "type": "electric_scooter", "name": "fc5d432cbfb6401160d10761a436fd67", "rental_uris": {"android": "https://dc.lft.to/lastmile_qr_scan", "ios": "https://dc.lft.to/lastmile_qr_scan"}, "is_disabled": 0, "fusion_lat": 0.0, "lat": 38.9036675, "is_reserved": 0}, {"lon": -77.13304366666667, "fusion_lon": 0.0, "bike_id": "499e53635454059c8a0075b41e4bf7ec", "type": "electric_bike", "name": "499e53635454059c8a0075b41e4bf7ec", "rental_uris": {"android": "https://dc.lft.to/lastmile_qr_scan", "ios": "https://dc.lft.to/lastmile_qr_scan"}, "is_disabled": 0, "fusion_lat": 0.0, "lat": 38.8871505, "is_reserved": 0}, {"lon": -77.00212233333333, "fusion_lon": 0.0, "bike_id": "cc3a34aa5a72b7ed40923dd2f03b8c13", "type": "electric_scooter", "name": "cc3a34aa5a72b7ed40923dd2f03b8c13", "rental_uris": {"android": "https://dc.lft.to/lastmile_qr_scan", "ios": "https://dc.lft.to/lastmile_qr_scan"}, "is_disabled": 0, "fusion_lat": 0.0, "lat": 38.895246666666665, "is_reserved": 0}, {"lon": -77.0455755, "fusion_lon": 0.0, "bike_id": "f16d3a3af6d0cec006b4d3cf0a5c520e", "type": "electric_scooter", "name": "f16d3a3af6d0cec006b4d3cf0a5c520e", "rental_uris": {"android": "https://dc.lft.to/lastmile_qr_scan", "ios": "https://dc.lft.to/lastmile_qr_scan"}, "is_disabled": 0, "fusion_lat": 0.0, "lat": 38.898399, "is_reserved": 0}, {"lon": -77.03805166666666, "fusion_lon": 0.0, "bike_id": "14a1b187a8c5769e011d392c7158e19e", "type": "electric_scooter", "name": "14a1b187a8c5769e011d392c7158e19e", "rental_uris": {"android": "https://dc.lft.to/lastmile_qr_scan", "ios": "https://dc.lft.to/lastmile_qr_scan"}, "is_disabled": 0, "fusion_lat": 0.0, "lat": 38.9025495, "is_reserved": 0}, {"lon": -77.08758683333333, "fusion_lon": 0.0, "bike_id": "1f8ccdfab7e3045ce5104ac58011f11d", "type": "electric_bike", "name": "1f8ccdfab7e3045ce5104ac58011f11d", "rental_uris": {"android": "https://dc.lft.to/lastmile_qr_scan", "ios": "https://dc.lft.to/lastmile_qr_scan"}, "is_disabled": 0, "fusion_lat": 0.0, "lat": 38.806542666666665, "is_reserved": 0}, {"lon": -76.99754933333334, "fusion_lon": 0.0, "bike_id": "799253ccb3a9d76ccf73df667d65604d", "type": "electric_scooter", "name": "799253ccb3a9d76ccf73df667d65604d", "rental_uris": {"android": "https://dc.lft.to/lastmile_qr_scan", "ios": "https://dc.lft.to/lastmile_qr_scan"}, "is_disabled": 0, "fusion_lat": 0.0, "lat": 38.90052133333333, "is_reserved": 0}, {"lon": -77.00285066666666, "fusion_lon": 0.0, "bike_id": "17667afd5b268d35a50f96be47aa38ab", "type": "electric_scooter", "name": "17667afd5b268d35a50f96be47aa38ab", "rental_uris": {"android": "https://dc.lft.to/lastmile_qr_scan", "ios": "https://dc.lft.to/lastmile_qr_scan"}, "is_disabled": 0, "fusion_lat": 0.0, "lat": 38.919111666666666, "is_reserved": 0}, {"lon": -77.03075633333333, "fusion_lon": 0.0, "bike_id": "56021b50e7e7569b2f8b1465309cecbc", "type": "electric_scooter", "name": "56021b50e7e7569b2f8b1465309cecbc", "rental_uris": {"android": "https://dc.lft.to/lastmile_qr_scan", "ios": "https://dc.lft.to/lastmile_qr_scan"}, "is_disabled": 0, "fusion_lat": 0.0, "lat": 38.90254383333333, "is_reserved": 0}, {"lon": -77.04944266666666, "fusion_lon": 0.0, "bike_id": "86fda027c528531779e1d23ba635c4b8", "type": "electric_scooter", "name": "86fda027c528531779e1d23ba635c4b8", "rental_uris": {"android": "https://dc.lft.to/lastmile_qr_scan", "ios": "https://dc.lft.to/lastmile_qr_scan"}, "is_disabled": 0, "fusion_lat": 0.0, "lat": 38.88822783333333, "is_reserved": 0}, {"lon": -76.94049566666666, "fusion_lon": 0.0, "bike_id": "6443b7bdde7bba44e7dce2ed502fe808", "type": "electric_bike", "name": "6443b7bdde7bba44e7dce2ed502fe808", "rental_uris": {"android": "https://dc.lft.to/lastmile_qr_scan", "ios": "https://dc.lft.to/lastmile_qr_scan"}, "is_disabled": 0, "fusion_lat": 0.0, "lat": 38.97856983333333, "is_reserved": 0}, {"lon": -77.02719233333333, "fusion_lon": 0.0, "bike_id": "4f8a00197efa22e11aaf12689cc3b9aa", "type": "electric_scooter", "name": "4f8a00197efa22e11aaf12689cc3b9aa", "rental_uris": {"android": "https://dc.lft.to/lastmile_qr_scan", "ios": "https://dc.lft.to/lastmile_qr_scan"}, "is_disabled": 0, "fusion_lat": 0.0, "lat": 38.904694166666665, "is_reserved": 0}, {"lon": -77.02412433333333, "fusion_lon": 0.0, "bike_id": "0920a2ed2b277993b52aa33a052c535d", "type": "electric_scooter", "name": "0920a2ed2b277993b52aa33a052c535d", "rental_uris": {"android": "https://dc.lft.to/lastmile_qr_scan", "ios": "https://dc.lft.to/lastmile_qr_scan"}, "is_disabled": 0, "fusion_lat": 0.0, "lat": 38.9154335, "is_reserved": 0}, {"lon": -77.01942716666667, "fusion_lon": 0.0, "bike_id": "c278cc2d6bb86a4efef16119e7c25fb2", "type": "electric_scooter", "name": "c278cc2d6bb86a4efef16119e7c25fb2", "rental_uris": {"android": "https://dc.lft.to/lastmile_qr_scan", "ios": "https://dc.lft.to/lastmile_qr_scan"}, "is_disabled": 0, "fusion_lat": 0.0, "lat": 38.92415616666667, "is_reserved": 0}, {"lon": -76.98711683333333, "fusion_lon": 0.0, "bike_id": "9df3d75fc685178df10f25110a7d33b5", "type": "electric_scooter", "name": "9df3d75fc685178df10f25110a7d33b5", "rental_uris": {"android": "https://dc.lft.to/lastmile_qr_scan", "ios": "https://dc.lft.to/lastmile_qr_scan"}, "is_disabled": 0, "fusion_lat": 0.0, "lat": 38.8669895, "is_reserved": 0}, {"lon": -76.94637083333333, "fusion_lon": 0.0, "bike_id": "da90d69afe7ecae1cec29d11ffd10c88", "type": "electric_scooter", "name": "da90d69afe7ecae1cec29d11ffd10c88", "rental_uris": {"android": "https://dc.lft.to/lastmile_qr_scan", "ios": "https://dc.lft.to/lastmile_qr_scan"}, "is_disabled": 0, "fusion_lat": 0.0, "lat": 38.898683166666665, "is_reserved": 0}, {"lon": -77.0321315, "fusion_lon": 0.0, "bike_id": "3fa4caaa454a88577cdf7467d02109ee", "type": "electric_scooter", "name": "3fa4caaa454a88577cdf7467d02109ee", "rental_uris": {"android": "https://dc.lft.to/lastmile_qr_scan", "ios": "https://dc.lft.to/lastmile_qr_scan"}, "is_disabled": 0, "fusion_lat": 0.0, "lat": 38.9113305, "is_reserved": 0}, {"lon": -76.99616433333334, "fusion_lon": 0.0, "bike_id": "8d5948364df0a4e9e4f974eb74341dfd", "type": "electric_scooter", "name": "8d5948364df0a4e9e4f974eb74341dfd", "rental_uris": {"android": "https://dc.lft.to/lastmile_qr_scan", "ios": "https://dc.lft.to/lastmile_qr_scan"}, "is_disabled": 0, "fusion_lat": 0.0, "lat": 38.9005855, "is_reserved": 0}, {"lon": -77.0347785, "fusion_lon": 0.0, "bike_id": "01df8448582c4bee62eb57cbbd9a152b", "type": "electric_scooter", "name": "01df8448582c4bee62eb57cbbd9a152b", "rental_uris": {"android": "https://dc.lft.to/lastmile_qr_scan", "ios": "https://dc.lft.to/lastmile_qr_scan"}, "is_disabled": 0, "fusion_lat": 0.0, "lat": 38.908818, "is_reserved": 0}, {"lon": -77.02803483333334, "fusion_lon": 0.0, "bike_id": "2eba84456787a038b7c20c85fd9b6cdd", "type": "electric_scooter", "name": "2eba84456787a038b7c20c85fd9b6cdd", "rental_uris": {"android": "https://dc.lft.to/lastmile_qr_scan", "ios": "https://dc.lft.to/lastmile_qr_scan"}, "is_disabled": 0, "fusion_lat": 0.0, "lat": 38.904704333333335, "is_reserved": 0}, {"lon": -77.03173133333334, "fusion_lon": 0.0, "bike_id": "b5f901337ca224b8e4f6be6f39449dea", "type": "electric_scooter", "name": "b5f901337ca224b8e4f6be6f39449dea", "rental_uris": {"android": "https://dc.lft.to/lastmile_qr_scan", "ios": "https://dc.lft.to/lastmile_qr_scan"}, "is_disabled": 0, "fusion_lat": 0.0, "lat": 38.920192166666666, "is_reserved": 0}, {"lon": -77.03744483333334, "fusion_lon": 0.0, "bike_id": "efa94c535d1ca7edc668df627a2c5b7f", "type": "electric_scooter", "name": "efa94c535d1ca7edc668df627a2c5b7f", "rental_uris": {"android": "https://dc.lft.to/lastmile_qr_scan", "ios": "https://dc.lft.to/lastmile_qr_scan"}, "is_disabled": 0, "fusion_lat": 0.0, "lat": 38.916903166666664, "is_reserved": 0}, {"lon": -77.01355733333334, "fusion_lon": 0.0, "bike_id": "5427ee35da6ccd44e94dbaa76d37be2e", "type": "electric_scooter", "name": "5427ee35da6ccd44e94dbaa76d37be2e", "rental_uris": {"android": "https://dc.lft.to/lastmile_qr_scan", "ios": "https://dc.lft.to/lastmile_qr_scan"}, "is_disabled": 0, "fusion_lat": 0.0, "lat": 38.871609666666664, "is_reserved": 0}, {"lon": -77.02287316666667, "fusion_lon": 0.0, "bike_id": "9005e9d6aeed7562776ae0d35e461f9b", "type": "electric_scooter", "name": "9005e9d6aeed7562776ae0d35e461f9b", "rental_uris": {"android": "https://dc.lft.to/lastmile_qr_scan", "ios": "https://dc.lft.to/lastmile_qr_scan"}, "is_disabled": 0, "fusion_lat": 0.0, "lat": 38.91603283333333, "is_reserved": 0}, {"lon": -77.02493483333333, "fusion_lon": 0.0, "bike_id": "0e283323307310d04e6e2a422cebdf3d", "type": "electric_scooter", "name": "0e283323307310d04e6e2a422cebdf3d", "rental_uris": {"android": "https://dc.lft.to/lastmile_qr_scan", "ios": "https://dc.lft.to/lastmile_qr_scan"}, "is_disabled": 0, "fusion_lat": 0.0, "lat": 38.918022666666666, "is_reserved": 0}, {"lon": -76.98466933333333, "fusion_lon": 0.0, "bike_id": "799bb958ea6d633a045cdff30e674b38", "type": "electric_scooter", "name": "799bb958ea6d633a045cdff30e674b38", "rental_uris": {"android": "https://dc.lft.to/lastmile_qr_scan", "ios": "https://dc.lft.to/lastmile_qr_scan"}, "is_disabled": 0, "fusion_lat": 0.0, "lat": 38.904001, "is_reserved": 0}, {"lon": -76.99736033333333, "fusion_lon": 0.0, "bike_id": "94efdd0dfdd80aef65da62bcdcd7be6b", "type": "electric_bike", "name": "94efdd0dfdd80aef65da62bcdcd7be6b", "rental_uris": {"android": "https://dc.lft.to/lastmile_qr_scan", "ios": "https://dc.lft.to/lastmile_qr_scan"}, "is_disabled": 0, "fusion_lat": 0.0, "lat": 39.042392166666666, "is_reserved": 0}, {"lon": -77.03996716666667, "fusion_lon": 0.0, "bike_id": "eb0d710b16fe9e621357e1a135fd15e9", "type": "electric_scooter", "name": "eb0d710b16fe9e621357e1a135fd15e9", "rental_uris": {"android": "https://dc.lft.to/lastmile_qr_scan", "ios": "https://dc.lft.to/lastmile_qr_scan"}, "is_disabled": 0, "fusion_lat": 0.0, "lat": 38.924508833333334, "is_reserved": 0}, {"lon": -77.0321325, "fusion_lon": 0.0, "bike_id": "3e956e1a4a61f5dc0361c8abe0519312", "type": "electric_scooter", "name": "3e956e1a4a61f5dc0361c8abe0519312", "rental_uris": {"android": "https://dc.lft.to/lastmile_qr_scan", "ios": "https://dc.lft.to/lastmile_qr_scan"}, "is_disabled": 0, "fusion_lat": 0.0, "lat": 38.9142125, "is_reserved": 0}, {"lon": -77.03188983333334, "fusion_lon": 0.0, "bike_id": "eed9aa74e0b20026793496cb39667a5a", "type": "electric_scooter", "name": "eed9aa74e0b20026793496cb39667a5a", "rental_uris": {"android": "https://dc.lft.to/lastmile_qr_scan", "ios": "https://dc.lft.to/lastmile_qr_scan"}, "is_disabled": 0, "fusion_lat": 0.0, "lat": 38.921403, "is_reserved": 0}, {"lon": -77.05507583333333, "fusion_lon": 0.0, "bike_id": "d0ec8796a3fe2b962b1182d29af63d9f", "type": "electric_scooter", "name": "d0ec8796a3fe2b962b1182d29af63d9f", "rental_uris": {"android": "https://dc.lft.to/lastmile_qr_scan", "ios": "https://dc.lft.to/lastmile_qr_scan"}, "is_disabled": 0, "fusion_lat": 0.0, "lat": 38.92830583333333, "is_reserved": 0}, {"lon": -77.032176, "fusion_lon": 0.0, "bike_id": "0fe35bbd9b48baf776e2010fa78b6be1", "type": "electric_scooter", "name": "0fe35bbd9b48baf776e2010fa78b6be1", "rental_uris": {"android": "https://dc.lft.to/lastmile_qr_scan", "ios": "https://dc.lft.to/lastmile_qr_scan"}, "is_disabled": 0, "fusion_lat": 0.0, "lat": 38.95786066666667, "is_reserved": 0}, {"lon": -77.02713716666666, "fusion_lon": 0.0, "bike_id": "d268fea16e947fa793f9c43b03800578", "type": "electric_scooter", "name": "d268fea16e947fa793f9c43b03800578", "rental_uris": {"android": "https://dc.lft.to/lastmile_qr_scan", "ios": "https://dc.lft.to/lastmile_qr_scan"}, "is_disabled": 0, "fusion_lat": 0.0, "lat": 38.924636, "is_reserved": 0}, {"lon": -77.01714866666667, "fusion_lon": 0.0, "bike_id": "613770d97cabb343e3beffbd81571a9f", "type": "electric_scooter", "name": "613770d97cabb343e3beffbd81571a9f", "rental_uris": {"android": "https://dc.lft.to/lastmile_qr_scan", "ios": "https://dc.lft.to/lastmile_qr_scan"}, "is_disabled": 0, "fusion_lat": 0.0, "lat": 38.917466166666664, "is_reserved": 0}, {"lon": -77.04551733333334, "fusion_lon": 0.0, "bike_id": "e870850a45ecfc0083a8a2fe681c0026", "type": "electric_scooter", "name": "e870850a45ecfc0083a8a2fe681c0026", "rental_uris": {"android": "https://dc.lft.to/lastmile_qr_scan", "ios": "https://dc.lft.to/lastmile_qr_scan"}, "is_disabled": 0, "fusion_lat": 0.0, "lat": 38.919418, "is_reserved": 0}, {"lon": -77.03251666666667, "fusion_lon": 0.0, "bike_id": "ca33bf434194f117ab923ce16745d036", "type": "electric_scooter", "name": "ca33bf434194f117ab923ce16745d036", "rental_uris": {"android": "https://dc.lft.to/lastmile_qr_scan", "ios": "https://dc.lft.to/lastmile_qr_scan"}, "is_disabled": 0, "fusion_lat": 0.0, "lat": 38.90544166666667, "is_reserved": 0}, {"lon": -77.01610533333333, "fusion_lon": 0.0, "bike_id": "319fc875370037b1f1cef4ce47eafefa", "type": "electric_scooter", "name": "319fc875370037b1f1cef4ce47eafefa", "rental_uris": {"android": "https://dc.lft.to/lastmile_qr_scan", "ios": "https://dc.lft.to/lastmile_qr_scan"}, "is_disabled": 0, "fusion_lat": 0.0, "lat": 38.899112333333335, "is_reserved": 0}, {"lon": -77.0007135, "fusion_lon": 0.0, "bike_id": "d05ea28e63fcaca3ec4b97a96944ccd7", "type": "electric_scooter", "name": "d05ea28e63fcaca3ec4b97a96944ccd7", "rental_uris": {"android": "https://dc.lft.to/lastmile_qr_scan", "ios": "https://dc.lft.to/lastmile_qr_scan"}, "is_disabled": 0, "fusion_lat": 0.0, "lat": 38.8736795, "is_reserved": 0}, {"lon": -76.9463, "fusion_lon": 0.0, "bike_id": "299d7ad72e372e740594aa876601e1b7", "type": "electric_scooter", "name": "299d7ad72e372e740594aa876601e1b7", "rental_uris": {"android": "https://dc.lft.to/lastmile_qr_scan", "ios": "https://dc.lft.to/lastmile_qr_scan"}, "is_disabled": 0, "fusion_lat": 0.0, "lat": 38.898655166666664, "is_reserved": 0}, {"lon": -77.02898, "fusion_lon": 0.0, "bike_id": "0c56895f60d30db4023e4fa2cd7497a1", "type": "electric_scooter", "name": "0c56895f60d30db4023e4fa2cd7497a1", "rental_uris": {"android": "https://dc.lft.to/lastmile_qr_scan", "ios": "https://dc.lft.to/lastmile_qr_scan"}, "is_disabled": 0, "fusion_lat": 0.0, "lat": 38.9169635, "is_reserved": 0}, {"lon": -77.06471933333333, "fusion_lon": 0.0, "bike_id": "166caa07399911d15367a6e9ab6c8227", "type": "electric_bike", "name": "166caa07399911d15367a6e9ab6c8227", "rental_uris": {"android": "https://dc.lft.to/lastmile_qr_scan", "ios": "https://dc.lft.to/lastmile_qr_scan"}, "is_disabled": 0, "fusion_lat": 0.0, "lat": 38.97376883333333, "is_reserved": 0}, {"lon": -77.028025, "fusion_lon": 0.0, "bike_id": "b672d74be766145b28e675534e6af068", "type": "electric_scooter", "name": "b672d74be766145b28e675534e6af068", "rental_uris": {"android": "https://dc.lft.to/lastmile_qr_scan", "ios": "https://dc.lft.to/lastmile_qr_scan"}, "is_disabled": 0, "fusion_lat": 0.0, "lat": 38.9007025, "is_reserved": 0}, {"lon": -77.02386916666667, "fusion_lon": 0.0, "bike_id": "b7f37149ade9385bbee6c97090fa2737", "type": "electric_scooter", "name": "b7f37149ade9385bbee6c97090fa2737", "rental_uris": {"android": "https://dc.lft.to/lastmile_qr_scan", "ios": "https://dc.lft.to/lastmile_qr_scan"}, "is_disabled": 0, "fusion_lat": 0.0, "lat": 38.91270316666667, "is_reserved": 0}, {"lon": -76.99824166666667, "fusion_lon": 0.0, "bike_id": "2d28125644fb52094cbf04532c0bd19a", "type": "electric_scooter", "name": "2d28125644fb52094cbf04532c0bd19a", "rental_uris": {"android": "https://dc.lft.to/lastmile_qr_scan", "ios": "https://dc.lft.to/lastmile_qr_scan"}, "is_disabled": 0, "fusion_lat": 0.0, "lat": 38.885302833333334, "is_reserved": 0}, {"lon": -76.99503, "fusion_lon": 0.0, "bike_id": "66154d52577b29aa35b5abbb961b9977", "type": "electric_scooter", "name": "66154d52577b29aa35b5abbb961b9977", "rental_uris": {"android": "https://dc.lft.to/lastmile_qr_scan", "ios": "https://dc.lft.to/lastmile_qr_scan"}, "is_disabled": 0, "fusion_lat": 0.0, "lat": 38.862455, "is_reserved": 0}, {"lon": -77.02490366666666, "fusion_lon": 0.0, "bike_id": "3648669a143456ca8ea828ecbca58843", "type": "electric_scooter", "name": "3648669a143456ca8ea828ecbca58843", "rental_uris": {"android": "https://dc.lft.to/lastmile_qr_scan", "ios": "https://dc.lft.to/lastmile_qr_scan"}, "is_disabled": 0, "fusion_lat": 0.0, "lat": 38.884375666666664, "is_reserved": 0}, {"lon": -76.98674216666667, "fusion_lon": 0.0, "bike_id": "2b83eabc052b118ea1773059d0f1ed90", "type": "electric_bike", "name": "2b83eabc052b118ea1773059d0f1ed90", "rental_uris": {"android": "https://dc.lft.to/lastmile_qr_scan", "ios": "https://dc.lft.to/lastmile_qr_scan"}, "is_disabled": 0, "fusion_lat": 0.0, "lat": 38.90007466666667, "is_reserved": 0}, {"lon": -77.03535766666667, "fusion_lon": 0.0, "bike_id": "2cbb0a6c0120085fb8815787109fab3c", "type": "electric_scooter", "name": "2cbb0a6c0120085fb8815787109fab3c", "rental_uris": {"android": "https://dc.lft.to/lastmile_qr_scan", "ios": "https://dc.lft.to/lastmile_qr_scan"}, "is_disabled": 0, "fusion_lat": 0.0, "lat": 38.90254733333333, "is_reserved": 0}, {"lon": -77.07471316666667, "fusion_lon": 0.0, "bike_id": "e387c5255ae4c0800f5a4fa922fc4d7b", "type": "electric_scooter", "name": "e387c5255ae4c0800f5a4fa922fc4d7b", "rental_uris": {"android": "https://dc.lft.to/lastmile_qr_scan", "ios": "https://dc.lft.to/lastmile_qr_scan"}, "is_disabled": 0, "fusion_lat": 0.0, "lat": 38.912532166666665, "is_reserved": 0}, {"lon": -77.039011, "fusion_lon": 0.0, "bike_id": "d23c7f80c006ed937c61573fa4a02ebd", "type": "electric_scooter", "name": "d23c7f80c006ed937c61573fa4a02ebd", "rental_uris": {"android": "https://dc.lft.to/lastmile_qr_scan", "ios": "https://dc.lft.to/lastmile_qr_scan"}, "is_disabled": 0, "fusion_lat": 0.0, "lat": 38.9221835, "is_reserved": 0}, {"lon": -77.04373033333333, "fusion_lon": 0.0, "bike_id": "4ce135ff587416ff23369fb3d37012f7", "type": "electric_scooter", "name": "4ce135ff587416ff23369fb3d37012f7", "rental_uris": {"android": "https://dc.lft.to/lastmile_qr_scan", "ios": "https://dc.lft.to/lastmile_qr_scan"}, "is_disabled": 0, "fusion_lat": 0.0, "lat": 38.92231133333333, "is_reserved": 0}, {"lon": -77.04643166666666, "fusion_lon": 0.0, "bike_id": "2bfb1b86432b9536ea8b2137f9f2fcaf", "type": "electric_scooter", "name": "2bfb1b86432b9536ea8b2137f9f2fcaf", "rental_uris": {"android": "https://dc.lft.to/lastmile_qr_scan", "ios": "https://dc.lft.to/lastmile_qr_scan"}, "is_disabled": 0, "fusion_lat": 0.0, "lat": 38.90293233333333, "is_reserved": 0}, {"lon": -77.04847, "fusion_lon": 0.0, "bike_id": "76f8a7658b637b5b508e94f314b0b826", "type": "electric_scooter", "name": "76f8a7658b637b5b508e94f314b0b826", "rental_uris": {"android": "https://dc.lft.to/lastmile_qr_scan", "ios": "https://dc.lft.to/lastmile_qr_scan"}, "is_disabled": 0, "fusion_lat": 0.0, "lat": 38.91517283333334, "is_reserved": 0}, {"lon": -77.02517516666667, "fusion_lon": 0.0, "bike_id": "4f0c9209f27fcfd8c4c4f65992282868", "type": "electric_scooter", "name": "4f0c9209f27fcfd8c4c4f65992282868", "rental_uris": {"android": "https://dc.lft.to/lastmile_qr_scan", "ios": "https://dc.lft.to/lastmile_qr_scan"}, "is_disabled": 0, "fusion_lat": 0.0, "lat": 38.92086466666667, "is_reserved": 0}, {"lon": -77.02298733333333, "fusion_lon": 0.0, "bike_id": "17edfdddd29ea6b8465743914a02e3b6", "type": "electric_scooter", "name": "17edfdddd29ea6b8465743914a02e3b6", "rental_uris": {"android": "https://dc.lft.to/lastmile_qr_scan", "ios": "https://dc.lft.to/lastmile_qr_scan"}, "is_disabled": 0, "fusion_lat": 0.0, "lat": 38.9274545, "is_reserved": 0}, {"lon": -76.9994565, "fusion_lon": 0.0, "bike_id": "ffc343337af901c339c567368e7d01b5", "type": "electric_scooter", "name": "ffc343337af901c339c567368e7d01b5", "rental_uris": {"android": "https://dc.lft.to/lastmile_qr_scan", "ios": "https://dc.lft.to/lastmile_qr_scan"}, "is_disabled": 0, "fusion_lat": 0.0, "lat": 38.89161033333333, "is_reserved": 0}, {"lon": -77.00060833333333, "fusion_lon": 0.0, "bike_id": "0a1831c56d489d8b492057d5a5f80a07", "type": "electric_scooter", "name": "0a1831c56d489d8b492057d5a5f80a07", "rental_uris": {"android": "https://dc.lft.to/lastmile_qr_scan", "ios": "https://dc.lft.to/lastmile_qr_scan"}, "is_disabled": 0, "fusion_lat": 0.0, "lat": 38.8768095, "is_reserved": 0}, {"lon": -77.029629, "fusion_lon": 0.0, "bike_id": "592a37f3addee70a4304e29a6fef469d", "type": "electric_scooter", "name": "592a37f3addee70a4304e29a6fef469d", "rental_uris": {"android": "https://dc.lft.to/lastmile_qr_scan", "ios": "https://dc.lft.to/lastmile_qr_scan"}, "is_disabled": 0, "fusion_lat": 0.0, "lat": 38.922625833333335, "is_reserved": 0}, {"lon": -77.0217355, "fusion_lon": 0.0, "bike_id": "66ad8d61a19c01cc5b354bd7bb686769", "type": "electric_scooter", "name": "66ad8d61a19c01cc5b354bd7bb686769", "rental_uris": {"android": "https://dc.lft.to/lastmile_qr_scan", "ios": "https://dc.lft.to/lastmile_qr_scan"}, "is_disabled": 0, "fusion_lat": 0.0, "lat": 38.909742666666666, "is_reserved": 0}, {"lon": -77.0433735, "fusion_lon": 0.0, "bike_id": "ed7ffbdf841948304b4ad032c5611cb1", "type": "electric_scooter", "name": "ed7ffbdf841948304b4ad032c5611cb1", "rental_uris": {"android": "https://dc.lft.to/lastmile_qr_scan", "ios": "https://dc.lft.to/lastmile_qr_scan"}, "is_disabled": 0, "fusion_lat": 0.0, "lat": 38.905045, "is_reserved": 0}, {"lon": -76.9778115, "fusion_lon": 0.0, "bike_id": "2145f906dd85aaf4311da449c14d0ba2", "type": "electric_scooter", "name": "2145f906dd85aaf4311da449c14d0ba2", "rental_uris": {"android": "https://dc.lft.to/lastmile_qr_scan", "ios": "https://dc.lft.to/lastmile_qr_scan"}, "is_disabled": 0, "fusion_lat": 0.0, "lat": 38.905638833333335, "is_reserved": 0}, {"lon": -77.05152566666666, "fusion_lon": 0.0, "bike_id": "b359cf9021b6ad5cf6416a3108071ebb", "type": "electric_scooter", "name": "b359cf9021b6ad5cf6416a3108071ebb", "rental_uris": {"android": "https://dc.lft.to/lastmile_qr_scan", "ios": "https://dc.lft.to/lastmile_qr_scan"}, "is_disabled": 0, "fusion_lat": 0.0, "lat": 38.92372316666667, "is_reserved": 0}, {"lon": -77.03387666666667, "fusion_lon": 0.0, "bike_id": "2d72bea586f52d565f2d7b662d3dc027", "type": "electric_scooter", "name": "2d72bea586f52d565f2d7b662d3dc027", "rental_uris": {"android": "https://dc.lft.to/lastmile_qr_scan", "ios": "https://dc.lft.to/lastmile_qr_scan"}, "is_disabled": 0, "fusion_lat": 0.0, "lat": 38.92150516666667, "is_reserved": 0}, {"lon": -76.98684683333333, "fusion_lon": 0.0, "bike_id": "4dd73d323e77035c742c74d9089dbc62", "type": "electric_scooter", "name": "4dd73d323e77035c742c74d9089dbc62", "rental_uris": {"android": "https://dc.lft.to/lastmile_qr_scan", "ios": "https://dc.lft.to/lastmile_qr_scan"}, "is_disabled": 0, "fusion_lat": 0.0, "lat": 38.87754183333333, "is_reserved": 0}, {"lon": -77.04108783333334, "fusion_lon": 0.0, "bike_id": "0e407c38298027244c633e2ed0da2ae6", "type": "electric_scooter", "name": "0e407c38298027244c633e2ed0da2ae6", "rental_uris": {"android": "https://dc.lft.to/lastmile_qr_scan", "ios": "https://dc.lft.to/lastmile_qr_scan"}, "is_disabled": 0, "fusion_lat": 0.0, "lat": 38.916950666666665, "is_reserved": 0}, {"lon": -76.94627766666666, "fusion_lon": 0.0, "bike_id": "4e80e797deabc6234d3e5bbbf66737db", "type": "electric_bike", "name": "4e80e797deabc6234d3e5bbbf66737db", "rental_uris": {"android": "https://dc.lft.to/lastmile_qr_scan", "ios": "https://dc.lft.to/lastmile_qr_scan"}, "is_disabled": 0, "fusion_lat": 0.0, "lat": 38.8324225, "is_reserved": 0}, {"lon": -77.03796383333334, "fusion_lon": 0.0, "bike_id": "097024f7f0285a884bf540ccd53bd82c", "type": "electric_scooter", "name": "097024f7f0285a884bf540ccd53bd82c", "rental_uris": {"android": "https://dc.lft.to/lastmile_qr_scan", "ios": "https://dc.lft.to/lastmile_qr_scan"}, "is_disabled": 0, "fusion_lat": 0.0, "lat": 38.90245683333333, "is_reserved": 0}, {"lon": -77.04310166666667, "fusion_lon": 0.0, "bike_id": "082d1871eb4cc10031f9128516a034b0", "type": "electric_bike", "name": "082d1871eb4cc10031f9128516a034b0", "rental_uris": {"android": "https://dc.lft.to/lastmile_qr_scan", "ios": "https://dc.lft.to/lastmile_qr_scan"}, "is_disabled": 0, "fusion_lat": 0.0, "lat": 39.034352, "is_reserved": 0}, {"lon": -77.02984416666666, "fusion_lon": 0.0, "bike_id": "ddcde3cbbe10427d9fa45e795053cfbb", "type": "electric_scooter", "name": "ddcde3cbbe10427d9fa45e795053cfbb", "rental_uris": {"android": "https://dc.lft.to/lastmile_qr_scan", "ios": "https://dc.lft.to/lastmile_qr_scan"}, "is_disabled": 0, "fusion_lat": 0.0, "lat": 38.89715866666667, "is_reserved": 0}, {"lon": -76.95665066666666, "fusion_lon": 0.0, "bike_id": "7d24106a1b8c6f547cee88fb7a33df21", "type": "electric_bike", "name": "7d24106a1b8c6f547cee88fb7a33df21", "rental_uris": {"android": "https://dc.lft.to/lastmile_qr_scan", "ios": "https://dc.lft.to/lastmile_qr_scan"}, "is_disabled": 0, "fusion_lat": 0.0, "lat": 38.88465383333333, "is_reserved": 0}, {"lon": -77.0364185, "fusion_lon": 0.0, "bike_id": "4542dfb45c1be64a09333c3da5c27758", "type": "electric_scooter", "name": "4542dfb45c1be64a09333c3da5c27758", "rental_uris": {"android": "https://dc.lft.to/lastmile_qr_scan", "ios": "https://dc.lft.to/lastmile_qr_scan"}, "is_disabled": 0, "fusion_lat": 0.0, "lat": 38.92446783333333, "is_reserved": 0}, {"lon": -77.01806633333334, "fusion_lon": 0.0, "bike_id": "dbc274c8f72ef62615d93d48be148fe6", "type": "electric_scooter", "name": "dbc274c8f72ef62615d93d48be148fe6", "rental_uris": {"android": "https://dc.lft.to/lastmile_qr_scan", "ios": "https://dc.lft.to/lastmile_qr_scan"}, "is_disabled": 0, "fusion_lat": 0.0, "lat": 38.921416666666666, "is_reserved": 0}, {"lon": -77.0071355, "fusion_lon": 0.0, "bike_id": "09aea91773e3ab10f8ba69f2da18aed0", "type": "electric_scooter", "name": "09aea91773e3ab10f8ba69f2da18aed0", "rental_uris": {"android": "https://dc.lft.to/lastmile_qr_scan", "ios": "https://dc.lft.to/lastmile_qr_scan"}, "is_disabled": 0, "fusion_lat": 0.0, "lat": 38.88485816666667, "is_reserved": 0}, {"lon": -77.046255, "fusion_lon": 0.0, "bike_id": "359f3680559dd100b5e87cd4a131674c", "type": "electric_scooter", "name": "359f3680559dd100b5e87cd4a131674c", "rental_uris": {"android": "https://dc.lft.to/lastmile_qr_scan", "ios": "https://dc.lft.to/lastmile_qr_scan"}, "is_disabled": 0, "fusion_lat": 0.0, "lat": 38.897160666666664, "is_reserved": 0}, {"lon": -76.97329866666666, "fusion_lon": 0.0, "bike_id": "05e276da0c834b632b68ccdf5a0d68f0", "type": "electric_scooter", "name": "05e276da0c834b632b68ccdf5a0d68f0", "rental_uris": {"android": "https://dc.lft.to/lastmile_qr_scan", "ios": "https://dc.lft.to/lastmile_qr_scan"}, "is_disabled": 0, "fusion_lat": 0.0, "lat": 38.904117, "is_reserved": 0}, {"lon": -76.9869395, "fusion_lon": 0.0, "bike_id": "4e4360baefeaa4e37ab6005c0706bbae", "type": "electric_scooter", "name": "4e4360baefeaa4e37ab6005c0706bbae", "rental_uris": {"android": "https://dc.lft.to/lastmile_qr_scan", "ios": "https://dc.lft.to/lastmile_qr_scan"}, "is_disabled": 0, "fusion_lat": 0.0, "lat": 38.867209333333335, "is_reserved": 0}, {"lon": -77.03179166666666, "fusion_lon": 0.0, "bike_id": "643ded85809b2253e54d2bc20b72906e", "type": "electric_scooter", "name": "643ded85809b2253e54d2bc20b72906e", "rental_uris": {"android": "https://dc.lft.to/lastmile_qr_scan", "ios": "https://dc.lft.to/lastmile_qr_scan"}, "is_disabled": 0, "fusion_lat": 0.0, "lat": 38.924891333333335, "is_reserved": 0}, {"lon": -77.02285916666666, "fusion_lon": 0.0, "bike_id": "0feb883b3087101e63d2f805a0373bf4", "type": "electric_scooter", "name": "0feb883b3087101e63d2f805a0373bf4", "rental_uris": {"android": "https://dc.lft.to/lastmile_qr_scan", "ios": "https://dc.lft.to/lastmile_qr_scan"}, "is_disabled": 0, "fusion_lat": 0.0, "lat": 38.91566133333333, "is_reserved": 0}, {"lon": -77.04234316666667, "fusion_lon": 0.0, "bike_id": "77ecb42eae8f8b9c1987ebfe503028da", "type": "electric_scooter", "name": "77ecb42eae8f8b9c1987ebfe503028da", "rental_uris": {"android": "https://dc.lft.to/lastmile_qr_scan", "ios": "https://dc.lft.to/lastmile_qr_scan"}, "is_disabled": 0, "fusion_lat": 0.0, "lat": 38.928753666666665, "is_reserved": 0}, {"lon": -77.140608, "fusion_lon": 0.0, "bike_id": "af795ae97f40fa44a3924715b8baaca2", "type": "electric_bike", "name": "af795ae97f40fa44a3924715b8baaca2", "rental_uris": {"android": "https://dc.lft.to/lastmile_qr_scan", "ios": "https://dc.lft.to/lastmile_qr_scan"}, "is_disabled": 0, "fusion_lat": 0.0, "lat": 38.98766783333333, "is_reserved": 0}, {"lon": -77.00305083333333, "fusion_lon": 0.0, "bike_id": "748be2c881f501c2061772090eaaa03a", "type": "electric_scooter", "name": "748be2c881f501c2061772090eaaa03a", "rental_uris": {"android": "https://dc.lft.to/lastmile_qr_scan", "ios": "https://dc.lft.to/lastmile_qr_scan"}, "is_disabled": 0, "fusion_lat": 0.0, "lat": 38.92028233333333, "is_reserved": 0}, {"lon": -77.05973133333333, "fusion_lon": 0.0, "bike_id": "8af6354f297da78f0eda2587c0b73db8", "type": "electric_scooter", "name": "8af6354f297da78f0eda2587c0b73db8", "rental_uris": {"android": "https://dc.lft.to/lastmile_qr_scan", "ios": "https://dc.lft.to/lastmile_qr_scan"}, "is_disabled": 0, "fusion_lat": 0.0, "lat": 38.90108016666667, "is_reserved": 0}, {"lon": -77.02389466666666, "fusion_lon": 0.0, "bike_id": "5a3c8b3273f108d1379274c4e5070452", "type": "electric_scooter", "name": "5a3c8b3273f108d1379274c4e5070452", "rental_uris": {"android": "https://dc.lft.to/lastmile_qr_scan", "ios": "https://dc.lft.to/lastmile_qr_scan"}, "is_disabled": 0, "fusion_lat": 0.0, "lat": 38.919932, "is_reserved": 0}, {"lon": -77.029765, "fusion_lon": 0.0, "bike_id": "f816369cc1b2d1c0a77abd30967f2d1e", "type": "electric_bike", "name": "f816369cc1b2d1c0a77abd30967f2d1e", "rental_uris": {"android": "https://dc.lft.to/lastmile_qr_scan", "ios": "https://dc.lft.to/lastmile_qr_scan"}, "is_disabled": 0, "fusion_lat": 0.0, "lat": 38.924133166666664, "is_reserved": 0}, {"lon": -77.03334783333334, "fusion_lon": 0.0, "bike_id": "43f00707305fb3c5c8da7f187f1ec12b", "type": "electric_scooter", "name": "43f00707305fb3c5c8da7f187f1ec12b", "rental_uris": {"android": "https://dc.lft.to/lastmile_qr_scan", "ios": "https://dc.lft.to/lastmile_qr_scan"}, "is_disabled": 0, "fusion_lat": 0.0, "lat": 38.92162666666667, "is_reserved": 0}, {"lon": -77.02411116666667, "fusion_lon": 0.0, "bike_id": "96b4d2516f87bb71719712a9dc77c75f", "type": "electric_scooter", "name": "96b4d2516f87bb71719712a9dc77c75f", "rental_uris": {"android": "https://dc.lft.to/lastmile_qr_scan", "ios": "https://dc.lft.to/lastmile_qr_scan"}, "is_disabled": 0, "fusion_lat": 0.0, "lat": 38.913963, "is_reserved": 0}, {"lon": -77.063474, "fusion_lon": 0.0, "bike_id": "e08b6748436ff3759986415beb53598d", "type": "electric_scooter", "name": "e08b6748436ff3759986415beb53598d", "rental_uris": {"android": "https://dc.lft.to/lastmile_qr_scan", "ios": "https://dc.lft.to/lastmile_qr_scan"}, "is_disabled": 0, "fusion_lat": 0.0, "lat": 38.9067345, "is_reserved": 0}, {"lon": -76.9733305, "fusion_lon": 0.0, "bike_id": "4b5951832ca1fb815482eeea8333cb86", "type": "electric_scooter", "name": "4b5951832ca1fb815482eeea8333cb86", "rental_uris": {"android": "https://dc.lft.to/lastmile_qr_scan", "ios": "https://dc.lft.to/lastmile_qr_scan"}, "is_disabled": 0, "fusion_lat": 0.0, "lat": 38.90408583333333, "is_reserved": 0}, {"lon": -77.01896066666667, "fusion_lon": 0.0, "bike_id": "546fe4df5854fbb544fa8823db18d878", "type": "electric_scooter", "name": "546fe4df5854fbb544fa8823db18d878", "rental_uris": {"android": "https://dc.lft.to/lastmile_qr_scan", "ios": "https://dc.lft.to/lastmile_qr_scan"}, "is_disabled": 0, "fusion_lat": 0.0, "lat": 38.9091715, "is_reserved": 0}, {"lon": -77.01269, "fusion_lon": 0.0, "bike_id": "66de1c3e84e9afe610423cd65e7fa8a3", "type": "electric_scooter", "name": "66de1c3e84e9afe610423cd65e7fa8a3", "rental_uris": {"android": "https://dc.lft.to/lastmile_qr_scan", "ios": "https://dc.lft.to/lastmile_qr_scan"}, "is_disabled": 0, "fusion_lat": 0.0, "lat": 38.915420833333336, "is_reserved": 0}, {"lon": -77.0281, "fusion_lon": 0.0, "bike_id": "419f631fa9757c7236cb2f9d7be42b8c", "type": "electric_scooter", "name": "419f631fa9757c7236cb2f9d7be42b8c", "rental_uris": {"android": "https://dc.lft.to/lastmile_qr_scan", "ios": "https://dc.lft.to/lastmile_qr_scan"}, "is_disabled": 0, "fusion_lat": 0.0, "lat": 38.93075533333333, "is_reserved": 0}, {"lon": -77.02291883333334, "fusion_lon": 0.0, "bike_id": "809ac36614134071252ab36742251c5c", "type": "electric_scooter", "name": "809ac36614134071252ab36742251c5c", "rental_uris": {"android": "https://dc.lft.to/lastmile_qr_scan", "ios": "https://dc.lft.to/lastmile_qr_scan"}, "is_disabled": 0, "fusion_lat": 0.0, "lat": 38.915649333333334, "is_reserved": 0}, {"lon": -77.16231483333334, "fusion_lon": 0.0, "bike_id": "8643e7d3ddb80492e8ab8616471d6dfe", "type": "electric_bike", "name": "8643e7d3ddb80492e8ab8616471d6dfe", "rental_uris": {"android": "https://dc.lft.to/lastmile_qr_scan", "ios": "https://dc.lft.to/lastmile_qr_scan"}, "is_disabled": 0, "fusion_lat": 0.0, "lat": 38.886557, "is_reserved": 0}, {"lon": -77.033523, "fusion_lon": 0.0, "bike_id": "dddf93e3d0a75ccd30c916f44b9c02c4", "type": "electric_scooter", "name": "dddf93e3d0a75ccd30c916f44b9c02c4", "rental_uris": {"android": "https://dc.lft.to/lastmile_qr_scan", "ios": "https://dc.lft.to/lastmile_qr_scan"}, "is_disabled": 0, "fusion_lat": 0.0, "lat": 38.902817, "is_reserved": 0}, {"lon": -77.00199566666667, "fusion_lon": 0.0, "bike_id": "25d5d51264479d6fa526c064f3ecde80", "type": "electric_scooter", "name": "25d5d51264479d6fa526c064f3ecde80", "rental_uris": {"android": "https://dc.lft.to/lastmile_qr_scan", "ios": "https://dc.lft.to/lastmile_qr_scan"}, "is_disabled": 0, "fusion_lat": 0.0, "lat": 38.902423666666664, "is_reserved": 0}, {"lon": -77.04834533333333, "fusion_lon": 0.0, "bike_id": "66faa9d03b3f0d1adcaea3cb16285bb4", "type": "electric_scooter", "name": "66faa9d03b3f0d1adcaea3cb16285bb4", "rental_uris": {"android": "https://dc.lft.to/lastmile_qr_scan", "ios": "https://dc.lft.to/lastmile_qr_scan"}, "is_disabled": 0, "fusion_lat": 0.0, "lat": 38.9008775, "is_reserved": 0}, {"lon": -77.00282933333334, "fusion_lon": 0.0, "bike_id": "a66d568d81e3c893ab61fdd0fc851f3c", "type": "electric_bike", "name": "a66d568d81e3c893ab61fdd0fc851f3c", "rental_uris": {"android": "https://dc.lft.to/lastmile_qr_scan", "ios": "https://dc.lft.to/lastmile_qr_scan"}, "is_disabled": 0, "fusion_lat": 0.0, "lat": 38.95708666666667, "is_reserved": 0}, {"lon": -77.04552116666666, "fusion_lon": 0.0, "bike_id": "1605c72fd6719d79583d1e3e0f3dc6d2", "type": "electric_scooter", "name": "1605c72fd6719d79583d1e3e0f3dc6d2", "rental_uris": {"android": "https://dc.lft.to/lastmile_qr_scan", "ios": "https://dc.lft.to/lastmile_qr_scan"}, "is_disabled": 0, "fusion_lat": 0.0, "lat": 38.917617, "is_reserved": 0}, {"lon": -77.02951983333334, "fusion_lon": 0.0, "bike_id": "0645322950c1209c7d831efb8f549f0b", "type": "electric_scooter", "name": "0645322950c1209c7d831efb8f549f0b", "rental_uris": {"android": "https://dc.lft.to/lastmile_qr_scan", "ios": "https://dc.lft.to/lastmile_qr_scan"}, "is_disabled": 0, "fusion_lat": 0.0, "lat": 38.91707483333333, "is_reserved": 0}, {"lon": -77.01739366666666, "fusion_lon": 0.0, "bike_id": "317c2371228c0b23fb49b6fd8705a836", "type": "electric_scooter", "name": "317c2371228c0b23fb49b6fd8705a836", "rental_uris": {"android": "https://dc.lft.to/lastmile_qr_scan", "ios": "https://dc.lft.to/lastmile_qr_scan"}, "is_disabled": 0, "fusion_lat": 0.0, "lat": 38.90261366666667, "is_reserved": 0}, {"lon": -77.02166383333333, "fusion_lon": 0.0, "bike_id": "ece9b122d8ff9f787272002a5d273e6c", "type": "electric_scooter", "name": "ece9b122d8ff9f787272002a5d273e6c", "rental_uris": {"android": "https://dc.lft.to/lastmile_qr_scan", "ios": "https://dc.lft.to/lastmile_qr_scan"}, "is_disabled": 0, "fusion_lat": 0.0, "lat": 38.942914, "is_reserved": 0}, {"lon": -77.06322666666667, "fusion_lon": 0.0, "bike_id": "f7f246425719a9821513ffb001460c98", "type": "electric_bike", "name": "f7f246425719a9821513ffb001460c98", "rental_uris": {"android": "https://dc.lft.to/lastmile_qr_scan", "ios": "https://dc.lft.to/lastmile_qr_scan"}, "is_disabled": 0, "fusion_lat": 0.0, "lat": 38.80047616666667, "is_reserved": 0}, {"lon": -77.019925, "fusion_lon": 0.0, "bike_id": "394286dca943f95714b07c18d7f4fcfe", "type": "electric_scooter", "name": "394286dca943f95714b07c18d7f4fcfe", "rental_uris": {"android": "https://dc.lft.to/lastmile_qr_scan", "ios": "https://dc.lft.to/lastmile_qr_scan"}, "is_disabled": 0, "fusion_lat": 0.0, "lat": 38.930804, "is_reserved": 0}, {"lon": -77.12980683333333, "fusion_lon": 0.0, "bike_id": "dbaac2eabedd2eca8ca11079cd8b930d", "type": "electric_bike", "name": "dbaac2eabedd2eca8ca11079cd8b930d", "rental_uris": {"android": "https://dc.lft.to/lastmile_qr_scan", "ios": "https://dc.lft.to/lastmile_qr_scan"}, "is_disabled": 0, "fusion_lat": 0.0, "lat": 38.799798333333335, "is_reserved": 0}, {"lon": -77.041193, "fusion_lon": 0.0, "bike_id": "5a329dd59aec0ca34206fc25085294df", "type": "electric_scooter", "name": "5a329dd59aec0ca34206fc25085294df", "rental_uris": {"android": "https://dc.lft.to/lastmile_qr_scan", "ios": "https://dc.lft.to/lastmile_qr_scan"}, "is_disabled": 0, "fusion_lat": 0.0, "lat": 38.933563, "is_reserved": 0}, {"lon": -76.99458666666666, "fusion_lon": 0.0, "bike_id": "f4bc5139a1074374a9ea8f8a4e0ea092", "type": "electric_scooter", "name": "f4bc5139a1074374a9ea8f8a4e0ea092", "rental_uris": {"android": "https://dc.lft.to/lastmile_qr_scan", "ios": "https://dc.lft.to/lastmile_qr_scan"}, "is_disabled": 0, "fusion_lat": 0.0, "lat": 38.862183333333334, "is_reserved": 0}, {"lon": -77.0283615, "fusion_lon": 0.0, "bike_id": "78165be259fe57d52afeab86f4416df3", "type": "electric_scooter", "name": "78165be259fe57d52afeab86f4416df3", "rental_uris": {"android": "https://dc.lft.to/lastmile_qr_scan", "ios": "https://dc.lft.to/lastmile_qr_scan"}, "is_disabled": 0, "fusion_lat": 0.0, "lat": 38.93202316666667, "is_reserved": 0}, {"lon": -77.02223466666666, "fusion_lon": 0.0, "bike_id": "e1994147f49f41c58a7f587deab70a23", "type": "electric_scooter", "name": "e1994147f49f41c58a7f587deab70a23", "rental_uris": {"android": "https://dc.lft.to/lastmile_qr_scan", "ios": "https://dc.lft.to/lastmile_qr_scan"}, "is_disabled": 0, "fusion_lat": 0.0, "lat": 38.90854616666667, "is_reserved": 0}, {"lon": -77.023914, "fusion_lon": 0.0, "bike_id": "a571d825ff1116a48cc8e8ad40e665d6", "type": "electric_scooter", "name": "a571d825ff1116a48cc8e8ad40e665d6", "rental_uris": {"android": "https://dc.lft.to/lastmile_qr_scan", "ios": "https://dc.lft.to/lastmile_qr_scan"}, "is_disabled": 0, "fusion_lat": 0.0, "lat": 38.9167745, "is_reserved": 0}, {"lon": -77.03914133333333, "fusion_lon": 0.0, "bike_id": "1a91aaddadace193a1dd7772c827d139", "type": "electric_scooter", "name": "1a91aaddadace193a1dd7772c827d139", "rental_uris": {"android": "https://dc.lft.to/lastmile_qr_scan", "ios": "https://dc.lft.to/lastmile_qr_scan"}, "is_disabled": 0, "fusion_lat": 0.0, "lat": 38.90348483333333, "is_reserved": 0}, {"lon": -77.0514005, "fusion_lon": 0.0, "bike_id": "686759990bc6bf443d3a097089bb84fa", "type": "electric_scooter", "name": "686759990bc6bf443d3a097089bb84fa", "rental_uris": {"android": "https://dc.lft.to/lastmile_qr_scan", "ios": "https://dc.lft.to/lastmile_qr_scan"}, "is_disabled": 0, "fusion_lat": 0.0, "lat": 38.90635266666666, "is_reserved": 0}, {"lon": -77.02724833333333, "fusion_lon": 0.0, "bike_id": "49d1043668c6ad4e65768501548f525f", "type": "electric_scooter", "name": "49d1043668c6ad4e65768501548f525f", "rental_uris": {"android": "https://dc.lft.to/lastmile_qr_scan", "ios": "https://dc.lft.to/lastmile_qr_scan"}, "is_disabled": 0, "fusion_lat": 0.0, "lat": 38.9078455, "is_reserved": 0}, {"lon": -77.0533915, "fusion_lon": 0.0, "bike_id": "b6cfbc8ac1200d98caa0b90649a91f32", "type": "electric_scooter", "name": "b6cfbc8ac1200d98caa0b90649a91f32", "rental_uris": {"android": "https://dc.lft.to/lastmile_qr_scan", "ios": "https://dc.lft.to/lastmile_qr_scan"}, "is_disabled": 0, "fusion_lat": 0.0, "lat": 38.90004166666667, "is_reserved": 0}, {"lon": -76.93074849999999, "fusion_lon": 0.0, "bike_id": "6d24aaa7b2ff90b884c2ea3293290168", "type": "electric_scooter", "name": "6d24aaa7b2ff90b884c2ea3293290168", "rental_uris": {"android": "https://dc.lft.to/lastmile_qr_scan", "ios": "https://dc.lft.to/lastmile_qr_scan"}, "is_disabled": 0, "fusion_lat": 0.0, "lat": 38.90164766666667, "is_reserved": 0}, {"lon": -77.05680983333333, "fusion_lon": 0.0, "bike_id": "358a10c0c693611993828da162c0a013", "type": "electric_scooter", "name": "358a10c0c693611993828da162c0a013", "rental_uris": {"android": "https://dc.lft.to/lastmile_qr_scan", "ios": "https://dc.lft.to/lastmile_qr_scan"}, "is_disabled": 0, "fusion_lat": 0.0, "lat": 38.95163933333333, "is_reserved": 0}, {"lon": -77.01088583333333, "fusion_lon": 0.0, "bike_id": "3f88ca8e457381e5c2d1a0330dcce3ad", "type": "electric_bike", "name": "3f88ca8e457381e5c2d1a0330dcce3ad", "rental_uris": {"android": "https://dc.lft.to/lastmile_qr_scan", "ios": "https://dc.lft.to/lastmile_qr_scan"}, "is_disabled": 0, "fusion_lat": 0.0, "lat": 38.8730165, "is_reserved": 0}, {"lon": -77.01197133333334, "fusion_lon": 0.0, "bike_id": "1ecf42b7bdc34b83aa630d1a05d8d204", "type": "electric_scooter", "name": "1ecf42b7bdc34b83aa630d1a05d8d204", "rental_uris": {"android": "https://dc.lft.to/lastmile_qr_scan", "ios": "https://dc.lft.to/lastmile_qr_scan"}, "is_disabled": 0, "fusion_lat": 0.0, "lat": 38.90045466666667, "is_reserved": 0}, {"lon": -77.079589, "fusion_lon": 0.0, "bike_id": "83bc7a8e224c2d65551d0fbb45a45155", "type": "electric_scooter", "name": "83bc7a8e224c2d65551d0fbb45a45155", "rental_uris": {"android": "https://dc.lft.to/lastmile_qr_scan", "ios": "https://dc.lft.to/lastmile_qr_scan"}, "is_disabled": 0, "fusion_lat": 0.0, "lat": 38.94562033333333, "is_reserved": 0}, {"lon": -77.022725, "fusion_lon": 0.0, "bike_id": "e8c947999b52e0eeaa0427c9d165b7c9", "type": "electric_scooter", "name": "e8c947999b52e0eeaa0427c9d165b7c9", "rental_uris": {"android": "https://dc.lft.to/lastmile_qr_scan", "ios": "https://dc.lft.to/lastmile_qr_scan"}, "is_disabled": 0, "fusion_lat": 0.0, "lat": 38.917796333333335, "is_reserved": 0}, {"lon": -77.02879166666666, "fusion_lon": 0.0, "bike_id": "d8a3b2b0fcc6b592e800abaf19fdda16", "type": "electric_scooter", "name": "d8a3b2b0fcc6b592e800abaf19fdda16", "rental_uris": {"android": "https://dc.lft.to/lastmile_qr_scan", "ios": "https://dc.lft.to/lastmile_qr_scan"}, "is_disabled": 0, "fusion_lat": 0.0, "lat": 38.9507825, "is_reserved": 0}, {"lon": -77.025055, "fusion_lon": 0.0, "bike_id": "71921c302c41a50371ce2b4c3cc6500e", "type": "electric_scooter", "name": "71921c302c41a50371ce2b4c3cc6500e", "rental_uris": {"android": "https://dc.lft.to/lastmile_qr_scan", "ios": "https://dc.lft.to/lastmile_qr_scan"}, "is_disabled": 0, "fusion_lat": 0.0, "lat": 38.907149, "is_reserved": 0}, {"lon": -77.02235366666666, "fusion_lon": 0.0, "bike_id": "aa30e17988746506618924ed7db3ff01", "type": "electric_scooter", "name": "aa30e17988746506618924ed7db3ff01", "rental_uris": {"android": "https://dc.lft.to/lastmile_qr_scan", "ios": "https://dc.lft.to/lastmile_qr_scan"}, "is_disabled": 0, "fusion_lat": 0.0, "lat": 38.912785, "is_reserved": 0}, {"lon": -77.0020725, "fusion_lon": 0.0, "bike_id": "222f816e9d821d0a368ee013f8c3e08e", "type": "electric_scooter", "name": "222f816e9d821d0a368ee013f8c3e08e", "rental_uris": {"android": "https://dc.lft.to/lastmile_qr_scan", "ios": "https://dc.lft.to/lastmile_qr_scan"}, "is_disabled": 0, "fusion_lat": 0.0, "lat": 38.965560333333336, "is_reserved": 0}, {"lon": -77.02296433333333, "fusion_lon": 0.0, "bike_id": "158e750b53782e99b575b8fa483b2fa6", "type": "electric_scooter", "name": "158e750b53782e99b575b8fa483b2fa6", "rental_uris": {"android": "https://dc.lft.to/lastmile_qr_scan", "ios": "https://dc.lft.to/lastmile_qr_scan"}, "is_disabled": 0, "fusion_lat": 0.0, "lat": 38.915929166666665, "is_reserved": 0}, {"lon": -76.98959083333334, "fusion_lon": 0.0, "bike_id": "fd4c258d9561531044d75a2efd1bb75d", "type": "electric_bike", "name": "fd4c258d9561531044d75a2efd1bb75d", "rental_uris": {"android": "https://dc.lft.to/lastmile_qr_scan", "ios": "https://dc.lft.to/lastmile_qr_scan"}, "is_disabled": 0, "fusion_lat": 0.0, "lat": 38.898920833333335, "is_reserved": 0}, {"lon": -77.0269415, "fusion_lon": 0.0, "bike_id": "384495b706c381f0692928316d7aa369", "type": "electric_scooter", "name": "384495b706c381f0692928316d7aa369", "rental_uris": {"android": "https://dc.lft.to/lastmile_qr_scan", "ios": "https://dc.lft.to/lastmile_qr_scan"}, "is_disabled": 0, "fusion_lat": 0.0, "lat": 38.89441083333333, "is_reserved": 0}, {"lon": -77.0449435, "fusion_lon": 0.0, "bike_id": "9a3578ed795906c57479a9bd55db6226", "type": "electric_scooter", "name": "9a3578ed795906c57479a9bd55db6226", "rental_uris": {"android": "https://dc.lft.to/lastmile_qr_scan", "ios": "https://dc.lft.to/lastmile_qr_scan"}, "is_disabled": 0, "fusion_lat": 0.0, "lat": 38.90020883333333, "is_reserved": 0}, {"lon": -77.0385485, "fusion_lon": 0.0, "bike_id": "cd9bcbfc04316f4c4148a597a9540c84", "type": "electric_scooter", "name": "cd9bcbfc04316f4c4148a597a9540c84", "rental_uris": {"android": "https://dc.lft.to/lastmile_qr_scan", "ios": "https://dc.lft.to/lastmile_qr_scan"}, "is_disabled": 0, "fusion_lat": 0.0, "lat": 38.917123833333335, "is_reserved": 0}, {"lon": -77.0573305, "fusion_lon": 0.0, "bike_id": "8cadb63ad4c508214f80d479a7cac0e8", "type": "electric_scooter", "name": "8cadb63ad4c508214f80d479a7cac0e8", "rental_uris": {"android": "https://dc.lft.to/lastmile_qr_scan", "ios": "https://dc.lft.to/lastmile_qr_scan"}, "is_disabled": 0, "fusion_lat": 0.0, "lat": 38.933635333333335, "is_reserved": 0}, {"lon": -77.00199016666667, "fusion_lon": 0.0, "bike_id": "51627f511bd74e8943748ac786dee5be", "type": "electric_scooter", "name": "51627f511bd74e8943748ac786dee5be", "rental_uris": {"android": "https://dc.lft.to/lastmile_qr_scan", "ios": "https://dc.lft.to/lastmile_qr_scan"}, "is_disabled": 0, "fusion_lat": 0.0, "lat": 38.902408, "is_reserved": 0}, {"lon": -77.07252683333333, "fusion_lon": 0.0, "bike_id": "c90a1c0400a3dbd14439e0d53d8fb374", "type": "electric_scooter", "name": "c90a1c0400a3dbd14439e0d53d8fb374", "rental_uris": {"android": "https://dc.lft.to/lastmile_qr_scan", "ios": "https://dc.lft.to/lastmile_qr_scan"}, "is_disabled": 0, "fusion_lat": 0.0, "lat": 38.93372866666667, "is_reserved": 0}, {"lon": -77.02170433333333, "fusion_lon": 0.0, "bike_id": "06401a8194a50272aa29cbcacb6a9110", "type": "electric_scooter", "name": "06401a8194a50272aa29cbcacb6a9110", "rental_uris": {"android": "https://dc.lft.to/lastmile_qr_scan", "ios": "https://dc.lft.to/lastmile_qr_scan"}, "is_disabled": 0, "fusion_lat": 0.0, "lat": 38.91612633333333, "is_reserved": 0}, {"lon": -77.02941433333334, "fusion_lon": 0.0, "bike_id": "91b72040b7249cd40d7c73c8b1d2adc8", "type": "electric_scooter", "name": "91b72040b7249cd40d7c73c8b1d2adc8", "rental_uris": {"android": "https://dc.lft.to/lastmile_qr_scan", "ios": "https://dc.lft.to/lastmile_qr_scan"}, "is_disabled": 0, "fusion_lat": 0.0, "lat": 38.9013795, "is_reserved": 0}, {"lon": -77.00007766666667, "fusion_lon": 0.0, "bike_id": "96c7898eb76535f63728308f26f28d5e", "type": "electric_scooter", "name": "96c7898eb76535f63728308f26f28d5e", "rental_uris": {"android": "https://dc.lft.to/lastmile_qr_scan", "ios": "https://dc.lft.to/lastmile_qr_scan"}, "is_disabled": 0, "fusion_lat": 0.0, "lat": 38.90024833333333, "is_reserved": 0}, {"lon": -77.027151, "fusion_lon": 0.0, "bike_id": "2e84a12e082c9f3c69e0ff56e6adaa86", "type": "electric_scooter", "name": "2e84a12e082c9f3c69e0ff56e6adaa86", "rental_uris": {"android": "https://dc.lft.to/lastmile_qr_scan", "ios": "https://dc.lft.to/lastmile_qr_scan"}, "is_disabled": 0, "fusion_lat": 0.0, "lat": 38.908496666666665, "is_reserved": 0}, {"lon": -77.02377066666666, "fusion_lon": 0.0, "bike_id": "a44f38add39378f3e3abd23416d5d5fc", "type": "electric_scooter", "name": "a44f38add39378f3e3abd23416d5d5fc", "rental_uris": {"android": "https://dc.lft.to/lastmile_qr_scan", "ios": "https://dc.lft.to/lastmile_qr_scan"}, "is_disabled": 0, "fusion_lat": 0.0, "lat": 38.896156833333336, "is_reserved": 0}, {"lon": -77.035159, "fusion_lon": 0.0, "bike_id": "07b66a9b3380dfbe162db0c22512b030", "type": "electric_scooter", "name": "07b66a9b3380dfbe162db0c22512b030", "rental_uris": {"android": "https://dc.lft.to/lastmile_qr_scan", "ios": "https://dc.lft.to/lastmile_qr_scan"}, "is_disabled": 0, "fusion_lat": 0.0, "lat": 38.923397666666666, "is_reserved": 0}, {"lon": -77.0346435, "fusion_lon": 0.0, "bike_id": "fc8bd66a52324e4ed096754f5c520fac", "type": "electric_scooter", "name": "fc8bd66a52324e4ed096754f5c520fac", "rental_uris": {"android": "https://dc.lft.to/lastmile_qr_scan", "ios": "https://dc.lft.to/lastmile_qr_scan"}, "is_disabled": 0, "fusion_lat": 0.0, "lat": 38.917153166666665, "is_reserved": 0}, {"lon": -77.02491366666666, "fusion_lon": 0.0, "bike_id": "79e8d8b7140246bfba3eb5c2e99811fe", "type": "electric_scooter", "name": "79e8d8b7140246bfba3eb5c2e99811fe", "rental_uris": {"android": "https://dc.lft.to/lastmile_qr_scan", "ios": "https://dc.lft.to/lastmile_qr_scan"}, "is_disabled": 0, "fusion_lat": 0.0, "lat": 38.94182433333334, "is_reserved": 0}, {"lon": -76.9819105, "fusion_lon": 0.0, "bike_id": "44e0509ebd99f2e8b3328bba4cef9507", "type": "electric_scooter", "name": "44e0509ebd99f2e8b3328bba4cef9507", "rental_uris": {"android": "https://dc.lft.to/lastmile_qr_scan", "ios": "https://dc.lft.to/lastmile_qr_scan"}, "is_disabled": 0, "fusion_lat": 0.0, "lat": 38.86203483333333, "is_reserved": 0}, {"lon": -76.986821, "fusion_lon": 0.0, "bike_id": "46b894805449f63afba2d03c735cb9d2", "type": "electric_scooter", "name": "46b894805449f63afba2d03c735cb9d2", "rental_uris": {"android": "https://dc.lft.to/lastmile_qr_scan", "ios": "https://dc.lft.to/lastmile_qr_scan"}, "is_disabled": 0, "fusion_lat": 0.0, "lat": 38.91290933333333, "is_reserved": 0}, {"lon": -77.02820466666667, "fusion_lon": 0.0, "bike_id": "6780bc55d5f08518c6752be9e8222a8e", "type": "electric_scooter", "name": "6780bc55d5f08518c6752be9e8222a8e", "rental_uris": {"android": "https://dc.lft.to/lastmile_qr_scan", "ios": "https://dc.lft.to/lastmile_qr_scan"}, "is_disabled": 0, "fusion_lat": 0.0, "lat": 38.930693166666664, "is_reserved": 0}, {"lon": -77.02362333333333, "fusion_lon": 0.0, "bike_id": "d985abd5dda9f831783c9aef699ba349", "type": "electric_scooter", "name": "d985abd5dda9f831783c9aef699ba349", "rental_uris": {"android": "https://dc.lft.to/lastmile_qr_scan", "ios": "https://dc.lft.to/lastmile_qr_scan"}, "is_disabled": 0, "fusion_lat": 0.0, "lat": 38.89607316666667, "is_reserved": 0}, {"lon": -76.98703516666667, "fusion_lon": 0.0, "bike_id": "a872e82982157a3d60cafe4bef8b35cf", "type": "electric_scooter", "name": "a872e82982157a3d60cafe4bef8b35cf", "rental_uris": {"android": "https://dc.lft.to/lastmile_qr_scan", "ios": "https://dc.lft.to/lastmile_qr_scan"}, "is_disabled": 0, "fusion_lat": 0.0, "lat": 38.86719316666667, "is_reserved": 0}, {"lon": -77.0384255, "fusion_lon": 0.0, "bike_id": "ab6e36b32eab044375391c40fe08edc2", "type": "electric_scooter", "name": "ab6e36b32eab044375391c40fe08edc2", "rental_uris": {"android": "https://dc.lft.to/lastmile_qr_scan", "ios": "https://dc.lft.to/lastmile_qr_scan"}, "is_disabled": 0, "fusion_lat": 0.0, "lat": 38.90491683333333, "is_reserved": 0}, {"lon": -77.003378, "fusion_lon": 0.0, "bike_id": "d4d80f09f0bd23deffad590002fa6874", "type": "electric_scooter", "name": "d4d80f09f0bd23deffad590002fa6874", "rental_uris": {"android": "https://dc.lft.to/lastmile_qr_scan", "ios": "https://dc.lft.to/lastmile_qr_scan"}, "is_disabled": 0, "fusion_lat": 0.0, "lat": 38.877257, "is_reserved": 0}, {"lon": -77.04784116666667, "fusion_lon": 0.0, "bike_id": "ddd31523b1752e83763d439417eef89e", "type": "electric_scooter", "name": "ddd31523b1752e83763d439417eef89e", "rental_uris": {"android": "https://dc.lft.to/lastmile_qr_scan", "ios": "https://dc.lft.to/lastmile_qr_scan"}, "is_disabled": 0, "fusion_lat": 0.0, "lat": 38.902237666666664, "is_reserved": 0}, {"lon": -77.0467455, "fusion_lon": 0.0, "bike_id": "9d879a360c454a292e65daadb0254c36", "type": "electric_scooter", "name": "9d879a360c454a292e65daadb0254c36", "rental_uris": {"android": "https://dc.lft.to/lastmile_qr_scan", "ios": "https://dc.lft.to/lastmile_qr_scan"}, "is_disabled": 0, "fusion_lat": 0.0, "lat": 38.894541333333336, "is_reserved": 0}, {"lon": -77.009863, "fusion_lon": 0.0, "bike_id": "824bab393fe4f5067e9c5a2a4acd7816", "type": "electric_scooter", "name": "824bab393fe4f5067e9c5a2a4acd7816", "rental_uris": {"android": "https://dc.lft.to/lastmile_qr_scan", "ios": "https://dc.lft.to/lastmile_qr_scan"}, "is_disabled": 0, "fusion_lat": 0.0, "lat": 38.906590333333334, "is_reserved": 0}, {"lon": -77.0318195, "fusion_lon": 0.0, "bike_id": "33bce1b10f7e60f467480b4ab94122e4", "type": "electric_scooter", "name": "33bce1b10f7e60f467480b4ab94122e4", "rental_uris": {"android": "https://dc.lft.to/lastmile_qr_scan", "ios": "https://dc.lft.to/lastmile_qr_scan"}, "is_disabled": 0, "fusion_lat": 0.0, "lat": 38.90973483333333, "is_reserved": 0}, {"lon": -76.97398133333333, "fusion_lon": 0.0, "bike_id": "de82409d4201c828388a07f876b99b3a", "type": "electric_bike", "name": "de82409d4201c828388a07f876b99b3a", "rental_uris": {"android": "https://dc.lft.to/lastmile_qr_scan", "ios": "https://dc.lft.to/lastmile_qr_scan"}, "is_disabled": 0, "fusion_lat": 0.0, "lat": 38.845241, "is_reserved": 0}, {"lon": -77.01582866666666, "fusion_lon": 0.0, "bike_id": "6f6b11e23146565eb8279fe2d68eca74", "type": "electric_scooter", "name": "6f6b11e23146565eb8279fe2d68eca74", "rental_uris": {"android": "https://dc.lft.to/lastmile_qr_scan", "ios": "https://dc.lft.to/lastmile_qr_scan"}, "is_disabled": 0, "fusion_lat": 0.0, "lat": 38.91569366666667, "is_reserved": 0}, {"lon": -76.998701, "fusion_lon": 0.0, "bike_id": "9e533540c1f0d3547667acab9ba2e06e", "type": "electric_scooter", "name": "9e533540c1f0d3547667acab9ba2e06e", "rental_uris": {"android": "https://dc.lft.to/lastmile_qr_scan", "ios": "https://dc.lft.to/lastmile_qr_scan"}, "is_disabled": 0, "fusion_lat": 0.0, "lat": 38.9100735, "is_reserved": 0}, {"lon": -77.0238835, "fusion_lon": 0.0, "bike_id": "e8f9dea33f7a747ed1fa854477ec80bc", "type": "electric_scooter", "name": "e8f9dea33f7a747ed1fa854477ec80bc", "rental_uris": {"android": "https://dc.lft.to/lastmile_qr_scan", "ios": "https://dc.lft.to/lastmile_qr_scan"}, "is_disabled": 0, "fusion_lat": 0.0, "lat": 38.91284683333333, "is_reserved": 0}, {"lon": -77.00470183333333, "fusion_lon": 0.0, "bike_id": "5a7531f13a9efddb5922d96ec3380b50", "type": "electric_scooter", "name": "5a7531f13a9efddb5922d96ec3380b50", "rental_uris": {"android": "https://dc.lft.to/lastmile_qr_scan", "ios": "https://dc.lft.to/lastmile_qr_scan"}, "is_disabled": 0, "fusion_lat": 0.0, "lat": 38.9107035, "is_reserved": 0}, {"lon": -77.03831766666667, "fusion_lon": 0.0, "bike_id": "23dc5bed1293f27f7395092eca20b9f7", "type": "electric_scooter", "name": "23dc5bed1293f27f7395092eca20b9f7", "rental_uris": {"android": "https://dc.lft.to/lastmile_qr_scan", "ios": "https://dc.lft.to/lastmile_qr_scan"}, "is_disabled": 0, "fusion_lat": 0.0, "lat": 38.921700666666666, "is_reserved": 0}, {"lon": -77.03186766666667, "fusion_lon": 0.0, "bike_id": "20b5444f64cdb481f2eb9ba8d181ce76", "type": "electric_scooter", "name": "20b5444f64cdb481f2eb9ba8d181ce76", "rental_uris": {"android": "https://dc.lft.to/lastmile_qr_scan", "ios": "https://dc.lft.to/lastmile_qr_scan"}, "is_disabled": 0, "fusion_lat": 0.0, "lat": 38.90873, "is_reserved": 0}, {"lon": -77.01092783333333, "fusion_lon": 0.0, "bike_id": "5555a97a77e3879c315f2e38c40a8fce", "type": "electric_scooter", "name": "5555a97a77e3879c315f2e38c40a8fce", "rental_uris": {"android": "https://dc.lft.to/lastmile_qr_scan", "ios": "https://dc.lft.to/lastmile_qr_scan"}, "is_disabled": 0, "fusion_lat": 0.0, "lat": 38.91742433333334, "is_reserved": 0}, {"lon": -77.052836, "fusion_lon": 0.0, "bike_id": "5447db9bbc81051dd24a440a4ec17dd5", "type": "electric_scooter", "name": "5447db9bbc81051dd24a440a4ec17dd5", "rental_uris": {"android": "https://dc.lft.to/lastmile_qr_scan", "ios": "https://dc.lft.to/lastmile_qr_scan"}, "is_disabled": 0, "fusion_lat": 0.0, "lat": 38.9051385, "is_reserved": 0}, {"lon": -77.048016, "fusion_lon": 0.0, "bike_id": "cb21b6e98753eaea5feec5b8ebc92db4", "type": "electric_scooter", "name": "cb21b6e98753eaea5feec5b8ebc92db4", "rental_uris": {"android": "https://dc.lft.to/lastmile_qr_scan", "ios": "https://dc.lft.to/lastmile_qr_scan"}, "is_disabled": 0, "fusion_lat": 0.0, "lat": 38.91937, "is_reserved": 0}, {"lon": -77.004258, "fusion_lon": 0.0, "bike_id": "ffef64180cb0d9cbeb0fe214c1c1dfdb", "type": "electric_scooter", "name": "ffef64180cb0d9cbeb0fe214c1c1dfdb", "rental_uris": {"android": "https://dc.lft.to/lastmile_qr_scan", "ios": "https://dc.lft.to/lastmile_qr_scan"}, "is_disabled": 0, "fusion_lat": 0.0, "lat": 38.876583833333335, "is_reserved": 0}, {"lon": -77.01637483333333, "fusion_lon": 0.0, "bike_id": "7f597faab38b579c0900dfa50bfa91cd", "type": "electric_scooter", "name": "7f597faab38b579c0900dfa50bfa91cd", "rental_uris": {"android": "https://dc.lft.to/lastmile_qr_scan", "ios": "https://dc.lft.to/lastmile_qr_scan"}, "is_disabled": 0, "fusion_lat": 0.0, "lat": 38.90373433333333, "is_reserved": 0}, {"lon": -77.0796595, "fusion_lon": 0.0, "bike_id": "f61eb0e5cf75742cfb142449f3b88c75", "type": "electric_scooter", "name": "f61eb0e5cf75742cfb142449f3b88c75", "rental_uris": {"android": "https://dc.lft.to/lastmile_qr_scan", "ios": "https://dc.lft.to/lastmile_qr_scan"}, "is_disabled": 0, "fusion_lat": 0.0, "lat": 38.94535716666667, "is_reserved": 0}, {"lon": -77.002933, "fusion_lon": 0.0, "bike_id": "e96081af3173e5191cfee91bcb7f8851", "type": "electric_scooter", "name": "e96081af3173e5191cfee91bcb7f8851", "rental_uris": {"android": "https://dc.lft.to/lastmile_qr_scan", "ios": "https://dc.lft.to/lastmile_qr_scan"}, "is_disabled": 0, "fusion_lat": 0.0, "lat": 38.90550066666667, "is_reserved": 0}, {"lon": -77.0315105, "fusion_lon": 0.0, "bike_id": "3b5d5c6ae2b2f01616a1b9a42df5d1e8", "type": "electric_scooter", "name": "3b5d5c6ae2b2f01616a1b9a42df5d1e8", "rental_uris": {"android": "https://dc.lft.to/lastmile_qr_scan", "ios": "https://dc.lft.to/lastmile_qr_scan"}, "is_disabled": 0, "fusion_lat": 0.0, "lat": 38.91562183333333, "is_reserved": 0}, {"lon": -77.001311, "fusion_lon": 0.0, "bike_id": "3758f538587fb82d086b050c6c881653", "type": "electric_scooter", "name": "3758f538587fb82d086b050c6c881653", "rental_uris": {"android": "https://dc.lft.to/lastmile_qr_scan", "ios": "https://dc.lft.to/lastmile_qr_scan"}, "is_disabled": 0, "fusion_lat": 0.0, "lat": 38.89271133333333, "is_reserved": 0}, {"lon": -77.01606833333334, "fusion_lon": 0.0, "bike_id": "49b830f0efd9042ee941c4ac71219631", "type": "electric_scooter", "name": "49b830f0efd9042ee941c4ac71219631", "rental_uris": {"android": "https://dc.lft.to/lastmile_qr_scan", "ios": "https://dc.lft.to/lastmile_qr_scan"}, "is_disabled": 0, "fusion_lat": 0.0, "lat": 38.9015745, "is_reserved": 0}, {"lon": -77.029664, "fusion_lon": 0.0, "bike_id": "dfbe8e6f84794d1cb60c1520926c987a", "type": "electric_scooter", "name": "dfbe8e6f84794d1cb60c1520926c987a", "rental_uris": {"android": "https://dc.lft.to/lastmile_qr_scan", "ios": "https://dc.lft.to/lastmile_qr_scan"}, "is_disabled": 0, "fusion_lat": 0.0, "lat": 38.9129645, "is_reserved": 0}, {"lon": -77.03706866666667, "fusion_lon": 0.0, "bike_id": "9041cf1fc9cef4e35c73462afa91bbae", "type": "electric_scooter", "name": "9041cf1fc9cef4e35c73462afa91bbae", "rental_uris": {"android": "https://dc.lft.to/lastmile_qr_scan", "ios": "https://dc.lft.to/lastmile_qr_scan"}, "is_disabled": 0, "fusion_lat": 0.0, "lat": 38.915581833333334, "is_reserved": 0}, {"lon": -77.0250325, "fusion_lon": 0.0, "bike_id": "f329bb5e62b285f668c4c45bd241d9b5", "type": "electric_scooter", "name": "f329bb5e62b285f668c4c45bd241d9b5", "rental_uris": {"android": "https://dc.lft.to/lastmile_qr_scan", "ios": "https://dc.lft.to/lastmile_qr_scan"}, "is_disabled": 0, "fusion_lat": 0.0, "lat": 38.91925883333333, "is_reserved": 0}, {"lon": -77.02295383333333, "fusion_lon": 0.0, "bike_id": "8cb87f5bda54319233067959665d03f9", "type": "electric_scooter", "name": "8cb87f5bda54319233067959665d03f9", "rental_uris": {"android": "https://dc.lft.to/lastmile_qr_scan", "ios": "https://dc.lft.to/lastmile_qr_scan"}, "is_disabled": 0, "fusion_lat": 0.0, "lat": 38.91701233333333, "is_reserved": 0}, {"lon": -77.04571783333333, "fusion_lon": 0.0, "bike_id": "408c3fc0e33deb29f2bdaca841ede40c", "type": "electric_scooter", "name": "408c3fc0e33deb29f2bdaca841ede40c", "rental_uris": {"android": "https://dc.lft.to/lastmile_qr_scan", "ios": "https://dc.lft.to/lastmile_qr_scan"}, "is_disabled": 0, "fusion_lat": 0.0, "lat": 38.90223683333333, "is_reserved": 0}, {"lon": -77.0385755, "fusion_lon": 0.0, "bike_id": "017e48c8ba85fe07892327975c12bbff", "type": "electric_scooter", "name": "017e48c8ba85fe07892327975c12bbff", "rental_uris": {"android": "https://dc.lft.to/lastmile_qr_scan", "ios": "https://dc.lft.to/lastmile_qr_scan"}, "is_disabled": 0, "fusion_lat": 0.0, "lat": 38.9025985, "is_reserved": 0}, {"lon": -77.03183366666667, "fusion_lon": 0.0, "bike_id": "4c167261fb5d9967da44407099bbfa2e", "type": "electric_scooter", "name": "4c167261fb5d9967da44407099bbfa2e", "rental_uris": {"android": "https://dc.lft.to/lastmile_qr_scan", "ios": "https://dc.lft.to/lastmile_qr_scan"}, "is_disabled": 0, "fusion_lat": 0.0, "lat": 38.9248165, "is_reserved": 0}, {"lon": -76.98000683333333, "fusion_lon": 0.0, "bike_id": "9604cf9cc73cb239bf0003018f5875b7", "type": "electric_scooter", "name": "9604cf9cc73cb239bf0003018f5875b7", "rental_uris": {"android": "https://dc.lft.to/lastmile_qr_scan", "ios": "https://dc.lft.to/lastmile_qr_scan"}, "is_disabled": 0, "fusion_lat": 0.0, "lat": 38.864260333333334, "is_reserved": 0}, {"lon": -77.00051133333334, "fusion_lon": 0.0, "bike_id": "dac206262e26392b102cdb2304db75ff", "type": "electric_scooter", "name": "dac206262e26392b102cdb2304db75ff", "rental_uris": {"android": "https://dc.lft.to/lastmile_qr_scan", "ios": "https://dc.lft.to/lastmile_qr_scan"}, "is_disabled": 0, "fusion_lat": 0.0, "lat": 38.923590833333336, "is_reserved": 0}, {"lon": -77.0067925, "fusion_lon": 0.0, "bike_id": "8e7135ad4a974f9a13a051ea3eb3cb57", "type": "electric_scooter", "name": "8e7135ad4a974f9a13a051ea3eb3cb57", "rental_uris": {"android": "https://dc.lft.to/lastmile_qr_scan", "ios": "https://dc.lft.to/lastmile_qr_scan"}, "is_disabled": 0, "fusion_lat": 0.0, "lat": 38.90012433333333, "is_reserved": 0}, {"lon": -77.03650666666667, "fusion_lon": 0.0, "bike_id": "7e0dcc31f13ec0a71472bad526a9aeaa", "type": "electric_scooter", "name": "7e0dcc31f13ec0a71472bad526a9aeaa", "rental_uris": {"android": "https://dc.lft.to/lastmile_qr_scan", "ios": "https://dc.lft.to/lastmile_qr_scan"}, "is_disabled": 0, "fusion_lat": 0.0, "lat": 38.90651066666667, "is_reserved": 0}, {"lon": -76.99980616666667, "fusion_lon": 0.0, "bike_id": "5a4b77573b362f86886ced27f5d6d0bb", "type": "electric_scooter", "name": "5a4b77573b362f86886ced27f5d6d0bb", "rental_uris": {"android": "https://dc.lft.to/lastmile_qr_scan", "ios": "https://dc.lft.to/lastmile_qr_scan"}, "is_disabled": 0, "fusion_lat": 0.0, "lat": 38.874968833333334, "is_reserved": 0}, {"lon": -77.00954633333333, "fusion_lon": 0.0, "bike_id": "7d0c581ec130c7120a571e33815429e7", "type": "electric_scooter", "name": "7d0c581ec130c7120a571e33815429e7", "rental_uris": {"android": "https://dc.lft.to/lastmile_qr_scan", "ios": "https://dc.lft.to/lastmile_qr_scan"}, "is_disabled": 0, "fusion_lat": 0.0, "lat": 38.91812216666667, "is_reserved": 0}, {"lon": -77.03201233333333, "fusion_lon": 0.0, "bike_id": "80a15d01a74c947abe629a4126cce6b9", "type": "electric_scooter", "name": "80a15d01a74c947abe629a4126cce6b9", "rental_uris": {"android": "https://dc.lft.to/lastmile_qr_scan", "ios": "https://dc.lft.to/lastmile_qr_scan"}, "is_disabled": 0, "fusion_lat": 0.0, "lat": 38.916782, "is_reserved": 0}, {"lon": -77.02089033333333, "fusion_lon": 0.0, "bike_id": "43475126116e0cdd50f556789aaaf5c8", "type": "electric_scooter", "name": "43475126116e0cdd50f556789aaaf5c8", "rental_uris": {"android": "https://dc.lft.to/lastmile_qr_scan", "ios": "https://dc.lft.to/lastmile_qr_scan"}, "is_disabled": 0, "fusion_lat": 0.0, "lat": 38.919126, "is_reserved": 0}, {"lon": -76.98959316666667, "fusion_lon": 0.0, "bike_id": "f1592f34e53a40e8aa041fbf5705b9cf", "type": "electric_scooter", "name": "f1592f34e53a40e8aa041fbf5705b9cf", "rental_uris": {"android": "https://dc.lft.to/lastmile_qr_scan", "ios": "https://dc.lft.to/lastmile_qr_scan"}, "is_disabled": 0, "fusion_lat": 0.0, "lat": 38.8999865, "is_reserved": 0}, {"lon": -77.02735516666667, "fusion_lon": 0.0, "bike_id": "ee9443cf31f4b85d5fce849bf45bd177", "type": "electric_scooter", "name": "ee9443cf31f4b85d5fce849bf45bd177", "rental_uris": {"android": "https://dc.lft.to/lastmile_qr_scan", "ios": "https://dc.lft.to/lastmile_qr_scan"}, "is_disabled": 0, "fusion_lat": 0.0, "lat": 38.9559985, "is_reserved": 0}, {"lon": -77.034411, "fusion_lon": 0.0, "bike_id": "3e73f13c1b5f5f9b34f44ac84ba9d011", "type": "electric_scooter", "name": "3e73f13c1b5f5f9b34f44ac84ba9d011", "rental_uris": {"android": "https://dc.lft.to/lastmile_qr_scan", "ios": "https://dc.lft.to/lastmile_qr_scan"}, "is_disabled": 0, "fusion_lat": 0.0, "lat": 38.90947216666667, "is_reserved": 0}, {"lon": -77.03907016666666, "fusion_lon": 0.0, "bike_id": "07caccc2f051508e05bf860aa3d69335", "type": "electric_scooter", "name": "07caccc2f051508e05bf860aa3d69335", "rental_uris": {"android": "https://dc.lft.to/lastmile_qr_scan", "ios": "https://dc.lft.to/lastmile_qr_scan"}, "is_disabled": 0, "fusion_lat": 0.0, "lat": 38.90464983333333, "is_reserved": 0}, {"lon": -77.04020216666666, "fusion_lon": 0.0, "bike_id": "aaf3fcdd0d95329678be3ecdbebeac31", "type": "electric_scooter", "name": "aaf3fcdd0d95329678be3ecdbebeac31", "rental_uris": {"android": "https://dc.lft.to/lastmile_qr_scan", "ios": "https://dc.lft.to/lastmile_qr_scan"}, "is_disabled": 0, "fusion_lat": 0.0, "lat": 38.896498, "is_reserved": 0}, {"lon": -77.0292875, "fusion_lon": 0.0, "bike_id": "ca68b7dfe6fd7e9e2c4b10699d039110", "type": "electric_scooter", "name": "ca68b7dfe6fd7e9e2c4b10699d039110", "rental_uris": {"android": "https://dc.lft.to/lastmile_qr_scan", "ios": "https://dc.lft.to/lastmile_qr_scan"}, "is_disabled": 0, "fusion_lat": 0.0, "lat": 38.899734, "is_reserved": 0}, {"lon": -77.02490016666667, "fusion_lon": 0.0, "bike_id": "0cd3a9cfa7eee6c5fdd78006a5348c1e", "type": "electric_scooter", "name": "0cd3a9cfa7eee6c5fdd78006a5348c1e", "rental_uris": {"android": "https://dc.lft.to/lastmile_qr_scan", "ios": "https://dc.lft.to/lastmile_qr_scan"}, "is_disabled": 0, "fusion_lat": 0.0, "lat": 38.916882, "is_reserved": 0}, {"lon": -77.02500333333333, "fusion_lon": 0.0, "bike_id": "537554b397b5ffdc9bf2cf3c2b81dbb5", "type": "electric_scooter", "name": "537554b397b5ffdc9bf2cf3c2b81dbb5", "rental_uris": {"android": "https://dc.lft.to/lastmile_qr_scan", "ios": "https://dc.lft.to/lastmile_qr_scan"}, "is_disabled": 0, "fusion_lat": 0.0, "lat": 38.940917, "is_reserved": 0}, {"lon": -76.98351833333334, "fusion_lon": 0.0, "bike_id": "069e83f0455adc125a163dba41326dee", "type": "electric_bike", "name": "069e83f0455adc125a163dba41326dee", "rental_uris": {"android": "https://dc.lft.to/lastmile_qr_scan", "ios": "https://dc.lft.to/lastmile_qr_scan"}, "is_disabled": 0, "fusion_lat": 0.0, "lat": 38.862611333333334, "is_reserved": 0}, {"lon": -77.0342845, "fusion_lon": 0.0, "bike_id": "49cf01ad03fe152658d8095821e47bf8", "type": "electric_scooter", "name": "49cf01ad03fe152658d8095821e47bf8", "rental_uris": {"android": "https://dc.lft.to/lastmile_qr_scan", "ios": "https://dc.lft.to/lastmile_qr_scan"}, "is_disabled": 0, "fusion_lat": 0.0, "lat": 38.92733616666666, "is_reserved": 0}, {"lon": -77.03452566666667, "fusion_lon": 0.0, "bike_id": "7ba2bb9498f40e2cb99fc57f3398e958", "type": "electric_scooter", "name": "7ba2bb9498f40e2cb99fc57f3398e958", "rental_uris": {"android": "https://dc.lft.to/lastmile_qr_scan", "ios": "https://dc.lft.to/lastmile_qr_scan"}, "is_disabled": 0, "fusion_lat": 0.0, "lat": 38.917972166666665, "is_reserved": 0}, {"lon": -77.02220733333333, "fusion_lon": 0.0, "bike_id": "a08136cca1073677ef2c7e02c69a9344", "type": "electric_scooter", "name": "a08136cca1073677ef2c7e02c69a9344", "rental_uris": {"android": "https://dc.lft.to/lastmile_qr_scan", "ios": "https://dc.lft.to/lastmile_qr_scan"}, "is_disabled": 0, "fusion_lat": 0.0, "lat": 38.908217, "is_reserved": 0}, {"lon": -77.02709983333334, "fusion_lon": 0.0, "bike_id": "436ea47a24ea26fd05438cda13d37da6", "type": "electric_scooter", "name": "436ea47a24ea26fd05438cda13d37da6", "rental_uris": {"android": "https://dc.lft.to/lastmile_qr_scan", "ios": "https://dc.lft.to/lastmile_qr_scan"}, "is_disabled": 0, "fusion_lat": 0.0, "lat": 38.91715716666667, "is_reserved": 0}, {"lon": -76.90424433333334, "fusion_lon": 0.0, "bike_id": "f4a20e614d866efbd60dcd858d3a4623", "type": "electric_bike", "name": "f4a20e614d866efbd60dcd858d3a4623", "rental_uris": {"android": "https://dc.lft.to/lastmile_qr_scan", "ios": "https://dc.lft.to/lastmile_qr_scan"}, "is_disabled": 0, "fusion_lat": 0.0, "lat": 38.940509166666665, "is_reserved": 0}, {"lon": -77.0387225, "fusion_lon": 0.0, "bike_id": "ec0664da4bf4020ac6f82cb64f59a171", "type": "electric_scooter", "name": "ec0664da4bf4020ac6f82cb64f59a171", "rental_uris": {"android": "https://dc.lft.to/lastmile_qr_scan", "ios": "https://dc.lft.to/lastmile_qr_scan"}, "is_disabled": 0, "fusion_lat": 0.0, "lat": 38.91703833333333, "is_reserved": 0}, {"lon": -77.04535183333333, "fusion_lon": 0.0, "bike_id": "176e03c1c5c5f84e1091005bd983a6d2", "type": "electric_scooter", "name": "176e03c1c5c5f84e1091005bd983a6d2", "rental_uris": {"android": "https://dc.lft.to/lastmile_qr_scan", "ios": "https://dc.lft.to/lastmile_qr_scan"}, "is_disabled": 0, "fusion_lat": 0.0, "lat": 38.894712166666665, "is_reserved": 0}, {"lon": -77.0515605, "fusion_lon": 0.0, "bike_id": "bb549e83bbc39c84317af0f45457efb5", "type": "electric_scooter", "name": "bb549e83bbc39c84317af0f45457efb5", "rental_uris": {"android": "https://dc.lft.to/lastmile_qr_scan", "ios": "https://dc.lft.to/lastmile_qr_scan"}, "is_disabled": 0, "fusion_lat": 0.0, "lat": 38.92380216666667, "is_reserved": 0}, {"lon": -77.00386483333334, "fusion_lon": 0.0, "bike_id": "7656f506f3cb4637685363f2b20d9890", "type": "electric_scooter", "name": "7656f506f3cb4637685363f2b20d9890", "rental_uris": {"android": "https://dc.lft.to/lastmile_qr_scan", "ios": "https://dc.lft.to/lastmile_qr_scan"}, "is_disabled": 0, "fusion_lat": 0.0, "lat": 38.8485055, "is_reserved": 0}, {"lon": -77.03574416666666, "fusion_lon": 0.0, "bike_id": "91ff70672f08911c35172dacfc356629", "type": "electric_scooter", "name": "91ff70672f08911c35172dacfc356629", "rental_uris": {"android": "https://dc.lft.to/lastmile_qr_scan", "ios": "https://dc.lft.to/lastmile_qr_scan"}, "is_disabled": 0, "fusion_lat": 0.0, "lat": 38.91877816666667, "is_reserved": 0}, {"lon": -77.031478, "fusion_lon": 0.0, "bike_id": "87b180d5007bfed9b5bab42955ebdc97", "type": "electric_scooter", "name": "87b180d5007bfed9b5bab42955ebdc97", "rental_uris": {"android": "https://dc.lft.to/lastmile_qr_scan", "ios": "https://dc.lft.to/lastmile_qr_scan"}, "is_disabled": 0, "fusion_lat": 0.0, "lat": 38.91276466666667, "is_reserved": 0}, {"lon": -77.03265733333333, "fusion_lon": 0.0, "bike_id": "94aa64c2dc5cd7570bc1adabe6e844fb", "type": "electric_scooter", "name": "94aa64c2dc5cd7570bc1adabe6e844fb", "rental_uris": {"android": "https://dc.lft.to/lastmile_qr_scan", "ios": "https://dc.lft.to/lastmile_qr_scan"}, "is_disabled": 0, "fusion_lat": 0.0, "lat": 38.897028666666664, "is_reserved": 0}, {"lon": -77.03828683333333, "fusion_lon": 0.0, "bike_id": "2694d5652820c08fd7e24f0c347be871", "type": "electric_scooter", "name": "2694d5652820c08fd7e24f0c347be871", "rental_uris": {"android": "https://dc.lft.to/lastmile_qr_scan", "ios": "https://dc.lft.to/lastmile_qr_scan"}, "is_disabled": 0, "fusion_lat": 0.0, "lat": 38.903177166666666, "is_reserved": 0}, {"lon": -77.0229385, "fusion_lon": 0.0, "bike_id": "501adb0c30de47c7b0dffe36e37dadc4", "type": "electric_scooter", "name": "501adb0c30de47c7b0dffe36e37dadc4", "rental_uris": {"android": "https://dc.lft.to/lastmile_qr_scan", "ios": "https://dc.lft.to/lastmile_qr_scan"}, "is_disabled": 0, "fusion_lat": 0.0, "lat": 38.9167755, "is_reserved": 0}, {"lon": -77.03535483333333, "fusion_lon": 0.0, "bike_id": "9d0a88e3ce7bc4c6396de480c89a297d", "type": "electric_scooter", "name": "9d0a88e3ce7bc4c6396de480c89a297d", "rental_uris": {"android": "https://dc.lft.to/lastmile_qr_scan", "ios": "https://dc.lft.to/lastmile_qr_scan"}, "is_disabled": 0, "fusion_lat": 0.0, "lat": 38.92314833333333, "is_reserved": 0}, {"lon": -77.034157, "fusion_lon": 0.0, "bike_id": "e6da2e93e483d5dbd53cdd6b0edb3c60", "type": "electric_scooter", "name": "e6da2e93e483d5dbd53cdd6b0edb3c60", "rental_uris": {"android": "https://dc.lft.to/lastmile_qr_scan", "ios": "https://dc.lft.to/lastmile_qr_scan"}, "is_disabled": 0, "fusion_lat": 0.0, "lat": 38.923126, "is_reserved": 0}, {"lon": -77.00818533333333, "fusion_lon": 0.0, "bike_id": "4c6d495ddd150963927d1454d2c58e59", "type": "electric_scooter", "name": "4c6d495ddd150963927d1454d2c58e59", "rental_uris": {"android": "https://dc.lft.to/lastmile_qr_scan", "ios": "https://dc.lft.to/lastmile_qr_scan"}, "is_disabled": 0, "fusion_lat": 0.0, "lat": 38.8316585, "is_reserved": 0}, {"lon": -76.960176, "fusion_lon": 0.0, "bike_id": "e54e5c9f908847f387bc23b471a4fd83", "type": "electric_scooter", "name": "e54e5c9f908847f387bc23b471a4fd83", "rental_uris": {"android": "https://dc.lft.to/lastmile_qr_scan", "ios": "https://dc.lft.to/lastmile_qr_scan"}, "is_disabled": 0, "fusion_lat": 0.0, "lat": 38.8693005, "is_reserved": 0}, {"lon": -77.04324133333333, "fusion_lon": 0.0, "bike_id": "2581f72a4d97203258861da7b7f70fe7", "type": "electric_scooter", "name": "2581f72a4d97203258861da7b7f70fe7", "rental_uris": {"android": "https://dc.lft.to/lastmile_qr_scan", "ios": "https://dc.lft.to/lastmile_qr_scan"}, "is_disabled": 0, "fusion_lat": 0.0, "lat": 38.919611, "is_reserved": 0}, {"lon": -77.0240405, "fusion_lon": 0.0, "bike_id": "abba3e65167d949551480b547501079a", "type": "electric_scooter", "name": "abba3e65167d949551480b547501079a", "rental_uris": {"android": "https://dc.lft.to/lastmile_qr_scan", "ios": "https://dc.lft.to/lastmile_qr_scan"}, "is_disabled": 0, "fusion_lat": 0.0, "lat": 38.917603, "is_reserved": 0}, {"lon": -76.99906133333333, "fusion_lon": 0.0, "bike_id": "f9b46452871ea79bfd91adabdd7a21bb", "type": "electric_scooter", "name": "f9b46452871ea79bfd91adabdd7a21bb", "rental_uris": {"android": "https://dc.lft.to/lastmile_qr_scan", "ios": "https://dc.lft.to/lastmile_qr_scan"}, "is_disabled": 0, "fusion_lat": 0.0, "lat": 38.932230833333335, "is_reserved": 0}, {"lon": -76.950898, "fusion_lon": 0.0, "bike_id": "3d8bfa57e5d7e024094db06212541b83", "type": "electric_scooter", "name": "3d8bfa57e5d7e024094db06212541b83", "rental_uris": {"android": "https://dc.lft.to/lastmile_qr_scan", "ios": "https://dc.lft.to/lastmile_qr_scan"}, "is_disabled": 0, "fusion_lat": 0.0, "lat": 38.88443866666667, "is_reserved": 0}, {"lon": -77.0249985, "fusion_lon": 0.0, "bike_id": "632937549ebdbe0df4cb816740aa6683", "type": "electric_scooter", "name": "632937549ebdbe0df4cb816740aa6683", "rental_uris": {"android": "https://dc.lft.to/lastmile_qr_scan", "ios": "https://dc.lft.to/lastmile_qr_scan"}, "is_disabled": 0, "fusion_lat": 0.0, "lat": 38.93948183333333, "is_reserved": 0}, {"lon": -77.05231416666666, "fusion_lon": 0.0, "bike_id": "7d8c509dfd729740ccc719074e313aeb", "type": "electric_scooter", "name": "7d8c509dfd729740ccc719074e313aeb", "rental_uris": {"android": "https://dc.lft.to/lastmile_qr_scan", "ios": "https://dc.lft.to/lastmile_qr_scan"}, "is_disabled": 0, "fusion_lat": 0.0, "lat": 38.9250885, "is_reserved": 0}, {"lon": -77.0467345, "fusion_lon": 0.0, "bike_id": "779af5159138aeac99be4e934c9b88d2", "type": "electric_scooter", "name": "779af5159138aeac99be4e934c9b88d2", "rental_uris": {"android": "https://dc.lft.to/lastmile_qr_scan", "ios": "https://dc.lft.to/lastmile_qr_scan"}, "is_disabled": 0, "fusion_lat": 0.0, "lat": 38.89555983333333, "is_reserved": 0}, {"lon": -77.000776, "fusion_lon": 0.0, "bike_id": "fc5994885ef0ee0d2d347b5f66264f19", "type": "electric_scooter", "name": "fc5994885ef0ee0d2d347b5f66264f19", "rental_uris": {"android": "https://dc.lft.to/lastmile_qr_scan", "ios": "https://dc.lft.to/lastmile_qr_scan"}, "is_disabled": 0, "fusion_lat": 0.0, "lat": 38.87392766666667, "is_reserved": 0}, {"lon": -77.01093216666666, "fusion_lon": 0.0, "bike_id": "090b5fbdf8a47a9062292b9d6f8a19d4", "type": "electric_scooter", "name": "090b5fbdf8a47a9062292b9d6f8a19d4", "rental_uris": {"android": "https://dc.lft.to/lastmile_qr_scan", "ios": "https://dc.lft.to/lastmile_qr_scan"}, "is_disabled": 0, "fusion_lat": 0.0, "lat": 38.895308, "is_reserved": 0}, {"lon": -77.03353116666666, "fusion_lon": 0.0, "bike_id": "11b153c9c812e899d6b86f225485982c", "type": "electric_scooter", "name": "11b153c9c812e899d6b86f225485982c", "rental_uris": {"android": "https://dc.lft.to/lastmile_qr_scan", "ios": "https://dc.lft.to/lastmile_qr_scan"}, "is_disabled": 0, "fusion_lat": 0.0, "lat": 38.93580333333333, "is_reserved": 0}, {"lon": -77.01152216666667, "fusion_lon": 0.0, "bike_id": "c378968ca39083405357df7018bd0bca", "type": "electric_scooter", "name": "c378968ca39083405357df7018bd0bca", "rental_uris": {"android": "https://dc.lft.to/lastmile_qr_scan", "ios": "https://dc.lft.to/lastmile_qr_scan"}, "is_disabled": 0, "fusion_lat": 0.0, "lat": 38.911052, "is_reserved": 0}, {"lon": -77.03848383333333, "fusion_lon": 0.0, "bike_id": "d9489207ddc0c0e427cf6b0a90890456", "type": "electric_scooter", "name": "d9489207ddc0c0e427cf6b0a90890456", "rental_uris": {"android": "https://dc.lft.to/lastmile_qr_scan", "ios": "https://dc.lft.to/lastmile_qr_scan"}, "is_disabled": 0, "fusion_lat": 0.0, "lat": 38.91657133333333, "is_reserved": 0}, {"lon": -77.04320483333333, "fusion_lon": 0.0, "bike_id": "8868933cef81bb49a6d176ad8f34eed0", "type": "electric_scooter", "name": "8868933cef81bb49a6d176ad8f34eed0", "rental_uris": {"android": "https://dc.lft.to/lastmile_qr_scan", "ios": "https://dc.lft.to/lastmile_qr_scan"}, "is_disabled": 0, "fusion_lat": 0.0, "lat": 38.91737166666667, "is_reserved": 0}, {"lon": -76.99812083333333, "fusion_lon": 0.0, "bike_id": "8335116a89ffe4c7f8e35e6e5fad635e", "type": "electric_bike", "name": "8335116a89ffe4c7f8e35e6e5fad635e", "rental_uris": {"android": "https://dc.lft.to/lastmile_qr_scan", "ios": "https://dc.lft.to/lastmile_qr_scan"}, "is_disabled": 0, "fusion_lat": 0.0, "lat": 38.93502066666667, "is_reserved": 0}, {"lon": -77.05339866666667, "fusion_lon": 0.0, "bike_id": "17dae6aca33385c418cfea088255e860", "type": "electric_bike", "name": "17dae6aca33385c418cfea088255e860", "rental_uris": {"android": "https://dc.lft.to/lastmile_qr_scan", "ios": "https://dc.lft.to/lastmile_qr_scan"}, "is_disabled": 0, "fusion_lat": 0.0, "lat": 39.040838, "is_reserved": 0}, {"lon": -77.03293633333334, "fusion_lon": 0.0, "bike_id": "9b0a6db098dc5088708ab71ab2530580", "type": "electric_scooter", "name": "9b0a6db098dc5088708ab71ab2530580", "rental_uris": {"android": "https://dc.lft.to/lastmile_qr_scan", "ios": "https://dc.lft.to/lastmile_qr_scan"}, "is_disabled": 0, "fusion_lat": 0.0, "lat": 38.911218, "is_reserved": 0}, {"lon": -76.98195866666667, "fusion_lon": 0.0, "bike_id": "ce7a69cc20d86b350248865b6a218572", "type": "electric_scooter", "name": "ce7a69cc20d86b350248865b6a218572", "rental_uris": {"android": "https://dc.lft.to/lastmile_qr_scan", "ios": "https://dc.lft.to/lastmile_qr_scan"}, "is_disabled": 0, "fusion_lat": 0.0, "lat": 38.901938333333334, "is_reserved": 0}, {"lon": -77.05428833333333, "fusion_lon": 0.0, "bike_id": "14338c3ed01c9e938da658b4dccd99a2", "type": "electric_scooter", "name": "14338c3ed01c9e938da658b4dccd99a2", "rental_uris": {"android": "https://dc.lft.to/lastmile_qr_scan", "ios": "https://dc.lft.to/lastmile_qr_scan"}, "is_disabled": 0, "fusion_lat": 0.0, "lat": 38.928532, "is_reserved": 0}, {"lon": -76.992176, "fusion_lon": 0.0, "bike_id": "6fece7cb1e6b6fc8caa93628d3b94ae9", "type": "electric_bike", "name": "6fece7cb1e6b6fc8caa93628d3b94ae9", "rental_uris": {"android": "https://dc.lft.to/lastmile_qr_scan", "ios": "https://dc.lft.to/lastmile_qr_scan"}, "is_disabled": 0, "fusion_lat": 0.0, "lat": 38.940181333333335, "is_reserved": 0}, {"lon": -77.003442, "fusion_lon": 0.0, "bike_id": "34f89e1598777db8e0c66be34393e7d8", "type": "electric_scooter", "name": "34f89e1598777db8e0c66be34393e7d8", "rental_uris": {"android": "https://dc.lft.to/lastmile_qr_scan", "ios": "https://dc.lft.to/lastmile_qr_scan"}, "is_disabled": 0, "fusion_lat": 0.0, "lat": 38.8952005, "is_reserved": 0}, {"lon": -77.03177266666667, "fusion_lon": 0.0, "bike_id": "1044e90a073df0c339f9d41fcfb7e416", "type": "electric_scooter", "name": "1044e90a073df0c339f9d41fcfb7e416", "rental_uris": {"android": "https://dc.lft.to/lastmile_qr_scan", "ios": "https://dc.lft.to/lastmile_qr_scan"}, "is_disabled": 0, "fusion_lat": 0.0, "lat": 38.913191166666664, "is_reserved": 0}, {"lon": -77.04167033333333, "fusion_lon": 0.0, "bike_id": "86709da09e62a4de8976df5a90b84c72", "type": "electric_scooter", "name": "86709da09e62a4de8976df5a90b84c72", "rental_uris": {"android": "https://dc.lft.to/lastmile_qr_scan", "ios": "https://dc.lft.to/lastmile_qr_scan"}, "is_disabled": 0, "fusion_lat": 0.0, "lat": 38.90139516666667, "is_reserved": 0}, {"lon": -77.00568716666666, "fusion_lon": 0.0, "bike_id": "e1a1b86ca53be3b3cac65fdbb8c01974", "type": "electric_scooter", "name": "e1a1b86ca53be3b3cac65fdbb8c01974", "rental_uris": {"android": "https://dc.lft.to/lastmile_qr_scan", "ios": "https://dc.lft.to/lastmile_qr_scan"}, "is_disabled": 0, "fusion_lat": 0.0, "lat": 38.87615433333333, "is_reserved": 0}, {"lon": -77.0089155, "fusion_lon": 0.0, "bike_id": "01e5fdd68fa097418cb982b5e77a632c", "type": "electric_scooter", "name": "01e5fdd68fa097418cb982b5e77a632c", "rental_uris": {"android": "https://dc.lft.to/lastmile_qr_scan", "ios": "https://dc.lft.to/lastmile_qr_scan"}, "is_disabled": 0, "fusion_lat": 0.0, "lat": 38.8850085, "is_reserved": 0}, {"lon": -77.026222, "fusion_lon": 0.0, "bike_id": "177f164e9af42edfe1caa46d392bc32c", "type": "electric_scooter", "name": "177f164e9af42edfe1caa46d392bc32c", "rental_uris": {"android": "https://dc.lft.to/lastmile_qr_scan", "ios": "https://dc.lft.to/lastmile_qr_scan"}, "is_disabled": 0, "fusion_lat": 0.0, "lat": 38.89830766666667, "is_reserved": 0}, {"lon": -77.03009016666667, "fusion_lon": 0.0, "bike_id": "9bd7dd1c83ce61dadc833d411e20bb25", "type": "electric_scooter", "name": "9bd7dd1c83ce61dadc833d411e20bb25", "rental_uris": {"android": "https://dc.lft.to/lastmile_qr_scan", "ios": "https://dc.lft.to/lastmile_qr_scan"}, "is_disabled": 0, "fusion_lat": 0.0, "lat": 38.90274083333333, "is_reserved": 0}, {"lon": -77.0344665, "fusion_lon": 0.0, "bike_id": "47f3419f92909caf28283413b2de9ec0", "type": "electric_scooter", "name": "47f3419f92909caf28283413b2de9ec0", "rental_uris": {"android": "https://dc.lft.to/lastmile_qr_scan", "ios": "https://dc.lft.to/lastmile_qr_scan"}, "is_disabled": 0, "fusion_lat": 0.0, "lat": 38.90948016666667, "is_reserved": 0}, {"lon": -77.05081916666667, "fusion_lon": 0.0, "bike_id": "2e5b1259c58984be791d2c4ca665e0eb", "type": "electric_scooter", "name": "2e5b1259c58984be791d2c4ca665e0eb", "rental_uris": {"android": "https://dc.lft.to/lastmile_qr_scan", "ios": "https://dc.lft.to/lastmile_qr_scan"}, "is_disabled": 0, "fusion_lat": 0.0, "lat": 38.897099833333336, "is_reserved": 0}, {"lon": -77.05587933333334, "fusion_lon": 0.0, "bike_id": "233c79cb2fcd09f3cc63bf1b4eefd81c", "type": "electric_scooter", "name": "233c79cb2fcd09f3cc63bf1b4eefd81c", "rental_uris": {"android": "https://dc.lft.to/lastmile_qr_scan", "ios": "https://dc.lft.to/lastmile_qr_scan"}, "is_disabled": 0, "fusion_lat": 0.0, "lat": 38.934287166666664, "is_reserved": 0}, {"lon": -77.042266, "fusion_lon": 0.0, "bike_id": "9d20da40e3845f8dae5449cc4cf6e38b", "type": "electric_scooter", "name": "9d20da40e3845f8dae5449cc4cf6e38b", "rental_uris": {"android": "https://dc.lft.to/lastmile_qr_scan", "ios": "https://dc.lft.to/lastmile_qr_scan"}, "is_disabled": 0, "fusion_lat": 0.0, "lat": 38.9261445, "is_reserved": 0}, {"lon": -77.02788333333334, "fusion_lon": 0.0, "bike_id": "61da196493335d9284751d2ccf123181", "type": "electric_scooter", "name": "61da196493335d9284751d2ccf123181", "rental_uris": {"android": "https://dc.lft.to/lastmile_qr_scan", "ios": "https://dc.lft.to/lastmile_qr_scan"}, "is_disabled": 0, "fusion_lat": 0.0, "lat": 38.917106833333335, "is_reserved": 0}, {"lon": -77.02908716666667, "fusion_lon": 0.0, "bike_id": "0ce2efe8bd8fc6eae331340d7a66349f", "type": "electric_scooter", "name": "0ce2efe8bd8fc6eae331340d7a66349f", "rental_uris": {"android": "https://dc.lft.to/lastmile_qr_scan", "ios": "https://dc.lft.to/lastmile_qr_scan"}, "is_disabled": 0, "fusion_lat": 0.0, "lat": 38.9562745, "is_reserved": 0}, {"lon": -77.00231283333333, "fusion_lon": 0.0, "bike_id": "b8eba4b908beacfdafb5cd2439f24be9", "type": "electric_scooter", "name": "b8eba4b908beacfdafb5cd2439f24be9", "rental_uris": {"android": "https://dc.lft.to/lastmile_qr_scan", "ios": "https://dc.lft.to/lastmile_qr_scan"}, "is_disabled": 0, "fusion_lat": 0.0, "lat": 38.88510316666667, "is_reserved": 0}, {"lon": -77.02208583333334, "fusion_lon": 0.0, "bike_id": "72b316c77b1ce3b53b92aa2ee151e0dd", "type": "electric_scooter", "name": "72b316c77b1ce3b53b92aa2ee151e0dd", "rental_uris": {"android": "https://dc.lft.to/lastmile_qr_scan", "ios": "https://dc.lft.to/lastmile_qr_scan"}, "is_disabled": 0, "fusion_lat": 0.0, "lat": 38.927903666666666, "is_reserved": 0}, {"lon": -77.00956733333334, "fusion_lon": 0.0, "bike_id": "4d181be0a1768d808c10271d16bb70c6", "type": "electric_scooter", "name": "4d181be0a1768d808c10271d16bb70c6", "rental_uris": {"android": "https://dc.lft.to/lastmile_qr_scan", "ios": "https://dc.lft.to/lastmile_qr_scan"}, "is_disabled": 0, "fusion_lat": 0.0, "lat": 38.8972625, "is_reserved": 0}, {"lon": -77.02496833333333, "fusion_lon": 0.0, "bike_id": "cccfb0e55524faff511e5e37d6060a9d", "type": "electric_scooter", "name": "cccfb0e55524faff511e5e37d6060a9d", "rental_uris": {"android": "https://dc.lft.to/lastmile_qr_scan", "ios": "https://dc.lft.to/lastmile_qr_scan"}, "is_disabled": 0, "fusion_lat": 0.0, "lat": 38.91978616666667, "is_reserved": 0}, {"lon": -77.03849783333334, "fusion_lon": 0.0, "bike_id": "51cf8f80d787e34a37f4a75684269273", "type": "electric_scooter", "name": "51cf8f80d787e34a37f4a75684269273", "rental_uris": {"android": "https://dc.lft.to/lastmile_qr_scan", "ios": "https://dc.lft.to/lastmile_qr_scan"}, "is_disabled": 0, "fusion_lat": 0.0, "lat": 38.91300066666667, "is_reserved": 0}, {"lon": -77.00493116666667, "fusion_lon": 0.0, "bike_id": "d9cb2abe785103675f4bc8068b6511d7", "type": "electric_scooter", "name": "d9cb2abe785103675f4bc8068b6511d7", "rental_uris": {"android": "https://dc.lft.to/lastmile_qr_scan", "ios": "https://dc.lft.to/lastmile_qr_scan"}, "is_disabled": 0, "fusion_lat": 0.0, "lat": 38.8746415, "is_reserved": 0}, {"lon": -77.0313155, "fusion_lon": 0.0, "bike_id": "931fc878b7e6d910e3a07462fba7d015", "type": "electric_scooter", "name": "931fc878b7e6d910e3a07462fba7d015", "rental_uris": {"android": "https://dc.lft.to/lastmile_qr_scan", "ios": "https://dc.lft.to/lastmile_qr_scan"}, "is_disabled": 0, "fusion_lat": 0.0, "lat": 38.904477166666666, "is_reserved": 0}, {"lon": -77.01613916666666, "fusion_lon": 0.0, "bike_id": "0d8072538525551771daa23d22d04ece", "type": "electric_scooter", "name": "0d8072538525551771daa23d22d04ece", "rental_uris": {"android": "https://dc.lft.to/lastmile_qr_scan", "ios": "https://dc.lft.to/lastmile_qr_scan"}, "is_disabled": 0, "fusion_lat": 0.0, "lat": 38.90331366666667, "is_reserved": 0}, {"lon": -77.02353133333334, "fusion_lon": 0.0, "bike_id": "ff0b0ef1301ae5cf31b8c64491f585fa", "type": "electric_scooter", "name": "ff0b0ef1301ae5cf31b8c64491f585fa", "rental_uris": {"android": "https://dc.lft.to/lastmile_qr_scan", "ios": "https://dc.lft.to/lastmile_qr_scan"}, "is_disabled": 0, "fusion_lat": 0.0, "lat": 38.935339166666665, "is_reserved": 0}, {"lon": -77.03181583333334, "fusion_lon": 0.0, "bike_id": "b8712cd5952738ec9f3a37a8d312f10c", "type": "electric_scooter", "name": "b8712cd5952738ec9f3a37a8d312f10c", "rental_uris": {"android": "https://dc.lft.to/lastmile_qr_scan", "ios": "https://dc.lft.to/lastmile_qr_scan"}, "is_disabled": 0, "fusion_lat": 0.0, "lat": 38.91725266666667, "is_reserved": 0}, {"lon": -77.08487016666666, "fusion_lon": 0.0, "bike_id": "f407ca46f8b8e91d3a6cf789e551493b", "type": "electric_scooter", "name": "f407ca46f8b8e91d3a6cf789e551493b", "rental_uris": {"android": "https://dc.lft.to/lastmile_qr_scan", "ios": "https://dc.lft.to/lastmile_qr_scan"}, "is_disabled": 0, "fusion_lat": 0.0, "lat": 38.93902666666666, "is_reserved": 0}, {"lon": -77.038539, "fusion_lon": 0.0, "bike_id": "a36944cc80290f81d6e9e23f9bdc3798", "type": "electric_scooter", "name": "a36944cc80290f81d6e9e23f9bdc3798", "rental_uris": {"android": "https://dc.lft.to/lastmile_qr_scan", "ios": "https://dc.lft.to/lastmile_qr_scan"}, "is_disabled": 0, "fusion_lat": 0.0, "lat": 38.91773416666667, "is_reserved": 0}, {"lon": -77.03567116666666, "fusion_lon": 0.0, "bike_id": "ecf5d0eb501dad106e1da07d23a08433", "type": "electric_scooter", "name": "ecf5d0eb501dad106e1da07d23a08433", "rental_uris": {"android": "https://dc.lft.to/lastmile_qr_scan", "ios": "https://dc.lft.to/lastmile_qr_scan"}, "is_disabled": 0, "fusion_lat": 0.0, "lat": 38.903999, "is_reserved": 0}, {"lon": -76.98544733333334, "fusion_lon": 0.0, "bike_id": "8cc5ec70f2653f098681e2a05dab750e", "type": "electric_scooter", "name": "8cc5ec70f2653f098681e2a05dab750e", "rental_uris": {"android": "https://dc.lft.to/lastmile_qr_scan", "ios": "https://dc.lft.to/lastmile_qr_scan"}, "is_disabled": 0, "fusion_lat": 0.0, "lat": 38.866877, "is_reserved": 0}, {"lon": -77.00813116666667, "fusion_lon": 0.0, "bike_id": "ea14600a0a54d194d5ae2e69cbf02b73", "type": "electric_scooter", "name": "ea14600a0a54d194d5ae2e69cbf02b73", "rental_uris": {"android": "https://dc.lft.to/lastmile_qr_scan", "ios": "https://dc.lft.to/lastmile_qr_scan"}, "is_disabled": 0, "fusion_lat": 0.0, "lat": 38.876443, "is_reserved": 0}, {"lon": -77.04037066666666, "fusion_lon": 0.0, "bike_id": "57d0d3f8865cd900a9cd3399466aa8f5", "type": "electric_bike", "name": "57d0d3f8865cd900a9cd3399466aa8f5", "rental_uris": {"android": "https://dc.lft.to/lastmile_qr_scan", "ios": "https://dc.lft.to/lastmile_qr_scan"}, "is_disabled": 0, "fusion_lat": 0.0, "lat": 38.9189145, "is_reserved": 0}, {"lon": -77.0093085, "fusion_lon": 0.0, "bike_id": "c68dc13c7ab70501a9aec73f19867267", "type": "electric_scooter", "name": "c68dc13c7ab70501a9aec73f19867267", "rental_uris": {"android": "https://dc.lft.to/lastmile_qr_scan", "ios": "https://dc.lft.to/lastmile_qr_scan"}, "is_disabled": 0, "fusion_lat": 0.0, "lat": 38.875073666666665, "is_reserved": 0}, {"lon": -77.034754, "fusion_lon": 0.0, "bike_id": "ab5cf3daf0e556ba18f94622dcf1b903", "type": "electric_scooter", "name": "ab5cf3daf0e556ba18f94622dcf1b903", "rental_uris": {"android": "https://dc.lft.to/lastmile_qr_scan", "ios": "https://dc.lft.to/lastmile_qr_scan"}, "is_disabled": 0, "fusion_lat": 0.0, "lat": 38.92642266666667, "is_reserved": 0}, {"lon": -77.022313, "fusion_lon": 0.0, "bike_id": "f80da348ca3046956b47d9d416a3ea8c", "type": "electric_scooter", "name": "f80da348ca3046956b47d9d416a3ea8c", "rental_uris": {"android": "https://dc.lft.to/lastmile_qr_scan", "ios": "https://dc.lft.to/lastmile_qr_scan"}, "is_disabled": 0, "fusion_lat": 0.0, "lat": 38.880239833333334, "is_reserved": 0}, {"lon": -76.9796905, "fusion_lon": 0.0, "bike_id": "e5d149c3be8bf31dd06f64c0b30eeb5c", "type": "electric_bike", "name": "e5d149c3be8bf31dd06f64c0b30eeb5c", "rental_uris": {"android": "https://dc.lft.to/lastmile_qr_scan", "ios": "https://dc.lft.to/lastmile_qr_scan"}, "is_disabled": 0, "fusion_lat": 0.0, "lat": 38.95370366666667, "is_reserved": 0}, {"lon": -76.976319, "fusion_lon": 0.0, "bike_id": "9146aee3f17af88a5875d422964d1114", "type": "electric_scooter", "name": "9146aee3f17af88a5875d422964d1114", "rental_uris": {"android": "https://dc.lft.to/lastmile_qr_scan", "ios": "https://dc.lft.to/lastmile_qr_scan"}, "is_disabled": 0, "fusion_lat": 0.0, "lat": 38.901587666666664, "is_reserved": 0}, {"lon": -77.0318095, "fusion_lon": 0.0, "bike_id": "5ca2d3965dee934d18ee21651653908f", "type": "electric_scooter", "name": "5ca2d3965dee934d18ee21651653908f", "rental_uris": {"android": "https://dc.lft.to/lastmile_qr_scan", "ios": "https://dc.lft.to/lastmile_qr_scan"}, "is_disabled": 0, "fusion_lat": 0.0, "lat": 38.921123, "is_reserved": 0}, {"lon": -76.987469, "fusion_lon": 0.0, "bike_id": "be6209c8aeec3e95729b4eea74de8d7d", "type": "electric_bike", "name": "be6209c8aeec3e95729b4eea74de8d7d", "rental_uris": {"android": "https://dc.lft.to/lastmile_qr_scan", "ios": "https://dc.lft.to/lastmile_qr_scan"}, "is_disabled": 0, "fusion_lat": 0.0, "lat": 38.89607783333334, "is_reserved": 0}, {"lon": -77.0450035, "fusion_lon": 0.0, "bike_id": "6566f5033110d0394655d79213559b5d", "type": "electric_scooter", "name": "6566f5033110d0394655d79213559b5d", "rental_uris": {"android": "https://dc.lft.to/lastmile_qr_scan", "ios": "https://dc.lft.to/lastmile_qr_scan"}, "is_disabled": 0, "fusion_lat": 0.0, "lat": 38.8981625, "is_reserved": 0}, {"lon": -77.05117316666667, "fusion_lon": 0.0, "bike_id": "e0e2dfafe29269b957baf5b2d130ad10", "type": "electric_bike", "name": "e0e2dfafe29269b957baf5b2d130ad10", "rental_uris": {"android": "https://dc.lft.to/lastmile_qr_scan", "ios": "https://dc.lft.to/lastmile_qr_scan"}, "is_disabled": 0, "fusion_lat": 0.0, "lat": 38.8133435, "is_reserved": 0}, {"lon": -76.96903616666667, "fusion_lon": 0.0, "bike_id": "9d8f315c41be861bf9a30613f22a6117", "type": "electric_scooter", "name": "9d8f315c41be861bf9a30613f22a6117", "rental_uris": {"android": "https://dc.lft.to/lastmile_qr_scan", "ios": "https://dc.lft.to/lastmile_qr_scan"}, "is_disabled": 0, "fusion_lat": 0.0, "lat": 38.8729815, "is_reserved": 0}, {"lon": -77.03209733333334, "fusion_lon": 0.0, "bike_id": "cd54455ca6a09f0e52fb59ca8c4d415e", "type": "electric_scooter", "name": "cd54455ca6a09f0e52fb59ca8c4d415e", "rental_uris": {"android": "https://dc.lft.to/lastmile_qr_scan", "ios": "https://dc.lft.to/lastmile_qr_scan"}, "is_disabled": 0, "fusion_lat": 0.0, "lat": 38.884668166666664, "is_reserved": 0}, {"lon": -77.00844016666667, "fusion_lon": 0.0, "bike_id": "86a3bb5e6eda7e9aa1a14df9ce3e1bc3", "type": "electric_scooter", "name": "86a3bb5e6eda7e9aa1a14df9ce3e1bc3", "rental_uris": {"android": "https://dc.lft.to/lastmile_qr_scan", "ios": "https://dc.lft.to/lastmile_qr_scan"}, "is_disabled": 0, "fusion_lat": 0.0, "lat": 38.87640583333334, "is_reserved": 0}, {"lon": -77.022583, "fusion_lon": 0.0, "bike_id": "a98b0afc08d7b5a8ff3bdd042557872e", "type": "electric_scooter", "name": "a98b0afc08d7b5a8ff3bdd042557872e", "rental_uris": {"android": "https://dc.lft.to/lastmile_qr_scan", "ios": "https://dc.lft.to/lastmile_qr_scan"}, "is_disabled": 0, "fusion_lat": 0.0, "lat": 38.92826, "is_reserved": 0}, {"lon": -77.0230435, "fusion_lon": 0.0, "bike_id": "fe595ca9a14c70c34dce994f36703c16", "type": "electric_scooter", "name": "fe595ca9a14c70c34dce994f36703c16", "rental_uris": {"android": "https://dc.lft.to/lastmile_qr_scan", "ios": "https://dc.lft.to/lastmile_qr_scan"}, "is_disabled": 0, "fusion_lat": 0.0, "lat": 38.895139, "is_reserved": 0}, {"lon": -77.03297683333334, "fusion_lon": 0.0, "bike_id": "9334bf3a6590036662cec887d604fe26", "type": "electric_scooter", "name": "9334bf3a6590036662cec887d604fe26", "rental_uris": {"android": "https://dc.lft.to/lastmile_qr_scan", "ios": "https://dc.lft.to/lastmile_qr_scan"}, "is_disabled": 0, "fusion_lat": 0.0, "lat": 38.92864933333333, "is_reserved": 0}, {"lon": -77.06161383333334, "fusion_lon": 0.0, "bike_id": "e6749bd88cb9acb774067bc870a4d2dc", "type": "electric_scooter", "name": "e6749bd88cb9acb774067bc870a4d2dc", "rental_uris": {"android": "https://dc.lft.to/lastmile_qr_scan", "ios": "https://dc.lft.to/lastmile_qr_scan"}, "is_disabled": 0, "fusion_lat": 0.0, "lat": 38.905181666666664, "is_reserved": 0}, {"lon": -77.050457, "fusion_lon": 0.0, "bike_id": "6eb950f7025eda6d342794c983c5ea52", "type": "electric_bike", "name": "6eb950f7025eda6d342794c983c5ea52", "rental_uris": {"android": "https://dc.lft.to/lastmile_qr_scan", "ios": "https://dc.lft.to/lastmile_qr_scan"}, "is_disabled": 0, "fusion_lat": 0.0, "lat": 38.924128333333336, "is_reserved": 0}, {"lon": -77.01105783333334, "fusion_lon": 0.0, "bike_id": "882046800d3bc2671207024b9fd24346", "type": "electric_scooter", "name": "882046800d3bc2671207024b9fd24346", "rental_uris": {"android": "https://dc.lft.to/lastmile_qr_scan", "ios": "https://dc.lft.to/lastmile_qr_scan"}, "is_disabled": 0, "fusion_lat": 0.0, "lat": 38.909659833333336, "is_reserved": 0}, {"lon": -77.04985333333333, "fusion_lon": 0.0, "bike_id": "dd18e48f3badc1b7c6b6aaada2336a0f", "type": "electric_scooter", "name": "dd18e48f3badc1b7c6b6aaada2336a0f", "rental_uris": {"android": "https://dc.lft.to/lastmile_qr_scan", "ios": "https://dc.lft.to/lastmile_qr_scan"}, "is_disabled": 0, "fusion_lat": 0.0, "lat": 38.898352, "is_reserved": 0}, {"lon": -76.99794483333334, "fusion_lon": 0.0, "bike_id": "57324a0b70836454470504aa99ab1e3a", "type": "electric_scooter", "name": "57324a0b70836454470504aa99ab1e3a", "rental_uris": {"android": "https://dc.lft.to/lastmile_qr_scan", "ios": "https://dc.lft.to/lastmile_qr_scan"}, "is_disabled": 0, "fusion_lat": 0.0, "lat": 38.88600783333333, "is_reserved": 0},