{"data": {"bikes": [{"is_disabled": 0, "fusion_lon": 0.0, "fusion_lat": 0.0, "lat": 38.933079666666664, "type": "electric_scooter", "lon": -77.0213215, "bike_id": "416faeceb11c4e58eee97512b03abd46", "rental_uris": {"android": "https://dc.lft.to/lastmile_qr_scan", "ios": "https://dc.lft.to/lastmile_qr_scan"}, "name": "416faeceb11c4e58eee97512b03abd46", "is_reserved": 0}, {"is_disabled": 0, "fusion_lon": 0.0, "fusion_lat": 0.0, "lat": 38.86363883333333, "type": "electric_scooter", "lon": -76.9907585, "bike_id": "f4868642e264902cd8d3af7bba1b2cef", "rental_uris": {"android": "https://dc.lft.to/lastmile_qr_scan", "ios": "https://dc.lft.to/lastmile_qr_scan"}, "name": "f4868642e264902cd8d3af7bba1b2cef", "is_reserved": 0}, {"is_disabled": 0, "fusion_lon": 0.0, "fusion_lat": 0.0, "lat": 38.90521616666667, "type": "electric_scooter", "lon": -77.05010616666667, "bike_id": "1c16d2ee940116f79eb17635f77381a4", "rental_uris": {"android": "https://dc.lft.to/lastmile_qr_scan", "ios": "https://dc.lft.to/lastmile_qr_scan"}, "name": "1c16d2ee940116f79eb17635f77381a4", "is_reserved": 0}, {"is_disabled": 0, "fusion_lon": 0.0, "fusion_lat": 0.0, "lat": 38.927926, "type": "electric_scooter", "lon": -77.0146245, "bike_id": "01d4374ad64f0ff2dbf95e2222c87c8b", "rental_uris": {"android": "https://dc.lft.to/lastmile_qr_scan", "ios": "https://dc.lft.to/lastmile_qr_scan"}, "name": "01d4374ad64f0ff2dbf95e2222c87c8b", "is_reserved": 0}, {"is_disabled": 0, "fusion_lon": 0.0, "fusion_lat": 0.0, "lat": 38.9906195, "type": "electric_bike", "lon": -77.10028066666666, "bike_id": "2d3e9b2e5362e97f92036dacf129c48c", "rental_uris": {"android": "https://dc.lft.to/lastmile_qr_scan", "ios": "https://dc.lft.to/lastmile_qr_scan"}, "name": "2d3e9b2e5362e97f92036dacf129c48c", "is_reserved": 0}, {"is_disabled": 0, "fusion_lon": 0.0, "fusion_lat": 0.0, "lat": 38.990908, "type": "electric_bike", "lon": -76.87497033333334, "bike_id": "5f39b3316a18070157ff3f7cacfd9572", "rental_uris": {"android": "https://dc.lft.to/lastmile_qr_scan", "ios": "https://dc.lft.to/lastmile_qr_scan"}, "name": "5f39b3316a18070157ff3f7cacfd9572", "is_reserved": 0}, {"is_disabled": 0, "fusion_lon": 0.0, "fusion_lat": 0.0, "lat": 38.885819, "type": "electric_scooter", "lon": -77.0199365, "bike_id": "e109addd738f04cf76de2af69401b420", "rental_uris": {"android": "https://dc.lft.to/lastmile_qr_scan", "ios": "https://dc.lft.to/lastmile_qr_scan"}, "name": "e109addd738f04cf76de2af69401b420", "is_reserved": 0}, {"is_disabled": 0, "fusion_lon": 0.0, "fusion_lat": 0.0, "lat": 38.92690966666667, "type": "electric_scooter", "lon": -77.03741483333333, "bike_id": "570a163dbae26dec38ec43a4b9cd3843", "rental_uris": {"android": "https://dc.lft.to/lastmile_qr_scan", "ios": "https://dc.lft.to/lastmile_qr_scan"}, "name": "570a163dbae26dec38ec43a4b9cd3843", "is_reserved": 0}, {"is_disabled": 0, "fusion_lon": 0.0, "fusion_lat": 0.0, "lat": 38.90774416666667, "type": "electric_scooter", "lon": -77.031892, "bike_id": "f436b524d5f01315628d82ebe0664a24", "rental_uris": {"android": "https://dc.lft.to/lastmile_qr_scan", "ios": "https://dc.lft.to/lastmile_qr_scan"}, "name": "f436b524d5f01315628d82ebe0664a24", "is_reserved": 0}, {"is_disabled": 0, "fusion_lon": 0.0, "fusion_lat": 0.0, "lat": 38.90372216666667, "type": "electric_scooter", "lon": -77.02910883333334, "bike_id": "0f720d0ef3097775efe86987899f00ee", "rental_uris": {"android": "https://dc.lft.to/lastmile_qr_scan", "ios": "https://dc.lft.to/lastmile_qr_scan"}, "name": "0f720d0ef3097775efe86987899f00ee", "is_reserved": 0}, {"is_disabled": 0, "fusion_lon": 0.0, "fusion_lat": 0.0, "lat": 38.920264, "type": "electric_scooter", "lon": -77.038838, "bike_id": "393eb4195c199b4b80e21307d26335f8", "rental_uris": {"android": "https://dc.lft.to/lastmile_qr_scan", "ios": "https://dc.lft.to/lastmile_qr_scan"}, "name": "393eb4195c199b4b80e21307d26335f8", "is_reserved": 0}, {"is_disabled": 0, "fusion_lon": 0.0, "fusion_lat": 0.0, "lat": 38.933921, "type": "electric_scooter", "lon": -77.03109866666667, "bike_id": "3098b19286dbfef050eaa59e739000fa", "rental_uris": {"android": "https://dc.lft.to/lastmile_qr_scan", "ios": "https://dc.lft.to/lastmile_qr_scan"}, "name": "3098b19286dbfef050eaa59e739000fa", "is_reserved": 0}, {"is_disabled": 0, "fusion_lon": 0.0, "fusion_lat": 0.0, "lat": 38.90702566666667, "type": "electric_scooter", "lon": -77.02691666666666, "bike_id": "f6f70dfbcfcc96dbf315a81b17a4726b", "rental_uris": {"android": "https://dc.lft.to/lastmile_qr_scan", "ios": "https://dc.lft.to/lastmile_qr_scan"}, "name": "f6f70dfbcfcc96dbf315a81b17a4726b", "is_reserved": 0}, {"is_disabled": 0, "fusion_lon": 0.0, "fusion_lat": 0.0, "lat": 38.92035116666667, "type": "electric_scooter", "lon": -77.02587983333333, "bike_id": "844f7c3dbb10264d411c73f791a89475", "rental_uris": {"android": "https://dc.lft.to/lastmile_qr_scan", "ios": "https://dc.lft.to/lastmile_qr_scan"}, "name": "844f7c3dbb10264d411c73f791a89475", "is_reserved": 0}, {"is_disabled": 0, "fusion_lon": 0.0, "fusion_lat": 0.0, "lat": 38.98830133333333, "type": "electric_bike", "lon": -76.98747033333333, "bike_id": "2502d36c2d8e9dee2b680e45cb468930", "rental_uris": {"android": "https://dc.lft.to/lastmile_qr_scan", "ios": "https://dc.lft.to/lastmile_qr_scan"}, "name": "2502d36c2d8e9dee2b680e45cb468930", "is_reserved": 0}, {"is_disabled": 0, "fusion_lon": 0.0, "fusion_lat": 0.0, "lat": 38.88514633333333, "type": "electric_scooter", "lon": -76.99850516666666, "bike_id": "e23688a0ed9b81b58dbffe4df6e90758", "rental_uris": {"android": "https://dc.lft.to/lastmile_qr_scan", "ios": "https://dc.lft.to/lastmile_qr_scan"}, "name": "e23688a0ed9b81b58dbffe4df6e90758", "is_reserved": 0}, {"is_disabled": 0, "fusion_lon": 0.0, "fusion_lat": 0.0, "lat": 38.87959016666667, "type": "electric_scooter", "lon": -77.013407, "bike_id": "3fb47a108f0e5c1dd103f2911fcc55a0", "rental_uris": {"android": "https://dc.lft.to/lastmile_qr_scan", "ios": "https://dc.lft.to/lastmile_qr_scan"}, "name": "3fb47a108f0e5c1dd103f2911fcc55a0", "is_reserved": 0}, {"is_disabled": 0, "fusion_lon": 0.0, "fusion_lat": 0.0, "lat": 38.905164666666664, "type": "electric_scooter", "lon": -77.02972233333334, "bike_id": "c8c83f539b2c45a7e3dab1b3013bffd8", "rental_uris": {"android": "https://dc.lft.to/lastmile_qr_scan", "ios": "https://dc.lft.to/lastmile_qr_scan"}, "name": "c8c83f539b2c45a7e3dab1b3013bffd8", "is_reserved": 0}, {"is_disabled": 0, "fusion_lon": 0.0, "fusion_lat": 0.0, "lat": 38.88471833333333, "type": "electric_scooter", "lon": -76.95225216666667, "bike_id": "7a2127d0f498b0405db9d68139278260", "rental_uris": {"android": "https://dc.lft.to/lastmile_qr_scan", "ios": "https://dc.lft.to/lastmile_qr_scan"}, "name": "7a2127d0f498b0405db9d68139278260", "is_reserved": 0}, {"is_disabled": 0, "fusion_lon": 0.0, "fusion_lat": 0.0, "lat": 38.9266935, "type": "electric_scooter", "lon": -77.10308, "bike_id": "c74ecb3df4f7d6b7700e5de8c9fb4901", "rental_uris": {"android": "https://dc.lft.to/lastmile_qr_scan", "ios": "https://dc.lft.to/lastmile_qr_scan"}, "name": "c74ecb3df4f7d6b7700e5de8c9fb4901", "is_reserved": 0}, {"is_disabled": 0, "fusion_lon": 0.0, "fusion_lat": 0.0, "lat": 38.9122865, "type": "electric_scooter", "lon": -76.984447, "bike_id": "a6f612c570f1b49be1103ebe2256c545", "rental_uris": {"android": "https://dc.lft.to/lastmile_qr_scan", "ios": "https://dc.lft.to/lastmile_qr_scan"}, "name": "a6f612c570f1b49be1103ebe2256c545", "is_reserved": 0}, {"is_disabled": 0, "fusion_lon": 0.0, "fusion_lat": 0.0, "lat": 38.947036833333335, "type": "electric_scooter", "lon": -77.01936533333334, "bike_id": "d1a735bf95a4e9171908392ac24d2249", "rental_uris": {"android": "https://dc.lft.to/lastmile_qr_scan", "ios": "https://dc.lft.to/lastmile_qr_scan"}, "name": "d1a735bf95a4e9171908392ac24d2249", "is_reserved": 0}, {"is_disabled": 0, "fusion_lon": 0.0, "fusion_lat": 0.0, "lat": 38.906124, "type": "electric_scooter", "lon": -77.05722716666666, "bike_id": "42806b33a5b5ed7a7ba7216dbb466c8e", "rental_uris": {"android": "https://dc.lft.to/lastmile_qr_scan", "ios": "https://dc.lft.to/lastmile_qr_scan"}, "name": "42806b33a5b5ed7a7ba7216dbb466c8e", "is_reserved": 0}, {"is_disabled": 0, "fusion_lon": 0.0, "fusion_lat": 0.0, "lat": 38.919569833333334, "type": "electric_scooter", "lon": -77.0271325, "bike_id": "15a02548b59425026595c89311359c59", "rental_uris": {"android": "https://dc.lft.to/lastmile_qr_scan", "ios": "https://dc.lft.to/lastmile_qr_scan"}, "name": "15a02548b59425026595c89311359c59", "is_reserved": 0}, {"is_disabled": 0, "fusion_lon": 0.0, "fusion_lat": 0.0, "lat": 38.92172133333333, "type": "electric_scooter", "lon": -77.05528983333333, "bike_id": "8237b1fe8791df1a5d1903878a507173", "rental_uris": {"android": "https://dc.lft.to/lastmile_qr_scan", "ios": "https://dc.lft.to/lastmile_qr_scan"}, "name": "8237b1fe8791df1a5d1903878a507173", "is_reserved": 0}, {"is_disabled": 0, "fusion_lon": 0.0, "fusion_lat": 0.0, "lat": 38.923929666666666, "type": "electric_scooter", "lon": -77.02964666666666, "bike_id": "e1645a4aa7f4db89222b5e1071dd7a5a", "rental_uris": {"android": "https://dc.lft.to/lastmile_qr_scan", "ios": "https://dc.lft.to/lastmile_qr_scan"}, "name": "e1645a4aa7f4db89222b5e1071dd7a5a", "is_reserved": 0}, {"is_disabled": 0, "fusion_lon": 0.0, "fusion_lat": 0.0, "lat": 38.92229066666667, "type": "electric_scooter", "lon": -76.97534433333334, "bike_id": "56091fe85f6a2d2cac79028b854ed685", "rental_uris": {"android": "https://dc.lft.to/lastmile_qr_scan", "ios": "https://dc.lft.to/lastmile_qr_scan"}, "name": "56091fe85f6a2d2cac79028b854ed685", "is_reserved": 0}, {"is_disabled": 0, "fusion_lon": 0.0, "fusion_lat": 0.0, "lat": 38.910823, "type": "electric_scooter", "lon": -77.01511866666667, "bike_id": "246bc8f0ab05fad480cc2d8126844a37", "rental_uris": {"android": "https://dc.lft.to/lastmile_qr_scan", "ios": "https://dc.lft.to/lastmile_qr_scan"}, "name": "246bc8f0ab05fad480cc2d8126844a37", "is_reserved": 0}, {"is_disabled": 0, "fusion_lon": 0.0, "fusion_lat": 0.0, "lat": 38.924666333333334, "type": "electric_scooter", "lon": -77.021493, "bike_id": "445f07d688e7b7949f82c075bdd232d5", "rental_uris": {"android": "https://dc.lft.to/lastmile_qr_scan", "ios": "https://dc.lft.to/lastmile_qr_scan"}, "name": "445f07d688e7b7949f82c075bdd232d5", "is_reserved": 0}, {"is_disabled": 0, "fusion_lon": 0.0, "fusion_lat": 0.0, "lat": 38.90848066666667, "type": "electric_scooter", "lon": -77.03852716666667, "bike_id": "83b80837db65e5a50f5f7c9940fc7e2c", "rental_uris": {"android": "https://dc.lft.to/lastmile_qr_scan", "ios": "https://dc.lft.to/lastmile_qr_scan"}, "name": "83b80837db65e5a50f5f7c9940fc7e2c", "is_reserved": 0}, {"is_disabled": 0, "fusion_lon": 0.0, "fusion_lat": 0.0, "lat": 38.872061333333335, "type": "electric_bike", "lon": -77.01618416666666, "bike_id": "ca2e2e140c55a2d9be8436bb57fafd0b", "rental_uris": {"android": "https://dc.lft.to/lastmile_qr_scan", "ios": "https://dc.lft.to/lastmile_qr_scan"}, "name": "ca2e2e140c55a2d9be8436bb57fafd0b", "is_reserved": 0}, {"is_disabled": 0, "fusion_lon": 0.0, "fusion_lat": 0.0, "lat": 38.93578816666667, "type": "electric_bike", "lon": -77.036546, "bike_id": "5a5c1ab9df0d1544452ab0138fa07dcd", "rental_uris": {"android": "https://dc.lft.to/lastmile_qr_scan", "ios": "https://dc.lft.to/lastmile_qr_scan"}, "name": "5a5c1ab9df0d1544452ab0138fa07dcd", "is_reserved": 0}, {"is_disabled": 0, "fusion_lon": 0.0, "fusion_lat": 0.0, "lat": 38.878528, "type": "electric_bike", "lon": -77.01761333333333, "bike_id": "c703c4ed20f4aec0cf719a26734415e9", "rental_uris": {"android": "https://dc.lft.to/lastmile_qr_scan", "ios": "https://dc.lft.to/lastmile_qr_scan"}, "name": "c703c4ed20f4aec0cf719a26734415e9", "is_reserved": 0}, {"is_disabled": 0, "fusion_lon": 0.0, "fusion_lat": 0.0, "lat": 38.90529033333333, "type": "electric_scooter", "lon": -77.05017916666667, "bike_id": "00f6c687015ea4220e535f52ed338c9b", "rental_uris": {"android": "https://dc.lft.to/lastmile_qr_scan", "ios": "https://dc.lft.to/lastmile_qr_scan"}, "name": "00f6c687015ea4220e535f52ed338c9b", "is_reserved": 0}, {"is_disabled": 0, "fusion_lon": 0.0, "fusion_lat": 0.0, "lat": 38.88457483333333, "type": "electric_bike", "lon": -76.91636516666667, "bike_id": "bda29a681967200d3ee3b0feb3cc363a", "rental_uris": {"android": "https://dc.lft.to/lastmile_qr_scan", "ios": "https://dc.lft.to/lastmile_qr_scan"}, "name": "bda29a681967200d3ee3b0feb3cc363a", "is_reserved": 0}, {"is_disabled": 0, "fusion_lon": 0.0, "fusion_lat": 0.0, "lat": 38.93702866666667, "type": "electric_scooter", "lon": -77.05598716666667, "bike_id": "4f3b20100c9f2dcd96659c5f00d2d093", "rental_uris": {"android": "https://dc.lft.to/lastmile_qr_scan", "ios": "https://dc.lft.to/lastmile_qr_scan"}, "name": "4f3b20100c9f2dcd96659c5f00d2d093", "is_reserved": 0}, {"is_disabled": 0, "fusion_lon": 0.0, "fusion_lat": 0.0, "lat": 38.91704716666667, "type": "electric_scooter", "lon": -77.00114533333333, "bike_id": "0dac9015fa69fafdc5873fa469347da3", "rental_uris": {"android": "https://dc.lft.to/lastmile_qr_scan", "ios": "https://dc.lft.to/lastmile_qr_scan"}, "name": "0dac9015fa69fafdc5873fa469347da3", "is_reserved": 0}, {"is_disabled": 0, "fusion_lon": 0.0, "fusion_lat": 0.0, "lat": 38.94900666666667, "type": "electric_bike", "lon": -76.96371783333333, "bike_id": "d471a418400bd60408caa97677327fc4", "rental_uris": {"android": "https://dc.lft.to/lastmile_qr_scan", "ios": "https://dc.lft.to/lastmile_qr_scan"}, "name": "d471a418400bd60408caa97677327fc4", "is_reserved": 0}, {"is_disabled": 0, "fusion_lon": 0.0, "fusion_lat": 0.0, "lat": 39.052694333333335, "type": "electric_bike", "lon": -77.04381866666667, "bike_id": "fc2db86fc9e4fe5f34e0ceb131916123", "rental_uris": {"android": "https://dc.lft.to/lastmile_qr_scan", "ios": "https://dc.lft.to/lastmile_qr_scan"}, "name": "fc2db86fc9e4fe5f34e0ceb131916123", "is_reserved": 0}, {"is_disabled": 0, "fusion_lon": 0.0, "fusion_lat": 0.0, "lat": 38.91597633333333, "type": "electric_scooter", "lon": -77.0727715, "bike_id": "6161cf01ace928d1d58b4e70bc02e50c", "rental_uris": {"android": "https://dc.lft.to/lastmile_qr_scan", "ios": "https://dc.lft.to/lastmile_qr_scan"}, "name": "6161cf01ace928d1d58b4e70bc02e50c", "is_reserved": 0}, {"is_disabled": 0, "fusion_lon": 0.0, "fusion_lat": 0.0, "lat": 38.916210166666666, "type": "electric_scooter", "lon": -77.02290716666667, "bike_id": "a3aaf8887aa4dbd43906a22db881b7c7", "rental_uris": {"android": "https://dc.lft.to/lastmile_qr_scan", "ios": "https://dc.lft.to/lastmile_qr_scan"}, "name": "a3aaf8887aa4dbd43906a22db881b7c7", "is_reserved": 0}, {"is_disabled": 0, "fusion_lon": 0.0, "fusion_lat": 0.0, "lat": 38.89476283333333, "type": "electric_scooter", "lon": -76.93306283333334, "bike_id": "94ed6ea2ba8c9ab08278d691d3697531", "rental_uris": {"android": "https://dc.lft.to/lastmile_qr_scan", "ios": "https://dc.lft.to/lastmile_qr_scan"}, "name": "94ed6ea2ba8c9ab08278d691d3697531", "is_reserved": 0}, {"is_disabled": 0, "fusion_lon": 0.0, "fusion_lat": 0.0, "lat": 38.931226833333334, "type": "electric_scooter", "lon": -77.01987966666667, "bike_id": "aeed1567a963587349294fcac6cbbdb0", "rental_uris": {"android": "https://dc.lft.to/lastmile_qr_scan", "ios": "https://dc.lft.to/lastmile_qr_scan"}, "name": "aeed1567a963587349294fcac6cbbdb0", "is_reserved": 0}, {"is_disabled": 0, "fusion_lon": 0.0, "fusion_lat": 0.0, "lat": 38.90825183333333, "type": "electric_scooter", "lon": -77.04158683333333, "bike_id": "9077e8879d40b77c91e478cf942ca1fc", "rental_uris": {"android": "https://dc.lft.to/lastmile_qr_scan", "ios": "https://dc.lft.to/lastmile_qr_scan"}, "name": "9077e8879d40b77c91e478cf942ca1fc", "is_reserved": 0}, {"is_disabled": 0, "fusion_lon": 0.0, "fusion_lat": 0.0, "lat": 38.89631216666667, "type": "electric_scooter", "lon": -77.02924283333333, "bike_id": "2f09c72f68b76bf5e1b78a0216c72691", "rental_uris": {"android": "https://dc.lft.to/lastmile_qr_scan", "ios": "https://dc.lft.to/lastmile_qr_scan"}, "name": "2f09c72f68b76bf5e1b78a0216c72691", "is_reserved": 0}, {"is_disabled": 0, "fusion_lon": 0.0, "fusion_lat": 0.0, "lat": 38.9511465, "type": "electric_scooter", "lon": -77.02789616666666, "bike_id": "448428a41243356c9bdf6c53e20f9328", "rental_uris": {"android": "https://dc.lft.to/lastmile_qr_scan", "ios": "https://dc.lft.to/lastmile_qr_scan"}, "name": "448428a41243356c9bdf6c53e20f9328", "is_reserved": 0}, {"is_disabled": 0, "fusion_lon": 0.0, "fusion_lat": 0.0, "lat": 38.9049495, "type": "electric_scooter", "lon": -77.0294865, "bike_id": "32e3b4a6b0d9e683dbe5052bf4e6bd23", "rental_uris": {"android": "https://dc.lft.to/lastmile_qr_scan", "ios": "https://dc.lft.to/lastmile_qr_scan"}, "name": "32e3b4a6b0d9e683dbe5052bf4e6bd23", "is_reserved": 0}, {"is_disabled": 0, "fusion_lon": 0.0, "fusion_lat": 0.0, "lat": 38.92106016666666, "type": "electric_scooter", "lon": -77.03054283333333, "bike_id": "b97bc9b087533fa82da82a5569b7eb43", "rental_uris": {"android": "https://dc.lft.to/lastmile_qr_scan", "ios": "https://dc.lft.to/lastmile_qr_scan"}, "name": "b97bc9b087533fa82da82a5569b7eb43", "is_reserved": 0}, {"is_disabled": 0, "fusion_lon": 0.0, "fusion_lat": 0.0, "lat": 38.92883883333333, "type": "electric_scooter", "lon": -77.04129416666666, "bike_id": "38f0dd293eebef64fea9686745a44ddf", "rental_uris": {"android": "https://dc.lft.to/lastmile_qr_scan", "ios": "https://dc.lft.to/lastmile_qr_scan"}, "name": "38f0dd293eebef64fea9686745a44ddf", "is_reserved": 0}, {"is_disabled": 0, "fusion_lon": 0.0, "fusion_lat": 0.0, "lat": 38.89734516666667, "type": "electric_scooter", "lon": -77.00928316666666, "bike_id": "c836611e13802a4b457391f8457317ac", "rental_uris": {"android": "https://dc.lft.to/lastmile_qr_scan", "ios": "https://dc.lft.to/lastmile_qr_scan"}, "name": "c836611e13802a4b457391f8457317ac", "is_reserved": 0}, {"is_disabled": 0, "fusion_lon": 0.0, "fusion_lat": 0.0, "lat": 38.890071166666665, "type": "electric_scooter", "lon": -77.048974, "bike_id": "c7edbbbd8c240d4d2afc78109b8b4349", "rental_uris": {"android": "https://dc.lft.to/lastmile_qr_scan", "ios": "https://dc.lft.to/lastmile_qr_scan"}, "name": "c7edbbbd8c240d4d2afc78109b8b4349", "is_reserved": 0}, {"is_disabled": 0, "fusion_lon": 0.0, "fusion_lat": 0.0, "lat": 38.94130583333333, "type": "electric_scooter", "lon": -77.01821383333333, "bike_id": "6d3e1228e5602914f0263fa8c5ff3762", "rental_uris": {"android": "https://dc.lft.to/lastmile_qr_scan", "ios": "https://dc.lft.to/lastmile_qr_scan"}, "name": "6d3e1228e5602914f0263fa8c5ff3762", "is_reserved": 0}, {"is_disabled": 0, "fusion_lon": 0.0, "fusion_lat": 0.0, "lat": 38.8606135, "type": "electric_scooter", "lon": -76.98510233333333, "bike_id": "e87ba5bec7773dfe2d3fc5e9ebc4f613", "rental_uris": {"android": "https://dc.lft.to/lastmile_qr_scan", "ios": "https://dc.lft.to/lastmile_qr_scan"}, "name": "e87ba5bec7773dfe2d3fc5e9ebc4f613", "is_reserved": 0}, {"is_disabled": 0, "fusion_lon": 0.0, "fusion_lat": 0.0, "lat": 38.900609, "type": "electric_scooter", "lon": -77.0129065, "bike_id": "bfc0a89bd00521f04dd43932cb0838c8", "rental_uris": {"android": "https://dc.lft.to/lastmile_qr_scan", "ios": "https://dc.lft.to/lastmile_qr_scan"}, "name": "bfc0a89bd00521f04dd43932cb0838c8", "is_reserved": 0}, {"is_disabled": 0, "fusion_lon": 0.0, "fusion_lat": 0.0, "lat": 38.937235, "type": "electric_scooter", "lon": -77.06105483333333, "bike_id": "edc20f48c5ab1bf7ba723b32aa6b3ab8", "rental_uris": {"android": "https://dc.lft.to/lastmile_qr_scan", "ios": "https://dc.lft.to/lastmile_qr_scan"}, "name": "edc20f48c5ab1bf7ba723b32aa6b3ab8", "is_reserved": 0}, {"is_disabled": 0, "fusion_lon": 0.0, "fusion_lat": 0.0, "lat": 38.9018015, "type": "electric_scooter", "lon": -77.05015766666666, "bike_id": "a02d1d05b8ac911783e0724064e1544a", "rental_uris": {"android": "https://dc.lft.to/lastmile_qr_scan", "ios": "https://dc.lft.to/lastmile_qr_scan"}, "name": "a02d1d05b8ac911783e0724064e1544a", "is_reserved": 0}, {"is_disabled": 0, "fusion_lon": 0.0, "fusion_lat": 0.0, "lat": 38.89829, "type": "electric_scooter", "lon": -77.043226, "bike_id": "46d425bb8fb568afe299f460876b4c08", "rental_uris": {"android": "https://dc.lft.to/lastmile_qr_scan", "ios": "https://dc.lft.to/lastmile_qr_scan"}, "name": "46d425bb8fb568afe299f460876b4c08", "is_reserved": 0}, {"is_disabled": 0, "fusion_lon": 0.0, "fusion_lat": 0.0, "lat": 38.9199325, "type": "electric_scooter", "lon": -77.03263366666667, "bike_id": "f296baedddec5feebad6a7e355aaaa6e", "rental_uris": {"android": "https://dc.lft.to/lastmile_qr_scan", "ios": "https://dc.lft.to/lastmile_qr_scan"}, "name": "f296baedddec5feebad6a7e355aaaa6e", "is_reserved": 0}, {"is_disabled": 0, "fusion_lon": 0.0, "fusion_lat": 0.0, "lat": 38.895342, "type": "electric_bike", "lon": -77.040514, "bike_id": "ee8a9c012d0aae68ba3fcf488eb7ceda", "rental_uris": {"android": "https://dc.lft.to/lastmile_qr_scan", "ios": "https://dc.lft.to/lastmile_qr_scan"}, "name": "ee8a9c012d0aae68ba3fcf488eb7ceda", "is_reserved": 0}, {"is_disabled": 0, "fusion_lon": 0.0, "fusion_lat": 0.0, "lat": 38.93249216666667, "type": "electric_scooter", "lon": -77.03278683333333, "bike_id": "349ae2320a5ab7facd67573807fd6413", "rental_uris": {"android": "https://dc.lft.to/lastmile_qr_scan", "ios": "https://dc.lft.to/lastmile_qr_scan"}, "name": "349ae2320a5ab7facd67573807fd6413", "is_reserved": 0}, {"is_disabled": 0, "fusion_lon": 0.0, "fusion_lat": 0.0, "lat": 38.863611, "type": "electric_scooter", "lon": -76.9906875, "bike_id": "215e486636734e2b84fa27ab3798c98b", "rental_uris": {"android": "https://dc.lft.to/lastmile_qr_scan", "ios": "https://dc.lft.to/lastmile_qr_scan"}, "name": "215e486636734e2b84fa27ab3798c98b", "is_reserved": 0}, {"is_disabled": 0, "fusion_lon": 0.0, "fusion_lat": 0.0, "lat": 38.88375216666667, "type": "electric_scooter", "lon": -76.926476, "bike_id": "91e79243426611a7345fe60d3dcbf65b", "rental_uris": {"android": "https://dc.lft.to/lastmile_qr_scan", "ios": "https://dc.lft.to/lastmile_qr_scan"}, "name": "91e79243426611a7345fe60d3dcbf65b", "is_reserved": 0}, {"is_disabled": 0, "fusion_lon": 0.0, "fusion_lat": 0.0, "lat": 38.992568166666665, "type": "electric_bike", "lon": -77.04996883333334, "bike_id": "76bdfbee6f9540821556cabd2fe75745", "rental_uris": {"android": "https://dc.lft.to/lastmile_qr_scan", "ios": "https://dc.lft.to/lastmile_qr_scan"}, "name": "76bdfbee6f9540821556cabd2fe75745", "is_reserved": 0}, {"is_disabled": 0, "fusion_lon": 0.0, "fusion_lat": 0.0, "lat": 38.914795, "type": "electric_bike", "lon": -77.0092345, "bike_id": "bebb2f0aeb0ae046fc870f4d5bcf2027", "rental_uris": {"android": "https://dc.lft.to/lastmile_qr_scan", "ios": "https://dc.lft.to/lastmile_qr_scan"}, "name": "bebb2f0aeb0ae046fc870f4d5bcf2027", "is_reserved": 0}, {"is_disabled": 0, "fusion_lon": 0.0, "fusion_lat": 0.0, "lat": 38.9127775, "type": "electric_scooter", "lon": -77.0385585, "bike_id": "03ee18f877e7828a0792ac9d071f5f47", "rental_uris": {"android": "https://dc.lft.to/lastmile_qr_scan", "ios": "https://dc.lft.to/lastmile_qr_scan"}, "name": "03ee18f877e7828a0792ac9d071f5f47", "is_reserved": 0}, {"is_disabled": 0, "fusion_lon": 0.0, "fusion_lat": 0.0, "lat": 38.897348666666666, "type": "electric_scooter", "lon": -77.02695733333333, "bike_id": "9f136cfedfc0f0d503acbcaa8d770dd5", "rental_uris": {"android": "https://dc.lft.to/lastmile_qr_scan", "ios": "https://dc.lft.to/lastmile_qr_scan"}, "name": "9f136cfedfc0f0d503acbcaa8d770dd5", "is_reserved": 0}, {"is_disabled": 0, "fusion_lon": 0.0, "fusion_lat": 0.0, "lat": 38.89622833333333, "type": "electric_scooter", "lon": -76.95640483333334, "bike_id": "2da6fe4e5f540cd157773e4eb179cad2", "rental_uris": {"android": "https://dc.lft.to/lastmile_qr_scan", "ios": "https://dc.lft.to/lastmile_qr_scan"}, "name": "2da6fe4e5f540cd157773e4eb179cad2", "is_reserved": 0}, {"is_disabled": 0, "fusion_lon": 0.0, "fusion_lat": 0.0, "lat": 38.93188883333333, "type": "electric_bike", "lon": -77.22938683333334, "bike_id": "d0580840a7642f7cf8c7b8060727add3", "rental_uris": {"android": "https://dc.lft.to/lastmile_qr_scan", "ios": "https://dc.lft.to/lastmile_qr_scan"}, "name": "d0580840a7642f7cf8c7b8060727add3", "is_reserved": 0}, {"is_disabled": 0, "fusion_lon": 0.0, "fusion_lat": 0.0, "lat": 38.95079616666666, "type": "electric_scooter", "lon": -77.02877033333333, "bike_id": "7caee14549f236fc7999b19f67f04a2e", "rental_uris": {"android": "https://dc.lft.to/lastmile_qr_scan", "ios": "https://dc.lft.to/lastmile_qr_scan"}, "name": "7caee14549f236fc7999b19f67f04a2e", "is_reserved": 0}, {"is_disabled": 0, "fusion_lon": 0.0, "fusion_lat": 0.0, "lat": 38.917557, "type": "electric_scooter", "lon": -77.03600116666667, "bike_id": "f93f787defebe826ad5916187ff74814", "rental_uris": {"android": "https://dc.lft.to/lastmile_qr_scan", "ios": "https://dc.lft.to/lastmile_qr_scan"}, "name": "f93f787defebe826ad5916187ff74814", "is_reserved": 0}, {"is_disabled": 0, "fusion_lon": 0.0, "fusion_lat": 0.0, "lat": 38.91881216666667, "type": "electric_scooter", "lon": -77.016072, "bike_id": "379c3a2c5767a609888e20b83e668baf", "rental_uris": {"android": "https://dc.lft.to/lastmile_qr_scan", "ios": "https://dc.lft.to/lastmile_qr_scan"}, "name": "379c3a2c5767a609888e20b83e668baf", "is_reserved": 0}, {"is_disabled": 0, "fusion_lon": 0.0, "fusion_lat": 0.0, "lat": 38.92055716666667, "type": "electric_scooter", "lon": -76.9987665, "bike_id": "789539d1ea0fd7212c6b0196032f237d", "rental_uris": {"android": "https://dc.lft.to/lastmile_qr_scan", "ios": "https://dc.lft.to/lastmile_qr_scan"}, "name": "789539d1ea0fd7212c6b0196032f237d", "is_reserved": 0}, {"is_disabled": 0, "fusion_lon": 0.0, "fusion_lat": 0.0, "lat": 38.94198216666667, "type": "electric_scooter", "lon": -77.02587366666667, "bike_id": "e76a92346bf19455ecb3a5771e211d6a", "rental_uris": {"android": "https://dc.lft.to/lastmile_qr_scan", "ios": "https://dc.lft.to/lastmile_qr_scan"}, "name": "e76a92346bf19455ecb3a5771e211d6a", "is_reserved": 0}, {"is_disabled": 0, "fusion_lon": 0.0, "fusion_lat": 0.0, "lat": 38.935359, "type": "electric_scooter", "lon": -77.0544215, "bike_id": "513b7f5d873cd198ce493ef8a9863ccd", "rental_uris": {"android": "https://dc.lft.to/lastmile_qr_scan", "ios": "https://dc.lft.to/lastmile_qr_scan"}, "name": "513b7f5d873cd198ce493ef8a9863ccd", "is_reserved": 0}, {"is_disabled": 0, "fusion_lon": 0.0, "fusion_lat": 0.0, "lat": 38.8580715, "type": "electric_scooter", "lon": -76.98657816666666, "bike_id": "d479b0cf345fe74c386ff0348c5779fb", "rental_uris": {"android": "https://dc.lft.to/lastmile_qr_scan", "ios": "https://dc.lft.to/lastmile_qr_scan"}, "name": "d479b0cf345fe74c386ff0348c5779fb", "is_reserved": 0}, {"is_disabled": 0, "fusion_lon": 0.0, "fusion_lat": 0.0, "lat": 38.96100583333333, "type": "electric_scooter", "lon": -77.06897383333333, "bike_id": "a678599b6adbe56946ae62bbae93fab8", "rental_uris": {"android": "https://dc.lft.to/lastmile_qr_scan", "ios": "https://dc.lft.to/lastmile_qr_scan"}, "name": "a678599b6adbe56946ae62bbae93fab8", "is_reserved": 0}, {"is_disabled": 0, "fusion_lon": 0.0, "fusion_lat": 0.0, "lat": 38.90875033333333, "type": "electric_scooter", "lon": -77.03539316666667, "bike_id": "d8e6f732863213e24b49b9c06ca268d5", "rental_uris": {"android": "https://dc.lft.to/lastmile_qr_scan", "ios": "https://dc.lft.to/lastmile_qr_scan"}, "name": "d8e6f732863213e24b49b9c06ca268d5", "is_reserved": 0}, {"is_disabled": 0, "fusion_lon": 0.0, "fusion_lat": 0.0, "lat": 38.934090166666664, "type": "electric_scooter", "lon": -77.03264583333333, "bike_id": "85d20ab592f948e775d406b3ecc1e92d", "rental_uris": {"android": "https://dc.lft.to/lastmile_qr_scan", "ios": "https://dc.lft.to/lastmile_qr_scan"}, "name": "85d20ab592f948e775d406b3ecc1e92d", "is_reserved": 0}, {"is_disabled": 0, "fusion_lon": 0.0, "fusion_lat": 0.0, "lat": 38.911899166666664, "type": "electric_scooter", "lon": -77.0350495, "bike_id": "c0d5afebb191860dfdc1bd9f31f0f0cf", "rental_uris": {"android": "https://dc.lft.to/lastmile_qr_scan", "ios": "https://dc.lft.to/lastmile_qr_scan"}, "name": "c0d5afebb191860dfdc1bd9f31f0f0cf", "is_reserved": 0}, {"is_disabled": 0, "fusion_lon": 0.0, "fusion_lat": 0.0, "lat": 38.86523783333333, "type": "electric_scooter", "lon": -76.98967616666667, "bike_id": "511bf0b01bccba9fc980a960dc9102d1", "rental_uris": {"android": "https://dc.lft.to/lastmile_qr_scan", "ios": "https://dc.lft.to/lastmile_qr_scan"}, "name": "511bf0b01bccba9fc980a960dc9102d1", "is_reserved": 0}, {"is_disabled": 0, "fusion_lon": 0.0, "fusion_lat": 0.0, "lat": 38.9160685, "type": "electric_scooter", "lon": -77.03131116666667, "bike_id": "8ea222cb284e5fc7e99b3d154a1c0d81", "rental_uris": {"android": "https://dc.lft.to/lastmile_qr_scan", "ios": "https://dc.lft.to/lastmile_qr_scan"}, "name": "8ea222cb284e5fc7e99b3d154a1c0d81", "is_reserved": 0}, {"is_disabled": 0, "fusion_lon": 0.0, "fusion_lat": 0.0, "lat": 38.90363083333333, "type": "electric_scooter", "lon": -77.016216, "bike_id": "70b349ab3d6c334bb52423776ba011b6", "rental_uris": {"android": "https://dc.lft.to/lastmile_qr_scan", "ios": "https://dc.lft.to/lastmile_qr_scan"}, "name": "70b349ab3d6c334bb52423776ba011b6", "is_reserved": 0}, {"is_disabled": 0, "fusion_lon": 0.0, "fusion_lat": 0.0, "lat": 38.9297305, "type": "electric_scooter", "lon": -77.02076066666666, "bike_id": "7c48ef4969310ebbf369b9271ce14409", "rental_uris": {"android": "https://dc.lft.to/lastmile_qr_scan", "ios": "https://dc.lft.to/lastmile_qr_scan"}, "name": "7c48ef4969310ebbf369b9271ce14409", "is_reserved": 0}, {"is_disabled": 0, "fusion_lon": 0.0, "fusion_lat": 0.0, "lat": 38.93472666666667, "type": "electric_scooter", "lon": -77.03578516666667, "bike_id": "95ac34a123e693de462304663872dedc", "rental_uris": {"android": "https://dc.lft.to/lastmile_qr_scan", "ios": "https://dc.lft.to/lastmile_qr_scan"}, "name": "95ac34a123e693de462304663872dedc", "is_reserved": 0}, {"is_disabled": 0, "fusion_lon": 0.0, "fusion_lat": 0.0, "lat": 38.911534333333336, "type": "electric_scooter", "lon": -77.041458, "bike_id": "a02b3f6de74384c7d8e105ccd9d19599", "rental_uris": {"android": "https://dc.lft.to/lastmile_qr_scan", "ios": "https://dc.lft.to/lastmile_qr_scan"}, "name": "a02b3f6de74384c7d8e105ccd9d19599", "is_reserved": 0}, {"is_disabled": 0, "fusion_lon": 0.0, "fusion_lat": 0.0, "lat": 38.901316666666666, "type": "electric_scooter", "lon": -77.02299783333333, "bike_id": "a60e82ca0120dbc65ae137cd989ebed4", "rental_uris": {"android": "https://dc.lft.to/lastmile_qr_scan", "ios": "https://dc.lft.to/lastmile_qr_scan"}, "name": "a60e82ca0120dbc65ae137cd989ebed4", "is_reserved": 0}, {"is_disabled": 0, "fusion_lon": 0.0, "fusion_lat": 0.0, "lat": 38.896230833333334, "type": "electric_scooter", "lon": -77.00925516666666, "bike_id": "6ef7aed9e8f35efb538ac12f6bde9c6a", "rental_uris": {"android": "https://dc.lft.to/lastmile_qr_scan", "ios": "https://dc.lft.to/lastmile_qr_scan"}, "name": "6ef7aed9e8f35efb538ac12f6bde9c6a", "is_reserved": 0}, {"is_disabled": 0, "fusion_lon": 0.0, "fusion_lat": 0.0, "lat": 38.906823, "type": "electric_scooter", "lon": -76.97999783333333, "bike_id": "a35aafee390aa1813302d18528993450", "rental_uris": {"android": "https://dc.lft.to/lastmile_qr_scan", "ios": "https://dc.lft.to/lastmile_qr_scan"}, "name": "a35aafee390aa1813302d18528993450", "is_reserved": 0}, {"is_disabled": 0, "fusion_lon": 0.0, "fusion_lat": 0.0, "lat": 38.910441666666664, "type": "electric_scooter", "lon": -77.04008216666666, "bike_id": "b901461e101cfabc85008d5f1412e0f2", "rental_uris": {"android": "https://dc.lft.to/lastmile_qr_scan", "ios": "https://dc.lft.to/lastmile_qr_scan"}, "name": "b901461e101cfabc85008d5f1412e0f2", "is_reserved": 0}, {"is_disabled": 0, "fusion_lon": 0.0, "fusion_lat": 0.0, "lat": 38.9498255, "type": "electric_scooter", "lon": -77.02701816666666, "bike_id": "3bd6c706d816ea31752f394ed837d20d", "rental_uris": {"android": "https://dc.lft.to/lastmile_qr_scan", "ios": "https://dc.lft.to/lastmile_qr_scan"}, "name": "3bd6c706d816ea31752f394ed837d20d", "is_reserved": 0}, {"is_disabled": 0, "fusion_lon": 0.0, "fusion_lat": 0.0, "lat": 38.915350333333336, "type": "electric_scooter", "lon": -77.01848633333333, "bike_id": "b994b5a351dcadd6d5a9861c1d5877c2", "rental_uris": {"android": "https://dc.lft.to/lastmile_qr_scan", "ios": "https://dc.lft.to/lastmile_qr_scan"}, "name": "b994b5a351dcadd6d5a9861c1d5877c2", "is_reserved": 0}, {"is_disabled": 0, "fusion_lon": 0.0, "fusion_lat": 0.0, "lat": 38.92064583333333, "type": "electric_scooter", "lon": -77.04355983333333, "bike_id": "58710023418ccaa5703669496c999ce1", "rental_uris": {"android": "https://dc.lft.to/lastmile_qr_scan", "ios": "https://dc.lft.to/lastmile_qr_scan"}, "name": "58710023418ccaa5703669496c999ce1", "is_reserved": 0}, {"is_disabled": 0, "fusion_lon": 0.0, "fusion_lat": 0.0, "lat": 38.93538616666667, "type": "electric_scooter", "lon": -77.03431983333333, "bike_id": "4c1e0f6153527ef9086d7f0b9b47ad43", "rental_uris": {"android": "https://dc.lft.to/lastmile_qr_scan", "ios": "https://dc.lft.to/lastmile_qr_scan"}, "name": "4c1e0f6153527ef9086d7f0b9b47ad43", "is_reserved": 0}, {"is_disabled": 0, "fusion_lon": 0.0, "fusion_lat": 0.0, "lat": 38.91195616666667, "type": "electric_scooter", "lon": -77.00457883333333, "bike_id": "f642e520ca0e5cbab205d9255448325b", "rental_uris": {"android": "https://dc.lft.to/lastmile_qr_scan", "ios": "https://dc.lft.to/lastmile_qr_scan"}, "name": "f642e520ca0e5cbab205d9255448325b", "is_reserved": 0}, {"is_disabled": 0, "fusion_lon": 0.0, "fusion_lat": 0.0, "lat": 38.89544383333333, "type": "electric_scooter", "lon": -77.010952, "bike_id": "d1d5d67ce0e487ead27c8753ca6dc1db", "rental_uris": {"android": "https://dc.lft.to/lastmile_qr_scan", "ios": "https://dc.lft.to/lastmile_qr_scan"}, "name": "d1d5d67ce0e487ead27c8753ca6dc1db", "is_reserved": 0}, {"is_disabled": 0, "fusion_lon": 0.0, "fusion_lat": 0.0, "lat": 38.919261, "type": "electric_scooter", "lon": -77.03018166666666, "bike_id": "53d33e406a01a82e0f3829ef05333f75", "rental_uris": {"android": "https://dc.lft.to/lastmile_qr_scan", "ios": "https://dc.lft.to/lastmile_qr_scan"}, "name": "53d33e406a01a82e0f3829ef05333f75", "is_reserved": 0}, {"is_disabled": 0, "fusion_lon": 0.0, "fusion_lat": 0.0, "lat": 38.842957, "type": "electric_scooter", "lon": -76.99947133333333, "bike_id": "732a58bc5fe842a28cb66f10d180a2fe", "rental_uris": {"android": "https://dc.lft.to/lastmile_qr_scan", "ios": "https://dc.lft.to/lastmile_qr_scan"}, "name": "732a58bc5fe842a28cb66f10d180a2fe", "is_reserved": 0}, {"is_disabled": 0, "fusion_lon": 0.0, "fusion_lat": 0.0, "lat": 38.92038983333333, "type": "electric_scooter", "lon": -77.031188, "bike_id": "548e971343e118b2223c1c43f12e92f2", "rental_uris": {"android": "https://dc.lft.to/lastmile_qr_scan", "ios": "https://dc.lft.to/lastmile_qr_scan"}, "name": "548e971343e118b2223c1c43f12e92f2", "is_reserved": 0}, {"is_disabled": 0, "fusion_lon": 0.0, "fusion_lat": 0.0, "lat": 38.887607833333334, "type": "electric_scooter", "lon": -77.01605083333334, "bike_id": "2cbc032aff78be91cf6d45cc5e1c9d9e", "rental_uris": {"android": "https://dc.lft.to/lastmile_qr_scan", "ios": "https://dc.lft.to/lastmile_qr_scan"}, "name": "2cbc032aff78be91cf6d45cc5e1c9d9e", "is_reserved": 0}, {"is_disabled": 0, "fusion_lon": 0.0, "fusion_lat": 0.0, "lat": 38.94051233333333, "type": "electric_scooter", "lon": -77.02496683333334, "bike_id": "4fbff6e8d5e1b53cd2eae530ab0bdcdc", "rental_uris": {"android": "https://dc.lft.to/lastmile_qr_scan", "ios": "https://dc.lft.to/lastmile_qr_scan"}, "name": "4fbff6e8d5e1b53cd2eae530ab0bdcdc", "is_reserved": 0}, {"is_disabled": 0, "fusion_lon": 0.0, "fusion_lat": 0.0, "lat": 38.8995415, "type": "electric_scooter", "lon": -77.05201366666667, "bike_id": "62aaf23baafc9e3f828cbc1b309a7843", "rental_uris": {"android": "https://dc.lft.to/lastmile_qr_scan", "ios": "https://dc.lft.to/lastmile_qr_scan"}, "name": "62aaf23baafc9e3f828cbc1b309a7843", "is_reserved": 0}, {"is_disabled": 0, "fusion_lon": 0.0, "fusion_lat": 0.0, "lat": 38.942774166666666, "type": "electric_scooter", "lon": -77.03257666666667, "bike_id": "5ac5be50dfaf4090bd8b8afc5ad16b56", "rental_uris": {"android": "https://dc.lft.to/lastmile_qr_scan", "ios": "https://dc.lft.to/lastmile_qr_scan"}, "name": "5ac5be50dfaf4090bd8b8afc5ad16b56", "is_reserved": 0}, {"is_disabled": 0, "fusion_lon": 0.0, "fusion_lat": 0.0, "lat": 38.899080166666664, "type": "electric_scooter", "lon": -76.933922, "bike_id": "1105beedf42a0f9cd5f36b94ec7dba71", "rental_uris": {"android": "https://dc.lft.to/lastmile_qr_scan", "ios": "https://dc.lft.to/lastmile_qr_scan"}, "name": "1105beedf42a0f9cd5f36b94ec7dba71", "is_reserved": 0}, {"is_disabled": 0, "fusion_lon": 0.0, "fusion_lat": 0.0, "lat": 38.928905666666665, "type": "electric_scooter", "lon": -77.02307583333334, "bike_id": "d2d7e581e1ad1bff304fb2de8b1a42bc", "rental_uris": {"android": "https://dc.lft.to/lastmile_qr_scan", "ios": "https://dc.lft.to/lastmile_qr_scan"}, "name": "d2d7e581e1ad1bff304fb2de8b1a42bc", "is_reserved": 0}, {"is_disabled": 0, "fusion_lon": 0.0, "fusion_lat": 0.0, "lat": 38.93418966666667, "type": "electric_bike", "lon": -77.0250995, "bike_id": "5d29023f5733b01d4411fcc22f590bf2", "rental_uris": {"android": "https://dc.lft.to/lastmile_qr_scan", "ios": "https://dc.lft.to/lastmile_qr_scan"}, "name": "5d29023f5733b01d4411fcc22f590bf2", "is_reserved": 0}, {"is_disabled": 0, "fusion_lon": 0.0, "fusion_lat": 0.0, "lat": 38.96450633333333, "type": "electric_bike", "lon": -76.97726033333333, "bike_id": "d872d47518d7219be9971c3a5bc3dc3c", "rental_uris": {"android": "https://dc.lft.to/lastmile_qr_scan", "ios": "https://dc.lft.to/lastmile_qr_scan"}, "name": "d872d47518d7219be9971c3a5bc3dc3c", "is_reserved": 0}, {"is_disabled": 0, "fusion_lon": 0.0, "fusion_lat": 0.0, "lat": 38.865942, "type": "electric_bike", "lon": -76.9744645, "bike_id": "3fd3a1c0b91523f490801297c97957d2", "rental_uris": {"android": "https://dc.lft.to/lastmile_qr_scan", "ios": "https://dc.lft.to/lastmile_qr_scan"}, "name": "3fd3a1c0b91523f490801297c97957d2", "is_reserved": 0}, {"is_disabled": 0, "fusion_lon": 0.0, "fusion_lat": 0.0, "lat": 38.8585465, "type": "electric_bike", "lon": -77.0974935, "bike_id": "a402c47b2526d43c70d3c217dcf46f85", "rental_uris": {"android": "https://dc.lft.to/lastmile_qr_scan", "ios": "https://dc.lft.to/lastmile_qr_scan"}, "name": "a402c47b2526d43c70d3c217dcf46f85", "is_reserved": 0}, {"is_disabled": 0, "fusion_lon": 0.0, "fusion_lat": 0.0, "lat": 39.02997833333333, "type": "electric_bike", "lon": -77.10650633333333, "bike_id": "93f2f720d653f8d5e7aa30f7b90a8d3e", "rental_uris": {"android": "https://dc.lft.to/lastmile_qr_scan", "ios": "https://dc.lft.to/lastmile_qr_scan"}, "name": "93f2f720d653f8d5e7aa30f7b90a8d3e", "is_reserved": 0}, {"is_disabled": 0, "fusion_lon": 0.0, "fusion_lat": 0.0, "lat": 38.924615833333334, "type": "electric_scooter", "lon": -77.029653, "bike_id": "bdd3c1d5c555a0915e8f69536abeed2c", "rental_uris": {"android": "https://dc.lft.to/lastmile_qr_scan", "ios": "https://dc.lft.to/lastmile_qr_scan"}, "name": "bdd3c1d5c555a0915e8f69536abeed2c", "is_reserved": 0}, {"is_disabled": 0, "fusion_lon": 0.0, "fusion_lat": 0.0, "lat": 38.917089, "type": "electric_scooter", "lon": -77.03309583333333, "bike_id": "92177852416b1abce8fcc968dec1437e", "rental_uris": {"android": "https://dc.lft.to/lastmile_qr_scan", "ios": "https://dc.lft.to/lastmile_qr_scan"}, "name": "92177852416b1abce8fcc968dec1437e", "is_reserved": 0}, {"is_disabled": 0, "fusion_lon": 0.0, "fusion_lat": 0.0, "lat": 38.90385966666667, "type": "electric_scooter", "lon": -76.98999733333333, "bike_id": "77681fa93d39c4e30faf57d54e877683", "rental_uris": {"android": "https://dc.lft.to/lastmile_qr_scan", "ios": "https://dc.lft.to/lastmile_qr_scan"}, "name": "77681fa93d39c4e30faf57d54e877683", "is_reserved": 0}, {"is_disabled": 0, "fusion_lon": 0.0, "fusion_lat": 0.0, "lat": 38.9462505, "type": "electric_bike", "lon": -76.93409216666667, "bike_id": "8674cd3912bae6e67457571cb85bbe39", "rental_uris": {"android": "https://dc.lft.to/lastmile_qr_scan", "ios": "https://dc.lft.to/lastmile_qr_scan"}, "name": "8674cd3912bae6e67457571cb85bbe39", "is_reserved": 0}, {"is_disabled": 0, "fusion_lon": 0.0, "fusion_lat": 0.0, "lat": 38.951953833333334, "type": "electric_scooter", "lon": -77.02610933333334, "bike_id": "0c20ccfa2cb9b95fe691dd4c32f4739b", "rental_uris": {"android": "https://dc.lft.to/lastmile_qr_scan", "ios": "https://dc.lft.to/lastmile_qr_scan"}, "name": "0c20ccfa2cb9b95fe691dd4c32f4739b", "is_reserved": 0}, {"is_disabled": 0, "fusion_lon": 0.0, "fusion_lat": 0.0, "lat": 38.8815285, "type": "electric_bike", "lon": -77.0168715, "bike_id": "cb7f6b52bb544f16007a2fedc252b9bc", "rental_uris": {"android": "https://dc.lft.to/lastmile_qr_scan", "ios": "https://dc.lft.to/lastmile_qr_scan"}, "name": "cb7f6b52bb544f16007a2fedc252b9bc", "is_reserved": 0}, {"is_disabled": 0, "fusion_lon": 0.0, "fusion_lat": 0.0, "lat": 38.92810983333333, "type": "electric_scooter", "lon": -77.03617766666666, "bike_id": "221e5c59073bc4012c70214879004484", "rental_uris": {"android": "https://dc.lft.to/lastmile_qr_scan", "ios": "https://dc.lft.to/lastmile_qr_scan"}, "name": "221e5c59073bc4012c70214879004484", "is_reserved": 0}, {"is_disabled": 0, "fusion_lon": 0.0, "fusion_lat": 0.0, "lat": 38.869558833333336, "type": "electric_scooter", "lon": -76.97597333333333, "bike_id": "03675fd36040865069b141ad52c154b2", "rental_uris": {"android": "https://dc.lft.to/lastmile_qr_scan", "ios": "https://dc.lft.to/lastmile_qr_scan"}, "name": "03675fd36040865069b141ad52c154b2", "is_reserved": 0}, {"is_disabled": 0, "fusion_lon": 0.0, "fusion_lat": 0.0, "lat": 38.8982605, "type": "electric_scooter", "lon": -76.946547, "bike_id": "c38edd3c02e5b4c8eb924f5b4f2228ac", "rental_uris": {"android": "https://dc.lft.to/lastmile_qr_scan", "ios": "https://dc.lft.to/lastmile_qr_scan"}, "name": "c38edd3c02e5b4c8eb924f5b4f2228ac", "is_reserved": 0}, {"is_disabled": 0, "fusion_lon": 0.0, "fusion_lat": 0.0, "lat": 38.902681666666666, "type": "electric_scooter", "lon": -77.03432683333334, "bike_id": "7444489f701314ace67ac27c8c40c101", "rental_uris": {"android": "https://dc.lft.to/lastmile_qr_scan", "ios": "https://dc.lft.to/lastmile_qr_scan"}, "name": "7444489f701314ace67ac27c8c40c101", "is_reserved": 0}, {"is_disabled": 0, "fusion_lon": 0.0, "fusion_lat": 0.0, "lat": 38.910487833333335, "type": "electric_scooter", "lon": -77.02290766666667, "bike_id": "1b40461413e819cd5d1dd4676d6871c2", "rental_uris": {"android": "https://dc.lft.to/lastmile_qr_scan", "ios": "https://dc.lft.to/lastmile_qr_scan"}, "name": "1b40461413e819cd5d1dd4676d6871c2", "is_reserved": 0}, {"is_disabled": 0, "fusion_lon": 0.0, "fusion_lat": 0.0, "lat": 38.85537983333333, "type": "electric_bike", "lon": -77.10709916666667, "bike_id": "c4c1d81a3224fbe3ca6c62a633b8850f", "rental_uris": {"android": "https://dc.lft.to/lastmile_qr_scan", "ios": "https://dc.lft.to/lastmile_qr_scan"}, "name": "c4c1d81a3224fbe3ca6c62a633b8850f", "is_reserved": 0}, {"is_disabled": 0, "fusion_lon": 0.0, "fusion_lat": 0.0, "lat": 38.919339666666666, "type": "electric_scooter", "lon": -77.0812915, "bike_id": "b49c4b93ce3ffbb53c77dbee2313ceed", "rental_uris": {"android": "https://dc.lft.to/lastmile_qr_scan", "ios": "https://dc.lft.to/lastmile_qr_scan"}, "name": "b49c4b93ce3ffbb53c77dbee2313ceed", "is_reserved": 0}, {"is_disabled": 0, "fusion_lon": 0.0, "fusion_lat": 0.0, "lat": 38.9161375, "type": "electric_scooter", "lon": -77.0485715, "bike_id": "cd77261f190903cb993b0212fef9cd1a", "rental_uris": {"android": "https://dc.lft.to/lastmile_qr_scan", "ios": "https://dc.lft.to/lastmile_qr_scan"}, "name": "cd77261f190903cb993b0212fef9cd1a", "is_reserved": 0}, {"is_disabled": 0, "fusion_lon": 0.0, "fusion_lat": 0.0, "lat": 38.90639783333334, "type": "electric_scooter", "lon": -77.02506283333334, "bike_id": "b9aedd123f1d320f08d50bf02487f01f", "rental_uris": {"android": "https://dc.lft.to/lastmile_qr_scan", "ios": "https://dc.lft.to/lastmile_qr_scan"}, "name": "b9aedd123f1d320f08d50bf02487f01f", "is_reserved": 0}, {"is_disabled": 0, "fusion_lon": 0.0, "fusion_lat": 0.0, "lat": 38.89849366666667, "type": "electric_scooter", "lon": -76.94561483333334, "bike_id": "97edb6b1d00996d21d692a0058e52016", "rental_uris": {"android": "https://dc.lft.to/lastmile_qr_scan", "ios": "https://dc.lft.to/lastmile_qr_scan"}, "name": "97edb6b1d00996d21d692a0058e52016", "is_reserved": 0}, {"is_disabled": 0, "fusion_lon": 0.0, "fusion_lat": 0.0, "lat": 38.8950445, "type": "electric_scooter", "lon": -76.94878633333333, "bike_id": "414251659bfd64125cf1e4c780641299", "rental_uris": {"android": "https://dc.lft.to/lastmile_qr_scan", "ios": "https://dc.lft.to/lastmile_qr_scan"}, "name": "414251659bfd64125cf1e4c780641299", "is_reserved": 0}, {"is_disabled": 0, "fusion_lon": 0.0, "fusion_lat": 0.0, "lat": 38.8603565, "type": "electric_scooter", "lon": -76.9969285, "bike_id": "fe1c34bb6395d4bc5dbe06ade4a65ff4", "rental_uris": {"android": "https://dc.lft.to/lastmile_qr_scan", "ios": "https://dc.lft.to/lastmile_qr_scan"}, "name": "fe1c34bb6395d4bc5dbe06ade4a65ff4", "is_reserved": 0}, {"is_disabled": 0, "fusion_lon": 0.0, "fusion_lat": 0.0, "lat": 39.095901833333336, "type": "electric_bike", "lon": -77.14777, "bike_id": "3f54df84378f0f242262e1103b0fc92b", "rental_uris": {"android": "https://dc.lft.to/lastmile_qr_scan", "ios": "https://dc.lft.to/lastmile_qr_scan"}, "name": "3f54df84378f0f242262e1103b0fc92b", "is_reserved": 0}, {"is_disabled": 0, "fusion_lon": 0.0, "fusion_lat": 0.0, "lat": 38.999338333333334, "type": "electric_bike", "lon": -77.00123933333333, "bike_id": "06e8bab410a514d8c7b577b26d085a67", "rental_uris": {"android": "https://dc.lft.to/lastmile_qr_scan", "ios": "https://dc.lft.to/lastmile_qr_scan"}, "name": "06e8bab410a514d8c7b577b26d085a67", "is_reserved": 0}, {"is_disabled": 0, "fusion_lon": 0.0, "fusion_lat": 0.0, "lat": 38.91625466666667, "type": "electric_scooter", "lon": -77.03189766666667, "bike_id": "198c0c5bb03e658bcd4a671289cfe645", "rental_uris": {"android": "https://dc.lft.to/lastmile_qr_scan", "ios": "https://dc.lft.to/lastmile_qr_scan"}, "name": "198c0c5bb03e658bcd4a671289cfe645", "is_reserved": 0}, {"is_disabled": 0, "fusion_lon": 0.0, "fusion_lat": 0.0, "lat": 38.90713316666667, "type": "electric_scooter", "lon": -77.028711, "bike_id": "ff645dbf324c4ac6a838d6665ee9f8b8", "rental_uris": {"android": "https://dc.lft.to/lastmile_qr_scan", "ios": "https://dc.lft.to/lastmile_qr_scan"}, "name": "ff645dbf324c4ac6a838d6665ee9f8b8", "is_reserved": 0}, {"is_disabled": 0, "fusion_lon": 0.0, "fusion_lat": 0.0, "lat": 38.910943333333336, "type": "electric_bike", "lon": -77.08763366666666, "bike_id": "3394e0ec0782289a1430a31dd1641258", "rental_uris": {"android": "https://dc.lft.to/lastmile_qr_scan", "ios": "https://dc.lft.to/lastmile_qr_scan"}, "name": "3394e0ec0782289a1430a31dd1641258", "is_reserved": 0}, {"is_disabled": 0, "fusion_lon": 0.0, "fusion_lat": 0.0, "lat": 38.94521133333333, "type": "electric_scooter", "lon": -77.0297965, "bike_id": "4da3033ce01b22a9b2d76340a4a2e58a", "rental_uris": {"android": "https://dc.lft.to/lastmile_qr_scan", "ios": "https://dc.lft.to/lastmile_qr_scan"}, "name": "4da3033ce01b22a9b2d76340a4a2e58a", "is_reserved": 0}, {"is_disabled": 0, "fusion_lon": 0.0, "fusion_lat": 0.0, "lat": 38.92565033333333, "type": "electric_scooter", "lon": -77.05266283333333, "bike_id": "3937225548c07f48a35c2578b0a3f1e9", "rental_uris": {"android": "https://dc.lft.to/lastmile_qr_scan", "ios": "https://dc.lft.to/lastmile_qr_scan"}, "name": "3937225548c07f48a35c2578b0a3f1e9", "is_reserved": 0}, {"is_disabled": 0, "fusion_lon": 0.0, "fusion_lat": 0.0, "lat": 38.91804616666667, "type": "electric_scooter", "lon": -77.03434133333333, "bike_id": "9e596759c37516daba2b357c374e4c1f", "rental_uris": {"android": "https://dc.lft.to/lastmile_qr_scan", "ios": "https://dc.lft.to/lastmile_qr_scan"}, "name": "9e596759c37516daba2b357c374e4c1f", "is_reserved": 0}, {"is_disabled": 0, "fusion_lon": 0.0, "fusion_lat": 0.0, "lat": 38.902425, "type": "electric_scooter", "lon": -77.05423866666666, "bike_id": "0e258fe3d30529a6c733e91b0beb0519", "rental_uris": {"android": "https://dc.lft.to/lastmile_qr_scan", "ios": "https://dc.lft.to/lastmile_qr_scan"}, "name": "0e258fe3d30529a6c733e91b0beb0519", "is_reserved": 0}, {"is_disabled": 0, "fusion_lon": 0.0, "fusion_lat": 0.0, "lat": 38.883744666666665, "type": "electric_scooter", "lon": -76.92376116666667, "bike_id": "592a49534d3b40982c5bbad4afa26b09", "rental_uris": {"android": "https://dc.lft.to/lastmile_qr_scan", "ios": "https://dc.lft.to/lastmile_qr_scan"}, "name": "592a49534d3b40982c5bbad4afa26b09", "is_reserved": 0}, {"is_disabled": 0, "fusion_lon": 0.0, "fusion_lat": 0.0, "lat": 38.91632516666667, "type": "electric_scooter", "lon": -77.04078833333334, "bike_id": "280ecbb7b7ae30b8438a814392c27f05", "rental_uris": {"android": "https://dc.lft.to/lastmile_qr_scan", "ios": "https://dc.lft.to/lastmile_qr_scan"}, "name": "280ecbb7b7ae30b8438a814392c27f05", "is_reserved": 0}, {"is_disabled": 0, "fusion_lon": 0.0, "fusion_lat": 0.0, "lat": 38.8768025, "type": "electric_bike", "lon": -77.0144635, "bike_id": "968dbae16502795d714be2e4666e85c5", "rental_uris": {"android": "https://dc.lft.to/lastmile_qr_scan", "ios": "https://dc.lft.to/lastmile_qr_scan"}, "name": "968dbae16502795d714be2e4666e85c5", "is_reserved": 0}, {"is_disabled": 0, "fusion_lon": 0.0, "fusion_lat": 0.0, "lat": 38.94152716666667, "type": "electric_bike", "lon": -77.001981, "bike_id": "893d63665c32fc82598ff86b428e6284", "rental_uris": {"android": "https://dc.lft.to/lastmile_qr_scan", "ios": "https://dc.lft.to/lastmile_qr_scan"}, "name": "893d63665c32fc82598ff86b428e6284", "is_reserved": 0}, {"is_disabled": 0, "fusion_lon": 0.0, "fusion_lat": 0.0, "lat": 38.9265625, "type": "electric_scooter", "lon": -77.02436416666667, "bike_id": "bcc62c7ab1dc31965385d4baf83f65a6", "rental_uris": {"android": "https://dc.lft.to/lastmile_qr_scan", "ios": "https://dc.lft.to/lastmile_qr_scan"}, "name": "bcc62c7ab1dc31965385d4baf83f65a6", "is_reserved": 0}, {"is_disabled": 0, "fusion_lon": 0.0, "fusion_lat": 0.0, "lat": 38.922934, "type": "electric_scooter", "lon": -77.0403695, "bike_id": "f7be6d0ed8b9eeb9d4f5a6d3f329f919", "rental_uris": {"android": "https://dc.lft.to/lastmile_qr_scan", "ios": "https://dc.lft.to/lastmile_qr_scan"}, "name": "f7be6d0ed8b9eeb9d4f5a6d3f329f919", "is_reserved": 0}, {"is_disabled": 0, "fusion_lon": 0.0, "fusion_lat": 0.0, "lat": 38.905053, "type": "electric_scooter", "lon": -77.02611333333333, "bike_id": "fd14eb734f41ecf6a1c0eebe28d997e6", "rental_uris": {"android": "https://dc.lft.to/lastmile_qr_scan", "ios": "https://dc.lft.to/lastmile_qr_scan"}, "name": "fd14eb734f41ecf6a1c0eebe28d997e6", "is_reserved": 0}, {"is_disabled": 0, "fusion_lon": 0.0, "fusion_lat": 0.0, "lat": 38.90367483333333, "type": "electric_scooter", "lon": -77.02541466666666, "bike_id": "9f73e5e46426040c5957a934141135b3", "rental_uris": {"android": "https://dc.lft.to/lastmile_qr_scan", "ios": "https://dc.lft.to/lastmile_qr_scan"}, "name": "9f73e5e46426040c5957a934141135b3", "is_reserved": 0}, {"is_disabled": 0, "fusion_lon": 0.0, "fusion_lat": 0.0, "lat": 38.88758633333333, "type": "electric_scooter", "lon": -77.03382933333333, "bike_id": "4a86800a491deba9ead348b12097fd47", "rental_uris": {"android": "https://dc.lft.to/lastmile_qr_scan", "ios": "https://dc.lft.to/lastmile_qr_scan"}, "name": "4a86800a491deba9ead348b12097fd47", "is_reserved": 0}, {"is_disabled": 0, "fusion_lon": 0.0, "fusion_lat": 0.0, "lat": 38.91854416666666, "type": "electric_scooter", "lon": -77.03499783333334, "bike_id": "22b6957acd3a7eb89b3c4a94ff173c87", "rental_uris": {"android": "https://dc.lft.to/lastmile_qr_scan", "ios": "https://dc.lft.to/lastmile_qr_scan"}, "name": "22b6957acd3a7eb89b3c4a94ff173c87", "is_reserved": 0}, {"is_disabled": 0, "fusion_lon": 0.0, "fusion_lat": 0.0, "lat": 39.05813716666667, "type": "electric_bike", "lon": -77.12627916666666, "bike_id": "0a2bd8d30a23eea435d7c060e4b622d7", "rental_uris": {"android": "https://dc.lft.to/lastmile_qr_scan", "ios": "https://dc.lft.to/lastmile_qr_scan"}, "name": "0a2bd8d30a23eea435d7c060e4b622d7", "is_reserved": 0}, {"is_disabled": 0, "fusion_lon": 0.0, "fusion_lat": 0.0, "lat": 38.923658, "type": "electric_scooter", "lon": -77.04392, "bike_id": "4db2b4d8b55d1fda6c6147b9994c747d", "rental_uris": {"android": "https://dc.lft.to/lastmile_qr_scan", "ios": "https://dc.lft.to/lastmile_qr_scan"}, "name": "4db2b4d8b55d1fda6c6147b9994c747d", "is_reserved": 0}, {"is_disabled": 0, "fusion_lon": 0.0, "fusion_lat": 0.0, "lat": 38.9029425, "type": "electric_scooter", "lon": -77.03626216666666, "bike_id": "30d587fcc59954658a02a5606759251e", "rental_uris": {"android": "https://dc.lft.to/lastmile_qr_scan", "ios": "https://dc.lft.to/lastmile_qr_scan"}, "name": "30d587fcc59954658a02a5606759251e", "is_reserved": 0}, {"is_disabled": 0, "fusion_lon": 0.0, "fusion_lat": 0.0, "lat": 38.897495, "type": "electric_scooter", "lon": -77.02874516666667, "bike_id": "42db17c07801d59f0e129fbac7528d6f", "rental_uris": {"android": "https://dc.lft.to/lastmile_qr_scan", "ios": "https://dc.lft.to/lastmile_qr_scan"}, "name": "42db17c07801d59f0e129fbac7528d6f", "is_reserved": 0}, {"is_disabled": 0, "fusion_lon": 0.0, "fusion_lat": 0.0, "lat": 38.917978166666664, "type": "electric_scooter", "lon": -77.023942, "bike_id": "cce1616d68de4fad2550e9b0a6225214", "rental_uris": {"android": "https://dc.lft.to/lastmile_qr_scan", "ios": "https://dc.lft.to/lastmile_qr_scan"}, "name": "cce1616d68de4fad2550e9b0a6225214", "is_reserved": 0}, {"is_disabled": 0, "fusion_lon": 0.0, "fusion_lat": 0.0, "lat": 38.89571133333333, "type": "electric_scooter", "lon": -77.0229565, "bike_id": "704401eb790a7406957d48b73ad4a6f9", "rental_uris": {"android": "https://dc.lft.to/lastmile_qr_scan", "ios": "https://dc.lft.to/lastmile_qr_scan"}, "name": "704401eb790a7406957d48b73ad4a6f9", "is_reserved": 0}, {"is_disabled": 0, "fusion_lon": 0.0, "fusion_lat": 0.0, "lat": 38.95090966666667, "type": "electric_bike", "lon": -76.96558616666667, "bike_id": "a88bf4e6dc2f4f8fd5ddb64133cbbbb4", "rental_uris": {"android": "https://dc.lft.to/lastmile_qr_scan", "ios": "https://dc.lft.to/lastmile_qr_scan"}, "name": "a88bf4e6dc2f4f8fd5ddb64133cbbbb4", "is_reserved": 0}, {"is_disabled": 0, "fusion_lon": 0.0, "fusion_lat": 0.0, "lat": 38.908016833333335, "type": "electric_scooter", "lon": -77.04092816666666, "bike_id": "f6c4506bde29208f4b4c90f8fbd51470", "rental_uris": {"android": "https://dc.lft.to/lastmile_qr_scan", "ios": "https://dc.lft.to/lastmile_qr_scan"}, "name": "f6c4506bde29208f4b4c90f8fbd51470", "is_reserved": 0}, {"is_disabled": 0, "fusion_lon": 0.0, "fusion_lat": 0.0, "lat": 38.9125945, "type": "electric_scooter", "lon": -77.00932, "bike_id": "1ad1a516abaed4c7031210f0476aa75b", "rental_uris": {"android": "https://dc.lft.to/lastmile_qr_scan", "ios": "https://dc.lft.to/lastmile_qr_scan"}, "name": "1ad1a516abaed4c7031210f0476aa75b", "is_reserved": 0}, {"is_disabled": 0, "fusion_lon": 0.0, "fusion_lat": 0.0, "lat": 38.9318175, "type": "electric_scooter", "lon": -77.07251, "bike_id": "07bfe5ea91611aea2ec96ba9f03c65e2", "rental_uris": {"android": "https://dc.lft.to/lastmile_qr_scan", "ios": "https://dc.lft.to/lastmile_qr_scan"}, "name": "07bfe5ea91611aea2ec96ba9f03c65e2", "is_reserved": 0}, {"is_disabled": 0, "fusion_lon": 0.0, "fusion_lat": 0.0, "lat": 38.9031165, "type": "electric_scooter", "lon": -76.982393, "bike_id": "a6a302c208841944d911601d97dac593", "rental_uris": {"android": "https://dc.lft.to/lastmile_qr_scan", "ios": "https://dc.lft.to/lastmile_qr_scan"}, "name": "a6a302c208841944d911601d97dac593", "is_reserved": 0}, {"is_disabled": 0, "fusion_lon": 0.0, "fusion_lat": 0.0, "lat": 38.87338883333334, "type": "electric_bike", "lon": -77.01853633333333, "bike_id": "9043760c3e1f8494bc2f4e72cad2fb68", "rental_uris": {"android": "https://dc.lft.to/lastmile_qr_scan", "ios": "https://dc.lft.to/lastmile_qr_scan"}, "name": "9043760c3e1f8494bc2f4e72cad2fb68", "is_reserved": 0}, {"is_disabled": 0, "fusion_lon": 0.0, "fusion_lat": 0.0, "lat": 38.89845583333334, "type": "electric_scooter", "lon": -76.94633383333333, "bike_id": "7f22a5929bade6d0791e7d9baae83ae6", "rental_uris": {"android": "https://dc.lft.to/lastmile_qr_scan", "ios": "https://dc.lft.to/lastmile_qr_scan"}, "name": "7f22a5929bade6d0791e7d9baae83ae6", "is_reserved": 0}, {"is_disabled": 0, "fusion_lon": 0.0, "fusion_lat": 0.0, "lat": 38.927867666666664, "type": "electric_scooter", "lon": -77.03145066666667, "bike_id": "a7c7a5a61ca44754f11ad3c8dc3f951e", "rental_uris": {"android": "https://dc.lft.to/lastmile_qr_scan", "ios": "https://dc.lft.to/lastmile_qr_scan"}, "name": "a7c7a5a61ca44754f11ad3c8dc3f951e", "is_reserved": 0}, {"is_disabled": 0, "fusion_lon": 0.0, "fusion_lat": 0.0, "lat": 38.92904566666667, "type": "electric_scooter", "lon": -77.0227015, "bike_id": "c86a244bba15839b7ec40410e474c539", "rental_uris": {"android": "https://dc.lft.to/lastmile_qr_scan", "ios": "https://dc.lft.to/lastmile_qr_scan"}, "name": "c86a244bba15839b7ec40410e474c539", "is_reserved": 0}, {"is_disabled": 0, "fusion_lon": 0.0, "fusion_lat": 0.0, "lat": 38.90423083333334, "type": "electric_scooter", "lon": -76.985543, "bike_id": "136fdc34f0f20657fbd5d4c0f345949e", "rental_uris": {"android": "https://dc.lft.to/lastmile_qr_scan", "ios": "https://dc.lft.to/lastmile_qr_scan"}, "name": "136fdc34f0f20657fbd5d4c0f345949e", "is_reserved": 0}, {"is_disabled": 0, "fusion_lon": 0.0, "fusion_lat": 0.0, "lat": 38.91852866666667, "type": "electric_bike", "lon": -76.96091933333334, "bike_id": "ee78899d76f6b56cc29848577898411f", "rental_uris": {"android": "https://dc.lft.to/lastmile_qr_scan", "ios": "https://dc.lft.to/lastmile_qr_scan"}, "name": "ee78899d76f6b56cc29848577898411f", "is_reserved": 0}, {"is_disabled": 0, "fusion_lon": 0.0, "fusion_lat": 0.0, "lat": 38.937079833333335, "type": "electric_scooter", "lon": -77.061051, "bike_id": "08efb9ac8d11c4d3f1ff1a47fc8b32c2", "rental_uris": {"android": "https://dc.lft.to/lastmile_qr_scan", "ios": "https://dc.lft.to/lastmile_qr_scan"}, "name": "08efb9ac8d11c4d3f1ff1a47fc8b32c2", "is_reserved": 0}, {"is_disabled": 0, "fusion_lon": 0.0, "fusion_lat": 0.0, "lat": 38.906874, "type": "electric_scooter", "lon": -77.06283433333333, "bike_id": "e996d4e7ecbbb38eec0504ef1617f642", "rental_uris": {"android": "https://dc.lft.to/lastmile_qr_scan", "ios": "https://dc.lft.to/lastmile_qr_scan"}, "name": "e996d4e7ecbbb38eec0504ef1617f642", "is_reserved": 0}, {"is_disabled": 0, "fusion_lon": 0.0, "fusion_lat": 0.0, "lat": 38.938270833333334, "type": "electric_scooter", "lon": -77.02793116666666, "bike_id": "7c53958e4343232cc42bdbe398fd418f", "rental_uris": {"android": "https://dc.lft.to/lastmile_qr_scan", "ios": "https://dc.lft.to/lastmile_qr_scan"}, "name": "7c53958e4343232cc42bdbe398fd418f", "is_reserved": 0}, {"is_disabled": 0, "fusion_lon": 0.0, "fusion_lat": 0.0, "lat": 38.827302833333334, "type": "electric_bike", "lon": -77.00866716666667, "bike_id": "2bc0226d31933e80ad04a89ccc5454da", "rental_uris": {"android": "https://dc.lft.to/lastmile_qr_scan", "ios": "https://dc.lft.to/lastmile_qr_scan"}, "name": "2bc0226d31933e80ad04a89ccc5454da", "is_reserved": 0}, {"is_disabled": 0, "fusion_lon": 0.0, "fusion_lat": 0.0, "lat": 38.92083816666667, "type": "electric_bike", "lon": -77.00338416666666, "bike_id": "97553d0c6a80e5c7ccfd2e350e19aa08", "rental_uris": {"android": "https://dc.lft.to/lastmile_qr_scan", "ios": "https://dc.lft.to/lastmile_qr_scan"}, "name": "97553d0c6a80e5c7ccfd2e350e19aa08", "is_reserved": 0}, {"is_disabled": 0, "fusion_lon": 0.0, "fusion_lat": 0.0, "lat": 38.90624183333333, "type": "electric_scooter", "lon": -77.02803883333333, "bike_id": "7f5e9e9a3319eb90ac9569e002b5289e", "rental_uris": {"android": "https://dc.lft.to/lastmile_qr_scan", "ios": "https://dc.lft.to/lastmile_qr_scan"}, "name": "7f5e9e9a3319eb90ac9569e002b5289e", "is_reserved": 0}, {"is_disabled": 0, "fusion_lon": 0.0, "fusion_lat": 0.0, "lat": 38.93522016666667, "type": "electric_scooter", "lon": -77.02375916666666, "bike_id": "1137b2e50b2b4c2837effd8ec8cbde0f", "rental_uris": {"android": "https://dc.lft.to/lastmile_qr_scan", "ios": "https://dc.lft.to/lastmile_qr_scan"}, "name": "1137b2e50b2b4c2837effd8ec8cbde0f", "is_reserved": 0}, {"is_disabled": 0, "fusion_lon": 0.0, "fusion_lat": 0.0, "lat": 38.89367766666667, "type": "electric_scooter", "lon": -77.02264566666666, "bike_id": "e27c5e02080e147bfd75a4cea525f430", "rental_uris": {"android": "https://dc.lft.to/lastmile_qr_scan", "ios": "https://dc.lft.to/lastmile_qr_scan"}, "name": "e27c5e02080e147bfd75a4cea525f430", "is_reserved": 0}, {"is_disabled": 0, "fusion_lon": 0.0, "fusion_lat": 0.0, "lat": 38.9072605, "type": "electric_scooter", "lon": -77.03067283333333, "bike_id": "7583662403a3db4b3e5c571d4827c3e1", "rental_uris": {"android": "https://dc.lft.to/lastmile_qr_scan", "ios": "https://dc.lft.to/lastmile_qr_scan"}, "name": "7583662403a3db4b3e5c571d4827c3e1", "is_reserved": 0}, {"is_disabled": 0, "fusion_lon": 0.0, "fusion_lat": 0.0, "lat": 38.905629, "type": "electric_scooter", "lon": -77.03011266666667, "bike_id": "0a629132566e5ffafcec572311d78977", "rental_uris": {"android": "https://dc.lft.to/lastmile_qr_scan", "ios": "https://dc.lft.to/lastmile_qr_scan"}, "name": "0a629132566e5ffafcec572311d78977", "is_reserved": 0}, {"is_disabled": 0, "fusion_lon": 0.0, "fusion_lat": 0.0, "lat": 38.902608666666666, "type": "electric_scooter", "lon": -77.01710533333333, "bike_id": "9a6784513e1116c8830e86cfb0ed6a13", "rental_uris": {"android": "https://dc.lft.to/lastmile_qr_scan", "ios": "https://dc.lft.to/lastmile_qr_scan"}, "name": "9a6784513e1116c8830e86cfb0ed6a13", "is_reserved": 0}, {"is_disabled": 0, "fusion_lon": 0.0, "fusion_lat": 0.0, "lat": 38.888635666666666, "type": "electric_scooter", "lon": -76.97736716666667, "bike_id": "83961baceef5a813e902836649333df3", "rental_uris": {"android": "https://dc.lft.to/lastmile_qr_scan", "ios": "https://dc.lft.to/lastmile_qr_scan"}, "name": "83961baceef5a813e902836649333df3", "is_reserved": 0}, {"is_disabled": 0, "fusion_lon": 0.0, "fusion_lat": 0.0, "lat": 38.931265, "type": "electric_scooter", "lon": -77.05709316666666, "bike_id": "33b1aa5bf0cc9ffc2068a1e625f17d48", "rental_uris": {"android": "https://dc.lft.to/lastmile_qr_scan", "ios": "https://dc.lft.to/lastmile_qr_scan"}, "name": "33b1aa5bf0cc9ffc2068a1e625f17d48", "is_reserved": 0}, {"is_disabled": 0, "fusion_lon": 0.0, "fusion_lat": 0.0, "lat": 38.906703, "type": "electric_scooter", "lon": -77.02708666666666, "bike_id": "90da61afd67ccd35b0c525b6947e2a74", "rental_uris": {"android": "https://dc.lft.to/lastmile_qr_scan", "ios": "https://dc.lft.to/lastmile_qr_scan"}, "name": "90da61afd67ccd35b0c525b6947e2a74", "is_reserved": 0}, {"is_disabled": 0, "fusion_lon": 0.0, "fusion_lat": 0.0, "lat": 38.896358, "type": "electric_scooter", "lon": -77.04344716666667, "bike_id": "2f6c7d545170a8607aa81ebd23c20bd0", "rental_uris": {"android": "https://dc.lft.to/lastmile_qr_scan", "ios": "https://dc.lft.to/lastmile_qr_scan"}, "name": "2f6c7d545170a8607aa81ebd23c20bd0", "is_reserved": 0}, {"is_disabled": 0, "fusion_lon": 0.0, "fusion_lat": 0.0, "lat": 38.91199316666667, "type": "electric_scooter", "lon": -77.012091, "bike_id": "06c6aa1f25b7735ceede58ce1cafcfd0", "rental_uris": {"android": "https://dc.lft.to/lastmile_qr_scan", "ios": "https://dc.lft.to/lastmile_qr_scan"}, "name": "06c6aa1f25b7735ceede58ce1cafcfd0", "is_reserved": 0}, {"is_disabled": 0, "fusion_lon": 0.0, "fusion_lat": 0.0, "lat": 38.923724666666665, "type": "electric_scooter", "lon": -77.05030366666666, "bike_id": "7530cd1330e8015be7256ce2d0fe0b09", "rental_uris": {"android": "https://dc.lft.to/lastmile_qr_scan", "ios": "https://dc.lft.to/lastmile_qr_scan"}, "name": "7530cd1330e8015be7256ce2d0fe0b09", "is_reserved": 0}, {"is_disabled": 0, "fusion_lon": 0.0, "fusion_lat": 0.0, "lat": 38.939642166666665, "type": "electric_scooter", "lon": -77.03284416666666, "bike_id": "b84a88b19f0ed7cad7a4914d0d3721cc", "rental_uris": {"android": "https://dc.lft.to/lastmile_qr_scan", "ios": "https://dc.lft.to/lastmile_qr_scan"}, "name": "b84a88b19f0ed7cad7a4914d0d3721cc", "is_reserved": 0}, {"is_disabled": 0, "fusion_lon": 0.0, "fusion_lat": 0.0, "lat": 38.90533816666667, "type": "electric_scooter", "lon": -77.056465, "bike_id": "252b25851be525b174d79fd648fc8299", "rental_uris": {"android": "https://dc.lft.to/lastmile_qr_scan", "ios": "https://dc.lft.to/lastmile_qr_scan"}, "name": "252b25851be525b174d79fd648fc8299", "is_reserved": 0}, {"is_disabled": 0, "fusion_lon": 0.0, "fusion_lat": 0.0, "lat": 38.912681, "type": "electric_scooter", "lon": -77.02562016666667, "bike_id": "6592442c33e34851e3b2c8b6f7c8e5f9", "rental_uris": {"android": "https://dc.lft.to/lastmile_qr_scan", "ios": "https://dc.lft.to/lastmile_qr_scan"}, "name": "6592442c33e34851e3b2c8b6f7c8e5f9", "is_reserved": 0}, {"is_disabled": 0, "fusion_lon": 0.0, "fusion_lat": 0.0, "lat": 38.930288166666664, "type": "electric_scooter", "lon": -77.034483, "bike_id": "0847155767b7f5e358f0a1429351bfaf", "rental_uris": {"android": "https://dc.lft.to/lastmile_qr_scan", "ios": "https://dc.lft.to/lastmile_qr_scan"}, "name": "0847155767b7f5e358f0a1429351bfaf", "is_reserved": 0}, {"is_disabled": 0, "fusion_lon": 0.0, "fusion_lat": 0.0, "lat": 38.827825, "type": "electric_bike", "lon": -77.110839, "bike_id": "e86cd47b55630cc9ae07ca95e3a3aa2c", "rental_uris": {"android": "https://dc.lft.to/lastmile_qr_scan", "ios": "https://dc.lft.to/lastmile_qr_scan"}, "name": "e86cd47b55630cc9ae07ca95e3a3aa2c", "is_reserved": 0}, {"is_disabled": 0, "fusion_lon": 0.0, "fusion_lat": 0.0, "lat": 38.89838616666667, "type": "electric_scooter", "lon": -76.94637516666667, "bike_id": "b7f92f7bbe0dd81525303b9ae0385cfc", "rental_uris": {"android": "https://dc.lft.to/lastmile_qr_scan", "ios": "https://dc.lft.to/lastmile_qr_scan"}, "name": "b7f92f7bbe0dd81525303b9ae0385cfc", "is_reserved": 0}, {"is_disabled": 0, "fusion_lon": 0.0, "fusion_lat": 0.0, "lat": 38.962643666666665, "type": "electric_scooter", "lon": -77.02899716666667, "bike_id": "d664c7dec5745790494bfb6e82de867d", "rental_uris": {"android": "https://dc.lft.to/lastmile_qr_scan", "ios": "https://dc.lft.to/lastmile_qr_scan"}, "name": "d664c7dec5745790494bfb6e82de867d", "is_reserved": 0}, {"is_disabled": 0, "fusion_lon": 0.0, "fusion_lat": 0.0, "lat": 38.9239115, "type": "electric_scooter", "lon": -77.03018033333333, "bike_id": "687337e1f38017b67b98d135b73b95c6", "rental_uris": {"android": "https://dc.lft.to/lastmile_qr_scan", "ios": "https://dc.lft.to/lastmile_qr_scan"}, "name": "687337e1f38017b67b98d135b73b95c6", "is_reserved": 0}, {"is_disabled": 0, "fusion_lon": 0.0, "fusion_lat": 0.0, "lat": 38.907852, "type": "electric_scooter", "lon": -77.03042833333333, "bike_id": "c10c33058b15138e816ce58618e47f5e", "rental_uris": {"android": "https://dc.lft.to/lastmile_qr_scan", "ios": "https://dc.lft.to/lastmile_qr_scan"}, "name": "c10c33058b15138e816ce58618e47f5e", "is_reserved": 0}, {"is_disabled": 0, "fusion_lon": 0.0, "fusion_lat": 0.0, "lat": 38.904801166666665, "type": "electric_bike", "lon": -76.95055166666667, "bike_id": "06cf042b4117db4634d0d8945d2a1ed1", "rental_uris": {"android": "https://dc.lft.to/lastmile_qr_scan", "ios": "https://dc.lft.to/lastmile_qr_scan"}, "name": "06cf042b4117db4634d0d8945d2a1ed1", "is_reserved": 0}, {"is_disabled": 0, "fusion_lon": 0.0, "fusion_lat": 0.0, "lat": 38.88535483333333, "type": "electric_scooter", "lon": -76.9270375, "bike_id": "6197c1579f35802f3cb0931697af66b3", "rental_uris": {"android": "https://dc.lft.to/lastmile_qr_scan", "ios": "https://dc.lft.to/lastmile_qr_scan"}, "name": "6197c1579f35802f3cb0931697af66b3", "is_reserved": 0}, {"is_disabled": 0, "fusion_lon": 0.0, "fusion_lat": 0.0, "lat": 38.9163135, "type": "electric_scooter", "lon": -77.0239955, "bike_id": "ff42b353d74e60bd3b65313293f347ba", "rental_uris": {"android": "https://dc.lft.to/lastmile_qr_scan", "ios": "https://dc.lft.to/lastmile_qr_scan"}, "name": "ff42b353d74e60bd3b65313293f347ba", "is_reserved": 0}, {"is_disabled": 0, "fusion_lon": 0.0, "fusion_lat": 0.0, "lat": 38.9240875, "type": "electric_scooter", "lon": -77.05166683333333, "bike_id": "1285d3b2ba933a522362aa6f22719245", "rental_uris": {"android": "https://dc.lft.to/lastmile_qr_scan", "ios": "https://dc.lft.to/lastmile_qr_scan"}, "name": "1285d3b2ba933a522362aa6f22719245", "is_reserved": 0}, {"is_disabled": 0, "fusion_lon": 0.0, "fusion_lat": 0.0, "lat": 39.00003366666667, "type": "electric_bike", "lon": -76.9180745, "bike_id": "31d57033f7dfbddb29c1345c65ae987b", "rental_uris": {"android": "https://dc.lft.to/lastmile_qr_scan", "ios": "https://dc.lft.to/lastmile_qr_scan"}, "name": "31d57033f7dfbddb29c1345c65ae987b", "is_reserved": 0}, {"is_disabled": 0, "fusion_lon": 0.0, "fusion_lat": 0.0, "lat": 38.935334166666664, "type": "electric_scooter", "lon": -77.0206965, "bike_id": "624fa79a996f8a52ccfb457ac922cc61", "rental_uris": {"android": "https://dc.lft.to/lastmile_qr_scan", "ios": "https://dc.lft.to/lastmile_qr_scan"}, "name": "624fa79a996f8a52ccfb457ac922cc61", "is_reserved": 0}, {"is_disabled": 0, "fusion_lon": 0.0, "fusion_lat": 0.0, "lat": 38.91929116666667, "type": "electric_scooter", "lon": -77.02396966666667, "bike_id": "e53160c1616326bbc047f48adbabb848", "rental_uris": {"android": "https://dc.lft.to/lastmile_qr_scan", "ios": "https://dc.lft.to/lastmile_qr_scan"}, "name": "e53160c1616326bbc047f48adbabb848", "is_reserved": 0}, {"is_disabled": 0, "fusion_lon": 0.0, "fusion_lat": 0.0, "lat": 38.9245825, "type": "electric_scooter", "lon": -76.9990155, "bike_id": "14aa2bfe98c6aa1a424211d9b7f0fd4d", "rental_uris": {"android": "https://dc.lft.to/lastmile_qr_scan", "ios": "https://dc.lft.to/lastmile_qr_scan"}, "name": "14aa2bfe98c6aa1a424211d9b7f0fd4d", "is_reserved": 0}, {"is_disabled": 0, "fusion_lon": 0.0, "fusion_lat": 0.0, "lat": 38.94198766666667, "type": "electric_scooter", "lon": -77.02572316666667, "bike_id": "a444b20c07410eefcc71f390008d93c0", "rental_uris": {"android": "https://dc.lft.to/lastmile_qr_scan", "ios": "https://dc.lft.to/lastmile_qr_scan"}, "name": "a444b20c07410eefcc71f390008d93c0", "is_reserved": 0}, {"is_disabled": 0, "fusion_lon": 0.0, "fusion_lat": 0.0, "lat": 38.91412416666667, "type": "electric_scooter", "lon": -77.04327033333334, "bike_id": "f64735ebe0d0ab5ec86d602a79d2e55d", "rental_uris": {"android": "https://dc.lft.to/lastmile_qr_scan", "ios": "https://dc.lft.to/lastmile_qr_scan"}, "name": "f64735ebe0d0ab5ec86d602a79d2e55d", "is_reserved": 0}, {"is_disabled": 0, "fusion_lon": 0.0, "fusion_lat": 0.0, "lat": 38.94975433333333, "type": "electric_scooter", "lon": -77.06761816666666, "bike_id": "fadf8e9c31d72c3381b30ae7375b478d", "rental_uris": {"android": "https://dc.lft.to/lastmile_qr_scan", "ios": "https://dc.lft.to/lastmile_qr_scan"}, "name": "fadf8e9c31d72c3381b30ae7375b478d", "is_reserved": 0}, {"is_disabled": 0, "fusion_lon": 0.0, "fusion_lat": 0.0, "lat": 38.933187, "type": "electric_scooter", "lon": -77.02923883333334, "bike_id": "0da1f3b21110209a63b15cf6d7b3a0ad", "rental_uris": {"android": "https://dc.lft.to/lastmile_qr_scan", "ios": "https://dc.lft.to/lastmile_qr_scan"}, "name": "0da1f3b21110209a63b15cf6d7b3a0ad", "is_reserved": 0}, {"is_disabled": 0, "fusion_lon": 0.0, "fusion_lat": 0.0, "lat": 38.9683305, "type": "electric_scooter", "lon": -77.0151295, "bike_id": "5232347cf47d33e7e384bcfb45e7d92d", "rental_uris": {"android": "https://dc.lft.to/lastmile_qr_scan", "ios": "https://dc.lft.to/lastmile_qr_scan"}, "name": "5232347cf47d33e7e384bcfb45e7d92d", "is_reserved": 0}, {"is_disabled": 0, "fusion_lon": 0.0, "fusion_lat": 0.0, "lat": 38.88494583333333, "type": "electric_scooter", "lon": -77.02219083333334, "bike_id": "033f6b653a92a76d93db99d82eeb7e6f", "rental_uris": {"android": "https://dc.lft.to/lastmile_qr_scan", "ios": "https://dc.lft.to/lastmile_qr_scan"}, "name": "033f6b653a92a76d93db99d82eeb7e6f", "is_reserved": 0}, {"is_disabled": 0, "fusion_lon": 0.0, "fusion_lat": 0.0, "lat": 38.900506, "type": "electric_scooter", "lon": -77.03441016666666, "bike_id": "5f3953f81c1d6001af956abc27ac8dfb", "rental_uris": {"android": "https://dc.lft.to/lastmile_qr_scan", "ios": "https://dc.lft.to/lastmile_qr_scan"}, "name": "5f3953f81c1d6001af956abc27ac8dfb", "is_reserved": 0}, {"is_disabled": 0, "fusion_lon": 0.0, "fusion_lat": 0.0, "lat": 38.90244466666667, "type": "electric_bike", "lon": -76.97015183333333, "bike_id": "a913faa9a5bd4c356b1f112ae0fc448d", "rental_uris": {"android": "https://dc.lft.to/lastmile_qr_scan", "ios": "https://dc.lft.to/lastmile_qr_scan"}, "name": "a913faa9a5bd4c356b1f112ae0fc448d", "is_reserved": 0}, {"is_disabled": 0, "fusion_lon": 0.0, "fusion_lat": 0.0, "lat": 38.895241166666665, "type": "electric_scooter", "lon": -77.0281635, "bike_id": "c41d90e77d8cd237ac661683ae0198e7", "rental_uris": {"android": "https://dc.lft.to/lastmile_qr_scan", "ios": "https://dc.lft.to/lastmile_qr_scan"}, "name": "c41d90e77d8cd237ac661683ae0198e7", "is_reserved": 0}, {"is_disabled": 0, "fusion_lon": 0.0, "fusion_lat": 0.0, "lat": 38.97051866666666, "type": "electric_bike", "lon": -77.03085016666667, "bike_id": "ad3bd3ea7052e85ce713e66c94b3745b", "rental_uris": {"android": "https://dc.lft.to/lastmile_qr_scan", "ios": "https://dc.lft.to/lastmile_qr_scan"}, "name": "ad3bd3ea7052e85ce713e66c94b3745b", "is_reserved": 0}, {"is_disabled": 0, "fusion_lon": 0.0, "fusion_lat": 0.0, "lat": 38.928701833333335, "type": "electric_scooter", "lon": -77.03442533333333, "bike_id": "446b2aa279a2db94a849ee1779583cbf", "rental_uris": {"android": "https://dc.lft.to/lastmile_qr_scan", "ios": "https://dc.lft.to/lastmile_qr_scan"}, "name": "446b2aa279a2db94a849ee1779583cbf", "is_reserved": 0}, {"is_disabled": 0, "fusion_lon": 0.0, "fusion_lat": 0.0, "lat": 38.848476, "type": "electric_bike", "lon": -77.08043466666666, "bike_id": "d45026a63cd1cf0dd184859b9574c61c", "rental_uris": {"android": "https://dc.lft.to/lastmile_qr_scan", "ios": "https://dc.lft.to/lastmile_qr_scan"}, "name": "d45026a63cd1cf0dd184859b9574c61c", "is_reserved": 0}, {"is_disabled": 0, "fusion_lon": 0.0, "fusion_lat": 0.0, "lat": 38.905614166666666, "type": "electric_scooter", "lon": -77.027165, "bike_id": "e5127299f55307b80e9253d2b84f1447", "rental_uris": {"android": "https://dc.lft.to/lastmile_qr_scan", "ios": "https://dc.lft.to/lastmile_qr_scan"}, "name": "e5127299f55307b80e9253d2b84f1447", "is_reserved": 0}, {"is_disabled": 0, "fusion_lon": 0.0, "fusion_lat": 0.0, "lat": 38.9305385, "type": "electric_scooter", "lon": -77.02653716666667, "bike_id": "6ead7a927e0d1b566128031e2530cb64", "rental_uris": {"android": "https://dc.lft.to/lastmile_qr_scan", "ios": "https://dc.lft.to/lastmile_qr_scan"}, "name": "6ead7a927e0d1b566128031e2530cb64", "is_reserved": 0}, {"is_disabled": 0, "fusion_lon": 0.0, "fusion_lat": 0.0, "lat": 38.93000766666667, "type": "electric_scooter", "lon": -77.0218635, "bike_id": "2e37a412900beb4a0b604c43c5eaec38", "rental_uris": {"android": "https://dc.lft.to/lastmile_qr_scan", "ios": "https://dc.lft.to/lastmile_qr_scan"}, "name": "2e37a412900beb4a0b604c43c5eaec38", "is_reserved": 0}, {"is_disabled": 0, "fusion_lon": 0.0, "fusion_lat": 0.0, "lat": 38.907035, "type": "electric_scooter", "lon": -77.02692733333333, "bike_id": "c849927ef6a207f6d8d2128dc4a07000", "rental_uris": {"android": "https://dc.lft.to/lastmile_qr_scan", "ios": "https://dc.lft.to/lastmile_qr_scan"}, "name": "c849927ef6a207f6d8d2128dc4a07000", "is_reserved": 0}, {"is_disabled": 0, "fusion_lon": 0.0, "fusion_lat": 0.0, "lat": 38.91769333333333, "type": "electric_scooter", "lon": -77.02341533333333, "bike_id": "20d374f81d60484f2eeb0122cf492d84", "rental_uris": {"android": "https://dc.lft.to/lastmile_qr_scan", "ios": "https://dc.lft.to/lastmile_qr_scan"}, "name": "20d374f81d60484f2eeb0122cf492d84", "is_reserved": 0}, {"is_disabled": 0, "fusion_lon": 0.0, "fusion_lat": 0.0, "lat": 38.93395483333333, "type": "electric_scooter", "lon": -77.02726183333333, "bike_id": "5d4f62ab25809d63663e0a595cc4523a", "rental_uris": {"android": "https://dc.lft.to/lastmile_qr_scan", "ios": "https://dc.lft.to/lastmile_qr_scan"}, "name": "5d4f62ab25809d63663e0a595cc4523a", "is_reserved": 0}, {"is_disabled": 0, "fusion_lon": 0.0, "fusion_lat": 0.0, "lat": 38.876247, "type": "electric_scooter", "lon": -76.96538266666667, "bike_id": "c47eba5a9eac9a744caa366ee5638ccf", "rental_uris": {"android": "https://dc.lft.to/lastmile_qr_scan", "ios": "https://dc.lft.to/lastmile_qr_scan"}, "name": "c47eba5a9eac9a744caa366ee5638ccf", "is_reserved": 0}, {"is_disabled": 0, "fusion_lon": 0.0, "fusion_lat": 0.0, "lat": 38.9085075, "type": "electric_scooter", "lon": -77.0036465, "bike_id": "2ae5ff32d4143892251bf2bba11091a6", "rental_uris": {"android": "https://dc.lft.to/lastmile_qr_scan", "ios": "https://dc.lft.to/lastmile_qr_scan"}, "name": "2ae5ff32d4143892251bf2bba11091a6", "is_reserved": 0}, {"is_disabled": 0, "fusion_lon": 0.0, "fusion_lat": 0.0, "lat": 38.91917683333333, "type": "electric_scooter", "lon": -77.03172316666667, "bike_id": "7d45a626b78e5656920b7599e1937520", "rental_uris": {"android": "https://dc.lft.to/lastmile_qr_scan", "ios": "https://dc.lft.to/lastmile_qr_scan"}, "name": "7d45a626b78e5656920b7599e1937520", "is_reserved": 0}, {"is_disabled": 0, "fusion_lon": 0.0, "fusion_lat": 0.0, "lat": 39.000199, "type": "electric_bike", "lon": -76.87284783333334, "bike_id": "dc307f97452d11c953ffd0d877ea6f0b", "rental_uris": {"android": "https://dc.lft.to/lastmile_qr_scan", "ios": "https://dc.lft.to/lastmile_qr_scan"}, "name": "dc307f97452d11c953ffd0d877ea6f0b", "is_reserved": 0}, {"is_disabled": 0, "fusion_lon": 0.0, "fusion_lat": 0.0, "lat": 38.905966666666664, "type": "electric_scooter", "lon": -77.07308233333333, "bike_id": "102581d32cf0684ec9b4f0a54ba7832c", "rental_uris": {"android": "https://dc.lft.to/lastmile_qr_scan", "ios": "https://dc.lft.to/lastmile_qr_scan"}, "name": "102581d32cf0684ec9b4f0a54ba7832c", "is_reserved": 0}, {"is_disabled": 0, "fusion_lon": 0.0, "fusion_lat": 0.0, "lat": 38.828722, "type": "electric_bike", "lon": -77.11223816666667, "bike_id": "ea3ed17fdd9d6940db6ecca8e1cb39a0", "rental_uris": {"android": "https://dc.lft.to/lastmile_qr_scan", "ios": "https://dc.lft.to/lastmile_qr_scan"}, "name": "ea3ed17fdd9d6940db6ecca8e1cb39a0", "is_reserved": 0}, {"is_disabled": 0, "fusion_lon": 0.0, "fusion_lat": 0.0, "lat": 38.91288333333333, "type": "electric_scooter", "lon": -77.02075916666666, "bike_id": "d45afc013051a3d15aaa365fbc02a39b", "rental_uris": {"android": "https://dc.lft.to/lastmile_qr_scan", "ios": "https://dc.lft.to/lastmile_qr_scan"}, "name": "d45afc013051a3d15aaa365fbc02a39b", "is_reserved": 0}, {"is_disabled": 0, "fusion_lon": 0.0, "fusion_lat": 0.0, "lat": 38.96283016666667, "type": "electric_bike", "lon": -77.02877466666666, "bike_id": "30d975076719782bd75f2389b2652a60", "rental_uris": {"android": "https://dc.lft.to/lastmile_qr_scan", "ios": "https://dc.lft.to/lastmile_qr_scan"}, "name": "30d975076719782bd75f2389b2652a60", "is_reserved": 0}, {"is_disabled": 0, "fusion_lon": 0.0, "fusion_lat": 0.0, "lat": 38.910581, "type": "electric_scooter", "lon": -77.05448433333333, "bike_id": "bf3ee8411cfb31d93005c1d11148559f", "rental_uris": {"android": "https://dc.lft.to/lastmile_qr_scan", "ios": "https://dc.lft.to/lastmile_qr_scan"}, "name": "bf3ee8411cfb31d93005c1d11148559f", "is_reserved": 0}, {"is_disabled": 0, "fusion_lon": 0.0, "fusion_lat": 0.0, "lat": 38.9046975, "type": "electric_scooter", "lon": -77.03573783333333, "bike_id": "50bc5562b803e1e8d3c50e49c1845612", "rental_uris": {"android": "https://dc.lft.to/lastmile_qr_scan", "ios": "https://dc.lft.to/lastmile_qr_scan"}, "name": "50bc5562b803e1e8d3c50e49c1845612", "is_reserved": 0}, {"is_disabled": 0, "fusion_lon": 0.0, "fusion_lat": 0.0, "lat": 38.93459516666667, "type": "electric_scooter", "lon": -77.0300565, "bike_id": "9d5c4cab63e0f40df2383b584a2e33ac", "rental_uris": {"android": "https://dc.lft.to/lastmile_qr_scan", "ios": "https://dc.lft.to/lastmile_qr_scan"}, "name": "9d5c4cab63e0f40df2383b584a2e33ac", "is_reserved": 0}, {"is_disabled": 0, "fusion_lon": 0.0, "fusion_lat": 0.0, "lat": 38.901677666666664, "type": "electric_scooter", "lon": -77.02487983333333, "bike_id": "28cf417f42093f3749021d293de26627", "rental_uris": {"android": "https://dc.lft.to/lastmile_qr_scan", "ios": "https://dc.lft.to/lastmile_qr_scan"}, "name": "28cf417f42093f3749021d293de26627", "is_reserved": 0}, {"is_disabled": 0, "fusion_lon": 0.0, "fusion_lat": 0.0, "lat": 38.897501, "type": "electric_scooter", "lon": -77.02967333333333, "bike_id": "6deaa730cf121005298c8719e6fc1e59", "rental_uris": {"android": "https://dc.lft.to/lastmile_qr_scan", "ios": "https://dc.lft.to/lastmile_qr_scan"}, "name": "6deaa730cf121005298c8719e6fc1e59", "is_reserved": 0}, {"is_disabled": 0, "fusion_lon": 0.0, "fusion_lat": 0.0, "lat": 38.82393066666667, "type": "electric_scooter", "lon": -77.0069985, "bike_id": "05001752c182c9b23905024d4b4ecb73", "rental_uris": {"android": "https://dc.lft.to/lastmile_qr_scan", "ios": "https://dc.lft.to/lastmile_qr_scan"}, "name": "05001752c182c9b23905024d4b4ecb73", "is_reserved": 0}, {"is_disabled": 0, "fusion_lon": 0.0, "fusion_lat": 0.0, "lat": 38.923046, "type": "electric_scooter", "lon": -77.04182616666667, "bike_id": "bd1008fe698dabf564ce357a564e3799", "rental_uris": {"android": "https://dc.lft.to/lastmile_qr_scan", "ios": "https://dc.lft.to/lastmile_qr_scan"}, "name": "bd1008fe698dabf564ce357a564e3799", "is_reserved": 0}, {"is_disabled": 0, "fusion_lon": 0.0, "fusion_lat": 0.0, "lat": 38.94579383333333, "type": "electric_bike", "lon": -76.98772333333334, "bike_id": "7ea449295f7b29b7812c730232563772", "rental_uris": {"android": "https://dc.lft.to/lastmile_qr_scan", "ios": "https://dc.lft.to/lastmile_qr_scan"}, "name": "7ea449295f7b29b7812c730232563772", "is_reserved": 0}, {"is_disabled": 0, "fusion_lon": 0.0, "fusion_lat": 0.0, "lat": 38.93641133333333, "type": "electric_bike", "lon": -76.95456116666666, "bike_id": "143b8715a474bb0bb220c55c28a795d0", "rental_uris": {"android": "https://dc.lft.to/lastmile_qr_scan", "ios": "https://dc.lft.to/lastmile_qr_scan"}, "name": "143b8715a474bb0bb220c55c28a795d0", "is_reserved": 0}, {"is_disabled": 0, "fusion_lon": 0.0, "fusion_lat": 0.0, "lat": 38.890032, "type": "electric_scooter", "lon": -77.04890783333333, "bike_id": "4860562dd6baafda68bfb6726a074d9a", "rental_uris": {"android": "https://dc.lft.to/lastmile_qr_scan", "ios": "https://dc.lft.to/lastmile_qr_scan"}, "name": "4860562dd6baafda68bfb6726a074d9a", "is_reserved": 0}, {"is_disabled": 0, "fusion_lon": 0.0, "fusion_lat": 0.0, "lat": 38.93505066666667, "type": "electric_bike", "lon": -76.94959083333333, "bike_id": "47457324b9f96808da7b99cc8723873e", "rental_uris": {"android": "https://dc.lft.to/lastmile_qr_scan", "ios": "https://dc.lft.to/lastmile_qr_scan"}, "name": "47457324b9f96808da7b99cc8723873e", "is_reserved": 0}, {"is_disabled": 0, "fusion_lon": 0.0, "fusion_lat": 0.0, "lat": 38.842965166666666, "type": "electric_scooter", "lon": -76.99944816666667, "bike_id": "b5f8993f2072f6acd038241ca28d9581", "rental_uris": {"android": "https://dc.lft.to/lastmile_qr_scan", "ios": "https://dc.lft.to/lastmile_qr_scan"}, "name": "b5f8993f2072f6acd038241ca28d9581", "is_reserved": 0}, {"is_disabled": 0, "fusion_lon": 0.0, "fusion_lat": 0.0, "lat": 38.89728816666667, "type": "electric_scooter", "lon": -77.02828333333333, "bike_id": "c976ccb74ccab7bfc0152883ab14d3d0", "rental_uris": {"android": "https://dc.lft.to/lastmile_qr_scan", "ios": "https://dc.lft.to/lastmile_qr_scan"}, "name": "c976ccb74ccab7bfc0152883ab14d3d0", "is_reserved": 0}, {"is_disabled": 0, "fusion_lon": 0.0, "fusion_lat": 0.0, "lat": 38.89517016666667, "type": "electric_scooter", "lon": -77.01091383333333, "bike_id": "ef1bbbb6dd0b3aafc02b2e6fcd956c2a", "rental_uris": {"android": "https://dc.lft.to/lastmile_qr_scan", "ios": "https://dc.lft.to/lastmile_qr_scan"}, "name": "ef1bbbb6dd0b3aafc02b2e6fcd956c2a", "is_reserved": 0}, {"is_disabled": 0, "fusion_lon": 0.0, "fusion_lat": 0.0, "lat": 38.907923, "type": "electric_scooter", "lon": -77.04981916666667, "bike_id": "46534c051b7de858f382e352ddc08f53", "rental_uris": {"android": "https://dc.lft.to/lastmile_qr_scan", "ios": "https://dc.lft.to/lastmile_qr_scan"}, "name": "46534c051b7de858f382e352ddc08f53", "is_reserved": 0}, {"is_disabled": 0, "fusion_lon": 0.0, "fusion_lat": 0.0, "lat": 38.921549666666664, "type": "electric_scooter", "lon": -77.03381683333333, "bike_id": "562adcda68318065ff2bc0bf608e327d", "rental_uris": {"android": "https://dc.lft.to/lastmile_qr_scan", "ios": "https://dc.lft.to/lastmile_qr_scan"}, "name": "562adcda68318065ff2bc0bf608e327d", "is_reserved": 0}, {"is_disabled": 0, "fusion_lon": 0.0, "fusion_lat": 0.0, "lat": 38.89464733333333, "type": "electric_scooter", "lon": -76.99485283333334, "bike_id": "60e4b76d7bc4256c5e735b2e1269f27c", "rental_uris": {"android": "https://dc.lft.to/lastmile_qr_scan", "ios": "https://dc.lft.to/lastmile_qr_scan"}, "name": "60e4b76d7bc4256c5e735b2e1269f27c", "is_reserved": 0}, {"is_disabled": 0, "fusion_lon": 0.0, "fusion_lat": 0.0, "lat": 38.886337833333336, "type": "electric_scooter", "lon": -76.99851866666667, "bike_id": "53e3b8248d70afbc2eea99048998ad36", "rental_uris": {"android": "https://dc.lft.to/lastmile_qr_scan", "ios": "https://dc.lft.to/lastmile_qr_scan"}, "name": "53e3b8248d70afbc2eea99048998ad36", "is_reserved": 0}, {"is_disabled": 0, "fusion_lon": 0.0, "fusion_lat": 0.0, "lat": 39.09945416666667, "type": "electric_bike", "lon": -77.1878875, "bike_id": "d9ffc6102d59ecd9b23640b97db114d6", "rental_uris": {"android": "https://dc.lft.to/lastmile_qr_scan", "ios": "https://dc.lft.to/lastmile_qr_scan"}, "name": "d9ffc6102d59ecd9b23640b97db114d6", "is_reserved": 0}, {"is_disabled": 0, "fusion_lon": 0.0, "fusion_lat": 0.0, "lat": 38.838135, "type": "electric_scooter", "lon": -77.00430633333333, "bike_id": "cb1b727b561ba07479fd379beebf4879", "rental_uris": {"android": "https://dc.lft.to/lastmile_qr_scan", "ios": "https://dc.lft.to/lastmile_qr_scan"}, "name": "cb1b727b561ba07479fd379beebf4879", "is_reserved": 0}, {"is_disabled": 0, "fusion_lon": 0.0, "fusion_lat": 0.0, "lat": 38.94661833333333, "type": "electric_scooter", "lon": -77.06535933333333, "bike_id": "0978cbed2d89a3dafa34583aea174590", "rental_uris": {"android": "https://dc.lft.to/lastmile_qr_scan", "ios": "https://dc.lft.to/lastmile_qr_scan"}, "name": "0978cbed2d89a3dafa34583aea174590", "is_reserved": 0}, {"is_disabled": 0, "fusion_lon": 0.0, "fusion_lat": 0.0, "lat": 38.90782183333334, "type": "electric_scooter", "lon": -77.03551283333333, "bike_id": "7e1357fca3ffe9f2685ee0e03605dc98", "rental_uris": {"android": "https://dc.lft.to/lastmile_qr_scan", "ios": "https://dc.lft.to/lastmile_qr_scan"}, "name": "7e1357fca3ffe9f2685ee0e03605dc98", "is_reserved": 0}, {"is_disabled": 0, "fusion_lon": 0.0, "fusion_lat": 0.0, "lat": 38.96220116666667, "type": "electric_scooter", "lon": -77.02802133333333, "bike_id": "b4d732ad0bbfb5ab8aff83b83c3b6ff6", "rental_uris": {"android": "https://dc.lft.to/lastmile_qr_scan", "ios": "https://dc.lft.to/lastmile_qr_scan"}, "name": "b4d732ad0bbfb5ab8aff83b83c3b6ff6", "is_reserved": 0}, {"is_disabled": 0, "fusion_lon": 0.0, "fusion_lat": 0.0, "lat": 38.917164166666666, "type": "electric_scooter", "lon": -77.02848816666666, "bike_id": "afd963a13bd773dd9e61db4e19fb7109", "rental_uris": {"android": "https://dc.lft.to/lastmile_qr_scan", "ios": "https://dc.lft.to/lastmile_qr_scan"}, "name": "afd963a13bd773dd9e61db4e19fb7109", "is_reserved": 0}, {"is_disabled": 0, "fusion_lon": 0.0, "fusion_lat": 0.0, "lat": 38.89483166666667, "type": "electric_scooter", "lon": -76.99524866666667, "bike_id": "f6432c74390e70fdf787ce8ce9a4bab9", "rental_uris": {"android": "https://dc.lft.to/lastmile_qr_scan", "ios": "https://dc.lft.to/lastmile_qr_scan"}, "name": "f6432c74390e70fdf787ce8ce9a4bab9", "is_reserved": 0}, {"is_disabled": 0, "fusion_lon": 0.0, "fusion_lat": 0.0, "lat": 38.926819333333334, "type": "electric_scooter", "lon": -77.026934, "bike_id": "409bc224da321fa08b5b0dc5a1dde4bf", "rental_uris": {"android": "https://dc.lft.to/lastmile_qr_scan", "ios": "https://dc.lft.to/lastmile_qr_scan"}, "name": "409bc224da321fa08b5b0dc5a1dde4bf", "is_reserved": 0}, {"is_disabled": 0, "fusion_lon": 0.0, "fusion_lat": 0.0, "lat": 38.96143716666667, "type": "electric_scooter", "lon": -77.02778283333333, "bike_id": "e397bd34884f1fe9cefe0dd67f7d6f30", "rental_uris": {"android": "https://dc.lft.to/lastmile_qr_scan", "ios": "https://dc.lft.to/lastmile_qr_scan"}, "name": "e397bd34884f1fe9cefe0dd67f7d6f30", "is_reserved": 0}, {"is_disabled": 0, "fusion_lon": 0.0, "fusion_lat": 0.0, "lat": 38.921215833333335, "type": "electric_scooter", "lon": -77.01767983333333, "bike_id": "fe17fd6ee24e6abb27894183047064ef", "rental_uris": {"android": "https://dc.lft.to/lastmile_qr_scan", "ios": "https://dc.lft.to/lastmile_qr_scan"}, "name": "fe17fd6ee24e6abb27894183047064ef", "is_reserved": 0}, {"is_disabled": 0, "fusion_lon": 0.0, "fusion_lat": 0.0, "lat": 38.89291566666667, "type": "electric_scooter", "lon": -77.02130383333333, "bike_id": "3528c85a93ddbcf87a1d105b21c85281", "rental_uris": {"android": "https://dc.lft.to/lastmile_qr_scan", "ios": "https://dc.lft.to/lastmile_qr_scan"}, "name": "3528c85a93ddbcf87a1d105b21c85281", "is_reserved": 0}, {"is_disabled": 0, "fusion_lon": 0.0, "fusion_lat": 0.0, "lat": 38.9498265, "type": "electric_scooter", "lon": -77.02700733333333, "bike_id": "021eb3476870f45dc599c92eec08c697", "rental_uris": {"android": "https://dc.lft.to/lastmile_qr_scan", "ios": "https://dc.lft.to/lastmile_qr_scan"}, "name": "021eb3476870f45dc599c92eec08c697", "is_reserved": 0}, {"is_disabled": 0, "fusion_lon": 0.0, "fusion_lat": 0.0, "lat": 38.85813183333333, "type": "electric_scooter", "lon": -76.98964683333334, "bike_id": "0acd78bc8565125a0902831273cb08f5", "rental_uris": {"android": "https://dc.lft.to/lastmile_qr_scan", "ios": "https://dc.lft.to/lastmile_qr_scan"}, "name": "0acd78bc8565125a0902831273cb08f5", "is_reserved": 0}, {"is_disabled": 0, "fusion_lon": 0.0, "fusion_lat": 0.0, "lat": 38.8651665, "type": "electric_scooter", "lon": -76.973314, "bike_id": "64b09ba9a07146ba6d757b7e9dd8c536", "rental_uris": {"android": "https://dc.lft.to/lastmile_qr_scan", "ios": "https://dc.lft.to/lastmile_qr_scan"}, "name": "64b09ba9a07146ba6d757b7e9dd8c536", "is_reserved": 0}, {"is_disabled": 0, "fusion_lon": 0.0, "fusion_lat": 0.0, "lat": 38.87794933333333, "type": "electric_scooter", "lon": -77.01362233333333, "bike_id": "3e8c666bd01a61eb8a9cf80f2ee7ccc9", "rental_uris": {"android": "https://dc.lft.to/lastmile_qr_scan", "ios": "https://dc.lft.to/lastmile_qr_scan"}, "name": "3e8c666bd01a61eb8a9cf80f2ee7ccc9", "is_reserved": 0}, {"is_disabled": 0, "fusion_lon": 0.0, "fusion_lat": 0.0, "lat": 38.86723166666667, "type": "electric_scooter", "lon": -76.97916266666667, "bike_id": "ff1a1111d2ae8b0b047205c5ea22eb32", "rental_uris": {"android": "https://dc.lft.to/lastmile_qr_scan", "ios": "https://dc.lft.to/lastmile_qr_scan"}, "name": "ff1a1111d2ae8b0b047205c5ea22eb32", "is_reserved": 0}, {"is_disabled": 0, "fusion_lon": 0.0, "fusion_lat": 0.0, "lat": 38.9388485, "type": "electric_scooter", "lon": -77.0282535, "bike_id": "4d21bad50048cf943470e9ca456b4760", "rental_uris": {"android": "https://dc.lft.to/lastmile_qr_scan", "ios": "https://dc.lft.to/lastmile_qr_scan"}, "name": "4d21bad50048cf943470e9ca456b4760", "is_reserved": 0}, {"is_disabled": 0, "fusion_lon": 0.0, "fusion_lat": 0.0, "lat": 38.95746533333333, "type": "electric_scooter", "lon": -77.02429366666667, "bike_id": "98aaa33783743b0827e6dbe7a4bcff04", "rental_uris": {"android": "https://dc.lft.to/lastmile_qr_scan", "ios": "https://dc.lft.to/lastmile_qr_scan"}, "name": "98aaa33783743b0827e6dbe7a4bcff04", "is_reserved": 0}, {"is_disabled": 0, "fusion_lon": 0.0, "fusion_lat": 0.0, "lat": 38.93335366666667, "type": "electric_scooter", "lon": -77.04125066666667, "bike_id": "4cf81e0927adaab7361d1369978492cb", "rental_uris": {"android": "https://dc.lft.to/lastmile_qr_scan", "ios": "https://dc.lft.to/lastmile_qr_scan"}, "name": "4cf81e0927adaab7361d1369978492cb", "is_reserved": 0}, {"is_disabled": 0, "fusion_lon": 0.0, "fusion_lat": 0.0, "lat": 38.928305333333334, "type": "electric_scooter", "lon": -77.02256316666667, "bike_id": "eff4abc63d4cbc7f9e68a674423ccec5", "rental_uris": {"android": "https://dc.lft.to/lastmile_qr_scan", "ios": "https://dc.lft.to/lastmile_qr_scan"}, "name": "eff4abc63d4cbc7f9e68a674423ccec5", "is_reserved": 0}, {"is_disabled": 0, "fusion_lon": 0.0, "fusion_lat": 0.0, "lat": 38.928708, "type": "electric_scooter", "lon": -76.990286, "bike_id": "75154cbffcad4f5e5755734eaccc9bd5", "rental_uris": {"android": "https://dc.lft.to/lastmile_qr_scan", "ios": "https://dc.lft.to/lastmile_qr_scan"}, "name": "75154cbffcad4f5e5755734eaccc9bd5", "is_reserved": 0}, {"is_disabled": 0, "fusion_lon": 0.0, "fusion_lat": 0.0, "lat": 38.9134445, "type": "electric_scooter", "lon": -77.0521515, "bike_id": "3eebe258898f6564e5536e4b97e87854", "rental_uris": {"android": "https://dc.lft.to/lastmile_qr_scan", "ios": "https://dc.lft.to/lastmile_qr_scan"}, "name": "3eebe258898f6564e5536e4b97e87854", "is_reserved": 0}, {"is_disabled": 0, "fusion_lon": 0.0, "fusion_lat": 0.0, "lat": 38.98474366666667, "type": "electric_scooter", "lon": -77.02650283333334, "bike_id": "5df2b893d5e0c8fb1eb38d73d25f4767", "rental_uris": {"android": "https://dc.lft.to/lastmile_qr_scan", "ios": "https://dc.lft.to/lastmile_qr_scan"}, "name": "5df2b893d5e0c8fb1eb38d73d25f4767", "is_reserved": 0}, {"is_disabled": 0, "fusion_lon": 0.0, "fusion_lat": 0.0, "lat": 38.90782516666667, "type": "electric_scooter", "lon": -77.03533183333333, "bike_id": "0eeb8514453f9bd9cb1f1bab62da014a", "rental_uris": {"android": "https://dc.lft.to/lastmile_qr_scan", "ios": "https://dc.lft.to/lastmile_qr_scan"}, "name": "0eeb8514453f9bd9cb1f1bab62da014a", "is_reserved": 0}, {"is_disabled": 0, "fusion_lon": 0.0, "fusion_lat": 0.0, "lat": 38.89358266666667, "type": "electric_scooter", "lon": -76.93988383333334, "bike_id": "12964b87209e8b64bcff25e85abeacda", "rental_uris": {"android": "https://dc.lft.to/lastmile_qr_scan", "ios": "https://dc.lft.to/lastmile_qr_scan"}, "name": "12964b87209e8b64bcff25e85abeacda", "is_reserved": 0}, {"is_disabled": 0, "fusion_lon": 0.0, "fusion_lat": 0.0, "lat": 38.92736633333333, "type": "electric_bike", "lon": -76.99367533333333, "bike_id": "f71518c0949406089f109400f6e36fea", "rental_uris": {"android": "https://dc.lft.to/lastmile_qr_scan", "ios": "https://dc.lft.to/lastmile_qr_scan"}, "name": "f71518c0949406089f109400f6e36fea", "is_reserved": 0}, {"is_disabled": 0, "fusion_lon": 0.0, "fusion_lat": 0.0, "lat": 38.90869333333333, "type": "electric_scooter", "lon": -77.046181, "bike_id": "52304fd9160280bf31c243e1382b5270", "rental_uris": {"android": "https://dc.lft.to/lastmile_qr_scan", "ios": "https://dc.lft.to/lastmile_qr_scan"}, "name": "52304fd9160280bf31c243e1382b5270", "is_reserved": 0}, {"is_disabled": 0, "fusion_lon": 0.0, "fusion_lat": 0.0, "lat": 38.91801533333334, "type": "electric_scooter", "lon": -77.03443516666667, "bike_id": "77a42e68072dca8293b897f3614cd6a3", "rental_uris": {"android": "https://dc.lft.to/lastmile_qr_scan", "ios": "https://dc.lft.to/lastmile_qr_scan"}, "name": "77a42e68072dca8293b897f3614cd6a3", "is_reserved": 0}, {"is_disabled": 0, "fusion_lon": 0.0, "fusion_lat": 0.0, "lat": 38.913394333333336, "type": "electric_scooter", "lon": -77.042363, "bike_id": "2c8784ff15bb19edaad7ecaf539572c8", "rental_uris": {"android": "https://dc.lft.to/lastmile_qr_scan", "ios": "https://dc.lft.to/lastmile_qr_scan"}, "name": "2c8784ff15bb19edaad7ecaf539572c8", "is_reserved": 0}, {"is_disabled": 0, "fusion_lon": 0.0, "fusion_lat": 0.0, "lat": 38.888678, "type": "electric_scooter", "lon": -77.03999783333333, "bike_id": "cd6382d1cea1ac9e8707b878ccc40e94", "rental_uris": {"android": "https://dc.lft.to/lastmile_qr_scan", "ios": "https://dc.lft.to/lastmile_qr_scan"}, "name": "cd6382d1cea1ac9e8707b878ccc40e94", "is_reserved": 0}, {"is_disabled": 0, "fusion_lon": 0.0, "fusion_lat": 0.0, "lat": 38.918403166666664, "type": "electric_scooter", "lon": -77.07213466666667, "bike_id": "0a4c3e4503516fe4f2f452424b4f591e", "rental_uris": {"android": "https://dc.lft.to/lastmile_qr_scan", "ios": "https://dc.lft.to/lastmile_qr_scan"}, "name": "0a4c3e4503516fe4f2f452424b4f591e", "is_reserved": 0}, {"is_disabled": 0, "fusion_lon": 0.0, "fusion_lat": 0.0, "lat": 38.92857683333333, "type": "electric_scooter", "lon": -77.01418416666667, "bike_id": "f931085f2828202a203661fd40a9d500", "rental_uris": {"android": "https://dc.lft.to/lastmile_qr_scan", "ios": "https://dc.lft.to/lastmile_qr_scan"}, "name": "f931085f2828202a203661fd40a9d500", "is_reserved": 0}, {"is_disabled": 0, "fusion_lon": 0.0, "fusion_lat": 0.0, "lat": 38.9060145, "type": "electric_scooter", "lon": -77.0571355, "bike_id": "d31d86fad60304054d16b493df6e648e", "rental_uris": {"android": "https://dc.lft.to/lastmile_qr_scan", "ios": "https://dc.lft.to/lastmile_qr_scan"}, "name": "d31d86fad60304054d16b493df6e648e", "is_reserved": 0}, {"is_disabled": 0, "fusion_lon": 0.0, "fusion_lat": 0.0, "lat": 38.9245305, "type": "electric_scooter", "lon": -77.0507785, "bike_id": "3cd39415e2ea1d0d2e5b1290647a059e", "rental_uris": {"android": "https://dc.lft.to/lastmile_qr_scan", "ios": "https://dc.lft.to/lastmile_qr_scan"}, "name": "3cd39415e2ea1d0d2e5b1290647a059e", "is_reserved": 0}, {"is_disabled": 0, "fusion_lon": 0.0, "fusion_lat": 0.0, "lat": 38.925345166666666, "type": "electric_scooter", "lon": -77.07657683333333, "bike_id": "d948a783735a345e759cb8ef5d135de2", "rental_uris": {"android": "https://dc.lft.to/lastmile_qr_scan", "ios": "https://dc.lft.to/lastmile_qr_scan"}, "name": "d948a783735a345e759cb8ef5d135de2", "is_reserved": 0}, {"is_disabled": 0, "fusion_lon": 0.0, "fusion_lat": 0.0, "lat": 38.84433466666667, "type": "electric_scooter", "lon": -76.997752, "bike_id": "69de56ce3b6196c64f2ee599dcbf3145", "rental_uris": {"android": "https://dc.lft.to/lastmile_qr_scan", "ios": "https://dc.lft.to/lastmile_qr_scan"}, "name": "69de56ce3b6196c64f2ee599dcbf3145", "is_reserved": 0}, {"is_disabled": 0, "fusion_lon": 0.0, "fusion_lat": 0.0, "lat": 38.88360566666667, "type": "electric_scooter", "lon": -76.98558033333333, "bike_id": "32865ba78db9e601526c2d1cb69314df", "rental_uris": {"android": "https://dc.lft.to/lastmile_qr_scan", "ios": "https://dc.lft.to/lastmile_qr_scan"}, "name": "32865ba78db9e601526c2d1cb69314df", "is_reserved": 0}, {"is_disabled": 0, "fusion_lon": 0.0, "fusion_lat": 0.0, "lat": 38.9310235, "type": "electric_scooter", "lon": -77.0381315, "bike_id": "55d9ab6d2be278f9268cba433f233f47", "rental_uris": {"android": "https://dc.lft.to/lastmile_qr_scan", "ios": "https://dc.lft.to/lastmile_qr_scan"}, "name": "55d9ab6d2be278f9268cba433f233f47", "is_reserved": 0}, {"is_disabled": 0, "fusion_lon": 0.0, "fusion_lat": 0.0, "lat": 38.85870633333333, "type": "electric_scooter", "lon": -76.99027716666667, "bike_id": "74591f4cbdf5ef450b97e936a1434a07", "rental_uris": {"android": "https://dc.lft.to/lastmile_qr_scan", "ios": "https://dc.lft.to/lastmile_qr_scan"}, "name": "74591f4cbdf5ef450b97e936a1434a07", "is_reserved": 0}, {"is_disabled": 0, "fusion_lon": 0.0, "fusion_lat": 0.0, "lat": 38.907023333333335, "type": "electric_scooter", "lon": -77.06307433333333, "bike_id": "d55f7151b7b47c297fe792b3c4692e0a", "rental_uris": {"android": "https://dc.lft.to/lastmile_qr_scan", "ios": "https://dc.lft.to/lastmile_qr_scan"}, "name": "d55f7151b7b47c297fe792b3c4692e0a", "is_reserved": 0}, {"is_disabled": 0, "fusion_lon": 0.0, "fusion_lat": 0.0, "lat": 38.958852666666665, "type": "electric_bike", "lon": -76.924827, "bike_id": "c5bda6ded4df577a7d9c04202cd398ed", "rental_uris": {"android": "https://dc.lft.to/lastmile_qr_scan", "ios": "https://dc.lft.to/lastmile_qr_scan"}, "name": "c5bda6ded4df577a7d9c04202cd398ed", "is_reserved": 0},