{"data": {"bikes": [{"name": "16324ebf8ad7b42993fb2d7d1a6d988b", "type": "electric_scooter", "lat": 38.89199416666666, "is_reserved": 0, "lon": -77.002412, "fusion_lon": 0.0, "is_disabled": 0, "fusion_lat": 0.0, "bike_id": "16324ebf8ad7b42993fb2d7d1a6d988b", "rental_uris": {"ios": "https://dc.lft.to/lastmile_qr_scan", "android": "https://dc.lft.to/lastmile_qr_scan"}}, {"name": "36b397533f224eb4d6986385b858b82a", "type": "electric_scooter", "lat": 38.9334915, "is_reserved": 0, "lon": -77.06943716666666, "fusion_lon": 0.0, "is_disabled": 0, "fusion_lat": 0.0, "bike_id": "36b397533f224eb4d6986385b858b82a", "rental_uris": {"ios": "https://dc.lft.to/lastmile_qr_scan", "android": "https://dc.lft.to/lastmile_qr_scan"}}, {"name": "511d1d97e9f7e615942b6ef44a1a630d", "type": "electric_scooter", "lat": 38.91990783333333, "is_reserved": 0, "lon": -77.03474833333334, "fusion_lon": 0.0, "is_disabled": 0, "fusion_lat": 0.0, "bike_id": "511d1d97e9f7e615942b6ef44a1a630d", "rental_uris": {"ios": "https://dc.lft.to/lastmile_qr_scan", "android": "https://dc.lft.to/lastmile_qr_scan"}}, {"name": "c557bd8803a8c2b0d496634d486cab5a", "type": "electric_scooter", "lat": 38.897573, "is_reserved": 0, "lon": -77.04303, "fusion_lon": 0.0, "is_disabled": 0, "fusion_lat": 0.0, "bike_id": "c557bd8803a8c2b0d496634d486cab5a", "rental_uris": {"ios": "https://dc.lft.to/lastmile_qr_scan", "android": "https://dc.lft.to/lastmile_qr_scan"}}, {"name": "b9557a993e880aa79253e163092b0412", "type": "electric_scooter", "lat": 38.899039333333334, "is_reserved": 0, "lon": -77.03937633333334, "fusion_lon": 0.0, "is_disabled": 0, "fusion_lat": 0.0, "bike_id": "b9557a993e880aa79253e163092b0412", "rental_uris": {"ios": "https://dc.lft.to/lastmile_qr_scan", "android": "https://dc.lft.to/lastmile_qr_scan"}}, {"name": "ee633b1f384645863d354cd2574eed50", "type": "electric_scooter", "lat": 38.902539166666664, "is_reserved": 0, "lon": -77.038517, "fusion_lon": 0.0, "is_disabled": 0, "fusion_lat": 0.0, "bike_id": "ee633b1f384645863d354cd2574eed50", "rental_uris": {"ios": "https://dc.lft.to/lastmile_qr_scan", "android": "https://dc.lft.to/lastmile_qr_scan"}}, {"name": "a94673bd397fce6e0f5aedb8d410f3cb", "type": "electric_scooter", "lat": 38.88523416666666, "is_reserved": 0, "lon": -77.0058155, "fusion_lon": 0.0, "is_disabled": 0, "fusion_lat": 0.0, "bike_id": "a94673bd397fce6e0f5aedb8d410f3cb", "rental_uris": {"ios": "https://dc.lft.to/lastmile_qr_scan", "android": "https://dc.lft.to/lastmile_qr_scan"}}, {"name": "26a95f95dec1e31f7c73062e13632f72", "type": "electric_scooter", "lat": 38.887788, "is_reserved": 0, "lon": -76.95527816666667, "fusion_lon": 0.0, "is_disabled": 0, "fusion_lat": 0.0, "bike_id": "26a95f95dec1e31f7c73062e13632f72", "rental_uris": {"ios": "https://dc.lft.to/lastmile_qr_scan", "android": "https://dc.lft.to/lastmile_qr_scan"}}, {"name": "e4ae0480574c1e98a8a8685cfa83b9bf", "type": "electric_scooter", "lat": 38.90449, "is_reserved": 0, "lon": -77.059247, "fusion_lon": 0.0, "is_disabled": 0, "fusion_lat": 0.0, "bike_id": "e4ae0480574c1e98a8a8685cfa83b9bf", "rental_uris": {"ios": "https://dc.lft.to/lastmile_qr_scan", "android": "https://dc.lft.to/lastmile_qr_scan"}}, {"name": "e5a88b30c4511ffc278b1b0d41673295", "type": "electric_scooter", "lat": 38.903521833333336, "is_reserved": 0, "lon": -77.04470866666666, "fusion_lon": 0.0, "is_disabled": 0, "fusion_lat": 0.0, "bike_id": "e5a88b30c4511ffc278b1b0d41673295", "rental_uris": {"ios": "https://dc.lft.to/lastmile_qr_scan", "android": "https://dc.lft.to/lastmile_qr_scan"}}, {"name": "842e34c5904b6b223329a97e643d1267", "type": "electric_scooter", "lat": 38.90518516666667, "is_reserved": 0, "lon": -77.06586916666667, "fusion_lon": 0.0, "is_disabled": 0, "fusion_lat": 0.0, "bike_id": "842e34c5904b6b223329a97e643d1267", "rental_uris": {"ios": "https://dc.lft.to/lastmile_qr_scan", "android": "https://dc.lft.to/lastmile_qr_scan"}}, {"name": "1e9acbe0064b4a81b4fc479bf93a4416", "type": "electric_bike", "lat": 38.958102, "is_reserved": 0, "lon": -77.01379633333333, "fusion_lon": 0.0, "is_disabled": 0, "fusion_lat": 0.0, "bike_id": "1e9acbe0064b4a81b4fc479bf93a4416", "rental_uris": {"ios": "https://dc.lft.to/lastmile_qr_scan", "android": "https://dc.lft.to/lastmile_qr_scan"}}, {"name": "a333986ab46cfa7532ea5e4039341711", "type": "electric_scooter", "lat": 38.910049666666666, "is_reserved": 0, "lon": -77.01890633333333, "fusion_lon": 0.0, "is_disabled": 0, "fusion_lat": 0.0, "bike_id": "a333986ab46cfa7532ea5e4039341711", "rental_uris": {"ios": "https://dc.lft.to/lastmile_qr_scan", "android": "https://dc.lft.to/lastmile_qr_scan"}}, {"name": "2b8db1c3bd9221723c811ea7a71fd168", "type": "electric_scooter", "lat": 38.9167265, "is_reserved": 0, "lon": -77.03644533333333, "fusion_lon": 0.0, "is_disabled": 0, "fusion_lat": 0.0, "bike_id": "2b8db1c3bd9221723c811ea7a71fd168", "rental_uris": {"ios": "https://dc.lft.to/lastmile_qr_scan", "android": "https://dc.lft.to/lastmile_qr_scan"}}, {"name": "5ea1f8225341643917928f04987e277c", "type": "electric_scooter", "lat": 38.887156166666664, "is_reserved": 0, "lon": -77.02827133333334, "fusion_lon": 0.0, "is_disabled": 0, "fusion_lat": 0.0, "bike_id": "5ea1f8225341643917928f04987e277c", "rental_uris": {"ios": "https://dc.lft.to/lastmile_qr_scan", "android": "https://dc.lft.to/lastmile_qr_scan"}}, {"name": "1d7770e276284b62edc29e2aa075cc88", "type": "electric_scooter", "lat": 38.89854283333333, "is_reserved": 0, "lon": -76.98179716666667, "fusion_lon": 0.0, "is_disabled": 0, "fusion_lat": 0.0, "bike_id": "1d7770e276284b62edc29e2aa075cc88", "rental_uris": {"ios": "https://dc.lft.to/lastmile_qr_scan", "android": "https://dc.lft.to/lastmile_qr_scan"}}, {"name": "2b5d97d5adbd36eb91f71e6ab9f3f28f", "type": "electric_scooter", "lat": 38.8903925, "is_reserved": 0, "lon": -77.02572066666667, "fusion_lon": 0.0, "is_disabled": 0, "fusion_lat": 0.0, "bike_id": "2b5d97d5adbd36eb91f71e6ab9f3f28f", "rental_uris": {"ios": "https://dc.lft.to/lastmile_qr_scan", "android": "https://dc.lft.to/lastmile_qr_scan"}}, {"name": "d47bff7d5724cce5518e012cae2c781b", "type": "electric_bike", "lat": 38.88707083333333, "is_reserved": 0, "lon": -77.13311816666666, "fusion_lon": 0.0, "is_disabled": 0, "fusion_lat": 0.0, "bike_id": "d47bff7d5724cce5518e012cae2c781b", "rental_uris": {"ios": "https://dc.lft.to/lastmile_qr_scan", "android": "https://dc.lft.to/lastmile_qr_scan"}}, {"name": "fc3eb1e1987075f19b7c9c695585fb1e", "type": "electric_scooter", "lat": 38.90161116666667, "is_reserved": 0, "lon": -77.00012633333333, "fusion_lon": 0.0, "is_disabled": 0, "fusion_lat": 0.0, "bike_id": "fc3eb1e1987075f19b7c9c695585fb1e", "rental_uris": {"ios": "https://dc.lft.to/lastmile_qr_scan", "android": "https://dc.lft.to/lastmile_qr_scan"}}, {"name": "046dd16fc99a77a138a4c1539cd48f58", "type": "electric_scooter", "lat": 38.863553333333336, "is_reserved": 0, "lon": -76.99065033333333, "fusion_lon": 0.0, "is_disabled": 0, "fusion_lat": 0.0, "bike_id": "046dd16fc99a77a138a4c1539cd48f58", "rental_uris": {"ios": "https://dc.lft.to/lastmile_qr_scan", "android": "https://dc.lft.to/lastmile_qr_scan"}}, {"name": "cc9bbf5a48cc33a7f0c3880e79cc8440", "type": "electric_scooter", "lat": 38.921104166666666, "is_reserved": 0, "lon": -77.017662, "fusion_lon": 0.0, "is_disabled": 0, "fusion_lat": 0.0, "bike_id": "cc9bbf5a48cc33a7f0c3880e79cc8440", "rental_uris": {"ios": "https://dc.lft.to/lastmile_qr_scan", "android": "https://dc.lft.to/lastmile_qr_scan"}}, {"name": "72a4c8a4369e824b6da5e1b056315f92", "type": "electric_scooter", "lat": 38.907284, "is_reserved": 0, "lon": -77.03454083333334, "fusion_lon": 0.0, "is_disabled": 0, "fusion_lat": 0.0, "bike_id": "72a4c8a4369e824b6da5e1b056315f92", "rental_uris": {"ios": "https://dc.lft.to/lastmile_qr_scan", "android": "https://dc.lft.to/lastmile_qr_scan"}}, {"name": "0554cbda4ba1b59a3c9af65e0ea52267", "type": "electric_bike", "lat": 38.960936, "is_reserved": 0, "lon": -77.08525566666667, "fusion_lon": 0.0, "is_disabled": 0, "fusion_lat": 0.0, "bike_id": "0554cbda4ba1b59a3c9af65e0ea52267", "rental_uris": {"ios": "https://dc.lft.to/lastmile_qr_scan", "android": "https://dc.lft.to/lastmile_qr_scan"}}, {"name": "9caef2a5d2dd5f7582abea152d5c7502", "type": "electric_scooter", "lat": 38.91581333333333, "is_reserved": 0, "lon": -76.983928, "fusion_lon": 0.0, "is_disabled": 0, "fusion_lat": 0.0, "bike_id": "9caef2a5d2dd5f7582abea152d5c7502", "rental_uris": {"ios": "https://dc.lft.to/lastmile_qr_scan", "android": "https://dc.lft.to/lastmile_qr_scan"}}, {"name": "846ed6e1ff8a5f38f89765fa11a3494f", "type": "electric_scooter", "lat": 38.89504683333333, "is_reserved": 0, "lon": -77.0033865, "fusion_lon": 0.0, "is_disabled": 0, "fusion_lat": 0.0, "bike_id": "846ed6e1ff8a5f38f89765fa11a3494f", "rental_uris": {"ios": "https://dc.lft.to/lastmile_qr_scan", "android": "https://dc.lft.to/lastmile_qr_scan"}}, {"name": "a377f787a88aa792368bf66ea369f65b", "type": "electric_scooter", "lat": 38.91546066666667, "is_reserved": 0, "lon": -77.03175116666667, "fusion_lon": 0.0, "is_disabled": 0, "fusion_lat": 0.0, "bike_id": "a377f787a88aa792368bf66ea369f65b", "rental_uris": {"ios": "https://dc.lft.to/lastmile_qr_scan", "android": "https://dc.lft.to/lastmile_qr_scan"}}, {"name": "9f562f51b25f15c1c0329a659e73a498", "type": "electric_bike", "lat": 38.85516283333333, "is_reserved": 0, "lon": -77.1114865, "fusion_lon": 0.0, "is_disabled": 0, "fusion_lat": 0.0, "bike_id": "9f562f51b25f15c1c0329a659e73a498", "rental_uris": {"ios": "https://dc.lft.to/lastmile_qr_scan", "android": "https://dc.lft.to/lastmile_qr_scan"}}, {"name": "835825761123d7ab9c9579b18a08b700", "type": "electric_scooter", "lat": 38.904120166666665, "is_reserved": 0, "lon": -77.0365355, "fusion_lon": 0.0, "is_disabled": 0, "fusion_lat": 0.0, "bike_id": "835825761123d7ab9c9579b18a08b700", "rental_uris": {"ios": "https://dc.lft.to/lastmile_qr_scan", "android": "https://dc.lft.to/lastmile_qr_scan"}}, {"name": "6b8f6e5e7ca5cf8add199055d0898df3", "type": "electric_scooter", "lat": 38.92516716666667, "is_reserved": 0, "lon": -77.02358633333333, "fusion_lon": 0.0, "is_disabled": 0, "fusion_lat": 0.0, "bike_id": "6b8f6e5e7ca5cf8add199055d0898df3", "rental_uris": {"ios": "https://dc.lft.to/lastmile_qr_scan", "android": "https://dc.lft.to/lastmile_qr_scan"}}, {"name": "b7cec706b81a76e44d7d6831f26f5b59", "type": "electric_scooter", "lat": 38.898837666666665, "is_reserved": 0, "lon": -76.931731, "fusion_lon": 0.0, "is_disabled": 0, "fusion_lat": 0.0, "bike_id": "b7cec706b81a76e44d7d6831f26f5b59", "rental_uris": {"ios": "https://dc.lft.to/lastmile_qr_scan", "android": "https://dc.lft.to/lastmile_qr_scan"}}, {"name": "901d1d690ef4de236132ecb9a903b5b3", "type": "electric_scooter", "lat": 38.893499166666665, "is_reserved": 0, "lon": -77.00337216666667, "fusion_lon": 0.0, "is_disabled": 0, "fusion_lat": 0.0, "bike_id": "901d1d690ef4de236132ecb9a903b5b3", "rental_uris": {"ios": "https://dc.lft.to/lastmile_qr_scan", "android": "https://dc.lft.to/lastmile_qr_scan"}}, {"name": "06d87487e223765046df884f2bc91306", "type": "electric_scooter", "lat": 38.862413833333335, "is_reserved": 0, "lon": -76.99499866666666, "fusion_lon": 0.0, "is_disabled": 0, "fusion_lat": 0.0, "bike_id": "06d87487e223765046df884f2bc91306", "rental_uris": {"ios": "https://dc.lft.to/lastmile_qr_scan", "android": "https://dc.lft.to/lastmile_qr_scan"}}, {"name": "41af5562bc2bca83cd841949e18f7dd1", "type": "electric_scooter", "lat": 38.872142333333336, "is_reserved": 0, "lon": -77.00572116666666, "fusion_lon": 0.0, "is_disabled": 0, "fusion_lat": 0.0, "bike_id": "41af5562bc2bca83cd841949e18f7dd1", "rental_uris": {"ios": "https://dc.lft.to/lastmile_qr_scan", "android": "https://dc.lft.to/lastmile_qr_scan"}}, {"name": "ab02332da3689c9296b4702056490298", "type": "electric_scooter", "lat": 38.84423783333333, "is_reserved": 0, "lon": -76.997779, "fusion_lon": 0.0, "is_disabled": 0, "fusion_lat": 0.0, "bike_id": "ab02332da3689c9296b4702056490298", "rental_uris": {"ios": "https://dc.lft.to/lastmile_qr_scan", "android": "https://dc.lft.to/lastmile_qr_scan"}}, {"name": "807c7efbc4d85f5d4f23aef507870aae", "type": "electric_bike", "lat": 38.820445, "is_reserved": 0, "lon": -77.05315833333333, "fusion_lon": 0.0, "is_disabled": 0, "fusion_lat": 0.0, "bike_id": "807c7efbc4d85f5d4f23aef507870aae", "rental_uris": {"ios": "https://dc.lft.to/lastmile_qr_scan", "android": "https://dc.lft.to/lastmile_qr_scan"}}, {"name": "9d1ac1334e9e43922adafc4f5b161b3a", "type": "electric_scooter", "lat": 38.9036775, "is_reserved": 0, "lon": -77.00732016666667, "fusion_lon": 0.0, "is_disabled": 0, "fusion_lat": 0.0, "bike_id": "9d1ac1334e9e43922adafc4f5b161b3a", "rental_uris": {"ios": "https://dc.lft.to/lastmile_qr_scan", "android": "https://dc.lft.to/lastmile_qr_scan"}}, {"name": "b87ad96c069eee10f7f566d622e05d21", "type": "electric_scooter", "lat": 38.93237933333333, "is_reserved": 0, "lon": -77.03828533333333, "fusion_lon": 0.0, "is_disabled": 0, "fusion_lat": 0.0, "bike_id": "b87ad96c069eee10f7f566d622e05d21", "rental_uris": {"ios": "https://dc.lft.to/lastmile_qr_scan", "android": "https://dc.lft.to/lastmile_qr_scan"}}, {"name": "a267631afc80b41aa2b8a5ad02ffa092", "type": "electric_scooter", "lat": 38.90067633333334, "is_reserved": 0, "lon": -76.98711283333333, "fusion_lon": 0.0, "is_disabled": 0, "fusion_lat": 0.0, "bike_id": "a267631afc80b41aa2b8a5ad02ffa092", "rental_uris": {"ios": "https://dc.lft.to/lastmile_qr_scan", "android": "https://dc.lft.to/lastmile_qr_scan"}}, {"name": "a248e7e180cbbe36cdba1699dacd55be", "type": "electric_scooter", "lat": 38.903121666666664, "is_reserved": 0, "lon": -77.03210366666667, "fusion_lon": 0.0, "is_disabled": 0, "fusion_lat": 0.0, "bike_id": "a248e7e180cbbe36cdba1699dacd55be", "rental_uris": {"ios": "https://dc.lft.to/lastmile_qr_scan", "android": "https://dc.lft.to/lastmile_qr_scan"}}, {"name": "aba1df943ead609c50af5bdfc00c3b54", "type": "electric_scooter", "lat": 38.907241166666665, "is_reserved": 0, "lon": -77.040417, "fusion_lon": 0.0, "is_disabled": 0, "fusion_lat": 0.0, "bike_id": "aba1df943ead609c50af5bdfc00c3b54", "rental_uris": {"ios": "https://dc.lft.to/lastmile_qr_scan", "android": "https://dc.lft.to/lastmile_qr_scan"}}, {"name": "b157b133a38c4cdb9b62d58f65e3f411", "type": "electric_scooter", "lat": 38.9361105, "is_reserved": 0, "lon": -77.022546, "fusion_lon": 0.0, "is_disabled": 0, "fusion_lat": 0.0, "bike_id": "b157b133a38c4cdb9b62d58f65e3f411", "rental_uris": {"ios": "https://dc.lft.to/lastmile_qr_scan", "android": "https://dc.lft.to/lastmile_qr_scan"}}, {"name": "e3fb0e9ea02a8d18b4cc4843b7bcd9b8", "type": "electric_scooter", "lat": 38.88526566666667, "is_reserved": 0, "lon": -77.005876, "fusion_lon": 0.0, "is_disabled": 0, "fusion_lat": 0.0, "bike_id": "e3fb0e9ea02a8d18b4cc4843b7bcd9b8", "rental_uris": {"ios": "https://dc.lft.to/lastmile_qr_scan", "android": "https://dc.lft.to/lastmile_qr_scan"}}, {"name": "00bee511aa581de57d9b388ad662a648", "type": "electric_scooter", "lat": 38.89606933333334, "is_reserved": 0, "lon": -77.04559983333333, "fusion_lon": 0.0, "is_disabled": 0, "fusion_lat": 0.0, "bike_id": "00bee511aa581de57d9b388ad662a648", "rental_uris": {"ios": "https://dc.lft.to/lastmile_qr_scan", "android": "https://dc.lft.to/lastmile_qr_scan"}}, {"name": "5a5c9dd6bb669aa04bafb33fdb7ac8ca", "type": "electric_scooter", "lat": 38.86238816666667, "is_reserved": 0, "lon": -76.99494666666666, "fusion_lon": 0.0, "is_disabled": 0, "fusion_lat": 0.0, "bike_id": "5a5c9dd6bb669aa04bafb33fdb7ac8ca", "rental_uris": {"ios": "https://dc.lft.to/lastmile_qr_scan", "android": "https://dc.lft.to/lastmile_qr_scan"}}, {"name": "048ddfa3c33892a75c2e78c2812b223a", "type": "electric_scooter", "lat": 38.92271366666667, "is_reserved": 0, "lon": -77.01826866666667, "fusion_lon": 0.0, "is_disabled": 0, "fusion_lat": 0.0, "bike_id": "048ddfa3c33892a75c2e78c2812b223a", "rental_uris": {"ios": "https://dc.lft.to/lastmile_qr_scan", "android": "https://dc.lft.to/lastmile_qr_scan"}}, {"name": "f99e18c2b46eb062afe2639d203ebd79", "type": "electric_scooter", "lat": 38.9248535, "is_reserved": 0, "lon": -77.05212766666666, "fusion_lon": 0.0, "is_disabled": 0, "fusion_lat": 0.0, "bike_id": "f99e18c2b46eb062afe2639d203ebd79", "rental_uris": {"ios": "https://dc.lft.to/lastmile_qr_scan", "android": "https://dc.lft.to/lastmile_qr_scan"}}, {"name": "e0adc3cbb12a531f39a728f448d20751", "type": "electric_scooter", "lat": 38.870045833333336, "is_reserved": 0, "lon": -77.01224433333333, "fusion_lon": 0.0, "is_disabled": 0, "fusion_lat": 0.0, "bike_id": "e0adc3cbb12a531f39a728f448d20751", "rental_uris": {"ios": "https://dc.lft.to/lastmile_qr_scan", "android": "https://dc.lft.to/lastmile_qr_scan"}}, {"name": "0e66e1475944389910132abbe7365a87", "type": "electric_scooter", "lat": 38.884879833333336, "is_reserved": 0, "lon": -77.00706266666667, "fusion_lon": 0.0, "is_disabled": 0, "fusion_lat": 0.0, "bike_id": "0e66e1475944389910132abbe7365a87", "rental_uris": {"ios": "https://dc.lft.to/lastmile_qr_scan", "android": "https://dc.lft.to/lastmile_qr_scan"}}, {"name": "04bd3ef47f7ead771a5af8f57ea7f40e", "type": "electric_scooter", "lat": 38.94462133333333, "is_reserved": 0, "lon": -77.0065655, "fusion_lon": 0.0, "is_disabled": 0, "fusion_lat": 0.0, "bike_id": "04bd3ef47f7ead771a5af8f57ea7f40e", "rental_uris": {"ios": "https://dc.lft.to/lastmile_qr_scan", "android": "https://dc.lft.to/lastmile_qr_scan"}}, {"name": "950a728ff6ef32c3a34c5ac56a02e84a", "type": "electric_scooter", "lat": 38.8656365, "is_reserved": 0, "lon": -76.98554733333333, "fusion_lon": 0.0, "is_disabled": 0, "fusion_lat": 0.0, "bike_id": "950a728ff6ef32c3a34c5ac56a02e84a", "rental_uris": {"ios": "https://dc.lft.to/lastmile_qr_scan", "android": "https://dc.lft.to/lastmile_qr_scan"}}, {"name": "7795cd73ce8f5de18f0c9a9fc9bc21ef", "type": "electric_scooter", "lat": 38.907819, "is_reserved": 0, "lon": -77.03670516666666, "fusion_lon": 0.0, "is_disabled": 0, "fusion_lat": 0.0, "bike_id": "7795cd73ce8f5de18f0c9a9fc9bc21ef", "rental_uris": {"ios": "https://dc.lft.to/lastmile_qr_scan", "android": "https://dc.lft.to/lastmile_qr_scan"}}, {"name": "2c0c168fd9f1f9551e9173e7eead9aac", "type": "electric_bike", "lat": 38.8698565, "is_reserved": 0, "lon": -76.959835, "fusion_lon": 0.0, "is_disabled": 0, "fusion_lat": 0.0, "bike_id": "2c0c168fd9f1f9551e9173e7eead9aac", "rental_uris": {"ios": "https://dc.lft.to/lastmile_qr_scan", "android": "https://dc.lft.to/lastmile_qr_scan"}}, {"name": "d661f495f073a41400ba4a98f63615ae", "type": "electric_bike", "lat": 38.98501866666667, "is_reserved": 0, "lon": -76.98213516666667, "fusion_lon": 0.0, "is_disabled": 0, "fusion_lat": 0.0, "bike_id": "d661f495f073a41400ba4a98f63615ae", "rental_uris": {"ios": "https://dc.lft.to/lastmile_qr_scan", "android": "https://dc.lft.to/lastmile_qr_scan"}}, {"name": "02a85b24ae164a5724a43b45b388b196", "type": "electric_scooter", "lat": 38.9271105, "is_reserved": 0, "lon": -77.0385385, "fusion_lon": 0.0, "is_disabled": 0, "fusion_lat": 0.0, "bike_id": "02a85b24ae164a5724a43b45b388b196", "rental_uris": {"ios": "https://dc.lft.to/lastmile_qr_scan", "android": "https://dc.lft.to/lastmile_qr_scan"}}, {"name": "2a41e6bb225c7898eddd4302edba8107", "type": "electric_bike", "lat": 38.873924833333334, "is_reserved": 0, "lon": -77.000308, "fusion_lon": 0.0, "is_disabled": 0, "fusion_lat": 0.0, "bike_id": "2a41e6bb225c7898eddd4302edba8107", "rental_uris": {"ios": "https://dc.lft.to/lastmile_qr_scan", "android": "https://dc.lft.to/lastmile_qr_scan"}}, {"name": "8a566beacfbc3c90273e21ac8b46220e", "type": "electric_scooter", "lat": 38.91705833333333, "is_reserved": 0, "lon": -77.00114616666667, "fusion_lon": 0.0, "is_disabled": 0, "fusion_lat": 0.0, "bike_id": "8a566beacfbc3c90273e21ac8b46220e", "rental_uris": {"ios": "https://dc.lft.to/lastmile_qr_scan", "android": "https://dc.lft.to/lastmile_qr_scan"}}, {"name": "b1d8b8f813b59c160a242e1d576a2164", "type": "electric_scooter", "lat": 38.9169415, "is_reserved": 0, "lon": -77.0348035, "fusion_lon": 0.0, "is_disabled": 0, "fusion_lat": 0.0, "bike_id": "b1d8b8f813b59c160a242e1d576a2164", "rental_uris": {"ios": "https://dc.lft.to/lastmile_qr_scan", "android": "https://dc.lft.to/lastmile_qr_scan"}}, {"name": "dd6e66bb1d1f551d9ea31b44b069bc54", "type": "electric_bike", "lat": 38.951827, "is_reserved": 0, "lon": -76.93547, "fusion_lon": 0.0, "is_disabled": 0, "fusion_lat": 0.0, "bike_id": "dd6e66bb1d1f551d9ea31b44b069bc54", "rental_uris": {"ios": "https://dc.lft.to/lastmile_qr_scan", "android": "https://dc.lft.to/lastmile_qr_scan"}}, {"name": "ba81d49058e7f50b63fe2f311705aae5", "type": "electric_bike", "lat": 38.95641466666667, "is_reserved": 0, "lon": -76.997438, "fusion_lon": 0.0, "is_disabled": 0, "fusion_lat": 0.0, "bike_id": "ba81d49058e7f50b63fe2f311705aae5", "rental_uris": {"ios": "https://dc.lft.to/lastmile_qr_scan", "android": "https://dc.lft.to/lastmile_qr_scan"}}, {"name": "9a8c28345a3dac831c0bbc37c02ba655", "type": "electric_scooter", "lat": 38.89735183333333, "is_reserved": 0, "lon": -77.02217133333333, "fusion_lon": 0.0, "is_disabled": 0, "fusion_lat": 0.0, "bike_id": "9a8c28345a3dac831c0bbc37c02ba655", "rental_uris": {"ios": "https://dc.lft.to/lastmile_qr_scan", "android": "https://dc.lft.to/lastmile_qr_scan"}}, {"name": "c10fc510cc02b9ebb66c8955586f1b37", "type": "electric_scooter", "lat": 38.883264833333335, "is_reserved": 0, "lon": -77.01767683333334, "fusion_lon": 0.0, "is_disabled": 0, "fusion_lat": 0.0, "bike_id": "c10fc510cc02b9ebb66c8955586f1b37", "rental_uris": {"ios": "https://dc.lft.to/lastmile_qr_scan", "android": "https://dc.lft.to/lastmile_qr_scan"}}, {"name": "29caa2bd71e4438b6e0fff9911f356aa", "type": "electric_scooter", "lat": 38.916981166666666, "is_reserved": 0, "lon": -77.02899933333333, "fusion_lon": 0.0, "is_disabled": 0, "fusion_lat": 0.0, "bike_id": "29caa2bd71e4438b6e0fff9911f356aa", "rental_uris": {"ios": "https://dc.lft.to/lastmile_qr_scan", "android": "https://dc.lft.to/lastmile_qr_scan"}}, {"name": "300efdb565d6f54f82cb5868a7b9a4f6", "type": "electric_scooter", "lat": 38.8984635, "is_reserved": 0, "lon": -77.04371766666667, "fusion_lon": 0.0, "is_disabled": 0, "fusion_lat": 0.0, "bike_id": "300efdb565d6f54f82cb5868a7b9a4f6", "rental_uris": {"ios": "https://dc.lft.to/lastmile_qr_scan", "android": "https://dc.lft.to/lastmile_qr_scan"}}, {"name": "a8fe3a24395b668949311b66f0727a3c", "type": "electric_bike", "lat": 38.9033675, "is_reserved": 0, "lon": -76.9387425, "fusion_lon": 0.0, "is_disabled": 0, "fusion_lat": 0.0, "bike_id": "a8fe3a24395b668949311b66f0727a3c", "rental_uris": {"ios": "https://dc.lft.to/lastmile_qr_scan", "android": "https://dc.lft.to/lastmile_qr_scan"}}, {"name": "cd2d61ac3955c66ea914a2d4bb56e235", "type": "electric_scooter", "lat": 38.90151633333333, "is_reserved": 0, "lon": -77.04305583333333, "fusion_lon": 0.0, "is_disabled": 0, "fusion_lat": 0.0, "bike_id": "cd2d61ac3955c66ea914a2d4bb56e235", "rental_uris": {"ios": "https://dc.lft.to/lastmile_qr_scan", "android": "https://dc.lft.to/lastmile_qr_scan"}}, {"name": "5ce84b681fc62492ad032f4acca9409b", "type": "electric_bike", "lat": 38.89558433333333, "is_reserved": 0, "lon": -77.12733966666667, "fusion_lon": 0.0, "is_disabled": 0, "fusion_lat": 0.0, "bike_id": "5ce84b681fc62492ad032f4acca9409b", "rental_uris": {"ios": "https://dc.lft.to/lastmile_qr_scan", "android": "https://dc.lft.to/lastmile_qr_scan"}}, {"name": "6d8e72c51d3a20bc9cfcb2d3563ff85f", "type": "electric_scooter", "lat": 38.90932083333333, "is_reserved": 0, "lon": -77.0218755, "fusion_lon": 0.0, "is_disabled": 0, "fusion_lat": 0.0, "bike_id": "6d8e72c51d3a20bc9cfcb2d3563ff85f", "rental_uris": {"ios": "https://dc.lft.to/lastmile_qr_scan", "android": "https://dc.lft.to/lastmile_qr_scan"}}, {"name": "dd9240b334906d3445ff4929730f3ed1", "type": "electric_scooter", "lat": 38.92744116666667, "is_reserved": 0, "lon": -77.02481366666666, "fusion_lon": 0.0, "is_disabled": 0, "fusion_lat": 0.0, "bike_id": "dd9240b334906d3445ff4929730f3ed1", "rental_uris": {"ios": "https://dc.lft.to/lastmile_qr_scan", "android": "https://dc.lft.to/lastmile_qr_scan"}}, {"name": "e748068c06a76a07e4893a38e7c65553", "type": "electric_scooter", "lat": 38.90240983333333, "is_reserved": 0, "lon": -77.036327, "fusion_lon": 0.0, "is_disabled": 0, "fusion_lat": 0.0, "bike_id": "e748068c06a76a07e4893a38e7c65553", "rental_uris": {"ios": "https://dc.lft.to/lastmile_qr_scan", "android": "https://dc.lft.to/lastmile_qr_scan"}}, {"name": "d98def1fb46ea37f625e79440ee96a59", "type": "electric_scooter", "lat": 38.90792733333333, "is_reserved": 0, "lon": -77.04821583333333, "fusion_lon": 0.0, "is_disabled": 0, "fusion_lat": 0.0, "bike_id": "d98def1fb46ea37f625e79440ee96a59", "rental_uris": {"ios": "https://dc.lft.to/lastmile_qr_scan", "android": "https://dc.lft.to/lastmile_qr_scan"}}, {"name": "7cd1942ef80f9475894d84f58ca2ea91", "type": "electric_scooter", "lat": 38.899013333333336, "is_reserved": 0, "lon": -77.03932866666666, "fusion_lon": 0.0, "is_disabled": 0, "fusion_lat": 0.0, "bike_id": "7cd1942ef80f9475894d84f58ca2ea91", "rental_uris": {"ios": "https://dc.lft.to/lastmile_qr_scan", "android": "https://dc.lft.to/lastmile_qr_scan"}}, {"name": "aee59127ec5e3c2e2a11ba7fb6505042", "type": "electric_scooter", "lat": 38.902658, "is_reserved": 0, "lon": -77.05312883333333, "fusion_lon": 0.0, "is_disabled": 0, "fusion_lat": 0.0, "bike_id": "aee59127ec5e3c2e2a11ba7fb6505042", "rental_uris": {"ios": "https://dc.lft.to/lastmile_qr_scan", "android": "https://dc.lft.to/lastmile_qr_scan"}}, {"name": "cc1f16c094145ad6b1f6eba0bfee7b00", "type": "electric_scooter", "lat": 38.91691216666667, "is_reserved": 0, "lon": -77.03478133333333, "fusion_lon": 0.0, "is_disabled": 0, "fusion_lat": 0.0, "bike_id": "cc1f16c094145ad6b1f6eba0bfee7b00", "rental_uris": {"ios": "https://dc.lft.to/lastmile_qr_scan", "android": "https://dc.lft.to/lastmile_qr_scan"}}, {"name": "646825c76caf050336f4d69794ac99ec", "type": "electric_scooter", "lat": 38.91561383333333, "is_reserved": 0, "lon": -77.03181483333333, "fusion_lon": 0.0, "is_disabled": 0, "fusion_lat": 0.0, "bike_id": "646825c76caf050336f4d69794ac99ec", "rental_uris": {"ios": "https://dc.lft.to/lastmile_qr_scan", "android": "https://dc.lft.to/lastmile_qr_scan"}}, {"name": "f87ec6541858292137a282cccf13aaa4", "type": "electric_scooter", "lat": 38.90292266666667, "is_reserved": 0, "lon": -76.998563, "fusion_lon": 0.0, "is_disabled": 0, "fusion_lat": 0.0, "bike_id": "f87ec6541858292137a282cccf13aaa4", "rental_uris": {"ios": "https://dc.lft.to/lastmile_qr_scan", "android": "https://dc.lft.to/lastmile_qr_scan"}}, {"name": "0134fecf2ca7435e895a06595a875879", "type": "electric_scooter", "lat": 38.919091333333334, "is_reserved": 0, "lon": -77.0134885, "fusion_lon": 0.0, "is_disabled": 0, "fusion_lat": 0.0, "bike_id": "0134fecf2ca7435e895a06595a875879", "rental_uris": {"ios": "https://dc.lft.to/lastmile_qr_scan", "android": "https://dc.lft.to/lastmile_qr_scan"}}, {"name": "5398b7f05d7a016df8eeff607f15831f", "type": "electric_scooter", "lat": 38.932941, "is_reserved": 0, "lon": -77.030845, "fusion_lon": 0.0, "is_disabled": 0, "fusion_lat": 0.0, "bike_id": "5398b7f05d7a016df8eeff607f15831f", "rental_uris": {"ios": "https://dc.lft.to/lastmile_qr_scan", "android": "https://dc.lft.to/lastmile_qr_scan"}}, {"name": "c6cb4380fe0dd4b8cd5264ce2d75763e", "type": "electric_scooter", "lat": 38.856069833333336, "is_reserved": 0, "lon": -76.98020516666666, "fusion_lon": 0.0, "is_disabled": 0, "fusion_lat": 0.0, "bike_id": "c6cb4380fe0dd4b8cd5264ce2d75763e", "rental_uris": {"ios": "https://dc.lft.to/lastmile_qr_scan", "android": "https://dc.lft.to/lastmile_qr_scan"}}, {"name": "1ce14f32fb0bc424fa71775bc18d6787", "type": "electric_scooter", "lat": 38.87628383333333, "is_reserved": 0, "lon": -76.96527966666666, "fusion_lon": 0.0, "is_disabled": 0, "fusion_lat": 0.0, "bike_id": "1ce14f32fb0bc424fa71775bc18d6787", "rental_uris": {"ios": "https://dc.lft.to/lastmile_qr_scan", "android": "https://dc.lft.to/lastmile_qr_scan"}}, {"name": "55649999fa3a043266237970634935ae", "type": "electric_scooter", "lat": 38.8958265, "is_reserved": 0, "lon": -76.93720183333333, "fusion_lon": 0.0, "is_disabled": 0, "fusion_lat": 0.0, "bike_id": "55649999fa3a043266237970634935ae", "rental_uris": {"ios": "https://dc.lft.to/lastmile_qr_scan", "android": "https://dc.lft.to/lastmile_qr_scan"}}, {"name": "65024c5292e23914baee2fd1ce5eff74", "type": "electric_scooter", "lat": 38.8429275, "is_reserved": 0, "lon": -76.99947183333333, "fusion_lon": 0.0, "is_disabled": 0, "fusion_lat": 0.0, "bike_id": "65024c5292e23914baee2fd1ce5eff74", "rental_uris": {"ios": "https://dc.lft.to/lastmile_qr_scan", "android": "https://dc.lft.to/lastmile_qr_scan"}}, {"name": "d02f1858e74aed182b7dfa2bc9e4ddc0", "type": "electric_scooter", "lat": 38.917082666666666, "is_reserved": 0, "lon": -77.03674133333334, "fusion_lon": 0.0, "is_disabled": 0, "fusion_lat": 0.0, "bike_id": "d02f1858e74aed182b7dfa2bc9e4ddc0", "rental_uris": {"ios": "https://dc.lft.to/lastmile_qr_scan", "android": "https://dc.lft.to/lastmile_qr_scan"}}, {"name": "3e3a6d681429d77a991f9cf6aadd6804", "type": "electric_scooter", "lat": 38.89488333333333, "is_reserved": 0, "lon": -77.02135666666666, "fusion_lon": 0.0, "is_disabled": 0, "fusion_lat": 0.0, "bike_id": "3e3a6d681429d77a991f9cf6aadd6804", "rental_uris": {"ios": "https://dc.lft.to/lastmile_qr_scan", "android": "https://dc.lft.to/lastmile_qr_scan"}}, {"name": "bfe78125defac30e70f7cc9a59273149", "type": "electric_scooter", "lat": 38.90449433333333, "is_reserved": 0, "lon": -76.99621966666666, "fusion_lon": 0.0, "is_disabled": 0, "fusion_lat": 0.0, "bike_id": "bfe78125defac30e70f7cc9a59273149", "rental_uris": {"ios": "https://dc.lft.to/lastmile_qr_scan", "android": "https://dc.lft.to/lastmile_qr_scan"}}, {"name": "a2888b8d823c14244c4d5f64086d29f9", "type": "electric_scooter", "lat": 38.87833283333333, "is_reserved": 0, "lon": -76.9904545, "fusion_lon": 0.0, "is_disabled": 0, "fusion_lat": 0.0, "bike_id": "a2888b8d823c14244c4d5f64086d29f9", "rental_uris": {"ios": "https://dc.lft.to/lastmile_qr_scan", "android": "https://dc.lft.to/lastmile_qr_scan"}}, {"name": "1234afea20e75ba3044384b79ee55961", "type": "electric_bike", "lat": 38.87420133333333, "is_reserved": 0, "lon": -77.08571233333333, "fusion_lon": 0.0, "is_disabled": 0, "fusion_lat": 0.0, "bike_id": "1234afea20e75ba3044384b79ee55961", "rental_uris": {"ios": "https://dc.lft.to/lastmile_qr_scan", "android": "https://dc.lft.to/lastmile_qr_scan"}}, {"name": "33eb47715ef744b79fd615a4236529d0", "type": "electric_scooter", "lat": 38.905647333333334, "is_reserved": 0, "lon": -77.00583416666667, "fusion_lon": 0.0, "is_disabled": 0, "fusion_lat": 0.0, "bike_id": "33eb47715ef744b79fd615a4236529d0", "rental_uris": {"ios": "https://dc.lft.to/lastmile_qr_scan", "android": "https://dc.lft.to/lastmile_qr_scan"}}, {"name": "c2e41e625d0096feaea0f2d55ab19acf", "type": "electric_scooter", "lat": 38.93085, "is_reserved": 0, "lon": -77.02511833333334, "fusion_lon": 0.0, "is_disabled": 0, "fusion_lat": 0.0, "bike_id": "c2e41e625d0096feaea0f2d55ab19acf", "rental_uris": {"ios": "https://dc.lft.to/lastmile_qr_scan", "android": "https://dc.lft.to/lastmile_qr_scan"}}, {"name": "bc72e20ebbd5bfc9ff02e8b24d51ae2b", "type": "electric_scooter", "lat": 38.903685833333334, "is_reserved": 0, "lon": -77.0402385, "fusion_lon": 0.0, "is_disabled": 0, "fusion_lat": 0.0, "bike_id": "bc72e20ebbd5bfc9ff02e8b24d51ae2b", "rental_uris": {"ios": "https://dc.lft.to/lastmile_qr_scan", "android": "https://dc.lft.to/lastmile_qr_scan"}}, {"name": "cfbc364bcff672f15436f1832e521f3d", "type": "electric_scooter", "lat": 38.9401465, "is_reserved": 0, "lon": -77.07172983333334, "fusion_lon": 0.0, "is_disabled": 0, "fusion_lat": 0.0, "bike_id": "cfbc364bcff672f15436f1832e521f3d", "rental_uris": {"ios": "https://dc.lft.to/lastmile_qr_scan", "android": "https://dc.lft.to/lastmile_qr_scan"}}, {"name": "a514be770db078901b286bcc2bc5eb6c", "type": "electric_scooter", "lat": 38.9156185, "is_reserved": 0, "lon": -77.03768433333333, "fusion_lon": 0.0, "is_disabled": 0, "fusion_lat": 0.0, "bike_id": "a514be770db078901b286bcc2bc5eb6c", "rental_uris": {"ios": "https://dc.lft.to/lastmile_qr_scan", "android": "https://dc.lft.to/lastmile_qr_scan"}}, {"name": "e7f7fa3d7a6ca09b5016ee12718abc47", "type": "electric_scooter", "lat": 38.915923, "is_reserved": 0, "lon": -77.04363916666667, "fusion_lon": 0.0, "is_disabled": 0, "fusion_lat": 0.0, "bike_id": "e7f7fa3d7a6ca09b5016ee12718abc47", "rental_uris": {"ios": "https://dc.lft.to/lastmile_qr_scan", "android": "https://dc.lft.to/lastmile_qr_scan"}}, {"name": "dc61d651876c59af769f641b14666f39", "type": "electric_scooter", "lat": 38.90721116666667, "is_reserved": 0, "lon": -76.98599366666667, "fusion_lon": 0.0, "is_disabled": 0, "fusion_lat": 0.0, "bike_id": "dc61d651876c59af769f641b14666f39", "rental_uris": {"ios": "https://dc.lft.to/lastmile_qr_scan", "android": "https://dc.lft.to/lastmile_qr_scan"}}, {"name": "0783d604fd1a62785ee5fef25f376fdf", "type": "electric_scooter", "lat": 38.9448335, "is_reserved": 0, "lon": -77.063797, "fusion_lon": 0.0, "is_disabled": 0, "fusion_lat": 0.0, "bike_id": "0783d604fd1a62785ee5fef25f376fdf", "rental_uris": {"ios": "https://dc.lft.to/lastmile_qr_scan", "android": "https://dc.lft.to/lastmile_qr_scan"}}, {"name": "ccacf316589d049fc5424c1ae5512c2f", "type": "electric_scooter", "lat": 38.90624666666667, "is_reserved": 0, "lon": -77.0398945, "fusion_lon": 0.0, "is_disabled": 0, "fusion_lat": 0.0, "bike_id": "ccacf316589d049fc5424c1ae5512c2f", "rental_uris": {"ios": "https://dc.lft.to/lastmile_qr_scan", "android": "https://dc.lft.to/lastmile_qr_scan"}}, {"name": "b03ba0253333a83b53b6e849df7fc334", "type": "electric_scooter", "lat": 38.903632333333334, "is_reserved": 0, "lon": -77.04481433333333, "fusion_lon": 0.0, "is_disabled": 0, "fusion_lat": 0.0, "bike_id": "b03ba0253333a83b53b6e849df7fc334", "rental_uris": {"ios": "https://dc.lft.to/lastmile_qr_scan", "android": "https://dc.lft.to/lastmile_qr_scan"}}, {"name": "facb87b3326877c7da26d17420b2a894", "type": "electric_scooter", "lat": 38.9510305, "is_reserved": 0, "lon": -77.01580066666666, "fusion_lon": 0.0, "is_disabled": 0, "fusion_lat": 0.0, "bike_id": "facb87b3326877c7da26d17420b2a894", "rental_uris": {"ios": "https://dc.lft.to/lastmile_qr_scan", "android": "https://dc.lft.to/lastmile_qr_scan"}}, {"name": "5e43173310bf2d8d0bbf7948de372745", "type": "electric_scooter", "lat": 38.916959166666665, "is_reserved": 0, "lon": -77.00810533333333, "fusion_lon": 0.0, "is_disabled": 0, "fusion_lat": 0.0, "bike_id": "5e43173310bf2d8d0bbf7948de372745", "rental_uris": {"ios": "https://dc.lft.to/lastmile_qr_scan", "android": "https://dc.lft.to/lastmile_qr_scan"}}, {"name": "89ee70fc7d8a857e36f38763822987f4", "type": "electric_scooter", "lat": 38.9180115, "is_reserved": 0, "lon": -77.02496483333333, "fusion_lon": 0.0, "is_disabled": 0, "fusion_lat": 0.0, "bike_id": "89ee70fc7d8a857e36f38763822987f4", "rental_uris": {"ios": "https://dc.lft.to/lastmile_qr_scan", "android": "https://dc.lft.to/lastmile_qr_scan"}}, {"name": "30bf1d9282aeacb4402410d9c592c5d2", "type": "electric_scooter", "lat": 38.90195116666666, "is_reserved": 0, "lon": -77.02201866666667, "fusion_lon": 0.0, "is_disabled": 0, "fusion_lat": 0.0, "bike_id": "30bf1d9282aeacb4402410d9c592c5d2", "rental_uris": {"ios": "https://dc.lft.to/lastmile_qr_scan", "android": "https://dc.lft.to/lastmile_qr_scan"}}, {"name": "fc49e6681b1e3592607aab1d9aafa9bd", "type": "electric_scooter", "lat": 38.88671516666667, "is_reserved": 0, "lon": -77.01366533333334, "fusion_lon": 0.0, "is_disabled": 0, "fusion_lat": 0.0, "bike_id": "fc49e6681b1e3592607aab1d9aafa9bd", "rental_uris": {"ios": "https://dc.lft.to/lastmile_qr_scan", "android": "https://dc.lft.to/lastmile_qr_scan"}}, {"name": "9b89dcd25f3d2b96c48e4db88ebf7cb5", "type": "electric_scooter", "lat": 38.906595, "is_reserved": 0, "lon": -77.0099295, "fusion_lon": 0.0, "is_disabled": 0, "fusion_lat": 0.0, "bike_id": "9b89dcd25f3d2b96c48e4db88ebf7cb5", "rental_uris": {"ios": "https://dc.lft.to/lastmile_qr_scan", "android": "https://dc.lft.to/lastmile_qr_scan"}}, {"name": "6f92194ed502c3e9fb5c1f6da26a2556", "type": "electric_scooter", "lat": 38.927462166666665, "is_reserved": 0, "lon": -77.05382166666666, "fusion_lon": 0.0, "is_disabled": 0, "fusion_lat": 0.0, "bike_id": "6f92194ed502c3e9fb5c1f6da26a2556", "rental_uris": {"ios": "https://dc.lft.to/lastmile_qr_scan", "android": "https://dc.lft.to/lastmile_qr_scan"}}, {"name": "e49b7161cfb88eab7b994bd9c2d897eb", "type": "electric_scooter", "lat": 38.902902, "is_reserved": 0, "lon": -77.0386765, "fusion_lon": 0.0, "is_disabled": 0, "fusion_lat": 0.0, "bike_id": "e49b7161cfb88eab7b994bd9c2d897eb", "rental_uris": {"ios": "https://dc.lft.to/lastmile_qr_scan", "android": "https://dc.lft.to/lastmile_qr_scan"}}, {"name": "9c10fba437954e0054632793f501f0c0", "type": "electric_scooter", "lat": 38.93512666666667, "is_reserved": 0, "lon": -77.03295566666667, "fusion_lon": 0.0, "is_disabled": 0, "fusion_lat": 0.0, "bike_id": "9c10fba437954e0054632793f501f0c0", "rental_uris": {"ios": "https://dc.lft.to/lastmile_qr_scan", "android": "https://dc.lft.to/lastmile_qr_scan"}}, {"name": "642a78f872985150cba945d7a3bef4db", "type": "electric_scooter", "lat": 38.92416883333333, "is_reserved": 0, "lon": -77.01948883333333, "fusion_lon": 0.0, "is_disabled": 0, "fusion_lat": 0.0, "bike_id": "642a78f872985150cba945d7a3bef4db", "rental_uris": {"ios": "https://dc.lft.to/lastmile_qr_scan", "android": "https://dc.lft.to/lastmile_qr_scan"}}, {"name": "7b0aef05d6aafabe1c575e190a4962c0", "type": "electric_scooter", "lat": 38.912702333333336, "is_reserved": 0, "lon": -77.02966783333333, "fusion_lon": 0.0, "is_disabled": 0, "fusion_lat": 0.0, "bike_id": "7b0aef05d6aafabe1c575e190a4962c0", "rental_uris": {"ios": "https://dc.lft.to/lastmile_qr_scan", "android": "https://dc.lft.to/lastmile_qr_scan"}}, {"name": "f54c5f4835aa2a61e496e4a2b28279d8", "type": "electric_scooter", "lat": 38.90273333333333, "is_reserved": 0, "lon": -77.0345905, "fusion_lon": 0.0, "is_disabled": 0, "fusion_lat": 0.0, "bike_id": "f54c5f4835aa2a61e496e4a2b28279d8", "rental_uris": {"ios": "https://dc.lft.to/lastmile_qr_scan", "android": "https://dc.lft.to/lastmile_qr_scan"}}, {"name": "f8cbe690a78cd59a8c0d9d05ee13dae7", "type": "electric_scooter", "lat": 38.9751555, "is_reserved": 0, "lon": -77.0174795, "fusion_lon": 0.0, "is_disabled": 0, "fusion_lat": 0.0, "bike_id": "f8cbe690a78cd59a8c0d9d05ee13dae7", "rental_uris": {"ios": "https://dc.lft.to/lastmile_qr_scan", "android": "https://dc.lft.to/lastmile_qr_scan"}}, {"name": "52789fa3f306b4d70684b187333b145d", "type": "electric_scooter", "lat": 38.84291233333333, "is_reserved": 0, "lon": -76.99944983333333, "fusion_lon": 0.0, "is_disabled": 0, "fusion_lat": 0.0, "bike_id": "52789fa3f306b4d70684b187333b145d", "rental_uris": {"ios": "https://dc.lft.to/lastmile_qr_scan", "android": "https://dc.lft.to/lastmile_qr_scan"}}, {"name": "f4cfefbd282e36a3090c41a6ae5f8118", "type": "electric_scooter", "lat": 38.905235166666664, "is_reserved": 0, "lon": -77.0638075, "fusion_lon": 0.0, "is_disabled": 0, "fusion_lat": 0.0, "bike_id": "f4cfefbd282e36a3090c41a6ae5f8118", "rental_uris": {"ios": "https://dc.lft.to/lastmile_qr_scan", "android": "https://dc.lft.to/lastmile_qr_scan"}}, {"name": "b524f18481c9f4e8c8b7804c9e5c473d", "type": "electric_scooter", "lat": 38.89942933333333, "is_reserved": 0, "lon": -77.02995916666667, "fusion_lon": 0.0, "is_disabled": 0, "fusion_lat": 0.0, "bike_id": "b524f18481c9f4e8c8b7804c9e5c473d", "rental_uris": {"ios": "https://dc.lft.to/lastmile_qr_scan", "android": "https://dc.lft.to/lastmile_qr_scan"}}, {"name": "fba7f72b533b20dabf97bde15f7ab2ca", "type": "electric_scooter", "lat": 38.9047535, "is_reserved": 0, "lon": -77.04183666666667, "fusion_lon": 0.0, "is_disabled": 0, "fusion_lat": 0.0, "bike_id": "fba7f72b533b20dabf97bde15f7ab2ca", "rental_uris": {"ios": "https://dc.lft.to/lastmile_qr_scan", "android": "https://dc.lft.to/lastmile_qr_scan"}}, {"name": "62309735d91d508f6ecc0e3faf4dac69", "type": "electric_scooter", "lat": 38.90121216666667, "is_reserved": 0, "lon": -77.05002583333334, "fusion_lon": 0.0, "is_disabled": 0, "fusion_lat": 0.0, "bike_id": "62309735d91d508f6ecc0e3faf4dac69", "rental_uris": {"ios": "https://dc.lft.to/lastmile_qr_scan", "android": "https://dc.lft.to/lastmile_qr_scan"}}, {"name": "75dcedb193fb5247ea7da45935b3c62c", "type": "electric_bike", "lat": 38.852435, "is_reserved": 0, "lon": -77.1142795, "fusion_lon": 0.0, "is_disabled": 0, "fusion_lat": 0.0, "bike_id": "75dcedb193fb5247ea7da45935b3c62c", "rental_uris": {"ios": "https://dc.lft.to/lastmile_qr_scan", "android": "https://dc.lft.to/lastmile_qr_scan"}}, {"name": "697ad5787924ccab5559cfd074d3f0a2", "type": "electric_scooter", "lat": 38.88377966666667, "is_reserved": 0, "lon": -77.01965316666667, "fusion_lon": 0.0, "is_disabled": 0, "fusion_lat": 0.0, "bike_id": "697ad5787924ccab5559cfd074d3f0a2", "rental_uris": {"ios": "https://dc.lft.to/lastmile_qr_scan", "android": "https://dc.lft.to/lastmile_qr_scan"}}, {"name": "da98557888fbbd9476f66dbee22fa713", "type": "electric_scooter", "lat": 38.905080833333336, "is_reserved": 0, "lon": -77.05324133333333, "fusion_lon": 0.0, "is_disabled": 0, "fusion_lat": 0.0, "bike_id": "da98557888fbbd9476f66dbee22fa713", "rental_uris": {"ios": "https://dc.lft.to/lastmile_qr_scan", "android": "https://dc.lft.to/lastmile_qr_scan"}}, {"name": "ee1b83dae359ce1f4c0f00e82bc3b480", "type": "electric_scooter", "lat": 38.89849516666666, "is_reserved": 0, "lon": -77.02765, "fusion_lon": 0.0, "is_disabled": 0, "fusion_lat": 0.0, "bike_id": "ee1b83dae359ce1f4c0f00e82bc3b480", "rental_uris": {"ios": "https://dc.lft.to/lastmile_qr_scan", "android": "https://dc.lft.to/lastmile_qr_scan"}}, {"name": "75d00e29a4d2ad1d28721d496665e4bc", "type": "electric_scooter", "lat": 38.941767166666665, "is_reserved": 0, "lon": -77.03656133333334, "fusion_lon": 0.0, "is_disabled": 0, "fusion_lat": 0.0, "bike_id": "75d00e29a4d2ad1d28721d496665e4bc", "rental_uris": {"ios": "https://dc.lft.to/lastmile_qr_scan", "android": "https://dc.lft.to/lastmile_qr_scan"}}, {"name": "fa469882831223d2218dd44ee957e1d6", "type": "electric_scooter", "lat": 38.907222166666664, "is_reserved": 0, "lon": -77.0433755, "fusion_lon": 0.0, "is_disabled": 0, "fusion_lat": 0.0, "bike_id": "fa469882831223d2218dd44ee957e1d6", "rental_uris": {"ios": "https://dc.lft.to/lastmile_qr_scan", "android": "https://dc.lft.to/lastmile_qr_scan"}}, {"name": "0ec391b52df04840dea1912812d34df6", "type": "electric_scooter", "lat": 38.913274, "is_reserved": 0, "lon": -77.04813233333333, "fusion_lon": 0.0, "is_disabled": 0, "fusion_lat": 0.0, "bike_id": "0ec391b52df04840dea1912812d34df6", "rental_uris": {"ios": "https://dc.lft.to/lastmile_qr_scan", "android": "https://dc.lft.to/lastmile_qr_scan"}}, {"name": "76353bbad3a661a8e08a07b5d4437c57", "type": "electric_scooter", "lat": 38.894688, "is_reserved": 0, "lon": -76.9856385, "fusion_lon": 0.0, "is_disabled": 0, "fusion_lat": 0.0, "bike_id": "76353bbad3a661a8e08a07b5d4437c57", "rental_uris": {"ios": "https://dc.lft.to/lastmile_qr_scan", "android": "https://dc.lft.to/lastmile_qr_scan"}}, {"name": "dfb32cbce9cbd152278d38fb66555757", "type": "electric_bike", "lat": 38.89521516666667, "is_reserved": 0, "lon": -77.02730383333333, "fusion_lon": 0.0, "is_disabled": 0, "fusion_lat": 0.0, "bike_id": "dfb32cbce9cbd152278d38fb66555757", "rental_uris": {"ios": "https://dc.lft.to/lastmile_qr_scan", "android": "https://dc.lft.to/lastmile_qr_scan"}}, {"name": "92455efdf7fc096790dd1bdb37740300", "type": "electric_scooter", "lat": 38.90383416666667, "is_reserved": 0, "lon": -77.04425333333333, "fusion_lon": 0.0, "is_disabled": 0, "fusion_lat": 0.0, "bike_id": "92455efdf7fc096790dd1bdb37740300", "rental_uris": {"ios": "https://dc.lft.to/lastmile_qr_scan", "android": "https://dc.lft.to/lastmile_qr_scan"}}, {"name": "6cb3addb33142798613975e4c7a924b2", "type": "electric_scooter", "lat": 38.900177, "is_reserved": 0, "lon": -77.03302766666667, "fusion_lon": 0.0, "is_disabled": 0, "fusion_lat": 0.0, "bike_id": "6cb3addb33142798613975e4c7a924b2", "rental_uris": {"ios": "https://dc.lft.to/lastmile_qr_scan", "android": "https://dc.lft.to/lastmile_qr_scan"}}, {"name": "795893346c0f086e53cff7c2f11b5b85", "type": "electric_scooter", "lat": 38.88426616666667, "is_reserved": 0, "lon": -76.957573, "fusion_lon": 0.0, "is_disabled": 0, "fusion_lat": 0.0, "bike_id": "795893346c0f086e53cff7c2f11b5b85", "rental_uris": {"ios": "https://dc.lft.to/lastmile_qr_scan", "android": "https://dc.lft.to/lastmile_qr_scan"}}, {"name": "a49a40347a1b0e9b4624a14a0b663b84", "type": "electric_scooter", "lat": 38.92419133333333, "is_reserved": 0, "lon": -77.01948283333333, "fusion_lon": 0.0, "is_disabled": 0, "fusion_lat": 0.0, "bike_id": "a49a40347a1b0e9b4624a14a0b663b84", "rental_uris": {"ios": "https://dc.lft.to/lastmile_qr_scan", "android": "https://dc.lft.to/lastmile_qr_scan"}}, {"name": "1518d13d4b8fdcc0777956f57ea89d17", "type": "electric_scooter", "lat": 38.916697, "is_reserved": 0, "lon": -77.02716383333333, "fusion_lon": 0.0, "is_disabled": 0, "fusion_lat": 0.0, "bike_id": "1518d13d4b8fdcc0777956f57ea89d17", "rental_uris": {"ios": "https://dc.lft.to/lastmile_qr_scan", "android": "https://dc.lft.to/lastmile_qr_scan"}}, {"name": "07ceedeec07addcbd52f4e747d5784d6", "type": "electric_bike", "lat": 38.954756333333336, "is_reserved": 0, "lon": -77.08243733333333, "fusion_lon": 0.0, "is_disabled": 0, "fusion_lat": 0.0, "bike_id": "07ceedeec07addcbd52f4e747d5784d6", "rental_uris": {"ios": "https://dc.lft.to/lastmile_qr_scan", "android": "https://dc.lft.to/lastmile_qr_scan"}}, {"name": "c0e178c79fc3a7d8efdaa58b9a8502d1", "type": "electric_scooter", "lat": 38.920564, "is_reserved": 0, "lon": -77.04256683333334, "fusion_lon": 0.0, "is_disabled": 0, "fusion_lat": 0.0, "bike_id": "c0e178c79fc3a7d8efdaa58b9a8502d1", "rental_uris": {"ios": "https://dc.lft.to/lastmile_qr_scan", "android": "https://dc.lft.to/lastmile_qr_scan"}}, {"name": "66557268c6fb64994eab2b68a3ee02a0", "type": "electric_scooter", "lat": 38.90959016666667, "is_reserved": 0, "lon": -77.039315, "fusion_lon": 0.0, "is_disabled": 0, "fusion_lat": 0.0, "bike_id": "66557268c6fb64994eab2b68a3ee02a0", "rental_uris": {"ios": "https://dc.lft.to/lastmile_qr_scan", "android": "https://dc.lft.to/lastmile_qr_scan"}}, {"name": "62f928cf04e840a3ef83705291c9e2f1", "type": "electric_scooter", "lat": 38.898321, "is_reserved": 0, "lon": -76.94638, "fusion_lon": 0.0, "is_disabled": 0, "fusion_lat": 0.0, "bike_id": "62f928cf04e840a3ef83705291c9e2f1", "rental_uris": {"ios": "https://dc.lft.to/lastmile_qr_scan", "android": "https://dc.lft.to/lastmile_qr_scan"}}, {"name": "ba76e8a3d2e6af79daa83adc3c6bf0fa", "type": "electric_scooter", "lat": 38.922483166666666, "is_reserved": 0, "lon": -77.0352355, "fusion_lon": 0.0, "is_disabled": 0, "fusion_lat": 0.0, "bike_id": "ba76e8a3d2e6af79daa83adc3c6bf0fa", "rental_uris": {"ios": "https://dc.lft.to/lastmile_qr_scan", "android": "https://dc.lft.to/lastmile_qr_scan"}}, {"name": "bf045783be02be92b488d482e21f05ca", "type": "electric_scooter", "lat": 38.86353666666667, "is_reserved": 0, "lon": -76.99067933333333, "fusion_lon": 0.0, "is_disabled": 0, "fusion_lat": 0.0, "bike_id": "bf045783be02be92b488d482e21f05ca", "rental_uris": {"ios": "https://dc.lft.to/lastmile_qr_scan", "android": "https://dc.lft.to/lastmile_qr_scan"}}, {"name": "6859addf44801f2a4008ab1dad0b3041", "type": "electric_scooter", "lat": 38.89476666666667, "is_reserved": 0, "lon": -77.01100216666667, "fusion_lon": 0.0, "is_disabled": 0, "fusion_lat": 0.0, "bike_id": "6859addf44801f2a4008ab1dad0b3041", "rental_uris": {"ios": "https://dc.lft.to/lastmile_qr_scan", "android": "https://dc.lft.to/lastmile_qr_scan"}}, {"name": "c86e41a3a765f85b1c50518c751135f3", "type": "electric_scooter", "lat": 38.90446883333333, "is_reserved": 0, "lon": -77.04899116666667, "fusion_lon": 0.0, "is_disabled": 0, "fusion_lat": 0.0, "bike_id": "c86e41a3a765f85b1c50518c751135f3", "rental_uris": {"ios": "https://dc.lft.to/lastmile_qr_scan", "android": "https://dc.lft.to/lastmile_qr_scan"}}, {"name": "22349d088c73926029651f87ea757e2d", "type": "electric_scooter", "lat": 38.9000735, "is_reserved": 0, "lon": -77.032027, "fusion_lon": 0.0, "is_disabled": 0, "fusion_lat": 0.0, "bike_id": "22349d088c73926029651f87ea757e2d", "rental_uris": {"ios": "https://dc.lft.to/lastmile_qr_scan", "android": "https://dc.lft.to/lastmile_qr_scan"}}, {"name": "c3b8ba842a4d02d752dcd128c25b0080", "type": "electric_scooter", "lat": 38.90504283333333, "is_reserved": 0, "lon": -77.0435825, "fusion_lon": 0.0, "is_disabled": 0, "fusion_lat": 0.0, "bike_id": "c3b8ba842a4d02d752dcd128c25b0080", "rental_uris": {"ios": "https://dc.lft.to/lastmile_qr_scan", "android": "https://dc.lft.to/lastmile_qr_scan"}}, {"name": "f5a0b5acfa653e7ae854d52489739c0d", "type": "electric_scooter", "lat": 38.91325916666667, "is_reserved": 0, "lon": -77.00227183333334, "fusion_lon": 0.0, "is_disabled": 0, "fusion_lat": 0.0, "bike_id": "f5a0b5acfa653e7ae854d52489739c0d", "rental_uris": {"ios": "https://dc.lft.to/lastmile_qr_scan", "android": "https://dc.lft.to/lastmile_qr_scan"}}, {"name": "4d3db0b011cdc297f56451d184e94454", "type": "electric_scooter", "lat": 38.920884, "is_reserved": 0, "lon": -77.02595666666667, "fusion_lon": 0.0, "is_disabled": 0, "fusion_lat": 0.0, "bike_id": "4d3db0b011cdc297f56451d184e94454", "rental_uris": {"ios": "https://dc.lft.to/lastmile_qr_scan", "android": "https://dc.lft.to/lastmile_qr_scan"}}, {"name": "9ec17dda0452baa732a3d6bedf2f4a7c", "type": "electric_scooter", "lat": 38.925943, "is_reserved": 0, "lon": -77.0048455, "fusion_lon": 0.0, "is_disabled": 0, "fusion_lat": 0.0, "bike_id": "9ec17dda0452baa732a3d6bedf2f4a7c", "rental_uris": {"ios": "https://dc.lft.to/lastmile_qr_scan", "android": "https://dc.lft.to/lastmile_qr_scan"}}, {"name": "45d3b18ea0cb2a728cd8938dd9708b06", "type": "electric_scooter", "lat": 38.8971885, "is_reserved": 0, "lon": -77.0272455, "fusion_lon": 0.0, "is_disabled": 0, "fusion_lat": 0.0, "bike_id": "45d3b18ea0cb2a728cd8938dd9708b06", "rental_uris": {"ios": "https://dc.lft.to/lastmile_qr_scan", "android": "https://dc.lft.to/lastmile_qr_scan"}}, {"name": "e0ad9e11237a4b3345d64761a410af5d", "type": "electric_scooter", "lat": 38.90373833333334, "is_reserved": 0, "lon": -77.00742966666667, "fusion_lon": 0.0, "is_disabled": 0, "fusion_lat": 0.0, "bike_id": "e0ad9e11237a4b3345d64761a410af5d", "rental_uris": {"ios": "https://dc.lft.to/lastmile_qr_scan", "android": "https://dc.lft.to/lastmile_qr_scan"}}, {"name": "cd8beff963265790059a9f7e63f8de32", "type": "electric_scooter", "lat": 38.92836033333333, "is_reserved": 0, "lon": -77.05441916666666, "fusion_lon": 0.0, "is_disabled": 0, "fusion_lat": 0.0, "bike_id": "cd8beff963265790059a9f7e63f8de32", "rental_uris": {"ios": "https://dc.lft.to/lastmile_qr_scan", "android": "https://dc.lft.to/lastmile_qr_scan"}}, {"name": "17540a975bd5ddc7296395439cc9c288", "type": "electric_scooter", "lat": 38.891322333333335, "is_reserved": 0, "lon": -77.003415, "fusion_lon": 0.0, "is_disabled": 0, "fusion_lat": 0.0, "bike_id": "17540a975bd5ddc7296395439cc9c288", "rental_uris": {"ios": "https://dc.lft.to/lastmile_qr_scan", "android": "https://dc.lft.to/lastmile_qr_scan"}}, {"name": "6271ede6c5b5ee023afd6f08a846e7f0", "type": "electric_scooter", "lat": 38.891936666666666, "is_reserved": 0, "lon": -77.015538, "fusion_lon": 0.0, "is_disabled": 0, "fusion_lat": 0.0, "bike_id": "6271ede6c5b5ee023afd6f08a846e7f0", "rental_uris": {"ios": "https://dc.lft.to/lastmile_qr_scan", "android": "https://dc.lft.to/lastmile_qr_scan"}}, {"name": "0f2a7751b42eb5f7b74b17d94617bb17", "type": "electric_scooter", "lat": 38.90286966666667, "is_reserved": 0, "lon": -77.01815216666667, "fusion_lon": 0.0, "is_disabled": 0, "fusion_lat": 0.0, "bike_id": "0f2a7751b42eb5f7b74b17d94617bb17", "rental_uris": {"ios": "https://dc.lft.to/lastmile_qr_scan", "android": "https://dc.lft.to/lastmile_qr_scan"}}, {"name": "b48650489807c0a2e79eb2e54d00ba94", "type": "electric_scooter", "lat": 38.9082795, "is_reserved": 0, "lon": -76.99700016666667, "fusion_lon": 0.0, "is_disabled": 0, "fusion_lat": 0.0, "bike_id": "b48650489807c0a2e79eb2e54d00ba94", "rental_uris": {"ios": "https://dc.lft.to/lastmile_qr_scan", "android": "https://dc.lft.to/lastmile_qr_scan"}}, {"name": "3ce52fedb1378dcffcd78c55a5afc855", "type": "electric_scooter", "lat": 38.8957175, "is_reserved": 0, "lon": -77.02584916666666, "fusion_lon": 0.0, "is_disabled": 0, "fusion_lat": 0.0, "bike_id": "3ce52fedb1378dcffcd78c55a5afc855", "rental_uris": {"ios": "https://dc.lft.to/lastmile_qr_scan", "android": "https://dc.lft.to/lastmile_qr_scan"}}, {"name": "f5ba5cf1439f7c065d2d02a784c72f69", "type": "electric_scooter", "lat": 38.90368483333334, "is_reserved": 0, "lon": -77.0416285, "fusion_lon": 0.0, "is_disabled": 0, "fusion_lat": 0.0, "bike_id": "f5ba5cf1439f7c065d2d02a784c72f69", "rental_uris": {"ios": "https://dc.lft.to/lastmile_qr_scan", "android": "https://dc.lft.to/lastmile_qr_scan"}}, {"name": "9ca19e693671f76b44245b05b4bb7d2b", "type": "electric_scooter", "lat": 38.90277016666667, "is_reserved": 0, "lon": -77.03322333333334, "fusion_lon": 0.0, "is_disabled": 0, "fusion_lat": 0.0, "bike_id": "9ca19e693671f76b44245b05b4bb7d2b", "rental_uris": {"ios": "https://dc.lft.to/lastmile_qr_scan", "android": "https://dc.lft.to/lastmile_qr_scan"}}, {"name": "6907cad9781e99565209c4ced374649c", "type": "electric_scooter", "lat": 38.87995316666667, "is_reserved": 0, "lon": -76.98545616666667, "fusion_lon": 0.0, "is_disabled": 0, "fusion_lat": 0.0, "bike_id": "6907cad9781e99565209c4ced374649c", "rental_uris": {"ios": "https://dc.lft.to/lastmile_qr_scan", "android": "https://dc.lft.to/lastmile_qr_scan"}}, {"name": "cca00e0787b963e80988d17c2ee5e111", "type": "electric_bike", "lat": 39.03047183333333, "is_reserved": 0, "lon": -77.09485816666667, "fusion_lon": 0.0, "is_disabled": 0, "fusion_lat": 0.0, "bike_id": "cca00e0787b963e80988d17c2ee5e111", "rental_uris": {"ios": "https://dc.lft.to/lastmile_qr_scan", "android": "https://dc.lft.to/lastmile_qr_scan"}}, {"name": "52c95647fe481d1f003fffd360bb9b15", "type": "electric_scooter", "lat": 38.884237666666664, "is_reserved": 0, "lon": -76.99598666666667, "fusion_lon": 0.0, "is_disabled": 0, "fusion_lat": 0.0, "bike_id": "52c95647fe481d1f003fffd360bb9b15", "rental_uris": {"ios": "https://dc.lft.to/lastmile_qr_scan", "android": "https://dc.lft.to/lastmile_qr_scan"}}, {"name": "ff4b8d62c756455954a4b4ed6a05ad7d", "type": "electric_bike", "lat": 38.928538833333334, "is_reserved": 0, "lon": -77.22217183333333, "fusion_lon": 0.0, "is_disabled": 0, "fusion_lat": 0.0, "bike_id": "ff4b8d62c756455954a4b4ed6a05ad7d", "rental_uris": {"ios": "https://dc.lft.to/lastmile_qr_scan", "android": "https://dc.lft.to/lastmile_qr_scan"}}, {"name": "3d1c4c4f923a23e328c917f4e09d5469", "type": "electric_scooter", "lat": 38.93541183333333, "is_reserved": 0, "lon": -77.03418966666666, "fusion_lon": 0.0, "is_disabled": 0, "fusion_lat": 0.0, "bike_id": "3d1c4c4f923a23e328c917f4e09d5469", "rental_uris": {"ios": "https://dc.lft.to/lastmile_qr_scan", "android": "https://dc.lft.to/lastmile_qr_scan"}}, {"name": "ca12af23854e6d3c3c1dfb4ec7f95a39", "type": "electric_scooter", "lat": 38.86534283333334, "is_reserved": 0, "lon": -76.9870335, "fusion_lon": 0.0, "is_disabled": 0, "fusion_lat": 0.0, "bike_id": "ca12af23854e6d3c3c1dfb4ec7f95a39", "rental_uris": {"ios": "https://dc.lft.to/lastmile_qr_scan", "android": "https://dc.lft.to/lastmile_qr_scan"}}, {"name": "7690a71f5e8ffb312a3e79197fbd6f11", "type": "electric_bike", "lat": 38.938809666666664, "is_reserved": 0, "lon": -76.95411316666667, "fusion_lon": 0.0, "is_disabled": 0, "fusion_lat": 0.0, "bike_id": "7690a71f5e8ffb312a3e79197fbd6f11", "rental_uris": {"ios": "https://dc.lft.to/lastmile_qr_scan", "android": "https://dc.lft.to/lastmile_qr_scan"}}, {"name": "746e4f2ab305fcfe1eeeaf20a75e478d", "type": "electric_bike", "lat": 39.08855283333333, "is_reserved": 0, "lon": -77.178474, "fusion_lon": 0.0, "is_disabled": 0, "fusion_lat": 0.0, "bike_id": "746e4f2ab305fcfe1eeeaf20a75e478d", "rental_uris": {"ios": "https://dc.lft.to/lastmile_qr_scan", "android": "https://dc.lft.to/lastmile_qr_scan"}}, {"name": "8c4c3ed8948fca1f9c82cd8d24b9b131", "type": "electric_bike", "lat": 38.953345, "is_reserved": 0, "lon": -77.00960466666666, "fusion_lon": 0.0, "is_disabled": 0, "fusion_lat": 0.0, "bike_id": "8c4c3ed8948fca1f9c82cd8d24b9b131", "rental_uris": {"ios": "https://dc.lft.to/lastmile_qr_scan", "android": "https://dc.lft.to/lastmile_qr_scan"}}, {"name": "35df883a09c653242fb8ca2633aee9c0", "type": "electric_scooter", "lat": 38.957460833333336, "is_reserved": 0, "lon": -77.02419283333333, "fusion_lon": 0.0, "is_disabled": 0, "fusion_lat": 0.0, "bike_id": "35df883a09c653242fb8ca2633aee9c0", "rental_uris": {"ios": "https://dc.lft.to/lastmile_qr_scan", "android": "https://dc.lft.to/lastmile_qr_scan"}}, {"name": "d528a3cd94fcce655eac4a8aa5f3e38d", "type": "electric_scooter", "lat": 38.9072435, "is_reserved": 0, "lon": -77.04349283333333, "fusion_lon": 0.0, "is_disabled": 0, "fusion_lat": 0.0, "bike_id": "d528a3cd94fcce655eac4a8aa5f3e38d", "rental_uris": {"ios": "https://dc.lft.to/lastmile_qr_scan", "android": "https://dc.lft.to/lastmile_qr_scan"}}, {"name": "5335061cb060603e150ffbe22ab418f5", "type": "electric_bike", "lat": 38.9207865, "is_reserved": 0, "lon": -77.0109525, "fusion_lon": 0.0, "is_disabled": 0, "fusion_lat": 0.0, "bike_id": "5335061cb060603e150ffbe22ab418f5", "rental_uris": {"ios": "https://dc.lft.to/lastmile_qr_scan", "android": "https://dc.lft.to/lastmile_qr_scan"}}, {"name": "6df84a707b81ad7e76f3fc2c750e3a8b", "type": "electric_scooter", "lat": 38.956468, "is_reserved": 0, "lon": -77.0329205, "fusion_lon": 0.0, "is_disabled": 0, "fusion_lat": 0.0, "bike_id": "6df84a707b81ad7e76f3fc2c750e3a8b", "rental_uris": {"ios": "https://dc.lft.to/lastmile_qr_scan", "android": "https://dc.lft.to/lastmile_qr_scan"}}, {"name": "17e8526dfc712bf278cf85d0ac250a57", "type": "electric_scooter", "lat": 38.90660833333333, "is_reserved": 0, "lon": -77.05134783333334, "fusion_lon": 0.0, "is_disabled": 0, "fusion_lat": 0.0, "bike_id": "17e8526dfc712bf278cf85d0ac250a57", "rental_uris": {"ios": "https://dc.lft.to/lastmile_qr_scan", "android": "https://dc.lft.to/lastmile_qr_scan"}}, {"name": "cc1f74cac58291ae94f8425502a7aa1b", "type": "electric_scooter", "lat": 38.90264166666667, "is_reserved": 0, "lon": -77.0176265, "fusion_lon": 0.0, "is_disabled": 0, "fusion_lat": 0.0, "bike_id": "cc1f74cac58291ae94f8425502a7aa1b", "rental_uris": {"ios": "https://dc.lft.to/lastmile_qr_scan", "android": "https://dc.lft.to/lastmile_qr_scan"}}, {"name": "1def4eb13bef7420562588a8e45aa1ef", "type": "electric_scooter", "lat": 38.90255416666667, "is_reserved": 0, "lon": -77.03140416666666, "fusion_lon": 0.0, "is_disabled": 0, "fusion_lat": 0.0, "bike_id": "1def4eb13bef7420562588a8e45aa1ef", "rental_uris": {"ios": "https://dc.lft.to/lastmile_qr_scan", "android": "https://dc.lft.to/lastmile_qr_scan"}}, {"name": "a34e6f24f1bce649bbad41d6a0e6677e", "type": "electric_scooter", "lat": 38.8922015, "is_reserved": 0, "lon": -77.042623, "fusion_lon": 0.0, "is_disabled": 0, "fusion_lat": 0.0, "bike_id": "a34e6f24f1bce649bbad41d6a0e6677e", "rental_uris": {"ios": "https://dc.lft.to/lastmile_qr_scan", "android": "https://dc.lft.to/lastmile_qr_scan"}}, {"name": "5952d0fdc0794ee64bb22f1225fb3577", "type": "electric_scooter", "lat": 38.923554333333335, "is_reserved": 0, "lon": -77.05229216666666, "fusion_lon": 0.0, "is_disabled": 0, "fusion_lat": 0.0, "bike_id": "5952d0fdc0794ee64bb22f1225fb3577", "rental_uris": {"ios": "https://dc.lft.to/lastmile_qr_scan", "android": "https://dc.lft.to/lastmile_qr_scan"}}, {"name": "dc11daab7df61939dca935f940faaaca", "type": "electric_scooter", "lat": 38.89875883333333, "is_reserved": 0, "lon": -76.93161666666667, "fusion_lon": 0.0, "is_disabled": 0, "fusion_lat": 0.0, "bike_id": "dc11daab7df61939dca935f940faaaca", "rental_uris": {"ios": "https://dc.lft.to/lastmile_qr_scan", "android": "https://dc.lft.to/lastmile_qr_scan"}}, {"name": "6f86d7ec1dce50864655823a9a979815", "type": "electric_scooter", "lat": 38.8837965, "is_reserved": 0, "lon": -77.02419766666667, "fusion_lon": 0.0, "is_disabled": 0, "fusion_lat": 0.0, "bike_id": "6f86d7ec1dce50864655823a9a979815", "rental_uris": {"ios": "https://dc.lft.to/lastmile_qr_scan", "android": "https://dc.lft.to/lastmile_qr_scan"}}, {"name": "cd77d5b1a3d63ef28625c0b2f1781577", "type": "electric_scooter", "lat": 38.8859355, "is_reserved": 0, "lon": -76.95422266666667, "fusion_lon": 0.0, "is_disabled": 0, "fusion_lat": 0.0, "bike_id": "cd77d5b1a3d63ef28625c0b2f1781577", "rental_uris": {"ios": "https://dc.lft.to/lastmile_qr_scan", "android": "https://dc.lft.to/lastmile_qr_scan"}}, {"name": "c4c4a0156ca178597c0d34d6bbbafab6", "type": "electric_scooter", "lat": 38.9305655, "is_reserved": 0, "lon": -77.02318333333334, "fusion_lon": 0.0, "is_disabled": 0, "fusion_lat": 0.0, "bike_id": "c4c4a0156ca178597c0d34d6bbbafab6", "rental_uris": {"ios": "https://dc.lft.to/lastmile_qr_scan", "android": "https://dc.lft.to/lastmile_qr_scan"}}, {"name": "cc2d4874895c64e24a2a8f22faf82943", "type": "electric_bike", "lat": 38.9284855, "is_reserved": 0, "lon": -77.1067845, "fusion_lon": 0.0, "is_disabled": 0, "fusion_lat": 0.0, "bike_id": "cc2d4874895c64e24a2a8f22faf82943", "rental_uris": {"ios": "https://dc.lft.to/lastmile_qr_scan", "android": "https://dc.lft.to/lastmile_qr_scan"}}, {"name": "c7954821ff686e8cad474964d0d99ec3", "type": "electric_scooter", "lat": 38.92397666666667, "is_reserved": 0, "lon": -77.0525575, "fusion_lon": 0.0, "is_disabled": 0, "fusion_lat": 0.0, "bike_id": "c7954821ff686e8cad474964d0d99ec3", "rental_uris": {"ios": "https://dc.lft.to/lastmile_qr_scan", "android": "https://dc.lft.to/lastmile_qr_scan"}}, {"name": "3455744b474819cbb24674d9bd06cbe8", "type": "electric_scooter", "lat": 38.916709833333336, "is_reserved": 0, "lon": -77.029547, "fusion_lon": 0.0, "is_disabled": 0, "fusion_lat": 0.0, "bike_id": "3455744b474819cbb24674d9bd06cbe8", "rental_uris": {"ios": "https://dc.lft.to/lastmile_qr_scan", "android": "https://dc.lft.to/lastmile_qr_scan"}}, {"name": "3a5bf79ba92bd661571e6985957dcf0a", "type": "electric_scooter", "lat": 38.925670333333336, "is_reserved": 0, "lon": -77.04050816666667, "fusion_lon": 0.0, "is_disabled": 0, "fusion_lat": 0.0, "bike_id": "3a5bf79ba92bd661571e6985957dcf0a", "rental_uris": {"ios": "https://dc.lft.to/lastmile_qr_scan", "android": "https://dc.lft.to/lastmile_qr_scan"}}, {"name": "47ed9cddc70537c04e5c7dee10de6f09", "type": "electric_scooter", "lat": 38.892245833333334, "is_reserved": 0, "lon": -77.04643966666667, "fusion_lon": 0.0, "is_disabled": 0, "fusion_lat": 0.0, "bike_id": "47ed9cddc70537c04e5c7dee10de6f09", "rental_uris": {"ios": "https://dc.lft.to/lastmile_qr_scan", "android": "https://dc.lft.to/lastmile_qr_scan"}}, {"name": "5468bcb1083ed232217bca81887c510e", "type": "electric_scooter", "lat": 38.9110755, "is_reserved": 0, "lon": -77.00367116666666, "fusion_lon": 0.0, "is_disabled": 0, "fusion_lat": 0.0, "bike_id": "5468bcb1083ed232217bca81887c510e", "rental_uris": {"ios": "https://dc.lft.to/lastmile_qr_scan", "android": "https://dc.lft.to/lastmile_qr_scan"}}, {"name": "682efd479b76510d45a68de55ac34011", "type": "electric_scooter", "lat": 38.86654133333333, "is_reserved": 0, "lon": -76.98888116666667, "fusion_lon": 0.0, "is_disabled": 0, "fusion_lat": 0.0, "bike_id": "682efd479b76510d45a68de55ac34011", "rental_uris": {"ios": "https://dc.lft.to/lastmile_qr_scan", "android": "https://dc.lft.to/lastmile_qr_scan"}}, {"name": "3067c4279aee62f48caab14ac2b2e7cb", "type": "electric_scooter", "lat": 38.942765333333334, "is_reserved": 0, "lon": -77.02501716666667, "fusion_lon": 0.0, "is_disabled": 0, "fusion_lat": 0.0, "bike_id": "3067c4279aee62f48caab14ac2b2e7cb", "rental_uris": {"ios": "https://dc.lft.to/lastmile_qr_scan", "android": "https://dc.lft.to/lastmile_qr_scan"}}, {"name": "1834bac91c2d287af97d42fcb770578f", "type": "electric_scooter", "lat": 38.89625816666667, "is_reserved": 0, "lon": -77.03227883333334, "fusion_lon": 0.0, "is_disabled": 0, "fusion_lat": 0.0, "bike_id": "1834bac91c2d287af97d42fcb770578f", "rental_uris": {"ios": "https://dc.lft.to/lastmile_qr_scan", "android": "https://dc.lft.to/lastmile_qr_scan"}}, {"name": "c6ea0d13f6a9e7c35dc9900aa14be298", "type": "electric_scooter", "lat": 38.905584166666664, "is_reserved": 0, "lon": -77.034712, "fusion_lon": 0.0, "is_disabled": 0, "fusion_lat": 0.0, "bike_id": "c6ea0d13f6a9e7c35dc9900aa14be298", "rental_uris": {"ios": "https://dc.lft.to/lastmile_qr_scan", "android": "https://dc.lft.to/lastmile_qr_scan"}}, {"name": "17330a089a8e45d97afcfeedb4097f88", "type": "electric_bike", "lat": 38.96498883333334, "is_reserved": 0, "lon": -77.1033415, "fusion_lon": 0.0, "is_disabled": 0, "fusion_lat": 0.0, "bike_id": "17330a089a8e45d97afcfeedb4097f88", "rental_uris": {"ios": "https://dc.lft.to/lastmile_qr_scan", "android": "https://dc.lft.to/lastmile_qr_scan"}}, {"name": "059789f0940597e2a4a9adff117bf20d", "type": "electric_scooter", "lat": 38.90029033333333, "is_reserved": 0, "lon": -77.04697233333333, "fusion_lon": 0.0, "is_disabled": 0, "fusion_lat": 0.0, "bike_id": "059789f0940597e2a4a9adff117bf20d", "rental_uris": {"ios": "https://dc.lft.to/lastmile_qr_scan", "android": "https://dc.lft.to/lastmile_qr_scan"}}, {"name": "0eb6e41498dc3b1f0557c087be201918", "type": "electric_scooter", "lat": 38.93090933333333, "is_reserved": 0, "lon": -77.02505533333333, "fusion_lon": 0.0, "is_disabled": 0, "fusion_lat": 0.0, "bike_id": "0eb6e41498dc3b1f0557c087be201918", "rental_uris": {"ios": "https://dc.lft.to/lastmile_qr_scan", "android": "https://dc.lft.to/lastmile_qr_scan"}}, {"name": "8c6560496d554933790de56c7f47c702", "type": "electric_scooter", "lat": 38.905764166666664, "is_reserved": 0, "lon": -77.038647, "fusion_lon": 0.0, "is_disabled": 0, "fusion_lat": 0.0, "bike_id": "8c6560496d554933790de56c7f47c702", "rental_uris": {"ios": "https://dc.lft.to/lastmile_qr_scan", "android": "https://dc.lft.to/lastmile_qr_scan"}}, {"name": "d2823e69807a2745a89b1d377e457704", "type": "electric_scooter", "lat": 38.90669616666667, "is_reserved": 0, "lon": -77.02715333333333, "fusion_lon": 0.0, "is_disabled": 0, "fusion_lat": 0.0, "bike_id": "d2823e69807a2745a89b1d377e457704", "rental_uris": {"ios": "https://dc.lft.to/lastmile_qr_scan", "android": "https://dc.lft.to/lastmile_qr_scan"}}, {"name": "d63e7ee6336b94a9c8f7d25784191fee", "type": "electric_scooter", "lat": 38.90678333333334, "is_reserved": 0, "lon": -77.03475733333333, "fusion_lon": 0.0, "is_disabled": 0, "fusion_lat": 0.0, "bike_id": "d63e7ee6336b94a9c8f7d25784191fee", "rental_uris": {"ios": "https://dc.lft.to/lastmile_qr_scan", "android": "https://dc.lft.to/lastmile_qr_scan"}}, {"name": "978c67b18628ac30e42dfc1f51601f81", "type": "electric_scooter", "lat": 38.927021333333336, "is_reserved": 0, "lon": -77.02092166666667, "fusion_lon": 0.0, "is_disabled": 0, "fusion_lat": 0.0, "bike_id": "978c67b18628ac30e42dfc1f51601f81", "rental_uris": {"ios": "https://dc.lft.to/lastmile_qr_scan", "android": "https://dc.lft.to/lastmile_qr_scan"}}, {"name": "08b9b8eac71f784f2b4ae6295ac5a576", "type": "electric_scooter", "lat": 38.9035885, "is_reserved": 0, "lon": -77.04148033333334, "fusion_lon": 0.0, "is_disabled": 0, "fusion_lat": 0.0, "bike_id": "08b9b8eac71f784f2b4ae6295ac5a576", "rental_uris": {"ios": "https://dc.lft.to/lastmile_qr_scan", "android": "https://dc.lft.to/lastmile_qr_scan"}}, {"name": "404551c18c60a0c8425b8743819488a5", "type": "electric_scooter", "lat": 38.90535033333333, "is_reserved": 0, "lon": -77.05915616666667, "fusion_lon": 0.0, "is_disabled": 0, "fusion_lat": 0.0, "bike_id": "404551c18c60a0c8425b8743819488a5", "rental_uris": {"ios": "https://dc.lft.to/lastmile_qr_scan", "android": "https://dc.lft.to/lastmile_qr_scan"}}, {"name": "79210ff3c05c2fd0db31dc51307b04e9", "type": "electric_scooter", "lat": 38.876345, "is_reserved": 0, "lon": -77.00920316666667, "fusion_lon": 0.0, "is_disabled": 0, "fusion_lat": 0.0, "bike_id": "79210ff3c05c2fd0db31dc51307b04e9", "rental_uris": {"ios": "https://dc.lft.to/lastmile_qr_scan", "android": "https://dc.lft.to/lastmile_qr_scan"}}, {"name": "447a31afd909d916d1fe060a8dbf0d5e", "type": "electric_scooter", "lat": 38.91668766666667, "is_reserved": 0, "lon": -77.03643183333334, "fusion_lon": 0.0, "is_disabled": 0, "fusion_lat": 0.0, "bike_id": "447a31afd909d916d1fe060a8dbf0d5e", "rental_uris": {"ios": "https://dc.lft.to/lastmile_qr_scan", "android": "https://dc.lft.to/lastmile_qr_scan"}}, {"name": "4e627472e0b27470b1fe045c526d1349", "type": "electric_scooter", "lat": 38.90768683333334, "is_reserved": 0, "lon": -77.043489, "fusion_lon": 0.0, "is_disabled": 0, "fusion_lat": 0.0, "bike_id": "4e627472e0b27470b1fe045c526d1349", "rental_uris": {"ios": "https://dc.lft.to/lastmile_qr_scan", "android": "https://dc.lft.to/lastmile_qr_scan"}}, {"name": "e2b654e886903bc697082dc1e39e280d", "type": "electric_scooter", "lat": 38.9360445, "is_reserved": 0, "lon": -77.058629, "fusion_lon": 0.0, "is_disabled": 0, "fusion_lat": 0.0, "bike_id": "e2b654e886903bc697082dc1e39e280d", "rental_uris": {"ios": "https://dc.lft.to/lastmile_qr_scan", "android": "https://dc.lft.to/lastmile_qr_scan"}}, {"name": "b6c631a399809f8f2b11fb4761de656d", "type": "electric_bike", "lat": 38.990864333333334, "is_reserved": 0, "lon": -76.87496483333334, "fusion_lon": 0.0, "is_disabled": 0, "fusion_lat": 0.0, "bike_id": "b6c631a399809f8f2b11fb4761de656d", "rental_uris": {"ios": "https://dc.lft.to/lastmile_qr_scan", "android": "https://dc.lft.to/lastmile_qr_scan"}}, {"name": "93af9fb0c36d656e83b7319fc1435b17", "type": "electric_scooter", "lat": 38.884089333333336, "is_reserved": 0, "lon": -77.01535466666667, "fusion_lon": 0.0, "is_disabled": 0, "fusion_lat": 0.0, "bike_id": "93af9fb0c36d656e83b7319fc1435b17", "rental_uris": {"ios": "https://dc.lft.to/lastmile_qr_scan", "android": "https://dc.lft.to/lastmile_qr_scan"}}, {"name": "d1fe7bd8234ed589467225449dfa9cbf", "type": "electric_scooter", "lat": 38.89231133333333, "is_reserved": 0, "lon": -77.02206383333333, "fusion_lon": 0.0, "is_disabled": 0, "fusion_lat": 0.0, "bike_id": "d1fe7bd8234ed589467225449dfa9cbf", "rental_uris": {"ios": "https://dc.lft.to/lastmile_qr_scan", "android": "https://dc.lft.to/lastmile_qr_scan"}}, {"name": "c28ed3e07f22aad984e4a9f915e84754", "type": "electric_scooter", "lat": 38.917945833333334, "is_reserved": 0, "lon": -77.03446833333334, "fusion_lon": 0.0, "is_disabled": 0, "fusion_lat": 0.0, "bike_id": "c28ed3e07f22aad984e4a9f915e84754", "rental_uris": {"ios": "https://dc.lft.to/lastmile_qr_scan", "android": "https://dc.lft.to/lastmile_qr_scan"}}, {"name": "74dd0de0ba79c0d612f24fdc47e1aa85", "type": "electric_bike", "lat": 38.82870333333334, "is_reserved": 0, "lon": -77.11220266666666, "fusion_lon": 0.0, "is_disabled": 0, "fusion_lat": 0.0, "bike_id": "74dd0de0ba79c0d612f24fdc47e1aa85", "rental_uris": {"ios": "https://dc.lft.to/lastmile_qr_scan", "android": "https://dc.lft.to/lastmile_qr_scan"}}, {"name": "2d1ac26026b68876d5d456735516b6ca", "type": "electric_scooter", "lat": 38.90010916666667, "is_reserved": 0, "lon": -77.03984366666667, "fusion_lon": 0.0, "is_disabled": 0, "fusion_lat": 0.0, "bike_id": "2d1ac26026b68876d5d456735516b6ca", "rental_uris": {"ios": "https://dc.lft.to/lastmile_qr_scan", "android": "https://dc.lft.to/lastmile_qr_scan"}}, {"name": "5f7d4623a9ab87e36040f82e808ff7d6", "type": "electric_scooter", "lat": 38.9013725, "is_reserved": 0, "lon": -77.04378416666667, "fusion_lon": 0.0, "is_disabled": 0, "fusion_lat": 0.0, "bike_id": "5f7d4623a9ab87e36040f82e808ff7d6", "rental_uris": {"ios": "https://dc.lft.to/lastmile_qr_scan", "android": "https://dc.lft.to/lastmile_qr_scan"}}, {"name": "689a7da1853684317593fb13cf9d4028", "type": "electric_scooter", "lat": 38.892424166666665, "is_reserved": 0, "lon": -77.03196683333333, "fusion_lon": 0.0, "is_disabled": 0, "fusion_lat": 0.0, "bike_id": "689a7da1853684317593fb13cf9d4028", "rental_uris": {"ios": "https://dc.lft.to/lastmile_qr_scan", "android": "https://dc.lft.to/lastmile_qr_scan"}}, {"name": "f33acf9733487f8cad2437b817ff0069", "type": "electric_scooter", "lat": 38.9014135, "is_reserved": 0, "lon": -77.04464783333333, "fusion_lon": 0.0, "is_disabled": 0, "fusion_lat": 0.0, "bike_id": "f33acf9733487f8cad2437b817ff0069", "rental_uris": {"ios": "https://dc.lft.to/lastmile_qr_scan", "android": "https://dc.lft.to/lastmile_qr_scan"}}, {"name": "e8a8f876e3035282c2039961c0c5b1ee", "type": "electric_scooter", "lat": 38.92329266666667, "is_reserved": 0, "lon": -77.038961, "fusion_lon": 0.0, "is_disabled": 0, "fusion_lat": 0.0, "bike_id": "e8a8f876e3035282c2039961c0c5b1ee", "rental_uris": {"ios": "https://dc.lft.to/lastmile_qr_scan", "android": "https://dc.lft.to/lastmile_qr_scan"}}, {"name": "0668b82eec9d633e7c190f0c2be5a33c", "type": "electric_bike", "lat": 38.86167283333333, "is_reserved": 0, "lon": -76.95066933333334, "fusion_lon": 0.0, "is_disabled": 0, "fusion_lat": 0.0, "bike_id": "0668b82eec9d633e7c190f0c2be5a33c", "rental_uris": {"ios": "https://dc.lft.to/lastmile_qr_scan", "android": "https://dc.lft.to/lastmile_qr_scan"}}, {"name": "f6fcacd4f486e4537675986f01bfcffe", "type": "electric_scooter", "lat": 38.9171395, "is_reserved": 0, "lon": -77.03860383333334, "fusion_lon": 0.0, "is_disabled": 0, "fusion_lat": 0.0, "bike_id": "f6fcacd4f486e4537675986f01bfcffe", "rental_uris": {"ios": "https://dc.lft.to/lastmile_qr_scan", "android": "https://dc.lft.to/lastmile_qr_scan"}}, {"name": "0b9fba13a1062591f5d1472b11a0ac63", "type": "electric_scooter", "lat": 38.90303866666667, "is_reserved": 0, "lon": -77.043376, "fusion_lon": 0.0, "is_disabled": 0, "fusion_lat": 0.0, "bike_id": "0b9fba13a1062591f5d1472b11a0ac63", "rental_uris": {"ios": "https://dc.lft.to/lastmile_qr_scan", "android": "https://dc.lft.to/lastmile_qr_scan"}}, {"name": "cb663f4d0c4e281117a3e371c78b49cd", "type": "electric_scooter", "lat": 38.90010816666667, "is_reserved": 0, "lon": -77.02396983333334, "fusion_lon": 0.0, "is_disabled": 0, "fusion_lat": 0.0, "bike_id": "cb663f4d0c4e281117a3e371c78b49cd", "rental_uris": {"ios": "https://dc.lft.to/lastmile_qr_scan", "android": "https://dc.lft.to/lastmile_qr_scan"}}, {"name": "1e555b3e3a502db195853f7794e75e31", "type": "electric_scooter", "lat": 38.90082666666667, "is_reserved": 0, "lon": -77.049, "fusion_lon": 0.0, "is_disabled": 0, "fusion_lat": 0.0, "bike_id": "1e555b3e3a502db195853f7794e75e31", "rental_uris": {"ios": "https://dc.lft.to/lastmile_qr_scan", "android": "https://dc.lft.to/lastmile_qr_scan"}}, {"name": "4688439899430abf273683396dc00e7c", "type": "electric_scooter", "lat": 38.918174666666665, "is_reserved": 0, "lon": -77.034404, "fusion_lon": 0.0, "is_disabled": 0, "fusion_lat": 0.0, "bike_id": "4688439899430abf273683396dc00e7c", "rental_uris": {"ios": "https://dc.lft.to/lastmile_qr_scan", "android": "https://dc.lft.to/lastmile_qr_scan"}}, {"name": "9a990e96a3b18e5aee343b661947ac1f", "type": "electric_scooter", "lat": 38.90517116666667, "is_reserved": 0, "lon": -77.0693785, "fusion_lon": 0.0, "is_disabled": 0, "fusion_lat": 0.0, "bike_id": "9a990e96a3b18e5aee343b661947ac1f", "rental_uris": {"ios": "https://dc.lft.to/lastmile_qr_scan", "android": "https://dc.lft.to/lastmile_qr_scan"}}, {"name": "0ccdc02f42e9086be7bdc5eacdcd149e", "type": "electric_scooter", "lat": 38.92337666666667, "is_reserved": 0, "lon": -77.01908516666667, "fusion_lon": 0.0, "is_disabled": 0, "fusion_lat": 0.0, "bike_id": "0ccdc02f42e9086be7bdc5eacdcd149e", "rental_uris": {"ios": "https://dc.lft.to/lastmile_qr_scan", "android": "https://dc.lft.to/lastmile_qr_scan"}}, {"name": "0511c61eb0b8344953d7cc9f49367bdd", "type": "electric_scooter", "lat": 38.916698333333336, "is_reserved": 0, "lon": -77.02302416666667, "fusion_lon": 0.0, "is_disabled": 0, "fusion_lat": 0.0, "bike_id": "0511c61eb0b8344953d7cc9f49367bdd", "rental_uris": {"ios": "https://dc.lft.to/lastmile_qr_scan", "android": "https://dc.lft.to/lastmile_qr_scan"}}, {"name": "12dd053fdd7fed25f0471e74b0f0793a", "type": "electric_scooter", "lat": 38.90013183333333, "is_reserved": 0, "lon": -77.04477333333334, "fusion_lon": 0.0, "is_disabled": 0, "fusion_lat": 0.0, "bike_id": "12dd053fdd7fed25f0471e74b0f0793a", "rental_uris": {"ios": "https://dc.lft.to/lastmile_qr_scan", "android": "https://dc.lft.to/lastmile_qr_scan"}}, {"name": "106ad1660452f33eb55e4dfd78054af1", "type": "electric_scooter", "lat": 38.920569666666665, "is_reserved": 0, "lon": -77.03341733333333, "fusion_lon": 0.0, "is_disabled": 0, "fusion_lat": 0.0, "bike_id": "106ad1660452f33eb55e4dfd78054af1", "rental_uris": {"ios": "https://dc.lft.to/lastmile_qr_scan", "android": "https://dc.lft.to/lastmile_qr_scan"}}, {"name": "4f92670a3dbd27f42aac24585944cc72", "type": "electric_scooter", "lat": 38.86698066666666, "is_reserved": 0, "lon": -76.9871255, "fusion_lon": 0.0, "is_disabled": 0, "fusion_lat": 0.0, "bike_id": "4f92670a3dbd27f42aac24585944cc72", "rental_uris": {"ios": "https://dc.lft.to/lastmile_qr_scan", "android": "https://dc.lft.to/lastmile_qr_scan"}}, {"name": "7274f6c27b6c18c6c846dd68c2a310ed", "type": "electric_scooter", "lat": 38.93974983333333, "is_reserved": 0, "lon": -77.028914, "fusion_lon": 0.0, "is_disabled": 0, "fusion_lat": 0.0, "bike_id": "7274f6c27b6c18c6c846dd68c2a310ed", "rental_uris": {"ios": "https://dc.lft.to/lastmile_qr_scan", "android": "https://dc.lft.to/lastmile_qr_scan"}}, {"name": "0c783f2df2e2895d4215371b28ccff05", "type": "electric_scooter", "lat": 38.89946, "is_reserved": 0, "lon": -77.03190933333333, "fusion_lon": 0.0, "is_disabled": 0, "fusion_lat": 0.0, "bike_id": "0c783f2df2e2895d4215371b28ccff05", "rental_uris": {"ios": "https://dc.lft.to/lastmile_qr_scan", "android": "https://dc.lft.to/lastmile_qr_scan"}}, {"name": "fd33dd11e12b353e2aede6d0e4e0b185", "type": "electric_scooter", "lat": 38.928463, "is_reserved": 0, "lon": -77.03252483333333, "fusion_lon": 0.0, "is_disabled": 0, "fusion_lat": 0.0, "bike_id": "fd33dd11e12b353e2aede6d0e4e0b185", "rental_uris": {"ios": "https://dc.lft.to/lastmile_qr_scan", "android": "https://dc.lft.to/lastmile_qr_scan"}}, {"name": "42bba3ae8cd84c617de74e64b65fb259", "type": "electric_bike", "lat": 38.966230833333334, "is_reserved": 0, "lon": -76.97668266666666, "fusion_lon": 0.0, "is_disabled": 0, "fusion_lat": 0.0, "bike_id": "42bba3ae8cd84c617de74e64b65fb259", "rental_uris": {"ios": "https://dc.lft.to/lastmile_qr_scan", "android": "https://dc.lft.to/lastmile_qr_scan"}}, {"name": "38cd83534619014d56b68a8575d50cbb", "type": "electric_scooter", "lat": 38.91269783333333, "is_reserved": 0, "lon": -77.0222485, "fusion_lon": 0.0, "is_disabled": 0, "fusion_lat": 0.0, "bike_id": "38cd83534619014d56b68a8575d50cbb", "rental_uris": {"ios": "https://dc.lft.to/lastmile_qr_scan", "android": "https://dc.lft.to/lastmile_qr_scan"}}, {"name": "c288e12d598303a29acf7a4f87e44e0a", "type": "electric_bike", "lat": 38.999361, "is_reserved": 0, "lon": -77.01770116666667, "fusion_lon": 0.0, "is_disabled": 0, "fusion_lat": 0.0, "bike_id": "c288e12d598303a29acf7a4f87e44e0a", "rental_uris": {"ios": "https://dc.lft.to/lastmile_qr_scan", "android": "https://dc.lft.to/lastmile_qr_scan"}}, {"name": "44179759864d06fbcb6f4314fc9cfd70", "type": "electric_bike", "lat": 38.858517666666664, "is_reserved": 0, "lon": -77.09755116666666, "fusion_lon": 0.0, "is_disabled": 0, "fusion_lat": 0.0, "bike_id": "44179759864d06fbcb6f4314fc9cfd70", "rental_uris": {"ios": "https://dc.lft.to/lastmile_qr_scan", "android": "https://dc.lft.to/lastmile_qr_scan"}}, {"name": "8239cf2e95335d112505f15e063621b4", "type": "electric_scooter", "lat": 38.90026733333333, "is_reserved": 0, "lon": -77.0301355, "fusion_lon": 0.0, "is_disabled": 0, "fusion_lat": 0.0, "bike_id": "8239cf2e95335d112505f15e063621b4", "rental_uris": {"ios": "https://dc.lft.to/lastmile_qr_scan", "android": "https://dc.lft.to/lastmile_qr_scan"}}, {"name": "fb6a74f3e41441b0251a326459d8b805", "type": "electric_scooter", "lat": 38.928679333333335, "is_reserved": 0, "lon": -77.03477083333334, "fusion_lon": 0.0, "is_disabled": 0, "fusion_lat": 0.0, "bike_id": "fb6a74f3e41441b0251a326459d8b805", "rental_uris": {"ios": "https://dc.lft.to/lastmile_qr_scan", "android": "https://dc.lft.to/lastmile_qr_scan"}}, {"name": "dd981df1247a5d9d7b89adf34bc54dfd", "type": "electric_scooter", "lat": 38.93196283333333, "is_reserved": 0, "lon": -77.03856216666667, "fusion_lon": 0.0, "is_disabled": 0, "fusion_lat": 0.0, "bike_id": "dd981df1247a5d9d7b89adf34bc54dfd", "rental_uris": {"ios": "https://dc.lft.to/lastmile_qr_scan", "android": "https://dc.lft.to/lastmile_qr_scan"}}, {"name": "b2517c0375161755d5d1d6d41b29154a", "type": "electric_scooter", "lat": 38.924670166666665, "is_reserved": 0, "lon": -77.028326, "fusion_lon": 0.0, "is_disabled": 0, "fusion_lat": 0.0, "bike_id": "b2517c0375161755d5d1d6d41b29154a", "rental_uris": {"ios": "https://dc.lft.to/lastmile_qr_scan", "android": "https://dc.lft.to/lastmile_qr_scan"}}, {"name": "fefc742084df79292510f85c814a4c9e", "type": "electric_scooter", "lat": 38.930803833333336, "is_reserved": 0, "lon": -77.02795566666667, "fusion_lon": 0.0, "is_disabled": 0, "fusion_lat": 0.0, "bike_id": "fefc742084df79292510f85c814a4c9e", "rental_uris": {"ios": "https://dc.lft.to/lastmile_qr_scan", "android": "https://dc.lft.to/lastmile_qr_scan"}}, {"name": "c88392f2b1db49b7c891c11ec05fe3e2", "type": "electric_scooter", "lat": 38.883982333333336, "is_reserved": 0, "lon": -77.01778066666667, "fusion_lon": 0.0, "is_disabled": 0, "fusion_lat": 0.0, "bike_id": "c88392f2b1db49b7c891c11ec05fe3e2", "rental_uris": {"ios": "https://dc.lft.to/lastmile_qr_scan", "android": "https://dc.lft.to/lastmile_qr_scan"}}, {"name": "8123ef565616b28a13b1b2ce840fae60", "type": "electric_scooter", "lat": 38.90475816666667, "is_reserved": 0, "lon": -77.00213566666666, "fusion_lon": 0.0, "is_disabled": 0, "fusion_lat": 0.0, "bike_id": "8123ef565616b28a13b1b2ce840fae60", "rental_uris": {"ios": "https://dc.lft.to/lastmile_qr_scan", "android": "https://dc.lft.to/lastmile_qr_scan"}}, {"name": "74d590adfd0b91130e747089f92dc07a", "type": "electric_scooter", "lat": 38.88627433333333, "is_reserved": 0, "lon": -77.01529516666666, "fusion_lon": 0.0, "is_disabled": 0, "fusion_lat": 0.0, "bike_id": "74d590adfd0b91130e747089f92dc07a", "rental_uris": {"ios": "https://dc.lft.to/lastmile_qr_scan", "android": "https://dc.lft.to/lastmile_qr_scan"}}, {"name": "25be2479dfdf6e8631a4c22a6e09d0bd", "type": "electric_scooter", "lat": 38.898387166666666, "is_reserved": 0, "lon": -77.03216733333333, "fusion_lon": 0.0, "is_disabled": 0, "fusion_lat": 0.0, "bike_id": "25be2479dfdf6e8631a4c22a6e09d0bd", "rental_uris": {"ios": "https://dc.lft.to/lastmile_qr_scan", "android": "https://dc.lft.to/lastmile_qr_scan"}}, {"name": "51119551e6d9fad51a05b8ba9fddb424", "type": "electric_scooter", "lat": 38.894733333333335, "is_reserved": 0, "lon": -76.9953615, "fusion_lon": 0.0, "is_disabled": 0, "fusion_lat": 0.0, "bike_id": "51119551e6d9fad51a05b8ba9fddb424", "rental_uris": {"ios": "https://dc.lft.to/lastmile_qr_scan", "android": "https://dc.lft.to/lastmile_qr_scan"}}, {"name": "6b973b925b0a49cf7e73c5109c9487ce", "type": "electric_scooter", "lat": 38.903677333333334, "is_reserved": 0, "lon": -77.038453, "fusion_lon": 0.0, "is_disabled": 0, "fusion_lat": 0.0, "bike_id": "6b973b925b0a49cf7e73c5109c9487ce", "rental_uris": {"ios": "https://dc.lft.to/lastmile_qr_scan", "android": "https://dc.lft.to/lastmile_qr_scan"}}, {"name": "2ff81c743e7ce404c147979a2c4d6f9b", "type": "electric_scooter", "lat": 38.90200333333333, "is_reserved": 0, "lon": -77.02192783333334, "fusion_lon": 0.0, "is_disabled": 0, "fusion_lat": 0.0, "bike_id": "2ff81c743e7ce404c147979a2c4d6f9b", "rental_uris": {"ios": "https://dc.lft.to/lastmile_qr_scan", "android": "https://dc.lft.to/lastmile_qr_scan"}}, {"name": "de11a1b5cfee94f261bfdc8f110272f8", "type": "electric_scooter", "lat": 38.9011985, "is_reserved": 0, "lon": -77.0500125, "fusion_lon": 0.0, "is_disabled": 0, "fusion_lat": 0.0, "bike_id": "de11a1b5cfee94f261bfdc8f110272f8", "rental_uris": {"ios": "https://dc.lft.to/lastmile_qr_scan", "android": "https://dc.lft.to/lastmile_qr_scan"}}, {"name": "31066150b851a25c502953b7f3dc2dcd", "type": "electric_scooter", "lat": 38.89326783333333, "is_reserved": 0, "lon": -76.929877, "fusion_lon": 0.0, "is_disabled": 0, "fusion_lat": 0.0, "bike_id": "31066150b851a25c502953b7f3dc2dcd", "rental_uris": {"ios": "https://dc.lft.to/lastmile_qr_scan", "android": "https://dc.lft.to/lastmile_qr_scan"}}, {"name": "cb756d1a5513c46bfb887d725760a11c", "type": "electric_scooter", "lat": 38.923528833333336, "is_reserved": 0, "lon": -77.03492916666667, "fusion_lon": 0.0, "is_disabled": 0, "fusion_lat": 0.0, "bike_id": "cb756d1a5513c46bfb887d725760a11c", "rental_uris": {"ios": "https://dc.lft.to/lastmile_qr_scan", "android": "https://dc.lft.to/lastmile_qr_scan"}}, {"name": "4b3bb1a017fa27be54fbf62ac8ad6097", "type": "electric_scooter", "lat": 38.9036415, "is_reserved": 0, "lon": -77.04330283333333, "fusion_lon": 0.0, "is_disabled": 0, "fusion_lat": 0.0, "bike_id": "4b3bb1a017fa27be54fbf62ac8ad6097", "rental_uris": {"ios": "https://dc.lft.to/lastmile_qr_scan", "android": "https://dc.lft.to/lastmile_qr_scan"}}, {"name": "4dd8cf096b3d2934c6be5e10a38cdbd1", "type": "electric_scooter", "lat": 38.922821, "is_reserved": 0, "lon": -77.03661616666666, "fusion_lon": 0.0, "is_disabled": 0, "fusion_lat": 0.0, "bike_id": "4dd8cf096b3d2934c6be5e10a38cdbd1", "rental_uris": {"ios": "https://dc.lft.to/lastmile_qr_scan", "android": "https://dc.lft.to/lastmile_qr_scan"}}, {"name": "c4f213c3c7488c227c4b76af39647695", "type": "electric_scooter", "lat": 38.82899466666667, "is_reserved": 0, "lon": -76.99710066666667, "fusion_lon": 0.0, "is_disabled": 0, "fusion_lat": 0.0, "bike_id": "c4f213c3c7488c227c4b76af39647695", "rental_uris": {"ios": "https://dc.lft.to/lastmile_qr_scan", "android": "https://dc.lft.to/lastmile_qr_scan"}}, {"name": "a2cf501208921fa66516dac2cbe66b62", "type": "electric_scooter", "lat": 38.906475, "is_reserved": 0, "lon": -77.03852433333333, "fusion_lon": 0.0, "is_disabled": 0, "fusion_lat": 0.0, "bike_id": "a2cf501208921fa66516dac2cbe66b62", "rental_uris": {"ios": "https://dc.lft.to/lastmile_qr_scan", "android": "https://dc.lft.to/lastmile_qr_scan"}}, {"name": "3253f799e5fb1e713c0044a214f64e63", "type": "electric_scooter", "lat": 38.876289666666665, "is_reserved": 0, "lon": -76.9652835, "fusion_lon": 0.0, "is_disabled": 0, "fusion_lat": 0.0, "bike_id": "3253f799e5fb1e713c0044a214f64e63", "rental_uris": {"ios": "https://dc.lft.to/lastmile_qr_scan", "android": "https://dc.lft.to/lastmile_qr_scan"}}, {"name": "9b747b10d232c82ed5dc0a396e2226d2", "type": "electric_scooter", "lat": 38.917313666666665, "is_reserved": 0, "lon": -77.04177633333333, "fusion_lon": 0.0, "is_disabled": 0, "fusion_lat": 0.0, "bike_id": "9b747b10d232c82ed5dc0a396e2226d2", "rental_uris": {"ios": "https://dc.lft.to/lastmile_qr_scan", "android": "https://dc.lft.to/lastmile_qr_scan"}}, {"name": "0592f04c49f799e15b5abed286179814", "type": "electric_scooter", "lat": 38.89972183333333, "is_reserved": 0, "lon": -76.99148516666666, "fusion_lon": 0.0, "is_disabled": 0, "fusion_lat": 0.0, "bike_id": "0592f04c49f799e15b5abed286179814", "rental_uris": {"ios": "https://dc.lft.to/lastmile_qr_scan", "android": "https://dc.lft.to/lastmile_qr_scan"}}, {"name": "1852fc0bf76d0cec0d4d9e8e8ffabed0", "type": "electric_scooter", "lat": 38.89822383333333, "is_reserved": 0, "lon": -76.946521, "fusion_lon": 0.0, "is_disabled": 0, "fusion_lat": 0.0, "bike_id": "1852fc0bf76d0cec0d4d9e8e8ffabed0", "rental_uris": {"ios": "https://dc.lft.to/lastmile_qr_scan", "android": "https://dc.lft.to/lastmile_qr_scan"}}, {"name": "49bcc26b0f9452077b265b08337bca33", "type": "electric_scooter", "lat": 38.900495666666664, "is_reserved": 0, "lon": -77.051464, "fusion_lon": 0.0, "is_disabled": 0, "fusion_lat": 0.0, "bike_id": "49bcc26b0f9452077b265b08337bca33", "rental_uris": {"ios": "https://dc.lft.to/lastmile_qr_scan", "android": "https://dc.lft.to/lastmile_qr_scan"}}, {"name": "e5be40326af4123c3339dc44e324aff9", "type": "electric_scooter", "lat": 38.919842333333335, "is_reserved": 0, "lon": -77.0348085, "fusion_lon": 0.0, "is_disabled": 0, "fusion_lat": 0.0, "bike_id": "e5be40326af4123c3339dc44e324aff9", "rental_uris": {"ios": "https://dc.lft.to/lastmile_qr_scan", "android": "https://dc.lft.to/lastmile_qr_scan"}}, {"name": "fe71c3d0fd9bf2f7342b446997132680", "type": "electric_scooter", "lat": 38.905347166666665, "is_reserved": 0, "lon": -77.06003183333333, "fusion_lon": 0.0, "is_disabled": 0, "fusion_lat": 0.0, "bike_id": "fe71c3d0fd9bf2f7342b446997132680", "rental_uris": {"ios": "https://dc.lft.to/lastmile_qr_scan", "android": "https://dc.lft.to/lastmile_qr_scan"}}, {"name": "dba414806362eb4c81290606cd27fb09", "type": "electric_scooter", "lat": 38.90157116666666, "is_reserved": 0, "lon": -77.029012, "fusion_lon": 0.0, "is_disabled": 0, "fusion_lat": 0.0, "bike_id": "dba414806362eb4c81290606cd27fb09", "rental_uris": {"ios": "https://dc.lft.to/lastmile_qr_scan", "android": "https://dc.lft.to/lastmile_qr_scan"}}, {"name": "8224bf6924b57bdca9681b760a5bf641", "type": "electric_scooter", "lat": 38.930831833333336, "is_reserved": 0, "lon": -77.02796566666666, "fusion_lon": 0.0, "is_disabled": 0, "fusion_lat": 0.0, "bike_id": "8224bf6924b57bdca9681b760a5bf641", "rental_uris": {"ios": "https://dc.lft.to/lastmile_qr_scan", "android": "https://dc.lft.to/lastmile_qr_scan"}}, {"name": "dd2205a6c68768c4a2a5b82fac6cb4dc", "type": "electric_scooter", "lat": 38.93762616666667, "is_reserved": 0, "lon": -77.02265716666666, "fusion_lon": 0.0, "is_disabled": 0, "fusion_lat": 0.0, "bike_id": "dd2205a6c68768c4a2a5b82fac6cb4dc", "rental_uris": {"ios": "https://dc.lft.to/lastmile_qr_scan", "android": "https://dc.lft.to/lastmile_qr_scan"}}, {"name": "891d38a9506e77fa60b3c991d9483a3e", "type": "electric_scooter", "lat": 38.914195166666666, "is_reserved": 0, "lon": -77.03903883333334, "fusion_lon": 0.0, "is_disabled": 0, "fusion_lat": 0.0, "bike_id": "891d38a9506e77fa60b3c991d9483a3e", "rental_uris": {"ios": "https://dc.lft.to/lastmile_qr_scan", "android": "https://dc.lft.to/lastmile_qr_scan"}}, {"name": "ebc5a76ae29733b122ab80475fe3bb08", "type": "electric_scooter", "lat": 38.86655116666667, "is_reserved": 0, "lon": -76.9901845, "fusion_lon": 0.0, "is_disabled": 0, "fusion_lat": 0.0, "bike_id": "ebc5a76ae29733b122ab80475fe3bb08", "rental_uris": {"ios": "https://dc.lft.to/lastmile_qr_scan", "android": "https://dc.lft.to/lastmile_qr_scan"}}, {"name": "c75d538823aecdbcbe999a8f1a10158b", "type": "electric_scooter", "lat": 38.90054, "is_reserved": 0, "lon": -77.0506855, "fusion_lon": 0.0, "is_disabled": 0, "fusion_lat": 0.0, "bike_id": "c75d538823aecdbcbe999a8f1a10158b", "rental_uris": {"ios": "https://dc.lft.to/lastmile_qr_scan", "android": "https://dc.lft.to/lastmile_qr_scan"}}, {"name": "48af7cf4fdd95ea1e63660e198e77733", "type": "electric_bike", "lat": 38.83985416666667, "is_reserved": 0, "lon": -77.00568033333333, "fusion_lon": 0.0, "is_disabled": 0, "fusion_lat": 0.0, "bike_id": "48af7cf4fdd95ea1e63660e198e77733", "rental_uris": {"ios": "https://dc.lft.to/lastmile_qr_scan", "android": "https://dc.lft.to/lastmile_qr_scan"}}, {"name": "445085d272a8b7f9bc93c0c49a06da73", "type": "electric_scooter", "lat": 38.90979266666667, "is_reserved": 0, "lon": -77.03385416666667, "fusion_lon": 0.0, "is_disabled": 0, "fusion_lat": 0.0, "bike_id": "445085d272a8b7f9bc93c0c49a06da73", "rental_uris": {"ios": "https://dc.lft.to/lastmile_qr_scan", "android": "https://dc.lft.to/lastmile_qr_scan"}}, {"name": "f4b07de9d3faea8260841c37791c94a5", "type": "electric_scooter", "lat": 38.89999016666667, "is_reserved": 0, "lon": -77.05234766666666, "fusion_lon": 0.0, "is_disabled": 0, "fusion_lat": 0.0, "bike_id": "f4b07de9d3faea8260841c37791c94a5", "rental_uris": {"ios": "https://dc.lft.to/lastmile_qr_scan", "android": "https://dc.lft.to/lastmile_qr_scan"}}, {"name": "8fee9d87de07d6939f4b0775c732e2d4", "type": "electric_scooter", "lat": 38.8951425, "is_reserved": 0, "lon": -77.0484865, "fusion_lon": 0.0, "is_disabled": 0, "fusion_lat": 0.0, "bike_id": "8fee9d87de07d6939f4b0775c732e2d4", "rental_uris": {"ios": "https://dc.lft.to/lastmile_qr_scan", "android": "https://dc.lft.to/lastmile_qr_scan"}}, {"name": "22d6af177265519002053f950177a7e7", "type": "electric_scooter", "lat": 38.922437, "is_reserved": 0, "lon": -77.03076666666666, "fusion_lon": 0.0, "is_disabled": 0, "fusion_lat": 0.0, "bike_id": "22d6af177265519002053f950177a7e7", "rental_uris": {"ios": "https://dc.lft.to/lastmile_qr_scan", "android": "https://dc.lft.to/lastmile_qr_scan"}}, {"name": "200c068fb3c521414c315b778d3a48f9", "type": "electric_scooter", "lat": 38.919041166666666, "is_reserved": 0, "lon": -77.032092, "fusion_lon": 0.0, "is_disabled": 0, "fusion_lat": 0.0, "bike_id": "200c068fb3c521414c315b778d3a48f9", "rental_uris": {"ios": "https://dc.lft.to/lastmile_qr_scan", "android": "https://dc.lft.to/lastmile_qr_scan"}}, {"name": "5a255aee237d60042fe76fc90beba638", "type": "electric_scooter", "lat": 38.915057, "is_reserved": 0, "lon": -77.04607933333334, "fusion_lon": 0.0, "is_disabled": 0, "fusion_lat": 0.0, "bike_id": "5a255aee237d60042fe76fc90beba638", "rental_uris": {"ios": "https://dc.lft.to/lastmile_qr_scan", "android": "https://dc.lft.to/lastmile_qr_scan"}}, {"name": "0310f0f2f78df7cd065867abed33d70d", "type": "electric_scooter", "lat": 38.8754835, "is_reserved": 0, "lon": -76.96491283333333, "fusion_lon": 0.0, "is_disabled": 0, "fusion_lat": 0.0, "bike_id": "0310f0f2f78df7cd065867abed33d70d", "rental_uris": {"ios": "https://dc.lft.to/lastmile_qr_scan", "android": "https://dc.lft.to/lastmile_qr_scan"}}, {"name": "d389a48ba38d668fb2375eefcc39f2d7", "type": "electric_scooter", "lat": 38.91760816666667, "is_reserved": 0, "lon": -77.0228555, "fusion_lon": 0.0, "is_disabled": 0, "fusion_lat": 0.0, "bike_id": "d389a48ba38d668fb2375eefcc39f2d7", "rental_uris": {"ios": "https://dc.lft.to/lastmile_qr_scan", "android": "https://dc.lft.to/lastmile_qr_scan"}}, {"name": "b6d7423369d19879cc9402aaf4ace79e", "type": "electric_scooter", "lat": 38.917132, "is_reserved": 0, "lon": -77.03126966666666, "fusion_lon": 0.0, "is_disabled": 0, "fusion_lat": 0.0, "bike_id": "b6d7423369d19879cc9402aaf4ace79e", "rental_uris": {"ios": "https://dc.lft.to/lastmile_qr_scan", "android": "https://dc.lft.to/lastmile_qr_scan"}}, {"name": "14319e933089c1dbea7ebaf283ec63a7", "type": "electric_scooter", "lat": 38.930694333333335, "is_reserved": 0, "lon": -77.04132266666667, "fusion_lon": 0.0, "is_disabled": 0, "fusion_lat": 0.0, "bike_id": "14319e933089c1dbea7ebaf283ec63a7", "rental_uris": {"ios": "https://dc.lft.to/lastmile_qr_scan", "android": "https://dc.lft.to/lastmile_qr_scan"}}, {"name": "05b490752c0e5c017c3a8e15e43071b2", "type": "electric_scooter", "lat": 38.89951283333333, "is_reserved": 0, "lon": -76.97551133333333, "fusion_lon": 0.0, "is_disabled": 0, "fusion_lat": 0.0, "bike_id": "05b490752c0e5c017c3a8e15e43071b2", "rental_uris": {"ios": "https://dc.lft.to/lastmile_qr_scan", "android": "https://dc.lft.to/lastmile_qr_scan"}}, {"name": "a125e0e25fdb5324acd39b005512a9ea", "type": "electric_scooter", "lat": 38.921614166666664, "is_reserved": 0, "lon": -76.99400916666667, "fusion_lon": 0.0, "is_disabled": 0, "fusion_lat": 0.0, "bike_id": "a125e0e25fdb5324acd39b005512a9ea", "rental_uris": {"ios": "https://dc.lft.to/lastmile_qr_scan", "android": "https://dc.lft.to/lastmile_qr_scan"}}, {"name": "c1236ddecbfe1d3bab45165594eaff9e", "type": "electric_bike", "lat": 38.9015895, "is_reserved": 0, "lon": -77.02316366666666, "fusion_lon": 0.0, "is_disabled": 0, "fusion_lat": 0.0, "bike_id": "c1236ddecbfe1d3bab45165594eaff9e", "rental_uris": {"ios": "https://dc.lft.to/lastmile_qr_scan", "android": "https://dc.lft.to/lastmile_qr_scan"}}, {"name": "8362ca5fcec9f57dfd3301c0f512cbcc", "type": "electric_scooter", "lat": 38.91262233333333, "is_reserved": 0, "lon": -77.00364283333333, "fusion_lon": 0.0, "is_disabled": 0, "fusion_lat": 0.0, "bike_id": "8362ca5fcec9f57dfd3301c0f512cbcc", "rental_uris": {"ios": "https://dc.lft.to/lastmile_qr_scan", "android": "https://dc.lft.to/lastmile_qr_scan"}}, {"name": "53cbcf72d678847cd85f2948104888c7", "type": "electric_scooter", "lat": 38.894787666666666, "is_reserved": 0, "lon": -76.94873133333333, "fusion_lon": 0.0, "is_disabled": 0, "fusion_lat": 0.0, "bike_id": "53cbcf72d678847cd85f2948104888c7", "rental_uris": {"ios": "https://dc.lft.to/lastmile_qr_scan", "android": "https://dc.lft.to/lastmile_qr_scan"}}, {"name": "38af136b9ff73e73eb600b062ea6d442", "type": "electric_scooter", "lat": 38.89221033333333, "is_reserved": 0, "lon": -77.043715, "fusion_lon": 0.0, "is_disabled": 0, "fusion_lat": 0.0, "bike_id": "38af136b9ff73e73eb600b062ea6d442", "rental_uris": {"ios": "https://dc.lft.to/lastmile_qr_scan", "android": "https://dc.lft.to/lastmile_qr_scan"}}, {"name": "7395593f2130e07230f1d7c5bcb353cc", "type": "electric_scooter", "lat": 38.912702333333336, "is_reserved": 0, "lon": -77.0314635, "fusion_lon": 0.0, "is_disabled": 0, "fusion_lat": 0.0, "bike_id": "7395593f2130e07230f1d7c5bcb353cc", "rental_uris": {"ios": "https://dc.lft.to/lastmile_qr_scan", "android": "https://dc.lft.to/lastmile_qr_scan"}}, {"name": "c64e02f1571b7c79d3b8fa9737b9f434", "type": "electric_bike", "lat": 38.903353833333334, "is_reserved": 0, "lon": -77.04518, "fusion_lon": 0.0, "is_disabled": 0, "fusion_lat": 0.0, "bike_id": "c64e02f1571b7c79d3b8fa9737b9f434", "rental_uris": {"ios": "https://dc.lft.to/lastmile_qr_scan", "android": "https://dc.lft.to/lastmile_qr_scan"}}, {"name": "00309eaab64e2937b34396e703b7c113", "type": "electric_scooter", "lat": 38.939735166666665, "is_reserved": 0, "lon": -77.03588266666667, "fusion_lon": 0.0, "is_disabled": 0, "fusion_lat": 0.0, "bike_id": "00309eaab64e2937b34396e703b7c113", "rental_uris": {"ios": "https://dc.lft.to/lastmile_qr_scan", "android": "https://dc.lft.to/lastmile_qr_scan"}}, {"name": "feb8fe0c65167cacf9563dc911b6bf01", "type": "electric_scooter", "lat": 38.9324585, "is_reserved": 0, "lon": -77.0327815, "fusion_lon": 0.0, "is_disabled": 0, "fusion_lat": 0.0, "bike_id": "feb8fe0c65167cacf9563dc911b6bf01", "rental_uris": {"ios": "https://dc.lft.to/lastmile_qr_scan", "android": "https://dc.lft.to/lastmile_qr_scan"}}, {"name": "903540dac1c833c5ceee7e072e02b77b", "type": "electric_scooter", "lat": 38.861989, "is_reserved": 0, "lon": -76.99466933333333, "fusion_lon": 0.0, "is_disabled": 0, "fusion_lat": 0.0, "bike_id": "903540dac1c833c5ceee7e072e02b77b", "rental_uris": {"ios": "https://dc.lft.to/lastmile_qr_scan", "android": "https://dc.lft.to/lastmile_qr_scan"}}, {"name": "a2b03b1f03e1e20b6160bc589dab82fd", "type": "electric_scooter", "lat": 38.91421183333333, "is_reserved": 0, "lon": -77.03903733333334, "fusion_lon": 0.0, "is_disabled": 0, "fusion_lat": 0.0, "bike_id": "a2b03b1f03e1e20b6160bc589dab82fd", "rental_uris": {"ios": "https://dc.lft.to/lastmile_qr_scan", "android": "https://dc.lft.to/lastmile_qr_scan"}}, {"name": "6c153fceb4bb6e3f82c044010a8b260c", "type": "electric_scooter", "lat": 38.90032216666667, "is_reserved": 0, "lon": -77.01159233333334, "fusion_lon": 0.0, "is_disabled": 0, "fusion_lat": 0.0, "bike_id": "6c153fceb4bb6e3f82c044010a8b260c", "rental_uris": {"ios": "https://dc.lft.to/lastmile_qr_scan", "android": "https://dc.lft.to/lastmile_qr_scan"}}, {"name": "043667860e609722cb258af7ff375f07", "type": "electric_scooter", "lat": 38.92967766666666, "is_reserved": 0, "lon": -77.0327415, "fusion_lon": 0.0, "is_disabled": 0, "fusion_lat": 0.0, "bike_id": "043667860e609722cb258af7ff375f07", "rental_uris": {"ios": "https://dc.lft.to/lastmile_qr_scan", "android": "https://dc.lft.to/lastmile_qr_scan"}},