{"data": {"bikes": [{"fusion_lat": 0.0, "name": "b79aff95069ab877a343c914703e31de", "is_disabled": 0, "rental_uris": {"android": "https://dc.lft.to/lastmile_qr_scan", "ios": "https://dc.lft.to/lastmile_qr_scan"}, "fusion_lon": 0.0, "lat": 38.9297655, "bike_id": "b79aff95069ab877a343c914703e31de", "type": "electric_scooter", "is_reserved": 0, "lon": -77.0313465}, {"fusion_lat": 0.0, "name": "6ab59c92d994716b8cdb47b0d668f706", "is_disabled": 0, "rental_uris": {"android": "https://dc.lft.to/lastmile_qr_scan", "ios": "https://dc.lft.to/lastmile_qr_scan"}, "fusion_lon": 0.0, "lat": 38.98785933333333, "bike_id": "6ab59c92d994716b8cdb47b0d668f706", "type": "electric_bike", "is_reserved": 0, "lon": -77.14101283333333}, {"fusion_lat": 0.0, "name": "8386cc5e79b5143752c4ac7eef7b5a1c", "is_disabled": 0, "rental_uris": {"android": "https://dc.lft.to/lastmile_qr_scan", "ios": "https://dc.lft.to/lastmile_qr_scan"}, "fusion_lon": 0.0, "lat": 38.90228883333333, "bike_id": "8386cc5e79b5143752c4ac7eef7b5a1c", "type": "electric_scooter", "is_reserved": 0, "lon": -77.05991033333333}, {"fusion_lat": 0.0, "name": "498aa676dfad4fcd1dfbc625f2768d0e", "is_disabled": 0, "rental_uris": {"android": "https://dc.lft.to/lastmile_qr_scan", "ios": "https://dc.lft.to/lastmile_qr_scan"}, "fusion_lon": 0.0, "lat": 38.904145, "bike_id": "498aa676dfad4fcd1dfbc625f2768d0e", "type": "electric_scooter", "is_reserved": 0, "lon": -76.97328316666666}, {"fusion_lat": 0.0, "name": "fc331d78393b296b5a5e3136602a0d23", "is_disabled": 0, "rental_uris": {"android": "https://dc.lft.to/lastmile_qr_scan", "ios": "https://dc.lft.to/lastmile_qr_scan"}, "fusion_lon": 0.0, "lat": 38.94170183333333, "bike_id": "fc331d78393b296b5a5e3136602a0d23", "type": "electric_bike", "is_reserved": 0, "lon": -76.966486}, {"fusion_lat": 0.0, "name": "0faa7661222dd4952f7e9245eda3f8c9", "is_disabled": 0, "rental_uris": {"android": "https://dc.lft.to/lastmile_qr_scan", "ios": "https://dc.lft.to/lastmile_qr_scan"}, "fusion_lon": 0.0, "lat": 38.88510683333333, "bike_id": "0faa7661222dd4952f7e9245eda3f8c9", "type": "electric_scooter", "is_reserved": 0, "lon": -76.99761983333333}, {"fusion_lat": 0.0, "name": "c40367b184abe487ce385a414cbdc351", "is_disabled": 0, "rental_uris": {"android": "https://dc.lft.to/lastmile_qr_scan", "ios": "https://dc.lft.to/lastmile_qr_scan"}, "fusion_lon": 0.0, "lat": 38.915743666666664, "bike_id": "c40367b184abe487ce385a414cbdc351", "type": "electric_scooter", "is_reserved": 0, "lon": -77.01246}, {"fusion_lat": 0.0, "name": "07558d1639f24eafb3118744475d0c9f", "is_disabled": 0, "rental_uris": {"android": "https://dc.lft.to/lastmile_qr_scan", "ios": "https://dc.lft.to/lastmile_qr_scan"}, "fusion_lon": 0.0, "lat": 38.941509833333335, "bike_id": "07558d1639f24eafb3118744475d0c9f", "type": "electric_bike", "is_reserved": 0, "lon": -77.0019455}, {"fusion_lat": 0.0, "name": "bffa0549a87e41f8cca132f6b0a6ec32", "is_disabled": 0, "rental_uris": {"android": "https://dc.lft.to/lastmile_qr_scan", "ios": "https://dc.lft.to/lastmile_qr_scan"}, "fusion_lon": 0.0, "lat": 38.94230683333333, "bike_id": "bffa0549a87e41f8cca132f6b0a6ec32", "type": "electric_scooter", "is_reserved": 0, "lon": -77.01382266666667}, {"fusion_lat": 0.0, "name": "4a128f17f2f61d880addcfb57080b908", "is_disabled": 0, "rental_uris": {"android": "https://dc.lft.to/lastmile_qr_scan", "ios": "https://dc.lft.to/lastmile_qr_scan"}, "fusion_lon": 0.0, "lat": 38.8932825, "bike_id": "4a128f17f2f61d880addcfb57080b908", "type": "electric_scooter", "is_reserved": 0, "lon": -77.02247016666666}, {"fusion_lat": 0.0, "name": "321081d2c89e9873283bcee7f7702a6a", "is_disabled": 0, "rental_uris": {"android": "https://dc.lft.to/lastmile_qr_scan", "ios": "https://dc.lft.to/lastmile_qr_scan"}, "fusion_lon": 0.0, "lat": 38.887266, "bike_id": "321081d2c89e9873283bcee7f7702a6a", "type": "electric_scooter", "is_reserved": 0, "lon": -76.98356216666667}, {"fusion_lat": 0.0, "name": "ae84fd4a27c5a9557a9cefb354fdd760", "is_disabled": 0, "rental_uris": {"android": "https://dc.lft.to/lastmile_qr_scan", "ios": "https://dc.lft.to/lastmile_qr_scan"}, "fusion_lon": 0.0, "lat": 38.885243833333334, "bike_id": "ae84fd4a27c5a9557a9cefb354fdd760", "type": "electric_scooter", "is_reserved": 0, "lon": -77.01524783333333}, {"fusion_lat": 0.0, "name": "9d9be1ab64b9efd191d697f87ed913b3", "is_disabled": 0, "rental_uris": {"android": "https://dc.lft.to/lastmile_qr_scan", "ios": "https://dc.lft.to/lastmile_qr_scan"}, "fusion_lon": 0.0, "lat": 38.90028483333333, "bike_id": "9d9be1ab64b9efd191d697f87ed913b3", "type": "electric_scooter", "is_reserved": 0, "lon": -77.01244566666666}, {"fusion_lat": 0.0, "name": "e5764ad9fb20ad4109a574cc6dda5658", "is_disabled": 0, "rental_uris": {"android": "https://dc.lft.to/lastmile_qr_scan", "ios": "https://dc.lft.to/lastmile_qr_scan"}, "fusion_lon": 0.0, "lat": 38.89964616666666, "bike_id": "e5764ad9fb20ad4109a574cc6dda5658", "type": "electric_scooter", "is_reserved": 0, "lon": -76.98712616666667}, {"fusion_lat": 0.0, "name": "ef24390153432f2253a0a425c1d014a6", "is_disabled": 0, "rental_uris": {"android": "https://dc.lft.to/lastmile_qr_scan", "ios": "https://dc.lft.to/lastmile_qr_scan"}, "fusion_lon": 0.0, "lat": 38.92454433333333, "bike_id": "ef24390153432f2253a0a425c1d014a6", "type": "electric_scooter", "is_reserved": 0, "lon": -77.04015883333334}, {"fusion_lat": 0.0, "name": "587e939066eba80606b01271db378bc3", "is_disabled": 0, "rental_uris": {"android": "https://dc.lft.to/lastmile_qr_scan", "ios": "https://dc.lft.to/lastmile_qr_scan"}, "fusion_lon": 0.0, "lat": 38.92079116666667, "bike_id": "587e939066eba80606b01271db378bc3", "type": "electric_bike", "is_reserved": 0, "lon": -76.98946433333333}, {"fusion_lat": 0.0, "name": "5a1dc37a0ea9a3e569d196d87117a50c", "is_disabled": 0, "rental_uris": {"android": "https://dc.lft.to/lastmile_qr_scan", "ios": "https://dc.lft.to/lastmile_qr_scan"}, "fusion_lon": 0.0, "lat": 38.936573, "bike_id": "5a1dc37a0ea9a3e569d196d87117a50c", "type": "electric_scooter", "is_reserved": 0, "lon": -77.03046933333333}, {"fusion_lat": 0.0, "name": "9b93a25ffd0a550c8af82ad08e3d55f7", "is_disabled": 0, "rental_uris": {"android": "https://dc.lft.to/lastmile_qr_scan", "ios": "https://dc.lft.to/lastmile_qr_scan"}, "fusion_lon": 0.0, "lat": 38.8974895, "bike_id": "9b93a25ffd0a550c8af82ad08e3d55f7", "type": "electric_scooter", "is_reserved": 0, "lon": -77.0334495}, {"fusion_lat": 0.0, "name": "27dcb2f1287e1b58835d303e58860845", "is_disabled": 0, "rental_uris": {"android": "https://dc.lft.to/lastmile_qr_scan", "ios": "https://dc.lft.to/lastmile_qr_scan"}, "fusion_lon": 0.0, "lat": 38.91768366666667, "bike_id": "27dcb2f1287e1b58835d303e58860845", "type": "electric_scooter", "is_reserved": 0, "lon": -77.01496333333333}, {"fusion_lat": 0.0, "name": "53eb72dd4091f79c8932391947fc7c61", "is_disabled": 0, "rental_uris": {"android": "https://dc.lft.to/lastmile_qr_scan", "ios": "https://dc.lft.to/lastmile_qr_scan"}, "fusion_lon": 0.0, "lat": 38.892241, "bike_id": "53eb72dd4091f79c8932391947fc7c61", "type": "electric_scooter", "is_reserved": 0, "lon": -77.01494666666666}, {"fusion_lat": 0.0, "name": "bd6bc9fea3b2236616d01e552f460fd7", "is_disabled": 0, "rental_uris": {"android": "https://dc.lft.to/lastmile_qr_scan", "ios": "https://dc.lft.to/lastmile_qr_scan"}, "fusion_lon": 0.0, "lat": 38.92541833333333, "bike_id": "bd6bc9fea3b2236616d01e552f460fd7", "type": "electric_scooter", "is_reserved": 0, "lon": -77.0512275}, {"fusion_lat": 0.0, "name": "d140a2a76075a38e89eac347e66c524b", "is_disabled": 0, "rental_uris": {"android": "https://dc.lft.to/lastmile_qr_scan", "ios": "https://dc.lft.to/lastmile_qr_scan"}, "fusion_lon": 0.0, "lat": 38.95732816666667, "bike_id": "d140a2a76075a38e89eac347e66c524b", "type": "electric_scooter", "is_reserved": 0, "lon": -77.0240475}, {"fusion_lat": 0.0, "name": "bf059271c742a7515d179961efa8b6ad", "is_disabled": 0, "rental_uris": {"android": "https://dc.lft.to/lastmile_qr_scan", "ios": "https://dc.lft.to/lastmile_qr_scan"}, "fusion_lon": 0.0, "lat": 38.92903316666667, "bike_id": "bf059271c742a7515d179961efa8b6ad", "type": "electric_scooter", "is_reserved": 0, "lon": -77.05456883333333}, {"fusion_lat": 0.0, "name": "b9b5f3d20948b8294c85bfd3280badaf", "is_disabled": 0, "rental_uris": {"android": "https://dc.lft.to/lastmile_qr_scan", "ios": "https://dc.lft.to/lastmile_qr_scan"}, "fusion_lon": 0.0, "lat": 38.8756285, "bike_id": "b9b5f3d20948b8294c85bfd3280badaf", "type": "electric_scooter", "is_reserved": 0, "lon": -77.0073695}, {"fusion_lat": 0.0, "name": "eac965e9fa0c8ece4f47999b131c46b6", "is_disabled": 0, "rental_uris": {"android": "https://dc.lft.to/lastmile_qr_scan", "ios": "https://dc.lft.to/lastmile_qr_scan"}, "fusion_lon": 0.0, "lat": 38.945120333333335, "bike_id": "eac965e9fa0c8ece4f47999b131c46b6", "type": "electric_bike", "is_reserved": 0, "lon": -77.00678733333334}, {"fusion_lat": 0.0, "name": "f5c7c0f033bf68b9418cc7b2c034bd56", "is_disabled": 0, "rental_uris": {"android": "https://dc.lft.to/lastmile_qr_scan", "ios": "https://dc.lft.to/lastmile_qr_scan"}, "fusion_lon": 0.0, "lat": 38.916842833333334, "bike_id": "f5c7c0f033bf68b9418cc7b2c034bd56", "type": "electric_bike", "is_reserved": 0, "lon": -76.98231916666667}, {"fusion_lat": 0.0, "name": "9bf3eac7a6f31ca34747d1ce929e21ce", "is_disabled": 0, "rental_uris": {"android": "https://dc.lft.to/lastmile_qr_scan", "ios": "https://dc.lft.to/lastmile_qr_scan"}, "fusion_lon": 0.0, "lat": 38.9064865, "bike_id": "9bf3eac7a6f31ca34747d1ce929e21ce", "type": "electric_scooter", "is_reserved": 0, "lon": -77.02955566666667}, {"fusion_lat": 0.0, "name": "197a6cdc2432fa6f1ae233557903f654", "is_disabled": 0, "rental_uris": {"android": "https://dc.lft.to/lastmile_qr_scan", "ios": "https://dc.lft.to/lastmile_qr_scan"}, "fusion_lon": 0.0, "lat": 38.9080625, "bike_id": "197a6cdc2432fa6f1ae233557903f654", "type": "electric_bike", "is_reserved": 0, "lon": -77.01881816666666}, {"fusion_lat": 0.0, "name": "e2b4c5ff418fab054a0d4bbf98da7a00", "is_disabled": 0, "rental_uris": {"android": "https://dc.lft.to/lastmile_qr_scan", "ios": "https://dc.lft.to/lastmile_qr_scan"}, "fusion_lon": 0.0, "lat": 38.8951865, "bike_id": "e2b4c5ff418fab054a0d4bbf98da7a00", "type": "electric_scooter", "is_reserved": 0, "lon": -76.98078433333333}, {"fusion_lat": 0.0, "name": "73d368391b973d079a639513a1afa828", "is_disabled": 0, "rental_uris": {"android": "https://dc.lft.to/lastmile_qr_scan", "ios": "https://dc.lft.to/lastmile_qr_scan"}, "fusion_lon": 0.0, "lat": 38.9355105, "bike_id": "73d368391b973d079a639513a1afa828", "type": "electric_scooter", "is_reserved": 0, "lon": -77.02227966666666}, {"fusion_lat": 0.0, "name": "9c40e8c4c3f3e2a3729334d48e862b9b", "is_disabled": 0, "rental_uris": {"android": "https://dc.lft.to/lastmile_qr_scan", "ios": "https://dc.lft.to/lastmile_qr_scan"}, "fusion_lon": 0.0, "lat": 38.95350766666667, "bike_id": "9c40e8c4c3f3e2a3729334d48e862b9b", "type": "electric_scooter", "is_reserved": 0, "lon": -77.07949816666667}, {"fusion_lat": 0.0, "name": "0fb6a815c4cb0cd3b467ebb8fed32244", "is_disabled": 0, "rental_uris": {"android": "https://dc.lft.to/lastmile_qr_scan", "ios": "https://dc.lft.to/lastmile_qr_scan"}, "fusion_lon": 0.0, "lat": 38.88128533333333, "bike_id": "0fb6a815c4cb0cd3b467ebb8fed32244", "type": "electric_scooter", "is_reserved": 0, "lon": -76.9928215}, {"fusion_lat": 0.0, "name": "1c3c202def367209208f693e118477d4", "is_disabled": 0, "rental_uris": {"android": "https://dc.lft.to/lastmile_qr_scan", "ios": "https://dc.lft.to/lastmile_qr_scan"}, "fusion_lon": 0.0, "lat": 38.9111605, "bike_id": "1c3c202def367209208f693e118477d4", "type": "electric_scooter", "is_reserved": 0, "lon": -76.99763583333333}, {"fusion_lat": 0.0, "name": "8d1d3066b7c262e441d5c97b2af39486", "is_disabled": 0, "rental_uris": {"android": "https://dc.lft.to/lastmile_qr_scan", "ios": "https://dc.lft.to/lastmile_qr_scan"}, "fusion_lon": 0.0, "lat": 38.94981383333333, "bike_id": "8d1d3066b7c262e441d5c97b2af39486", "type": "electric_scooter", "is_reserved": 0, "lon": -77.02697633333334}, {"fusion_lat": 0.0, "name": "109dcce6709380552a6c2a61fb896266", "is_disabled": 0, "rental_uris": {"android": "https://dc.lft.to/lastmile_qr_scan", "ios": "https://dc.lft.to/lastmile_qr_scan"}, "fusion_lon": 0.0, "lat": 38.9306705, "bike_id": "109dcce6709380552a6c2a61fb896266", "type": "electric_scooter", "is_reserved": 0, "lon": -77.03944633333333}, {"fusion_lat": 0.0, "name": "fa7557400715a639f5e9b152f1b0d9eb", "is_disabled": 0, "rental_uris": {"android": "https://dc.lft.to/lastmile_qr_scan", "ios": "https://dc.lft.to/lastmile_qr_scan"}, "fusion_lon": 0.0, "lat": 38.94980666666667, "bike_id": "fa7557400715a639f5e9b152f1b0d9eb", "type": "electric_scooter", "is_reserved": 0, "lon": -77.02702866666667}, {"fusion_lat": 0.0, "name": "358d341f7dbad87c8ffcbff77335a422", "is_disabled": 0, "rental_uris": {"android": "https://dc.lft.to/lastmile_qr_scan", "ios": "https://dc.lft.to/lastmile_qr_scan"}, "fusion_lon": 0.0, "lat": 38.933872666666666, "bike_id": "358d341f7dbad87c8ffcbff77335a422", "type": "electric_scooter", "is_reserved": 0, "lon": -77.03290316666667}, {"fusion_lat": 0.0, "name": "2a0c09031564bac4179768b834981105", "is_disabled": 0, "rental_uris": {"android": "https://dc.lft.to/lastmile_qr_scan", "ios": "https://dc.lft.to/lastmile_qr_scan"}, "fusion_lon": 0.0, "lat": 38.92896566666667, "bike_id": "2a0c09031564bac4179768b834981105", "type": "electric_bike", "is_reserved": 0, "lon": -77.23177616666666}, {"fusion_lat": 0.0, "name": "ae417cbd60c56d0983060068813cd7df", "is_disabled": 0, "rental_uris": {"android": "https://dc.lft.to/lastmile_qr_scan", "ios": "https://dc.lft.to/lastmile_qr_scan"}, "fusion_lon": 0.0, "lat": 38.90088216666667, "bike_id": "ae417cbd60c56d0983060068813cd7df", "type": "electric_scooter", "is_reserved": 0, "lon": -76.98335783333333}, {"fusion_lat": 0.0, "name": "22fb729c2415cbf80941f5d82c59469d", "is_disabled": 0, "rental_uris": {"android": "https://dc.lft.to/lastmile_qr_scan", "ios": "https://dc.lft.to/lastmile_qr_scan"}, "fusion_lon": 0.0, "lat": 38.91041766666667, "bike_id": "22fb729c2415cbf80941f5d82c59469d", "type": "electric_scooter", "is_reserved": 0, "lon": -77.00832333333334}, {"fusion_lat": 0.0, "name": "4e05463ea71eb60d7141824c2b5d24d1", "is_disabled": 0, "rental_uris": {"android": "https://dc.lft.to/lastmile_qr_scan", "ios": "https://dc.lft.to/lastmile_qr_scan"}, "fusion_lon": 0.0, "lat": 38.952779666666665, "bike_id": "4e05463ea71eb60d7141824c2b5d24d1", "type": "electric_scooter", "is_reserved": 0, "lon": -77.06867466666667}, {"fusion_lat": 0.0, "name": "0fa7baafa99a49cd1327fcb57b81ef9b", "is_disabled": 0, "rental_uris": {"android": "https://dc.lft.to/lastmile_qr_scan", "ios": "https://dc.lft.to/lastmile_qr_scan"}, "fusion_lon": 0.0, "lat": 38.9256055, "bike_id": "0fa7baafa99a49cd1327fcb57b81ef9b", "type": "electric_scooter", "is_reserved": 0, "lon": -77.03835333333333}, {"fusion_lat": 0.0, "name": "024842602f03ad05a02a37534f68c7ef", "is_disabled": 0, "rental_uris": {"android": "https://dc.lft.to/lastmile_qr_scan", "ios": "https://dc.lft.to/lastmile_qr_scan"}, "fusion_lon": 0.0, "lat": 38.9388175, "bike_id": "024842602f03ad05a02a37534f68c7ef", "type": "electric_scooter", "is_reserved": 0, "lon": -77.02458283333333}, {"fusion_lat": 0.0, "name": "a32a4519b88b3e8775fa5732a40f7a01", "is_disabled": 0, "rental_uris": {"android": "https://dc.lft.to/lastmile_qr_scan", "ios": "https://dc.lft.to/lastmile_qr_scan"}, "fusion_lon": 0.0, "lat": 38.89789416666667, "bike_id": "a32a4519b88b3e8775fa5732a40f7a01", "type": "electric_scooter", "is_reserved": 0, "lon": -77.01199}, {"fusion_lat": 0.0, "name": "5711ba03c20658988b13cf6ccf2904ce", "is_disabled": 0, "rental_uris": {"android": "https://dc.lft.to/lastmile_qr_scan", "ios": "https://dc.lft.to/lastmile_qr_scan"}, "fusion_lon": 0.0, "lat": 38.8906935, "bike_id": "5711ba03c20658988b13cf6ccf2904ce", "type": "electric_scooter", "is_reserved": 0, "lon": -76.94437283333333}, {"fusion_lat": 0.0, "name": "3af24ac4a3dd633494ac2ded7222f623", "is_disabled": 0, "rental_uris": {"android": "https://dc.lft.to/lastmile_qr_scan", "ios": "https://dc.lft.to/lastmile_qr_scan"}, "fusion_lon": 0.0, "lat": 38.897447, "bike_id": "3af24ac4a3dd633494ac2ded7222f623", "type": "electric_scooter", "is_reserved": 0, "lon": -77.04534183333334}, {"fusion_lat": 0.0, "name": "76d2caec9376aacb25c99c157ff1568a", "is_disabled": 0, "rental_uris": {"android": "https://dc.lft.to/lastmile_qr_scan", "ios": "https://dc.lft.to/lastmile_qr_scan"}, "fusion_lon": 0.0, "lat": 38.9040565, "bike_id": "76d2caec9376aacb25c99c157ff1568a", "type": "electric_scooter", "is_reserved": 0, "lon": -77.00579083333334}, {"fusion_lat": 0.0, "name": "779d8470e5456caf2607550b687bd577", "is_disabled": 0, "rental_uris": {"android": "https://dc.lft.to/lastmile_qr_scan", "ios": "https://dc.lft.to/lastmile_qr_scan"}, "fusion_lon": 0.0, "lat": 38.91319, "bike_id": "779d8470e5456caf2607550b687bd577", "type": "electric_scooter", "is_reserved": 0, "lon": -77.0364505}, {"fusion_lat": 0.0, "name": "ad185d5244e290d3edcf97352b485b8c", "is_disabled": 0, "rental_uris": {"android": "https://dc.lft.to/lastmile_qr_scan", "ios": "https://dc.lft.to/lastmile_qr_scan"}, "fusion_lon": 0.0, "lat": 38.913919666666665, "bike_id": "ad185d5244e290d3edcf97352b485b8c", "type": "electric_scooter", "is_reserved": 0, "lon": -76.98412833333333}, {"fusion_lat": 0.0, "name": "8f24fa462ffeb781a25ddadf76b7aa0c", "is_disabled": 0, "rental_uris": {"android": "https://dc.lft.to/lastmile_qr_scan", "ios": "https://dc.lft.to/lastmile_qr_scan"}, "fusion_lon": 0.0, "lat": 38.880656, "bike_id": "8f24fa462ffeb781a25ddadf76b7aa0c", "type": "electric_scooter", "is_reserved": 0, "lon": -76.98505616666667}, {"fusion_lat": 0.0, "name": "969b849d3e923e1adcf6836f580149b8", "is_disabled": 0, "rental_uris": {"android": "https://dc.lft.to/lastmile_qr_scan", "ios": "https://dc.lft.to/lastmile_qr_scan"}, "fusion_lon": 0.0, "lat": 38.907863, "bike_id": "969b849d3e923e1adcf6836f580149b8", "type": "electric_scooter", "is_reserved": 0, "lon": -77.0386275}, {"fusion_lat": 0.0, "name": "600135500ef28dc926613306e297b975", "is_disabled": 0, "rental_uris": {"android": "https://dc.lft.to/lastmile_qr_scan", "ios": "https://dc.lft.to/lastmile_qr_scan"}, "fusion_lon": 0.0, "lat": 38.912711, "bike_id": "600135500ef28dc926613306e297b975", "type": "electric_scooter", "is_reserved": 0, "lon": -77.0446635}, {"fusion_lat": 0.0, "name": "88cbb825cb124db3c0985c48c8f2decf", "is_disabled": 0, "rental_uris": {"android": "https://dc.lft.to/lastmile_qr_scan", "ios": "https://dc.lft.to/lastmile_qr_scan"}, "fusion_lon": 0.0, "lat": 38.9228745, "bike_id": "88cbb825cb124db3c0985c48c8f2decf", "type": "electric_scooter", "is_reserved": 0, "lon": -77.03682516666667}, {"fusion_lat": 0.0, "name": "3085a8db9d2aca65fcd51a8e8eec5c2e", "is_disabled": 0, "rental_uris": {"android": "https://dc.lft.to/lastmile_qr_scan", "ios": "https://dc.lft.to/lastmile_qr_scan"}, "fusion_lon": 0.0, "lat": 38.960127166666666, "bike_id": "3085a8db9d2aca65fcd51a8e8eec5c2e", "type": "electric_scooter", "is_reserved": 0, "lon": -77.01974183333333}, {"fusion_lat": 0.0, "name": "216b81ec0b29dbe88ebca3859ba941db", "is_disabled": 0, "rental_uris": {"android": "https://dc.lft.to/lastmile_qr_scan", "ios": "https://dc.lft.to/lastmile_qr_scan"}, "fusion_lon": 0.0, "lat": 38.917955166666665, "bike_id": "216b81ec0b29dbe88ebca3859ba941db", "type": "electric_scooter", "is_reserved": 0, "lon": -77.009231}, {"fusion_lat": 0.0, "name": "517699d4749e5a7b8239d25ad45042b9", "is_disabled": 0, "rental_uris": {"android": "https://dc.lft.to/lastmile_qr_scan", "ios": "https://dc.lft.to/lastmile_qr_scan"}, "fusion_lon": 0.0, "lat": 38.923959333333336, "bike_id": "517699d4749e5a7b8239d25ad45042b9", "type": "electric_scooter", "is_reserved": 0, "lon": -77.02523366666667}, {"fusion_lat": 0.0, "name": "0e429d100ce858aa23e6161d2e792b0e", "is_disabled": 0, "rental_uris": {"android": "https://dc.lft.to/lastmile_qr_scan", "ios": "https://dc.lft.to/lastmile_qr_scan"}, "fusion_lon": 0.0, "lat": 38.905226, "bike_id": "0e429d100ce858aa23e6161d2e792b0e", "type": "electric_scooter", "is_reserved": 0, "lon": -77.06452816666666}, {"fusion_lat": 0.0, "name": "3f33376efc1ab246813d7e1485ddf314", "is_disabled": 0, "rental_uris": {"android": "https://dc.lft.to/lastmile_qr_scan", "ios": "https://dc.lft.to/lastmile_qr_scan"}, "fusion_lon": 0.0, "lat": 38.9245975, "bike_id": "3f33376efc1ab246813d7e1485ddf314", "type": "electric_scooter", "is_reserved": 0, "lon": -77.03625916666667}, {"fusion_lat": 0.0, "name": "53b3b1da1dc5b1faf4bee97d3db76058", "is_disabled": 0, "rental_uris": {"android": "https://dc.lft.to/lastmile_qr_scan", "ios": "https://dc.lft.to/lastmile_qr_scan"}, "fusion_lon": 0.0, "lat": 38.90148083333333, "bike_id": "53b3b1da1dc5b1faf4bee97d3db76058", "type": "electric_scooter", "is_reserved": 0, "lon": -76.99838816666667}, {"fusion_lat": 0.0, "name": "c65d364cd78c5e145ef1657fb1fa97f4", "is_disabled": 0, "rental_uris": {"android": "https://dc.lft.to/lastmile_qr_scan", "ios": "https://dc.lft.to/lastmile_qr_scan"}, "fusion_lon": 0.0, "lat": 38.853615166666664, "bike_id": "c65d364cd78c5e145ef1657fb1fa97f4", "type": "electric_bike", "is_reserved": 0, "lon": -77.13460733333334}, {"fusion_lat": 0.0, "name": "4c923c2b6a4a1d3fe46b1ed0d79547e8", "is_disabled": 0, "rental_uris": {"android": "https://dc.lft.to/lastmile_qr_scan", "ios": "https://dc.lft.to/lastmile_qr_scan"}, "fusion_lon": 0.0, "lat": 38.9214785, "bike_id": "4c923c2b6a4a1d3fe46b1ed0d79547e8", "type": "electric_scooter", "is_reserved": 0, "lon": -77.03394883333333}, {"fusion_lat": 0.0, "name": "c278e3743cacff56f374beeaca7d79a2", "is_disabled": 0, "rental_uris": {"android": "https://dc.lft.to/lastmile_qr_scan", "ios": "https://dc.lft.to/lastmile_qr_scan"}, "fusion_lon": 0.0, "lat": 38.847618, "bike_id": "c278e3743cacff56f374beeaca7d79a2", "type": "electric_scooter", "is_reserved": 0, "lon": -76.995016}, {"fusion_lat": 0.0, "name": "a38f4145b8b5ec79bc74ae434d95cd91", "is_disabled": 0, "rental_uris": {"android": "https://dc.lft.to/lastmile_qr_scan", "ios": "https://dc.lft.to/lastmile_qr_scan"}, "fusion_lon": 0.0, "lat": 38.907033, "bike_id": "a38f4145b8b5ec79bc74ae434d95cd91", "type": "electric_scooter", "is_reserved": 0, "lon": -77.037243}, {"fusion_lat": 0.0, "name": "6ca118a467f6ecfd8b35766436811d7a", "is_disabled": 0, "rental_uris": {"android": "https://dc.lft.to/lastmile_qr_scan", "ios": "https://dc.lft.to/lastmile_qr_scan"}, "fusion_lon": 0.0, "lat": 38.914922833333335, "bike_id": "6ca118a467f6ecfd8b35766436811d7a", "type": "electric_scooter", "is_reserved": 0, "lon": -77.01319683333334}, {"fusion_lat": 0.0, "name": "809880c29ffe5b9e6e5848aef76dad6b", "is_disabled": 0, "rental_uris": {"android": "https://dc.lft.to/lastmile_qr_scan", "ios": "https://dc.lft.to/lastmile_qr_scan"}, "fusion_lon": 0.0, "lat": 38.922285, "bike_id": "809880c29ffe5b9e6e5848aef76dad6b", "type": "electric_scooter", "is_reserved": 0, "lon": -77.02367083333333}, {"fusion_lat": 0.0, "name": "5e13fd95ed9db3899bb86b829771815d", "is_disabled": 0, "rental_uris": {"android": "https://dc.lft.to/lastmile_qr_scan", "ios": "https://dc.lft.to/lastmile_qr_scan"}, "fusion_lon": 0.0, "lat": 38.93074166666667, "bike_id": "5e13fd95ed9db3899bb86b829771815d", "type": "electric_scooter", "is_reserved": 0, "lon": -77.0217855}, {"fusion_lat": 0.0, "name": "53b8682abb1e0354c6f164baacf90ebf", "is_disabled": 0, "rental_uris": {"android": "https://dc.lft.to/lastmile_qr_scan", "ios": "https://dc.lft.to/lastmile_qr_scan"}, "fusion_lon": 0.0, "lat": 38.89736583333333, "bike_id": "53b8682abb1e0354c6f164baacf90ebf", "type": "electric_scooter", "is_reserved": 0, "lon": -77.04645716666667}, {"fusion_lat": 0.0, "name": "9c2bc5764451abae01560057e15970fc", "is_disabled": 0, "rental_uris": {"android": "https://dc.lft.to/lastmile_qr_scan", "ios": "https://dc.lft.to/lastmile_qr_scan"}, "fusion_lon": 0.0, "lat": 38.9126725, "bike_id": "9c2bc5764451abae01560057e15970fc", "type": "electric_scooter", "is_reserved": 0, "lon": -77.03860683333333}, {"fusion_lat": 0.0, "name": "659ace2b194cf404c133ab0a9267c161", "is_disabled": 0, "rental_uris": {"android": "https://dc.lft.to/lastmile_qr_scan", "ios": "https://dc.lft.to/lastmile_qr_scan"}, "fusion_lon": 0.0, "lat": 38.937748166666665, "bike_id": "659ace2b194cf404c133ab0a9267c161", "type": "electric_scooter", "is_reserved": 0, "lon": -77.03262566666666}, {"fusion_lat": 0.0, "name": "ad09e51c9b6780391dac1f904493fbf1", "is_disabled": 0, "rental_uris": {"android": "https://dc.lft.to/lastmile_qr_scan", "ios": "https://dc.lft.to/lastmile_qr_scan"}, "fusion_lon": 0.0, "lat": 38.827912, "bike_id": "ad09e51c9b6780391dac1f904493fbf1", "type": "electric_bike", "is_reserved": 0, "lon": -77.12491233333333}, {"fusion_lat": 0.0, "name": "740293c7ad7a194368de6017e846840c", "is_disabled": 0, "rental_uris": {"android": "https://dc.lft.to/lastmile_qr_scan", "ios": "https://dc.lft.to/lastmile_qr_scan"}, "fusion_lon": 0.0, "lat": 38.91112233333333, "bike_id": "740293c7ad7a194368de6017e846840c", "type": "electric_scooter", "is_reserved": 0, "lon": -77.081372}, {"fusion_lat": 0.0, "name": "21da9ddec678195ea71eebb38b31b615", "is_disabled": 0, "rental_uris": {"android": "https://dc.lft.to/lastmile_qr_scan", "ios": "https://dc.lft.to/lastmile_qr_scan"}, "fusion_lon": 0.0, "lat": 38.9215945, "bike_id": "21da9ddec678195ea71eebb38b31b615", "type": "electric_scooter", "is_reserved": 0, "lon": -77.033653}, {"fusion_lat": 0.0, "name": "3a99d4f5eb14c3f8d238ee2c82377228", "is_disabled": 0, "rental_uris": {"android": "https://dc.lft.to/lastmile_qr_scan", "ios": "https://dc.lft.to/lastmile_qr_scan"}, "fusion_lon": 0.0, "lat": 38.914863, "bike_id": "3a99d4f5eb14c3f8d238ee2c82377228", "type": "electric_scooter", "is_reserved": 0, "lon": -77.040164}, {"fusion_lat": 0.0, "name": "ccdb64e7c80a69bd634a6f67090006f0", "is_disabled": 0, "rental_uris": {"android": "https://dc.lft.to/lastmile_qr_scan", "ios": "https://dc.lft.to/lastmile_qr_scan"}, "fusion_lon": 0.0, "lat": 38.905249833333336, "bike_id": "ccdb64e7c80a69bd634a6f67090006f0", "type": "electric_scooter", "is_reserved": 0, "lon": -77.00740633333334}, {"fusion_lat": 0.0, "name": "ab7e60ee1d451c0d92d9d8713dc1c7ad", "is_disabled": 0, "rental_uris": {"android": "https://dc.lft.to/lastmile_qr_scan", "ios": "https://dc.lft.to/lastmile_qr_scan"}, "fusion_lon": 0.0, "lat": 38.897098166666666, "bike_id": "ab7e60ee1d451c0d92d9d8713dc1c7ad", "type": "electric_scooter", "is_reserved": 0, "lon": -77.0228895}, {"fusion_lat": 0.0, "name": "081ac32b4acd723157a780a3be015122", "is_disabled": 0, "rental_uris": {"android": "https://dc.lft.to/lastmile_qr_scan", "ios": "https://dc.lft.to/lastmile_qr_scan"}, "fusion_lon": 0.0, "lat": 38.928270833333336, "bike_id": "081ac32b4acd723157a780a3be015122", "type": "electric_scooter", "is_reserved": 0, "lon": -77.0225535}, {"fusion_lat": 0.0, "name": "0f8a56b360cb284220f8407edee80105", "is_disabled": 0, "rental_uris": {"android": "https://dc.lft.to/lastmile_qr_scan", "ios": "https://dc.lft.to/lastmile_qr_scan"}, "fusion_lon": 0.0, "lat": 38.907717833333336, "bike_id": "0f8a56b360cb284220f8407edee80105", "type": "electric_scooter", "is_reserved": 0, "lon": -77.05649433333333}, {"fusion_lat": 0.0, "name": "81a7238acf9f8ea48eaa4d32edfceaec", "is_disabled": 0, "rental_uris": {"android": "https://dc.lft.to/lastmile_qr_scan", "ios": "https://dc.lft.to/lastmile_qr_scan"}, "fusion_lon": 0.0, "lat": 38.885425, "bike_id": "81a7238acf9f8ea48eaa4d32edfceaec", "type": "electric_scooter", "is_reserved": 0, "lon": -77.00055933333333}, {"fusion_lat": 0.0, "name": "426e55627912b56a5d703dc6c8ade749", "is_disabled": 0, "rental_uris": {"android": "https://dc.lft.to/lastmile_qr_scan", "ios": "https://dc.lft.to/lastmile_qr_scan"}, "fusion_lon": 0.0, "lat": 38.90234933333333, "bike_id": "426e55627912b56a5d703dc6c8ade749", "type": "electric_scooter", "is_reserved": 0, "lon": -77.034735}, {"fusion_lat": 0.0, "name": "b2202b7b224b6679a264b59ccb0aab14", "is_disabled": 0, "rental_uris": {"android": "https://dc.lft.to/lastmile_qr_scan", "ios": "https://dc.lft.to/lastmile_qr_scan"}, "fusion_lon": 0.0, "lat": 38.939694833333334, "bike_id": "b2202b7b224b6679a264b59ccb0aab14", "type": "electric_scooter", "is_reserved": 0, "lon": -77.032815}, {"fusion_lat": 0.0, "name": "8870a874d65c8599c01e20144e8d448b", "is_disabled": 0, "rental_uris": {"android": "https://dc.lft.to/lastmile_qr_scan", "ios": "https://dc.lft.to/lastmile_qr_scan"}, "fusion_lon": 0.0, "lat": 38.883291166666666, "bike_id": "8870a874d65c8599c01e20144e8d448b", "type": "electric_bike", "is_reserved": 0, "lon": -76.96055533333333}, {"fusion_lat": 0.0, "name": "546c0bbc013af442b03bd1e292979009", "is_disabled": 0, "rental_uris": {"android": "https://dc.lft.to/lastmile_qr_scan", "ios": "https://dc.lft.to/lastmile_qr_scan"}, "fusion_lon": 0.0, "lat": 38.916373666666665, "bike_id": "546c0bbc013af442b03bd1e292979009", "type": "electric_scooter", "is_reserved": 0, "lon": -77.00098466666667}, {"fusion_lat": 0.0, "name": "e9ba61f2e611d00bcea175b52a19903e", "is_disabled": 0, "rental_uris": {"android": "https://dc.lft.to/lastmile_qr_scan", "ios": "https://dc.lft.to/lastmile_qr_scan"}, "fusion_lon": 0.0, "lat": 38.917551, "bike_id": "e9ba61f2e611d00bcea175b52a19903e", "type": "electric_scooter", "is_reserved": 0, "lon": -77.03080216666666}, {"fusion_lat": 0.0, "name": "6b3038a9d71da4819a3a0e0ed3096764", "is_disabled": 0, "rental_uris": {"android": "https://dc.lft.to/lastmile_qr_scan", "ios": "https://dc.lft.to/lastmile_qr_scan"}, "fusion_lon": 0.0, "lat": 38.896073333333334, "bike_id": "6b3038a9d71da4819a3a0e0ed3096764", "type": "electric_scooter", "is_reserved": 0, "lon": -77.00932283333333}, {"fusion_lat": 0.0, "name": "98d4fee68576b9d9f30643714f1e1a56", "is_disabled": 0, "rental_uris": {"android": "https://dc.lft.to/lastmile_qr_scan", "ios": "https://dc.lft.to/lastmile_qr_scan"}, "fusion_lon": 0.0, "lat": 38.905614666666665, "bike_id": "98d4fee68576b9d9f30643714f1e1a56", "type": "electric_scooter", "is_reserved": 0, "lon": -77.04195}, {"fusion_lat": 0.0, "name": "20989b09caf7c658f6a90f244881383f", "is_disabled": 0, "rental_uris": {"android": "https://dc.lft.to/lastmile_qr_scan", "ios": "https://dc.lft.to/lastmile_qr_scan"}, "fusion_lon": 0.0, "lat": 38.88419566666666, "bike_id": "20989b09caf7c658f6a90f244881383f", "type": "electric_scooter", "is_reserved": 0, "lon": -76.9921445}, {"fusion_lat": 0.0, "name": "72249113496c0c2e1728a562f7f8b06c", "is_disabled": 0, "rental_uris": {"android": "https://dc.lft.to/lastmile_qr_scan", "ios": "https://dc.lft.to/lastmile_qr_scan"}, "fusion_lon": 0.0, "lat": 38.895430833333336, "bike_id": "72249113496c0c2e1728a562f7f8b06c", "type": "electric_scooter", "is_reserved": 0, "lon": -77.01122233333334}, {"fusion_lat": 0.0, "name": "8164a52b5e16213e27c980597190ec71", "is_disabled": 0, "rental_uris": {"android": "https://dc.lft.to/lastmile_qr_scan", "ios": "https://dc.lft.to/lastmile_qr_scan"}, "fusion_lon": 0.0, "lat": 38.92386583333333, "bike_id": "8164a52b5e16213e27c980597190ec71", "type": "electric_scooter", "is_reserved": 0, "lon": -77.0354575}, {"fusion_lat": 0.0, "name": "3191b30c13a2dd056852c3f9f95242c9", "is_disabled": 0, "rental_uris": {"android": "https://dc.lft.to/lastmile_qr_scan", "ios": "https://dc.lft.to/lastmile_qr_scan"}, "fusion_lon": 0.0, "lat": 38.905619333333334, "bike_id": "3191b30c13a2dd056852c3f9f95242c9", "type": "electric_scooter", "is_reserved": 0, "lon": -77.05139916666667}, {"fusion_lat": 0.0, "name": "e3717e93706151820ba0d087762afecd", "is_disabled": 0, "rental_uris": {"android": "https://dc.lft.to/lastmile_qr_scan", "ios": "https://dc.lft.to/lastmile_qr_scan"}, "fusion_lon": 0.0, "lat": 38.9419185, "bike_id": "e3717e93706151820ba0d087762afecd", "type": "electric_scooter", "is_reserved": 0, "lon": -77.023175}, {"fusion_lat": 0.0, "name": "dece4e95b7d9a9fbe16ec518eb1f839e", "is_disabled": 0, "rental_uris": {"android": "https://dc.lft.to/lastmile_qr_scan", "ios": "https://dc.lft.to/lastmile_qr_scan"}, "fusion_lon": 0.0, "lat": 38.919273, "bike_id": "dece4e95b7d9a9fbe16ec518eb1f839e", "type": "electric_scooter", "is_reserved": 0, "lon": -77.009832}, {"fusion_lat": 0.0, "name": "05970dc0f713ba4ff113f2b2fbf7c54f", "is_disabled": 0, "rental_uris": {"android": "https://dc.lft.to/lastmile_qr_scan", "ios": "https://dc.lft.to/lastmile_qr_scan"}, "fusion_lon": 0.0, "lat": 38.9037485, "bike_id": "05970dc0f713ba4ff113f2b2fbf7c54f", "type": "electric_scooter", "is_reserved": 0, "lon": -77.0357685}, {"fusion_lat": 0.0, "name": "51fbe15f41d8f732ea14ccd1c0c09488", "is_disabled": 0, "rental_uris": {"android": "https://dc.lft.to/lastmile_qr_scan", "ios": "https://dc.lft.to/lastmile_qr_scan"}, "fusion_lon": 0.0, "lat": 38.911264833333334, "bike_id": "51fbe15f41d8f732ea14ccd1c0c09488", "type": "electric_scooter", "is_reserved": 0, "lon": -77.00928683333333}, {"fusion_lat": 0.0, "name": "511655bc4ace377b6345062215d2c161", "is_disabled": 0, "rental_uris": {"android": "https://dc.lft.to/lastmile_qr_scan", "ios": "https://dc.lft.to/lastmile_qr_scan"}, "fusion_lon": 0.0, "lat": 38.813323, "bike_id": "511655bc4ace377b6345062215d2c161", "type": "electric_bike", "is_reserved": 0, "lon": -77.05085216666667}, {"fusion_lat": 0.0, "name": "3c02cc0804c5e16c4b262e119bf2a0ff", "is_disabled": 0, "rental_uris": {"android": "https://dc.lft.to/lastmile_qr_scan", "ios": "https://dc.lft.to/lastmile_qr_scan"}, "fusion_lon": 0.0, "lat": 38.900324, "bike_id": "3c02cc0804c5e16c4b262e119bf2a0ff", "type": "electric_scooter", "is_reserved": 0, "lon": -77.01241783333333}, {"fusion_lat": 0.0, "name": "6f75855e580dcd679c4d51aad2326a3f", "is_disabled": 0, "rental_uris": {"android": "https://dc.lft.to/lastmile_qr_scan", "ios": "https://dc.lft.to/lastmile_qr_scan"}, "fusion_lon": 0.0, "lat": 38.9148265, "bike_id": "6f75855e580dcd679c4d51aad2326a3f", "type": "electric_scooter", "is_reserved": 0, "lon": -77.0327165}, {"fusion_lat": 0.0, "name": "44346839099492d80eb50e5bc0a9af23", "is_disabled": 0, "rental_uris": {"android": "https://dc.lft.to/lastmile_qr_scan", "ios": "https://dc.lft.to/lastmile_qr_scan"}, "fusion_lon": 0.0, "lat": 38.922936666666665, "bike_id": "44346839099492d80eb50e5bc0a9af23", "type": "electric_scooter", "is_reserved": 0, "lon": -77.073347}, {"fusion_lat": 0.0, "name": "3b1dafe991593d1d34dd7982e5c7ec8f", "is_disabled": 0, "rental_uris": {"android": "https://dc.lft.to/lastmile_qr_scan", "ios": "https://dc.lft.to/lastmile_qr_scan"}, "fusion_lon": 0.0, "lat": 38.9952305, "bike_id": "3b1dafe991593d1d34dd7982e5c7ec8f", "type": "electric_bike", "is_reserved": 0, "lon": -77.02908466666666}, {"fusion_lat": 0.0, "name": "ce345d9edb9333e56bf4580369b71fee", "is_disabled": 0, "rental_uris": {"android": "https://dc.lft.to/lastmile_qr_scan", "ios": "https://dc.lft.to/lastmile_qr_scan"}, "fusion_lon": 0.0, "lat": 38.899538666666665, "bike_id": "ce345d9edb9333e56bf4580369b71fee", "type": "electric_scooter", "is_reserved": 0, "lon": -77.045332}, {"fusion_lat": 0.0, "name": "06b7ea14ed15ce9b03a3272d8f7d25ca", "is_disabled": 0, "rental_uris": {"android": "https://dc.lft.to/lastmile_qr_scan", "ios": "https://dc.lft.to/lastmile_qr_scan"}, "fusion_lon": 0.0, "lat": 38.937644666666664, "bike_id": "06b7ea14ed15ce9b03a3272d8f7d25ca", "type": "electric_scooter", "is_reserved": 0, "lon": -77.07598633333333}, {"fusion_lat": 0.0, "name": "f1adbac527708ec6b491de4cca23099b", "is_disabled": 0, "rental_uris": {"android": "https://dc.lft.to/lastmile_qr_scan", "ios": "https://dc.lft.to/lastmile_qr_scan"}, "fusion_lon": 0.0, "lat": 38.91714833333333, "bike_id": "f1adbac527708ec6b491de4cca23099b", "type": "electric_scooter", "is_reserved": 0, "lon": -77.026963}, {"fusion_lat": 0.0, "name": "82e1c36560df5bc429eb05c4a386fff7", "is_disabled": 0, "rental_uris": {"android": "https://dc.lft.to/lastmile_qr_scan", "ios": "https://dc.lft.to/lastmile_qr_scan"}, "fusion_lon": 0.0, "lat": 38.907219166666664, "bike_id": "82e1c36560df5bc429eb05c4a386fff7", "type": "electric_scooter", "is_reserved": 0, "lon": -76.998259}, {"fusion_lat": 0.0, "name": "49cf171d896f077f6e16dba472f54a2f", "is_disabled": 0, "rental_uris": {"android": "https://dc.lft.to/lastmile_qr_scan", "ios": "https://dc.lft.to/lastmile_qr_scan"}, "fusion_lon": 0.0, "lat": 38.902961166666664, "bike_id": "49cf171d896f077f6e16dba472f54a2f", "type": "electric_scooter", "is_reserved": 0, "lon": -76.99033916666667}, {"fusion_lat": 0.0, "name": "9a4e11afddf3d6bc77c2afa61458a01a", "is_disabled": 0, "rental_uris": {"android": "https://dc.lft.to/lastmile_qr_scan", "ios": "https://dc.lft.to/lastmile_qr_scan"}, "fusion_lon": 0.0, "lat": 38.922528, "bike_id": "9a4e11afddf3d6bc77c2afa61458a01a", "type": "electric_scooter", "is_reserved": 0, "lon": -77.03386316666666}, {"fusion_lat": 0.0, "name": "717b33e1f0ba2a05f0bcebc08c8f347e", "is_disabled": 0, "rental_uris": {"android": "https://dc.lft.to/lastmile_qr_scan", "ios": "https://dc.lft.to/lastmile_qr_scan"}, "fusion_lon": 0.0, "lat": 38.915555, "bike_id": "717b33e1f0ba2a05f0bcebc08c8f347e", "type": "electric_scooter", "is_reserved": 0, "lon": -77.03516}, {"fusion_lat": 0.0, "name": "b1c84fc8717047aa27637c85cfbed9af", "is_disabled": 0, "rental_uris": {"android": "https://dc.lft.to/lastmile_qr_scan", "ios": "https://dc.lft.to/lastmile_qr_scan"}, "fusion_lon": 0.0, "lat": 38.90413983333333, "bike_id": "b1c84fc8717047aa27637c85cfbed9af", "type": "electric_scooter", "is_reserved": 0, "lon": -76.97329933333333}, {"fusion_lat": 0.0, "name": "bd38ad339a518273bc49ff0b8011961a", "is_disabled": 0, "rental_uris": {"android": "https://dc.lft.to/lastmile_qr_scan", "ios": "https://dc.lft.to/lastmile_qr_scan"}, "fusion_lon": 0.0, "lat": 38.89750216666667, "bike_id": "bd38ad339a518273bc49ff0b8011961a", "type": "electric_scooter", "is_reserved": 0, "lon": -77.05170333333334}, {"fusion_lat": 0.0, "name": "0fd5bceb0e39d1dfe5f572b2175a7f7c", "is_disabled": 0, "rental_uris": {"android": "https://dc.lft.to/lastmile_qr_scan", "ios": "https://dc.lft.to/lastmile_qr_scan"}, "fusion_lon": 0.0, "lat": 38.897483, "bike_id": "0fd5bceb0e39d1dfe5f572b2175a7f7c", "type": "electric_scooter", "is_reserved": 0, "lon": -77.04546433333333}, {"fusion_lat": 0.0, "name": "6dc80993344ea9755dd01fa3e539d02c", "is_disabled": 0, "rental_uris": {"android": "https://dc.lft.to/lastmile_qr_scan", "ios": "https://dc.lft.to/lastmile_qr_scan"}, "fusion_lon": 0.0, "lat": 38.8340615, "bike_id": "6dc80993344ea9755dd01fa3e539d02c", "type": "electric_bike", "is_reserved": 0, "lon": -77.00328266666666}, {"fusion_lat": 0.0, "name": "8f136d4aa9463f0b81279c36595814bd", "is_disabled": 0, "rental_uris": {"android": "https://dc.lft.to/lastmile_qr_scan", "ios": "https://dc.lft.to/lastmile_qr_scan"}, "fusion_lon": 0.0, "lat": 38.884431166666666, "bike_id": "8f136d4aa9463f0b81279c36595814bd", "type": "electric_scooter", "is_reserved": 0, "lon": -77.00348516666666}, {"fusion_lat": 0.0, "name": "a0fb76380f2d7682679aeccc17a8a3c9", "is_disabled": 0, "rental_uris": {"android": "https://dc.lft.to/lastmile_qr_scan", "ios": "https://dc.lft.to/lastmile_qr_scan"}, "fusion_lon": 0.0, "lat": 38.87770016666666, "bike_id": "a0fb76380f2d7682679aeccc17a8a3c9", "type": "electric_scooter", "is_reserved": 0, "lon": -76.99384083333334}, {"fusion_lat": 0.0, "name": "9f6202c1359c02a82c91a1e55f4edde1", "is_disabled": 0, "rental_uris": {"android": "https://dc.lft.to/lastmile_qr_scan", "ios": "https://dc.lft.to/lastmile_qr_scan"}, "fusion_lon": 0.0, "lat": 38.93538366666667, "bike_id": "9f6202c1359c02a82c91a1e55f4edde1", "type": "electric_scooter", "is_reserved": 0, "lon": -77.02349716666667}, {"fusion_lat": 0.0, "name": "decb81ee8c1fbe83475768ebf92c661a", "is_disabled": 0, "rental_uris": {"android": "https://dc.lft.to/lastmile_qr_scan", "ios": "https://dc.lft.to/lastmile_qr_scan"}, "fusion_lon": 0.0, "lat": 38.908576333333336, "bike_id": "decb81ee8c1fbe83475768ebf92c661a", "type": "electric_scooter", "is_reserved": 0, "lon": -77.028282}, {"fusion_lat": 0.0, "name": "a137f422314c2b4899c9c8900f85133d", "is_disabled": 0, "rental_uris": {"android": "https://dc.lft.to/lastmile_qr_scan", "ios": "https://dc.lft.to/lastmile_qr_scan"}, "fusion_lon": 0.0, "lat": 38.93576983333333, "bike_id": "a137f422314c2b4899c9c8900f85133d", "type": "electric_scooter", "is_reserved": 0, "lon": -77.019186}, {"fusion_lat": 0.0, "name": "f52371185476e1c7119d4a703d4fe681", "is_disabled": 0, "rental_uris": {"android": "https://dc.lft.to/lastmile_qr_scan", "ios": "https://dc.lft.to/lastmile_qr_scan"}, "fusion_lon": 0.0, "lat": 38.925700166666665, "bike_id": "f52371185476e1c7119d4a703d4fe681", "type": "electric_scooter", "is_reserved": 0, "lon": -77.02261833333333}, {"fusion_lat": 0.0, "name": "6c27392d010057b1986968623d9114c1", "is_disabled": 0, "rental_uris": {"android": "https://dc.lft.to/lastmile_qr_scan", "ios": "https://dc.lft.to/lastmile_qr_scan"}, "fusion_lon": 0.0, "lat": 39.070605, "bike_id": "6c27392d010057b1986968623d9114c1", "type": "electric_bike", "is_reserved": 0, "lon": -77.11477433333333}, {"fusion_lat": 0.0, "name": "17118feb5cdbd0a4c39d16a2888dadc3", "is_disabled": 0, "rental_uris": {"android": "https://dc.lft.to/lastmile_qr_scan", "ios": "https://dc.lft.to/lastmile_qr_scan"}, "fusion_lon": 0.0, "lat": 38.918192833333336, "bike_id": "17118feb5cdbd0a4c39d16a2888dadc3", "type": "electric_scooter", "is_reserved": 0, "lon": -77.02470833333334}, {"fusion_lat": 0.0, "name": "9d5fc3a7e3e63e0d83c55fac2abad411", "is_disabled": 0, "rental_uris": {"android": "https://dc.lft.to/lastmile_qr_scan", "ios": "https://dc.lft.to/lastmile_qr_scan"}, "fusion_lon": 0.0, "lat": 38.9097175, "bike_id": "9d5fc3a7e3e63e0d83c55fac2abad411", "type": "electric_scooter", "is_reserved": 0, "lon": -77.00901166666667}, {"fusion_lat": 0.0, "name": "32dc66fb87b565f0fc57b7c7ca32d916", "is_disabled": 0, "rental_uris": {"android": "https://dc.lft.to/lastmile_qr_scan", "ios": "https://dc.lft.to/lastmile_qr_scan"}, "fusion_lon": 0.0, "lat": 38.887699166666664, "bike_id": "32dc66fb87b565f0fc57b7c7ca32d916", "type": "electric_scooter", "is_reserved": 0, "lon": -76.97749316666666}, {"fusion_lat": 0.0, "name": "33be717cbf536e57b10e807a956269de", "is_disabled": 0, "rental_uris": {"android": "https://dc.lft.to/lastmile_qr_scan", "ios": "https://dc.lft.to/lastmile_qr_scan"}, "fusion_lon": 0.0, "lat": 38.8545675, "bike_id": "33be717cbf536e57b10e807a956269de", "type": "electric_scooter", "is_reserved": 0, "lon": -76.9722525}, {"fusion_lat": 0.0, "name": "93afbc33d7b6e074781a6c8e045b199a", "is_disabled": 0, "rental_uris": {"android": "https://dc.lft.to/lastmile_qr_scan", "ios": "https://dc.lft.to/lastmile_qr_scan"}, "fusion_lon": 0.0, "lat": 38.892519666666665, "bike_id": "93afbc33d7b6e074781a6c8e045b199a", "type": "electric_scooter", "is_reserved": 0, "lon": -77.03344166666666}, {"fusion_lat": 0.0, "name": "9b367c1daf0d29ab1777f58b77b0b3be", "is_disabled": 0, "rental_uris": {"android": "https://dc.lft.to/lastmile_qr_scan", "ios": "https://dc.lft.to/lastmile_qr_scan"}, "fusion_lon": 0.0, "lat": 38.91019766666667, "bike_id": "9b367c1daf0d29ab1777f58b77b0b3be", "type": "electric_scooter", "is_reserved": 0, "lon": -77.03862083333334}, {"fusion_lat": 0.0, "name": "b3f35c2c409827ced6896eddf7f8636b", "is_disabled": 0, "rental_uris": {"android": "https://dc.lft.to/lastmile_qr_scan", "ios": "https://dc.lft.to/lastmile_qr_scan"}, "fusion_lon": 0.0, "lat": 38.93636933333333, "bike_id": "b3f35c2c409827ced6896eddf7f8636b", "type": "electric_scooter", "is_reserved": 0, "lon": -77.036665}, {"fusion_lat": 0.0, "name": "22277d9dc67f43b93598a173df30b2e4", "is_disabled": 0, "rental_uris": {"android": "https://dc.lft.to/lastmile_qr_scan", "ios": "https://dc.lft.to/lastmile_qr_scan"}, "fusion_lon": 0.0, "lat": 38.90072466666667, "bike_id": "22277d9dc67f43b93598a173df30b2e4", "type": "electric_scooter", "is_reserved": 0, "lon": -77.02625233333333}, {"fusion_lat": 0.0, "name": "7eecfe2a2473667b54e3dbe34718415e", "is_disabled": 0, "rental_uris": {"android": "https://dc.lft.to/lastmile_qr_scan", "ios": "https://dc.lft.to/lastmile_qr_scan"}, "fusion_lon": 0.0, "lat": 38.9071945, "bike_id": "7eecfe2a2473667b54e3dbe34718415e", "type": "electric_scooter", "is_reserved": 0, "lon": -77.000731}, {"fusion_lat": 0.0, "name": "8e70a93bcd68c22d79515c6b600a2f70", "is_disabled": 0, "rental_uris": {"android": "https://dc.lft.to/lastmile_qr_scan", "ios": "https://dc.lft.to/lastmile_qr_scan"}, "fusion_lon": 0.0, "lat": 38.89233316666667, "bike_id": "8e70a93bcd68c22d79515c6b600a2f70", "type": "electric_scooter", "is_reserved": 0, "lon": -77.01712466666666}, {"fusion_lat": 0.0, "name": "a184c0346840de84f341d80d587d764a", "is_disabled": 0, "rental_uris": {"android": "https://dc.lft.to/lastmile_qr_scan", "ios": "https://dc.lft.to/lastmile_qr_scan"}, "fusion_lon": 0.0, "lat": 38.879367333333334, "bike_id": "a184c0346840de84f341d80d587d764a", "type": "electric_scooter", "is_reserved": 0, "lon": -77.0081365}, {"fusion_lat": 0.0, "name": "e41facf23409e93febcb2c64c28e7133", "is_disabled": 0, "rental_uris": {"android": "https://dc.lft.to/lastmile_qr_scan", "ios": "https://dc.lft.to/lastmile_qr_scan"}, "fusion_lon": 0.0, "lat": 38.92722766666667, "bike_id": "e41facf23409e93febcb2c64c28e7133", "type": "electric_scooter", "is_reserved": 0, "lon": -77.02306833333333}, {"fusion_lat": 0.0, "name": "c841309f0b676934796fe6e704e1c729", "is_disabled": 0, "rental_uris": {"android": "https://dc.lft.to/lastmile_qr_scan", "ios": "https://dc.lft.to/lastmile_qr_scan"}, "fusion_lon": 0.0, "lat": 38.9215945, "bike_id": "c841309f0b676934796fe6e704e1c729", "type": "electric_scooter", "is_reserved": 0, "lon": -77.033772}, {"fusion_lat": 0.0, "name": "e4d563a402dc5c2fbd4570ed6dde9d98", "is_disabled": 0, "rental_uris": {"android": "https://dc.lft.to/lastmile_qr_scan", "ios": "https://dc.lft.to/lastmile_qr_scan"}, "fusion_lon": 0.0, "lat": 38.928527833333334, "bike_id": "e4d563a402dc5c2fbd4570ed6dde9d98", "type": "electric_scooter", "is_reserved": 0, "lon": -77.02437466666667}, {"fusion_lat": 0.0, "name": "287227fd0953e70afa1490d54a1e7393", "is_disabled": 0, "rental_uris": {"android": "https://dc.lft.to/lastmile_qr_scan", "ios": "https://dc.lft.to/lastmile_qr_scan"}, "fusion_lon": 0.0, "lat": 38.898793, "bike_id": "287227fd0953e70afa1490d54a1e7393", "type": "electric_scooter", "is_reserved": 0, "lon": -76.931824}, {"fusion_lat": 0.0, "name": "ab8d8b36955c086a820b3f370066f5d8", "is_disabled": 0, "rental_uris": {"android": "https://dc.lft.to/lastmile_qr_scan", "ios": "https://dc.lft.to/lastmile_qr_scan"}, "fusion_lon": 0.0, "lat": 38.93361633333333, "bike_id": "ab8d8b36955c086a820b3f370066f5d8", "type": "electric_scooter", "is_reserved": 0, "lon": -77.024492}, {"fusion_lat": 0.0, "name": "6de3063885e2cdf8e710193b044786b5", "is_disabled": 0, "rental_uris": {"android": "https://dc.lft.to/lastmile_qr_scan", "ios": "https://dc.lft.to/lastmile_qr_scan"}, "fusion_lon": 0.0, "lat": 38.920613833333334, "bike_id": "6de3063885e2cdf8e710193b044786b5", "type": "electric_scooter", "is_reserved": 0, "lon": -77.02359566666667}, {"fusion_lat": 0.0, "name": "d978b72d6573d6fec91421fd6584a1cd", "is_disabled": 0, "rental_uris": {"android": "https://dc.lft.to/lastmile_qr_scan", "ios": "https://dc.lft.to/lastmile_qr_scan"}, "fusion_lon": 0.0, "lat": 38.92260233333333, "bike_id": "d978b72d6573d6fec91421fd6584a1cd", "type": "electric_scooter", "is_reserved": 0, "lon": -77.03523283333334}, {"fusion_lat": 0.0, "name": "ffb04c6e40312dc75da7d88325f2e403", "is_disabled": 0, "rental_uris": {"android": "https://dc.lft.to/lastmile_qr_scan", "ios": "https://dc.lft.to/lastmile_qr_scan"}, "fusion_lon": 0.0, "lat": 38.932945333333336, "bike_id": "ffb04c6e40312dc75da7d88325f2e403", "type": "electric_scooter", "is_reserved": 0, "lon": -77.0280295}, {"fusion_lat": 0.0, "name": "62ae7a068fc47f8f0e0daff38341735b", "is_disabled": 0, "rental_uris": {"android": "https://dc.lft.to/lastmile_qr_scan", "ios": "https://dc.lft.to/lastmile_qr_scan"}, "fusion_lon": 0.0, "lat": 38.87463416666667, "bike_id": "62ae7a068fc47f8f0e0daff38341735b", "type": "electric_scooter", "is_reserved": 0, "lon": -77.00971566666666}, {"fusion_lat": 0.0, "name": "51956b9c031fca3177a24d1a6771b187", "is_disabled": 0, "rental_uris": {"android": "https://dc.lft.to/lastmile_qr_scan", "ios": "https://dc.lft.to/lastmile_qr_scan"}, "fusion_lon": 0.0, "lat": 38.8781565, "bike_id": "51956b9c031fca3177a24d1a6771b187", "type": "electric_scooter", "is_reserved": 0, "lon": -77.0131875}, {"fusion_lat": 0.0, "name": "246b9f35b908d40f01ba836c266c8b7d", "is_disabled": 0, "rental_uris": {"android": "https://dc.lft.to/lastmile_qr_scan", "ios": "https://dc.lft.to/lastmile_qr_scan"}, "fusion_lon": 0.0, "lat": 38.914333, "bike_id": "246b9f35b908d40f01ba836c266c8b7d", "type": "electric_scooter", "is_reserved": 0, "lon": -77.06424283333334}, {"fusion_lat": 0.0, "name": "27ed39d02bc7162a2bdb65c1a2729821", "is_disabled": 0, "rental_uris": {"android": "https://dc.lft.to/lastmile_qr_scan", "ios": "https://dc.lft.to/lastmile_qr_scan"}, "fusion_lon": 0.0, "lat": 38.882347, "bike_id": "27ed39d02bc7162a2bdb65c1a2729821", "type": "electric_scooter", "is_reserved": 0, "lon": -77.02613316666667}, {"fusion_lat": 0.0, "name": "f799475beb276e5fa160d1cbc12e0c0e", "is_disabled": 0, "rental_uris": {"android": "https://dc.lft.to/lastmile_qr_scan", "ios": "https://dc.lft.to/lastmile_qr_scan"}, "fusion_lon": 0.0, "lat": 38.92922, "bike_id": "f799475beb276e5fa160d1cbc12e0c0e", "type": "electric_scooter", "is_reserved": 0, "lon": -77.03726366666666}, {"fusion_lat": 0.0, "name": "133167f2381ffed89e0b362f07537960", "is_disabled": 0, "rental_uris": {"android": "https://dc.lft.to/lastmile_qr_scan", "ios": "https://dc.lft.to/lastmile_qr_scan"}, "fusion_lon": 0.0, "lat": 38.89732816666667, "bike_id": "133167f2381ffed89e0b362f07537960", "type": "electric_scooter", "is_reserved": 0, "lon": -76.99513883333333}, {"fusion_lat": 0.0, "name": "6fb8cd67c68242e484cc895bde9ffd45", "is_disabled": 0, "rental_uris": {"android": "https://dc.lft.to/lastmile_qr_scan", "ios": "https://dc.lft.to/lastmile_qr_scan"}, "fusion_lon": 0.0, "lat": 38.925843, "bike_id": "6fb8cd67c68242e484cc895bde9ffd45", "type": "electric_scooter", "is_reserved": 0, "lon": -77.02757516666667}, {"fusion_lat": 0.0, "name": "68816bba4747293a6727dd2c4eb6e6bc", "is_disabled": 0, "rental_uris": {"android": "https://dc.lft.to/lastmile_qr_scan", "ios": "https://dc.lft.to/lastmile_qr_scan"}, "fusion_lon": 0.0, "lat": 38.884486833333334, "bike_id": "68816bba4747293a6727dd2c4eb6e6bc", "type": "electric_scooter", "is_reserved": 0, "lon": -76.98590516666667}, {"fusion_lat": 0.0, "name": "7f017c1c34ce56c8c7512a107041765e", "is_disabled": 0, "rental_uris": {"android": "https://dc.lft.to/lastmile_qr_scan", "ios": "https://dc.lft.to/lastmile_qr_scan"}, "fusion_lon": 0.0, "lat": 38.87804233333333, "bike_id": "7f017c1c34ce56c8c7512a107041765e", "type": "electric_scooter", "is_reserved": 0, "lon": -77.00118883333333}, {"fusion_lat": 0.0, "name": "94f9482987cf35f300878a3acb8e34b0", "is_disabled": 0, "rental_uris": {"android": "https://dc.lft.to/lastmile_qr_scan", "ios": "https://dc.lft.to/lastmile_qr_scan"}, "fusion_lon": 0.0, "lat": 38.931020333333336, "bike_id": "94f9482987cf35f300878a3acb8e34b0", "type": "electric_scooter", "is_reserved": 0, "lon": -77.02471116666666}, {"fusion_lat": 0.0, "name": "51f80343a62624fac81a43dd9269248c", "is_disabled": 0, "rental_uris": {"android": "https://dc.lft.to/lastmile_qr_scan", "ios": "https://dc.lft.to/lastmile_qr_scan"}, "fusion_lon": 0.0, "lat": 38.8871605, "bike_id": "51f80343a62624fac81a43dd9269248c", "type": "electric_scooter", "is_reserved": 0, "lon": -76.9967595}, {"fusion_lat": 0.0, "name": "b3a0b439b90570977e55327a9acc36b4", "is_disabled": 0, "rental_uris": {"android": "https://dc.lft.to/lastmile_qr_scan", "ios": "https://dc.lft.to/lastmile_qr_scan"}, "fusion_lon": 0.0, "lat": 38.9276375, "bike_id": "b3a0b439b90570977e55327a9acc36b4", "type": "electric_scooter", "is_reserved": 0, "lon": -77.03292533333334}, {"fusion_lat": 0.0, "name": "042368d8e0f5c1d7cd51acd01d05671f", "is_disabled": 0, "rental_uris": {"android": "https://dc.lft.to/lastmile_qr_scan", "ios": "https://dc.lft.to/lastmile_qr_scan"}, "fusion_lon": 0.0, "lat": 38.94606733333333, "bike_id": "042368d8e0f5c1d7cd51acd01d05671f", "type": "electric_bike", "is_reserved": 0, "lon": -77.02869866666667}, {"fusion_lat": 0.0, "name": "02eae7730b60645076dd03bb1d5b8db5", "is_disabled": 0, "rental_uris": {"android": "https://dc.lft.to/lastmile_qr_scan", "ios": "https://dc.lft.to/lastmile_qr_scan"}, "fusion_lon": 0.0, "lat": 38.9224215, "bike_id": "02eae7730b60645076dd03bb1d5b8db5", "type": "electric_scooter", "is_reserved": 0, "lon": -77.04246933333333}, {"fusion_lat": 0.0, "name": "2e2a40ff875a02a9adacb01cefc46983", "is_disabled": 0, "rental_uris": {"android": "https://dc.lft.to/lastmile_qr_scan", "ios": "https://dc.lft.to/lastmile_qr_scan"}, "fusion_lon": 0.0, "lat": 38.904763, "bike_id": "2e2a40ff875a02a9adacb01cefc46983", "type": "electric_scooter", "is_reserved": 0, "lon": -77.01703766666667}, {"fusion_lat": 0.0, "name": "0ca4af20f771b161bdf154e5c9cf7264", "is_disabled": 0, "rental_uris": {"android": "https://dc.lft.to/lastmile_qr_scan", "ios": "https://dc.lft.to/lastmile_qr_scan"}, "fusion_lon": 0.0, "lat": 38.89228816666667, "bike_id": "0ca4af20f771b161bdf154e5c9cf7264", "type": "electric_scooter", "is_reserved": 0, "lon": -77.05033166666666}, {"fusion_lat": 0.0, "name": "aded88a0a1a5ee94494d43a615bc0be1", "is_disabled": 0, "rental_uris": {"android": "https://dc.lft.to/lastmile_qr_scan", "ios": "https://dc.lft.to/lastmile_qr_scan"}, "fusion_lon": 0.0, "lat": 38.9025475, "bike_id": "aded88a0a1a5ee94494d43a615bc0be1", "type": "electric_scooter", "is_reserved": 0, "lon": -77.0262685}, {"fusion_lat": 0.0, "name": "c1b81da4ea6c78ebec1db93b4db30a80", "is_disabled": 0, "rental_uris": {"android": "https://dc.lft.to/lastmile_qr_scan", "ios": "https://dc.lft.to/lastmile_qr_scan"}, "fusion_lon": 0.0, "lat": 38.935234333333334, "bike_id": "c1b81da4ea6c78ebec1db93b4db30a80", "type": "electric_scooter", "is_reserved": 0, "lon": -77.04519216666667}, {"fusion_lat": 0.0, "name": "a1011562223c3a7ea8a1b22ad8829874", "is_disabled": 0, "rental_uris": {"android": "https://dc.lft.to/lastmile_qr_scan", "ios": "https://dc.lft.to/lastmile_qr_scan"}, "fusion_lon": 0.0, "lat": 38.923233833333335, "bike_id": "a1011562223c3a7ea8a1b22ad8829874", "type": "electric_scooter", "is_reserved": 0, "lon": -77.0279655}, {"fusion_lat": 0.0, "name": "287c3a0a8a057939a65d67e9bcd2448b", "is_disabled": 0, "rental_uris": {"android": "https://dc.lft.to/lastmile_qr_scan", "ios": "https://dc.lft.to/lastmile_qr_scan"}, "fusion_lon": 0.0, "lat": 38.927910833333335, "bike_id": "287c3a0a8a057939a65d67e9bcd2448b", "type": "electric_scooter", "is_reserved": 0, "lon": -77.0314635}, {"fusion_lat": 0.0, "name": "938236ef0e00db8f1b70bcb527dbb61c", "is_disabled": 0, "rental_uris": {"android": "https://dc.lft.to/lastmile_qr_scan", "ios": "https://dc.lft.to/lastmile_qr_scan"}, "fusion_lon": 0.0, "lat": 38.93354866666667, "bike_id": "938236ef0e00db8f1b70bcb527dbb61c", "type": "electric_scooter", "is_reserved": 0, "lon": -77.02432783333333}, {"fusion_lat": 0.0, "name": "3edea7da20ecaa2973ac5f12e8ac1d65", "is_disabled": 0, "rental_uris": {"android": "https://dc.lft.to/lastmile_qr_scan", "ios": "https://dc.lft.to/lastmile_qr_scan"}, "fusion_lon": 0.0, "lat": 38.924574166666666, "bike_id": "3edea7da20ecaa2973ac5f12e8ac1d65", "type": "electric_scooter", "is_reserved": 0, "lon": -77.03320683333334}, {"fusion_lat": 0.0, "name": "90dca16ee86a18ddbf2ef4ebdf912f70", "is_disabled": 0, "rental_uris": {"android": "https://dc.lft.to/lastmile_qr_scan", "ios": "https://dc.lft.to/lastmile_qr_scan"}, "fusion_lon": 0.0, "lat": 38.93540983333333, "bike_id": "90dca16ee86a18ddbf2ef4ebdf912f70", "type": "electric_scooter", "is_reserved": 0, "lon": -77.023483}, {"fusion_lat": 0.0, "name": "7ee563cdd96ba9453a847d63487c2492", "is_disabled": 0, "rental_uris": {"android": "https://dc.lft.to/lastmile_qr_scan", "ios": "https://dc.lft.to/lastmile_qr_scan"}, "fusion_lon": 0.0, "lat": 38.88993583333333, "bike_id": "7ee563cdd96ba9453a847d63487c2492", "type": "electric_scooter", "is_reserved": 0, "lon": -76.98225883333333}, {"fusion_lat": 0.0, "name": "15bd04760fbb75c41de69cc7c3b37d0f", "is_disabled": 0, "rental_uris": {"android": "https://dc.lft.to/lastmile_qr_scan", "ios": "https://dc.lft.to/lastmile_qr_scan"}, "fusion_lon": 0.0, "lat": 38.971278833333336, "bike_id": "15bd04760fbb75c41de69cc7c3b37d0f", "type": "electric_bike", "is_reserved": 0, "lon": -77.02083766666667}, {"fusion_lat": 0.0, "name": "7ed44b21932ff0c97de1c68e31d67239", "is_disabled": 0, "rental_uris": {"android": "https://dc.lft.to/lastmile_qr_scan", "ios": "https://dc.lft.to/lastmile_qr_scan"}, "fusion_lon": 0.0, "lat": 38.933911, "bike_id": "7ed44b21932ff0c97de1c68e31d67239", "type": "electric_scooter", "is_reserved": 0, "lon": -77.02417266666667}, {"fusion_lat": 0.0, "name": "6206df5e004b9a9d7298c045155ccdc2", "is_disabled": 0, "rental_uris": {"android": "https://dc.lft.to/lastmile_qr_scan", "ios": "https://dc.lft.to/lastmile_qr_scan"}, "fusion_lon": 0.0, "lat": 38.93901983333333, "bike_id": "6206df5e004b9a9d7298c045155ccdc2", "type": "electric_scooter", "is_reserved": 0, "lon": -77.03320383333333}, {"fusion_lat": 0.0, "name": "b724adb94c54166dca2598b7ed37f20a", "is_disabled": 0, "rental_uris": {"android": "https://dc.lft.to/lastmile_qr_scan", "ios": "https://dc.lft.to/lastmile_qr_scan"}, "fusion_lon": 0.0, "lat": 38.891184, "bike_id": "b724adb94c54166dca2598b7ed37f20a", "type": "electric_scooter", "is_reserved": 0, "lon": -76.9438335}, {"fusion_lat": 0.0, "name": "cc26c1c364243020fe4dccefc1cd971f", "is_disabled": 0, "rental_uris": {"android": "https://dc.lft.to/lastmile_qr_scan", "ios": "https://dc.lft.to/lastmile_qr_scan"}, "fusion_lon": 0.0, "lat": 38.892449166666665, "bike_id": "cc26c1c364243020fe4dccefc1cd971f", "type": "electric_scooter", "is_reserved": 0, "lon": -77.03346866666666}, {"fusion_lat": 0.0, "name": "09216515a44063f7a603152c6b43b90f", "is_disabled": 0, "rental_uris": {"android": "https://dc.lft.to/lastmile_qr_scan", "ios": "https://dc.lft.to/lastmile_qr_scan"}, "fusion_lon": 0.0, "lat": 38.96993283333333, "bike_id": "09216515a44063f7a603152c6b43b90f", "type": "electric_scooter", "is_reserved": 0, "lon": -77.01160633333333}, {"fusion_lat": 0.0, "name": "7e824aafe3f470f0127749c4de0804c0", "is_disabled": 0, "rental_uris": {"android": "https://dc.lft.to/lastmile_qr_scan", "ios": "https://dc.lft.to/lastmile_qr_scan"}, "fusion_lon": 0.0, "lat": 38.932389, "bike_id": "7e824aafe3f470f0127749c4de0804c0", "type": "electric_scooter", "is_reserved": 0, "lon": -77.038711}, {"fusion_lat": 0.0, "name": "5c920ca0116fd91a48341dee039fca81", "is_disabled": 0, "rental_uris": {"android": "https://dc.lft.to/lastmile_qr_scan", "ios": "https://dc.lft.to/lastmile_qr_scan"}, "fusion_lon": 0.0, "lat": 38.90602, "bike_id": "5c920ca0116fd91a48341dee039fca81", "type": "electric_scooter", "is_reserved": 0, "lon": -77.04172633333333}, {"fusion_lat": 0.0, "name": "bc56b44c46a2438132c13767e1b5179c", "is_disabled": 0, "rental_uris": {"android": "https://dc.lft.to/lastmile_qr_scan", "ios": "https://dc.lft.to/lastmile_qr_scan"}, "fusion_lon": 0.0, "lat": 38.93067116666667, "bike_id": "bc56b44c46a2438132c13767e1b5179c", "type": "electric_scooter", "is_reserved": 0, "lon": -77.04050916666667}, {"fusion_lat": 0.0, "name": "5e3dc2f4b8de4d4db5c48d9c9e461327", "is_disabled": 0, "rental_uris": {"android": "https://dc.lft.to/lastmile_qr_scan", "ios": "https://dc.lft.to/lastmile_qr_scan"}, "fusion_lon": 0.0, "lat": 38.91111166666666, "bike_id": "5e3dc2f4b8de4d4db5c48d9c9e461327", "type": "electric_scooter", "is_reserved": 0, "lon": -77.02924266666666}, {"fusion_lat": 0.0, "name": "7d6021d2e60d6fc8989951c3a07c3571", "is_disabled": 0, "rental_uris": {"android": "https://dc.lft.to/lastmile_qr_scan", "ios": "https://dc.lft.to/lastmile_qr_scan"}, "fusion_lon": 0.0, "lat": 38.90472583333333, "bike_id": "7d6021d2e60d6fc8989951c3a07c3571", "type": "electric_scooter", "is_reserved": 0, "lon": -77.0486045}, {"fusion_lat": 0.0, "name": "ac84933c92bf24e1e4b4d72fdad54b12", "is_disabled": 0, "rental_uris": {"android": "https://dc.lft.to/lastmile_qr_scan", "ios": "https://dc.lft.to/lastmile_qr_scan"}, "fusion_lon": 0.0, "lat": 38.89729333333333, "bike_id": "ac84933c92bf24e1e4b4d72fdad54b12", "type": "electric_scooter", "is_reserved": 0, "lon": -77.02505666666667}, {"fusion_lat": 0.0, "name": "731a0a7531d08c8a2e0022db5e42aedb", "is_disabled": 0, "rental_uris": {"android": "https://dc.lft.to/lastmile_qr_scan", "ios": "https://dc.lft.to/lastmile_qr_scan"}, "fusion_lon": 0.0, "lat": 38.961864166666665, "bike_id": "731a0a7531d08c8a2e0022db5e42aedb", "type": "electric_bike", "is_reserved": 0, "lon": -77.05267233333333}, {"fusion_lat": 0.0, "name": "5f90d71bc7a80f42b8fc8601b8b1371b", "is_disabled": 0, "rental_uris": {"android": "https://dc.lft.to/lastmile_qr_scan", "ios": "https://dc.lft.to/lastmile_qr_scan"}, "fusion_lon": 0.0, "lat": 38.924381333333336, "bike_id": "5f90d71bc7a80f42b8fc8601b8b1371b", "type": "electric_scooter", "is_reserved": 0, "lon": -77.04473416666667}, {"fusion_lat": 0.0, "name": "7251c624bbf6449ea298b1bd36a3bb8e", "is_disabled": 0, "rental_uris": {"android": "https://dc.lft.to/lastmile_qr_scan", "ios": "https://dc.lft.to/lastmile_qr_scan"}, "fusion_lon": 0.0, "lat": 38.973796, "bike_id": "7251c624bbf6449ea298b1bd36a3bb8e", "type": "electric_scooter", "is_reserved": 0, "lon": -77.01282583333334}, {"fusion_lat": 0.0, "name": "4a4cb9aaf93fab294b5687b48da965b4", "is_disabled": 0, "rental_uris": {"android": "https://dc.lft.to/lastmile_qr_scan", "ios": "https://dc.lft.to/lastmile_qr_scan"}, "fusion_lon": 0.0, "lat": 38.912003166666665, "bike_id": "4a4cb9aaf93fab294b5687b48da965b4", "type": "electric_scooter", "is_reserved": 0, "lon": -77.01191816666666}, {"fusion_lat": 0.0, "name": "dd558d502d95725dfbcc3c5b949e1ba8", "is_disabled": 0, "rental_uris": {"android": "https://dc.lft.to/lastmile_qr_scan", "ios": "https://dc.lft.to/lastmile_qr_scan"}, "fusion_lon": 0.0, "lat": 38.90426033333333, "bike_id": "dd558d502d95725dfbcc3c5b949e1ba8", "type": "electric_scooter", "is_reserved": 0, "lon": -77.01879816666667}, {"fusion_lat": 0.0, "name": "8f6af24130b9bf008545b28110b7c322", "is_disabled": 0, "rental_uris": {"android": "https://dc.lft.to/lastmile_qr_scan", "ios": "https://dc.lft.to/lastmile_qr_scan"}, "fusion_lon": 0.0, "lat": 38.858941333333334, "bike_id": "8f6af24130b9bf008545b28110b7c322", "type": "electric_bike", "is_reserved": 0, "lon": -77.09545566666667}, {"fusion_lat": 0.0, "name": "ab5a34e2314766cf35c3e88611c8b02b", "is_disabled": 0, "rental_uris": {"android": "https://dc.lft.to/lastmile_qr_scan", "ios": "https://dc.lft.to/lastmile_qr_scan"}, "fusion_lon": 0.0, "lat": 38.90961816666667, "bike_id": "ab5a34e2314766cf35c3e88611c8b02b", "type": "electric_scooter", "is_reserved": 0, "lon": -77.02388266666667}, {"fusion_lat": 0.0, "name": "7c194dcf7acd7c7de6c78310791e1bfc", "is_disabled": 0, "rental_uris": {"android": "https://dc.lft.to/lastmile_qr_scan", "ios": "https://dc.lft.to/lastmile_qr_scan"}, "fusion_lon": 0.0, "lat": 38.9003195, "bike_id": "7c194dcf7acd7c7de6c78310791e1bfc", "type": "electric_scooter", "is_reserved": 0, "lon": -77.00204816666667}, {"fusion_lat": 0.0, "name": "c70a4d42ef8989b3bf2fd995038bcfed", "is_disabled": 0, "rental_uris": {"android": "https://dc.lft.to/lastmile_qr_scan", "ios": "https://dc.lft.to/lastmile_qr_scan"}, "fusion_lon": 0.0, "lat": 38.88989683333333, "bike_id": "c70a4d42ef8989b3bf2fd995038bcfed", "type": "electric_scooter", "is_reserved": 0, "lon": -76.9963685}, {"fusion_lat": 0.0, "name": "6425911afa5bb3d98c8799e848a4ff11", "is_disabled": 0, "rental_uris": {"android": "https://dc.lft.to/lastmile_qr_scan", "ios": "https://dc.lft.to/lastmile_qr_scan"}, "fusion_lon": 0.0, "lat": 38.917386666666665, "bike_id": "6425911afa5bb3d98c8799e848a4ff11", "type": "electric_scooter", "is_reserved": 0, "lon": -77.04830183333333}, {"fusion_lat": 0.0, "name": "19d424d07da7025b49f4d73d96c981be", "is_disabled": 0, "rental_uris": {"android": "https://dc.lft.to/lastmile_qr_scan", "ios": "https://dc.lft.to/lastmile_qr_scan"}, "fusion_lon": 0.0, "lat": 38.90941616666667, "bike_id": "19d424d07da7025b49f4d73d96c981be", "type": "electric_scooter", "is_reserved": 0, "lon": -77.021195}, {"fusion_lat": 0.0, "name": "dcccfdca3f8d2fd34831386095d12440", "is_disabled": 0, "rental_uris": {"android": "https://dc.lft.to/lastmile_qr_scan", "ios": "https://dc.lft.to/lastmile_qr_scan"}, "fusion_lon": 0.0, "lat": 38.91711883333333, "bike_id": "dcccfdca3f8d2fd34831386095d12440", "type": "electric_scooter", "is_reserved": 0, "lon": -77.040931}, {"fusion_lat": 0.0, "name": "ff7654445c9d5eb2b93b870dfa2054ec", "is_disabled": 0, "rental_uris": {"android": "https://dc.lft.to/lastmile_qr_scan", "ios": "https://dc.lft.to/lastmile_qr_scan"}, "fusion_lon": 0.0, "lat": 38.899444, "bike_id": "ff7654445c9d5eb2b93b870dfa2054ec", "type": "electric_scooter", "is_reserved": 0, "lon": -77.05352433333333}, {"fusion_lat": 0.0, "name": "88d58278891ef181f839f5c08b863352", "is_disabled": 0, "rental_uris": {"android": "https://dc.lft.to/lastmile_qr_scan", "ios": "https://dc.lft.to/lastmile_qr_scan"}, "fusion_lon": 0.0, "lat": 38.92051983333333, "bike_id": "88d58278891ef181f839f5c08b863352", "type": "electric_scooter", "is_reserved": 0, "lon": -77.03389016666667}, {"fusion_lat": 0.0, "name": "506ad83934c5ba8e45b0aa7ef1d1573b", "is_disabled": 0, "rental_uris": {"android": "https://dc.lft.to/lastmile_qr_scan", "ios": "https://dc.lft.to/lastmile_qr_scan"}, "fusion_lon": 0.0, "lat": 38.889902166666666, "bike_id": "506ad83934c5ba8e45b0aa7ef1d1573b", "type": "electric_scooter", "is_reserved": 0, "lon": -76.98740583333333}, {"fusion_lat": 0.0, "name": "548d034ee786ce7e1b122165686d80e3", "is_disabled": 0, "rental_uris": {"android": "https://dc.lft.to/lastmile_qr_scan", "ios": "https://dc.lft.to/lastmile_qr_scan"}, "fusion_lon": 0.0, "lat": 38.93946833333333, "bike_id": "548d034ee786ce7e1b122165686d80e3", "type": "electric_scooter", "is_reserved": 0, "lon": -77.033218}, {"fusion_lat": 0.0, "name": "a515290d752462956e468926ce0adf5b", "is_disabled": 0, "rental_uris": {"android": "https://dc.lft.to/lastmile_qr_scan", "ios": "https://dc.lft.to/lastmile_qr_scan"}, "fusion_lon": 0.0, "lat": 38.929650333333335, "bike_id": "a515290d752462956e468926ce0adf5b", "type": "electric_scooter", "is_reserved": 0, "lon": -77.02014133333333}, {"fusion_lat": 0.0, "name": "92b142793a1d230aa2e629b81299c05c", "is_disabled": 0, "rental_uris": {"android": "https://dc.lft.to/lastmile_qr_scan", "ios": "https://dc.lft.to/lastmile_qr_scan"}, "fusion_lon": 0.0, "lat": 38.93705816666667, "bike_id": "92b142793a1d230aa2e629b81299c05c", "type": "electric_scooter", "is_reserved": 0, "lon": -77.06101833333334}, {"fusion_lat": 0.0, "name": "2309a71402bfe673bd37ed612caa27f1", "is_disabled": 0, "rental_uris": {"android": "https://dc.lft.to/lastmile_qr_scan", "ios": "https://dc.lft.to/lastmile_qr_scan"}, "fusion_lon": 0.0, "lat": 38.9351405, "bike_id": "2309a71402bfe673bd37ed612caa27f1", "type": "electric_scooter", "is_reserved": 0, "lon": -77.033491}, {"fusion_lat": 0.0, "name": "40bb7037652f86e192ac0568b664f819", "is_disabled": 0, "rental_uris": {"android": "https://dc.lft.to/lastmile_qr_scan", "ios": "https://dc.lft.to/lastmile_qr_scan"}, "fusion_lon": 0.0, "lat": 38.9183125, "bike_id": "40bb7037652f86e192ac0568b664f819", "type": "electric_scooter", "is_reserved": 0, "lon": -77.0452005}, {"fusion_lat": 0.0, "name": "dcd9cbc0a108af334110cfef1ba64ed0", "is_disabled": 0, "rental_uris": {"android": "https://dc.lft.to/lastmile_qr_scan", "ios": "https://dc.lft.to/lastmile_qr_scan"}, "fusion_lon": 0.0, "lat": 38.919757, "bike_id": "dcd9cbc0a108af334110cfef1ba64ed0", "type": "electric_scooter", "is_reserved": 0, "lon": -77.07096983333334}, {"fusion_lat": 0.0, "name": "ffa24a8042d3b4c7a925989e7b4f2c94", "is_disabled": 0, "rental_uris": {"android": "https://dc.lft.to/lastmile_qr_scan", "ios": "https://dc.lft.to/lastmile_qr_scan"}, "fusion_lon": 0.0, "lat": 38.9041025, "bike_id": "ffa24a8042d3b4c7a925989e7b4f2c94", "type": "electric_scooter", "is_reserved": 0, "lon": -77.0502195}, {"fusion_lat": 0.0, "name": "831e76219258d35ea218d7a4046a4c4d", "is_disabled": 0, "rental_uris": {"android": "https://dc.lft.to/lastmile_qr_scan", "ios": "https://dc.lft.to/lastmile_qr_scan"}, "fusion_lon": 0.0, "lat": 38.933701166666665, "bike_id": "831e76219258d35ea218d7a4046a4c4d", "type": "electric_scooter", "is_reserved": 0, "lon": -77.038806}, {"fusion_lat": 0.0, "name": "87dc9843e7b422fc8e13a472302cdc25", "is_disabled": 0, "rental_uris": {"android": "https://dc.lft.to/lastmile_qr_scan", "ios": "https://dc.lft.to/lastmile_qr_scan"}, "fusion_lon": 0.0, "lat": 38.897352833333336, "bike_id": "87dc9843e7b422fc8e13a472302cdc25", "type": "electric_scooter", "is_reserved": 0, "lon": -77.03208366666667}, {"fusion_lat": 0.0, "name": "0bb7e059c7ff73573c25b9e278caecdf", "is_disabled": 0, "rental_uris": {"android": "https://dc.lft.to/lastmile_qr_scan", "ios": "https://dc.lft.to/lastmile_qr_scan"}, "fusion_lon": 0.0, "lat": 38.839372, "bike_id": "0bb7e059c7ff73573c25b9e278caecdf", "type": "electric_bike", "is_reserved": 0, "lon": -77.079013}, {"fusion_lat": 0.0, "name": "4ff9f4ddca3af87919b65621332da8e9", "is_disabled": 0, "rental_uris": {"android": "https://dc.lft.to/lastmile_qr_scan", "ios": "https://dc.lft.to/lastmile_qr_scan"}, "fusion_lon": 0.0, "lat": 38.90359516666667, "bike_id": "4ff9f4ddca3af87919b65621332da8e9", "type": "electric_scooter", "is_reserved": 0, "lon": -76.97245333333333}, {"fusion_lat": 0.0, "name": "8ca682f9f641f0beee7b9fa35a85cfac", "is_disabled": 0, "rental_uris": {"android": "https://dc.lft.to/lastmile_qr_scan", "ios": "https://dc.lft.to/lastmile_qr_scan"}, "fusion_lon": 0.0, "lat": 38.905789166666665, "bike_id": "8ca682f9f641f0beee7b9fa35a85cfac", "type": "electric_scooter", "is_reserved": 0, "lon": -77.00887783333333}, {"fusion_lat": 0.0, "name": "d6028c8d426c5b23fd0e81ae711be3c8", "is_disabled": 0, "rental_uris": {"android": "https://dc.lft.to/lastmile_qr_scan", "ios": "https://dc.lft.to/lastmile_qr_scan"}, "fusion_lon": 0.0, "lat": 38.909797166666664, "bike_id": "d6028c8d426c5b23fd0e81ae711be3c8", "type": "electric_scooter", "is_reserved": 0, "lon": -77.00891633333333}, {"fusion_lat": 0.0, "name": "4a22ad7bcf8e7d21244d6af97595f75a", "is_disabled": 0, "rental_uris": {"android": "https://dc.lft.to/lastmile_qr_scan", "ios": "https://dc.lft.to/lastmile_qr_scan"}, "fusion_lon": 0.0, "lat": 38.939656, "bike_id": "4a22ad7bcf8e7d21244d6af97595f75a", "type": "electric_bike", "is_reserved": 0, "lon": -76.9938105}, {"fusion_lat": 0.0, "name": "c047503d2b688f3749608cdaa1e58aeb", "is_disabled": 0, "rental_uris": {"android": "https://dc.lft.to/lastmile_qr_scan", "ios": "https://dc.lft.to/lastmile_qr_scan"}, "fusion_lon": 0.0, "lat": 38.928472666666664, "bike_id": "c047503d2b688f3749608cdaa1e58aeb", "type": "electric_scooter", "is_reserved": 0, "lon": -77.03287083333333}, {"fusion_lat": 0.0, "name": "5a2277b871c67668f57462c5a16a76b5", "is_disabled": 0, "rental_uris": {"android": "https://dc.lft.to/lastmile_qr_scan", "ios": "https://dc.lft.to/lastmile_qr_scan"}, "fusion_lon": 0.0, "lat": 38.901086666666664, "bike_id": "5a2277b871c67668f57462c5a16a76b5", "type": "electric_scooter", "is_reserved": 0, "lon": -77.051496}, {"fusion_lat": 0.0, "name": "b7f21b303742c2b7d7428833d2dc2b27", "is_disabled": 0, "rental_uris": {"android": "https://dc.lft.to/lastmile_qr_scan", "ios": "https://dc.lft.to/lastmile_qr_scan"}, "fusion_lon": 0.0, "lat": 38.94133133333333, "bike_id": "b7f21b303742c2b7d7428833d2dc2b27", "type": "electric_scooter", "is_reserved": 0, "lon": -77.00613016666667}, {"fusion_lat": 0.0, "name": "b2a8c703ce400f5a1bf194dbfd2df058", "is_disabled": 0, "rental_uris": {"android": "https://dc.lft.to/lastmile_qr_scan", "ios": "https://dc.lft.to/lastmile_qr_scan"}, "fusion_lon": 0.0, "lat": 38.9118395, "bike_id": "b2a8c703ce400f5a1bf194dbfd2df058", "type": "electric_scooter", "is_reserved": 0, "lon": -77.03169133333333}, {"fusion_lat": 0.0, "name": "4683ca6aa2532e2039b15d43aa32de4d", "is_disabled": 0, "rental_uris": {"android": "https://dc.lft.to/lastmile_qr_scan", "ios": "https://dc.lft.to/lastmile_qr_scan"}, "fusion_lon": 0.0, "lat": 38.92768266666667, "bike_id": "4683ca6aa2532e2039b15d43aa32de4d", "type": "electric_scooter", "is_reserved": 0, "lon": -77.028834}, {"fusion_lat": 0.0, "name": "f3f3e0112a141f48e88d7b203738e03e", "is_disabled": 0, "rental_uris": {"android": "https://dc.lft.to/lastmile_qr_scan", "ios": "https://dc.lft.to/lastmile_qr_scan"}, "fusion_lon": 0.0, "lat": 38.89732716666666, "bike_id": "f3f3e0112a141f48e88d7b203738e03e", "type": "electric_scooter", "is_reserved": 0, "lon": -77.027304}, {"fusion_lat": 0.0, "name": "3a56647296f6d7efc06099cf3a2d1298", "is_disabled": 0, "rental_uris": {"android": "https://dc.lft.to/lastmile_qr_scan", "ios": "https://dc.lft.to/lastmile_qr_scan"}, "fusion_lon": 0.0, "lat": 38.902423166666665, "bike_id": "3a56647296f6d7efc06099cf3a2d1298", "type": "electric_scooter", "is_reserved": 0, "lon": -77.0437275}, {"fusion_lat": 0.0, "name": "1ccb20a9f7f32083cc6d03ece7a8f7f6", "is_disabled": 0, "rental_uris": {"android": "https://dc.lft.to/lastmile_qr_scan", "ios": "https://dc.lft.to/lastmile_qr_scan"}, "fusion_lon": 0.0, "lat": 38.931230166666666, "bike_id": "1ccb20a9f7f32083cc6d03ece7a8f7f6", "type": "electric_scooter", "is_reserved": 0, "lon": -77.02980216666667}, {"fusion_lat": 0.0, "name": "2b526dfdcb1a28bb0254484fe8ad8156", "is_disabled": 0, "rental_uris": {"android": "https://dc.lft.to/lastmile_qr_scan", "ios": "https://dc.lft.to/lastmile_qr_scan"}, "fusion_lon": 0.0, "lat": 38.904983666666666, "bike_id": "2b526dfdcb1a28bb0254484fe8ad8156", "type": "electric_bike", "is_reserved": 0, "lon": -77.02962316666667}, {"fusion_lat": 0.0, "name": "e394b90ebfc08210865c848209e2bbdf", "is_disabled": 0, "rental_uris": {"android": "https://dc.lft.to/lastmile_qr_scan", "ios": "https://dc.lft.to/lastmile_qr_scan"}, "fusion_lon": 0.0, "lat": 38.89610116666667, "bike_id": "e394b90ebfc08210865c848209e2bbdf", "type": "electric_scooter", "is_reserved": 0, "lon": -77.03167683333334}, {"fusion_lat": 0.0, "name": "24396756477ee20e541c480cddf59136", "is_disabled": 0, "rental_uris": {"android": "https://dc.lft.to/lastmile_qr_scan", "ios": "https://dc.lft.to/lastmile_qr_scan"}, "fusion_lon": 0.0, "lat": 38.95637333333333, "bike_id": "24396756477ee20e541c480cddf59136", "type": "electric_scooter", "is_reserved": 0, "lon": -77.033041}, {"fusion_lat": 0.0, "name": "aeb3bf20183454ea3306fab181456ea2", "is_disabled": 0, "rental_uris": {"android": "https://dc.lft.to/lastmile_qr_scan", "ios": "https://dc.lft.to/lastmile_qr_scan"}, "fusion_lon": 0.0, "lat": 38.942081, "bike_id": "aeb3bf20183454ea3306fab181456ea2", "type": "electric_scooter", "is_reserved": 0, "lon": -77.02585966666666}, {"fusion_lat": 0.0, "name": "c4c4823c32bf1c14784b845e4d88be12", "is_disabled": 0, "rental_uris": {"android": "https://dc.lft.to/lastmile_qr_scan", "ios": "https://dc.lft.to/lastmile_qr_scan"}, "fusion_lon": 0.0, "lat": 38.8451005, "bike_id": "c4c4823c32bf1c14784b845e4d88be12", "type": "electric_bike", "is_reserved": 0, "lon": -76.99350566666666}, {"fusion_lat": 0.0, "name": "7acb21ca11f4c16d9b421210c1c55c4a", "is_disabled": 0, "rental_uris": {"android": "https://dc.lft.to/lastmile_qr_scan", "ios": "https://dc.lft.to/lastmile_qr_scan"}, "fusion_lon": 0.0, "lat": 38.90015266666666, "bike_id": "7acb21ca11f4c16d9b421210c1c55c4a", "type": "electric_scooter", "is_reserved": 0, "lon": -76.99576716666667}, {"fusion_lat": 0.0, "name": "20cac4eb5cd997f934955cac91af0e62", "is_disabled": 0, "rental_uris": {"android": "https://dc.lft.to/lastmile_qr_scan", "ios": "https://dc.lft.to/lastmile_qr_scan"}, "fusion_lon": 0.0, "lat": 38.922105, "bike_id": "20cac4eb5cd997f934955cac91af0e62", "type": "electric_scooter", "is_reserved": 0, "lon": -77.04252966666667}, {"fusion_lat": 0.0, "name": "4d9d4657ef43cede9f93cc974d5e7fbd", "is_disabled": 0, "rental_uris": {"android": "https://dc.lft.to/lastmile_qr_scan", "ios": "https://dc.lft.to/lastmile_qr_scan"}, "fusion_lon": 0.0, "lat": 38.952393666666666, "bike_id": "4d9d4657ef43cede9f93cc974d5e7fbd", "type": "electric_scooter", "is_reserved": 0, "lon": -76.99006233333333}, {"fusion_lat": 0.0, "name": "764cf2ea7be41e1fe3fc8f4fc620bc7a", "is_disabled": 0, "rental_uris": {"android": "https://dc.lft.to/lastmile_qr_scan", "ios": "https://dc.lft.to/lastmile_qr_scan"}, "fusion_lon": 0.0, "lat": 38.86021383333333, "bike_id": "764cf2ea7be41e1fe3fc8f4fc620bc7a", "type": "electric_bike", "is_reserved": 0, "lon": -77.12810966666666}, {"fusion_lat": 0.0, "name": "82f0f710caac5eda6fe2ff43aaeac187", "is_disabled": 0, "rental_uris": {"android": "https://dc.lft.to/lastmile_qr_scan", "ios": "https://dc.lft.to/lastmile_qr_scan"}, "fusion_lon": 0.0, "lat": 38.90731516666666, "bike_id": "82f0f710caac5eda6fe2ff43aaeac187", "type": "electric_scooter", "is_reserved": 0, "lon": -77.01223316666666}, {"fusion_lat": 0.0, "name": "53f2535d84dc6f7c7e5cb2ef237fe3af", "is_disabled": 0, "rental_uris": {"android": "https://dc.lft.to/lastmile_qr_scan", "ios": "https://dc.lft.to/lastmile_qr_scan"}, "fusion_lon": 0.0, "lat": 38.9039715, "bike_id": "53f2535d84dc6f7c7e5cb2ef237fe3af", "type": "electric_scooter", "is_reserved": 0, "lon": -76.99006383333334}, {"fusion_lat": 0.0, "name": "d130cdda9b50d7b420097a6605d89458", "is_disabled": 0, "rental_uris": {"android": "https://dc.lft.to/lastmile_qr_scan", "ios": "https://dc.lft.to/lastmile_qr_scan"}, "fusion_lon": 0.0, "lat": 38.90411783333333, "bike_id": "d130cdda9b50d7b420097a6605d89458", "type": "electric_scooter", "is_reserved": 0, "lon": -76.97330616666666}, {"fusion_lat": 0.0, "name": "58c1ede880a3aac0fe625b118a4e183e", "is_disabled": 0, "rental_uris": {"android": "https://dc.lft.to/lastmile_qr_scan", "ios": "https://dc.lft.to/lastmile_qr_scan"}, "fusion_lon": 0.0, "lat": 38.930225666666665, "bike_id": "58c1ede880a3aac0fe625b118a4e183e", "type": "electric_scooter", "is_reserved": 0, "lon": -77.0378315}, {"fusion_lat": 0.0, "name": "5101a48a3f1933f90036e94c2c255a40", "is_disabled": 0, "rental_uris": {"android": "https://dc.lft.to/lastmile_qr_scan", "ios": "https://dc.lft.to/lastmile_qr_scan"}, "fusion_lon": 0.0, "lat": 38.9011685, "bike_id": "5101a48a3f1933f90036e94c2c255a40", "type": "electric_scooter", "is_reserved": 0, "lon": -77.033968}, {"fusion_lat": 0.0, "name": "5205832f3ff72454e95f43da1fd02a55", "is_disabled": 0, "rental_uris": {"android": "https://dc.lft.to/lastmile_qr_scan", "ios": "https://dc.lft.to/lastmile_qr_scan"}, "fusion_lon": 0.0, "lat": 38.902582333333335, "bike_id": "5205832f3ff72454e95f43da1fd02a55", "type": "electric_scooter", "is_reserved": 0, "lon": -76.97454466666667}, {"fusion_lat": 0.0, "name": "bd72fe7f059ff2c2987f86d742a68797", "is_disabled": 0, "rental_uris": {"android": "https://dc.lft.to/lastmile_qr_scan", "ios": "https://dc.lft.to/lastmile_qr_scan"}, "fusion_lon": 0.0, "lat": 38.9293095, "bike_id": "bd72fe7f059ff2c2987f86d742a68797", "type": "electric_scooter", "is_reserved": 0, "lon": -77.023372}, {"fusion_lat": 0.0, "name": "d3ae31df4e4d0281a82fb62fb4e46b1a", "is_disabled": 0, "rental_uris": {"android": "https://dc.lft.to/lastmile_qr_scan", "ios": "https://dc.lft.to/lastmile_qr_scan"}, "fusion_lon": 0.0, "lat": 38.93076166666667, "bike_id": "d3ae31df4e4d0281a82fb62fb4e46b1a", "type": "electric_scooter", "is_reserved": 0, "lon": -77.07764066666667}, {"fusion_lat": 0.0, "name": "c6db5748a78541ab168ff69edb97b11d", "is_disabled": 0, "rental_uris": {"android": "https://dc.lft.to/lastmile_qr_scan", "ios": "https://dc.lft.to/lastmile_qr_scan"}, "fusion_lon": 0.0, "lat": 38.92317833333333, "bike_id": "c6db5748a78541ab168ff69edb97b11d", "type": "electric_scooter", "is_reserved": 0, "lon": -77.0203935}, {"fusion_lat": 0.0, "name": "0089c798bd835ca60240e0ef8f56ec17", "is_disabled": 0, "rental_uris": {"android": "https://dc.lft.to/lastmile_qr_scan", "ios": "https://dc.lft.to/lastmile_qr_scan"}, "fusion_lon": 0.0, "lat": 38.9072775, "bike_id": "0089c798bd835ca60240e0ef8f56ec17", "type": "electric_scooter", "is_reserved": 0, "lon": -77.0289595}, {"fusion_lat": 0.0, "name": "0630916fc1c056b1a0e2dc0afc475618", "is_disabled": 0, "rental_uris": {"android": "https://dc.lft.to/lastmile_qr_scan", "ios": "https://dc.lft.to/lastmile_qr_scan"}, "fusion_lon": 0.0, "lat": 38.925825333333336, "bike_id": "0630916fc1c056b1a0e2dc0afc475618", "type": "electric_scooter", "is_reserved": 0, "lon": -77.02729516666666}, {"fusion_lat": 0.0, "name": "859a545edf7553bc2192fc2537e57be2", "is_disabled": 0, "rental_uris": {"android": "https://dc.lft.to/lastmile_qr_scan", "ios": "https://dc.lft.to/lastmile_qr_scan"}, "fusion_lon": 0.0, "lat": 38.901852833333336, "bike_id": "859a545edf7553bc2192fc2537e57be2", "type": "electric_scooter", "is_reserved": 0, "lon": -77.0593275}, {"fusion_lat": 0.0, "name": "dca94f74097e5a785ca89bbd1ce424ef", "is_disabled": 0, "rental_uris": {"android": "https://dc.lft.to/lastmile_qr_scan", "ios": "https://dc.lft.to/lastmile_qr_scan"}, "fusion_lon": 0.0, "lat": 38.91221433333333, "bike_id": "dca94f74097e5a785ca89bbd1ce424ef", "type": "electric_scooter", "is_reserved": 0, "lon": -77.04509466666667}, {"fusion_lat": 0.0, "name": "1cdb83a69443f95007f555b523c1fb90", "is_disabled": 0, "rental_uris": {"android": "https://dc.lft.to/lastmile_qr_scan", "ios": "https://dc.lft.to/lastmile_qr_scan"}, "fusion_lon": 0.0, "lat": 38.92066633333334, "bike_id": "1cdb83a69443f95007f555b523c1fb90", "type": "electric_scooter", "is_reserved": 0, "lon": -77.0271455}, {"fusion_lat": 0.0, "name": "40f4d152e9ad426486428c2a79f999f8", "is_disabled": 0, "rental_uris": {"android": "https://dc.lft.to/lastmile_qr_scan", "ios": "https://dc.lft.to/lastmile_qr_scan"}, "fusion_lon": 0.0, "lat": 38.91564266666666, "bike_id": "40f4d152e9ad426486428c2a79f999f8", "type": "electric_scooter", "is_reserved": 0, "lon": -77.03246033333333}, {"fusion_lat": 0.0, "name": "e0ce48229cf76010a3404db0ba463f60", "is_disabled": 0, "rental_uris": {"android": "https://dc.lft.to/lastmile_qr_scan", "ios": "https://dc.lft.to/lastmile_qr_scan"}, "fusion_lon": 0.0, "lat": 38.923690666666666, "bike_id": "e0ce48229cf76010a3404db0ba463f60", "type": "electric_scooter", "is_reserved": 0, "lon": -77.081556}, {"fusion_lat": 0.0, "name": "849169547f0e55cd03c84d6874b2fbbe", "is_disabled": 0, "rental_uris": {"android": "https://dc.lft.to/lastmile_qr_scan", "ios": "https://dc.lft.to/lastmile_qr_scan"}, "fusion_lon": 0.0, "lat": 38.9613355, "bike_id": "849169547f0e55cd03c84d6874b2fbbe", "type": "electric_scooter", "is_reserved": 0, "lon": -77.0279175}, {"fusion_lat": 0.0, "name": "152d7b2512970af5b43f3506d8564839", "is_disabled": 0, "rental_uris": {"android": "https://dc.lft.to/lastmile_qr_scan", "ios": "https://dc.lft.to/lastmile_qr_scan"}, "fusion_lon": 0.0, "lat": 38.884872666666666, "bike_id": "152d7b2512970af5b43f3506d8564839", "type": "electric_scooter", "is_reserved": 0, "lon": -77.02439416666667}, {"fusion_lat": 0.0, "name": "2e773e8f5494607fcfc6eb9c35c4dba2", "is_disabled": 0, "rental_uris": {"android": "https://dc.lft.to/lastmile_qr_scan", "ios": "https://dc.lft.to/lastmile_qr_scan"}, "fusion_lon": 0.0, "lat": 38.87690716666667, "bike_id": "2e773e8f5494607fcfc6eb9c35c4dba2", "type": "electric_scooter", "is_reserved": 0, "lon": -77.01754866666667}, {"fusion_lat": 0.0, "name": "9fe5d3eedfaa61daa4e6d4d03ef6b3b5", "is_disabled": 0, "rental_uris": {"android": "https://dc.lft.to/lastmile_qr_scan", "ios": "https://dc.lft.to/lastmile_qr_scan"}, "fusion_lon": 0.0, "lat": 38.8896485, "bike_id": "9fe5d3eedfaa61daa4e6d4d03ef6b3b5", "type": "electric_scooter", "is_reserved": 0, "lon": -77.01503066666666}, {"fusion_lat": 0.0, "name": "1d22956e280836579b7ad6636541db6e", "is_disabled": 0, "rental_uris": {"android": "https://dc.lft.to/lastmile_qr_scan", "ios": "https://dc.lft.to/lastmile_qr_scan"}, "fusion_lon": 0.0, "lat": 38.8900665, "bike_id": "1d22956e280836579b7ad6636541db6e", "type": "electric_scooter", "is_reserved": 0, "lon": -76.93742483333334}, {"fusion_lat": 0.0, "name": "ee43a05a5f5b781fce55003cf7b1be54", "is_disabled": 0, "rental_uris": {"android": "https://dc.lft.to/lastmile_qr_scan", "ios": "https://dc.lft.to/lastmile_qr_scan"}, "fusion_lon": 0.0, "lat": 38.9038295, "bike_id": "ee43a05a5f5b781fce55003cf7b1be54", "type": "electric_scooter", "is_reserved": 0, "lon": -76.98481466666667}, {"fusion_lat": 0.0, "name": "c6331174f73e73e5e1d330081b32f996", "is_disabled": 0, "rental_uris": {"android": "https://dc.lft.to/lastmile_qr_scan", "ios": "https://dc.lft.to/lastmile_qr_scan"}, "fusion_lon": 0.0, "lat": 38.91348766666667, "bike_id": "c6331174f73e73e5e1d330081b32f996", "type": "electric_scooter", "is_reserved": 0, "lon": -77.003401}, {"fusion_lat": 0.0, "name": "ff366853bee758a4ce7f11dfb702c395", "is_disabled": 0, "rental_uris": {"android": "https://dc.lft.to/lastmile_qr_scan", "ios": "https://dc.lft.to/lastmile_qr_scan"}, "fusion_lon": 0.0, "lat": 38.92462033333334, "bike_id": "ff366853bee758a4ce7f11dfb702c395", "type": "electric_scooter", "is_reserved": 0, "lon": -77.02408083333333}, {"fusion_lat": 0.0, "name": "803158f347e082021953b33e2a93c588", "is_disabled": 0, "rental_uris": {"android": "https://dc.lft.to/lastmile_qr_scan", "ios": "https://dc.lft.to/lastmile_qr_scan"}, "fusion_lon": 0.0, "lat": 38.92990266666666, "bike_id": "803158f347e082021953b33e2a93c588", "type": "electric_scooter", "is_reserved": 0, "lon": -77.03225216666667}, {"fusion_lat": 0.0, "name": "0ab2010e54c31c2afb41add238f923fe", "is_disabled": 0, "rental_uris": {"android": "https://dc.lft.to/lastmile_qr_scan", "ios": "https://dc.lft.to/lastmile_qr_scan"}, "fusion_lon": 0.0, "lat": 38.900806, "bike_id": "0ab2010e54c31c2afb41add238f923fe", "type": "electric_scooter", "is_reserved": 0, "lon": -76.98691533333333}, {"fusion_lat": 0.0, "name": "adf3699820e3be9f8e524220d922d7cd", "is_disabled": 0, "rental_uris": {"android": "https://dc.lft.to/lastmile_qr_scan", "ios": "https://dc.lft.to/lastmile_qr_scan"}, "fusion_lon": 0.0, "lat": 38.88503333333333, "bike_id": "adf3699820e3be9f8e524220d922d7cd", "type": "electric_scooter", "is_reserved": 0, "lon": -76.99754483333334}, {"fusion_lat": 0.0, "name": "e1bdca46f3792cbea571497f72abb92f", "is_disabled": 0, "rental_uris": {"android": "https://dc.lft.to/lastmile_qr_scan", "ios": "https://dc.lft.to/lastmile_qr_scan"}, "fusion_lon": 0.0, "lat": 38.908595, "bike_id": "e1bdca46f3792cbea571497f72abb92f", "type": "electric_scooter", "is_reserved": 0, "lon": -77.04736583333333}, {"fusion_lat": 0.0, "name": "b82b0f27c7d2086b6279896f38af48ee", "is_disabled": 0, "rental_uris": {"android": "https://dc.lft.to/lastmile_qr_scan", "ios": "https://dc.lft.to/lastmile_qr_scan"}, "fusion_lon": 0.0, "lat": 38.91720566666667, "bike_id": "b82b0f27c7d2086b6279896f38af48ee", "type": "electric_scooter", "is_reserved": 0, "lon": -77.02804383333333}, {"fusion_lat": 0.0, "name": "4a17f36d357e6a34251b221482a3f472", "is_disabled": 0, "rental_uris": {"android": "https://dc.lft.to/lastmile_qr_scan", "ios": "https://dc.lft.to/lastmile_qr_scan"}, "fusion_lon": 0.0, "lat": 39.01418866666667, "bike_id": "4a17f36d357e6a34251b221482a3f472", "type": "electric_bike", "is_reserved": 0, "lon": -77.04501083333334}, {"fusion_lat": 0.0, "name": "5f768e472f28f189af0966a52a460c12", "is_disabled": 0, "rental_uris": {"android": "https://dc.lft.to/lastmile_qr_scan", "ios": "https://dc.lft.to/lastmile_qr_scan"}, "fusion_lon": 0.0, "lat": 38.89565316666667, "bike_id": "5f768e472f28f189af0966a52a460c12", "type": "electric_scooter", "is_reserved": 0, "lon": -76.9942975}, {"fusion_lat": 0.0, "name": "921890e17a667904a9a0a76d9118b433", "is_disabled": 0, "rental_uris": {"android": "https://dc.lft.to/lastmile_qr_scan", "ios": "https://dc.lft.to/lastmile_qr_scan"}, "fusion_lon": 0.0, "lat": 38.92160533333333, "bike_id": "921890e17a667904a9a0a76d9118b433", "type": "electric_scooter", "is_reserved": 0, "lon": -77.02091733333333}, {"fusion_lat": 0.0, "name": "038ee24b38e744a82e766ce5debb18f2", "is_disabled": 0, "rental_uris": {"android": "https://dc.lft.to/lastmile_qr_scan", "ios": "https://dc.lft.to/lastmile_qr_scan"}, "fusion_lon": 0.0, "lat": 38.93708616666667, "bike_id": "038ee24b38e744a82e766ce5debb18f2", "type": "electric_scooter", "is_reserved": 0, "lon": -77.06111833333334}, {"fusion_lat": 0.0, "name": "c08d7e0283f2015e10693528f9e6598a", "is_disabled": 0, "rental_uris": {"android": "https://dc.lft.to/lastmile_qr_scan", "ios": "https://dc.lft.to/lastmile_qr_scan"}, "fusion_lon": 0.0, "lat": 38.90146216666667, "bike_id": "c08d7e0283f2015e10693528f9e6598a", "type": "electric_scooter", "is_reserved": 0, "lon": -77.040298}, {"fusion_lat": 0.0, "name": "1c73c2c27d740db93f4e7901c8ae5786", "is_disabled": 0, "rental_uris": {"android": "https://dc.lft.to/lastmile_qr_scan", "ios": "https://dc.lft.to/lastmile_qr_scan"}, "fusion_lon": 0.0, "lat": 38.945257833333336, "bike_id": "1c73c2c27d740db93f4e7901c8ae5786", "type": "electric_scooter", "is_reserved": 0, "lon": -77.03885383333333}, {"fusion_lat": 0.0, "name": "dbc6c117b935594fa41e4b1eae1664a7", "is_disabled": 0, "rental_uris": {"android": "https://dc.lft.to/lastmile_qr_scan", "ios": "https://dc.lft.to/lastmile_qr_scan"}, "fusion_lon": 0.0, "lat": 38.94109366666667, "bike_id": "dbc6c117b935594fa41e4b1eae1664a7", "type": "electric_scooter", "is_reserved": 0, "lon": -77.03481466666666}, {"fusion_lat": 0.0, "name": "b7e21b573912bc6d1bb09ee6884fc112", "is_disabled": 0, "rental_uris": {"android": "https://dc.lft.to/lastmile_qr_scan", "ios": "https://dc.lft.to/lastmile_qr_scan"}, "fusion_lon": 0.0, "lat": 38.9359285, "bike_id": "b7e21b573912bc6d1bb09ee6884fc112", "type": "electric_scooter", "is_reserved": 0, "lon": -77.0237835}, {"fusion_lat": 0.0, "name": "ff0471a5924cc3adc90a3c635a777ef8", "is_disabled": 0, "rental_uris": {"android": "https://dc.lft.to/lastmile_qr_scan", "ios": "https://dc.lft.to/lastmile_qr_scan"}, "fusion_lon": 0.0, "lat": 38.90331666666667, "bike_id": "ff0471a5924cc3adc90a3c635a777ef8", "type": "electric_scooter", "is_reserved": 0, "lon": -77.03206483333334}, {"fusion_lat": 0.0, "name": "accb5cae7a255d3e956ce19fb5e1aead", "is_disabled": 0, "rental_uris": {"android": "https://dc.lft.to/lastmile_qr_scan", "ios": "https://dc.lft.to/lastmile_qr_scan"}, "fusion_lon": 0.0, "lat": 38.887595166666664, "bike_id": "accb5cae7a255d3e956ce19fb5e1aead", "type": "electric_scooter", "is_reserved": 0, "lon": -76.9978855}, {"fusion_lat": 0.0, "name": "de32c604e0cea975e303fe1d44b6abfa", "is_disabled": 0, "rental_uris": {"android": "https://dc.lft.to/lastmile_qr_scan", "ios": "https://dc.lft.to/lastmile_qr_scan"}, "fusion_lon": 0.0, "lat": 38.917086166666664, "bike_id": "de32c604e0cea975e303fe1d44b6abfa", "type": "electric_scooter", "is_reserved": 0, "lon": -77.02739216666667}, {"fusion_lat": 0.0, "name": "68a795ea076b55a294270113b5216117", "is_disabled": 0, "rental_uris": {"android": "https://dc.lft.to/lastmile_qr_scan", "ios": "https://dc.lft.to/lastmile_qr_scan"}, "fusion_lon": 0.0, "lat": 38.88992833333333, "bike_id": "68a795ea076b55a294270113b5216117", "type": "electric_scooter", "is_reserved": 0, "lon": -76.92985683333333}, {"fusion_lat": 0.0, "name": "d22011ed2b16e008aa37963eeeaeca31", "is_disabled": 0, "rental_uris": {"android": "https://dc.lft.to/lastmile_qr_scan", "ios": "https://dc.lft.to/lastmile_qr_scan"}, "fusion_lon": 0.0, "lat": 38.923467333333335, "bike_id": "d22011ed2b16e008aa37963eeeaeca31", "type": "electric_scooter", "is_reserved": 0, "lon": -76.9925355}, {"fusion_lat": 0.0, "name": "c5f9ac713c791f0c9474fa853232522c", "is_disabled": 0, "rental_uris": {"android": "https://dc.lft.to/lastmile_qr_scan", "ios": "https://dc.lft.to/lastmile_qr_scan"}, "fusion_lon": 0.0, "lat": 38.84758716666666, "bike_id": "c5f9ac713c791f0c9474fa853232522c", "type": "electric_scooter", "is_reserved": 0, "lon": -76.9950075}, {"fusion_lat": 0.0, "name": "cff4bc37332f11be46d4f0f9fd575294", "is_disabled": 0, "rental_uris": {"android": "https://dc.lft.to/lastmile_qr_scan", "ios": "https://dc.lft.to/lastmile_qr_scan"}, "fusion_lon": 0.0, "lat": 38.9463605, "bike_id": "cff4bc37332f11be46d4f0f9fd575294", "type": "electric_scooter", "is_reserved": 0, "lon": -77.0953925}, {"fusion_lat": 0.0, "name": "fd1dac72b528f80042a978259badbc51", "is_disabled": 0, "rental_uris": {"android": "https://dc.lft.to/lastmile_qr_scan", "ios": "https://dc.lft.to/lastmile_qr_scan"}, "fusion_lon": 0.0, "lat": 38.92080266666667, "bike_id": "fd1dac72b528f80042a978259badbc51", "type": "electric_scooter", "is_reserved": 0, "lon": -77.01477433333334}, {"fusion_lat": 0.0, "name": "acd65c97ffc4036ddacb64539ee34974", "is_disabled": 0, "rental_uris": {"android": "https://dc.lft.to/lastmile_qr_scan", "ios": "https://dc.lft.to/lastmile_qr_scan"}, "fusion_lon": 0.0, "lat": 38.90175216666667, "bike_id": "acd65c97ffc4036ddacb64539ee34974", "type": "electric_scooter", "is_reserved": 0, "lon": -77.01992816666667}, {"fusion_lat": 0.0, "name": "ec5af4f5b9c1e83384ff81c66bcaf80c", "is_disabled": 0, "rental_uris": {"android": "https://dc.lft.to/lastmile_qr_scan", "ios": "https://dc.lft.to/lastmile_qr_scan"}, "fusion_lon": 0.0, "lat": 38.961319833333334, "bike_id": "ec5af4f5b9c1e83384ff81c66bcaf80c", "type": "electric_scooter", "is_reserved": 0, "lon": -77.0279035}, {"fusion_lat": 0.0, "name": "3988eb8653cc7d026105369fe0650c57", "is_disabled": 0, "rental_uris": {"android": "https://dc.lft.to/lastmile_qr_scan", "ios": "https://dc.lft.to/lastmile_qr_scan"}, "fusion_lon": 0.0, "lat": 38.884647666666666, "bike_id": "3988eb8653cc7d026105369fe0650c57", "type": "electric_scooter", "is_reserved": 0, "lon": -76.94982166666667}, {"fusion_lat": 0.0, "name": "c2016fe51c30935a8d5e7cb939398fe7", "is_disabled": 0, "rental_uris": {"android": "https://dc.lft.to/lastmile_qr_scan", "ios": "https://dc.lft.to/lastmile_qr_scan"}, "fusion_lon": 0.0, "lat": 38.90259433333333, "bike_id": "c2016fe51c30935a8d5e7cb939398fe7", "type": "electric_scooter", "is_reserved": 0, "lon": -77.0296385}, {"fusion_lat": 0.0, "name": "fa1e6027fa3b9a3d564215c829c92561", "is_disabled": 0, "rental_uris": {"android": "https://dc.lft.to/lastmile_qr_scan", "ios": "https://dc.lft.to/lastmile_qr_scan"}, "fusion_lon": 0.0, "lat": 38.91345233333333, "bike_id": "fa1e6027fa3b9a3d564215c829c92561", "type": "electric_scooter", "is_reserved": 0, "lon": -77.0427915}, {"fusion_lat": 0.0, "name": "5cbe1a2543bb671f12e9a6e5dc1219d9", "is_disabled": 0, "rental_uris": {"android": "https://dc.lft.to/lastmile_qr_scan", "ios": "https://dc.lft.to/lastmile_qr_scan"}, "fusion_lon": 0.0, "lat": 38.9079575, "bike_id": "5cbe1a2543bb671f12e9a6e5dc1219d9", "type": "electric_scooter", "is_reserved": 0, "lon": -77.009705}, {"fusion_lat": 0.0, "name": "eacd121bb397025140d446b12b7f3caa", "is_disabled": 0, "rental_uris": {"android": "https://dc.lft.to/lastmile_qr_scan", "ios": "https://dc.lft.to/lastmile_qr_scan"}, "fusion_lon": 0.0, "lat": 38.91562833333333, "bike_id": "eacd121bb397025140d446b12b7f3caa", "type": "electric_scooter", "is_reserved": 0, "lon": -77.03067966666667}, {"fusion_lat": 0.0, "name": "9857953b664ed37270f769924b1a6c5c", "is_disabled": 0, "rental_uris": {"android": "https://dc.lft.to/lastmile_qr_scan", "ios": "https://dc.lft.to/lastmile_qr_scan"}, "fusion_lon": 0.0, "lat": 38.898978166666666, "bike_id": "9857953b664ed37270f769924b1a6c5c", "type": "electric_scooter", "is_reserved": 0, "lon": -77.03292066666667}, {"fusion_lat": 0.0, "name": "b86fff136f79be1ddfa78ebb784545f1", "is_disabled": 0, "rental_uris": {"android": "https://dc.lft.to/lastmile_qr_scan", "ios": "https://dc.lft.to/lastmile_qr_scan"}, "fusion_lon": 0.0, "lat": 38.933444, "bike_id": "b86fff136f79be1ddfa78ebb784545f1", "type": "electric_scooter", "is_reserved": 0, "lon": -77.03635266666667}, {"fusion_lat": 0.0, "name": "fa51d26733f09e30dfaff0c8f5098306", "is_disabled": 0, "rental_uris": {"android": "https://dc.lft.to/lastmile_qr_scan", "ios": "https://dc.lft.to/lastmile_qr_scan"}, "fusion_lon": 0.0, "lat": 38.96128366666667, "bike_id": "fa51d26733f09e30dfaff0c8f5098306", "type": "electric_bike", "is_reserved": 0, "lon": -77.03282333333334}, {"fusion_lat": 0.0, "name": "7e1cb9bbd39024d799387b0a3e5ccd05", "is_disabled": 0, "rental_uris": {"android": "https://dc.lft.to/lastmile_qr_scan", "ios": "https://dc.lft.to/lastmile_qr_scan"}, "fusion_lon": 0.0, "lat": 38.877123, "bike_id": "7e1cb9bbd39024d799387b0a3e5ccd05", "type": "electric_scooter", "is_reserved": 0, "lon": -76.99379283333333}, {"fusion_lat": 0.0, "name": "c320fa876acf9de2ce4181f0f26c404b", "is_disabled": 0, "rental_uris": {"android": "https://dc.lft.to/lastmile_qr_scan", "ios": "https://dc.lft.to/lastmile_qr_scan"}, "fusion_lon": 0.0, "lat": 38.89877416666667, "bike_id": "c320fa876acf9de2ce4181f0f26c404b", "type": "electric_scooter", "is_reserved": 0, "lon": -76.93183733333333}, {"fusion_lat": 0.0, "name": "b03732e99e77b8d27f1e325c6da206e2", "is_disabled": 0, "rental_uris": {"android": "https://dc.lft.to/lastmile_qr_scan", "ios": "https://dc.lft.to/lastmile_qr_scan"}, "fusion_lon": 0.0, "lat": 38.908078333333336, "bike_id": "b03732e99e77b8d27f1e325c6da206e2", "type": "electric_scooter", "is_reserved": 0, "lon": -77.04244366666667}, {"fusion_lat": 0.0, "name": "87c3a4c4ede0db5300d480912ed1df3a", "is_disabled": 0, "rental_uris": {"android": "https://dc.lft.to/lastmile_qr_scan", "ios": "https://dc.lft.to/lastmile_qr_scan"}, "fusion_lon": 0.0, "lat": 38.896049, "bike_id": "87c3a4c4ede0db5300d480912ed1df3a", "type": "electric_scooter", "is_reserved": 0, "lon": -77.009288}, {"fusion_lat": 0.0, "name": "2d73353c0681bbeae1edaea4dfb5c8d2", "is_disabled": 0, "rental_uris": {"android": "https://dc.lft.to/lastmile_qr_scan", "ios": "https://dc.lft.to/lastmile_qr_scan"}, "fusion_lon": 0.0, "lat": 38.920273, "bike_id": "2d73353c0681bbeae1edaea4dfb5c8d2", "type": "electric_scooter", "is_reserved": 0, "lon": -77.0239185}, {"fusion_lat": 0.0, "name": "a634b573a30e12c16f24d96653985905", "is_disabled": 0, "rental_uris": {"android": "https://dc.lft.to/lastmile_qr_scan", "ios": "https://dc.lft.to/lastmile_qr_scan"}, "fusion_lon": 0.0, "lat": 38.886124, "bike_id": "a634b573a30e12c16f24d96653985905", "type": "electric_scooter", "is_reserved": 0, "lon": -77.01554716666666}, {"fusion_lat": 0.0, "name": "00fda0468a6554ef5f54f1c0b0b05b30", "is_disabled": 0, "rental_uris": {"android": "https://dc.lft.to/lastmile_qr_scan", "ios": "https://dc.lft.to/lastmile_qr_scan"}, "fusion_lon": 0.0, "lat": 38.9002175, "bike_id": "00fda0468a6554ef5f54f1c0b0b05b30", "type": "electric_scooter", "is_reserved": 0, "lon": -77.00097}, {"fusion_lat": 0.0, "name": "f019f3bec2067315a82e2726a36dfcf9", "is_disabled": 0, "rental_uris": {"android": "https://dc.lft.to/lastmile_qr_scan", "ios": "https://dc.lft.to/lastmile_qr_scan"}, "fusion_lon": 0.0, "lat": 38.934002, "bike_id": "f019f3bec2067315a82e2726a36dfcf9", "type": "electric_scooter", "is_reserved": 0, "lon": -77.0284435}, {"fusion_lat": 0.0, "name": "278a6e47a29227f7d1f682e7a6e8bdb7", "is_disabled": 0, "rental_uris": {"android": "https://dc.lft.to/lastmile_qr_scan", "ios": "https://dc.lft.to/lastmile_qr_scan"}, "fusion_lon": 0.0, "lat": 38.91607466666667, "bike_id": "278a6e47a29227f7d1f682e7a6e8bdb7", "type": "electric_scooter", "is_reserved": 0, "lon": -77.0173965}, {"fusion_lat": 0.0, "name": "91e914277f02c0c245a1bcfbf4f1d342", "is_disabled": 0, "rental_uris": {"android": "https://dc.lft.to/lastmile_qr_scan", "ios": "https://dc.lft.to/lastmile_qr_scan"}, "fusion_lon": 0.0, "lat": 38.9042585, "bike_id": "91e914277f02c0c245a1bcfbf4f1d342", "type": "electric_scooter", "is_reserved": 0, "lon": -77.02563883333333}, {"fusion_lat": 0.0, "name": "fd3a0b8b97df90187727f6d51092014a", "is_disabled": 0, "rental_uris": {"android": "https://dc.lft.to/lastmile_qr_scan", "ios": "https://dc.lft.to/lastmile_qr_scan"},