{"data": {"bikes": [{"fusion_lat": 0.0, "name": "8e92e7b69feea63d8685cc358859a537", "is_disabled": 0, "rental_uris": {"android": "https://dc.lft.to/lastmile_qr_scan", "ios": "https://dc.lft.to/lastmile_qr_scan"}, "fusion_lon": 0.0, "lat": 38.901324333333335, "bike_id": "8e92e7b69feea63d8685cc358859a537", "type": "electric_scooter", "is_reserved": 0, "lon": -77.02272583333334}, {"fusion_lat": 0.0, "name": "bc5651d8c3e1d57adc2ff1937575296c", "is_disabled": 0, "rental_uris": {"android": "https://dc.lft.to/lastmile_qr_scan", "ios": "https://dc.lft.to/lastmile_qr_scan"}, "fusion_lon": 0.0, "lat": 38.91653516666667, "bike_id": "bc5651d8c3e1d57adc2ff1937575296c", "type": "electric_scooter", "is_reserved": 0, "lon": -77.009601}, {"fusion_lat": 0.0, "name": "25e05494b1b274085935923197c3ae0a", "is_disabled": 0, "rental_uris": {"android": "https://dc.lft.to/lastmile_qr_scan", "ios": "https://dc.lft.to/lastmile_qr_scan"}, "fusion_lon": 0.0, "lat": 38.914170166666665, "bike_id": "25e05494b1b274085935923197c3ae0a", "type": "electric_scooter", "is_reserved": 0, "lon": -77.042497}, {"fusion_lat": 0.0, "name": "463c1759009b0bad8964b889905d07bb", "is_disabled": 0, "rental_uris": {"android": "https://dc.lft.to/lastmile_qr_scan", "ios": "https://dc.lft.to/lastmile_qr_scan"}, "fusion_lon": 0.0, "lat": 38.8873265, "bike_id": "463c1759009b0bad8964b889905d07bb", "type": "electric_scooter", "is_reserved": 0, "lon": -77.01517266666667}, {"fusion_lat": 0.0, "name": "eab1e75918e2f3e091d78c59ae6680a5", "is_disabled": 0, "rental_uris": {"android": "https://dc.lft.to/lastmile_qr_scan", "ios": "https://dc.lft.to/lastmile_qr_scan"}, "fusion_lon": 0.0, "lat": 38.9234235, "bike_id": "eab1e75918e2f3e091d78c59ae6680a5", "type": "electric_scooter", "is_reserved": 0, "lon": -77.0517885}, {"fusion_lat": 0.0, "name": "bf917b160bf2eb612dbdcdc4b2c8ccf6", "is_disabled": 0, "rental_uris": {"android": "https://dc.lft.to/lastmile_qr_scan", "ios": "https://dc.lft.to/lastmile_qr_scan"}, "fusion_lon": 0.0, "lat": 38.865181166666666, "bike_id": "bf917b160bf2eb612dbdcdc4b2c8ccf6", "type": "electric_bike", "is_reserved": 0, "lon": -77.12939066666667}, {"fusion_lat": 0.0, "name": "720a333eb1db374b7452caea64e94090", "is_disabled": 0, "rental_uris": {"android": "https://dc.lft.to/lastmile_qr_scan", "ios": "https://dc.lft.to/lastmile_qr_scan"}, "fusion_lon": 0.0, "lat": 38.90924866666667, "bike_id": "720a333eb1db374b7452caea64e94090", "type": "electric_scooter", "is_reserved": 0, "lon": -77.032087}, {"fusion_lat": 0.0, "name": "ba06bc3d2235bd55da2d63a80808a743", "is_disabled": 0, "rental_uris": {"android": "https://dc.lft.to/lastmile_qr_scan", "ios": "https://dc.lft.to/lastmile_qr_scan"}, "fusion_lon": 0.0, "lat": 38.9051915, "bike_id": "ba06bc3d2235bd55da2d63a80808a743", "type": "electric_scooter", "is_reserved": 0, "lon": -77.02712983333333}, {"fusion_lat": 0.0, "name": "53df1ef3b7b647466c3863019b863012", "is_disabled": 0, "rental_uris": {"android": "https://dc.lft.to/lastmile_qr_scan", "ios": "https://dc.lft.to/lastmile_qr_scan"}, "fusion_lon": 0.0, "lat": 38.88767816666667, "bike_id": "53df1ef3b7b647466c3863019b863012", "type": "electric_scooter", "is_reserved": 0, "lon": -77.02865266666667}, {"fusion_lat": 0.0, "name": "127eab4d7a746001cde9203f1fa689a3", "is_disabled": 0, "rental_uris": {"android": "https://dc.lft.to/lastmile_qr_scan", "ios": "https://dc.lft.to/lastmile_qr_scan"}, "fusion_lon": 0.0, "lat": 38.922372833333334, "bike_id": "127eab4d7a746001cde9203f1fa689a3", "type": "electric_scooter", "is_reserved": 0, "lon": -77.02243066666666}, {"fusion_lat": 0.0, "name": "82104a33cfc568311e1656bb17ae6b52", "is_disabled": 0, "rental_uris": {"android": "https://dc.lft.to/lastmile_qr_scan", "ios": "https://dc.lft.to/lastmile_qr_scan"}, "fusion_lon": 0.0, "lat": 38.916818666666664, "bike_id": "82104a33cfc568311e1656bb17ae6b52", "type": "electric_scooter", "is_reserved": 0, "lon": -77.03692166666667}, {"fusion_lat": 0.0, "name": "58ede268f2857c8367cb1125dd046ab5", "is_disabled": 0, "rental_uris": {"android": "https://dc.lft.to/lastmile_qr_scan", "ios": "https://dc.lft.to/lastmile_qr_scan"}, "fusion_lon": 0.0, "lat": 38.914849, "bike_id": "58ede268f2857c8367cb1125dd046ab5", "type": "electric_scooter", "is_reserved": 0, "lon": -77.02594716666667}, {"fusion_lat": 0.0, "name": "820a33667628e2dc183e148bae0713f2", "is_disabled": 0, "rental_uris": {"android": "https://dc.lft.to/lastmile_qr_scan", "ios": "https://dc.lft.to/lastmile_qr_scan"}, "fusion_lon": 0.0, "lat": 38.90636416666667, "bike_id": "820a33667628e2dc183e148bae0713f2", "type": "electric_scooter", "is_reserved": 0, "lon": -77.03470283333333}, {"fusion_lat": 0.0, "name": "1dc31006be30bb7ce1dd6d1518779de0", "is_disabled": 0, "rental_uris": {"android": "https://dc.lft.to/lastmile_qr_scan", "ios": "https://dc.lft.to/lastmile_qr_scan"}, "fusion_lon": 0.0, "lat": 38.90392216666667, "bike_id": "1dc31006be30bb7ce1dd6d1518779de0", "type": "electric_scooter", "is_reserved": 0, "lon": -77.0177125}, {"fusion_lat": 0.0, "name": "5d8e80554efa2e059fea7dd505a6a9a8", "is_disabled": 0, "rental_uris": {"android": "https://dc.lft.to/lastmile_qr_scan", "ios": "https://dc.lft.to/lastmile_qr_scan"}, "fusion_lon": 0.0, "lat": 38.90566783333333, "bike_id": "5d8e80554efa2e059fea7dd505a6a9a8", "type": "electric_scooter", "is_reserved": 0, "lon": -77.0170235}, {"fusion_lat": 0.0, "name": "c0f822783d605bf57bbbfb4ed9e986fb", "is_disabled": 0, "rental_uris": {"android": "https://dc.lft.to/lastmile_qr_scan", "ios": "https://dc.lft.to/lastmile_qr_scan"}, "fusion_lon": 0.0, "lat": 38.9452205, "bike_id": "c0f822783d605bf57bbbfb4ed9e986fb", "type": "electric_scooter", "is_reserved": 0, "lon": -77.02096483333334}, {"fusion_lat": 0.0, "name": "3af3a0fe4a90f57518f8c7f9d85d95f4", "is_disabled": 0, "rental_uris": {"android": "https://dc.lft.to/lastmile_qr_scan", "ios": "https://dc.lft.to/lastmile_qr_scan"}, "fusion_lon": 0.0, "lat": 38.87439666666667, "bike_id": "3af3a0fe4a90f57518f8c7f9d85d95f4", "type": "electric_scooter", "is_reserved": 0, "lon": -77.00055183333333}, {"fusion_lat": 0.0, "name": "ae3d489d4eedd9eb760554a38951bc3f", "is_disabled": 0, "rental_uris": {"android": "https://dc.lft.to/lastmile_qr_scan", "ios": "https://dc.lft.to/lastmile_qr_scan"}, "fusion_lon": 0.0, "lat": 38.91949066666667, "bike_id": "ae3d489d4eedd9eb760554a38951bc3f", "type": "electric_scooter", "is_reserved": 0, "lon": -77.02374483333334}, {"fusion_lat": 0.0, "name": "a5c5819dc5c09f6879347d575075a1be", "is_disabled": 0, "rental_uris": {"android": "https://dc.lft.to/lastmile_qr_scan", "ios": "https://dc.lft.to/lastmile_qr_scan"}, "fusion_lon": 0.0, "lat": 38.901571833333335, "bike_id": "a5c5819dc5c09f6879347d575075a1be", "type": "electric_scooter", "is_reserved": 0, "lon": -77.02295816666667}, {"fusion_lat": 0.0, "name": "1a3baab528e40926db92476a5cd2d4c5", "is_disabled": 0, "rental_uris": {"android": "https://dc.lft.to/lastmile_qr_scan", "ios": "https://dc.lft.to/lastmile_qr_scan"}, "fusion_lon": 0.0, "lat": 38.9169775, "bike_id": "1a3baab528e40926db92476a5cd2d4c5", "type": "electric_scooter", "is_reserved": 0, "lon": -77.02436083333333}, {"fusion_lat": 0.0, "name": "bacc1ce6abb65303dbaf4b4b113de25c", "is_disabled": 0, "rental_uris": {"android": "https://dc.lft.to/lastmile_qr_scan", "ios": "https://dc.lft.to/lastmile_qr_scan"}, "fusion_lon": 0.0, "lat": 38.8787285, "bike_id": "bacc1ce6abb65303dbaf4b4b113de25c", "type": "electric_scooter", "is_reserved": 0, "lon": -77.00567266666667}, {"fusion_lat": 0.0, "name": "2fbd556de582d801a1a55fb36cf90410", "is_disabled": 0, "rental_uris": {"android": "https://dc.lft.to/lastmile_qr_scan", "ios": "https://dc.lft.to/lastmile_qr_scan"}, "fusion_lon": 0.0, "lat": 38.91889166666667, "bike_id": "2fbd556de582d801a1a55fb36cf90410", "type": "electric_scooter", "is_reserved": 0, "lon": -77.02405216666666}, {"fusion_lat": 0.0, "name": "07471e0a0aaa08081eb86bae13177466", "is_disabled": 0, "rental_uris": {"android": "https://dc.lft.to/lastmile_qr_scan", "ios": "https://dc.lft.to/lastmile_qr_scan"}, "fusion_lon": 0.0, "lat": 38.898314, "bike_id": "07471e0a0aaa08081eb86bae13177466", "type": "electric_scooter", "is_reserved": 0, "lon": -77.02833966666667}, {"fusion_lat": 0.0, "name": "60f47dbf87b5b70dbe6fb80e609df9a6", "is_disabled": 0, "rental_uris": {"android": "https://dc.lft.to/lastmile_qr_scan", "ios": "https://dc.lft.to/lastmile_qr_scan"}, "fusion_lon": 0.0, "lat": 39.0107435, "bike_id": "60f47dbf87b5b70dbe6fb80e609df9a6", "type": "electric_bike", "is_reserved": 0, "lon": -76.91071883333333}, {"fusion_lat": 0.0, "name": "eaf6512caa290efc03aca281303fbad8", "is_disabled": 0, "rental_uris": {"android": "https://dc.lft.to/lastmile_qr_scan", "ios": "https://dc.lft.to/lastmile_qr_scan"}, "fusion_lon": 0.0, "lat": 38.887671833333336, "bike_id": "eaf6512caa290efc03aca281303fbad8", "type": "electric_scooter", "is_reserved": 0, "lon": -77.02957333333333}, {"fusion_lat": 0.0, "name": "e90dc908e1ba328bb179080f2fe4fca8", "is_disabled": 0, "rental_uris": {"android": "https://dc.lft.to/lastmile_qr_scan", "ios": "https://dc.lft.to/lastmile_qr_scan"}, "fusion_lon": 0.0, "lat": 38.93707, "bike_id": "e90dc908e1ba328bb179080f2fe4fca8", "type": "electric_scooter", "is_reserved": 0, "lon": -77.06107266666666}, {"fusion_lat": 0.0, "name": "c307dc363a6a0a723f1faa68a96c91bc", "is_disabled": 0, "rental_uris": {"android": "https://dc.lft.to/lastmile_qr_scan", "ios": "https://dc.lft.to/lastmile_qr_scan"}, "fusion_lon": 0.0, "lat": 38.900467666666664, "bike_id": "c307dc363a6a0a723f1faa68a96c91bc", "type": "electric_scooter", "is_reserved": 0, "lon": -77.03492283333334}, {"fusion_lat": 0.0, "name": "430dcd1ab5680eab45df05b6be35f48b", "is_disabled": 0, "rental_uris": {"android": "https://dc.lft.to/lastmile_qr_scan", "ios": "https://dc.lft.to/lastmile_qr_scan"}, "fusion_lon": 0.0, "lat": 38.918227, "bike_id": "430dcd1ab5680eab45df05b6be35f48b", "type": "electric_scooter", "is_reserved": 0, "lon": -77.0399985}, {"fusion_lat": 0.0, "name": "3a72593b62052cc78348b8242701764c", "is_disabled": 0, "rental_uris": {"android": "https://dc.lft.to/lastmile_qr_scan", "ios": "https://dc.lft.to/lastmile_qr_scan"}, "fusion_lon": 0.0, "lat": 38.8993005, "bike_id": "3a72593b62052cc78348b8242701764c", "type": "electric_scooter", "is_reserved": 0, "lon": -77.02395216666666}, {"fusion_lat": 0.0, "name": "d5962969bbf483cbadb7ba6b0137a231", "is_disabled": 0, "rental_uris": {"android": "https://dc.lft.to/lastmile_qr_scan", "ios": "https://dc.lft.to/lastmile_qr_scan"}, "fusion_lon": 0.0, "lat": 38.91715283333333, "bike_id": "d5962969bbf483cbadb7ba6b0137a231", "type": "electric_scooter", "is_reserved": 0, "lon": -77.00838766666666}, {"fusion_lat": 0.0, "name": "b301b6e0472dfe116fc4a35e77d21344", "is_disabled": 0, "rental_uris": {"android": "https://dc.lft.to/lastmile_qr_scan", "ios": "https://dc.lft.to/lastmile_qr_scan"}, "fusion_lon": 0.0, "lat": 38.92177183333333, "bike_id": "b301b6e0472dfe116fc4a35e77d21344", "type": "electric_scooter", "is_reserved": 0, "lon": -76.9969425}, {"fusion_lat": 0.0, "name": "fe807cf620187d20eba8af80010f32e8", "is_disabled": 0, "rental_uris": {"android": "https://dc.lft.to/lastmile_qr_scan", "ios": "https://dc.lft.to/lastmile_qr_scan"}, "fusion_lon": 0.0, "lat": 38.923193833333336, "bike_id": "fe807cf620187d20eba8af80010f32e8", "type": "electric_scooter", "is_reserved": 0, "lon": -77.0375045}, {"fusion_lat": 0.0, "name": "e2ea5655bbe379f3382d22f41ac4ab70", "is_disabled": 0, "rental_uris": {"android": "https://dc.lft.to/lastmile_qr_scan", "ios": "https://dc.lft.to/lastmile_qr_scan"}, "fusion_lon": 0.0, "lat": 38.86248533333333, "bike_id": "e2ea5655bbe379f3382d22f41ac4ab70", "type": "electric_bike", "is_reserved": 0, "lon": -76.9833635}, {"fusion_lat": 0.0, "name": "befa50b3d7f030ce1426a6cbb087f979", "is_disabled": 0, "rental_uris": {"android": "https://dc.lft.to/lastmile_qr_scan", "ios": "https://dc.lft.to/lastmile_qr_scan"}, "fusion_lon": 0.0, "lat": 38.8854295, "bike_id": "befa50b3d7f030ce1426a6cbb087f979", "type": "electric_scooter", "is_reserved": 0, "lon": -77.03339666666666}, {"fusion_lat": 0.0, "name": "eb1fb574c81af434ed59566aa9d63493", "is_disabled": 0, "rental_uris": {"android": "https://dc.lft.to/lastmile_qr_scan", "ios": "https://dc.lft.to/lastmile_qr_scan"}, "fusion_lon": 0.0, "lat": 38.9214615, "bike_id": "eb1fb574c81af434ed59566aa9d63493", "type": "electric_scooter", "is_reserved": 0, "lon": -77.04015583333333}, {"fusion_lat": 0.0, "name": "5bbee2680f718600e16ac6f74b44d7df", "is_disabled": 0, "rental_uris": {"android": "https://dc.lft.to/lastmile_qr_scan", "ios": "https://dc.lft.to/lastmile_qr_scan"}, "fusion_lon": 0.0, "lat": 38.85791666666667, "bike_id": "5bbee2680f718600e16ac6f74b44d7df", "type": "electric_bike", "is_reserved": 0, "lon": -76.98729866666666}, {"fusion_lat": 0.0, "name": "f0fcf759e4529ed6cf2c53ac62be0495", "is_disabled": 0, "rental_uris": {"android": "https://dc.lft.to/lastmile_qr_scan", "ios": "https://dc.lft.to/lastmile_qr_scan"}, "fusion_lon": 0.0, "lat": 38.896069, "bike_id": "f0fcf759e4529ed6cf2c53ac62be0495", "type": "electric_scooter", "is_reserved": 0, "lon": -77.0093195}, {"fusion_lat": 0.0, "name": "21e7087446f65a11c52d1d000b89270d", "is_disabled": 0, "rental_uris": {"android": "https://dc.lft.to/lastmile_qr_scan", "ios": "https://dc.lft.to/lastmile_qr_scan"}, "fusion_lon": 0.0, "lat": 38.90558716666666, "bike_id": "21e7087446f65a11c52d1d000b89270d", "type": "electric_scooter", "is_reserved": 0, "lon": -77.03436766666667}, {"fusion_lat": 0.0, "name": "85f5d6919e0343cdc873ed74fba13571", "is_disabled": 0, "rental_uris": {"android": "https://dc.lft.to/lastmile_qr_scan", "ios": "https://dc.lft.to/lastmile_qr_scan"}, "fusion_lon": 0.0, "lat": 38.8921605, "bike_id": "85f5d6919e0343cdc873ed74fba13571", "type": "electric_scooter", "is_reserved": 0, "lon": -77.0263635}, {"fusion_lat": 0.0, "name": "0d57356b6ee083d748fbf568b68448a4", "is_disabled": 0, "rental_uris": {"android": "https://dc.lft.to/lastmile_qr_scan", "ios": "https://dc.lft.to/lastmile_qr_scan"}, "fusion_lon": 0.0, "lat": 38.90104383333333, "bike_id": "0d57356b6ee083d748fbf568b68448a4", "type": "electric_scooter", "is_reserved": 0, "lon": -77.01982516666666}, {"fusion_lat": 0.0, "name": "e9cd47d924011ac4659efd887b4426b9", "is_disabled": 0, "rental_uris": {"android": "https://dc.lft.to/lastmile_qr_scan", "ios": "https://dc.lft.to/lastmile_qr_scan"}, "fusion_lon": 0.0, "lat": 38.94171683333333, "bike_id": "e9cd47d924011ac4659efd887b4426b9", "type": "electric_scooter", "is_reserved": 0, "lon": -77.03659116666667}, {"fusion_lat": 0.0, "name": "80c618f7885eae024c1e0e451d7cec13", "is_disabled": 0, "rental_uris": {"android": "https://dc.lft.to/lastmile_qr_scan", "ios": "https://dc.lft.to/lastmile_qr_scan"}, "fusion_lon": 0.0, "lat": 38.921429333333336, "bike_id": "80c618f7885eae024c1e0e451d7cec13", "type": "electric_scooter", "is_reserved": 0, "lon": -77.0436485}, {"fusion_lat": 0.0, "name": "96720076143394593f380d33795f9f1a", "is_disabled": 0, "rental_uris": {"android": "https://dc.lft.to/lastmile_qr_scan", "ios": "https://dc.lft.to/lastmile_qr_scan"}, "fusion_lon": 0.0, "lat": 38.92405433333333, "bike_id": "96720076143394593f380d33795f9f1a", "type": "electric_scooter", "is_reserved": 0, "lon": -77.04475333333333}, {"fusion_lat": 0.0, "name": "dceda01209ae59c97094064ecd89f40d", "is_disabled": 0, "rental_uris": {"android": "https://dc.lft.to/lastmile_qr_scan", "ios": "https://dc.lft.to/lastmile_qr_scan"}, "fusion_lon": 0.0, "lat": 38.905375, "bike_id": "dceda01209ae59c97094064ecd89f40d", "type": "electric_scooter", "is_reserved": 0, "lon": -77.00582866666667}, {"fusion_lat": 0.0, "name": "0eb4bf91f2da84b9bc899cf5bb2fd896", "is_disabled": 0, "rental_uris": {"android": "https://dc.lft.to/lastmile_qr_scan", "ios": "https://dc.lft.to/lastmile_qr_scan"}, "fusion_lon": 0.0, "lat": 38.90642533333333, "bike_id": "0eb4bf91f2da84b9bc899cf5bb2fd896", "type": "electric_scooter", "is_reserved": 0, "lon": -77.0629095}, {"fusion_lat": 0.0, "name": "98fb8564dbba86e845dee81bd66a7e45", "is_disabled": 0, "rental_uris": {"android": "https://dc.lft.to/lastmile_qr_scan", "ios": "https://dc.lft.to/lastmile_qr_scan"}, "fusion_lon": 0.0, "lat": 38.91847116666667, "bike_id": "98fb8564dbba86e845dee81bd66a7e45", "type": "electric_scooter", "is_reserved": 0, "lon": -77.0245015}, {"fusion_lat": 0.0, "name": "8fe471623891604449e515ebd598be49", "is_disabled": 0, "rental_uris": {"android": "https://dc.lft.to/lastmile_qr_scan", "ios": "https://dc.lft.to/lastmile_qr_scan"}, "fusion_lon": 0.0, "lat": 38.91770183333333, "bike_id": "8fe471623891604449e515ebd598be49", "type": "electric_scooter", "is_reserved": 0, "lon": -77.02313183333334}, {"fusion_lat": 0.0, "name": "8af5df3b3965eb38088be04e84d29d73", "is_disabled": 0, "rental_uris": {"android": "https://dc.lft.to/lastmile_qr_scan", "ios": "https://dc.lft.to/lastmile_qr_scan"}, "fusion_lon": 0.0, "lat": 38.901902666666665, "bike_id": "8af5df3b3965eb38088be04e84d29d73", "type": "electric_scooter", "is_reserved": 0, "lon": -77.050802}, {"fusion_lat": 0.0, "name": "6338211eae6a0574a9d49b053d7f23ac", "is_disabled": 0, "rental_uris": {"android": "https://dc.lft.to/lastmile_qr_scan", "ios": "https://dc.lft.to/lastmile_qr_scan"}, "fusion_lon": 0.0, "lat": 38.92130616666667, "bike_id": "6338211eae6a0574a9d49b053d7f23ac", "type": "electric_scooter", "is_reserved": 0, "lon": -77.004052}, {"fusion_lat": 0.0, "name": "b76425ea044f22bc8b41c389f3954ba1", "is_disabled": 0, "rental_uris": {"android": "https://dc.lft.to/lastmile_qr_scan", "ios": "https://dc.lft.to/lastmile_qr_scan"}, "fusion_lon": 0.0, "lat": 38.8381025, "bike_id": "b76425ea044f22bc8b41c389f3954ba1", "type": "electric_bike", "is_reserved": 0, "lon": -77.09525883333333}, {"fusion_lat": 0.0, "name": "4ce312542cb1cbd35768836cf5c227a6", "is_disabled": 0, "rental_uris": {"android": "https://dc.lft.to/lastmile_qr_scan", "ios": "https://dc.lft.to/lastmile_qr_scan"}, "fusion_lon": 0.0, "lat": 38.905551833333334, "bike_id": "4ce312542cb1cbd35768836cf5c227a6", "type": "electric_scooter", "is_reserved": 0, "lon": -77.05813716666667}, {"fusion_lat": 0.0, "name": "060a25f9d220fe1d5bf943ff250c3efe", "is_disabled": 0, "rental_uris": {"android": "https://dc.lft.to/lastmile_qr_scan", "ios": "https://dc.lft.to/lastmile_qr_scan"}, "fusion_lon": 0.0, "lat": 38.97881233333333, "bike_id": "060a25f9d220fe1d5bf943ff250c3efe", "type": "electric_bike", "is_reserved": 0, "lon": -77.060396}, {"fusion_lat": 0.0, "name": "c8a7d2d56f91bc3b68751ec0f4df41a0", "is_disabled": 0, "rental_uris": {"android": "https://dc.lft.to/lastmile_qr_scan", "ios": "https://dc.lft.to/lastmile_qr_scan"}, "fusion_lon": 0.0, "lat": 38.92873916666667, "bike_id": "c8a7d2d56f91bc3b68751ec0f4df41a0", "type": "electric_scooter", "is_reserved": 0, "lon": -77.03346016666667}, {"fusion_lat": 0.0, "name": "c2ce0d4767394a0ce93bb343cbc901a5", "is_disabled": 0, "rental_uris": {"android": "https://dc.lft.to/lastmile_qr_scan", "ios": "https://dc.lft.to/lastmile_qr_scan"}, "fusion_lon": 0.0, "lat": 38.93304783333333, "bike_id": "c2ce0d4767394a0ce93bb343cbc901a5", "type": "electric_scooter", "is_reserved": 0, "lon": -77.0308635}, {"fusion_lat": 0.0, "name": "410a8fb65c2299cdc2f6f5740dd48c3a", "is_disabled": 0, "rental_uris": {"android": "https://dc.lft.to/lastmile_qr_scan", "ios": "https://dc.lft.to/lastmile_qr_scan"}, "fusion_lon": 0.0, "lat": 38.8747375, "bike_id": "410a8fb65c2299cdc2f6f5740dd48c3a", "type": "electric_scooter", "is_reserved": 0, "lon": -77.00595966666667}, {"fusion_lat": 0.0, "name": "3e59e3c5566ea147fd069a75b25c3cf8", "is_disabled": 0, "rental_uris": {"android": "https://dc.lft.to/lastmile_qr_scan", "ios": "https://dc.lft.to/lastmile_qr_scan"}, "fusion_lon": 0.0, "lat": 38.87453633333333, "bike_id": "3e59e3c5566ea147fd069a75b25c3cf8", "type": "electric_scooter", "is_reserved": 0, "lon": -77.0093}, {"fusion_lat": 0.0, "name": "0e47967f20988ee7b094a72be231afb0", "is_disabled": 0, "rental_uris": {"android": "https://dc.lft.to/lastmile_qr_scan", "ios": "https://dc.lft.to/lastmile_qr_scan"}, "fusion_lon": 0.0, "lat": 38.9056855, "bike_id": "0e47967f20988ee7b094a72be231afb0", "type": "electric_scooter", "is_reserved": 0, "lon": -77.04285416666667}, {"fusion_lat": 0.0, "name": "e7beb79a798f75d0f9741d7af49598e7", "is_disabled": 0, "rental_uris": {"android": "https://dc.lft.to/lastmile_qr_scan", "ios": "https://dc.lft.to/lastmile_qr_scan"}, "fusion_lon": 0.0, "lat": 38.912931, "bike_id": "e7beb79a798f75d0f9741d7af49598e7", "type": "electric_scooter", "is_reserved": 0, "lon": -77.045132}, {"fusion_lat": 0.0, "name": "12051984e659e528987129e2e4e90a2b", "is_disabled": 0, "rental_uris": {"android": "https://dc.lft.to/lastmile_qr_scan", "ios": "https://dc.lft.to/lastmile_qr_scan"}, "fusion_lon": 0.0, "lat": 38.933877833333334, "bike_id": "12051984e659e528987129e2e4e90a2b", "type": "electric_scooter", "is_reserved": 0, "lon": -77.038949}, {"fusion_lat": 0.0, "name": "c69b37ab79177e7697a5d0e367a2bc02", "is_disabled": 0, "rental_uris": {"android": "https://dc.lft.to/lastmile_qr_scan", "ios": "https://dc.lft.to/lastmile_qr_scan"}, "fusion_lon": 0.0, "lat": 38.92629683333333, "bike_id": "c69b37ab79177e7697a5d0e367a2bc02", "type": "electric_scooter", "is_reserved": 0, "lon": -77.03509733333334}, {"fusion_lat": 0.0, "name": "31554b9fec9ea02c8538be567e98f17a", "is_disabled": 0, "rental_uris": {"android": "https://dc.lft.to/lastmile_qr_scan", "ios": "https://dc.lft.to/lastmile_qr_scan"}, "fusion_lon": 0.0, "lat": 38.909982666666664, "bike_id": "31554b9fec9ea02c8538be567e98f17a", "type": "electric_scooter", "is_reserved": 0, "lon": -77.04913266666667}, {"fusion_lat": 0.0, "name": "135e9db0822a125e68f0a27435145e3a", "is_disabled": 0, "rental_uris": {"android": "https://dc.lft.to/lastmile_qr_scan", "ios": "https://dc.lft.to/lastmile_qr_scan"}, "fusion_lon": 0.0, "lat": 38.8886575, "bike_id": "135e9db0822a125e68f0a27435145e3a", "type": "electric_scooter", "is_reserved": 0, "lon": -77.02910333333334}, {"fusion_lat": 0.0, "name": "7635191b5c7e2b4b290f57307b553776", "is_disabled": 0, "rental_uris": {"android": "https://dc.lft.to/lastmile_qr_scan", "ios": "https://dc.lft.to/lastmile_qr_scan"}, "fusion_lon": 0.0, "lat": 38.898091, "bike_id": "7635191b5c7e2b4b290f57307b553776", "type": "electric_scooter", "is_reserved": 0, "lon": -77.02524483333333}, {"fusion_lat": 0.0, "name": "c6c61e7a17699f3a077cd456fbeb0d8a", "is_disabled": 0, "rental_uris": {"android": "https://dc.lft.to/lastmile_qr_scan", "ios": "https://dc.lft.to/lastmile_qr_scan"}, "fusion_lon": 0.0, "lat": 38.907864000000004, "bike_id": "c6c61e7a17699f3a077cd456fbeb0d8a", "type": "electric_scooter", "is_reserved": 0, "lon": -77.0111445}, {"fusion_lat": 0.0, "name": "b3e9522ac1b0541820116e6d69027001", "is_disabled": 0, "rental_uris": {"android": "https://dc.lft.to/lastmile_qr_scan", "ios": "https://dc.lft.to/lastmile_qr_scan"}, "fusion_lon": 0.0, "lat": 38.96591866666667, "bike_id": "b3e9522ac1b0541820116e6d69027001", "type": "electric_scooter", "is_reserved": 0, "lon": -77.01596833333333}, {"fusion_lat": 0.0, "name": "f101ab50dab68d96537a57c7397cee13", "is_disabled": 0, "rental_uris": {"android": "https://dc.lft.to/lastmile_qr_scan", "ios": "https://dc.lft.to/lastmile_qr_scan"}, "fusion_lon": 0.0, "lat": 38.902446166666664, "bike_id": "f101ab50dab68d96537a57c7397cee13", "type": "electric_scooter", "is_reserved": 0, "lon": -77.02603283333333}, {"fusion_lat": 0.0, "name": "0064441e4452cf9c997bb45144e9c2be", "is_disabled": 0, "rental_uris": {"android": "https://dc.lft.to/lastmile_qr_scan", "ios": "https://dc.lft.to/lastmile_qr_scan"}, "fusion_lon": 0.0, "lat": 38.927204333333336, "bike_id": "0064441e4452cf9c997bb45144e9c2be", "type": "electric_scooter", "is_reserved": 0, "lon": -77.023077}, {"fusion_lat": 0.0, "name": "0f7310a063ae3bbea0cad877f8dce07e", "is_disabled": 0, "rental_uris": {"android": "https://dc.lft.to/lastmile_qr_scan", "ios": "https://dc.lft.to/lastmile_qr_scan"}, "fusion_lon": 0.0, "lat": 38.8747025, "bike_id": "0f7310a063ae3bbea0cad877f8dce07e", "type": "electric_scooter", "is_reserved": 0, "lon": -77.00470666666666}, {"fusion_lat": 0.0, "name": "59b999bd8ae8f1b4d4169cb1222cfc22", "is_disabled": 0, "rental_uris": {"android": "https://dc.lft.to/lastmile_qr_scan", "ios": "https://dc.lft.to/lastmile_qr_scan"}, "fusion_lon": 0.0, "lat": 38.871091166666666, "bike_id": "59b999bd8ae8f1b4d4169cb1222cfc22", "type": "electric_scooter", "is_reserved": 0, "lon": -76.96573183333334}, {"fusion_lat": 0.0, "name": "3762136dc89af4d93ceee29ca49c0f45", "is_disabled": 0, "rental_uris": {"android": "https://dc.lft.to/lastmile_qr_scan", "ios": "https://dc.lft.to/lastmile_qr_scan"}, "fusion_lon": 0.0, "lat": 38.920891833333336, "bike_id": "3762136dc89af4d93ceee29ca49c0f45", "type": "electric_scooter", "is_reserved": 0, "lon": -77.02402883333333}, {"fusion_lat": 0.0, "name": "ce25b68e3ef556413640ef22ea76b24b", "is_disabled": 0, "rental_uris": {"android": "https://dc.lft.to/lastmile_qr_scan", "ios": "https://dc.lft.to/lastmile_qr_scan"}, "fusion_lon": 0.0, "lat": 38.90708466666667, "bike_id": "ce25b68e3ef556413640ef22ea76b24b", "type": "electric_scooter", "is_reserved": 0, "lon": -77.04985666666667}, {"fusion_lat": 0.0, "name": "c3dab57c9d06c39e7d15e764355258fe", "is_disabled": 0, "rental_uris": {"android": "https://dc.lft.to/lastmile_qr_scan", "ios": "https://dc.lft.to/lastmile_qr_scan"}, "fusion_lon": 0.0, "lat": 38.907261166666665, "bike_id": "c3dab57c9d06c39e7d15e764355258fe", "type": "electric_scooter", "is_reserved": 0, "lon": -77.0051015}, {"fusion_lat": 0.0, "name": "f2bdaf751758dcbbd237aa2eaafd1d40", "is_disabled": 0, "rental_uris": {"android": "https://dc.lft.to/lastmile_qr_scan", "ios": "https://dc.lft.to/lastmile_qr_scan"}, "fusion_lon": 0.0, "lat": 38.92124883333334, "bike_id": "f2bdaf751758dcbbd237aa2eaafd1d40", "type": "electric_scooter", "is_reserved": 0, "lon": -77.02519966666667}, {"fusion_lat": 0.0, "name": "67c2f639b79c56ce1d4a091ecbbb53db", "is_disabled": 0, "rental_uris": {"android": "https://dc.lft.to/lastmile_qr_scan", "ios": "https://dc.lft.to/lastmile_qr_scan"}, "fusion_lon": 0.0, "lat": 38.906832, "bike_id": "67c2f639b79c56ce1d4a091ecbbb53db", "type": "electric_scooter", "is_reserved": 0, "lon": -77.02694766666667}, {"fusion_lat": 0.0, "name": "59ab804b4a98382bb6bd361ed510b328", "is_disabled": 0, "rental_uris": {"android": "https://dc.lft.to/lastmile_qr_scan", "ios": "https://dc.lft.to/lastmile_qr_scan"}, "fusion_lon": 0.0, "lat": 38.9036875, "bike_id": "59ab804b4a98382bb6bd361ed510b328", "type": "electric_scooter", "is_reserved": 0, "lon": -77.00741666666667}, {"fusion_lat": 0.0, "name": "b5994e37e54b3a728ef495f1fee64f0d", "is_disabled": 0, "rental_uris": {"android": "https://dc.lft.to/lastmile_qr_scan", "ios": "https://dc.lft.to/lastmile_qr_scan"}, "fusion_lon": 0.0, "lat": 38.9018905, "bike_id": "b5994e37e54b3a728ef495f1fee64f0d", "type": "electric_scooter", "is_reserved": 0, "lon": -77.021629}, {"fusion_lat": 0.0, "name": "76cad609a98d707117d7283e3e11589f", "is_disabled": 0, "rental_uris": {"android": "https://dc.lft.to/lastmile_qr_scan", "ios": "https://dc.lft.to/lastmile_qr_scan"}, "fusion_lon": 0.0, "lat": 38.91164033333333, "bike_id": "76cad609a98d707117d7283e3e11589f", "type": "electric_scooter", "is_reserved": 0, "lon": -77.01112233333333}, {"fusion_lat": 0.0, "name": "6f0855a1ef08eb3e11a0a712f752eef0", "is_disabled": 0, "rental_uris": {"android": "https://dc.lft.to/lastmile_qr_scan", "ios": "https://dc.lft.to/lastmile_qr_scan"}, "fusion_lon": 0.0, "lat": 38.92864683333333, "bike_id": "6f0855a1ef08eb3e11a0a712f752eef0", "type": "electric_scooter", "is_reserved": 0, "lon": -77.013512}, {"fusion_lat": 0.0, "name": "cfc1c54abbbf6ac97505fc7717f01c13", "is_disabled": 0, "rental_uris": {"android": "https://dc.lft.to/lastmile_qr_scan", "ios": "https://dc.lft.to/lastmile_qr_scan"}, "fusion_lon": 0.0, "lat": 38.910096333333335, "bike_id": "cfc1c54abbbf6ac97505fc7717f01c13", "type": "electric_scooter", "is_reserved": 0, "lon": -77.03849083333333}, {"fusion_lat": 0.0, "name": "57a848cf7804e360c41c09296d44945f", "is_disabled": 0, "rental_uris": {"android": "https://dc.lft.to/lastmile_qr_scan", "ios": "https://dc.lft.to/lastmile_qr_scan"}, "fusion_lon": 0.0, "lat": 38.903650666666664, "bike_id": "57a848cf7804e360c41c09296d44945f", "type": "electric_scooter", "is_reserved": 0, "lon": -77.03446}, {"fusion_lat": 0.0, "name": "4ab03923c3aeb757b03d4e3b1ed3656e", "is_disabled": 0, "rental_uris": {"android": "https://dc.lft.to/lastmile_qr_scan", "ios": "https://dc.lft.to/lastmile_qr_scan"}, "fusion_lon": 0.0, "lat": 38.87845033333333, "bike_id": "4ab03923c3aeb757b03d4e3b1ed3656e", "type": "electric_scooter", "is_reserved": 0, "lon": -77.0011135}, {"fusion_lat": 0.0, "name": "3749275ebc038ae562dd232fea48a014", "is_disabled": 0, "rental_uris": {"android": "https://dc.lft.to/lastmile_qr_scan", "ios": "https://dc.lft.to/lastmile_qr_scan"}, "fusion_lon": 0.0, "lat": 38.9274405, "bike_id": "3749275ebc038ae562dd232fea48a014", "type": "electric_scooter", "is_reserved": 0, "lon": -77.032469}, {"fusion_lat": 0.0, "name": "88687154dfce01b1f39d1a3c8520517f", "is_disabled": 0, "rental_uris": {"android": "https://dc.lft.to/lastmile_qr_scan", "ios": "https://dc.lft.to/lastmile_qr_scan"}, "fusion_lon": 0.0, "lat": 38.892245833333334, "bike_id": "88687154dfce01b1f39d1a3c8520517f", "type": "electric_scooter", "is_reserved": 0, "lon": -77.0432095}, {"fusion_lat": 0.0, "name": "66c64c273ae059aa43db8e4f4be2e22f", "is_disabled": 0, "rental_uris": {"android": "https://dc.lft.to/lastmile_qr_scan", "ios": "https://dc.lft.to/lastmile_qr_scan"}, "fusion_lon": 0.0, "lat": 38.906519333333335, "bike_id": "66c64c273ae059aa43db8e4f4be2e22f", "type": "electric_scooter", "is_reserved": 0, "lon": -77.04331116666667}, {"fusion_lat": 0.0, "name": "4f5e0f34b65a531e9b142f5fddae0c98", "is_disabled": 0, "rental_uris": {"android": "https://dc.lft.to/lastmile_qr_scan", "ios": "https://dc.lft.to/lastmile_qr_scan"}, "fusion_lon": 0.0, "lat": 38.91113633333333, "bike_id": "4f5e0f34b65a531e9b142f5fddae0c98", "type": "electric_scooter", "is_reserved": 0, "lon": -77.04365633333333}, {"fusion_lat": 0.0, "name": "70142a9721606fec2cd3fba528c4ae07", "is_disabled": 0, "rental_uris": {"android": "https://dc.lft.to/lastmile_qr_scan", "ios": "https://dc.lft.to/lastmile_qr_scan"}, "fusion_lon": 0.0, "lat": 38.89224166666666, "bike_id": "70142a9721606fec2cd3fba528c4ae07", "type": "electric_scooter", "is_reserved": 0, "lon": -77.04870816666667}, {"fusion_lat": 0.0, "name": "9202cd5165e1cb3cdf87b7d63fb3cd6a", "is_disabled": 0, "rental_uris": {"android": "https://dc.lft.to/lastmile_qr_scan", "ios": "https://dc.lft.to/lastmile_qr_scan"}, "fusion_lon": 0.0, "lat": 38.994486, "bike_id": "9202cd5165e1cb3cdf87b7d63fb3cd6a", "type": "electric_bike", "is_reserved": 0, "lon": -77.02932483333333}, {"fusion_lat": 0.0, "name": "c887d23387b8b0a2a7f13d4b26923283", "is_disabled": 0, "rental_uris": {"android": "https://dc.lft.to/lastmile_qr_scan", "ios": "https://dc.lft.to/lastmile_qr_scan"}, "fusion_lon": 0.0, "lat": 38.90759466666667, "bike_id": "c887d23387b8b0a2a7f13d4b26923283", "type": "electric_scooter", "is_reserved": 0, "lon": -77.035909}, {"fusion_lat": 0.0, "name": "c7a1973ea6ff6ba82fc71d42543a91c2", "is_disabled": 0, "rental_uris": {"android": "https://dc.lft.to/lastmile_qr_scan", "ios": "https://dc.lft.to/lastmile_qr_scan"}, "fusion_lon": 0.0, "lat": 38.905575666666664, "bike_id": "c7a1973ea6ff6ba82fc71d42543a91c2", "type": "electric_scooter", "is_reserved": 0, "lon": -77.0082015}, {"fusion_lat": 0.0, "name": "38df153ab878944b7eb13a856388d0a6", "is_disabled": 0, "rental_uris": {"android": "https://dc.lft.to/lastmile_qr_scan", "ios": "https://dc.lft.to/lastmile_qr_scan"}, "fusion_lon": 0.0, "lat": 38.91492366666667, "bike_id": "38df153ab878944b7eb13a856388d0a6", "type": "electric_scooter", "is_reserved": 0, "lon": -77.042568}, {"fusion_lat": 0.0, "name": "3b0af33e891d33776bec287e6b684dd8", "is_disabled": 0, "rental_uris": {"android": "https://dc.lft.to/lastmile_qr_scan", "ios": "https://dc.lft.to/lastmile_qr_scan"}, "fusion_lon": 0.0, "lat": 38.9051425, "bike_id": "3b0af33e891d33776bec287e6b684dd8", "type": "electric_scooter", "is_reserved": 0, "lon": -77.0615835}, {"fusion_lat": 0.0, "name": "1cacc36970ddd6b791a270cc076d7501", "is_disabled": 0, "rental_uris": {"android": "https://dc.lft.to/lastmile_qr_scan", "ios": "https://dc.lft.to/lastmile_qr_scan"}, "fusion_lon": 0.0, "lat": 38.897420333333336, "bike_id": "1cacc36970ddd6b791a270cc076d7501", "type": "electric_scooter", "is_reserved": 0, "lon": -77.00368516666667}, {"fusion_lat": 0.0, "name": "619df4b78848c5f30b73b7d2007c912e", "is_disabled": 0, "rental_uris": {"android": "https://dc.lft.to/lastmile_qr_scan", "ios": "https://dc.lft.to/lastmile_qr_scan"}, "fusion_lon": 0.0, "lat": 38.912719833333334, "bike_id": "619df4b78848c5f30b73b7d2007c912e", "type": "electric_scooter", "is_reserved": 0, "lon": -77.0406945}, {"fusion_lat": 0.0, "name": "b2fdf30792eba58312b950e63979cc01", "is_disabled": 0, "rental_uris": {"android": "https://dc.lft.to/lastmile_qr_scan", "ios": "https://dc.lft.to/lastmile_qr_scan"}, "fusion_lon": 0.0, "lat": 38.921437833333336, "bike_id": "b2fdf30792eba58312b950e63979cc01", "type": "electric_scooter", "is_reserved": 0, "lon": -77.0434855}, {"fusion_lat": 0.0, "name": "e139276306603bbda430e01b09ffd3a1", "is_disabled": 0, "rental_uris": {"android": "https://dc.lft.to/lastmile_qr_scan", "ios": "https://dc.lft.to/lastmile_qr_scan"}, "fusion_lon": 0.0, "lat": 38.90349783333333, "bike_id": "e139276306603bbda430e01b09ffd3a1", "type": "electric_scooter", "is_reserved": 0, "lon": -77.01730633333334}, {"fusion_lat": 0.0, "name": "626dcb049b18d765abf5e1feef40790a", "is_disabled": 0, "rental_uris": {"android": "https://dc.lft.to/lastmile_qr_scan", "ios": "https://dc.lft.to/lastmile_qr_scan"}, "fusion_lon": 0.0, "lat": 38.9065295, "bike_id": "626dcb049b18d765abf5e1feef40790a", "type": "electric_scooter", "is_reserved": 0, "lon": -77.03862066666667}, {"fusion_lat": 0.0, "name": "d02b80654ede13bcf7b2fd7a2a23ca29", "is_disabled": 0, "rental_uris": {"android": "https://dc.lft.to/lastmile_qr_scan", "ios": "https://dc.lft.to/lastmile_qr_scan"}, "fusion_lon": 0.0, "lat": 38.897647, "bike_id": "d02b80654ede13bcf7b2fd7a2a23ca29", "type": "electric_scooter", "is_reserved": 0, "lon": -77.0450875}, {"fusion_lat": 0.0, "name": "cff38222be402377e42c31f46b69a3d1", "is_disabled": 0, "rental_uris": {"android": "https://dc.lft.to/lastmile_qr_scan", "ios": "https://dc.lft.to/lastmile_qr_scan"}, "fusion_lon": 0.0, "lat": 38.922369333333336, "bike_id": "cff38222be402377e42c31f46b69a3d1", "type": "electric_scooter", "is_reserved": 0, "lon": -77.04245766666666}, {"fusion_lat": 0.0, "name": "68a4b1f59b01c7041f8bbc162724c3ad", "is_disabled": 0, "rental_uris": {"android": "https://dc.lft.to/lastmile_qr_scan", "ios": "https://dc.lft.to/lastmile_qr_scan"}, "fusion_lon": 0.0, "lat": 38.9149205, "bike_id": "68a4b1f59b01c7041f8bbc162724c3ad", "type": "electric_scooter", "is_reserved": 0, "lon": -77.02000466666667}, {"fusion_lat": 0.0, "name": "9d5e68504d41ec69e5b7493900b3adbb", "is_disabled": 0, "rental_uris": {"android": "https://dc.lft.to/lastmile_qr_scan", "ios": "https://dc.lft.to/lastmile_qr_scan"}, "fusion_lon": 0.0, "lat": 38.9162725, "bike_id": "9d5e68504d41ec69e5b7493900b3adbb", "type": "electric_scooter", "is_reserved": 0, "lon": -77.032}, {"fusion_lat": 0.0, "name": "51859c79b5f508a050192189e245f52e", "is_disabled": 0, "rental_uris": {"android": "https://dc.lft.to/lastmile_qr_scan", "ios": "https://dc.lft.to/lastmile_qr_scan"}, "fusion_lon": 0.0, "lat": 38.88525666666666, "bike_id": "51859c79b5f508a050192189e245f52e", "type": "electric_scooter", "is_reserved": 0, "lon": -76.92908916666667}, {"fusion_lat": 0.0, "name": "ad54399bcbea6f66803cc48180072fc4", "is_disabled": 0, "rental_uris": {"android": "https://dc.lft.to/lastmile_qr_scan", "ios": "https://dc.lft.to/lastmile_qr_scan"}, "fusion_lon": 0.0, "lat": 38.92083383333333, "bike_id": "ad54399bcbea6f66803cc48180072fc4", "type": "electric_scooter", "is_reserved": 0, "lon": -77.025298}, {"fusion_lat": 0.0, "name": "10dfd20cdc9cf9a0ef401ad18d239bf4", "is_disabled": 0, "rental_uris": {"android": "https://dc.lft.to/lastmile_qr_scan", "ios": "https://dc.lft.to/lastmile_qr_scan"}, "fusion_lon": 0.0, "lat": 38.89894733333333, "bike_id": "10dfd20cdc9cf9a0ef401ad18d239bf4", "type": "electric_scooter", "is_reserved": 0, "lon": -76.93365466666667}, {"fusion_lat": 0.0, "name": "f587bb3f63adc22bd592d17172cbf9f7", "is_disabled": 0, "rental_uris": {"android": "https://dc.lft.to/lastmile_qr_scan", "ios": "https://dc.lft.to/lastmile_qr_scan"}, "fusion_lon": 0.0, "lat": 38.935401166666665, "bike_id": "f587bb3f63adc22bd592d17172cbf9f7", "type": "electric_scooter", "is_reserved": 0, "lon": -77.05756866666667}, {"fusion_lat": 0.0, "name": "5536b6a71961e4549d40dadd4913e3ac", "is_disabled": 0, "rental_uris": {"android": "https://dc.lft.to/lastmile_qr_scan", "ios": "https://dc.lft.to/lastmile_qr_scan"}, "fusion_lon": 0.0, "lat": 38.902689333333335, "bike_id": "5536b6a71961e4549d40dadd4913e3ac", "type": "electric_scooter", "is_reserved": 0, "lon": -77.01812383333333}, {"fusion_lat": 0.0, "name": "c89788c8ea2d86afd65a1e52cf6ff548", "is_disabled": 0, "rental_uris": {"android": "https://dc.lft.to/lastmile_qr_scan", "ios": "https://dc.lft.to/lastmile_qr_scan"}, "fusion_lon": 0.0, "lat": 38.8996355, "bike_id": "c89788c8ea2d86afd65a1e52cf6ff548", "type": "electric_scooter", "is_reserved": 0, "lon": -77.02768983333333}, {"fusion_lat": 0.0, "name": "625815dcba4995cd77cbfeeeb3e4eb33", "is_disabled": 0, "rental_uris": {"android": "https://dc.lft.to/lastmile_qr_scan", "ios": "https://dc.lft.to/lastmile_qr_scan"}, "fusion_lon": 0.0, "lat": 38.875757166666666, "bike_id": "625815dcba4995cd77cbfeeeb3e4eb33", "type": "electric_bike", "is_reserved": 0, "lon": -77.23415533333333}, {"fusion_lat": 0.0, "name": "a52c1eb59835af715727601ad64bc4dd", "is_disabled": 0, "rental_uris": {"android": "https://dc.lft.to/lastmile_qr_scan", "ios": "https://dc.lft.to/lastmile_qr_scan"}, "fusion_lon": 0.0, "lat": 38.9073135, "bike_id": "a52c1eb59835af715727601ad64bc4dd", "type": "electric_scooter", "is_reserved": 0, "lon": -77.02809916666666}, {"fusion_lat": 0.0, "name": "551a982b4dca916cab74f1ab1273f308", "is_disabled": 0, "rental_uris": {"android": "https://dc.lft.to/lastmile_qr_scan", "ios": "https://dc.lft.to/lastmile_qr_scan"}, "fusion_lon": 0.0, "lat": 38.9283965, "bike_id": "551a982b4dca916cab74f1ab1273f308", "type": "electric_scooter", "is_reserved": 0, "lon": -77.015866}, {"fusion_lat": 0.0, "name": "93293be21b51be3373a1fe73dcbbc0f0", "is_disabled": 0, "rental_uris": {"android": "https://dc.lft.to/lastmile_qr_scan", "ios": "https://dc.lft.to/lastmile_qr_scan"}, "fusion_lon": 0.0, "lat": 38.89909333333333, "bike_id": "93293be21b51be3373a1fe73dcbbc0f0", "type": "electric_scooter", "is_reserved": 0, "lon": -76.94587466666667}, {"fusion_lat": 0.0, "name": "51a39ca7906115a7be7655ced82b7517", "is_disabled": 0, "rental_uris": {"android": "https://dc.lft.to/lastmile_qr_scan", "ios": "https://dc.lft.to/lastmile_qr_scan"}, "fusion_lon": 0.0, "lat": 38.8919385, "bike_id": "51a39ca7906115a7be7655ced82b7517", "type": "electric_scooter", "is_reserved": 0, "lon": -77.01553533333333}, {"fusion_lat": 0.0, "name": "8356bfa6ca582edddae76f60fd3b2e73", "is_disabled": 0, "rental_uris": {"android": "https://dc.lft.to/lastmile_qr_scan", "ios": "https://dc.lft.to/lastmile_qr_scan"}, "fusion_lon": 0.0, "lat": 38.9085155, "bike_id": "8356bfa6ca582edddae76f60fd3b2e73", "type": "electric_scooter", "is_reserved": 0, "lon": -77.033068}, {"fusion_lat": 0.0, "name": "65595d5c08a3d2c9b21e14f2336371b6", "is_disabled": 0, "rental_uris": {"android": "https://dc.lft.to/lastmile_qr_scan", "ios": "https://dc.lft.to/lastmile_qr_scan"}, "fusion_lon": 0.0, "lat": 38.907836333333336, "bike_id": "65595d5c08a3d2c9b21e14f2336371b6", "type": "electric_scooter", "is_reserved": 0, "lon": -77.04265166666667}, {"fusion_lat": 0.0, "name": "26127d5c169d39c3fa39299162ca4ae6", "is_disabled": 0, "rental_uris": {"android": "https://dc.lft.to/lastmile_qr_scan", "ios": "https://dc.lft.to/lastmile_qr_scan"}, "fusion_lon": 0.0, "lat": 38.90563433333333, "bike_id": "26127d5c169d39c3fa39299162ca4ae6", "type": "electric_scooter", "is_reserved": 0, "lon": -77.02096383333334}, {"fusion_lat": 0.0, "name": "0d9f93a5d50d6e0504f2ac0bf1d8c3b4", "is_disabled": 0, "rental_uris": {"android": "https://dc.lft.to/lastmile_qr_scan", "ios": "https://dc.lft.to/lastmile_qr_scan"}, "fusion_lon": 0.0, "lat": 38.9071625, "bike_id": "0d9f93a5d50d6e0504f2ac0bf1d8c3b4", "type": "electric_scooter", "is_reserved": 0, "lon": -77.02386966666667}, {"fusion_lat": 0.0, "name": "350de5c9bba26aa29678ab7d50b55f86", "is_disabled": 0, "rental_uris": {"android": "https://dc.lft.to/lastmile_qr_scan", "ios": "https://dc.lft.to/lastmile_qr_scan"}, "fusion_lon": 0.0, "lat": 38.911064, "bike_id": "350de5c9bba26aa29678ab7d50b55f86", "type": "electric_scooter", "is_reserved": 0, "lon": -77.0216275}, {"fusion_lat": 0.0, "name": "dcfa87ddca3e9236fcd1a2ab245caf36", "is_disabled": 0, "rental_uris": {"android": "https://dc.lft.to/lastmile_qr_scan", "ios": "https://dc.lft.to/lastmile_qr_scan"}, "fusion_lon": 0.0, "lat": 38.914067333333335, "bike_id": "dcfa87ddca3e9236fcd1a2ab245caf36", "type": "electric_scooter", "is_reserved": 0, "lon": -77.0456735}, {"fusion_lat": 0.0, "name": "770eef54b12db25e7539f81229241edd", "is_disabled": 0, "rental_uris": {"android": "https://dc.lft.to/lastmile_qr_scan", "ios": "https://dc.lft.to/lastmile_qr_scan"}, "fusion_lon": 0.0, "lat": 38.902342833333336, "bike_id": "770eef54b12db25e7539f81229241edd", "type": "electric_scooter", "is_reserved": 0, "lon": -77.04604666666667}, {"fusion_lat": 0.0, "name": "7672588e02bb6feaf5d13f0d3afafb6f", "is_disabled": 0, "rental_uris": {"android": "https://dc.lft.to/lastmile_qr_scan", "ios": "https://dc.lft.to/lastmile_qr_scan"}, "fusion_lon": 0.0, "lat": 38.90241416666667, "bike_id": "7672588e02bb6feaf5d13f0d3afafb6f", "type": "electric_scooter", "is_reserved": 0, "lon": -77.01911033333333}, {"fusion_lat": 0.0, "name": "1fc4839350d8927b2c7832b55064852f", "is_disabled": 0, "rental_uris": {"android": "https://dc.lft.to/lastmile_qr_scan", "ios": "https://dc.lft.to/lastmile_qr_scan"}, "fusion_lon": 0.0, "lat": 38.836266, "bike_id": "1fc4839350d8927b2c7832b55064852f", "type": "electric_bike", "is_reserved": 0, "lon": -77.069531}, {"fusion_lat": 0.0, "name": "d63be7ba3e850682acccde3b65e83cd1", "is_disabled": 0, "rental_uris": {"android": "https://dc.lft.to/lastmile_qr_scan", "ios": "https://dc.lft.to/lastmile_qr_scan"}, "fusion_lon": 0.0, "lat": 38.934878, "bike_id": "d63be7ba3e850682acccde3b65e83cd1", "type": "electric_scooter", "is_reserved": 0, "lon": -77.0727795}, {"fusion_lat": 0.0, "name": "0ba696ac04674021272f7d5c1c1a716c", "is_disabled": 0, "rental_uris": {"android": "https://dc.lft.to/lastmile_qr_scan", "ios": "https://dc.lft.to/lastmile_qr_scan"}, "fusion_lon": 0.0, "lat": 38.91856516666667, "bike_id": "0ba696ac04674021272f7d5c1c1a716c", "type": "electric_bike", "is_reserved": 0, "lon": -76.96096333333334}, {"fusion_lat": 0.0, "name": "5117f76f1ab1132dc6cb8641bb6d223a", "is_disabled": 0, "rental_uris": {"android": "https://dc.lft.to/lastmile_qr_scan", "ios": "https://dc.lft.to/lastmile_qr_scan"}, "fusion_lon": 0.0, "lat": 38.906825, "bike_id": "5117f76f1ab1132dc6cb8641bb6d223a", "type": "electric_scooter", "is_reserved": 0, "lon": -76.95195933333333}, {"fusion_lat": 0.0, "name": "9da77e77da58022e7704fb8a7a0014b5", "is_disabled": 0, "rental_uris": {"android": "https://dc.lft.to/lastmile_qr_scan", "ios": "https://dc.lft.to/lastmile_qr_scan"}, "fusion_lon": 0.0, "lat": 38.914901666666665, "bike_id": "9da77e77da58022e7704fb8a7a0014b5", "type": "electric_scooter", "is_reserved": 0, "lon": -77.0424685}, {"fusion_lat": 0.0, "name": "f17866c5d055a6b1111aa86d96e673a4", "is_disabled": 0, "rental_uris": {"android": "https://dc.lft.to/lastmile_qr_scan", "ios": "https://dc.lft.to/lastmile_qr_scan"}, "fusion_lon": 0.0, "lat": 38.902680833333335, "bike_id": "f17866c5d055a6b1111aa86d96e673a4", "type": "electric_scooter", "is_reserved": 0, "lon": -77.03632166666667}, {"fusion_lat": 0.0, "name": "1c3deea00e66094034af5fe3df21d61a", "is_disabled": 0, "rental_uris": {"android": "https://dc.lft.to/lastmile_qr_scan", "ios": "https://dc.lft.to/lastmile_qr_scan"}, "fusion_lon": 0.0, "lat": 38.923486833333335, "bike_id": "1c3deea00e66094034af5fe3df21d61a", "type": "electric_scooter", "is_reserved": 0, "lon": -77.03915533333333}, {"fusion_lat": 0.0, "name": "1e9bd784144dced73889fc7672c7fd73", "is_disabled": 0, "rental_uris": {"android": "https://dc.lft.to/lastmile_qr_scan", "ios": "https://dc.lft.to/lastmile_qr_scan"}, "fusion_lon": 0.0, "lat": 38.94269533333333, "bike_id": "1e9bd784144dced73889fc7672c7fd73", "type": "electric_scooter", "is_reserved": 0, "lon": -77.03260066666667}, {"fusion_lat": 0.0, "name": "0608bf5f0a2bc687fc45ed0b4cc83290", "is_disabled": 0, "rental_uris": {"android": "https://dc.lft.to/lastmile_qr_scan", "ios": "https://dc.lft.to/lastmile_qr_scan"}, "fusion_lon": 0.0, "lat": 38.905875333333334, "bike_id": "0608bf5f0a2bc687fc45ed0b4cc83290", "type": "electric_scooter", "is_reserved": 0, "lon": -77.0161965}, {"fusion_lat": 0.0, "name": "dc6f958d5bdd6408cde78562096e808b", "is_disabled": 0, "rental_uris": {"android": "https://dc.lft.to/lastmile_qr_scan", "ios": "https://dc.lft.to/lastmile_qr_scan"}, "fusion_lon": 0.0, "lat": 38.93484816666667, "bike_id": "dc6f958d5bdd6408cde78562096e808b", "type": "electric_scooter", "is_reserved": 0, "lon": -77.07279416666667}, {"fusion_lat": 0.0, "name": "1b414a7d76eb0fdd3d2dee39d08687ee", "is_disabled": 0, "rental_uris": {"android": "https://dc.lft.to/lastmile_qr_scan", "ios": "https://dc.lft.to/lastmile_qr_scan"}, "fusion_lon": 0.0, "lat": 38.8979455, "bike_id": "1b414a7d76eb0fdd3d2dee39d08687ee", "type": "electric_scooter", "is_reserved": 0, "lon": -76.94736466666667}, {"fusion_lat": 0.0, "name": "b1e802bc693631015e87f1533556799a", "is_disabled": 0, "rental_uris": {"android": "https://dc.lft.to/lastmile_qr_scan", "ios": "https://dc.lft.to/lastmile_qr_scan"}, "fusion_lon": 0.0, "lat": 38.90129616666667, "bike_id": "b1e802bc693631015e87f1533556799a", "type": "electric_scooter", "is_reserved": 0, "lon": -77.04194316666667}, {"fusion_lat": 0.0, "name": "ce7a6f90e9115801cdd8eb6a9740e228", "is_disabled": 0, "rental_uris": {"android": "https://dc.lft.to/lastmile_qr_scan", "ios": "https://dc.lft.to/lastmile_qr_scan"}, "fusion_lon": 0.0, "lat": 38.934687, "bike_id": "ce7a6f90e9115801cdd8eb6a9740e228", "type": "electric_scooter", "is_reserved": 0, "lon": -77.07214266666666}, {"fusion_lat": 0.0, "name": "b691afbca3aff7d1d8e4d51e2a9a1b4c", "is_disabled": 0, "rental_uris": {"android": "https://dc.lft.to/lastmile_qr_scan", "ios": "https://dc.lft.to/lastmile_qr_scan"}, "fusion_lon": 0.0, "lat": 38.902264833333334, "bike_id": "b691afbca3aff7d1d8e4d51e2a9a1b4c", "type": "electric_scooter", "is_reserved": 0, "lon": -77.0457125}, {"fusion_lat": 0.0, "name": "e8e0cf7e123a9e9f5f16132727e9b653", "is_disabled": 0, "rental_uris": {"android": "https://dc.lft.to/lastmile_qr_scan", "ios": "https://dc.lft.to/lastmile_qr_scan"}, "fusion_lon": 0.0, "lat": 38.90085716666667, "bike_id": "e8e0cf7e123a9e9f5f16132727e9b653", "type": "electric_scooter", "is_reserved": 0, "lon": -76.9833385}, {"fusion_lat": 0.0, "name": "829383a52ae99f6b3a4a9177e40219eb", "is_disabled": 0, "rental_uris": {"android": "https://dc.lft.to/lastmile_qr_scan", "ios": "https://dc.lft.to/lastmile_qr_scan"}, "fusion_lon": 0.0, "lat": 38.89499216666667, "bike_id": "829383a52ae99f6b3a4a9177e40219eb", "type": "electric_scooter", "is_reserved": 0, "lon": -77.00340433333334}, {"fusion_lat": 0.0, "name": "b3e76f339706019695b5fe87993ee3d4", "is_disabled": 0, "rental_uris": {"android": "https://dc.lft.to/lastmile_qr_scan", "ios": "https://dc.lft.to/lastmile_qr_scan"}, "fusion_lon": 0.0, "lat": 38.85337416666667, "bike_id": "b3e76f339706019695b5fe87993ee3d4", "type": "electric_scooter", "is_reserved": 0, "lon": -76.98024633333333}, {"fusion_lat": 0.0, "name": "356b046370b57fcefad8daf5e5159b3f", "is_disabled": 0, "rental_uris": {"android": "https://dc.lft.to/lastmile_qr_scan", "ios": "https://dc.lft.to/lastmile_qr_scan"}, "fusion_lon": 0.0, "lat": 38.892274666666665, "bike_id": "356b046370b57fcefad8daf5e5159b3f", "type": "electric_scooter", "is_reserved": 0, "lon": -77.02508566666667}, {"fusion_lat": 0.0, "name": "6b9a6cb40274c5655a4ebe513c6040ae", "is_disabled": 0, "rental_uris": {"android": "https://dc.lft.to/lastmile_qr_scan", "ios": "https://dc.lft.to/lastmile_qr_scan"}, "fusion_lon": 0.0, "lat": 38.92084416666667, "bike_id": "6b9a6cb40274c5655a4ebe513c6040ae", "type": "electric_scooter", "is_reserved": 0, "lon": -77.013988}, {"fusion_lat": 0.0, "name": "698746a2c3c4ac4fd1782883bf3fc94f", "is_disabled": 0, "rental_uris": {"android": "https://dc.lft.to/lastmile_qr_scan", "ios": "https://dc.lft.to/lastmile_qr_scan"}, "fusion_lon": 0.0, "lat": 38.90550783333333, "bike_id": "698746a2c3c4ac4fd1782883bf3fc94f", "type": "electric_scooter", "is_reserved": 0, "lon": -77.04288966666667}, {"fusion_lat": 0.0, "name": "5c6c49034c40da24185d7ceef6cd9c1d", "is_disabled": 0, "rental_uris": {"android": "https://dc.lft.to/lastmile_qr_scan", "ios": "https://dc.lft.to/lastmile_qr_scan"}, "fusion_lon": 0.0, "lat": 38.94083333333333, "bike_id": "5c6c49034c40da24185d7ceef6cd9c1d", "type": "electric_scooter", "is_reserved": 0, "lon": -77.0618635}, {"fusion_lat": 0.0, "name": "48cfc9a16cc4e1ac6719f52a99250bea", "is_disabled": 0, "rental_uris": {"android": "https://dc.lft.to/lastmile_qr_scan", "ios": "https://dc.lft.to/lastmile_qr_scan"}, "fusion_lon": 0.0, "lat": 38.89726, "bike_id": "48cfc9a16cc4e1ac6719f52a99250bea", "type": "electric_scooter", "is_reserved": 0, "lon": -77.05533516666667}, {"fusion_lat": 0.0, "name": "a5abf17ca784f0a7262afefa4f5d31d7", "is_disabled": 0, "rental_uris": {"android": "https://dc.lft.to/lastmile_qr_scan", "ios": "https://dc.lft.to/lastmile_qr_scan"}, "fusion_lon": 0.0, "lat": 38.91167083333333, "bike_id": "a5abf17ca784f0a7262afefa4f5d31d7", "type": "electric_scooter", "is_reserved": 0, "lon": -77.01134266666666}, {"fusion_lat": 0.0, "name": "fa05b21f10540836d469000e644edd3e", "is_disabled": 0, "rental_uris": {"android": "https://dc.lft.to/lastmile_qr_scan", "ios": "https://dc.lft.to/lastmile_qr_scan"}, "fusion_lon": 0.0, "lat": 38.920683333333336, "bike_id": "fa05b21f10540836d469000e644edd3e", "type": "electric_scooter", "is_reserved": 0, "lon": -77.024254}, {"fusion_lat": 0.0, "name": "b8f0c2aaaefc56be29cab0059641b15c", "is_disabled": 0, "rental_uris": {"android": "https://dc.lft.to/lastmile_qr_scan", "ios": "https://dc.lft.to/lastmile_qr_scan"}, "fusion_lon": 0.0, "lat": 38.89746683333333, "bike_id": "b8f0c2aaaefc56be29cab0059641b15c", "type": "electric_scooter", "is_reserved": 0, "lon": -77.027633}, {"fusion_lat": 0.0, "name": "e28c21e8ef20d7f6503f889765199d03", "is_disabled": 0, "rental_uris": {"android": "https://dc.lft.to/lastmile_qr_scan", "ios": "https://dc.lft.to/lastmile_qr_scan"}, "fusion_lon": 0.0, "lat": 38.89849233333333, "bike_id": "e28c21e8ef20d7f6503f889765199d03", "type": "electric_bike", "is_reserved": 0, "lon": -76.93193683333334}, {"fusion_lat": 0.0, "name": "24207b98858dff7c0884dd1c76d354a5", "is_disabled": 0, "rental_uris": {"android": "https://dc.lft.to/lastmile_qr_scan", "ios": "https://dc.lft.to/lastmile_qr_scan"}, "fusion_lon": 0.0, "lat": 38.880077, "bike_id": "24207b98858dff7c0884dd1c76d354a5", "type": "electric_scooter", "is_reserved": 0, "lon": -76.98361383333334}, {"fusion_lat": 0.0, "name": "78b2fb114201dd40ac9b3e6b3902922d", "is_disabled": 0, "rental_uris": {"android": "https://dc.lft.to/lastmile_qr_scan", "ios": "https://dc.lft.to/lastmile_qr_scan"}, "fusion_lon": 0.0, "lat": 38.91723, "bike_id": "78b2fb114201dd40ac9b3e6b3902922d", "type": "electric_scooter", "is_reserved": 0, "lon": -77.026999}, {"fusion_lat": 0.0, "name": "1982bc2a27f3ec4de6935ec0509fcc5f", "is_disabled": 0, "rental_uris": {"android": "https://dc.lft.to/lastmile_qr_scan", "ios": "https://dc.lft.to/lastmile_qr_scan"}, "fusion_lon": 0.0, "lat": 38.9096465, "bike_id": "1982bc2a27f3ec4de6935ec0509fcc5f", "type": "electric_scooter", "is_reserved": 0, "lon": -77.020855}, {"fusion_lat": 0.0, "name": "49a820047ef3422da3f462365b3a578a", "is_disabled": 0, "rental_uris": {"android": "https://dc.lft.to/lastmile_qr_scan", "ios": "https://dc.lft.to/lastmile_qr_scan"}, "fusion_lon": 0.0, "lat": 38.9168685, "bike_id": "49a820047ef3422da3f462365b3a578a", "type": "electric_scooter", "is_reserved": 0, "lon": -77.02350816666667}, {"fusion_lat": 0.0, "name": "33f00c12b115f3d700aa0af9ddc7158f", "is_disabled": 0, "rental_uris": {"android": "https://dc.lft.to/lastmile_qr_scan", "ios": "https://dc.lft.to/lastmile_qr_scan"}, "fusion_lon": 0.0, "lat": 38.885367333333335, "bike_id": "33f00c12b115f3d700aa0af9ddc7158f", "type": "electric_scooter", "is_reserved": 0, "lon": -77.00070583333333}, {"fusion_lat": 0.0, "name": "2b55bbe5b05aa4e3094be45e39220ede", "is_disabled": 0, "rental_uris": {"android": "https://dc.lft.to/lastmile_qr_scan", "ios": "https://dc.lft.to/lastmile_qr_scan"}, "fusion_lon": 0.0, "lat": 38.923700333333336, "bike_id": "2b55bbe5b05aa4e3094be45e39220ede", "type": "electric_scooter", "is_reserved": 0, "lon": -77.04315166666666}, {"fusion_lat": 0.0, "name": "82717d39666a52810f40b502e50ffe82", "is_disabled": 0, "rental_uris": {"android": "https://dc.lft.to/lastmile_qr_scan", "ios": "https://dc.lft.to/lastmile_qr_scan"}, "fusion_lon": 0.0, "lat": 38.885337, "bike_id": "82717d39666a52810f40b502e50ffe82", "type": "electric_scooter", "is_reserved": 0, "lon": -77.00068516666667}, {"fusion_lat": 0.0, "name": "cf7dca4da3a8d3c3d36ce9191c7c1328", "is_disabled": 0, "rental_uris": {"android": "https://dc.lft.to/lastmile_qr_scan", "ios": "https://dc.lft.to/lastmile_qr_scan"}, "fusion_lon": 0.0, "lat": 38.877547, "bike_id": "cf7dca4da3a8d3c3d36ce9191c7c1328", "type": "electric_scooter", "is_reserved": 0, "lon": -76.99673083333333}, {"fusion_lat": 0.0, "name": "022b6f087c5e7c49f9c70182945a5d78", "is_disabled": 0, "rental_uris": {"android": "https://dc.lft.to/lastmile_qr_scan", "ios": "https://dc.lft.to/lastmile_qr_scan"}, "fusion_lon": 0.0, "lat": 38.90512433333333, "bike_id": "022b6f087c5e7c49f9c70182945a5d78", "type": "electric_scooter", "is_reserved": 0, "lon": -77.056796}, {"fusion_lat": 0.0, "name": "684eee14ff9da928c920d14a985bdab5", "is_disabled": 0, "rental_uris": {"android": "https://dc.lft.to/lastmile_qr_scan", "ios": "https://dc.lft.to/lastmile_qr_scan"}, "fusion_lon": 0.0, "lat": 38.9052725, "bike_id": "684eee14ff9da928c920d14a985bdab5", "type": "electric_scooter", "is_reserved": 0, "lon": -77.065991}, {"fusion_lat": 0.0, "name": "11fb4492f8f1723031efa143d02f4bcd", "is_disabled": 0, "rental_uris": {"android": "https://dc.lft.to/lastmile_qr_scan", "ios": "https://dc.lft.to/lastmile_qr_scan"}, "fusion_lon": 0.0, "lat": 38.904566833333334, "bike_id": "11fb4492f8f1723031efa143d02f4bcd", "type": "electric_scooter", "is_reserved": 0, "lon": -77.0016545}, {"fusion_lat": 0.0, "name": "ec184839858c3422cff5d7b3afe102d4", "is_disabled": 0, "rental_uris": {"android": "https://dc.lft.to/lastmile_qr_scan", "ios": "https://dc.lft.to/lastmile_qr_scan"}, "fusion_lon": 0.0, "lat": 38.918127166666665, "bike_id": "ec184839858c3422cff5d7b3afe102d4", "type": "electric_scooter", "is_reserved": 0, "lon": -77.03915116666667}, {"fusion_lat": 0.0, "name": "9dfbf6ba28dea7cd216e2201fba77de4", "is_disabled": 0, "rental_uris": {"android": "https://dc.lft.to/lastmile_qr_scan", "ios": "https://dc.lft.to/lastmile_qr_scan"}, "fusion_lon": 0.0, "lat": 38.8836825, "bike_id": "9dfbf6ba28dea7cd216e2201fba77de4", "type": "electric_scooter", "is_reserved": 0, "lon": -77.01360283333334}, {"fusion_lat": 0.0, "name": "f1d29dcfe65b27bb11009ec7901ea144", "is_disabled": 0, "rental_uris": {"android": "https://dc.lft.to/lastmile_qr_scan", "ios": "https://dc.lft.to/lastmile_qr_scan"}, "fusion_lon": 0.0, "lat": 38.90662416666667, "bike_id": "f1d29dcfe65b27bb11009ec7901ea144", "type": "electric_scooter", "is_reserved": 0, "lon": -77.07194283333334}, {"fusion_lat": 0.0, "name": "1caf85b48f5468bad8638b7edae6e856", "is_disabled": 0, "rental_uris": {"android": "https://dc.lft.to/lastmile_qr_scan", "ios": "https://dc.lft.to/lastmile_qr_scan"}, "fusion_lon": 0.0, "lat": 38.907174, "bike_id": "1caf85b48f5468bad8638b7edae6e856", "type": "electric_scooter", "is_reserved": 0, "lon": -77.04362366666666}, {"fusion_lat": 0.0, "name": "0f925968b00e1dc2f6926fccdec9e5e8", "is_disabled": 0, "rental_uris": {"android": "https://dc.lft.to/lastmile_qr_scan", "ios": "https://dc.lft.to/lastmile_qr_scan"}, "fusion_lon": 0.0, "lat": 38.8974755, "bike_id": "0f925968b00e1dc2f6926fccdec9e5e8", "type": "electric_scooter", "is_reserved": 0, "lon": -77.00202666666667}, {"fusion_lat": 0.0, "name": "a79767ef63c27c7a0d0316f2a1c30d37", "is_disabled": 0, "rental_uris": {"android": "https://dc.lft.to/lastmile_qr_scan", "ios": "https://dc.lft.to/lastmile_qr_scan"}, "fusion_lon": 0.0, "lat": 38.91926983333333, "bike_id": "a79767ef63c27c7a0d0316f2a1c30d37", "type": "electric_scooter", "is_reserved": 0, "lon": -77.026685}, {"fusion_lat": 0.0, "name": "f00c71711d6f676e61f33144f7cda8e7", "is_disabled": 0, "rental_uris": {"android": "https://dc.lft.to/lastmile_qr_scan", "ios": "https://dc.lft.to/lastmile_qr_scan"}, "fusion_lon": 0.0, "lat": 38.900599, "bike_id": "f00c71711d6f676e61f33144f7cda8e7", "type": "electric_scooter", "is_reserved": 0, "lon": -77.01624516666666}, {"fusion_lat": 0.0, "name": "451e1c8d503f87cd483e909c62b49a60", "is_disabled": 0, "rental_uris": {"android": "https://dc.lft.to/lastmile_qr_scan", "ios": "https://dc.lft.to/lastmile_qr_scan"}, "fusion_lon": 0.0, "lat": 38.922925, "bike_id": "451e1c8d503f87cd483e909c62b49a60", "type": "electric_scooter", "is_reserved": 0, "lon": -77.04216666666666}, {"fusion_lat": 0.0, "name": "3eecfdbc2007bb46cc2ef9c9c6a275da", "is_disabled": 0, "rental_uris": {"android": "https://dc.lft.to/lastmile_qr_scan", "ios": "https://dc.lft.to/lastmile_qr_scan"}, "fusion_lon": 0.0, "lat": 38.9101455, "bike_id": "3eecfdbc2007bb46cc2ef9c9c6a275da", "type": "electric_scooter", "is_reserved": 0, "lon": -77.05279083333333}, {"fusion_lat": 0.0, "name": "d4207667b9cb8b4a695cfd2f1442ae59", "is_disabled": 0, "rental_uris": {"android": "https://dc.lft.to/lastmile_qr_scan", "ios": "https://dc.lft.to/lastmile_qr_scan"}, "fusion_lon": 0.0, "lat": 38.883985833333334, "bike_id": "d4207667b9cb8b4a695cfd2f1442ae59", "type": "electric_scooter", "is_reserved": 0, "lon": -76.93042133333333}, {"fusion_lat": 0.0, "name": "75296147718f35b433e3d578b6557a5d", "is_disabled": 0, "rental_uris": {"android": "https://dc.lft.to/lastmile_qr_scan", "ios": "https://dc.lft.to/lastmile_qr_scan"}, "fusion_lon": 0.0, "lat": 38.930221833333334, "bike_id": "75296147718f35b433e3d578b6557a5d", "type": "electric_scooter", "is_reserved": 0, "lon": -77.03798333333333}, {"fusion_lat": 0.0, "name": "5275dfdd5cffaa24a09d6da64c091ac0", "is_disabled": 0, "rental_uris": {"android": "https://dc.lft.to/lastmile_qr_scan", "ios": "https://dc.lft.to/lastmile_qr_scan"}, "fusion_lon": 0.0, "lat": 38.8991645, "bike_id": "5275dfdd5cffaa24a09d6da64c091ac0", "type": "electric_scooter", "is_reserved": 0, "lon": -77.05148133333333}, {"fusion_lat": 0.0, "name": "58444bd8b2f6a9cea3a990b7990a0e58", "is_disabled": 0, "rental_uris": {"android": "https://dc.lft.to/lastmile_qr_scan", "ios": "https://dc.lft.to/lastmile_qr_scan"}, "fusion_lon": 0.0, "lat": 38.902744166666665, "bike_id": "58444bd8b2f6a9cea3a990b7990a0e58", "type": "electric_scooter", "is_reserved": 0, "lon": -76.98985966666666}, {"fusion_lat": 0.0, "name": "8d2c5c8931059d568c2858f4718ed30d", "is_disabled": 0, "rental_uris": {"android": "https://dc.lft.to/lastmile_qr_scan", "ios": "https://dc.lft.to/lastmile_qr_scan"}, "fusion_lon": 0.0, "lat": 38.90037916666667, "bike_id": "8d2c5c8931059d568c2858f4718ed30d", "type": "electric_scooter", "is_reserved": 0, "lon": -77.0296565}, {"fusion_lat": 0.0, "name": "beac5a0a2387e8175c58d0ab6b0f436b", "is_disabled": 0, "rental_uris": {"android": "https://dc.lft.to/lastmile_qr_scan", "ios": "https://dc.lft.to/lastmile_qr_scan"}, "fusion_lon": 0.0, "lat": 38.894958833333334, "bike_id": "beac5a0a2387e8175c58d0ab6b0f436b", "type": "electric_scooter", "is_reserved": 0, "lon": -77.00219066666666}, {"fusion_lat": 0.0, "name": "74f82383bc99a4d20ccc782a9378d0a4", "is_disabled": 0, "rental_uris": {"android": "https://dc.lft.to/lastmile_qr_scan", "ios": "https://dc.lft.to/lastmile_qr_scan"}, "fusion_lon": 0.0, "lat": 38.91211333333333, "bike_id": "74f82383bc99a4d20ccc782a9378d0a4", "type": "electric_scooter", "is_reserved": 0, "lon": -77.019869}, {"fusion_lat": 0.0, "name": "7087838b8bd68f322d91130aa5cec9e4", "is_disabled": 0, "rental_uris": {"android": "https://dc.lft.to/lastmile_qr_scan", "ios": "https://dc.lft.to/lastmile_qr_scan"}, "fusion_lon": 0.0, "lat": 38.96747083333333, "bike_id": "7087838b8bd68f322d91130aa5cec9e4", "type": "electric_bike", "is_reserved": 0, "lon": -76.98232183333333}, {"fusion_lat": 0.0, "name": "a62fa0f36bef9471e2758569c5c1336b", "is_disabled": 0, "rental_uris": {"android": "https://dc.lft.to/lastmile_qr_scan", "ios": "https://dc.lft.to/lastmile_qr_scan"}, "fusion_lon": 0.0, "lat": 38.90960833333333, "bike_id": "a62fa0f36bef9471e2758569c5c1336b", "type": "electric_scooter", "is_reserved": 0, "lon": -77.03941666666667}, {"fusion_lat": 0.0, "name": "e5e532234b7b56bf305c031e9e9ef4d4", "is_disabled": 0, "rental_uris": {"android": "https://dc.lft.to/lastmile_qr_scan", "ios": "https://dc.lft.to/lastmile_qr_scan"}, "fusion_lon": 0.0, "lat": 38.8560695, "bike_id": "e5e532234b7b56bf305c031e9e9ef4d4", "type": "electric_bike", "is_reserved": 0, "lon": -77.10810483333333}, {"fusion_lat": 0.0, "name": "7e4b9b53ea7c400419f23ee580f4a777", "is_disabled": 0, "rental_uris": {"android": "https://dc.lft.to/lastmile_qr_scan", "ios": "https://dc.lft.to/lastmile_qr_scan"}, "fusion_lon": 0.0, "lat": 38.9146635, "bike_id": "7e4b9b53ea7c400419f23ee580f4a777", "type": "electric_scooter", "is_reserved": 0, "lon": -77.01555616666667}, {"fusion_lat": 0.0, "name": "f235128bb4194299ff75d1da0192e935", "is_disabled": 0, "rental_uris": {"android": "https://dc.lft.to/lastmile_qr_scan", "ios": "https://dc.lft.to/lastmile_qr_scan"}, "fusion_lon": 0.0, "lat": 38.877652, "bike_id": "f235128bb4194299ff75d1da0192e935", "type": "electric_scooter", "is_reserved": 0, "lon": -77.00350883333333}, {"fusion_lat": 0.0, "name": "e5b13447b002686e79d10c81a9b8ff2f", "is_disabled": 0, "rental_uris": {"android": "https://dc.lft.to/lastmile_qr_scan", "ios": "https://dc.lft.to/lastmile_qr_scan"}, "fusion_lon": 0.0, "lat": 38.912255333333334, "bike_id": "e5b13447b002686e79d10c81a9b8ff2f", "type": "electric_scooter", "is_reserved": 0, "lon": -77.04788916666666}, {"fusion_lat": 0.0, "name": "b9d4fd85483698d31e2eee4ebfbd1ead", "is_disabled": 0, "rental_uris": {"android": "https://dc.lft.to/lastmile_qr_scan", "ios": "https://dc.lft.to/lastmile_qr_scan"}, "fusion_lon": 0.0, "lat": 38.905244, "bike_id": "b9d4fd85483698d31e2eee4ebfbd1ead", "type": "electric_scooter", "is_reserved": 0, "lon": -77.01719916666667}, {"fusion_lat": 0.0, "name": "bd1c6d417e59e2091f9f18c216db4c36", "is_disabled": 0, "rental_uris": {"android": "https://dc.lft.to/lastmile_qr_scan", "ios": "https://dc.lft.to/lastmile_qr_scan"}, "fusion_lon": 0.0, "lat": 38.881583, "bike_id": "bd1c6d417e59e2091f9f18c216db4c36", "type": "electric_scooter", "is_reserved": 0, "lon": -77.02774933333333}, {"fusion_lat": 0.0, "name": "bf03fcebe9f8151f828d9fa1a3b55897", "is_disabled": 0, "rental_uris": {"android": "https://dc.lft.to/lastmile_qr_scan", "ios": "https://dc.lft.to/lastmile_qr_scan"}, "fusion_lon": 0.0, "lat": 38.920816333333335, "bike_id": "bf03fcebe9f8151f828d9fa1a3b55897", "type": "electric_scooter", "is_reserved": 0, "lon": -77.02541716666667}, {"fusion_lat": 0.0, "name": "820c1dc7e4440355d80f0a98e5218081", "is_disabled": 0, "rental_uris": {"android": "https://dc.lft.to/lastmile_qr_scan", "ios": "https://dc.lft.to/lastmile_qr_scan"}, "fusion_lon": 0.0, "lat": 38.92075716666667, "bike_id": "820c1dc7e4440355d80f0a98e5218081", "type": "electric_bike", "is_reserved": 0, "lon": -76.9895105}, {"fusion_lat": 0.0, "name": "0bcab21a7071e2aab9721621f321b4ae", "is_disabled": 0, "rental_uris": {"android": "https://dc.lft.to/lastmile_qr_scan", "ios": "https://dc.lft.to/lastmile_qr_scan"}, "fusion_lon": 0.0, "lat": 38.8872935, "bike_id": "0bcab21a7071e2aab9721621f321b4ae", "type": "electric_scooter", "is_reserved": 0, "lon": -76.98357916666667}, {"fusion_lat": 0.0, "name": "df197dcf7a9756c7151497777aa315e7", "is_disabled": 0, "rental_uris": {"android": "https://dc.lft.to/lastmile_qr_scan", "ios": "https://dc.lft.to/lastmile_qr_scan"}, "fusion_lon": 0.0, "lat": 38.919926333333336, "bike_id": "df197dcf7a9756c7151497777aa315e7", "type": "electric_scooter", "is_reserved": 0, "lon": -77.03285783333334}, {"fusion_lat": 0.0, "name": "d039b870b899099785c9a194e8301fbb", "is_disabled": 0, "rental_uris": {"android": "https://dc.lft.to/lastmile_qr_scan", "ios": "https://dc.lft.to/lastmile_qr_scan"}, "fusion_lon": 0.0, "lat": 38.915539, "bike_id": "d039b870b899099785c9a194e8301fbb", "type": "electric_scooter", "is_reserved": 0, "lon": -77.01055616666666}, {"fusion_lat": 0.0, "name": "c0a08fc708f3e4d53ae45168fe57b6e6", "is_disabled": 0, "rental_uris": {"android": "https://dc.lft.to/lastmile_qr_scan", "ios": "https://dc.lft.to/lastmile_qr_scan"}, "fusion_lon": 0.0, "lat": 38.900241333333334, "bike_id": "c0a08fc708f3e4d53ae45168fe57b6e6", "type": "electric_scooter", "is_reserved": 0, "lon": -77.01191}, {"fusion_lat": 0.0, "name": "21c8e6f8c70dd9f0fe75ec428e062b9a", "is_disabled": 0, "rental_uris": {"android": "https://dc.lft.to/lastmile_qr_scan", "ios": "https://dc.lft.to/lastmile_qr_scan"}, "fusion_lon": 0.0, "lat": 38.8873315, "bike_id": "21c8e6f8c70dd9f0fe75ec428e062b9a", "type": "electric_scooter", "is_reserved": 0, "lon": -77.00332566666667}, {"fusion_lat": 0.0, "name": "72aaa9744da0e4181426584b590e67f3", "is_disabled": 0, "rental_uris": {"android": "https://dc.lft.to/lastmile_qr_scan", "ios": "https://dc.lft.to/lastmile_qr_scan"}, "fusion_lon": 0.0, "lat": 38.903792833333334, "bike_id": "72aaa9744da0e4181426584b590e67f3", "type": "electric_scooter", "is_reserved": 0, "lon": -77.01645883333333}, {"fusion_lat": 0.0, "name": "348418c27861cc43e677fe39d05995e0", "is_disabled": 0, "rental_uris": {"android": "https://dc.lft.to/lastmile_qr_scan", "ios": "https://dc.lft.to/lastmile_qr_scan"}, "fusion_lon": 0.0, "lat": 38.90293116666667, "bike_id": "348418c27861cc43e677fe39d05995e0", "type": "electric_scooter", "is_reserved": 0, "lon": -77.0395245}, {"fusion_lat": 0.0, "name": "29805c0dceeba861384825e41054338c", "is_disabled": 0, "rental_uris": {"android": "https://dc.lft.to/lastmile_qr_scan", "ios": "https://dc.lft.to/lastmile_qr_scan"}, "fusion_lon": 0.0, "lat": 38.89963783333334, "bike_id": "29805c0dceeba861384825e41054338c", "type": "electric_scooter", "is_reserved": 0, "lon": -76.98712616666667}, {"fusion_lat": 0.0, "name": "150558848e404f4bcc5aa903f1c6bb3c", "is_disabled": 0, "rental_uris": {"android": "https://dc.lft.to/lastmile_qr_scan", "ios": "https://dc.lft.to/lastmile_qr_scan"}, "fusion_lon": 0.0, "lat": 38.89709166666667, "bike_id": "150558848e404f4bcc5aa903f1c6bb3c", "type": "electric_scooter", "is_reserved": 0, "lon": -77.02772483333334}, {"fusion_lat": 0.0, "name": "30e2b015ad65d6de7bcd776a071802cf", "is_disabled": 0, "rental_uris": {"android": "https://dc.lft.to/lastmile_qr_scan", "ios": "https://dc.lft.to/lastmile_qr_scan"}, "fusion_lon": 0.0, "lat": 38.88743433333333, "bike_id": "30e2b015ad65d6de7bcd776a071802cf", "type": "electric_scooter", "is_reserved": 0, "lon": -77.01786333333334}, {"fusion_lat": 0.0, "name": "1bac8bcbfed1d24c014e9db783508cce", "is_disabled": 0, "rental_uris": {"android": "https://dc.lft.to/lastmile_qr_scan", "ios": "https://dc.lft.to/lastmile_qr_scan"}, "fusion_lon": 0.0, "lat": 38.91590583333333, "bike_id": "1bac8bcbfed1d24c014e9db783508cce", "type": "electric_scooter", "is_reserved": 0, "lon": -76.98387916666667}, {"fusion_lat": 0.0, "name": "928cbe938bf8007520861eee830f2eb2", "is_disabled": 0, "rental_uris": {"android": "https://dc.lft.to/lastmile_qr_scan", "ios": "https://dc.lft.to/lastmile_qr_scan"}, "fusion_lon": 0.0, "lat": 38.90331716666667, "bike_id": "928cbe938bf8007520861eee830f2eb2", "type": "electric_scooter", "is_reserved": 0, "lon": -77.00604633333333}, {"fusion_lat": 0.0, "name": "d735708eded7d02766207d3ee03aece1", "is_disabled": 0, "rental_uris": {"android": "https://dc.lft.to/lastmile_qr_scan", "ios": "https://dc.lft.to/lastmile_qr_scan"}, "fusion_lon": 0.0, "lat": 38.91203766666667, "bike_id": "d735708eded7d02766207d3ee03aece1", "type": "electric_scooter", "is_reserved": 0, "lon": -77.0065925}, {"fusion_lat": 0.0, "name": "bcc9556ea746c170dd2a9aee548ac40e", "is_disabled": 0, "rental_uris": {"android": "https://dc.lft.to/lastmile_qr_scan", "ios": "https://dc.lft.to/lastmile_qr_scan"}, "fusion_lon": 0.0, "lat": 38.9423025, "bike_id": "bcc9556ea746c170dd2a9aee548ac40e", "type": "electric_scooter", "is_reserved": 0, "lon": -77.01386966666666}, {"fusion_lat": 0.0, "name": "f1f5d1522ec042acf260fd6f8811bd41", "is_disabled": 0, "rental_uris": {"android": "https://dc.lft.to/lastmile_qr_scan", "ios": "https://dc.lft.to/lastmile_qr_scan"}, "fusion_lon": 0.0, "lat": 38.92448316666667, "bike_id": "f1f5d1522ec042acf260fd6f8811bd41", "type": "electric_scooter", "is_reserved": 0, "lon": -77.0523715}, {"fusion_lat": 0.0, "name": "78f4e4e4e71653f36dfde3cebbf2ac3a", "is_disabled": 0, "rental_uris": {"android": "https://dc.lft.to/lastmile_qr_scan", "ios": "https://dc.lft.to/lastmile_qr_scan"}, "fusion_lon": 0.0, "lat": 38.95795616666667, "bike_id": "78f4e4e4e71653f36dfde3cebbf2ac3a", "type": "electric_bike", "is_reserved": 0, "lon": -76.96055766666667}, {"fusion_lat": 0.0, "name": "f7f7debb33b29aef645e6cb1f199781e", "is_disabled": 0, "rental_uris": {"android": "https://dc.lft.to/lastmile_qr_scan", "ios": "https://dc.lft.to/lastmile_qr_scan"}, "fusion_lon": 0.0, "lat": 38.9223545, "bike_id": "f7f7debb33b29aef645e6cb1f199781e", "type": "electric_scooter", "is_reserved": 0, "lon": -77.01820333333333}, {"fusion_lat": 0.0, "name": "8f46d3c9b5f4bde6870930cf2672bb6d", "is_disabled": 0, "rental_uris": {"android": "https://dc.lft.to/lastmile_qr_scan", "ios": "https://dc.lft.to/lastmile_qr_scan"}, "fusion_lon": 0.0, "lat": 38.924949, "bike_id": "8f46d3c9b5f4bde6870930cf2672bb6d", "type": "electric_scooter", "is_reserved": 0, "lon": -77.052262}, {"fusion_lat": 0.0, "name": "bd25231edd3517850c804eac9823d7fd", "is_disabled": 0, "rental_uris": {"android": "https://dc.lft.to/lastmile_qr_scan", "ios": "https://dc.lft.to/lastmile_qr_scan"}, "fusion_lon": 0.0, "lat": 38.921949166666664, "bike_id": "bd25231edd3517850c804eac9823d7fd", "type": "electric_scooter", "is_reserved": 0, "lon": -77.08091433333334}, {"fusion_lat": 0.0, "name": "4655b5e8767d39480f82ebb0bb8efc4e", "is_disabled": 0, "rental_uris": {"android": "https://dc.lft.to/lastmile_qr_scan", "ios": "https://dc.lft.to/lastmile_qr_scan"}, "fusion_lon": 0.0, "lat": 38.914405333333335, "bike_id": "4655b5e8767d39480f82ebb0bb8efc4e", "type": "electric_scooter", "is_reserved": 0, "lon": -77.04479916666666}, {"fusion_lat": 0.0, "name": "13e34c4c7312d0f9c46cc6cff434aedf", "is_disabled": 0, "rental_uris": {"android": "https://dc.lft.to/lastmile_qr_scan", "ios": "https://dc.lft.to/lastmile_qr_scan"}, "fusion_lon": 0.0, "lat": 38.90036816666667, "bike_id": "13e34c4c7312d0f9c46cc6cff434aedf", "type": "electric_scooter", "is_reserved": 0, "lon": -76.9856185}, {"fusion_lat": 0.0, "name": "711c8c8412c308db037bd1e9d496bcd6", "is_disabled": 0, "rental_uris": {"android": "https://dc.lft.to/lastmile_qr_scan", "ios": "https://dc.lft.to/lastmile_qr_scan"}, "fusion_lon": 0.0, "lat": 38.8924705, "bike_id": "711c8c8412c308db037bd1e9d496bcd6", "type": "electric_scooter", "is_reserved": 0, "lon": -77.03960266666667}, {"fusion_lat": 0.0, "name": "833d1660c92029d0e977cd2bb62b55f4", "is_disabled": 0, "rental_uris": {"android": "https://dc.lft.to/lastmile_qr_scan", "ios": "https://dc.lft.to/lastmile_qr_scan"}, "fusion_lon": 0.0, "lat": 38.889813333333336, "bike_id": "833d1660c92029d0e977cd2bb62b55f4", "type": "electric_scooter", "is_reserved": 0, "lon": -76.91423516666667}, {"fusion_lat": 0.0, "name": "89e98da1a180f5c149b0e56e6351929a", "is_disabled": 0, "rental_uris": {"android": "https://dc.lft.to/lastmile_qr_scan", "ios": "https://dc.lft.to/lastmile_qr_scan"}, "fusion_lon": 0.0, "lat": 38.90565, "bike_id": "89e98da1a180f5c149b0e56e6351929a", "type": "electric_scooter", "is_reserved": 0, "lon": -77.04678516666667}, {"fusion_lat": 0.0, "name": "523e5e3e9cdc399ec652118a0a287806", "is_disabled": 0, "rental_uris": {"android": "https://dc.lft.to/lastmile_qr_scan", "ios": "https://dc.lft.to/lastmile_qr_scan"}, "fusion_lon": 0.0, "lat": 38.90627883333333, "bike_id": "523e5e3e9cdc399ec652118a0a287806", "type": "electric_scooter", "is_reserved": 0, "lon": -77.00578216666666}, {"fusion_lat": 0.0, "name": "97b6ee76ec9cce32fbeaa0902a3a2f66", "is_disabled": 0, "rental_uris": {"android": "https://dc.lft.to/lastmile_qr_scan", "ios": "https://dc.lft.to/lastmile_qr_scan"}, "fusion_lon": 0.0, "lat": 38.90373983333333, "bike_id": "97b6ee76ec9cce32fbeaa0902a3a2f66", "type": "electric_scooter", "is_reserved": 0, "lon": -77.01862016666666}, {"fusion_lat": 0.0, "name": "39e0d5490511b4ee92a11fec7bdb00bd", "is_disabled": 0, "rental_uris": {"android": "https://dc.lft.to/lastmile_qr_scan", "ios": "https://dc.lft.to/lastmile_qr_scan"}, "fusion_lon": 0.0, "lat": 38.954843833333335, "bike_id": "39e0d5490511b4ee92a11fec7bdb00bd", "type": "electric_bike", "is_reserved": 0, "lon": -77.02670133333334}, {"fusion_lat": 0.0, "name": "4a43a75c47ef4dc45bfff0535c9fcfda", "is_disabled": 0, "rental_uris": {"android": "https://dc.lft.to/lastmile_qr_scan", "ios": "https://dc.lft.to/lastmile_qr_scan"}, "fusion_lon": 0.0, "lat": 38.91549833333333, "bike_id": "4a43a75c47ef4dc45bfff0535c9fcfda", "type": "electric_scooter", "is_reserved": 0, "lon": -77.02146266666666}, {"fusion_lat": 0.0, "name": "f4e407f2f0f286551c7d610e4db88f5b", "is_disabled": 0, "rental_uris": {"android": "https://dc.lft.to/lastmile_qr_scan", "ios": "https://dc.lft.to/lastmile_qr_scan"}, "fusion_lon": 0.0, "lat": 38.924244, "bike_id": "f4e407f2f0f286551c7d610e4db88f5b", "type": "electric_scooter", "is_reserved": 0, "lon": -77.05176016666667}, {"fusion_lat": 0.0, "name": "f0d5ba352dcddab77397bb2fa883e56b", "is_disabled": 0, "rental_uris": {"android": "https://dc.lft.to/lastmile_qr_scan", "ios": "https://dc.lft.to/lastmile_qr_scan"}, "fusion_lon": 0.0, "lat": 38.9000745, "bike_id": "f0d5ba352dcddab77397bb2fa883e56b", "type": "electric_scooter", "is_reserved": 0, "lon": -77.00333483333333}, {"fusion_lat": 0.0, "name": "5c1ef35194bb9452b278354e3c7d4f60", "is_disabled": 0, "rental_uris": {"android": "https://dc.lft.to/lastmile_qr_scan", "ios": "https://dc.lft.to/lastmile_qr_scan"}, "fusion_lon": 0.0, "lat": 38.8973195, "bike_id": "5c1ef35194bb9452b278354e3c7d4f60", "type": "electric_scooter", "is_reserved": 0, "lon": -77.0463445}, {"fusion_lat": 0.0, "name": "7b543dd87456a9f9aaa4212b01795b9c", "is_disabled": 0, "rental_uris": {"android": "https://dc.lft.to/lastmile_qr_scan", "ios": "https://dc.lft.to/lastmile_qr_scan"}, "fusion_lon": 0.0, "lat": 38.89648666666667, "bike_id": "7b543dd87456a9f9aaa4212b01795b9c", "type": "electric_scooter", "is_reserved": 0, "lon": -77.0121155}, {"fusion_lat": 0.0, "name": "af4324d0bc80c339b8f5b7b024677002", "is_disabled": 0, "rental_uris": {"android": "https://dc.lft.to/lastmile_qr_scan", "ios": "https://dc.lft.to/lastmile_qr_scan"}, "fusion_lon": 0.0, "lat": 38.87131083333333, "bike_id": "af4324d0bc80c339b8f5b7b024677002", "type": "electric_scooter", "is_reserved": 0, "lon": -77.01228766666667}, {"fusion_lat": 0.0, "name": "3256a698d24928cd805946cd4aace14b", "is_disabled": 0, "rental_uris": {"android": "https://dc.lft.to/lastmile_qr_scan", "ios": "https://dc.lft.to/lastmile_qr_scan"}, "fusion_lon": 0.0, "lat": 38.900361333333336, "bike_id": "3256a698d24928cd805946cd4aace14b", "type": "electric_scooter", "is_reserved": 0, "lon": -77.0296855}, {"fusion_lat": 0.0, "name": "2ec71b87242dd357626b630eca919170", "is_disabled": 0, "rental_uris": {"android": "https://dc.lft.to/lastmile_qr_scan", "ios": "https://dc.lft.to/lastmile_qr_scan"}, "fusion_lon": 0.0, "lat": 38.910372, "bike_id": "2ec71b87242dd357626b630eca919170", "type": "electric_scooter", "is_reserved": 0, "lon": -77.04392583333333}, {"fusion_lat": 0.0, "name": "9237df2baa5e3889b657f624cda6e985", "is_disabled": 0, "rental_uris": {"android": "https://dc.lft.to/lastmile_qr_scan", "ios": "https://dc.lft.to/lastmile_qr_scan"}, "fusion_lon": 0.0, "lat": 38.898088333333334, "bike_id": "9237df2baa5e3889b657f624cda6e985", "type": "electric_scooter", "is_reserved": 0, "lon": -77.05012166666667}, {"fusion_lat": 0.0, "name": "b0e2531e57688e9f26d3398784a8fe55", "is_disabled": 0, "rental_uris": {"android": "https://dc.lft.to/lastmile_qr_scan", "ios": "https://dc.lft.to/lastmile_qr_scan"}, "fusion_lon": 0.0, "lat": 38.905184, "bike_id": "b0e2531e57688e9f26d3398784a8fe55", "type": "electric_scooter", "is_reserved": 0, "lon": -77.06142833333334}, {"fusion_lat": 0.0, "name": "aef4f2bd4163600cba3ae80ddb6f0061", "is_disabled": 0, "rental_uris": {"android": "https://dc.lft.to/lastmile_qr_scan", "ios": "https://dc.lft.to/lastmile_qr_scan"}, "fusion_lon": 0.0, "lat": 38.92612183333333, "bike_id": "aef4f2bd4163600cba3ae80ddb6f0061", "type": "electric_scooter", "is_reserved": 0, "lon": -77.075719}, {"fusion_lat": 0.0, "name": "9e998511f794beaf11c5f1cd343a31e0", "is_disabled": 0, "rental_uris": {"android": "https://dc.lft.to/lastmile_qr_scan", "ios": "https://dc.lft.to/lastmile_qr_scan"}, "fusion_lon": 0.0, "lat": 38.915825, "bike_id": "9e998511f794beaf11c5f1cd343a31e0", "type": "electric_scooter", "is_reserved": 0, "lon": -77.04569633333334}, {"fusion_lat": 0.0, "name": "25870b904d8cd45bf8a4ace8a860c33a", "is_disabled": 0, "rental_uris": {"android": "https://dc.lft.to/lastmile_qr_scan", "ios": "https://dc.lft.to/lastmile_qr_scan"}, "fusion_lon": 0.0, "lat": 38.92291066666667, "bike_id": "25870b904d8cd45bf8a4ace8a860c33a", "type": "electric_scooter", "is_reserved": 0, "lon": -77.02333333333333}, {"fusion_lat": 0.0, "name": "f38cc7b874b7242dc1995376770ec7db", "is_disabled": 0, "rental_uris": {"android": "https://dc.lft.to/lastmile_qr_scan", "ios": "https://dc.lft.to/lastmile_qr_scan"}, "fusion_lon": 0.0, "lat": 38.9011025, "bike_id": "f38cc7b874b7242dc1995376770ec7db", "type": "electric_scooter", "is_reserved": 0, "lon": -76.97429933333333}, {"fusion_lat": 0.0, "name": "757a5acba50e9b42a48410888b16f62f", "is_disabled": 0, "rental_uris": {"android": "https://dc.lft.to/lastmile_qr_scan", "ios": "https://dc.lft.to/lastmile_qr_scan"}, "fusion_lon": 0.0, "lat": 38.92083083333333, "bike_id": "757a5acba50e9b42a48410888b16f62f", "type": "electric_scooter", "is_reserved": 0, "lon": -77.025511}, {"fusion_lat": 0.0, "name": "21d2312860d05739be8c16ad4028af82", "is_disabled": 0, "rental_uris": {"android": "https://dc.lft.to/lastmile_qr_scan", "ios": "https://dc.lft.to/lastmile_qr_scan"}, "fusion_lon": 0.0, "lat": 38.883385833333335, "bike_id": "21d2312860d05739be8c16ad4028af82", "type": "electric_scooter", "is_reserved": 0, "lon": -76.93509333333333}, {"fusion_lat": 0.0, "name": "0eceb2c7b4cda97949def11fb43ac0ca", "is_disabled": 0, "rental_uris": {"android": "https://dc.lft.to/lastmile_qr_scan", "ios": "https://dc.lft.to/lastmile_qr_scan"}, "fusion_lon": 0.0, "lat": 38.9438385, "bike_id": "0eceb2c7b4cda97949def11fb43ac0ca", "type": "electric_scooter", "is_reserved": 0, "lon": -77.095117}, {"fusion_lat": 0.0, "name": "9c39212d58b11ce55a94d251b8c12b46", "is_disabled": 0, "rental_uris": {"android": "https://dc.lft.to/lastmile_qr_scan", "ios": "https://dc.lft.to/lastmile_qr_scan"}, "fusion_lon": 0.0, "lat": 38.947182166666664, "bike_id": "9c39212d58b11ce55a94d251b8c12b46", "type": "electric_scooter", "is_reserved": 0, "lon": -77.06532316666667}, {"fusion_lat": 0.0, "name": "41df354197911da662f06ec68712fd6e", "is_disabled": 0, "rental_uris": {"android": "https://dc.lft.to/lastmile_qr_scan", "ios": "https://dc.lft.to/lastmile_qr_scan"}, "fusion_lon": 0.0, "lat": 38.904098833333336, "bike_id": "41df354197911da662f06ec68712fd6e", "type": "electric_scooter", "is_reserved": 0, "lon": -77.06791683333333}, {"fusion_lat": 0.0, "name": "3ad08656933f8621e2f64152f4400b0f", "is_disabled": 0, "rental_uris": {"android": "https://dc.lft.to/lastmile_qr_scan", "ios": "https://dc.lft.to/lastmile_qr_scan"}, "fusion_lon": 0.0, "lat": 38.9056475, "bike_id": "3ad08656933f8621e2f64152f4400b0f", "type": "electric_scooter", "is_reserved": 0, "lon": -77.03442016666666}, {"fusion_lat": 0.0, "name": "82c6f2271b6446e1fe0dffe9e44873f1", "is_disabled": 0, "rental_uris": {"android": "https://dc.lft.to/lastmile_qr_scan", "ios": "https://dc.lft.to/lastmile_qr_scan"}, "fusion_lon": 0.0, "lat": 38.9314085, "bike_id": "82c6f2271b6446e1fe0dffe9e44873f1", "type": "electric_bike", "is_reserved": 0, "lon": -77.00076416666667}, {"fusion_lat": 0.0, "name": "8aae5fa3c7fc66954f9cb85ad984a27c", "is_disabled": 0, "rental_uris": {"android": "https://dc.lft.to/lastmile_qr_scan", "ios": "https://dc.lft.to/lastmile_qr_scan"}, "fusion_lon": 0.0, "lat": 38.9234105, "bike_id": "8aae5fa3c7fc66954f9cb85ad984a27c", "type": "electric_scooter", "is_reserved": 0, "lon": -77.05676}, {"fusion_lat": 0.0, "name": "73d99a3ccd02c3b45b78d2e9eb2285d3", "is_disabled": 0, "rental_uris": {"android": "https://dc.lft.to/lastmile_qr_scan", "ios": "https://dc.lft.to/lastmile_qr_scan"}, "fusion_lon": 0.0, "lat": 38.901307333333335, "bike_id": "73d99a3ccd02c3b45b78d2e9eb2285d3", "type": "electric_scooter", "is_reserved": 0, "lon": -77.04465883333333}, {"fusion_lat": 0.0, "name": "04aab1d43d5f2bfad26b55f0ed6b4b3f", "is_disabled": 0, "rental_uris": {"android": "https://dc.lft.to/lastmile_qr_scan", "ios": "https://dc.lft.to/lastmile_qr_scan"}, "fusion_lon": 0.0, "lat": 38.90540433333334, "bike_id": "04aab1d43d5f2bfad26b55f0ed6b4b3f", "type": "electric_scooter", "is_reserved": 0, "lon": -77.06522566666666}, {"fusion_lat": 0.0, "name": "88d64820db90bd0ca399b494cd4d724f", "is_disabled": 0, "rental_uris": {"android": "https://dc.lft.to/lastmile_qr_scan", "ios": "https://dc.lft.to/lastmile_qr_scan"}, "fusion_lon": 0.0, "lat": 38.84422816666667, "bike_id": "88d64820db90bd0ca399b494cd4d724f", "type": "electric_scooter", "is_reserved": 0, "lon": -76.99785816666666}, {"fusion_lat": 0.0, "name": "f5f209dff873858fe356b44164cdb237", "is_disabled": 0, "rental_uris": {"android": "https://dc.lft.to/lastmile_qr_scan", "ios": "https://dc.lft.to/lastmile_qr_scan"}, "fusion_lon": 0.0, "lat": 38.852015333333334, "bike_id": "f5f209dff873858fe356b44164cdb237", "type": "electric_bike", "is_reserved": 0, "lon": -76.962993}, {"fusion_lat": 0.0, "name": "7df0e66ca844718e6a66babe30e2a1b6", "is_disabled": 0, "rental_uris": {"android": "https://dc.lft.to/lastmile_qr_scan", "ios": "https://dc.lft.to/lastmile_qr_scan"}, "fusion_lon": 0.0, "lat": 38.907765166666664, "bike_id": "7df0e66ca844718e6a66babe30e2a1b6", "type": "electric_scooter", "is_reserved": 0, "lon": -77.03557266666667}, {"fusion_lat": 0.0, "name": "8d74fc67be3c371a86f052cc9c13200c", "is_disabled": 0, "rental_uris": {"android": "https://dc.lft.to/lastmile_qr_scan", "ios": "https://dc.lft.to/lastmile_qr_scan"}, "fusion_lon": 0.0, "lat": 38.9168135, "bike_id": "8d74fc67be3c371a86f052cc9c13200c", "type": "electric_scooter", "is_reserved": 0, "lon": -77.02721466666667}, {"fusion_lat": 0.0, "name": "2fc34e1253e491435f1107e303adbbe2", "is_disabled": 0, "rental_uris": {"android": "https://dc.lft.to/lastmile_qr_scan", "ios": "https://dc.lft.to/lastmile_qr_scan"}, "fusion_lon": 0.0, "lat": 38.84739233333333, "bike_id": "2fc34e1253e491435f1107e303adbbe2", "type": "electric_bike", "is_reserved": 0, "lon": -76.96652716666667}, {"fusion_lat": 0.0, "name": "2286650acf216c5b16a505a6f26d0f46", "is_disabled": 0, "rental_uris": {"android": "https://dc.lft.to/lastmile_qr_scan", "ios": "https://dc.lft.to/lastmile_qr_scan"}, "fusion_lon": 0.0, "lat": 38.8957, "bike_id": "2286650acf216c5b16a505a6f26d0f46", "type": "electric_scooter", "is_reserved": 0, "lon": -77.0221735}, {"fusion_lat": 0.0, "name": "d1e6ee5b43cb8c2cec02596b26311b02", "is_disabled": 0, "rental_uris": {"android": "https://dc.lft.to/lastmile_qr_scan", "ios": "https://dc.lft.to/lastmile_qr_scan"}, "fusion_lon": 0.0, "lat": 38.92484233333333, "bike_id": "d1e6ee5b43cb8c2cec02596b26311b02", "type": "electric_scooter", "is_reserved": 0, "lon": -77.05214133333334}, {"fusion_lat": 0.0, "name": "e4ddc88e9953947fbf08a6f61f060727", "is_disabled": 0, "rental_uris": {"android": "https://dc.lft.to/lastmile_qr_scan", "ios": "https://dc.lft.to/lastmile_qr_scan"}, "fusion_lon": 0.0, "lat": 38.886786, "bike_id": "e4ddc88e9953947fbf08a6f61f060727", "type": "electric_scooter", "is_reserved": 0, "lon": -77.00198633333333}, {"fusion_lat": 0.0, "name": "f65ef51d683dbad43db02e883317a579", "is_disabled": 0, "rental_uris": {"android": "https://dc.lft.to/lastmile_qr_scan", "ios": "https://dc.lft.to/lastmile_qr_scan"}, "fusion_lon": 0.0, "lat": 38.92439683333333, "bike_id": "f65ef51d683dbad43db02e883317a579", "type": "electric_scooter", "is_reserved": 0, "lon": -77.018747}, {"fusion_lat": 0.0, "name": "acb055f8a3f96a40ca93796e3492247a", "is_disabled": 0, "rental_uris": {"android": "https://dc.lft.to/lastmile_qr_scan", "ios": "https://dc.lft.to/lastmile_qr_scan"}, "fusion_lon": 0.0, "lat": 38.91711, "bike_id": "acb055f8a3f96a40ca93796e3492247a", "type": "electric_scooter", "is_reserved": 0, "lon": -77.028963}, {"fusion_lat": 0.0, "name": "ba104380d55a39ebe41e89e9e09d4546", "is_disabled": 0, "rental_uris": {"android": "https://dc.lft.to/lastmile_qr_scan", "ios": "https://dc.lft.to/lastmile_qr_scan"}, "fusion_lon": 0.0, "lat": 38.90080733333333, "bike_id": "ba104380d55a39ebe41e89e9e09d4546", "type": "electric_scooter", "is_reserved": 0, "lon": -77.04777766666666}, {"fusion_lat": 0.0, "name": "4d8aab2f942db31c4fb22ee281bb8ff2", "is_disabled": 0, "rental_uris": {"android": "https://dc.lft.to/lastmile_qr_scan", "ios": "https://dc.lft.to/lastmile_qr_scan"}, "fusion_lon": 0.0, "lat": 38.8837505, "bike_id": "4d8aab2f942db31c4fb22ee281bb8ff2", "type": "electric_scooter", "is_reserved": 0, "lon": -77.00531366666667}, {"fusion_lat": 0.0, "name": "3a9ae5d5d6c91ad770c5753f298e886b", "is_disabled": 0, "rental_uris": {"android": "https://dc.lft.to/lastmile_qr_scan", "ios": "https://dc.lft.to/lastmile_qr_scan"}, "fusion_lon": 0.0, "lat": 38.917031333333334, "bike_id": "3a9ae5d5d6c91ad770c5753f298e886b", "type": "electric_scooter", "is_reserved": 0, "lon": -77.02888083333333}, {"fusion_lat": 0.0, "name": "89a157fd5b4f5fb2256edf14be1d42ec", "is_disabled": 0, "rental_uris": {"android": "https://dc.lft.to/lastmile_qr_scan", "ios": "https://dc.lft.to/lastmile_qr_scan"}, "fusion_lon": 0.0, "lat": 38.93486033333333, "bike_id": "89a157fd5b4f5fb2256edf14be1d42ec", "type": "electric_scooter", "is_reserved": 0, "lon": -77.03405016666666}, {"fusion_lat": 0.0, "name": "52d5f5ee1a8a9a87a1b19cdb3d307114", "is_disabled": 0, "rental_uris": {"android": "https://dc.lft.to/lastmile_qr_scan", "ios": "https://dc.lft.to/lastmile_qr_scan"}, "fusion_lon": 0.0, "lat": 38.909710833333335, "bike_id": "52d5f5ee1a8a9a87a1b19cdb3d307114", "type": "electric_scooter", "is_reserved": 0, "lon": -77.04844483333333}, {"fusion_lat": 0.0, "name": "82fd5c487a2edd29e9eded73a61cb710", "is_disabled": 0, "rental_uris": {"android": "https://dc.lft.to/lastmile_qr_scan", "ios": "https://dc.lft.to/lastmile_qr_scan"}, "fusion_lon": 0.0, "lat": 38.939553833333335, "bike_id": "82fd5c487a2edd29e9eded73a61cb710", "type": "electric_scooter", "is_reserved": 0, "lon": -77.03289816666667}, {"fusion_lat": 0.0, "name": "93c22430edceec0c3ce934df29371993", "is_disabled": 0, "rental_uris": {"android": "https://dc.lft.to/lastmile_qr_scan", "ios": "https://dc.lft.to/lastmile_qr_scan"}, "fusion_lon": 0.0, "lat": 38.82793483333333, "bike_id": "93c22430edceec0c3ce934df29371993", "type": "electric_bike", "is_reserved": 0, "lon": -77.1249545}, {"fusion_lat": 0.0, "name": "cf818fbb4ae3c342da85e449734eddd9", "is_disabled": 0, "rental_uris": {"android": "https://dc.lft.to/lastmile_qr_scan", "ios": "https://dc.lft.to/lastmile_qr_scan"}, "fusion_lon": 0.0, "lat": 38.931156666666666, "bike_id": "cf818fbb4ae3c342da85e449734eddd9", "type": "electric_scooter", "is_reserved": 0, "lon": -77.02086283333334}, {"fusion_lat": 0.0, "name": "67015c512f654c3b4aea375dc6bf6175", "is_disabled": 0, "rental_uris": {"android": "https://dc.lft.to/lastmile_qr_scan", "ios": "https://dc.lft.to/lastmile_qr_scan"}, "fusion_lon": 0.0, "lat": 38.906219166666666, "bike_id": "67015c512f654c3b4aea375dc6bf6175", "type": "electric_scooter", "is_reserved": 0, "lon": -77.02610883333334}, {"fusion_lat": 0.0, "name": "5325b57ee04055530a141e3b016f86d1", "is_disabled": 0, "rental_uris": {"android": "https://dc.lft.to/lastmile_qr_scan", "ios": "https://dc.lft.to/lastmile_qr_scan"}, "fusion_lon": 0.0, "lat": 38.88519433333333, "bike_id": "5325b57ee04055530a141e3b016f86d1", "type": "electric_scooter", "is_reserved": 0, "lon": -76.97717233333333}, {"fusion_lat": 0.0, "name": "879d1e1b02a3a5566bdf71ac55b2ceb3", "is_disabled": 0, "rental_uris": {"android": "https://dc.lft.to/lastmile_qr_scan", "ios": "https://dc.lft.to/lastmile_qr_scan"}, "fusion_lon": 0.0, "lat": 38.892180833333335, "bike_id": "879d1e1b02a3a5566bdf71ac55b2ceb3", "type": "electric_scooter", "is_reserved": 0, "lon": -77.026646}, {"fusion_lat": 0.0, "name": "112ed73538711bd7d69271fde8be4047", "is_disabled": 0, "rental_uris": {"android": "https://dc.lft.to/lastmile_qr_scan", "ios": "https://dc.lft.to/lastmile_qr_scan"}, "fusion_lon": 0.0, "lat": 38.844251666666665, "bike_id": "112ed73538711bd7d69271fde8be4047", "type": "electric_scooter", "is_reserved": 0, "lon": -76.99784333333334}, {"fusion_lat": 0.0, "name": "5f7c0a2b7a32e29c88d182840d741716", "is_disabled": 0, "rental_uris": {"android": "https://dc.lft.to/lastmile_qr_scan", "ios": "https://dc.lft.to/lastmile_qr_scan"}, "fusion_lon": 0.0, "lat": 38.911165833333335, "bike_id": "5f7c0a2b7a32e29c88d182840d741716", "type": "electric_scooter", "is_reserved": 0, "lon": -77.08135233333333}, {"fusion_lat": 0.0, "name": "ac48d1dd89798a3e9362b699f0a1292c", "is_disabled": 0, "rental_uris": {"android": "https://dc.lft.to/lastmile_qr_scan", "ios": "https://dc.lft.to/lastmile_qr_scan"}, "fusion_lon": 0.0, "lat": 38.897431, "bike_id": "ac48d1dd89798a3e9362b699f0a1292c", "type": "electric_scooter", "is_reserved": 0, "lon": -77.00372416666667}, {"fusion_lat": 0.0, "name": "dfc1ab9b71fa25ab5168648e4c840b39", "is_disabled": 0, "rental_uris": {"android": "https://dc.lft.to/lastmile_qr_scan", "ios": "https://dc.lft.to/lastmile_qr_scan"}, "fusion_lon": 0.0, "lat": 38.90779116666667, "bike_id": "dfc1ab9b71fa25ab5168648e4c840b39", "type": "electric_scooter", "is_reserved": 0, "lon": -77.0385125}, {"fusion_lat": 0.0, "name": "1a1a3fb14c64134a4af16b48c33e9561", "is_disabled": 0, "rental_uris": {"android": "https://dc.lft.to/lastmile_qr_scan", "ios": "https://dc.lft.to/lastmile_qr_scan"}, "fusion_lon": 0.0, "lat": 38.91316466666667, "bike_id": "1a1a3fb14c64134a4af16b48c33e9561", "type": "electric_scooter", "is_reserved": 0, "lon": -77.0197405}, {"fusion_lat": 0.0, "name": "e90e6a8fedd10ccf8389e133268cc3f8", "is_disabled": 0, "rental_uris": {"android": "https://dc.lft.to/lastmile_qr_scan", "ios": "https://dc.lft.to/lastmile_qr_scan"}, "fusion_lon": 0.0, "lat": 38.9224935, "bike_id": "e90e6a8fedd10ccf8389e133268cc3f8", "type": "electric_scooter", "is_reserved": 0, "lon": -77.04251166666667}, {"fusion_lat": 0.0, "name": "32b54fe6c3703c7bbfc7f69f88769f1b", "is_disabled": 0, "rental_uris": {"android": "https://dc.lft.to/lastmile_qr_scan", "ios": "https://dc.lft.to/lastmile_qr_scan"}, "fusion_lon": 0.0, "lat": 38.87394166666667, "bike_id": "32b54fe6c3703c7bbfc7f69f88769f1b", "type": "electric_scooter", "is_reserved": 0, "lon": -77.01451666666667}, {"fusion_lat": 0.0, "name": "d024cee2b14d18bdd36f41c494ec9d14", "is_disabled": 0, "rental_uris": {"android": "https://dc.lft.to/lastmile_qr_scan", "ios": "https://dc.lft.to/lastmile_qr_scan"}, "fusion_lon": 0.0, "lat": 38.887670166666666, "bike_id": "d024cee2b14d18bdd36f41c494ec9d14", "type": "electric_scooter", "is_reserved": 0, "lon": -77.0130495}, {"fusion_lat": 0.0, "name": "290f5c7748952ddd5494279a21f88300", "is_disabled": 0, "rental_uris": {"android": "https://dc.lft.to/lastmile_qr_scan", "ios": "https://dc.lft.to/lastmile_qr_scan"}, "fusion_lon": 0.0, "lat": 38.90137583333333, "bike_id": "290f5c7748952ddd5494279a21f88300", "type": "electric_scooter", "is_reserved": 0, "lon": -77.04176983333333}, {"fusion_lat": 0.0, "name": "b7201672a5f35c7b3b5132f817eabbfc", "is_disabled": 0, "rental_uris": {"android": "https://dc.lft.to/lastmile_qr_scan", "ios": "https://dc.lft.to/lastmile_qr_scan"}, "fusion_lon": 0.0, "lat": 38.9174795, "bike_id": "b7201672a5f35c7b3b5132f817eabbfc", "type": "electric_scooter", "is_reserved": 0, "lon": -77.01228316666666}, {"fusion_lat": 0.0, "name": "25d24e874a2a6fa3ab6e2e4d13734d13", "is_disabled": 0, "rental_uris": {"android": "https://dc.lft.to/lastmile_qr_scan", "ios": "https://dc.lft.to/lastmile_qr_scan"}, "fusion_lon": 0.0, "lat": 38.89323366666667, "bike_id": "25d24e874a2a6fa3ab6e2e4d13734d13", "type": "electric_bike", "is_reserved": 0, "lon": -76.9512875}, {"fusion_lat": 0.0, "name": "8abf9cce13302708300aa586d2ee241a", "is_disabled": 0, "rental_uris": {"android": "https://dc.lft.to/lastmile_qr_scan", "ios": "https://dc.lft.to/lastmile_qr_scan"}, "fusion_lon": 0.0, "lat": 38.920582, "bike_id": "8abf9cce13302708300aa586d2ee241a", "type": "electric_scooter", "is_reserved": 0, "lon": -77.02408933333334}, {"fusion_lat": 0.0, "name": "e2601ca11a9ee4cd5cbf9c978ac2a35f", "is_disabled": 0, "rental_uris": {"android": "https://dc.lft.to/lastmile_qr_scan", "ios": "https://dc.lft.to/lastmile_qr_scan"}, "fusion_lon": 0.0, "lat": 38.921096, "bike_id": "e2601ca11a9ee4cd5cbf9c978ac2a35f", "type": "electric_scooter", "is_reserved": 0, "lon": -77.04390033333334}, {"fusion_lat": 0.0, "name": "662133931ba8e08ad6de6e501d2543e9", "is_disabled": 0, "rental_uris": {"android": "https://dc.lft.to/lastmile_qr_scan", "ios": "https://dc.lft.to/lastmile_qr_scan"}, "fusion_lon": 0.0, "lat": 38.89716833333333, "bike_id": "662133931ba8e08ad6de6e501d2543e9", "type": "electric_scooter", "is_reserved": 0, "lon": -77.00796983333333}, {"fusion_lat": 0.0, "name": "2215eeb772d7cac82a9ab4761611136c", "is_disabled": 0, "rental_uris": {"android": "https://dc.lft.to/lastmile_qr_scan", "ios": "https://dc.lft.to/lastmile_qr_scan"}, "fusion_lon": 0.0, "lat": 38.931970666666665, "bike_id": "2215eeb772d7cac82a9ab4761611136c", "type": "electric_scooter", "is_reserved": 0, "lon": -77.0197225}, {"fusion_lat": 0.0, "name": "03210f649014cd8d08e1fb3107582d0b", "is_disabled": 0, "rental_uris": {"android": "https://dc.lft.to/lastmile_qr_scan", "ios": "https://dc.lft.to/lastmile_qr_scan"}, "fusion_lon": 0.0, "lat": 38.89738833333333, "bike_id": "03210f649014cd8d08e1fb3107582d0b", "type": "electric_scooter", "is_reserved": 0, "lon": -77.00370766666667}, {"fusion_lat": 0.0, "name": "ce891307f553368f808749bc1015ba65", "is_disabled": 0, "rental_uris": {"android": "https://dc.lft.to/lastmile_qr_scan", "ios": "https://dc.lft.to/lastmile_qr_scan"}, "fusion_lon": 0.0, "lat": 38.921129, "bike_id": "ce891307f553368f808749bc1015ba65", "type": "electric_scooter", "is_reserved": 0, "lon": -77.043953}, {"fusion_lat": 0.0, "name": "00b5575907c434e100ffa2541353792a", "is_disabled": 0, "rental_uris": {"android": "https://dc.lft.to/lastmile_qr_scan", "ios": "https://dc.lft.to/lastmile_qr_scan"}, "fusion_lon": 0.0, "lat": 38.897497666666666, "bike_id": "00b5575907c434e100ffa2541353792a", "type": "electric_scooter", "is_reserved": 0, "lon": -76.94186516666667}, {"fusion_lat": 0.0, "name": "dddb1852eec42dbc9be556a8cc7c982a", "is_disabled": 0, "rental_uris": {"android": "https://dc.lft.to/lastmile_qr_scan", "ios": "https://dc.lft.to/lastmile_qr_scan"}, "fusion_lon": 0.0, "lat": 38.92678016666667, "bike_id": "dddb1852eec42dbc9be556a8cc7c982a", "type": "electric_scooter", "is_reserved": 0, "lon": -77.030998}, {"fusion_lat": 0.0, "name": "4f0ee3ffef1f79fc737dd549098d619f", "is_disabled": 0, "rental_uris": {"android": "https://dc.lft.to/lastmile_qr_scan", "ios": "https://dc.lft.to/lastmile_qr_scan"}, "fusion_lon": 0.0, "lat": 38.887516, "bike_id": "4f0ee3ffef1f79fc737dd549098d619f", "type": "electric_scooter", "is_reserved": 0, "lon": -76.9936975}, {"fusion_lat": 0.0, "name": "dbc2fc0fb6d1f39ae21e82ed23d98a83", "is_disabled": 0, "rental_uris": {"android": "https://dc.lft.to/lastmile_qr_scan", "ios": "https://dc.lft.to/lastmile_qr_scan"}, "fusion_lon": 0.0, "lat": 38.9326095, "bike_id": "dbc2fc0fb6d1f39ae21e82ed23d98a83", "type": "electric_scooter", "is_reserved": 0, "lon": -77.0209535}, {"fusion_lat": 0.0, "name": "5d0cdbedc8c056dd4acfb3ae77675c51", "is_disabled": 0, "rental_uris": {"android": "https://dc.lft.to/lastmile_qr_scan", "ios": "https://dc.lft.to/lastmile_qr_scan"}, "fusion_lon": 0.0, "lat": 38.921710833333336, "bike_id": "5d0cdbedc8c056dd4acfb3ae77675c51", "type": "electric_scooter", "is_reserved": 0, "lon": -77.04251616666667}, {"fusion_lat": 0.0, "name": "d083ab82109ef1655437847b9e972f19", "is_disabled": 0, "rental_uris": {"android": "https://dc.lft.to/lastmile_qr_scan", "ios": "https://dc.lft.to/lastmile_qr_scan"}, "fusion_lon": 0.0, "lat": 38.89665266666667, "bike_id": "d083ab82109ef1655437847b9e972f19", "type": "electric_scooter", "is_reserved": 0, "lon": -77.02461566666666}, {"fusion_lat": 0.0, "name": "e323e84e965cc029e164da24fcbe2d0f", "is_disabled": 0, "rental_uris": {"android": "https://dc.lft.to/lastmile_qr_scan", "ios": "https://dc.lft.to/lastmile_qr_scan"}, "fusion_lon": 0.0, "lat": 38.913979, "bike_id": "e323e84e965cc029e164da24fcbe2d0f", "type": "electric_scooter", "is_reserved": 0, "lon": -77.07555083333334}, {"fusion_lat": 0.0, "name": "227eba09b9d6b5712be7bb11facafaf4", "is_disabled": 0, "rental_uris": {"android": "https://dc.lft.to/lastmile_qr_scan", "ios": "https://dc.lft.to/lastmile_qr_scan"}, "fusion_lon": 0.0, "lat": 38.922847166666664, "bike_id": "227eba09b9d6b5712be7bb11facafaf4", "type": "electric_scooter", "is_reserved": 0, "lon": -77.03666766666667}, {"fusion_lat": 0.0, "name": "e3b2eed5a72169e3a25f6b880b3f9c6b", "is_disabled": 0, "rental_uris": {"android": "https://dc.lft.to/lastmile_qr_scan", "ios": "https://dc.lft.to/lastmile_qr_scan"}, "fusion_lon": 0.0, "lat": 38.91777783333333, "bike_id": "e3b2eed5a72169e3a25f6b880b3f9c6b", "type": "electric_scooter", "is_reserved": 0, "lon": -77.03583083333334}, {"fusion_lat": 0.0, "name": "f1a6c1329555a34ea6063a133d3fd201", "is_disabled": 0, "rental_uris": {"android": "https://dc.lft.to/lastmile_qr_scan", "ios": "https://dc.lft.to/lastmile_qr_scan"}, "fusion_lon": 0.0, "lat": 38.899505166666664, "bike_id": "f1a6c1329555a34ea6063a133d3fd201", "type": "electric_scooter", "is_reserved": 0, "lon": -77.05711566666666}, {"fusion_lat": 0.0, "name": "9053e561cd0adec05e873af9e0cfe2d8", "is_disabled": 0, "rental_uris": {"android": "https://dc.lft.to/lastmile_qr_scan", "ios": "https://dc.lft.to/lastmile_qr_scan"}, "fusion_lon": 0.0, "lat": 38.8874355, "bike_id": "9053e561cd0adec05e873af9e0cfe2d8", "type": "electric_scooter", "is_reserved": 0, "lon": -77.02140433333334},