{"data": {"bikes": [{"bike_id": "08b5b23641c38279423134263f31b847", "fusion_lon": 0.0, "lon": -77.035056, "name": "08b5b23641c38279423134263f31b847", "is_disabled": 0, "rental_uris": {"android": "https://dc.lft.to/lastmile_qr_scan", "ios": "https://dc.lft.to/lastmile_qr_scan"}, "type": "electric_bike", "lat": 38.9375915, "is_reserved": 0, "fusion_lat": 0.0}, {"bike_id": "3946a94116210b369c83442151eaf277", "fusion_lon": 0.0, "lon": -77.00886866666667, "name": "3946a94116210b369c83442151eaf277", "is_disabled": 0, "rental_uris": {"android": "https://dc.lft.to/lastmile_qr_scan", "ios": "https://dc.lft.to/lastmile_qr_scan"}, "type": "electric_scooter", "lat": 38.92488616666667, "is_reserved": 0, "fusion_lat": 0.0}, {"bike_id": "852a804c7f344d46e4e1c2b86b35187c", "fusion_lon": 0.0, "lon": -76.993949, "name": "852a804c7f344d46e4e1c2b86b35187c", "is_disabled": 0, "rental_uris": {"android": "https://dc.lft.to/lastmile_qr_scan", "ios": "https://dc.lft.to/lastmile_qr_scan"}, "type": "electric_scooter", "lat": 38.9217695, "is_reserved": 0, "fusion_lat": 0.0}, {"bike_id": "96ecbc6ad7e1d3ddd1b41d7e7d45ba33", "fusion_lon": 0.0, "lon": -77.03214933333334, "name": "96ecbc6ad7e1d3ddd1b41d7e7d45ba33", "is_disabled": 0, "rental_uris": {"android": "https://dc.lft.to/lastmile_qr_scan", "ios": "https://dc.lft.to/lastmile_qr_scan"}, "type": "electric_bike", "lat": 38.9331835, "is_reserved": 0, "fusion_lat": 0.0}, {"bike_id": "26617604a2e5e4650dd9c11434a93900", "fusion_lon": 0.0, "lon": -76.96054233333334, "name": "26617604a2e5e4650dd9c11434a93900", "is_disabled": 0, "rental_uris": {"android": "https://dc.lft.to/lastmile_qr_scan", "ios": "https://dc.lft.to/lastmile_qr_scan"}, "type": "electric_bike", "lat": 38.884076666666665, "is_reserved": 0, "fusion_lat": 0.0}, {"bike_id": "a7cdbee33008a7ccdaea3e6504848662", "fusion_lon": 0.0, "lon": -77.0452625, "name": "a7cdbee33008a7ccdaea3e6504848662", "is_disabled": 0, "rental_uris": {"android": "https://dc.lft.to/lastmile_qr_scan", "ios": "https://dc.lft.to/lastmile_qr_scan"}, "type": "electric_scooter", "lat": 38.91331316666667, "is_reserved": 0, "fusion_lat": 0.0}, {"bike_id": "8eb9a76d8a9c04b7b5fe7aeedd61094e", "fusion_lon": 0.0, "lon": -77.01669316666667, "name": "8eb9a76d8a9c04b7b5fe7aeedd61094e", "is_disabled": 0, "rental_uris": {"android": "https://dc.lft.to/lastmile_qr_scan", "ios": "https://dc.lft.to/lastmile_qr_scan"}, "type": "electric_scooter", "lat": 38.8813745, "is_reserved": 0, "fusion_lat": 0.0}, {"bike_id": "bf59d091a8a2484f971808cfa2a886bf", "fusion_lon": 0.0, "lon": -77.012071, "name": "bf59d091a8a2484f971808cfa2a886bf", "is_disabled": 0, "rental_uris": {"android": "https://dc.lft.to/lastmile_qr_scan", "ios": "https://dc.lft.to/lastmile_qr_scan"}, "type": "electric_scooter", "lat": 38.870949, "is_reserved": 0, "fusion_lat": 0.0}, {"bike_id": "98d81a6a0afa020c145bfc909d6345ad", "fusion_lon": 0.0, "lon": -77.04891716666667, "name": "98d81a6a0afa020c145bfc909d6345ad", "is_disabled": 0, "rental_uris": {"android": "https://dc.lft.to/lastmile_qr_scan", "ios": "https://dc.lft.to/lastmile_qr_scan"}, "type": "electric_scooter", "lat": 38.9009035, "is_reserved": 0, "fusion_lat": 0.0}, {"bike_id": "3ebe5cfcc274dfa47c8dd7d815bf621d", "fusion_lon": 0.0, "lon": -77.05923833333334, "name": "3ebe5cfcc274dfa47c8dd7d815bf621d", "is_disabled": 0, "rental_uris": {"android": "https://dc.lft.to/lastmile_qr_scan", "ios": "https://dc.lft.to/lastmile_qr_scan"}, "type": "electric_scooter", "lat": 38.909480333333335, "is_reserved": 0, "fusion_lat": 0.0}, {"bike_id": "dfc6bed8ac9f45bf43485fedc5124f7b", "fusion_lon": 0.0, "lon": -77.03361866666667, "name": "dfc6bed8ac9f45bf43485fedc5124f7b", "is_disabled": 0, "rental_uris": {"android": "https://dc.lft.to/lastmile_qr_scan", "ios": "https://dc.lft.to/lastmile_qr_scan"}, "type": "electric_scooter", "lat": 38.928787, "is_reserved": 0, "fusion_lat": 0.0}, {"bike_id": "9280d6ecb58556ffd2966319fac54070", "fusion_lon": 0.0, "lon": -77.014921, "name": "9280d6ecb58556ffd2966319fac54070", "is_disabled": 0, "rental_uris": {"android": "https://dc.lft.to/lastmile_qr_scan", "ios": "https://dc.lft.to/lastmile_qr_scan"}, "type": "electric_scooter", "lat": 38.899255833333335, "is_reserved": 0, "fusion_lat": 0.0}, {"bike_id": "757c15f6db23a5d418c4a3fc7201e33e", "fusion_lon": 0.0, "lon": -77.06745316666667, "name": "757c15f6db23a5d418c4a3fc7201e33e", "is_disabled": 0, "rental_uris": {"android": "https://dc.lft.to/lastmile_qr_scan", "ios": "https://dc.lft.to/lastmile_qr_scan"}, "type": "electric_scooter", "lat": 38.915653666666664, "is_reserved": 0, "fusion_lat": 0.0}, {"bike_id": "9bd2213b0dc97d98b3a48d74a52c16a6", "fusion_lon": 0.0, "lon": -77.02388966666666, "name": "9bd2213b0dc97d98b3a48d74a52c16a6", "is_disabled": 0, "rental_uris": {"android": "https://dc.lft.to/lastmile_qr_scan", "ios": "https://dc.lft.to/lastmile_qr_scan"}, "type": "electric_scooter", "lat": 38.907492500000004, "is_reserved": 0, "fusion_lat": 0.0}, {"bike_id": "d191bb949c5ba181e7e9f6c528a8e355", "fusion_lon": 0.0, "lon": -77.03321216666667, "name": "d191bb949c5ba181e7e9f6c528a8e355", "is_disabled": 0, "rental_uris": {"android": "https://dc.lft.to/lastmile_qr_scan", "ios": "https://dc.lft.to/lastmile_qr_scan"}, "type": "electric_scooter", "lat": 38.902913166666664, "is_reserved": 0, "fusion_lat": 0.0}, {"bike_id": "db761430a2a4c2f3e56b701db79e6f35", "fusion_lon": 0.0, "lon": -77.037067, "name": "db761430a2a4c2f3e56b701db79e6f35", "is_disabled": 0, "rental_uris": {"android": "https://dc.lft.to/lastmile_qr_scan", "ios": "https://dc.lft.to/lastmile_qr_scan"}, "type": "electric_scooter", "lat": 38.926438833333336, "is_reserved": 0, "fusion_lat": 0.0}, {"bike_id": "714da8762cf89cc25fa76567208fb5ed", "fusion_lon": 0.0, "lon": -77.029082, "name": "714da8762cf89cc25fa76567208fb5ed", "is_disabled": 0, "rental_uris": {"android": "https://dc.lft.to/lastmile_qr_scan", "ios": "https://dc.lft.to/lastmile_qr_scan"}, "type": "electric_scooter", "lat": 38.92571266666667, "is_reserved": 0, "fusion_lat": 0.0}, {"bike_id": "6cc5859f9ab90ec49a61e01385172edf", "fusion_lon": 0.0, "lon": -77.0236605, "name": "6cc5859f9ab90ec49a61e01385172edf", "is_disabled": 0, "rental_uris": {"android": "https://dc.lft.to/lastmile_qr_scan", "ios": "https://dc.lft.to/lastmile_qr_scan"}, "type": "electric_scooter", "lat": 38.89223716666667, "is_reserved": 0, "fusion_lat": 0.0}, {"bike_id": "12a5b4ec467f5d304d15c0f5f0a31c6a", "fusion_lon": 0.0, "lon": -77.04102516666667, "name": "12a5b4ec467f5d304d15c0f5f0a31c6a", "is_disabled": 0, "rental_uris": {"android": "https://dc.lft.to/lastmile_qr_scan", "ios": "https://dc.lft.to/lastmile_qr_scan"}, "type": "electric_scooter", "lat": 38.905019, "is_reserved": 0, "fusion_lat": 0.0}, {"bike_id": "c51139fabeff109428b752c5f1ff91f0", "fusion_lon": 0.0, "lon": -77.00717816666666, "name": "c51139fabeff109428b752c5f1ff91f0", "is_disabled": 0, "rental_uris": {"android": "https://dc.lft.to/lastmile_qr_scan", "ios": "https://dc.lft.to/lastmile_qr_scan"}, "type": "electric_scooter", "lat": 38.89804983333333, "is_reserved": 0, "fusion_lat": 0.0}, {"bike_id": "57e6c1d9ddd3a64ffc94b5d7b122e3f3", "fusion_lon": 0.0, "lon": -77.00068566666667, "name": "57e6c1d9ddd3a64ffc94b5d7b122e3f3", "is_disabled": 0, "rental_uris": {"android": "https://dc.lft.to/lastmile_qr_scan", "ios": "https://dc.lft.to/lastmile_qr_scan"}, "type": "electric_scooter", "lat": 38.925556, "is_reserved": 0, "fusion_lat": 0.0}, {"bike_id": "a8fa85e6c4673195a348721a461e0885", "fusion_lon": 0.0, "lon": -77.00934716666667, "name": "a8fa85e6c4673195a348721a461e0885", "is_disabled": 0, "rental_uris": {"android": "https://dc.lft.to/lastmile_qr_scan", "ios": "https://dc.lft.to/lastmile_qr_scan"}, "type": "electric_scooter", "lat": 38.91813333333333, "is_reserved": 0, "fusion_lat": 0.0}, {"bike_id": "e3765158b263f1b2bb6f05a7e31b47ec", "fusion_lon": 0.0, "lon": -77.032197, "name": "e3765158b263f1b2bb6f05a7e31b47ec", "is_disabled": 0, "rental_uris": {"android": "https://dc.lft.to/lastmile_qr_scan", "ios": "https://dc.lft.to/lastmile_qr_scan"}, "type": "electric_scooter", "lat": 38.9155385, "is_reserved": 0, "fusion_lat": 0.0}, {"bike_id": "89bda464d9d5b8873089b296d3d1843e", "fusion_lon": 0.0, "lon": -77.02306, "name": "89bda464d9d5b8873089b296d3d1843e", "is_disabled": 0, "rental_uris": {"android": "https://dc.lft.to/lastmile_qr_scan", "ios": "https://dc.lft.to/lastmile_qr_scan"}, "type": "electric_scooter", "lat": 38.90960066666667, "is_reserved": 0, "fusion_lat": 0.0}, {"bike_id": "31e3f091d097cbb4d8324b51883800b7", "fusion_lon": 0.0, "lon": -76.93187433333334, "name": "31e3f091d097cbb4d8324b51883800b7", "is_disabled": 0, "rental_uris": {"android": "https://dc.lft.to/lastmile_qr_scan", "ios": "https://dc.lft.to/lastmile_qr_scan"}, "type": "electric_scooter", "lat": 38.89881316666666, "is_reserved": 0, "fusion_lat": 0.0}, {"bike_id": "aabd47656cc2d67aef3ef1327800889e", "fusion_lon": 0.0, "lon": -77.02714766666666, "name": "aabd47656cc2d67aef3ef1327800889e", "is_disabled": 0, "rental_uris": {"android": "https://dc.lft.to/lastmile_qr_scan", "ios": "https://dc.lft.to/lastmile_qr_scan"}, "type": "electric_scooter", "lat": 38.90080366666667, "is_reserved": 0, "fusion_lat": 0.0}, {"bike_id": "7632fc2bea34ec4a4eb834ed1ad89864", "fusion_lon": 0.0, "lon": -77.02412916666667, "name": "7632fc2bea34ec4a4eb834ed1ad89864", "is_disabled": 0, "rental_uris": {"android": "https://dc.lft.to/lastmile_qr_scan", "ios": "https://dc.lft.to/lastmile_qr_scan"}, "type": "electric_scooter", "lat": 38.9219655, "is_reserved": 0, "fusion_lat": 0.0}, {"bike_id": "2f2a9ad3d796baa2051d6019f6975383", "fusion_lon": 0.0, "lon": -77.03467766666667, "name": "2f2a9ad3d796baa2051d6019f6975383", "is_disabled": 0, "rental_uris": {"android": "https://dc.lft.to/lastmile_qr_scan", "ios": "https://dc.lft.to/lastmile_qr_scan"}, "type": "electric_scooter", "lat": 38.908701666666666, "is_reserved": 0, "fusion_lat": 0.0}, {"bike_id": "1dbc12dcceb8aeadfd47b32f09415a0d", "fusion_lon": 0.0, "lon": -76.9653965, "name": "1dbc12dcceb8aeadfd47b32f09415a0d", "is_disabled": 0, "rental_uris": {"android": "https://dc.lft.to/lastmile_qr_scan", "ios": "https://dc.lft.to/lastmile_qr_scan"}, "type": "electric_scooter", "lat": 38.91853016666666, "is_reserved": 0, "fusion_lat": 0.0}, {"bike_id": "6e1f190244ca27c4c96e38692df34245", "fusion_lon": 0.0, "lon": -77.10132, "name": "6e1f190244ca27c4c96e38692df34245", "is_disabled": 0, "rental_uris": {"android": "https://dc.lft.to/lastmile_qr_scan", "ios": "https://dc.lft.to/lastmile_qr_scan"}, "type": "electric_bike", "lat": 38.85211483333333, "is_reserved": 0, "fusion_lat": 0.0}, {"bike_id": "222a22723e3197cb1272321eed01d3a1", "fusion_lon": 0.0, "lon": -77.0307975, "name": "222a22723e3197cb1272321eed01d3a1", "is_disabled": 0, "rental_uris": {"android": "https://dc.lft.to/lastmile_qr_scan", "ios": "https://dc.lft.to/lastmile_qr_scan"}, "type": "electric_scooter", "lat": 38.922509833333336, "is_reserved": 0, "fusion_lat": 0.0}, {"bike_id": "834a3a7e5b0a8d3e2383930970ee4f69", "fusion_lon": 0.0, "lon": -77.00585416666667, "name": "834a3a7e5b0a8d3e2383930970ee4f69", "is_disabled": 0, "rental_uris": {"android": "https://dc.lft.to/lastmile_qr_scan", "ios": "https://dc.lft.to/lastmile_qr_scan"}, "type": "electric_scooter", "lat": 38.90555883333333, "is_reserved": 0, "fusion_lat": 0.0}, {"bike_id": "8c22908387d733305251d9ffd905fa89", "fusion_lon": 0.0, "lon": -77.11313933333334, "name": "8c22908387d733305251d9ffd905fa89", "is_disabled": 0, "rental_uris": {"android": "https://dc.lft.to/lastmile_qr_scan", "ios": "https://dc.lft.to/lastmile_qr_scan"}, "type": "electric_bike", "lat": 38.831508666666664, "is_reserved": 0, "fusion_lat": 0.0}, {"bike_id": "adf92fe01f3c16095e60094c1ee9ad83", "fusion_lon": 0.0, "lon": -77.0283605, "name": "adf92fe01f3c16095e60094c1ee9ad83", "is_disabled": 0, "rental_uris": {"android": "https://dc.lft.to/lastmile_qr_scan", "ios": "https://dc.lft.to/lastmile_qr_scan"}, "type": "electric_scooter", "lat": 38.92486783333333, "is_reserved": 0, "fusion_lat": 0.0}, {"bike_id": "00a5db4d185e9b93916a667506900a6e", "fusion_lon": 0.0, "lon": -77.20841016666667, "name": "00a5db4d185e9b93916a667506900a6e", "is_disabled": 0, "rental_uris": {"android": "https://dc.lft.to/lastmile_qr_scan", "ios": "https://dc.lft.to/lastmile_qr_scan"}, "type": "electric_bike", "lat": 38.9246705, "is_reserved": 0, "fusion_lat": 0.0}, {"bike_id": "75ab28d4da68acee0f98032db0404364", "fusion_lon": 0.0, "lon": -77.01136883333334, "name": "75ab28d4da68acee0f98032db0404364", "is_disabled": 0, "rental_uris": {"android": "https://dc.lft.to/lastmile_qr_scan", "ios": "https://dc.lft.to/lastmile_qr_scan"}, "type": "electric_scooter", "lat": 38.906489, "is_reserved": 0, "fusion_lat": 0.0}, {"bike_id": "32b8d66dbcb415ed02bbca8781e9a684", "fusion_lon": 0.0, "lon": -77.01448816666667, "name": "32b8d66dbcb415ed02bbca8781e9a684", "is_disabled": 0, "rental_uris": {"android": "https://dc.lft.to/lastmile_qr_scan", "ios": "https://dc.lft.to/lastmile_qr_scan"}, "type": "electric_scooter", "lat": 38.91773883333333, "is_reserved": 0, "fusion_lat": 0.0}, {"bike_id": "dd1c0e4019c9d130ef2d5f2228f859fd", "fusion_lon": 0.0, "lon": -77.113096, "name": "dd1c0e4019c9d130ef2d5f2228f859fd", "is_disabled": 0, "rental_uris": {"android": "https://dc.lft.to/lastmile_qr_scan", "ios": "https://dc.lft.to/lastmile_qr_scan"}, "type": "electric_bike", "lat": 38.85570383333334, "is_reserved": 0, "fusion_lat": 0.0}, {"bike_id": "b9281e14c55faa42a377e7269bd78325", "fusion_lon": 0.0, "lon": -77.03662883333334, "name": "b9281e14c55faa42a377e7269bd78325", "is_disabled": 0, "rental_uris": {"android": "https://dc.lft.to/lastmile_qr_scan", "ios": "https://dc.lft.to/lastmile_qr_scan"}, "type": "electric_scooter", "lat": 38.93632733333333, "is_reserved": 0, "fusion_lat": 0.0}, {"bike_id": "ccd1ab8945e83b07b3cb5f12a3fb3cce", "fusion_lon": 0.0, "lon": -76.99705333333333, "name": "ccd1ab8945e83b07b3cb5f12a3fb3cce", "is_disabled": 0, "rental_uris": {"android": "https://dc.lft.to/lastmile_qr_scan", "ios": "https://dc.lft.to/lastmile_qr_scan"}, "type": "electric_scooter", "lat": 38.92197683333333, "is_reserved": 0, "fusion_lat": 0.0}, {"bike_id": "c155b27501a7235c021446ea5eca0309", "fusion_lon": 0.0, "lon": -77.02042183333333, "name": "c155b27501a7235c021446ea5eca0309", "is_disabled": 0, "rental_uris": {"android": "https://dc.lft.to/lastmile_qr_scan", "ios": "https://dc.lft.to/lastmile_qr_scan"}, "type": "electric_scooter", "lat": 38.908557, "is_reserved": 0, "fusion_lat": 0.0}, {"bike_id": "ddc58762a5c33420977c0659ff6451c6", "fusion_lon": 0.0, "lon": -77.03842, "name": "ddc58762a5c33420977c0659ff6451c6", "is_disabled": 0, "rental_uris": {"android": "https://dc.lft.to/lastmile_qr_scan", "ios": "https://dc.lft.to/lastmile_qr_scan"}, "type": "electric_scooter", "lat": 38.911072, "is_reserved": 0, "fusion_lat": 0.0}, {"bike_id": "2ebb706de16bf70dcbf3f2da66fce591", "fusion_lon": 0.0, "lon": -76.98030866666667, "name": "2ebb706de16bf70dcbf3f2da66fce591", "is_disabled": 0, "rental_uris": {"android": "https://dc.lft.to/lastmile_qr_scan", "ios": "https://dc.lft.to/lastmile_qr_scan"}, "type": "electric_scooter", "lat": 38.853417, "is_reserved": 0, "fusion_lat": 0.0}, {"bike_id": "099b982ace0a63e2e8de069838a7b3bc", "fusion_lon": 0.0, "lon": -77.048676, "name": "099b982ace0a63e2e8de069838a7b3bc", "is_disabled": 0, "rental_uris": {"android": "https://dc.lft.to/lastmile_qr_scan", "ios": "https://dc.lft.to/lastmile_qr_scan"}, "type": "electric_scooter", "lat": 38.892269666666664, "is_reserved": 0, "fusion_lat": 0.0}, {"bike_id": "4c60802ce0bed59c3a11e6581454bf7f", "fusion_lon": 0.0, "lon": -76.99267266666666, "name": "4c60802ce0bed59c3a11e6581454bf7f", "is_disabled": 0, "rental_uris": {"android": "https://dc.lft.to/lastmile_qr_scan", "ios": "https://dc.lft.to/lastmile_qr_scan"}, "type": "electric_scooter", "lat": 38.903925, "is_reserved": 0, "fusion_lat": 0.0}, {"bike_id": "1587bee33115cc154198892b77eb50ea", "fusion_lon": 0.0, "lon": -77.047007, "name": "1587bee33115cc154198892b77eb50ea", "is_disabled": 0, "rental_uris": {"android": "https://dc.lft.to/lastmile_qr_scan", "ios": "https://dc.lft.to/lastmile_qr_scan"}, "type": "electric_scooter", "lat": 38.9210715, "is_reserved": 0, "fusion_lat": 0.0}, {"bike_id": "3aaaff319b2e022b653b3185a009bed6", "fusion_lon": 0.0, "lon": -77.0194725, "name": "3aaaff319b2e022b653b3185a009bed6", "is_disabled": 0, "rental_uris": {"android": "https://dc.lft.to/lastmile_qr_scan", "ios": "https://dc.lft.to/lastmile_qr_scan"}, "type": "electric_scooter", "lat": 38.924219666666666, "is_reserved": 0, "fusion_lat": 0.0}, {"bike_id": "3c5e752761193d37a4ae45a8335dbc92", "fusion_lon": 0.0, "lon": -77.0400835, "name": "3c5e752761193d37a4ae45a8335dbc92", "is_disabled": 0, "rental_uris": {"android": "https://dc.lft.to/lastmile_qr_scan", "ios": "https://dc.lft.to/lastmile_qr_scan"}, "type": "electric_scooter", "lat": 38.9100445, "is_reserved": 0, "fusion_lat": 0.0}, {"bike_id": "4b96cbf8a12e497b0cbcdbd3c1799bf7", "fusion_lon": 0.0, "lon": -77.03515533333334, "name": "4b96cbf8a12e497b0cbcdbd3c1799bf7", "is_disabled": 0, "rental_uris": {"android": "https://dc.lft.to/lastmile_qr_scan", "ios": "https://dc.lft.to/lastmile_qr_scan"}, "type": "electric_scooter", "lat": 38.92222433333333, "is_reserved": 0, "fusion_lat": 0.0}, {"bike_id": "de259e839d5b610d4c5f9ab2e051d490", "fusion_lon": 0.0, "lon": -77.0073175, "name": "de259e839d5b610d4c5f9ab2e051d490", "is_disabled": 0, "rental_uris": {"android": "https://dc.lft.to/lastmile_qr_scan", "ios": "https://dc.lft.to/lastmile_qr_scan"}, "type": "electric_scooter", "lat": 38.910272666666664, "is_reserved": 0, "fusion_lat": 0.0}, {"bike_id": "8e6fdc2e9a5cc0c9a77eda7e61c21408", "fusion_lon": 0.0, "lon": -77.0021065, "name": "8e6fdc2e9a5cc0c9a77eda7e61c21408", "is_disabled": 0, "rental_uris": {"android": "https://dc.lft.to/lastmile_qr_scan", "ios": "https://dc.lft.to/lastmile_qr_scan"}, "type": "electric_scooter", "lat": 38.90954266666667, "is_reserved": 0, "fusion_lat": 0.0}, {"bike_id": "6893cc44496b0a3ff4096fb83a69126c", "fusion_lon": 0.0, "lon": -77.02293983333334, "name": "6893cc44496b0a3ff4096fb83a69126c", "is_disabled": 0, "rental_uris": {"android": "https://dc.lft.to/lastmile_qr_scan", "ios": "https://dc.lft.to/lastmile_qr_scan"}, "type": "electric_bike", "lat": 38.9232885, "is_reserved": 0, "fusion_lat": 0.0}, {"bike_id": "d4c69bba7f6fde6864c4efcae196e0be", "fusion_lon": 0.0, "lon": -77.03415366666667, "name": "d4c69bba7f6fde6864c4efcae196e0be", "is_disabled": 0, "rental_uris": {"android": "https://dc.lft.to/lastmile_qr_scan", "ios": "https://dc.lft.to/lastmile_qr_scan"}, "type": "electric_scooter", "lat": 38.92241883333333, "is_reserved": 0, "fusion_lat": 0.0}, {"bike_id": "6d47a38ba9e552efb1434ef7377a20b3", "fusion_lon": 0.0, "lon": -76.99733666666667, "name": "6d47a38ba9e552efb1434ef7377a20b3", "is_disabled": 0, "rental_uris": {"android": "https://dc.lft.to/lastmile_qr_scan", "ios": "https://dc.lft.to/lastmile_qr_scan"}, "type": "electric_scooter", "lat": 38.901369333333335, "is_reserved": 0, "fusion_lat": 0.0}, {"bike_id": "0993435ff635dbcc246e4b2da2d7fa40", "fusion_lon": 0.0, "lon": -76.94190183333333, "name": "0993435ff635dbcc246e4b2da2d7fa40", "is_disabled": 0, "rental_uris": {"android": "https://dc.lft.to/lastmile_qr_scan", "ios": "https://dc.lft.to/lastmile_qr_scan"}, "type": "electric_scooter", "lat": 38.897546, "is_reserved": 0, "fusion_lat": 0.0}, {"bike_id": "f0d5929b8128c431ec85e1ac65e96ee7", "fusion_lon": 0.0, "lon": -77.04188983333333, "name": "f0d5929b8128c431ec85e1ac65e96ee7", "is_disabled": 0, "rental_uris": {"android": "https://dc.lft.to/lastmile_qr_scan", "ios": "https://dc.lft.to/lastmile_qr_scan"}, "type": "electric_scooter", "lat": 38.893625, "is_reserved": 0, "fusion_lat": 0.0}, {"bike_id": "7f04111581e0cb7a16d579fa16e500fe", "fusion_lon": 0.0, "lon": -77.12024533333333, "name": "7f04111581e0cb7a16d579fa16e500fe", "is_disabled": 0, "rental_uris": {"android": "https://dc.lft.to/lastmile_qr_scan", "ios": "https://dc.lft.to/lastmile_qr_scan"}, "type": "electric_bike", "lat": 38.855127333333336, "is_reserved": 0, "fusion_lat": 0.0}, {"bike_id": "27cd7cd52627af602a2d38e5c01d2329", "fusion_lon": 0.0, "lon": -77.031775, "name": "27cd7cd52627af602a2d38e5c01d2329", "is_disabled": 0, "rental_uris": {"android": "https://dc.lft.to/lastmile_qr_scan", "ios": "https://dc.lft.to/lastmile_qr_scan"}, "type": "electric_scooter", "lat": 38.901452166666665, "is_reserved": 0, "fusion_lat": 0.0}, {"bike_id": "bbe93a300813685371cd3eebd5a2c433", "fusion_lon": 0.0, "lon": -77.03351166666667, "name": "bbe93a300813685371cd3eebd5a2c433", "is_disabled": 0, "rental_uris": {"android": "https://dc.lft.to/lastmile_qr_scan", "ios": "https://dc.lft.to/lastmile_qr_scan"}, "type": "electric_scooter", "lat": 38.9073235, "is_reserved": 0, "fusion_lat": 0.0}, {"bike_id": "87589d9ffea311d8b5926b7ed801be0e", "fusion_lon": 0.0, "lon": -77.01908883333333, "name": "87589d9ffea311d8b5926b7ed801be0e", "is_disabled": 0, "rental_uris": {"android": "https://dc.lft.to/lastmile_qr_scan", "ios": "https://dc.lft.to/lastmile_qr_scan"}, "type": "electric_scooter", "lat": 38.923756833333336, "is_reserved": 0, "fusion_lat": 0.0}, {"bike_id": "67660c7544ae6ae1f3f12e74260b5c83", "fusion_lon": 0.0, "lon": -77.02448716666666, "name": "67660c7544ae6ae1f3f12e74260b5c83", "is_disabled": 0, "rental_uris": {"android": "https://dc.lft.to/lastmile_qr_scan", "ios": "https://dc.lft.to/lastmile_qr_scan"}, "type": "electric_scooter", "lat": 38.912681, "is_reserved": 0, "fusion_lat": 0.0}, {"bike_id": "44a9f5a45cff67f24a5d23f24d5401e3", "fusion_lon": 0.0, "lon": -77.0141745, "name": "44a9f5a45cff67f24a5d23f24d5401e3", "is_disabled": 0, "rental_uris": {"android": "https://dc.lft.to/lastmile_qr_scan", "ios": "https://dc.lft.to/lastmile_qr_scan"}, "type": "electric_scooter", "lat": 38.9286325, "is_reserved": 0, "fusion_lat": 0.0}, {"bike_id": "2e6ed558e4780b8c71a9b5e7104dde1a", "fusion_lon": 0.0, "lon": -77.023905, "name": "2e6ed558e4780b8c71a9b5e7104dde1a", "is_disabled": 0, "rental_uris": {"android": "https://dc.lft.to/lastmile_qr_scan", "ios": "https://dc.lft.to/lastmile_qr_scan"}, "type": "electric_scooter", "lat": 38.9152615, "is_reserved": 0, "fusion_lat": 0.0}, {"bike_id": "b12210f5dd4eada293c637bafbd8b2ff", "fusion_lon": 0.0, "lon": -77.06002316666667, "name": "b12210f5dd4eada293c637bafbd8b2ff", "is_disabled": 0, "rental_uris": {"android": "https://dc.lft.to/lastmile_qr_scan", "ios": "https://dc.lft.to/lastmile_qr_scan"}, "type": "electric_scooter", "lat": 38.90173733333334, "is_reserved": 0, "fusion_lat": 0.0}, {"bike_id": "1c6061599b9c401e9e8eaa7ab9882e15", "fusion_lon": 0.0, "lon": -76.99899766666667, "name": "1c6061599b9c401e9e8eaa7ab9882e15", "is_disabled": 0, "rental_uris": {"android": "https://dc.lft.to/lastmile_qr_scan", "ios": "https://dc.lft.to/lastmile_qr_scan"}, "type": "electric_scooter", "lat": 38.948260833333336, "is_reserved": 0, "fusion_lat": 0.0}, {"bike_id": "c445a7092ca99fc2aac6fe0d78f6fb9e", "fusion_lon": 0.0, "lon": -76.986905, "name": "c445a7092ca99fc2aac6fe0d78f6fb9e", "is_disabled": 0, "rental_uris": {"android": "https://dc.lft.to/lastmile_qr_scan", "ios": "https://dc.lft.to/lastmile_qr_scan"}, "type": "electric_bike", "lat": 38.9447665, "is_reserved": 0, "fusion_lat": 0.0}, {"bike_id": "4f990991022b1ec184b36deebf3db467", "fusion_lon": 0.0, "lon": -76.98714166666667, "name": "4f990991022b1ec184b36deebf3db467", "is_disabled": 0, "rental_uris": {"android": "https://dc.lft.to/lastmile_qr_scan", "ios": "https://dc.lft.to/lastmile_qr_scan"}, "type": "electric_scooter", "lat": 38.9007265, "is_reserved": 0, "fusion_lat": 0.0}, {"bike_id": "163fbbc4e4cf0eb396fb8e2212cb5a57", "fusion_lon": 0.0, "lon": -77.05111733333334, "name": "163fbbc4e4cf0eb396fb8e2212cb5a57", "is_disabled": 0, "rental_uris": {"android": "https://dc.lft.to/lastmile_qr_scan", "ios": "https://dc.lft.to/lastmile_qr_scan"}, "type": "electric_scooter", "lat": 38.90525016666667, "is_reserved": 0, "fusion_lat": 0.0}, {"bike_id": "3c10665950ade3e0088583aaa90dae30", "fusion_lon": 0.0, "lon": -76.9361205, "name": "3c10665950ade3e0088583aaa90dae30", "is_disabled": 0, "rental_uris": {"android": "https://dc.lft.to/lastmile_qr_scan", "ios": "https://dc.lft.to/lastmile_qr_scan"}, "type": "electric_scooter", "lat": 38.896807833333334, "is_reserved": 0, "fusion_lat": 0.0}, {"bike_id": "f2a12cd5cb5253c93a1eabbad14d8916", "fusion_lon": 0.0, "lon": -77.024875, "name": "f2a12cd5cb5253c93a1eabbad14d8916", "is_disabled": 0, "rental_uris": {"android": "https://dc.lft.to/lastmile_qr_scan", "ios": "https://dc.lft.to/lastmile_qr_scan"}, "type": "electric_scooter", "lat": 38.943101166666665, "is_reserved": 0, "fusion_lat": 0.0}, {"bike_id": "72b13bf2e582768e7b5359f897e3ed59", "fusion_lon": 0.0, "lon": -77.0271715, "name": "72b13bf2e582768e7b5359f897e3ed59", "is_disabled": 0, "rental_uris": {"android": "https://dc.lft.to/lastmile_qr_scan", "ios": "https://dc.lft.to/lastmile_qr_scan"}, "type": "electric_scooter", "lat": 38.90957366666667, "is_reserved": 0, "fusion_lat": 0.0}, {"bike_id": "8b3ab64ed0b42a51e3d030b7c7c9f9da", "fusion_lon": 0.0, "lon": -77.05549566666667, "name": "8b3ab64ed0b42a51e3d030b7c7c9f9da", "is_disabled": 0, "rental_uris": {"android": "https://dc.lft.to/lastmile_qr_scan", "ios": "https://dc.lft.to/lastmile_qr_scan"}, "type": "electric_scooter", "lat": 38.930108, "is_reserved": 0, "fusion_lat": 0.0}, {"bike_id": "4b4c43b3b3b65a5bb0ed12974c2486be", "fusion_lon": 0.0, "lon": -77.0399075, "name": "4b4c43b3b3b65a5bb0ed12974c2486be", "is_disabled": 0, "rental_uris": {"android": "https://dc.lft.to/lastmile_qr_scan", "ios": "https://dc.lft.to/lastmile_qr_scan"}, "type": "electric_scooter", "lat": 38.917688166666665, "is_reserved": 0, "fusion_lat": 0.0}, {"bike_id": "e55d2725e14933a2980ac28f172283a9", "fusion_lon": 0.0, "lon": -77.03124316666667, "name": "e55d2725e14933a2980ac28f172283a9", "is_disabled": 0, "rental_uris": {"android": "https://dc.lft.to/lastmile_qr_scan", "ios": "https://dc.lft.to/lastmile_qr_scan"}, "type": "electric_scooter", "lat": 38.915563166666665, "is_reserved": 0, "fusion_lat": 0.0}, {"bike_id": "ecf2ddab943252c6e217489da58f3a25", "fusion_lon": 0.0, "lon": -77.009461, "name": "ecf2ddab943252c6e217489da58f3a25", "is_disabled": 0, "rental_uris": {"android": "https://dc.lft.to/lastmile_qr_scan", "ios": "https://dc.lft.to/lastmile_qr_scan"}, "type": "electric_scooter", "lat": 38.908318333333334, "is_reserved": 0, "fusion_lat": 0.0}, {"bike_id": "58b67853100b2746305963c86b71237b", "fusion_lon": 0.0, "lon": -77.00870983333333, "name": "58b67853100b2746305963c86b71237b", "is_disabled": 0, "rental_uris": {"android": "https://dc.lft.to/lastmile_qr_scan", "ios": "https://dc.lft.to/lastmile_qr_scan"}, "type": "electric_scooter", "lat": 38.917067, "is_reserved": 0, "fusion_lat": 0.0}, {"bike_id": "b10a70f6d34e1519f40161e10fa7d112", "fusion_lon": 0.0, "lon": -77.03091183333333, "name": "b10a70f6d34e1519f40161e10fa7d112", "is_disabled": 0, "rental_uris": {"android": "https://dc.lft.to/lastmile_qr_scan", "ios": "https://dc.lft.to/lastmile_qr_scan"}, "type": "electric_scooter", "lat": 38.897601, "is_reserved": 0, "fusion_lat": 0.0}, {"bike_id": "5efb9e9431fa06655324020fe5a1bc20", "fusion_lon": 0.0, "lon": -77.08524333333334, "name": "5efb9e9431fa06655324020fe5a1bc20", "is_disabled": 0, "rental_uris": {"android": "https://dc.lft.to/lastmile_qr_scan", "ios": "https://dc.lft.to/lastmile_qr_scan"}, "type": "electric_bike", "lat": 38.8857335, "is_reserved": 0, "fusion_lat": 0.0}, {"bike_id": "5aed41ef1fa6cba24085c7e74c7aca34", "fusion_lon": 0.0, "lon": -77.03254, "name": "5aed41ef1fa6cba24085c7e74c7aca34", "is_disabled": 0, "rental_uris": {"android": "https://dc.lft.to/lastmile_qr_scan", "ios": "https://dc.lft.to/lastmile_qr_scan"}, "type": "electric_scooter", "lat": 38.92857716666666, "is_reserved": 0, "fusion_lat": 0.0}, {"bike_id": "9f52656de5c4bea99c42a48eae69a532", "fusion_lon": 0.0, "lon": -77.01611383333334, "name": "9f52656de5c4bea99c42a48eae69a532", "is_disabled": 0, "rental_uris": {"android": "https://dc.lft.to/lastmile_qr_scan", "ios": "https://dc.lft.to/lastmile_qr_scan"}, "type": "electric_scooter", "lat": 38.905926666666666, "is_reserved": 0, "fusion_lat": 0.0}, {"bike_id": "20d9e9cab57e63cafa6d6d38dcb6d961", "fusion_lon": 0.0, "lon": -77.02713116666666, "name": "20d9e9cab57e63cafa6d6d38dcb6d961", "is_disabled": 0, "rental_uris": {"android": "https://dc.lft.to/lastmile_qr_scan", "ios": "https://dc.lft.to/lastmile_qr_scan"}, "type": "electric_scooter", "lat": 38.91673316666667, "is_reserved": 0, "fusion_lat": 0.0}, {"bike_id": "20b7c0acea6704c7067831badc53702a", "fusion_lon": 0.0, "lon": -77.03400066666667, "name": "20b7c0acea6704c7067831badc53702a", "is_disabled": 0, "rental_uris": {"android": "https://dc.lft.to/lastmile_qr_scan", "ios": "https://dc.lft.to/lastmile_qr_scan"}, "type": "electric_scooter", "lat": 38.9312965, "is_reserved": 0, "fusion_lat": 0.0}, {"bike_id": "fbf2428e0ec21406797314c0e8818a7d", "fusion_lon": 0.0, "lon": -77.13462983333334, "name": "fbf2428e0ec21406797314c0e8818a7d", "is_disabled": 0, "rental_uris": {"android": "https://dc.lft.to/lastmile_qr_scan", "ios": "https://dc.lft.to/lastmile_qr_scan"}, "type": "electric_bike", "lat": 38.853561166666665, "is_reserved": 0, "fusion_lat": 0.0}, {"bike_id": "39e4cc50ae3742b320f46278a45dc475", "fusion_lon": 0.0, "lon": -77.035081, "name": "39e4cc50ae3742b320f46278a45dc475", "is_disabled": 0, "rental_uris": {"android": "https://dc.lft.to/lastmile_qr_scan", "ios": "https://dc.lft.to/lastmile_qr_scan"}, "type": "electric_scooter", "lat": 38.918853666666664, "is_reserved": 0, "fusion_lat": 0.0}, {"bike_id": "5a3f736db2db4723cd41174aa4918e72", "fusion_lon": 0.0, "lon": -77.03441566666666, "name": "5a3f736db2db4723cd41174aa4918e72", "is_disabled": 0, "rental_uris": {"android": "https://dc.lft.to/lastmile_qr_scan", "ios": "https://dc.lft.to/lastmile_qr_scan"}, "type": "electric_scooter", "lat": 38.91816383333333, "is_reserved": 0, "fusion_lat": 0.0}, {"bike_id": "9c8f13950f0a33ec8646eec87e68e699", "fusion_lon": 0.0, "lon": -77.02158083333333, "name": "9c8f13950f0a33ec8646eec87e68e699", "is_disabled": 0, "rental_uris": {"android": "https://dc.lft.to/lastmile_qr_scan", "ios": "https://dc.lft.to/lastmile_qr_scan"}, "type": "electric_scooter", "lat": 38.879316, "is_reserved": 0, "fusion_lat": 0.0}, {"bike_id": "6ba511e9b82e10225dc3d6f98d6c9f20", "fusion_lon": 0.0, "lon": -76.92501116666666, "name": "6ba511e9b82e10225dc3d6f98d6c9f20", "is_disabled": 0, "rental_uris": {"android": "https://dc.lft.to/lastmile_qr_scan", "ios": "https://dc.lft.to/lastmile_qr_scan"}, "type": "electric_bike", "lat": 38.958833, "is_reserved": 0, "fusion_lat": 0.0}, {"bike_id": "1b87be234382af5758302c601a4550ce", "fusion_lon": 0.0, "lon": -77.02894933333333, "name": "1b87be234382af5758302c601a4550ce", "is_disabled": 0, "rental_uris": {"android": "https://dc.lft.to/lastmile_qr_scan", "ios": "https://dc.lft.to/lastmile_qr_scan"}, "type": "electric_scooter", "lat": 38.907366333333336, "is_reserved": 0, "fusion_lat": 0.0}, {"bike_id": "43dc38ac429d34ffb5a197aa6e6ed410", "fusion_lon": 0.0, "lon": -77.03784716666667, "name": "43dc38ac429d34ffb5a197aa6e6ed410", "is_disabled": 0, "rental_uris": {"android": "https://dc.lft.to/lastmile_qr_scan", "ios": "https://dc.lft.to/lastmile_qr_scan"}, "type": "electric_scooter", "lat": 38.92553133333333, "is_reserved": 0, "fusion_lat": 0.0}, {"bike_id": "05fc150a6d50dd7d7ab63f504fb2afa8", "fusion_lon": 0.0, "lon": -77.031563, "name": "05fc150a6d50dd7d7ab63f504fb2afa8", "is_disabled": 0, "rental_uris": {"android": "https://dc.lft.to/lastmile_qr_scan", "ios": "https://dc.lft.to/lastmile_qr_scan"}, "type": "electric_bike", "lat": 38.999496666666666, "is_reserved": 0, "fusion_lat": 0.0}, {"bike_id": "8fbdfd2ad06b6bedc26b03d19c6e9553", "fusion_lon": 0.0, "lon": -77.0019635, "name": "8fbdfd2ad06b6bedc26b03d19c6e9553", "is_disabled": 0, "rental_uris": {"android": "https://dc.lft.to/lastmile_qr_scan", "ios": "https://dc.lft.to/lastmile_qr_scan"}, "type": "electric_scooter", "lat": 38.902497333333336, "is_reserved": 0, "fusion_lat": 0.0}, {"bike_id": "f9828ee0bda2555ec5cdf6faa4325b2e", "fusion_lon": 0.0, "lon": -77.03928466666666, "name": "f9828ee0bda2555ec5cdf6faa4325b2e", "is_disabled": 0, "rental_uris": {"android": "https://dc.lft.to/lastmile_qr_scan", "ios": "https://dc.lft.to/lastmile_qr_scan"}, "type": "electric_scooter", "lat": 38.924934, "is_reserved": 0, "fusion_lat": 0.0}, {"bike_id": "f868e2d7d1b92befa6d23a6369fc1f7a", "fusion_lon": 0.0, "lon": -76.9837085, "name": "f868e2d7d1b92befa6d23a6369fc1f7a", "is_disabled": 0, "rental_uris": {"android": "https://dc.lft.to/lastmile_qr_scan", "ios": "https://dc.lft.to/lastmile_qr_scan"}, "type": "electric_scooter", "lat": 38.885920166666665, "is_reserved": 0, "fusion_lat": 0.0}, {"bike_id": "a50c583a4a561a8f12339b03c193b4a4", "fusion_lon": 0.0, "lon": -77.035598, "name": "a50c583a4a561a8f12339b03c193b4a4", "is_disabled": 0, "rental_uris": {"android": "https://dc.lft.to/lastmile_qr_scan", "ios": "https://dc.lft.to/lastmile_qr_scan"}, "type": "electric_scooter", "lat": 38.92873566666667, "is_reserved": 0, "fusion_lat": 0.0}, {"bike_id": "37305e60949aaf94a7ebf71662af5d21", "fusion_lon": 0.0, "lon": -77.04144183333334, "name": "37305e60949aaf94a7ebf71662af5d21", "is_disabled": 0, "rental_uris": {"android": "https://dc.lft.to/lastmile_qr_scan", "ios": "https://dc.lft.to/lastmile_qr_scan"}, "type": "electric_scooter", "lat": 38.89365633333333, "is_reserved": 0, "fusion_lat": 0.0}, {"bike_id": "2b468538618bd3847a4e554b451fbd96", "fusion_lon": 0.0, "lon": -77.0445945, "name": "2b468538618bd3847a4e554b451fbd96", "is_disabled": 0, "rental_uris": {"android": "https://dc.lft.to/lastmile_qr_scan", "ios": "https://dc.lft.to/lastmile_qr_scan"}, "type": "electric_scooter", "lat": 38.918557666666665, "is_reserved": 0, "fusion_lat": 0.0}, {"bike_id": "9a41420b844344139b46791e5b36995c", "fusion_lon": 0.0, "lon": -77.03297783333333, "name": "9a41420b844344139b46791e5b36995c", "is_disabled": 0, "rental_uris": {"android": "https://dc.lft.to/lastmile_qr_scan", "ios": "https://dc.lft.to/lastmile_qr_scan"}, "type": "electric_scooter", "lat": 38.920608666666666, "is_reserved": 0, "fusion_lat": 0.0}, {"bike_id": "c2e192806255b81350279fec63986ad5", "fusion_lon": 0.0, "lon": -76.96921466666667, "name": "c2e192806255b81350279fec63986ad5", "is_disabled": 0, "rental_uris": {"android": "https://dc.lft.to/lastmile_qr_scan", "ios": "https://dc.lft.to/lastmile_qr_scan"}, "type": "electric_bike", "lat": 38.846006833333334, "is_reserved": 0, "fusion_lat": 0.0}, {"bike_id": "5e38827fcc07e6fa2cedb1e224e0a4ad", "fusion_lon": 0.0, "lon": -77.06504916666667, "name": "5e38827fcc07e6fa2cedb1e224e0a4ad", "is_disabled": 0, "rental_uris": {"android": "https://dc.lft.to/lastmile_qr_scan", "ios": "https://dc.lft.to/lastmile_qr_scan"}, "type": "electric_bike", "lat": 38.968752, "is_reserved": 0, "fusion_lat": 0.0}, {"bike_id": "7880e8a9c4fb5ffe40fbc61656ae960e", "fusion_lon": 0.0, "lon": -77.072742, "name": "7880e8a9c4fb5ffe40fbc61656ae960e", "is_disabled": 0, "rental_uris": {"android": "https://dc.lft.to/lastmile_qr_scan", "ios": "https://dc.lft.to/lastmile_qr_scan"}, "type": "electric_scooter", "lat": 38.93486383333333, "is_reserved": 0, "fusion_lat": 0.0}, {"bike_id": "62d4294b8bf2eb9d3cc67add1041b398", "fusion_lon": 0.0, "lon": -77.01755383333334, "name": "62d4294b8bf2eb9d3cc67add1041b398", "is_disabled": 0, "rental_uris": {"android": "https://dc.lft.to/lastmile_qr_scan", "ios": "https://dc.lft.to/lastmile_qr_scan"}, "type": "electric_scooter", "lat": 38.90257316666667, "is_reserved": 0, "fusion_lat": 0.0}, {"bike_id": "401221b08ab690d290b1b01ed8365519", "fusion_lon": 0.0, "lon": -77.0448195, "name": "401221b08ab690d290b1b01ed8365519", "is_disabled": 0, "rental_uris": {"android": "https://dc.lft.to/lastmile_qr_scan", "ios": "https://dc.lft.to/lastmile_qr_scan"}, "type": "electric_bike", "lat": 38.843008166666664, "is_reserved": 0, "fusion_lat": 0.0}, {"bike_id": "e94ea0cd11b61a58e29555c9902b96de", "fusion_lon": 0.0, "lon": -77.04395633333333, "name": "e94ea0cd11b61a58e29555c9902b96de", "is_disabled": 0, "rental_uris": {"android": "https://dc.lft.to/lastmile_qr_scan", "ios": "https://dc.lft.to/lastmile_qr_scan"}, "type": "electric_scooter", "lat": 38.909136333333336, "is_reserved": 0, "fusion_lat": 0.0}, {"bike_id": "3cd05f132cb6450c5787ccb07e4ada59", "fusion_lon": 0.0, "lon": -77.04147366666666, "name": "3cd05f132cb6450c5787ccb07e4ada59", "is_disabled": 0, "rental_uris": {"android": "https://dc.lft.to/lastmile_qr_scan", "ios": "https://dc.lft.to/lastmile_qr_scan"}, "type": "electric_scooter", "lat": 38.91654616666667, "is_reserved": 0, "fusion_lat": 0.0}, {"bike_id": "202a54be5b3e4feb62d52ef7d43f247a", "fusion_lon": 0.0, "lon": -77.02286583333333, "name": "202a54be5b3e4feb62d52ef7d43f247a", "is_disabled": 0, "rental_uris": {"android": "https://dc.lft.to/lastmile_qr_scan", "ios": "https://dc.lft.to/lastmile_qr_scan"}, "type": "electric_scooter", "lat": 38.918370333333336, "is_reserved": 0, "fusion_lat": 0.0}, {"bike_id": "3f8bc985f8d40fc946af9f9903a821c9", "fusion_lon": 0.0, "lon": -76.94936666666666, "name": "3f8bc985f8d40fc946af9f9903a821c9", "is_disabled": 0, "rental_uris": {"android": "https://dc.lft.to/lastmile_qr_scan", "ios": "https://dc.lft.to/lastmile_qr_scan"}, "type": "electric_scooter", "lat": 38.89350983333333, "is_reserved": 0, "fusion_lat": 0.0}, {"bike_id": "d3aa5ddedc2974a0a679129fa3fe74d9", "fusion_lon": 0.0, "lon": -77.0468695, "name": "d3aa5ddedc2974a0a679129fa3fe74d9", "is_disabled": 0, "rental_uris": {"android": "https://dc.lft.to/lastmile_qr_scan", "ios": "https://dc.lft.to/lastmile_qr_scan"}, "type": "electric_scooter", "lat": 38.892232, "is_reserved": 0, "fusion_lat": 0.0}, {"bike_id": "e9220995b3a6ca64d09932887b73bec9", "fusion_lon": 0.0, "lon": -77.0591785, "name": "e9220995b3a6ca64d09932887b73bec9", "is_disabled": 0, "rental_uris": {"android": "https://dc.lft.to/lastmile_qr_scan", "ios": "https://dc.lft.to/lastmile_qr_scan"}, "type": "electric_scooter", "lat": 38.911444833333334, "is_reserved": 0, "fusion_lat": 0.0}, {"bike_id": "6328fb5b3d837a6bae8b57bfc1f65085", "fusion_lon": 0.0, "lon": -77.02179166666667, "name": "6328fb5b3d837a6bae8b57bfc1f65085", "is_disabled": 0, "rental_uris": {"android": "https://dc.lft.to/lastmile_qr_scan", "ios": "https://dc.lft.to/lastmile_qr_scan"}, "type": "electric_scooter", "lat": 38.924956, "is_reserved": 0, "fusion_lat": 0.0}, {"bike_id": "b6c71cf178a562a3d1fb39b6cfed1caa", "fusion_lon": 0.0, "lon": -77.03860683333333, "name": "b6c71cf178a562a3d1fb39b6cfed1caa", "is_disabled": 0, "rental_uris": {"android": "https://dc.lft.to/lastmile_qr_scan", "ios": "https://dc.lft.to/lastmile_qr_scan"}, "type": "electric_scooter", "lat": 38.91547533333333, "is_reserved": 0, "fusion_lat": 0.0}, {"bike_id": "6881a9f60f6d9e9aed3388af4d0c8322", "fusion_lon": 0.0, "lon": -77.039447, "name": "6881a9f60f6d9e9aed3388af4d0c8322", "is_disabled": 0, "rental_uris": {"android": "https://dc.lft.to/lastmile_qr_scan", "ios": "https://dc.lft.to/lastmile_qr_scan"}, "type": "electric_scooter", "lat": 38.9262175, "is_reserved": 0, "fusion_lat": 0.0}, {"bike_id": "e481b9841ab9c25b54ea4ae6316ac2bc", "fusion_lon": 0.0, "lon": -77.03099866666666, "name": "e481b9841ab9c25b54ea4ae6316ac2bc", "is_disabled": 0, "rental_uris": {"android": "https://dc.lft.to/lastmile_qr_scan", "ios": "https://dc.lft.to/lastmile_qr_scan"}, "type": "electric_scooter", "lat": 38.950776, "is_reserved": 0, "fusion_lat": 0.0}, {"bike_id": "91dd4d463cbfc8262d2f41ea905acc67", "fusion_lon": 0.0, "lon": -77.00566233333333, "name": "91dd4d463cbfc8262d2f41ea905acc67", "is_disabled": 0, "rental_uris": {"android": "https://dc.lft.to/lastmile_qr_scan", "ios": "https://dc.lft.to/lastmile_qr_scan"}, "type": "electric_scooter", "lat": 38.918164166666664, "is_reserved": 0, "fusion_lat": 0.0}, {"bike_id": "d8094a49a6a7d5fb1a2ffc3af1d46b56", "fusion_lon": 0.0, "lon": -76.98608166666666, "name": "d8094a49a6a7d5fb1a2ffc3af1d46b56", "is_disabled": 0, "rental_uris": {"android": "https://dc.lft.to/lastmile_qr_scan", "ios": "https://dc.lft.to/lastmile_qr_scan"}, "type": "electric_scooter", "lat": 38.87843816666667, "is_reserved": 0, "fusion_lat": 0.0}, {"bike_id": "1c639d127f174ef918a7f8b0b4bf70d0", "fusion_lon": 0.0, "lon": -77.02577116666667, "name": "1c639d127f174ef918a7f8b0b4bf70d0", "is_disabled": 0, "rental_uris": {"android": "https://dc.lft.to/lastmile_qr_scan", "ios": "https://dc.lft.to/lastmile_qr_scan"}, "type": "electric_scooter", "lat": 38.90346516666666, "is_reserved": 0, "fusion_lat": 0.0}, {"bike_id": "ca4c69bc1da5dd0287907aa58cb2eda9", "fusion_lon": 0.0, "lon": -77.03319966666666, "name": "ca4c69bc1da5dd0287907aa58cb2eda9", "is_disabled": 0, "rental_uris": {"android": "https://dc.lft.to/lastmile_qr_scan", "ios": "https://dc.lft.to/lastmile_qr_scan"}, "type": "electric_scooter", "lat": 38.918088833333336, "is_reserved": 0, "fusion_lat": 0.0}, {"bike_id": "34b4b9815bf4ee18fdd735c59f69ce52", "fusion_lon": 0.0, "lon": -77.05095783333333, "name": "34b4b9815bf4ee18fdd735c59f69ce52", "is_disabled": 0, "rental_uris": {"android": "https://dc.lft.to/lastmile_qr_scan", "ios": "https://dc.lft.to/lastmile_qr_scan"}, "type": "electric_scooter", "lat": 38.90000283333333, "is_reserved": 0, "fusion_lat": 0.0}, {"bike_id": "5f4d7f3d449ce7b417e1d3f3f43bb44a", "fusion_lon": 0.0, "lon": -77.0325615, "name": "5f4d7f3d449ce7b417e1d3f3f43bb44a", "is_disabled": 0, "rental_uris": {"android": "https://dc.lft.to/lastmile_qr_scan", "ios": "https://dc.lft.to/lastmile_qr_scan"}, "type": "electric_scooter", "lat": 38.939757166666666, "is_reserved": 0, "fusion_lat": 0.0}, {"bike_id": "26546d66555058eb8ddd453fc45b46b1", "fusion_lon": 0.0, "lon": -77.0166135, "name": "26546d66555058eb8ddd453fc45b46b1", "is_disabled": 0, "rental_uris": {"android": "https://dc.lft.to/lastmile_qr_scan", "ios": "https://dc.lft.to/lastmile_qr_scan"}, "type": "electric_scooter", "lat": 38.88130116666667, "is_reserved": 0, "fusion_lat": 0.0}, {"bike_id": "cd5fd2347646aa26ce1d30b81e723973", "fusion_lon": 0.0, "lon": -77.030628, "name": "cd5fd2347646aa26ce1d30b81e723973", "is_disabled": 0, "rental_uris": {"android": "https://dc.lft.to/lastmile_qr_scan", "ios": "https://dc.lft.to/lastmile_qr_scan"}, "type": "electric_scooter", "lat": 38.8861865, "is_reserved": 0, "fusion_lat": 0.0}, {"bike_id": "88b031d2e5a1b69d22faf2cf89a841ec", "fusion_lon": 0.0, "lon": -76.98581883333334, "name": "88b031d2e5a1b69d22faf2cf89a841ec", "is_disabled": 0, "rental_uris": {"android": "https://dc.lft.to/lastmile_qr_scan", "ios": "https://dc.lft.to/lastmile_qr_scan"}, "type": "electric_bike", "lat": 38.912873, "is_reserved": 0, "fusion_lat": 0.0}, {"bike_id": "6aaa6e9bfdc193c6cb6d22fdf60ba18a", "fusion_lon": 0.0, "lon": -77.0183985, "name": "6aaa6e9bfdc193c6cb6d22fdf60ba18a", "is_disabled": 0, "rental_uris": {"android": "https://dc.lft.to/lastmile_qr_scan", "ios": "https://dc.lft.to/lastmile_qr_scan"}, "type": "electric_scooter", "lat": 38.902555166666666, "is_reserved": 0, "fusion_lat": 0.0}, {"bike_id": "ea3daeb523c1af317c26d54bb2a841ce", "fusion_lon": 0.0, "lon": -77.04140316666667, "name": "ea3daeb523c1af317c26d54bb2a841ce", "is_disabled": 0, "rental_uris": {"android": "https://dc.lft.to/lastmile_qr_scan", "ios": "https://dc.lft.to/lastmile_qr_scan"}, "type": "electric_scooter", "lat": 38.893505, "is_reserved": 0, "fusion_lat": 0.0}, {"bike_id": "773d063199abb9ebd7ee595f1432b862", "fusion_lon": 0.0, "lon": -77.0228815, "name": "773d063199abb9ebd7ee595f1432b862", "is_disabled": 0, "rental_uris": {"android": "https://dc.lft.to/lastmile_qr_scan", "ios": "https://dc.lft.to/lastmile_qr_scan"}, "type": "electric_scooter", "lat": 38.89063866666667, "is_reserved": 0, "fusion_lat": 0.0}, {"bike_id": "6e63fdbeb3e66b97710cfb34a3a216c2", "fusion_lon": 0.0, "lon": -77.03347716666667, "name": "6e63fdbeb3e66b97710cfb34a3a216c2", "is_disabled": 0, "rental_uris": {"android": "https://dc.lft.to/lastmile_qr_scan", "ios": "https://dc.lft.to/lastmile_qr_scan"}, "type": "electric_scooter", "lat": 38.900001333333336, "is_reserved": 0, "fusion_lat": 0.0}, {"bike_id": "3722127c04f67e6cd824830f3b8b8aef", "fusion_lon": 0.0, "lon": -77.03785166666667, "name": "3722127c04f67e6cd824830f3b8b8aef", "is_disabled": 0, "rental_uris": {"android": "https://dc.lft.to/lastmile_qr_scan", "ios": "https://dc.lft.to/lastmile_qr_scan"}, "type": "electric_scooter", "lat": 38.90966183333333, "is_reserved": 0, "fusion_lat": 0.0}, {"bike_id": "ff0fe38af9fd06a3e352652e56f8203a", "fusion_lon": 0.0, "lon": -77.02992633333334, "name": "ff0fe38af9fd06a3e352652e56f8203a", "is_disabled": 0, "rental_uris": {"android": "https://dc.lft.to/lastmile_qr_scan", "ios": "https://dc.lft.to/lastmile_qr_scan"}, "type": "electric_scooter", "lat": 38.907447166666664, "is_reserved": 0, "fusion_lat": 0.0}, {"bike_id": "621e807bba09bca9e7ec5a7639f9e9a0", "fusion_lon": 0.0, "lon": -77.03457416666667, "name": "621e807bba09bca9e7ec5a7639f9e9a0", "is_disabled": 0, "rental_uris": {"android": "https://dc.lft.to/lastmile_qr_scan", "ios": "https://dc.lft.to/lastmile_qr_scan"}, "type": "electric_scooter", "lat": 38.93753233333333, "is_reserved": 0, "fusion_lat": 0.0}, {"bike_id": "025c9a1b769a5de46155fda5b69e8399", "fusion_lon": 0.0, "lon": -77.0072475, "name": "025c9a1b769a5de46155fda5b69e8399", "is_disabled": 0, "rental_uris": {"android": "https://dc.lft.to/lastmile_qr_scan", "ios": "https://dc.lft.to/lastmile_qr_scan"}, "type": "electric_scooter", "lat": 38.88492816666667, "is_reserved": 0, "fusion_lat": 0.0}, {"bike_id": "68d67c053461fc0ae42233c2c41d246d", "fusion_lon": 0.0, "lon": -76.8954, "name": "68d67c053461fc0ae42233c2c41d246d", "is_disabled": 0, "rental_uris": {"android": "https://dc.lft.to/lastmile_qr_scan", "ios": "https://dc.lft.to/lastmile_qr_scan"}, "type": "electric_bike", "lat": 38.945603, "is_reserved": 0, "fusion_lat": 0.0}, {"bike_id": "9f377d369f1ae702531ed371488a44e7", "fusion_lon": 0.0, "lon": -77.02552716666666, "name": "9f377d369f1ae702531ed371488a44e7", "is_disabled": 0, "rental_uris": {"android": "https://dc.lft.to/lastmile_qr_scan", "ios": "https://dc.lft.to/lastmile_qr_scan"}, "type": "electric_scooter", "lat": 38.90355, "is_reserved": 0, "fusion_lat": 0.0}, {"bike_id": "b337502f051ca87a36e4bc2570c1e87c", "fusion_lon": 0.0, "lon": -77.04462616666666, "name": "b337502f051ca87a36e4bc2570c1e87c", "is_disabled": 0, "rental_uris": {"android": "https://dc.lft.to/lastmile_qr_scan", "ios": "https://dc.lft.to/lastmile_qr_scan"}, "type": "electric_scooter", "lat": 38.911188833333334, "is_reserved": 0, "fusion_lat": 0.0}, {"bike_id": "aab6a9ee13750368aebf5b9a4bf86150", "fusion_lon": 0.0, "lon": -77.0414685, "name": "aab6a9ee13750368aebf5b9a4bf86150", "is_disabled": 0, "rental_uris": {"android": "https://dc.lft.to/lastmile_qr_scan", "ios": "https://dc.lft.to/lastmile_qr_scan"}, "type": "electric_scooter", "lat": 38.91559983333333, "is_reserved": 0, "fusion_lat": 0.0}, {"bike_id": "53bc60ec8d4df28d90352c2cbf2218c5", "fusion_lon": 0.0, "lon": -76.990569, "name": "53bc60ec8d4df28d90352c2cbf2218c5", "is_disabled": 0, "rental_uris": {"android": "https://dc.lft.to/lastmile_qr_scan", "ios": "https://dc.lft.to/lastmile_qr_scan"}, "type": "electric_scooter", "lat": 38.863681166666666, "is_reserved": 0, "fusion_lat": 0.0}, {"bike_id": "b996762f889e0f3200c1b9ebe84faced", "fusion_lon": 0.0, "lon": -77.02491466666666, "name": "b996762f889e0f3200c1b9ebe84faced", "is_disabled": 0, "rental_uris": {"android": "https://dc.lft.to/lastmile_qr_scan", "ios": "https://dc.lft.to/lastmile_qr_scan"}, "type": "electric_scooter", "lat": 38.94187133333333, "is_reserved": 0, "fusion_lat": 0.0}, {"bike_id": "375bf833af3ea213c93274939938d401", "fusion_lon": 0.0, "lon": -77.03295, "name": "375bf833af3ea213c93274939938d401", "is_disabled": 0, "rental_uris": {"android": "https://dc.lft.to/lastmile_qr_scan", "ios": "https://dc.lft.to/lastmile_qr_scan"}, "type": "electric_scooter", "lat": 38.9471585, "is_reserved": 0, "fusion_lat": 0.0}, {"bike_id": "4ab04d3f00c6c4c6cf17aaae9ad15390", "fusion_lon": 0.0, "lon": -77.02178066666667, "name": "4ab04d3f00c6c4c6cf17aaae9ad15390", "is_disabled": 0, "rental_uris": {"android": "https://dc.lft.to/lastmile_qr_scan", "ios": "https://dc.lft.to/lastmile_qr_scan"}, "type": "electric_scooter", "lat": 38.90193283333333, "is_reserved": 0, "fusion_lat": 0.0}, {"bike_id": "151f575435a9b893b2803ce39de98a33", "fusion_lon": 0.0, "lon": -77.03447566666667, "name": "151f575435a9b893b2803ce39de98a33", "is_disabled": 0, "rental_uris": {"android": "https://dc.lft.to/lastmile_qr_scan", "ios": "https://dc.lft.to/lastmile_qr_scan"}, "type": "electric_scooter", "lat": 38.90725316666666, "is_reserved": 0, "fusion_lat": 0.0}, {"bike_id": "abc40903bdc2d17d58242be3ca0833a9", "fusion_lon": 0.0, "lon": -77.033246, "name": "abc40903bdc2d17d58242be3ca0833a9", "is_disabled": 0, "rental_uris": {"android": "https://dc.lft.to/lastmile_qr_scan", "ios": "https://dc.lft.to/lastmile_qr_scan"}, "type": "electric_scooter", "lat": 38.913601, "is_reserved": 0, "fusion_lat": 0.0}, {"bike_id": "52c45de1d77e881fe9f075b42c4318f9", "fusion_lon": 0.0, "lon": -76.99125083333334, "name": "52c45de1d77e881fe9f075b42c4318f9", "is_disabled": 0, "rental_uris": {"android": "https://dc.lft.to/lastmile_qr_scan", "ios": "https://dc.lft.to/lastmile_qr_scan"}, "type": "electric_scooter", "lat": 38.8621355, "is_reserved": 0, "fusion_lat": 0.0}, {"bike_id": "a6f075e46ce49dbf16201ec4d9802c35", "fusion_lon": 0.0, "lon": -77.027137, "name": "a6f075e46ce49dbf16201ec4d9802c35", "is_disabled": 0, "rental_uris": {"android": "https://dc.lft.to/lastmile_qr_scan", "ios": "https://dc.lft.to/lastmile_qr_scan"}, "type": "electric_scooter", "lat": 38.917073333333335, "is_reserved": 0, "fusion_lat": 0.0}, {"bike_id": "72c61b1ef39fefa3fbead243614acbeb", "fusion_lon": 0.0, "lon": -77.03458966666666, "name": "72c61b1ef39fefa3fbead243614acbeb", "is_disabled": 0, "rental_uris": {"android": "https://dc.lft.to/lastmile_qr_scan", "ios": "https://dc.lft.to/lastmile_qr_scan"}, "type": "electric_scooter", "lat": 38.917353166666665, "is_reserved": 0, "fusion_lat": 0.0}, {"bike_id": "c98709ed05ea7274e6f7ac9dd1b1c25b", "fusion_lon": 0.0, "lon": -77.0418375, "name": "c98709ed05ea7274e6f7ac9dd1b1c25b", "is_disabled": 0, "rental_uris": {"android": "https://dc.lft.to/lastmile_qr_scan", "ios": "https://dc.lft.to/lastmile_qr_scan"}, "type": "electric_scooter", "lat": 38.892899666666665, "is_reserved": 0, "fusion_lat": 0.0}, {"bike_id": "cf5863906df9a5f15a06a27194051a6e", "fusion_lon": 0.0, "lon": -77.00578383333334, "name": "cf5863906df9a5f15a06a27194051a6e", "is_disabled": 0, "rental_uris": {"android": "https://dc.lft.to/lastmile_qr_scan", "ios": "https://dc.lft.to/lastmile_qr_scan"}, "type": "electric_scooter", "lat": 38.873178333333335, "is_reserved": 0, "fusion_lat": 0.0}, {"bike_id": "9a45889238910a606799a53689613936", "fusion_lon": 0.0, "lon": -77.0653755, "name": "9a45889238910a606799a53689613936", "is_disabled": 0, "rental_uris": {"android": "https://dc.lft.to/lastmile_qr_scan", "ios": "https://dc.lft.to/lastmile_qr_scan"}, "type": "electric_scooter", "lat": 38.902794666666665, "is_reserved": 0, "fusion_lat": 0.0}, {"bike_id": "5801c84882401017abb2b795efda8ed6", "fusion_lon": 0.0, "lon": -77.03904083333333, "name": "5801c84882401017abb2b795efda8ed6", "is_disabled": 0, "rental_uris": {"android": "https://dc.lft.to/lastmile_qr_scan", "ios": "https://dc.lft.to/lastmile_qr_scan"}, "type": "electric_scooter", "lat": 38.914176499999996, "is_reserved": 0, "fusion_lat": 0.0}, {"bike_id": "8052aa9e97dd3cdc8938f76db3d58ecb", "fusion_lon": 0.0, "lon": -77.04010016666666, "name": "8052aa9e97dd3cdc8938f76db3d58ecb", "is_disabled": 0, "rental_uris": {"android": "https://dc.lft.to/lastmile_qr_scan", "ios": "https://dc.lft.to/lastmile_qr_scan"}, "type": "electric_scooter", "lat": 38.91824666666667, "is_reserved": 0, "fusion_lat": 0.0}, {"bike_id": "3bf2370e37160e987480a6a655ca60aa", "fusion_lon": 0.0, "lon": -77.03394433333334, "name": "3bf2370e37160e987480a6a655ca60aa", "is_disabled": 0, "rental_uris": {"android": "https://dc.lft.to/lastmile_qr_scan", "ios": "https://dc.lft.to/lastmile_qr_scan"}, "type": "electric_scooter", "lat": 38.91968633333333, "is_reserved": 0, "fusion_lat": 0.0}, {"bike_id": "1306951e7e30cd18547fd3f318ef53e3", "fusion_lon": 0.0, "lon": -77.01802866666667, "name": "1306951e7e30cd18547fd3f318ef53e3", "is_disabled": 0, "rental_uris": {"android": "https://dc.lft.to/lastmile_qr_scan", "ios": "https://dc.lft.to/lastmile_qr_scan"}, "type": "electric_scooter", "lat": 38.90829883333333, "is_reserved": 0, "fusion_lat": 0.0}, {"bike_id": "4f74b4f1d4dd4a6eed89b9d179b0f70a", "fusion_lon": 0.0, "lon": -77.0418555, "name": "4f74b4f1d4dd4a6eed89b9d179b0f70a", "is_disabled": 0, "rental_uris": {"android": "https://dc.lft.to/lastmile_qr_scan", "ios": "https://dc.lft.to/lastmile_qr_scan"}, "type": "electric_scooter", "lat": 38.92062933333333, "is_reserved": 0, "fusion_lat": 0.0}, {"bike_id": "817ac69fe546f584423771ae44b2de86", "fusion_lon": 0.0, "lon": -76.990888, "name": "817ac69fe546f584423771ae44b2de86", "is_disabled": 0, "rental_uris": {"android": "https://dc.lft.to/lastmile_qr_scan", "ios": "https://dc.lft.to/lastmile_qr_scan"}, "type": "electric_scooter", "lat": 38.929564166666665, "is_reserved": 0, "fusion_lat": 0.0}, {"bike_id": "073795baeba4ebe7a2187c87b93602b2", "fusion_lon": 0.0, "lon": -77.03431666666667, "name": "073795baeba4ebe7a2187c87b93602b2", "is_disabled": 0, "rental_uris": {"android": "https://dc.lft.to/lastmile_qr_scan", "ios": "https://dc.lft.to/lastmile_qr_scan"}, "type": "electric_scooter", "lat": 38.907624, "is_reserved": 0, "fusion_lat": 0.0}, {"bike_id": "1b51d4440fc1964ec3d311ae55a70ba6", "fusion_lon": 0.0, "lon": -77.0232765, "name": "1b51d4440fc1964ec3d311ae55a70ba6", "is_disabled": 0, "rental_uris": {"android": "https://dc.lft.to/lastmile_qr_scan", "ios": "https://dc.lft.to/lastmile_qr_scan"}, "type": "electric_scooter", "lat": 38.92707333333333, "is_reserved": 0, "fusion_lat": 0.0}, {"bike_id": "2752362b9cca571ca8687e96072f95c5", "fusion_lon": 0.0, "lon": -77.03347083333334, "name": "2752362b9cca571ca8687e96072f95c5", "is_disabled": 0, "rental_uris": {"android": "https://dc.lft.to/lastmile_qr_scan", "ios": "https://dc.lft.to/lastmile_qr_scan"}, "type": "electric_scooter", "lat": 38.89842433333333, "is_reserved": 0, "fusion_lat": 0.0}, {"bike_id": "911756938c15be4e98b524ee4df4bcf9", "fusion_lon": 0.0, "lon": -77.03504366666667, "name": "911756938c15be4e98b524ee4df4bcf9", "is_disabled": 0, "rental_uris": {"android": "https://dc.lft.to/lastmile_qr_scan", "ios": "https://dc.lft.to/lastmile_qr_scan"}, "type": "electric_scooter", "lat": 38.926335333333334, "is_reserved": 0, "fusion_lat": 0.0}, {"bike_id": "56c144e78d5b3a60a002b92471e2432b", "fusion_lon": 0.0, "lon": -77.00921533333333, "name": "56c144e78d5b3a60a002b92471e2432b", "is_disabled": 0, "rental_uris": {"android": "https://dc.lft.to/lastmile_qr_scan", "ios": "https://dc.lft.to/lastmile_qr_scan"}, "type": "electric_scooter", "lat": 38.91266733333333, "is_reserved": 0, "fusion_lat": 0.0}, {"bike_id": "c7f5add8099eb48d742e725ff2e3b39c", "fusion_lon": 0.0, "lon": -77.01651733333334, "name": "c7f5add8099eb48d742e725ff2e3b39c", "is_disabled": 0, "rental_uris": {"android": "https://dc.lft.to/lastmile_qr_scan", "ios": "https://dc.lft.to/lastmile_qr_scan"}, "type": "electric_scooter", "lat": 38.91597016666667, "is_reserved": 0, "fusion_lat": 0.0}, {"bike_id": "d43763fb9bb6b0059cd5e71cd885dce0", "fusion_lon": 0.0, "lon": -77.03267983333333, "name": "d43763fb9bb6b0059cd5e71cd885dce0", "is_disabled": 0, "rental_uris": {"android": "https://dc.lft.to/lastmile_qr_scan", "ios": "https://dc.lft.to/lastmile_qr_scan"}, "type": "electric_scooter", "lat": 38.93305633333333, "is_reserved": 0, "fusion_lat": 0.0}, {"bike_id": "5f663111ca0b545b081d2aa06c684781", "fusion_lon": 0.0, "lon": -76.96545516666667, "name": "5f663111ca0b545b081d2aa06c684781", "is_disabled": 0, "rental_uris": {"android": "https://dc.lft.to/lastmile_qr_scan", "ios": "https://dc.lft.to/lastmile_qr_scan"}, "type": "electric_scooter", "lat": 38.918683333333334, "is_reserved": 0, "fusion_lat": 0.0}, {"bike_id": "a6e4398043e265202a3b4c8a90f8f2a3", "fusion_lon": 0.0, "lon": -77.16090966666667, "name": "a6e4398043e265202a3b4c8a90f8f2a3", "is_disabled": 0, "rental_uris": {"android": "https://dc.lft.to/lastmile_qr_scan", "ios": "https://dc.lft.to/lastmile_qr_scan"}, "type": "electric_bike", "lat": 38.88689933333333, "is_reserved": 0, "fusion_lat": 0.0}, {"bike_id": "434460959539fb729d517b2be90bc6b6", "fusion_lon": 0.0, "lon": -77.07915333333334, "name": "434460959539fb729d517b2be90bc6b6", "is_disabled": 0, "rental_uris": {"android": "https://dc.lft.to/lastmile_qr_scan", "ios": "https://dc.lft.to/lastmile_qr_scan"}, "type": "electric_bike", "lat": 38.802297, "is_reserved": 0, "fusion_lat": 0.0}, {"bike_id": "e951c8bf4b7568fa9c661f6fee9ef789", "fusion_lon": 0.0, "lon": -77.04105466666667, "name": "e951c8bf4b7568fa9c661f6fee9ef789", "is_disabled": 0, "rental_uris": {"android": "https://dc.lft.to/lastmile_qr_scan", "ios": "https://dc.lft.to/lastmile_qr_scan"}, "type": "electric_scooter", "lat": 38.92453366666667, "is_reserved": 0, "fusion_lat": 0.0}, {"bike_id": "f1c289eb1bda29411d73dab4b74c5076", "fusion_lon": 0.0, "lon": -76.99035533333333, "name": "f1c289eb1bda29411d73dab4b74c5076", "is_disabled": 0, "rental_uris": {"android": "https://dc.lft.to/lastmile_qr_scan", "ios": "https://dc.lft.to/lastmile_qr_scan"}, "type": "electric_scooter", "lat": 38.863679833333336, "is_reserved": 0, "fusion_lat": 0.0}, {"bike_id": "81ebd8571a515e0374a981c98347df7a", "fusion_lon": 0.0, "lon": -76.98843183333334, "name": "81ebd8571a515e0374a981c98347df7a", "is_disabled": 0, "rental_uris": {"android": "https://dc.lft.to/lastmile_qr_scan", "ios": "https://dc.lft.to/lastmile_qr_scan"}, "type": "electric_bike", "lat": 38.842770333333334, "is_reserved": 0, "fusion_lat": 0.0}, {"bike_id": "15b04f2526d4742df8c04182dec260d6", "fusion_lon": 0.0, "lon": -77.04484, "name": "15b04f2526d4742df8c04182dec260d6", "is_disabled": 0, "rental_uris": {"android": "https://dc.lft.to/lastmile_qr_scan", "ios": "https://dc.lft.to/lastmile_qr_scan"}, "type": "electric_scooter", "lat": 38.9011795, "is_reserved": 0, "fusion_lat": 0.0}, {"bike_id": "954b6333aa4abfd7e80ebb0b59bca910", "fusion_lon": 0.0, "lon": -76.9824995, "name": "954b6333aa4abfd7e80ebb0b59bca910", "is_disabled": 0, "rental_uris": {"android": "https://dc.lft.to/lastmile_qr_scan", "ios": "https://dc.lft.to/lastmile_qr_scan"}, "type": "electric_bike", "lat": 38.953319, "is_reserved": 0, "fusion_lat": 0.0}, {"bike_id": "4a0a7a1e420d40901e4d8ead59cb14b0", "fusion_lon": 0.0, "lon": -77.0434715, "name": "4a0a7a1e420d40901e4d8ead59cb14b0", "is_disabled": 0, "rental_uris": {"android": "https://dc.lft.to/lastmile_qr_scan", "ios": "https://dc.lft.to/lastmile_qr_scan"}, "type": "electric_scooter", "lat": 38.90231516666667, "is_reserved": 0, "fusion_lat": 0.0}, {"bike_id": "c23dcdecb99c97ba4ceae291440786ff", "fusion_lon": 0.0, "lon": -77.03989116666666, "name": "c23dcdecb99c97ba4ceae291440786ff", "is_disabled": 0, "rental_uris": {"android": "https://dc.lft.to/lastmile_qr_scan", "ios": "https://dc.lft.to/lastmile_qr_scan"}, "type": "electric_bike", "lat": 38.933368, "is_reserved": 0, "fusion_lat": 0.0}, {"bike_id": "c73982ed2f22f0282fa7deb82faf396f", "fusion_lon": 0.0, "lon": -76.9981335, "name": "c73982ed2f22f0282fa7deb82faf396f", "is_disabled": 0, "rental_uris": {"android": "https://dc.lft.to/lastmile_qr_scan", "ios": "https://dc.lft.to/lastmile_qr_scan"}, "type": "electric_scooter", "lat": 38.9083075, "is_reserved": 0, "fusion_lat": 0.0}, {"bike_id": "3b5ee42117e7569ca234daba51988457", "fusion_lon": 0.0, "lon": -77.03131366666666, "name": "3b5ee42117e7569ca234daba51988457", "is_disabled": 0, "rental_uris": {"android": "https://dc.lft.to/lastmile_qr_scan", "ios": "https://dc.lft.to/lastmile_qr_scan"}, "type": "electric_scooter", "lat": 38.9180425, "is_reserved": 0, "fusion_lat": 0.0}, {"bike_id": "eefaacf6bb43190bf4832f1f16cf6872", "fusion_lon": 0.0, "lon": -77.03574483333334, "name": "eefaacf6bb43190bf4832f1f16cf6872", "is_disabled": 0, "rental_uris": {"android": "https://dc.lft.to/lastmile_qr_scan", "ios": "https://dc.lft.to/lastmile_qr_scan"}, "type": "electric_scooter", "lat": 38.92334183333333, "is_reserved": 0, "fusion_lat": 0.0}, {"bike_id": "eee36451d3c4cd3669f6aee155142565", "fusion_lon": 0.0, "lon": -77.02716366666667, "name": "eee36451d3c4cd3669f6aee155142565", "is_disabled": 0, "rental_uris": {"android": "https://dc.lft.to/lastmile_qr_scan", "ios": "https://dc.lft.to/lastmile_qr_scan"}, "type": "electric_scooter", "lat": 38.90686433333333, "is_reserved": 0, "fusion_lat": 0.0}, {"bike_id": "df208a9db4895add60e5d4b104d1de5a", "fusion_lon": 0.0, "lon": -77.0219645, "name": "df208a9db4895add60e5d4b104d1de5a", "is_disabled": 0, "rental_uris": {"android": "https://dc.lft.to/lastmile_qr_scan", "ios": "https://dc.lft.to/lastmile_qr_scan"}, "type": "electric_scooter", "lat": 38.89796033333333, "is_reserved": 0, "fusion_lat": 0.0}, {"bike_id": "d8aac2dd896ab06a1bcc6b14a9870916", "fusion_lon": 0.0, "lon": -77.0072705, "name": "d8aac2dd896ab06a1bcc6b14a9870916", "is_disabled": 0, "rental_uris": {"android": "https://dc.lft.to/lastmile_qr_scan", "ios": "https://dc.lft.to/lastmile_qr_scan"}, "type": "electric_scooter", "lat": 38.88493183333333, "is_reserved": 0, "fusion_lat": 0.0}, {"bike_id": "6637803278a48a6f7d3c3d21215b1c2c", "fusion_lon": 0.0, "lon": -76.9935565, "name": "6637803278a48a6f7d3c3d21215b1c2c", "is_disabled": 0, "rental_uris": {"android": "https://dc.lft.to/lastmile_qr_scan", "ios": "https://dc.lft.to/lastmile_qr_scan"}, "type": "electric_bike", "lat": 38.84506983333333, "is_reserved": 0, "fusion_lat": 0.0}, {"bike_id": "018243d9d8021cfe51ac0595162e5c1c", "fusion_lon": 0.0, "lon": -77.02712566666666, "name": "018243d9d8021cfe51ac0595162e5c1c", "is_disabled": 0, "rental_uris": {"android": "https://dc.lft.to/lastmile_qr_scan", "ios": "https://dc.lft.to/lastmile_qr_scan"}, "type": "electric_scooter", "lat": 38.9066795, "is_reserved": 0, "fusion_lat": 0.0}, {"bike_id": "0f2902570cfd4df98c7be2f17c5699f5", "fusion_lon": 0.0, "lon": -77.05275666666667, "name": "0f2902570cfd4df98c7be2f17c5699f5", "is_disabled": 0, "rental_uris": {"android": "https://dc.lft.to/lastmile_qr_scan", "ios": "https://dc.lft.to/lastmile_qr_scan"}, "type": "electric_scooter", "lat": 38.9253565, "is_reserved": 0, "fusion_lat": 0.0}, {"bike_id": "4dcdeaa594a7e0d095d74db6680dea54", "fusion_lon": 0.0, "lon": -77.0269245, "name": "4dcdeaa594a7e0d095d74db6680dea54", "is_disabled": 0, "rental_uris": {"android": "https://dc.lft.to/lastmile_qr_scan", "ios": "https://dc.lft.to/lastmile_qr_scan"}, "type": "electric_scooter", "lat": 38.92781016666667, "is_reserved": 0, "fusion_lat": 0.0}, {"bike_id": "f05261f3f446fbcb9c0f19085f7d152c", "fusion_lon": 0.0, "lon": -77.02169616666667, "name": "f05261f3f446fbcb9c0f19085f7d152c", "is_disabled": 0, "rental_uris": {"android": "https://dc.lft.to/lastmile_qr_scan", "ios": "https://dc.lft.to/lastmile_qr_scan"}, "type": "electric_scooter", "lat": 38.92500716666667, "is_reserved": 0, "fusion_lat": 0.0}, {"bike_id": "f4e0c6c7d481487a17a8cc6ff7f22ce8", "fusion_lon": 0.0, "lon": -77.0413095, "name": "f4e0c6c7d481487a17a8cc6ff7f22ce8", "is_disabled": 0, "rental_uris": {"android": "https://dc.lft.to/lastmile_qr_scan", "ios": "https://dc.lft.to/lastmile_qr_scan"}, "type": "electric_bike", "lat": 38.8049935, "is_reserved": 0, "fusion_lat": 0.0}, {"bike_id": "2e6165f42d2c67b3fcc3451c721fc963", "fusion_lon": 0.0, "lon": -77.03262333333333, "name": "2e6165f42d2c67b3fcc3451c721fc963", "is_disabled": 0, "rental_uris": {"android": "https://dc.lft.to/lastmile_qr_scan", "ios": "https://dc.lft.to/lastmile_qr_scan"}, "type": "electric_scooter", "lat": 38.93407, "is_reserved": 0, "fusion_lat": 0.0}, {"bike_id": "01b634234cc66e461be45cfad9d73205", "fusion_lon": 0.0, "lon": -77.0401555, "name": "01b634234cc66e461be45cfad9d73205", "is_disabled": 0, "rental_uris": {"android": "https://dc.lft.to/lastmile_qr_scan", "ios": "https://dc.lft.to/lastmile_qr_scan"}, "type": "electric_scooter", "lat": 38.92267433333333, "is_reserved": 0, "fusion_lat": 0.0}, {"bike_id": "79c8b0b7159b355776be879dd878a069", "fusion_lon": 0.0, "lon": -76.948773, "name": "79c8b0b7159b355776be879dd878a069", "is_disabled": 0, "rental_uris": {"android": "https://dc.lft.to/lastmile_qr_scan", "ios": "https://dc.lft.to/lastmile_qr_scan"}, "type": "electric_scooter", "lat": 38.895002833333336, "is_reserved": 0, "fusion_lat": 0.0}, {"bike_id": "d8b6e9070c1bd9f52887bd4b3889f355", "fusion_lon": 0.0, "lon": -77.00590083333333, "name": "d8b6e9070c1bd9f52887bd4b3889f355", "is_disabled": 0, "rental_uris": {"android": "https://dc.lft.to/lastmile_qr_scan", "ios": "https://dc.lft.to/lastmile_qr_scan"}, "type": "electric_scooter", "lat": 38.877585333333336, "is_reserved": 0, "fusion_lat": 0.0}, {"bike_id": "75b915eb7ca1e1ebaaeb7e86e193b1f2", "fusion_lon": 0.0, "lon": -77.03424716666666, "name": "75b915eb7ca1e1ebaaeb7e86e193b1f2", "is_disabled": 0, "rental_uris": {"android": "https://dc.lft.to/lastmile_qr_scan", "ios": "https://dc.lft.to/lastmile_qr_scan"}, "type": "electric_scooter", "lat": 38.91926133333333, "is_reserved": 0, "fusion_lat": 0.0}, {"bike_id": "9a47bea5fdb6aeee82884e2e7b45c673", "fusion_lon": 0.0, "lon": -77.027987, "name": "9a47bea5fdb6aeee82884e2e7b45c673", "is_disabled": 0, "rental_uris": {"android": "https://dc.lft.to/lastmile_qr_scan", "ios": "https://dc.lft.to/lastmile_qr_scan"}, "type": "electric_scooter", "lat": 38.911235166666664, "is_reserved": 0, "fusion_lat": 0.0}, {"bike_id": "e45eaf8c7f409f2596a9eb7a8b46ba7a", "fusion_lon": 0.0, "lon": -77.0230215, "name": "e45eaf8c7f409f2596a9eb7a8b46ba7a", "is_disabled": 0, "rental_uris": {"android": "https://dc.lft.to/lastmile_qr_scan", "ios": "https://dc.lft.to/lastmile_qr_scan"}, "type": "electric_scooter", "lat": 38.91550383333333, "is_reserved": 0, "fusion_lat": 0.0}, {"bike_id": "1f626e8050c8b2f34fdc41b0a3a29550", "fusion_lon": 0.0, "lon": -77.02284, "name": "1f626e8050c8b2f34fdc41b0a3a29550", "is_disabled": 0, "rental_uris": {"android": "https://dc.lft.to/lastmile_qr_scan", "ios": "https://dc.lft.to/lastmile_qr_scan"}, "type": "electric_scooter", "lat": 38.91614166666667, "is_reserved": 0, "fusion_lat": 0.0}, {"bike_id": "1f2a19d4ed2a9d1dd83e4a2f1c552b3f", "fusion_lon": 0.0, "lon": -77.04849166666666, "name": "1f2a19d4ed2a9d1dd83e4a2f1c552b3f", "is_disabled": 0, "rental_uris": {"android": "https://dc.lft.to/lastmile_qr_scan", "ios": "https://dc.lft.to/lastmile_qr_scan"}, "type": "electric_scooter", "lat": 38.91187883333333, "is_reserved": 0, "fusion_lat": 0.0}, {"bike_id": "b0465dfeae228f73ca36a64b4649d3a2", "fusion_lon": 0.0, "lon": -77.02970916666666, "name": "b0465dfeae228f73ca36a64b4649d3a2", "is_disabled": 0, "rental_uris": {"android": "https://dc.lft.to/lastmile_qr_scan", "ios": "https://dc.lft.to/lastmile_qr_scan"}, "type": "electric_scooter", "lat": 38.9228615, "is_reserved": 0, "fusion_lat": 0.0}, {"bike_id": "02ab5cca9f87aaf23f86247ad159e417", "fusion_lon": 0.0, "lon": -77.04118983333333, "name": "02ab5cca9f87aaf23f86247ad159e417", "is_disabled": 0, "rental_uris": {"android": "https://dc.lft.to/lastmile_qr_scan", "ios": "https://dc.lft.to/lastmile_qr_scan"}, "type": "electric_scooter", "lat": 38.92148483333333, "is_reserved": 0, "fusion_lat": 0.0}, {"bike_id": "fcab24edf035c513278c978482d5ab1e", "fusion_lon": 0.0, "lon": -77.0020645, "name": "fcab24edf035c513278c978482d5ab1e", "is_disabled": 0, "rental_uris": {"android": "https://dc.lft.to/lastmile_qr_scan", "ios": "https://dc.lft.to/lastmile_qr_scan"}, "type": "electric_bike", "lat": 38.8194215, "is_reserved": 0, "fusion_lat": 0.0}, {"bike_id": "b0254a93df8c1ff55ed71601065d2020", "fusion_lon": 0.0, "lon": -77.04016883333334, "name": "b0254a93df8c1ff55ed71601065d2020", "is_disabled": 0, "rental_uris": {"android": "https://dc.lft.to/lastmile_qr_scan", "ios": "https://dc.lft.to/lastmile_qr_scan"}, "type": "electric_scooter", "lat": 38.9049025, "is_reserved": 0, "fusion_lat": 0.0}, {"bike_id": "0deedf4d1e841c1ae62af5725a0bcf13", "fusion_lon": 0.0, "lon": -76.98763633333333, "name": "0deedf4d1e841c1ae62af5725a0bcf13", "is_disabled": 0, "rental_uris": {"android": "https://dc.lft.to/lastmile_qr_scan", "ios": "https://dc.lft.to/lastmile_qr_scan"}, "type": "electric_bike", "lat": 38.857678, "is_reserved": 0, "fusion_lat": 0.0}, {"bike_id": "dc6defe1268e71e4dcd99d2b964c9852", "fusion_lon": 0.0, "lon": -77.0346735, "name": "dc6defe1268e71e4dcd99d2b964c9852", "is_disabled": 0, "rental_uris": {"android": "https://dc.lft.to/lastmile_qr_scan", "ios": "https://dc.lft.to/lastmile_qr_scan"}, "type": "electric_scooter", "lat": 38.905600666666665, "is_reserved": 0, "fusion_lat": 0.0}, {"bike_id": "1b4c34299cf68bdd7b62781204fd5be7", "fusion_lon": 0.0, "lon": -77.00887883333333, "name": "1b4c34299cf68bdd7b62781204fd5be7", "is_disabled": 0, "rental_uris": {"android": "https://dc.lft.to/lastmile_qr_scan", "ios": "https://dc.lft.to/lastmile_qr_scan"}, "type": "electric_scooter", "lat": 38.92486683333333, "is_reserved": 0, "fusion_lat": 0.0}, {"bike_id": "362b4484f91d63eecccc79938ef0a0d3", "fusion_lon": 0.0, "lon": -77.00242433333334, "name": "362b4484f91d63eecccc79938ef0a0d3", "is_disabled": 0, "rental_uris": {"android": "https://dc.lft.to/lastmile_qr_scan", "ios": "https://dc.lft.to/lastmile_qr_scan"}, "type": "electric_scooter", "lat": 38.88513833333333, "is_reserved": 0, "fusion_lat": 0.0}, {"bike_id": "118babfa68e042108b0ff7ef3e4ad113", "fusion_lon": 0.0, "lon": -77.01704766666667, "name": "118babfa68e042108b0ff7ef3e4ad113", "is_disabled": 0, "rental_uris": {"android": "https://dc.lft.to/lastmile_qr_scan", "ios": "https://dc.lft.to/lastmile_qr_scan"}, "type": "electric_scooter", "lat": 38.920665166666666, "is_reserved": 0, "fusion_lat": 0.0}, {"bike_id": "cecaf9231a42d65d578bea0b86f46d2f", "fusion_lon": 0.0, "lon": -77.02383466666667, "name": "cecaf9231a42d65d578bea0b86f46d2f", "is_disabled": 0, "rental_uris": {"android": "https://dc.lft.to/lastmile_qr_scan", "ios": "https://dc.lft.to/lastmile_qr_scan"}, "type": "electric_scooter", "lat": 38.945227, "is_reserved": 0, "fusion_lat": 0.0}, {"bike_id": "fa6c012aab59660f4a105d4271e397a3", "fusion_lon": 0.0, "lon": -77.04974966666667, "name": "fa6c012aab59660f4a105d4271e397a3", "is_disabled": 0, "rental_uris": {"android": "https://dc.lft.to/lastmile_qr_scan", "ios": "https://dc.lft.to/lastmile_qr_scan"}, "type": "electric_bike", "lat": 39.06295883333333, "is_reserved": 0, "fusion_lat": 0.0}, {"bike_id": "692af529761598fb188a1d163000c4fb", "fusion_lon": 0.0, "lon": -77.02555133333334, "name": "692af529761598fb188a1d163000c4fb", "is_disabled": 0, "rental_uris": {"android": "https://dc.lft.to/lastmile_qr_scan", "ios": "https://dc.lft.to/lastmile_qr_scan"}, "type": "electric_scooter", "lat": 38.91639933333333, "is_reserved": 0, "fusion_lat": 0.0}, {"bike_id": "5d415d323441b2e69fe47e4df386155e", "fusion_lon": 0.0, "lon": -77.048927, "name": "5d415d323441b2e69fe47e4df386155e", "is_disabled": 0, "rental_uris": {"android": "https://dc.lft.to/lastmile_qr_scan", "ios": "https://dc.lft.to/lastmile_qr_scan"}, "type": "electric_scooter", "lat": 38.8900785, "is_reserved": 0, "fusion_lat": 0.0}, {"bike_id": "d148db1dfc123d32de48e0f03bbb2976", "fusion_lon": 0.0, "lon": -77.057612, "name": "d148db1dfc123d32de48e0f03bbb2976", "is_disabled": 0, "rental_uris": {"android": "https://dc.lft.to/lastmile_qr_scan", "ios": "https://dc.lft.to/lastmile_qr_scan"}, "type": "electric_scooter", "lat": 38.92496883333333, "is_reserved": 0, "fusion_lat": 0.0}, {"bike_id": "3e2a53211ca6a1b2fc7f7351b98f9303", "fusion_lon": 0.0, "lon": -76.980684, "name": "3e2a53211ca6a1b2fc7f7351b98f9303", "is_disabled": 0, "rental_uris": {"android": "https://dc.lft.to/lastmile_qr_scan", "ios": "https://dc.lft.to/lastmile_qr_scan"}, "type": "electric_scooter", "lat": 38.901767166666666, "is_reserved": 0, "fusion_lat": 0.0}, {"bike_id": "5939fafd81374371a8dbdb2c03f7a40b", "fusion_lon": 0.0, "lon": -76.99615866666667, "name": "5939fafd81374371a8dbdb2c03f7a40b", "is_disabled": 0, "rental_uris": {"android": "https://dc.lft.to/lastmile_qr_scan", "ios": "https://dc.lft.to/lastmile_qr_scan"}, "type": "electric_scooter", "lat": 38.899183666666666, "is_reserved": 0, "fusion_lat": 0.0}, {"bike_id": "7c0f5a659676acf4241e572f63d68318", "fusion_lon": 0.0, "lon": -76.9934535, "name": "7c0f5a659676acf4241e572f63d68318", "is_disabled": 0, "rental_uris": {"android": "https://dc.lft.to/lastmile_qr_scan", "ios": "https://dc.lft.to/lastmile_qr_scan"}, "type": "electric_bike", "lat": 38.9722745, "is_reserved": 0, "fusion_lat": 0.0}, {"bike_id": "a0e49a85272fee42a5fb6d37617f7a2e", "fusion_lon": 0.0, "lon": -76.97169433333333, "name": "a0e49a85272fee42a5fb6d37617f7a2e", "is_disabled": 0, "rental_uris": {"android": "https://dc.lft.to/lastmile_qr_scan", "ios": "https://dc.lft.to/lastmile_qr_scan"}, "type": "electric_scooter", "lat": 38.8543225, "is_reserved": 0, "fusion_lat": 0.0}, {"bike_id": "ee43acc62d625501f1c777331006839c", "fusion_lon": 0.0, "lon": -76.93285683333333, "name": "ee43acc62d625501f1c777331006839c", "is_disabled": 0, "rental_uris": {"android": "https://dc.lft.to/lastmile_qr_scan", "ios": "https://dc.lft.to/lastmile_qr_scan"}, "type": "electric_scooter", "lat": 38.88145566666667, "is_reserved": 0, "fusion_lat": 0.0}, {"bike_id": "9c479e3e64430a76a5fd9418b51340fa", "fusion_lon": 0.0, "lon": -76.99696466666667, "name": "9c479e3e64430a76a5fd9418b51340fa", "is_disabled": 0, "rental_uris": {"android": "https://dc.lft.to/lastmile_qr_scan", "ios": "https://dc.lft.to/lastmile_qr_scan"}, "type": "electric_scooter", "lat": 38.90840266666667, "is_reserved": 0, "fusion_lat": 0.0}, {"bike_id": "5d9d8d5a58c6c8830aab8bc2d9bec0a9", "fusion_lon": 0.0, "lon": -77.0186305, "name": "5d9d8d5a58c6c8830aab8bc2d9bec0a9", "is_disabled": 0, "rental_uris": {"android": "https://dc.lft.to/lastmile_qr_scan", "ios": "https://dc.lft.to/lastmile_qr_scan"}, "type": "electric_scooter", "lat": 38.931514166666666, "is_reserved": 0, "fusion_lat": 0.0}, {"bike_id": "1ba518af5f0e31a6be9219610e30c2b5", "fusion_lon": 0.0, "lon": -77.03676766666666, "name": "1ba518af5f0e31a6be9219610e30c2b5", "is_disabled": 0, "rental_uris": {"android": "https://dc.lft.to/lastmile_qr_scan", "ios": "https://dc.lft.to/lastmile_qr_scan"}, "type": "electric_scooter", "lat": 38.93648066666667, "is_reserved": 0, "fusion_lat": 0.0}, {"bike_id": "4cf99ef69435192eb34f22e9d2bb4b1f", "fusion_lon": 0.0, "lon": -77.0325945, "name": "4cf99ef69435192eb34f22e9d2bb4b1f", "is_disabled": 0, "rental_uris": {"android": "https://dc.lft.to/lastmile_qr_scan", "ios": "https://dc.lft.to/lastmile_qr_scan"}, "type": "electric_scooter", "lat": 38.939756333333335, "is_reserved": 0, "fusion_lat": 0.0}, {"bike_id": "1c561e384ebc1b876e319dd2adbded32", "fusion_lon": 0.0, "lon": -77.01809466666667, "name": "1c561e384ebc1b876e319dd2adbded32", "is_disabled": 0, "rental_uris": {"android": "https://dc.lft.to/lastmile_qr_scan", "ios": "https://dc.lft.to/lastmile_qr_scan"}, "type": "electric_scooter", "lat": 38.904107333333336, "is_reserved": 0, "fusion_lat": 0.0}, {"bike_id": "4d49d58fb7caf4b827768d162affc5df", "fusion_lon": 0.0, "lon": -77.073127, "name": "4d49d58fb7caf4b827768d162affc5df", "is_disabled": 0, "rental_uris": {"android": "https://dc.lft.to/lastmile_qr_scan", "ios": "https://dc.lft.to/lastmile_qr_scan"}, "type": "electric_scooter", "lat": 38.922417, "is_reserved": 0, "fusion_lat": 0.0}, {"bike_id": "86b20fa155ae8b8489e071d00bda1de2", "fusion_lon": 0.0, "lon": -77.02194016666667, "name": "86b20fa155ae8b8489e071d00bda1de2", "is_disabled": 0, "rental_uris": {"android": "https://dc.lft.to/lastmile_qr_scan", "ios": "https://dc.lft.to/lastmile_qr_scan"}, "type": "electric_scooter", "lat": 38.918408166666666, "is_reserved": 0, "fusion_lat": 0.0}, {"bike_id": "8d7a55f00f57c13a782ce9ef517fb429", "fusion_lon": 0.0, "lon": -77.01746233333333, "name": "8d7a55f00f57c13a782ce9ef517fb429", "is_disabled": 0, "rental_uris": {"android": "https://dc.lft.to/lastmile_qr_scan", "ios": "https://dc.lft.to/lastmile_qr_scan"}, "type": "electric_scooter", "lat": 38.91127616666667, "is_reserved": 0, "fusion_lat": 0.0}, {"bike_id": "4e7f03b68eb7d00f1a3c17a2146f0b99", "fusion_lon": 0.0, "lon": -76.95412833333333, "name": "4e7f03b68eb7d00f1a3c17a2146f0b99", "is_disabled": 0, "rental_uris": {"android": "https://dc.lft.to/lastmile_qr_scan", "ios": "https://dc.lft.to/lastmile_qr_scan"}, "type": "electric_bike", "lat": 38.89000683333333, "is_reserved": 0, "fusion_lat": 0.0}, {"bike_id": "fa575cde3f56f5d693ce16e601c8acb9", "fusion_lon": 0.0, "lon": -77.03108416666667, "name": "fa575cde3f56f5d693ce16e601c8acb9", "is_disabled": 0, "rental_uris": {"android": "https://dc.lft.to/lastmile_qr_scan", "ios": "https://dc.lft.to/lastmile_qr_scan"}, "type": "electric_scooter", "lat": 38.898532333333335, "is_reserved": 0, "fusion_lat": 0.0}, {"bike_id": "871b6c652adadf5c03f7340a3abb4b0c", "fusion_lon": 0.0, "lon": -77.1207475, "name": "871b6c652adadf5c03f7340a3abb4b0c", "is_disabled": 0, "rental_uris": {"android": "https://dc.lft.to/lastmile_qr_scan", "ios": "https://dc.lft.to/lastmile_qr_scan"}, "type": "electric_bike", "lat": 38.85420883333333, "is_reserved": 0, "fusion_lat": 0.0}, {"bike_id": "77524bc4b4e20950073d920e3bd48915", "fusion_lon": 0.0, "lon": -77.02300366666667, "name": "77524bc4b4e20950073d920e3bd48915", "is_disabled": 0, "rental_uris": {"android": "https://dc.lft.to/lastmile_qr_scan", "ios": "https://dc.lft.to/lastmile_qr_scan"}, "type": "electric_scooter", "lat": 38.9359765, "is_reserved": 0, "fusion_lat": 0.0}, {"bike_id": "9aa39e0d7781974a1ce3bb6a23a9e07a", "fusion_lon": 0.0, "lon": -77.03295216666666, "name": "9aa39e0d7781974a1ce3bb6a23a9e07a", "is_disabled": 0, "rental_uris": {"android": "https://dc.lft.to/lastmile_qr_scan", "ios": "https://dc.lft.to/lastmile_qr_scan"}, "type": "electric_scooter", "lat": 38.91997716666667, "is_reserved": 0, "fusion_lat": 0.0}, {"bike_id": "1455d0a1e7d558c8893bb8430e9fd2c9", "fusion_lon": 0.0, "lon": -77.03358083333333, "name": "1455d0a1e7d558c8893bb8430e9fd2c9", "is_disabled": 0, "rental_uris": {"android": "https://dc.lft.to/lastmile_qr_scan", "ios": "https://dc.lft.to/lastmile_qr_scan"}, "type": "electric_scooter", "lat": 38.89834416666667, "is_reserved": 0, "fusion_lat": 0.0}, {"bike_id": "821f86361a7a52c055844d859e34ddd8", "fusion_lon": 0.0, "lon": -77.00726616666667, "name": "821f86361a7a52c055844d859e34ddd8", "is_disabled": 0, "rental_uris": {"android": "https://dc.lft.to/lastmile_qr_scan", "ios": "https://dc.lft.to/lastmile_qr_scan"}, "type": "electric_scooter", "lat": 38.884916833333335, "is_reserved": 0, "fusion_lat": 0.0}, {"bike_id": "7ab5183305fd74cb4771a913de8c21d1", "fusion_lon": 0.0, "lon": -77.1124135, "name": "7ab5183305fd74cb4771a913de8c21d1", "is_disabled": 0, "rental_uris": {"android": "https://dc.lft.to/lastmile_qr_scan", "ios": "https://dc.lft.to/lastmile_qr_scan"}, "type": "electric_bike", "lat": 38.85606133333334, "is_reserved": 0, "fusion_lat": 0.0}, {"bike_id": "634ede334f58c2924255119183479d58", "fusion_lon": 0.0, "lon": -77.032782, "name": "634ede334f58c2924255119183479d58", "is_disabled": 0, "rental_uris": {"android": "https://dc.lft.to/lastmile_qr_scan", "ios": "https://dc.lft.to/lastmile_qr_scan"}, "type": "electric_scooter", "lat": 38.932083666666664, "is_reserved": 0, "fusion_lat": 0.0}, {"bike_id": "0b4db5c2d5635b53fdb0e9e12e42a9c7", "fusion_lon": 0.0, "lon": -77.053939, "name": "0b4db5c2d5635b53fdb0e9e12e42a9c7", "is_disabled": 0, "rental_uris": {"android": "https://dc.lft.to/lastmile_qr_scan", "ios": "https://dc.lft.to/lastmile_qr_scan"}, "type": "electric_scooter", "lat": 38.92807066666667, "is_reserved": 0, "fusion_lat": 0.0}, {"bike_id": "9bd4d6df890461c5683c020d487b53f1", "fusion_lon": 0.0, "lon": -77.003591, "name": "9bd4d6df890461c5683c020d487b53f1", "is_disabled": 0, "rental_uris": {"android": "https://dc.lft.to/lastmile_qr_scan", "ios": "https://dc.lft.to/lastmile_qr_scan"}, "type": "electric_scooter", "lat": 38.90124316666667, "is_reserved": 0, "fusion_lat": 0.0}, {"bike_id": "e49a926bd46a8664e9febb4c2c8496f6", "fusion_lon": 0.0, "lon": -77.03688633333333, "name": "e49a926bd46a8664e9febb4c2c8496f6", "is_disabled": 0, "rental_uris": {"android": "https://dc.lft.to/lastmile_qr_scan", "ios": "https://dc.lft.to/lastmile_qr_scan"}, "type": "electric_scooter", "lat": 38.916768166666664, "is_reserved": 0, "fusion_lat": 0.0}, {"bike_id": "c1e593d693c6c3ada80fd7f630e5d49b", "fusion_lon": 0.0, "lon": -77.03100233333333, "name": "c1e593d693c6c3ada80fd7f630e5d49b", "is_disabled": 0, "rental_uris": {"android": "https://dc.lft.to/lastmile_qr_scan", "ios": "https://dc.lft.to/lastmile_qr_scan"}, "type": "electric_scooter", "lat": 38.91927733333333, "is_reserved": 0, "fusion_lat": 0.0}, {"bike_id": "8c0824ccfedc7b0043799c9af289b583", "fusion_lon": 0.0, "lon": -77.055241, "name": "8c0824ccfedc7b0043799c9af289b583", "is_disabled": 0, "rental_uris": {"android": "https://dc.lft.to/lastmile_qr_scan", "ios": "https://dc.lft.to/lastmile_qr_scan"}, "type": "electric_scooter", "lat": 38.89728366666667, "is_reserved": 0, "fusion_lat": 0.0}, {"bike_id": "873524b628f0c902c8e35fe1e90be9bb", "fusion_lon": 0.0, "lon": -77.03854983333333, "name": "873524b628f0c902c8e35fe1e90be9bb", "is_disabled": 0, "rental_uris": {"android": "https://dc.lft.to/lastmile_qr_scan", "ios": "https://dc.lft.to/lastmile_qr_scan"}, "type": "electric_scooter", "lat": 38.916854, "is_reserved": 0, "fusion_lat": 0.0}, {"bike_id": "73ddb90609468f49b2e0acd48c790445", "fusion_lon": 0.0, "lon": -77.03877916666667, "name": "73ddb90609468f49b2e0acd48c790445", "is_disabled": 0, "rental_uris": {"android": "https://dc.lft.to/lastmile_qr_scan", "ios": "https://dc.lft.to/lastmile_qr_scan"}, "type": "electric_scooter", "lat": 38.91709783333334, "is_reserved": 0, "fusion_lat": 0.0}, {"bike_id": "40ca7d742b1d705b4c3ddea3690478cd", "fusion_lon": 0.0, "lon": -77.01486016666667, "name": "40ca7d742b1d705b4c3ddea3690478cd", "is_disabled": 0, "rental_uris": {"android": "https://dc.lft.to/lastmile_qr_scan", "ios": "https://dc.lft.to/lastmile_qr_scan"}, "type": "electric_scooter", "lat": 38.8765545, "is_reserved": 0, "fusion_lat": 0.0}, {"bike_id": "50e1e3dd175195eb2800634bf637e77a", "fusion_lon": 0.0, "lon": -77.023431, "name": "50e1e3dd175195eb2800634bf637e77a", "is_disabled": 0, "rental_uris": {"android": "https://dc.lft.to/lastmile_qr_scan", "ios": "https://dc.lft.to/lastmile_qr_scan"}, "type": "electric_scooter", "lat": 38.90736316666667, "is_reserved": 0, "fusion_lat": 0.0}, {"bike_id": "0cf5f5dbc6abe7198c54656d9424ce61", "fusion_lon": 0.0, "lon": -77.0339775, "name": "0cf5f5dbc6abe7198c54656d9424ce61", "is_disabled": 0, "rental_uris": {"android": "https://dc.lft.to/lastmile_qr_scan", "ios": "https://dc.lft.to/lastmile_qr_scan"}, "type": "electric_scooter", "lat": 38.9197625, "is_reserved": 0, "fusion_lat": 0.0}, {"bike_id": "889e246cc085e08ea6c7bbb684d4e26f", "fusion_lon": 0.0, "lon": -77.0326715, "name": "889e246cc085e08ea6c7bbb684d4e26f", "is_disabled": 0, "rental_uris": {"android": "https://dc.lft.to/lastmile_qr_scan", "ios": "https://dc.lft.to/lastmile_qr_scan"}, "type": "electric_scooter", "lat": 38.932667333333335, "is_reserved": 0, "fusion_lat": 0.0}, {"bike_id": "bb2c06647c61ecb1b57f9506dd4e8ee3", "fusion_lon": 0.0, "lon": -77.03670733333334, "name": "bb2c06647c61ecb1b57f9506dd4e8ee3", "is_disabled": 0, "rental_uris": {"android": "https://dc.lft.to/lastmile_qr_scan", "ios": "https://dc.lft.to/lastmile_qr_scan"}, "type": "electric_scooter", "lat": 38.917121, "is_reserved": 0, "fusion_lat": 0.0}, {"bike_id": "7df7f47b2a681eec256171a53a78d58c", "fusion_lon": 0.0, "lon": -77.03418883333333, "name": "7df7f47b2a681eec256171a53a78d58c", "is_disabled": 0, "rental_uris": {"android": "https://dc.lft.to/lastmile_qr_scan", "ios": "https://dc.lft.to/lastmile_qr_scan"}, "type": "electric_scooter", "lat": 38.9193225, "is_reserved": 0, "fusion_lat": 0.0}, {"bike_id": "13aec79ee375183686d98ab26955ab9a", "fusion_lon": 0.0, "lon": -77.02885883333333, "name": "13aec79ee375183686d98ab26955ab9a", "is_disabled": 0, "rental_uris": {"android": "https://dc.lft.to/lastmile_qr_scan", "ios": "https://dc.lft.to/lastmile_qr_scan"}, "type": "electric_scooter", "lat": 38.90440733333333, "is_reserved": 0, "fusion_lat": 0.0}, {"bike_id": "d7757a133662b550f45d366af488852c", "fusion_lon": 0.0, "lon": -77.1296135, "name": "d7757a133662b550f45d366af488852c", "is_disabled": 0, "rental_uris": {"android": "https://dc.lft.to/lastmile_qr_scan", "ios": "https://dc.lft.to/lastmile_qr_scan"}, "type": "electric_bike", "lat": 38.852205, "is_reserved": 0, "fusion_lat": 0.0}, {"bike_id": "0db5b7bc60eff5fb10be28593eb1bb71", "fusion_lon": 0.0, "lon": -77.04008833333333, "name": "0db5b7bc60eff5fb10be28593eb1bb71", "is_disabled": 0, "rental_uris": {"android": "https://dc.lft.to/lastmile_qr_scan", "ios": "https://dc.lft.to/lastmile_qr_scan"}, "type": "electric_scooter", "lat": 38.910010666666665, "is_reserved": 0, "fusion_lat": 0.0}, {"bike_id": "baefc69a3fa4e0ac65e5ab0aadd6a6c5", "fusion_lon": 0.0, "lon": -76.93228316666666, "name": "baefc69a3fa4e0ac65e5ab0aadd6a6c5", "is_disabled": 0, "rental_uris": {"android": "https://dc.lft.to/lastmile_qr_scan", "ios": "https://dc.lft.to/lastmile_qr_scan"}, "type": "electric_bike", "lat": 38.8659625, "is_reserved": 0, "fusion_lat": 0.0}, {"bike_id": "d31f126a96c12ed1d80f7f1ea27bef29", "fusion_lon": 0.0, "lon": -76.99021683333333, "name": "d31f126a96c12ed1d80f7f1ea27bef29", "is_disabled": 0, "rental_uris": {"android": "https://dc.lft.to/lastmile_qr_scan", "ios": "https://dc.lft.to/lastmile_qr_scan"}, "type": "electric_scooter", "lat": 38.8652735, "is_reserved": 0, "fusion_lat": 0.0}, {"bike_id": "b44fe65d06e227b08090abeb1d9a1d2f", "fusion_lon": 0.0, "lon": -77.03484583333334, "name": "b44fe65d06e227b08090abeb1d9a1d2f", "is_disabled": 0, "rental_uris": {"android": "https://dc.lft.to/lastmile_qr_scan", "ios": "https://dc.lft.to/lastmile_qr_scan"}, "type": "electric_bike", "lat": 38.93535283333333, "is_reserved": 0, "fusion_lat": 0.0}, {"bike_id": "bf0788e43c419c19c4bdcf65256ca0ca", "fusion_lon": 0.0, "lon": -77.050855, "name": "bf0788e43c419c19c4bdcf65256ca0ca", "is_disabled": 0, "rental_uris": {"android": "https://dc.lft.to/lastmile_qr_scan", "ios": "https://dc.lft.to/lastmile_qr_scan"}, "type": "electric_bike", "lat": 38.81336233333333, "is_reserved": 0, "fusion_lat": 0.0}, {"bike_id": "32a27ce7f40c5bd8f964b8261ada0c06", "fusion_lon": 0.0, "lon": -77.04390066666667, "name": "32a27ce7f40c5bd8f964b8261ada0c06", "is_disabled": 0, "rental_uris": {"android": "https://dc.lft.to/lastmile_qr_scan", "ios": "https://dc.lft.to/lastmile_qr_scan"}, "type": "electric_scooter", "lat": 38.90883866666667, "is_reserved": 0, "fusion_lat": 0.0}, {"bike_id": "045b32228b38c6c98888880fb46858aa", "fusion_lon": 0.0, "lon": -76.98451383333334, "name": "045b32228b38c6c98888880fb46858aa", "is_disabled": 0, "rental_uris": {"android": "https://dc.lft.to/lastmile_qr_scan", "ios": "https://dc.lft.to/lastmile_qr_scan"}, "type": "electric_scooter", "lat": 38.880189333333334, "is_reserved": 0, "fusion_lat": 0.0}, {"bike_id": "d2c985a4490636a63be4229bdece3a50", "fusion_lon": 0.0, "lon": -77.02710283333333, "name": "d2c985a4490636a63be4229bdece3a50", "is_disabled": 0, "rental_uris": {"android": "https://dc.lft.to/lastmile_qr_scan", "ios": "https://dc.lft.to/lastmile_qr_scan"}, "type": "electric_scooter", "lat": 38.881442, "is_reserved": 0, "fusion_lat": 0.0}, {"bike_id": "05a5f2372789c51eac7d414196bd9184", "fusion_lon": 0.0, "lon": -77.0177675, "name": "05a5f2372789c51eac7d414196bd9184", "is_disabled": 0, "rental_uris": {"android": "https://dc.lft.to/lastmile_qr_scan", "ios": "https://dc.lft.to/lastmile_qr_scan"}, "type": "electric_scooter", "lat": 38.88716683333333, "is_reserved": 0, "fusion_lat": 0.0}, {"bike_id": "0c57f0cdeecd5177569267f734909051", "fusion_lon": 0.0, "lon": -77.02342716666666, "name": "0c57f0cdeecd5177569267f734909051", "is_disabled": 0, "rental_uris": {"android": "https://dc.lft.to/lastmile_qr_scan", "ios": "https://dc.lft.to/lastmile_qr_scan"}, "type": "electric_scooter", "lat": 38.9073955, "is_reserved": 0, "fusion_lat": 0.0}, {"bike_id": "4bffe203dc8ca25ee3ea2ea084c7c068", "fusion_lon": 0.0, "lon": -76.98631716666667, "name": "4bffe203dc8ca25ee3ea2ea084c7c068", "is_disabled": 0, "rental_uris": {"android": "https://dc.lft.to/lastmile_qr_scan", "ios": "https://dc.lft.to/lastmile_qr_scan"}, "type": "electric_scooter", "lat": 38.88047016666667, "is_reserved": 0, "fusion_lat": 0.0}, {"bike_id": "bc7d77edd39a3dac85376e66bbc10d4c", "fusion_lon": 0.0, "lon": -77.021722, "name": "bc7d77edd39a3dac85376e66bbc10d4c", "is_disabled": 0, "rental_uris": {"android": "https://dc.lft.to/lastmile_qr_scan", "ios": "https://dc.lft.to/lastmile_qr_scan"}, "type": "electric_scooter", "lat": 38.90964116666667, "is_reserved": 0, "fusion_lat": 0.0}, {"bike_id": "47d6005e47413650ac8ad4812bc2dffd", "fusion_lon": 0.0, "lon": -77.1101935, "name": "47d6005e47413650ac8ad4812bc2dffd", "is_disabled": 0, "rental_uris": {"android": "https://dc.lft.to/lastmile_qr_scan", "ios": "https://dc.lft.to/lastmile_qr_scan"}, "type": "electric_bike", "lat": 38.847452833333335, "is_reserved": 0, "fusion_lat": 0.0}, {"bike_id": "a25b524882eb1148abfeeb4ad417328d", "fusion_lon": 0.0, "lon": -77.03657816666667, "name": "a25b524882eb1148abfeeb4ad417328d", "is_disabled": 0, "rental_uris": {"android": "https://dc.lft.to/lastmile_qr_scan", "ios": "https://dc.lft.to/lastmile_qr_scan"}, "type": "electric_scooter", "lat": 38.923855833333334, "is_reserved": 0, "fusion_lat": 0.0}, {"bike_id": "c003335f05462167e40fe4b41329e5c3", "fusion_lon": 0.0, "lon": -77.11597416666666, "name": "c003335f05462167e40fe4b41329e5c3", "is_disabled": 0, "rental_uris": {"android": "https://dc.lft.to/lastmile_qr_scan", "ios": "https://dc.lft.to/lastmile_qr_scan"}, "type": "electric_bike", "lat": 39.0749575, "is_reserved": 0, "fusion_lat": 0.0}, {"bike_id": "fc906c97c465ca390dc7b4200c0186a3", "fusion_lon": 0.0, "lon": -76.99770716666667, "name": "fc906c97c465ca390dc7b4200c0186a3", "is_disabled": 0, "rental_uris": {"android": "https://dc.lft.to/lastmile_qr_scan", "ios": "https://dc.lft.to/lastmile_qr_scan"}, "type": "electric_scooter", "lat": 38.90915733333333, "is_reserved": 0, "fusion_lat": 0.0}, {"bike_id": "8a163df2d3037733eade0787592c18b5", "fusion_lon": 0.0, "lon": -77.043933, "name": "8a163df2d3037733eade0787592c18b5", "is_disabled": 0, "rental_uris": {"android": "https://dc.lft.to/lastmile_qr_scan", "ios": "https://dc.lft.to/lastmile_qr_scan"}, "type": "electric_scooter", "lat": 38.910877166666666, "is_reserved": 0, "fusion_lat": 0.0}, {"bike_id": "ff658142de526052fe30c59339755aba", "fusion_lon": 0.0, "lon": -77.05896766666666, "name": "ff658142de526052fe30c59339755aba", "is_disabled": 0, "rental_uris": {"android": "https://dc.lft.to/lastmile_qr_scan", "ios": "https://dc.lft.to/lastmile_qr_scan"}, "type": "electric_scooter", "lat": 38.93610833333334, "is_reserved": 0, "fusion_lat": 0.0}, {"bike_id": "a6dacc9ff4e806243733f169e3137629", "fusion_lon": 0.0, "lon": -77.085947, "name": "a6dacc9ff4e806243733f169e3137629", "is_disabled": 0, "rental_uris": {"android": "https://dc.lft.to/lastmile_qr_scan", "ios": "https://dc.lft.to/lastmile_qr_scan"}, "type": "electric_scooter", "lat": 38.908688166666664, "is_reserved": 0, "fusion_lat": 0.0}, {"bike_id": "3c11b99554ef0b37598db15b5b7b2358", "fusion_lon": 0.0, "lon": -76.995977, "name": "3c11b99554ef0b37598db15b5b7b2358", "is_disabled": 0, "rental_uris": {"android": "https://dc.lft.to/lastmile_qr_scan", "ios": "https://dc.lft.to/lastmile_qr_scan"}, "type": "electric_bike", "lat": 38.95075, "is_reserved": 0, "fusion_lat": 0.0}, {"bike_id": "11c7f231fc970141e79ec067f34bebef", "fusion_lon": 0.0, "lon": -77.02214666666667, "name": "11c7f231fc970141e79ec067f34bebef", "is_disabled": 0, "rental_uris": {"android": "https://dc.lft.to/lastmile_qr_scan", "ios": "https://dc.lft.to/lastmile_qr_scan"}, "type": "electric_scooter", "lat": 38.91563383333333, "is_reserved": 0, "fusion_lat": 0.0}, {"bike_id": "f5f96b60e7f7ee8e7087f543ee81860f", "fusion_lon": 0.0, "lon": -77.0433915, "name": "f5f96b60e7f7ee8e7087f543ee81860f", "is_disabled": 0, "rental_uris": {"android": "https://dc.lft.to/lastmile_qr_scan", "ios": "https://dc.lft.to/lastmile_qr_scan"}, "type": "electric_scooter", "lat": 38.8952135, "is_reserved": 0, "fusion_lat": 0.0}, {"bike_id": "bb87866128688708133c4bf37da30a55", "fusion_lon": 0.0, "lon": -77.04450883333334, "name": "bb87866128688708133c4bf37da30a55", "is_disabled": 0, "rental_uris": {"android": "https://dc.lft.to/lastmile_qr_scan", "ios": "https://dc.lft.to/lastmile_qr_scan"}, "type": "electric_scooter", "lat": 38.91187, "is_reserved": 0, "fusion_lat": 0.0}, {"bike_id": "3e948ebc731e2c6b97e52e9d36883e32", "fusion_lon": 0.0, "lon": -76.96465966666666, "name": "3e948ebc731e2c6b97e52e9d36883e32", "is_disabled": 0, "rental_uris": {"android": "https://dc.lft.to/lastmile_qr_scan", "ios": "https://dc.lft.to/lastmile_qr_scan"}, "type": "electric_scooter", "lat": 38.9344815, "is_reserved": 0, "fusion_lat": 0.0}, {"bike_id": "1bd3fda5af35b8054b873fbc5caab8e9", "fusion_lon": 0.0, "lon": -77.0315525, "name": "1bd3fda5af35b8054b873fbc5caab8e9", "is_disabled": 0, "rental_uris": {"android": "https://dc.lft.to/lastmile_qr_scan", "ios": "https://dc.lft.to/lastmile_qr_scan"}, "type": "electric_scooter", "lat": 38.920275333333336, "is_reserved": 0, "fusion_lat": 0.0}, {"bike_id": "fa32dbf885052e1ab20127ff9295c99f", "fusion_lon": 0.0, "lon": -77.0385555, "name": "fa32dbf885052e1ab20127ff9295c99f", "is_disabled": 0, "rental_uris": {"android": "https://dc.lft.to/lastmile_qr_scan", "ios": "https://dc.lft.to/lastmile_qr_scan"}, "type": "electric_scooter", "lat": 38.9154565, "is_reserved": 0, "fusion_lat": 0.0}, {"bike_id": "e38d055bbe1ea10fc3c1ad13d3f6da36", "fusion_lon": 0.0, "lon": -77.03180516666667, "name": "e38d055bbe1ea10fc3c1ad13d3f6da36", "is_disabled": 0, "rental_uris": {"android": "https://dc.lft.to/lastmile_qr_scan", "ios": "https://dc.lft.to/lastmile_qr_scan"}, "type": "electric_scooter", "lat": 38.92485, "is_reserved": 0, "fusion_lat": 0.0}, {"bike_id": "674d651c379f32be8d11978ecd606e5a", "fusion_lon": 0.0, "lon": -76.99948033333334, "name": "674d651c379f32be8d11978ecd606e5a", "is_disabled": 0, "rental_uris": {"android": "https://dc.lft.to/lastmile_qr_scan", "ios": "https://dc.lft.to/lastmile_qr_scan"}, "type": "electric_scooter", "lat": 38.84298066666667, "is_reserved": 0, "fusion_lat": 0.0}, {"bike_id": "aa8c9da23e241bbe593f6e17a78278d3", "fusion_lon": 0.0, "lon": -77.01853766666666, "name": "aa8c9da23e241bbe593f6e17a78278d3", "is_disabled": 0, "rental_uris": {"android": "https://dc.lft.to/lastmile_qr_scan", "ios": "https://dc.lft.to/lastmile_qr_scan"}, "type": "electric_scooter", "lat": 38.87706983333333, "is_reserved": 0, "fusion_lat": 0.0}, {"bike_id": "ec364cafc19a9a9864288f67635c2534", "fusion_lon": 0.0, "lon": -77.024799, "name": "ec364cafc19a9a9864288f67635c2534", "is_disabled": 0, "rental_uris": {"android": "https://dc.lft.to/lastmile_qr_scan", "ios": "https://dc.lft.to/lastmile_qr_scan"}, "type": "electric_scooter", "lat": 38.9033235, "is_reserved": 0, "fusion_lat": 0.0}, {"bike_id": "18005f77198797f5884fb79d4031f82f", "fusion_lon": 0.0, "lon": -77.02802066666666, "name": "18005f77198797f5884fb79d4031f82f", "is_disabled": 0, "rental_uris": {"android": "https://dc.lft.to/lastmile_qr_scan", "ios": "https://dc.lft.to/lastmile_qr_scan"}, "type": "electric_scooter", "lat": 38.9168455, "is_reserved": 0, "fusion_lat": 0.0}, {"bike_id": "f07c662bbd194923c275bda4e6ac74df", "fusion_lon": 0.0, "lon": -77.0265125, "name": "f07c662bbd194923c275bda4e6ac74df", "is_disabled": 0, "rental_uris": {"android": "https://dc.lft.to/lastmile_qr_scan", "ios": "https://dc.lft.to/lastmile_qr_scan"}, "type": "electric_bike", "lat": 38.98821933333333, "is_reserved": 0, "fusion_lat": 0.0}, {"bike_id": "4a21c2aff964cbfa6927e31a56cda2db", "fusion_lon": 0.0, "lon": -77.0020545, "name": "4a21c2aff964cbfa6927e31a56cda2db", "is_disabled": 0, "rental_uris": {"android": "https://dc.lft.to/lastmile_qr_scan", "ios": "https://dc.lft.to/lastmile_qr_scan"}, "type": "electric_scooter", "lat": 38.900730833333334, "is_reserved": 0, "fusion_lat": 0.0}, {"bike_id": "80adde61e0991d383c553ab37d743a04", "fusion_lon": 0.0, "lon": -77.0388535, "name": "80adde61e0991d383c553ab37d743a04", "is_disabled": 0, "rental_uris": {"android": "https://dc.lft.to/lastmile_qr_scan", "ios": "https://dc.lft.to/lastmile_qr_scan"}, "type": "electric_scooter", "lat": 38.92516283333333, "is_reserved": 0, "fusion_lat": 0.0}, {"bike_id": "c8f722642a344f4c8b279f1dda474e2b", "fusion_lon": 0.0, "lon": -76.99952366666666, "name": "c8f722642a344f4c8b279f1dda474e2b", "is_disabled": 0, "rental_uris": {"android": "https://dc.lft.to/lastmile_qr_scan", "ios": "https://dc.lft.to/lastmile_qr_scan"}, "type": "electric_scooter", "lat": 38.91902666666667, "is_reserved": 0, "fusion_lat": 0.0}, {"bike_id": "5a9772e4db647d56e130ed9e47bd1984", "fusion_lon": 0.0, "lon": -76.92487233333334, "name": "5a9772e4db647d56e130ed9e47bd1984", "is_disabled": 0, "rental_uris": {"android": "https://dc.lft.to/lastmile_qr_scan", "ios": "https://dc.lft.to/lastmile_qr_scan"}, "type": "electric_bike", "lat": 38.95911683333333, "is_reserved": 0, "fusion_lat": 0.0}, {"bike_id": "7c96190cd50db5a42915d5e28ffd20b0", "fusion_lon": 0.0, "lon": -76.99642116666666, "name": "7c96190cd50db5a42915d5e28ffd20b0", "is_disabled": 0, "rental_uris": {"android": "https://dc.lft.to/lastmile_qr_scan", "ios": "https://dc.lft.to/lastmile_qr_scan"}, "type": "electric_bike", "lat": 38.988282, "is_reserved": 0, "fusion_lat": 0.0}, {"bike_id": "692f23f22f5af10d046b623a877cd402", "fusion_lon": 0.0, "lon": -77.05857916666666, "name": "692f23f22f5af10d046b623a877cd402", "is_disabled": 0, "rental_uris": {"android": "https://dc.lft.to/lastmile_qr_scan", "ios": "https://dc.lft.to/lastmile_qr_scan"}, "type": "electric_scooter", "lat": 38.93610066666667, "is_reserved": 0, "fusion_lat": 0.0}, {"bike_id": "868a0c7a102cfc7239dd55192999ef39", "fusion_lon": 0.0, "lon": -77.0419625, "name": "868a0c7a102cfc7239dd55192999ef39", "is_disabled": 0, "rental_uris": {"android": "https://dc.lft.to/lastmile_qr_scan", "ios": "https://dc.lft.to/lastmile_qr_scan"}, "type": "electric_scooter", "lat": 38.911285, "is_reserved": 0, "fusion_lat": 0.0}, {"bike_id": "9bf6eb73c20b48c5d7c30dd556ae41b0", "fusion_lon": 0.0, "lon": -77.026363, "name": "9bf6eb73c20b48c5d7c30dd556ae41b0", "is_disabled": 0, "rental_uris": {"android": "https://dc.lft.to/lastmile_qr_scan", "ios": "https://dc.lft.to/lastmile_qr_scan"}, "type": "electric_scooter", "lat": 38.92543216666667, "is_reserved": 0, "fusion_lat": 0.0}, {"bike_id": "e99ddb83e3fde213703a1223a99845b1", "fusion_lon": 0.0, "lon": -76.96527783333333, "name": "e99ddb83e3fde213703a1223a99845b1", "is_disabled": 0, "rental_uris": {"android": "https://dc.lft.to/lastmile_qr_scan", "ios": "https://dc.lft.to/lastmile_qr_scan"}, "type": "electric_scooter", "lat": 38.87629666666667, "is_reserved": 0, "fusion_lat": 0.0}, {"bike_id": "2562642f76cbbc092ce88fd432908dff", "fusion_lon": 0.0, "lon": -77.02176583333333, "name": "2562642f76cbbc092ce88fd432908dff", "is_disabled": 0, "rental_uris": {"android": "https://dc.lft.to/lastmile_qr_scan", "ios": "https://dc.lft.to/lastmile_qr_scan"}, "type": "electric_bike", "lat": 38.90701716666667, "is_reserved": 0, "fusion_lat": 0.0}, {"bike_id": "6740342e117239363a6780d6342d9d62", "fusion_lon": 0.0, "lon": -77.021243, "name": "6740342e117239363a6780d6342d9d62", "is_disabled": 0, "rental_uris": {"android": "https://dc.lft.to/lastmile_qr_scan", "ios": "https://dc.lft.to/lastmile_qr_scan"},