{"data": {"bikes": [{"lon": -77.02699566666666, "fusion_lon": 0.0, "bike_id": "8f7a5240a1e750df8b0b22c325fdfad3", "type": "electric_scooter", "name": "8f7a5240a1e750df8b0b22c325fdfad3", "rental_uris": {"android": "https://dc.lft.to/lastmile_qr_scan", "ios": "https://dc.lft.to/lastmile_qr_scan"}, "is_disabled": 0, "fusion_lat": 0.0, "lat": 38.908405, "is_reserved": 0}, {"lon": -77.04325083333333, "fusion_lon": 0.0, "bike_id": "87477a6d955ecf6923f3e93fa5176fcc", "type": "electric_scooter", "name": "87477a6d955ecf6923f3e93fa5176fcc", "rental_uris": {"android": "https://dc.lft.to/lastmile_qr_scan", "ios": "https://dc.lft.to/lastmile_qr_scan"}, "is_disabled": 0, "fusion_lat": 0.0, "lat": 38.908262, "is_reserved": 0}, {"lon": -77.02234083333333, "fusion_lon": 0.0, "bike_id": "6865b85c9d1e9e612086aca30bc7dc58", "type": "electric_scooter", "name": "6865b85c9d1e9e612086aca30bc7dc58", "rental_uris": {"android": "https://dc.lft.to/lastmile_qr_scan", "ios": "https://dc.lft.to/lastmile_qr_scan"}, "is_disabled": 0, "fusion_lat": 0.0, "lat": 38.92218616666667, "is_reserved": 0}, {"lon": -77.00679883333333, "fusion_lon": 0.0, "bike_id": "4f8e8ed3712fa4a585614bb3b2ec835e", "type": "electric_bike", "name": "4f8e8ed3712fa4a585614bb3b2ec835e", "rental_uris": {"android": "https://dc.lft.to/lastmile_qr_scan", "ios": "https://dc.lft.to/lastmile_qr_scan"}, "is_disabled": 0, "fusion_lat": 0.0, "lat": 38.945198166666664, "is_reserved": 0}, {"lon": -77.07232666666667, "fusion_lon": 0.0, "bike_id": "17a1ed9fbd205ac7fb62cb39eed86246", "type": "electric_scooter", "name": "17a1ed9fbd205ac7fb62cb39eed86246", "rental_uris": {"android": "https://dc.lft.to/lastmile_qr_scan", "ios": "https://dc.lft.to/lastmile_qr_scan"}, "is_disabled": 0, "fusion_lat": 0.0, "lat": 38.931893, "is_reserved": 0}, {"lon": -76.99984733333334, "fusion_lon": 0.0, "bike_id": "1e66027829ef4166ad0deefcbbba5ae3", "type": "electric_scooter", "name": "1e66027829ef4166ad0deefcbbba5ae3", "rental_uris": {"android": "https://dc.lft.to/lastmile_qr_scan", "ios": "https://dc.lft.to/lastmile_qr_scan"}, "is_disabled": 0, "fusion_lat": 0.0, "lat": 38.879208, "is_reserved": 0}, {"lon": -77.042347, "fusion_lon": 0.0, "bike_id": "ed80b74a2c195a7d710721bd331396ea", "type": "electric_scooter", "name": "ed80b74a2c195a7d710721bd331396ea", "rental_uris": {"android": "https://dc.lft.to/lastmile_qr_scan", "ios": "https://dc.lft.to/lastmile_qr_scan"}, "is_disabled": 0, "fusion_lat": 0.0, "lat": 38.9205435, "is_reserved": 0}, {"lon": -76.998596, "fusion_lon": 0.0, "bike_id": "44d86feafd4cf3b431b7a423295b270a", "type": "electric_scooter", "name": "44d86feafd4cf3b431b7a423295b270a", "rental_uris": {"android": "https://dc.lft.to/lastmile_qr_scan", "ios": "https://dc.lft.to/lastmile_qr_scan"}, "is_disabled": 0, "fusion_lat": 0.0, "lat": 38.90882516666667, "is_reserved": 0}, {"lon": -77.01415283333333, "fusion_lon": 0.0, "bike_id": "cecbf4e4c28fe276bb0946d6e9070eb8", "type": "electric_scooter", "name": "cecbf4e4c28fe276bb0946d6e9070eb8", "rental_uris": {"android": "https://dc.lft.to/lastmile_qr_scan", "ios": "https://dc.lft.to/lastmile_qr_scan"}, "is_disabled": 0, "fusion_lat": 0.0, "lat": 38.892192333333334, "is_reserved": 0}, {"lon": -77.03150366666667, "fusion_lon": 0.0, "bike_id": "1c3133f2dcae04514be50cf4e6619baf", "type": "electric_scooter", "name": "1c3133f2dcae04514be50cf4e6619baf", "rental_uris": {"android": "https://dc.lft.to/lastmile_qr_scan", "ios": "https://dc.lft.to/lastmile_qr_scan"}, "is_disabled": 0, "fusion_lat": 0.0, "lat": 38.9111835, "is_reserved": 0}, {"lon": -77.0287545, "fusion_lon": 0.0, "bike_id": "cb6eb4f044bcdac89673fc60348ff483", "type": "electric_scooter", "name": "cb6eb4f044bcdac89673fc60348ff483", "rental_uris": {"android": "https://dc.lft.to/lastmile_qr_scan", "ios": "https://dc.lft.to/lastmile_qr_scan"}, "is_disabled": 0, "fusion_lat": 0.0, "lat": 38.915504, "is_reserved": 0}, {"lon": -77.06398716666666, "fusion_lon": 0.0, "bike_id": "6849c2907e04698ae7953e96cef89469", "type": "electric_scooter", "name": "6849c2907e04698ae7953e96cef89469", "rental_uris": {"android": "https://dc.lft.to/lastmile_qr_scan", "ios": "https://dc.lft.to/lastmile_qr_scan"}, "is_disabled": 0, "fusion_lat": 0.0, "lat": 38.94414883333334, "is_reserved": 0}, {"lon": -77.00258033333333, "fusion_lon": 0.0, "bike_id": "2fa026926c066e3469fac487634d709d", "type": "electric_scooter", "name": "2fa026926c066e3469fac487634d709d", "rental_uris": {"android": "https://dc.lft.to/lastmile_qr_scan", "ios": "https://dc.lft.to/lastmile_qr_scan"}, "is_disabled": 0, "fusion_lat": 0.0, "lat": 38.894883666666665, "is_reserved": 0}, {"lon": -77.04103883333333, "fusion_lon": 0.0, "bike_id": "df0f67fcb6497011a31b08051a7acd11", "type": "electric_scooter", "name": "df0f67fcb6497011a31b08051a7acd11", "rental_uris": {"android": "https://dc.lft.to/lastmile_qr_scan", "ios": "https://dc.lft.to/lastmile_qr_scan"}, "is_disabled": 0, "fusion_lat": 0.0, "lat": 38.910450833333336, "is_reserved": 0}, {"lon": -77.01102733333333, "fusion_lon": 0.0, "bike_id": "30be402d8455764f8283630505096348", "type": "electric_bike", "name": "30be402d8455764f8283630505096348", "rental_uris": {"android": "https://dc.lft.to/lastmile_qr_scan", "ios": "https://dc.lft.to/lastmile_qr_scan"}, "is_disabled": 0, "fusion_lat": 0.0, "lat": 38.87299383333333, "is_reserved": 0}, {"lon": -77.01406333333334, "fusion_lon": 0.0, "bike_id": "aafed28bf9cd77291d152d697199bc6e", "type": "electric_scooter", "name": "aafed28bf9cd77291d152d697199bc6e", "rental_uris": {"android": "https://dc.lft.to/lastmile_qr_scan", "ios": "https://dc.lft.to/lastmile_qr_scan"}, "is_disabled": 0, "fusion_lat": 0.0, "lat": 38.9280955, "is_reserved": 0}, {"lon": -76.9373215, "fusion_lon": 0.0, "bike_id": "ba19c29aa7ade705f50df098caea1dfc", "type": "electric_scooter", "name": "ba19c29aa7ade705f50df098caea1dfc", "rental_uris": {"android": "https://dc.lft.to/lastmile_qr_scan", "ios": "https://dc.lft.to/lastmile_qr_scan"}, "is_disabled": 0, "fusion_lat": 0.0, "lat": 38.89025983333333, "is_reserved": 0}, {"lon": -77.0487075, "fusion_lon": 0.0, "bike_id": "f2b8a5e3a14c693b012ed1819f1dd172", "type": "electric_scooter", "name": "f2b8a5e3a14c693b012ed1819f1dd172", "rental_uris": {"android": "https://dc.lft.to/lastmile_qr_scan", "ios": "https://dc.lft.to/lastmile_qr_scan"}, "is_disabled": 0, "fusion_lat": 0.0, "lat": 38.90971566666666, "is_reserved": 0}, {"lon": -77.0405545, "fusion_lon": 0.0, "bike_id": "cebb921ec25decd199c036b41a722931", "type": "electric_scooter", "name": "cebb921ec25decd199c036b41a722931", "rental_uris": {"android": "https://dc.lft.to/lastmile_qr_scan", "ios": "https://dc.lft.to/lastmile_qr_scan"}, "is_disabled": 0, "fusion_lat": 0.0, "lat": 38.90600116666667, "is_reserved": 0}, {"lon": -77.0054105, "fusion_lon": 0.0, "bike_id": "012c549bf3f8b3648fde701015eff5a3", "type": "electric_scooter", "name": "012c549bf3f8b3648fde701015eff5a3", "rental_uris": {"android": "https://dc.lft.to/lastmile_qr_scan", "ios": "https://dc.lft.to/lastmile_qr_scan"}, "is_disabled": 0, "fusion_lat": 0.0, "lat": 38.846486, "is_reserved": 0}, {"lon": -77.037119, "fusion_lon": 0.0, "bike_id": "c1bd76dff4326509c427891148249baf", "type": "electric_scooter", "name": "c1bd76dff4326509c427891148249baf", "rental_uris": {"android": "https://dc.lft.to/lastmile_qr_scan", "ios": "https://dc.lft.to/lastmile_qr_scan"}, "is_disabled": 0, "fusion_lat": 0.0, "lat": 38.92791916666667, "is_reserved": 0}, {"lon": -77.03306433333333, "fusion_lon": 0.0, "bike_id": "d499fedc108281ddfd7f16a0eb5b7fc9", "type": "electric_scooter", "name": "d499fedc108281ddfd7f16a0eb5b7fc9", "rental_uris": {"android": "https://dc.lft.to/lastmile_qr_scan", "ios": "https://dc.lft.to/lastmile_qr_scan"}, "is_disabled": 0, "fusion_lat": 0.0, "lat": 38.95630383333334, "is_reserved": 0}, {"lon": -77.0426625, "fusion_lon": 0.0, "bike_id": "4bfd6b5de49dec7c4e57fee27040beae", "type": "electric_scooter", "name": "4bfd6b5de49dec7c4e57fee27040beae", "rental_uris": {"android": "https://dc.lft.to/lastmile_qr_scan", "ios": "https://dc.lft.to/lastmile_qr_scan"}, "is_disabled": 0, "fusion_lat": 0.0, "lat": 38.922393666666665, "is_reserved": 0}, {"lon": -76.96917683333334, "fusion_lon": 0.0, "bike_id": "9b3278d4b4bd8969aed106c6e899d73d", "type": "electric_scooter", "name": "9b3278d4b4bd8969aed106c6e899d73d", "rental_uris": {"android": "https://dc.lft.to/lastmile_qr_scan", "ios": "https://dc.lft.to/lastmile_qr_scan"}, "is_disabled": 0, "fusion_lat": 0.0, "lat": 38.855285, "is_reserved": 0}, {"lon": -77.03819066666667, "fusion_lon": 0.0, "bike_id": "da7b2228e00aff4bcd3472d64be9706c", "type": "electric_scooter", "name": "da7b2228e00aff4bcd3472d64be9706c", "rental_uris": {"android": "https://dc.lft.to/lastmile_qr_scan", "ios": "https://dc.lft.to/lastmile_qr_scan"}, "is_disabled": 0, "fusion_lat": 0.0, "lat": 38.906892166666665, "is_reserved": 0}, {"lon": -77.0415395, "fusion_lon": 0.0, "bike_id": "503048aac53addc88755a7b86878265f", "type": "electric_scooter", "name": "503048aac53addc88755a7b86878265f", "rental_uris": {"android": "https://dc.lft.to/lastmile_qr_scan", "ios": "https://dc.lft.to/lastmile_qr_scan"}, "is_disabled": 0, "fusion_lat": 0.0, "lat": 38.89228716666667, "is_reserved": 0}, {"lon": -77.06415733333333, "fusion_lon": 0.0, "bike_id": "b4491e0c535c49fafd209c257126b95f", "type": "electric_scooter", "name": "b4491e0c535c49fafd209c257126b95f", "rental_uris": {"android": "https://dc.lft.to/lastmile_qr_scan", "ios": "https://dc.lft.to/lastmile_qr_scan"}, "is_disabled": 0, "fusion_lat": 0.0, "lat": 38.9134565, "is_reserved": 0}, {"lon": -77.034482, "fusion_lon": 0.0, "bike_id": "9eff6a4df20a039657b35f85e33fbb29", "type": "electric_scooter", "name": "9eff6a4df20a039657b35f85e33fbb29", "rental_uris": {"android": "https://dc.lft.to/lastmile_qr_scan", "ios": "https://dc.lft.to/lastmile_qr_scan"}, "is_disabled": 0, "fusion_lat": 0.0, "lat": 38.908393833333335, "is_reserved": 0}, {"lon": -76.94894983333333, "fusion_lon": 0.0, "bike_id": "98367ece1f6946c0661b52820990f0ad", "type": "electric_scooter", "name": "98367ece1f6946c0661b52820990f0ad", "rental_uris": {"android": "https://dc.lft.to/lastmile_qr_scan", "ios": "https://dc.lft.to/lastmile_qr_scan"}, "is_disabled": 0, "fusion_lat": 0.0, "lat": 38.895338, "is_reserved": 0}, {"lon": -77.052577, "fusion_lon": 0.0, "bike_id": "0572da251486ae2c6f09295e4877eae9", "type": "electric_scooter", "name": "0572da251486ae2c6f09295e4877eae9", "rental_uris": {"android": "https://dc.lft.to/lastmile_qr_scan", "ios": "https://dc.lft.to/lastmile_qr_scan"}, "is_disabled": 0, "fusion_lat": 0.0, "lat": 38.9278625, "is_reserved": 0}, {"lon": -76.91598666666667, "fusion_lon": 0.0, "bike_id": "92b52a2ac26bce00ed43520815f4c139", "type": "electric_bike", "name": "92b52a2ac26bce00ed43520815f4c139", "rental_uris": {"android": "https://dc.lft.to/lastmile_qr_scan", "ios": "https://dc.lft.to/lastmile_qr_scan"}, "is_disabled": 0, "fusion_lat": 0.0, "lat": 38.879864833333336, "is_reserved": 0}, {"lon": -76.948946, "fusion_lon": 0.0, "bike_id": "59430c0335df5b068dfafcb89d9aa035", "type": "electric_scooter", "name": "59430c0335df5b068dfafcb89d9aa035", "rental_uris": {"android": "https://dc.lft.to/lastmile_qr_scan", "ios": "https://dc.lft.to/lastmile_qr_scan"}, "is_disabled": 0, "fusion_lat": 0.0, "lat": 38.895354166666664, "is_reserved": 0}, {"lon": -77.02789616666666, "fusion_lon": 0.0, "bike_id": "9f06d4119160c1605acd8840fb396f00", "type": "electric_scooter", "name": "9f06d4119160c1605acd8840fb396f00", "rental_uris": {"android": "https://dc.lft.to/lastmile_qr_scan", "ios": "https://dc.lft.to/lastmile_qr_scan"}, "is_disabled": 0, "fusion_lat": 0.0, "lat": 38.91696266666667, "is_reserved": 0}, {"lon": -77.03195116666667, "fusion_lon": 0.0, "bike_id": "b64be81118639fbaa1315d662bceaf55", "type": "electric_scooter", "name": "b64be81118639fbaa1315d662bceaf55", "rental_uris": {"android": "https://dc.lft.to/lastmile_qr_scan", "ios": "https://dc.lft.to/lastmile_qr_scan"}, "is_disabled": 0, "fusion_lat": 0.0, "lat": 38.89229516666666, "is_reserved": 0}, {"lon": -76.94858, "fusion_lon": 0.0, "bike_id": "c7d7fda7f10d1d4323213e5a735d6e54", "type": "electric_scooter", "name": "c7d7fda7f10d1d4323213e5a735d6e54", "rental_uris": {"android": "https://dc.lft.to/lastmile_qr_scan", "ios": "https://dc.lft.to/lastmile_qr_scan"}, "is_disabled": 0, "fusion_lat": 0.0, "lat": 38.88299966666666, "is_reserved": 0}, {"lon": -77.04221216666667, "fusion_lon": 0.0, "bike_id": "2ff7bf29aba20ccd9e64e04742feae69", "type": "electric_scooter", "name": "2ff7bf29aba20ccd9e64e04742feae69", "rental_uris": {"android": "https://dc.lft.to/lastmile_qr_scan", "ios": "https://dc.lft.to/lastmile_qr_scan"}, "is_disabled": 0, "fusion_lat": 0.0, "lat": 38.91102683333333, "is_reserved": 0}, {"lon": -77.03426366666666, "fusion_lon": 0.0, "bike_id": "ed7eb916106b93bf52c5423134472da9", "type": "electric_scooter", "name": "ed7eb916106b93bf52c5423134472da9", "rental_uris": {"android": "https://dc.lft.to/lastmile_qr_scan", "ios": "https://dc.lft.to/lastmile_qr_scan"}, "is_disabled": 0, "fusion_lat": 0.0, "lat": 38.909693833333336, "is_reserved": 0}, {"lon": -77.0045315, "fusion_lon": 0.0, "bike_id": "06c8538cd83b4dd2b15dcb02881beb32", "type": "electric_bike", "name": "06c8538cd83b4dd2b15dcb02881beb32", "rental_uris": {"android": "https://dc.lft.to/lastmile_qr_scan", "ios": "https://dc.lft.to/lastmile_qr_scan"}, "is_disabled": 0, "fusion_lat": 0.0, "lat": 38.911987, "is_reserved": 0}, {"lon": -77.00803033333334, "fusion_lon": 0.0, "bike_id": "5112b1c0e448b65d1efd0488b5be41a8", "type": "electric_scooter", "name": "5112b1c0e448b65d1efd0488b5be41a8", "rental_uris": {"android": "https://dc.lft.to/lastmile_qr_scan", "ios": "https://dc.lft.to/lastmile_qr_scan"}, "is_disabled": 0, "fusion_lat": 0.0, "lat": 38.9074705, "is_reserved": 0}, {"lon": -76.98089116666667, "fusion_lon": 0.0, "bike_id": "8485f78a0da8668817ac2e0980ce3ee6", "type": "electric_scooter", "name": "8485f78a0da8668817ac2e0980ce3ee6", "rental_uris": {"android": "https://dc.lft.to/lastmile_qr_scan", "ios": "https://dc.lft.to/lastmile_qr_scan"}, "is_disabled": 0, "fusion_lat": 0.0, "lat": 38.92245483333333, "is_reserved": 0}, {"lon": -77.03267583333333, "fusion_lon": 0.0, "bike_id": "a5d6b35d5599b079d128bf3db4394f93", "type": "electric_scooter", "name": "a5d6b35d5599b079d128bf3db4394f93", "rental_uris": {"android": "https://dc.lft.to/lastmile_qr_scan", "ios": "https://dc.lft.to/lastmile_qr_scan"}, "is_disabled": 0, "fusion_lat": 0.0, "lat": 38.90145616666667, "is_reserved": 0}, {"lon": -76.995011, "fusion_lon": 0.0, "bike_id": "5379bbfbec4c92fe126f192dae38ad26", "type": "electric_scooter", "name": "5379bbfbec4c92fe126f192dae38ad26", "rental_uris": {"android": "https://dc.lft.to/lastmile_qr_scan", "ios": "https://dc.lft.to/lastmile_qr_scan"}, "is_disabled": 0, "fusion_lat": 0.0, "lat": 38.909797833333336, "is_reserved": 0}, {"lon": -77.03383333333333, "fusion_lon": 0.0, "bike_id": "6788837cc52137b49b80b28c5a86cb79", "type": "electric_scooter", "name": "6788837cc52137b49b80b28c5a86cb79", "rental_uris": {"android": "https://dc.lft.to/lastmile_qr_scan", "ios": "https://dc.lft.to/lastmile_qr_scan"}, "is_disabled": 0, "fusion_lat": 0.0, "lat": 38.9215965, "is_reserved": 0}, {"lon": -77.03442183333334, "fusion_lon": 0.0, "bike_id": "e09a5f5d3b728c3c5f6e623e7570b6b8", "type": "electric_scooter", "name": "e09a5f5d3b728c3c5f6e623e7570b6b8", "rental_uris": {"android": "https://dc.lft.to/lastmile_qr_scan", "ios": "https://dc.lft.to/lastmile_qr_scan"}, "is_disabled": 0, "fusion_lat": 0.0, "lat": 38.902692333333334, "is_reserved": 0}, {"lon": -76.9960405, "fusion_lon": 0.0, "bike_id": "5f085e11a0c0c3daacdd0c27fc84167f", "type": "electric_scooter", "name": "5f085e11a0c0c3daacdd0c27fc84167f", "rental_uris": {"android": "https://dc.lft.to/lastmile_qr_scan", "ios": "https://dc.lft.to/lastmile_qr_scan"}, "is_disabled": 0, "fusion_lat": 0.0, "lat": 38.85688483333333, "is_reserved": 0}, {"lon": -77.03190083333334, "fusion_lon": 0.0, "bike_id": "f41786dcfcfdeee0140ecf6152e8d134", "type": "electric_scooter", "name": "f41786dcfcfdeee0140ecf6152e8d134", "rental_uris": {"android": "https://dc.lft.to/lastmile_qr_scan", "ios": "https://dc.lft.to/lastmile_qr_scan"}, "is_disabled": 0, "fusion_lat": 0.0, "lat": 38.909904, "is_reserved": 0}, {"lon": -77.02345366666667, "fusion_lon": 0.0, "bike_id": "c4c168d7928075121d001098f01097af", "type": "electric_scooter", "name": "c4c168d7928075121d001098f01097af", "rental_uris": {"android": "https://dc.lft.to/lastmile_qr_scan", "ios": "https://dc.lft.to/lastmile_qr_scan"}, "is_disabled": 0, "fusion_lat": 0.0, "lat": 38.893818833333334, "is_reserved": 0}, {"lon": -76.9337015, "fusion_lon": 0.0, "bike_id": "2090beae1c8e66516c0e7ff73d86bd71", "type": "electric_scooter", "name": "2090beae1c8e66516c0e7ff73d86bd71", "rental_uris": {"android": "https://dc.lft.to/lastmile_qr_scan", "ios": "https://dc.lft.to/lastmile_qr_scan"}, "is_disabled": 0, "fusion_lat": 0.0, "lat": 38.8990425, "is_reserved": 0}, {"lon": -77.02364033333333, "fusion_lon": 0.0, "bike_id": "c0388cb8d66b8fae19f79825c10a4fed", "type": "electric_scooter", "name": "c0388cb8d66b8fae19f79825c10a4fed", "rental_uris": {"android": "https://dc.lft.to/lastmile_qr_scan", "ios": "https://dc.lft.to/lastmile_qr_scan"}, "is_disabled": 0, "fusion_lat": 0.0, "lat": 38.9068855, "is_reserved": 0}, {"lon": -76.98218233333333, "fusion_lon": 0.0, "bike_id": "765acba850295b5776972e7bceecda7c", "type": "electric_bike", "name": "765acba850295b5776972e7bceecda7c", "rental_uris": {"android": "https://dc.lft.to/lastmile_qr_scan", "ios": "https://dc.lft.to/lastmile_qr_scan"}, "is_disabled": 0, "fusion_lat": 0.0, "lat": 38.9850805, "is_reserved": 0}, {"lon": -77.0359205, "fusion_lon": 0.0, "bike_id": "d318bf107f3893cebb1cb504334e5052", "type": "electric_scooter", "name": "d318bf107f3893cebb1cb504334e5052", "rental_uris": {"android": "https://dc.lft.to/lastmile_qr_scan", "ios": "https://dc.lft.to/lastmile_qr_scan"}, "is_disabled": 0, "fusion_lat": 0.0, "lat": 38.931484833333336, "is_reserved": 0}, {"lon": -77.02461133333334, "fusion_lon": 0.0, "bike_id": "dd96136eb0c87d819a2fd88b14012770", "type": "electric_scooter", "name": "dd96136eb0c87d819a2fd88b14012770", "rental_uris": {"android": "https://dc.lft.to/lastmile_qr_scan", "ios": "https://dc.lft.to/lastmile_qr_scan"}, "is_disabled": 0, "fusion_lat": 0.0, "lat": 38.9031895, "is_reserved": 0}, {"lon": -76.967045, "fusion_lon": 0.0, "bike_id": "ac5be26dc2bddafbfb72ae27faabed1d", "type": "electric_scooter", "name": "ac5be26dc2bddafbfb72ae27faabed1d", "rental_uris": {"android": "https://dc.lft.to/lastmile_qr_scan", "ios": "https://dc.lft.to/lastmile_qr_scan"}, "is_disabled": 0, "fusion_lat": 0.0, "lat": 38.860378833333336, "is_reserved": 0}, {"lon": -77.02500433333333, "fusion_lon": 0.0, "bike_id": "95af4ab867e4bf1d9bb4ae4c2958b78f", "type": "electric_scooter", "name": "95af4ab867e4bf1d9bb4ae4c2958b78f", "rental_uris": {"android": "https://dc.lft.to/lastmile_qr_scan", "ios": "https://dc.lft.to/lastmile_qr_scan"}, "is_disabled": 0, "fusion_lat": 0.0, "lat": 38.920167, "is_reserved": 0}, {"lon": -77.05046883333333, "fusion_lon": 0.0, "bike_id": "4c053aadbffb65d6b1091bad9909e1e0", "type": "electric_scooter", "name": "4c053aadbffb65d6b1091bad9909e1e0", "rental_uris": {"android": "https://dc.lft.to/lastmile_qr_scan", "ios": "https://dc.lft.to/lastmile_qr_scan"}, "is_disabled": 0, "fusion_lat": 0.0, "lat": 38.9236365, "is_reserved": 0}, {"lon": -77.02280083333333, "fusion_lon": 0.0, "bike_id": "7b84b25060095ac7abb18915ce884e52", "type": "electric_scooter", "name": "7b84b25060095ac7abb18915ce884e52", "rental_uris": {"android": "https://dc.lft.to/lastmile_qr_scan", "ios": "https://dc.lft.to/lastmile_qr_scan"}, "is_disabled": 0, "fusion_lat": 0.0, "lat": 38.917937333333334, "is_reserved": 0}, {"lon": -77.048709, "fusion_lon": 0.0, "bike_id": "5533f6eac533570bad3d3fcde4ad796d", "type": "electric_scooter", "name": "5533f6eac533570bad3d3fcde4ad796d", "rental_uris": {"android": "https://dc.lft.to/lastmile_qr_scan", "ios": "https://dc.lft.to/lastmile_qr_scan"}, "is_disabled": 0, "fusion_lat": 0.0, "lat": 38.90972433333334, "is_reserved": 0}, {"lon": -77.03599366666667, "fusion_lon": 0.0, "bike_id": "8932603df84cb51fc557878bb433044c", "type": "electric_scooter", "name": "8932603df84cb51fc557878bb433044c", "rental_uris": {"android": "https://dc.lft.to/lastmile_qr_scan", "ios": "https://dc.lft.to/lastmile_qr_scan"}, "is_disabled": 0, "fusion_lat": 0.0, "lat": 38.93145416666667, "is_reserved": 0}, {"lon": -77.0972225, "fusion_lon": 0.0, "bike_id": "58c880bd41fd089c694e5988e513d758", "type": "electric_scooter", "name": "58c880bd41fd089c694e5988e513d758", "rental_uris": {"android": "https://dc.lft.to/lastmile_qr_scan", "ios": "https://dc.lft.to/lastmile_qr_scan"}, "is_disabled": 0, "fusion_lat": 0.0, "lat": 38.951005333333335, "is_reserved": 0}, {"lon": -77.02476866666667, "fusion_lon": 0.0, "bike_id": "2b395c78b915f27670c49465332bbe01", "type": "electric_scooter", "name": "2b395c78b915f27670c49465332bbe01", "rental_uris": {"android": "https://dc.lft.to/lastmile_qr_scan", "ios": "https://dc.lft.to/lastmile_qr_scan"}, "is_disabled": 0, "fusion_lat": 0.0, "lat": 38.918798, "is_reserved": 0}, {"lon": -77.01212266666667, "fusion_lon": 0.0, "bike_id": "10005f3f1f9492569e810e684bb6c428", "type": "electric_scooter", "name": "10005f3f1f9492569e810e684bb6c428", "rental_uris": {"android": "https://dc.lft.to/lastmile_qr_scan", "ios": "https://dc.lft.to/lastmile_qr_scan"}, "is_disabled": 0, "fusion_lat": 0.0, "lat": 38.90011533333333, "is_reserved": 0}, {"lon": -77.0364295, "fusion_lon": 0.0, "bike_id": "cecf8e90f281e39fd14b69d609390ece", "type": "electric_scooter", "name": "cecf8e90f281e39fd14b69d609390ece", "rental_uris": {"android": "https://dc.lft.to/lastmile_qr_scan", "ios": "https://dc.lft.to/lastmile_qr_scan"}, "is_disabled": 0, "fusion_lat": 0.0, "lat": 38.918107166666665, "is_reserved": 0}, {"lon": -77.00417066666667, "fusion_lon": 0.0, "bike_id": "08440cc83beaccd2a99ea9da7188e794", "type": "electric_scooter", "name": "08440cc83beaccd2a99ea9da7188e794", "rental_uris": {"android": "https://dc.lft.to/lastmile_qr_scan", "ios": "https://dc.lft.to/lastmile_qr_scan"}, "is_disabled": 0, "fusion_lat": 0.0, "lat": 38.879281, "is_reserved": 0}, {"lon": -77.007577, "fusion_lon": 0.0, "bike_id": "28bae0f6cd8e17b972ed0868fab3570c", "type": "electric_scooter", "name": "28bae0f6cd8e17b972ed0868fab3570c", "rental_uris": {"android": "https://dc.lft.to/lastmile_qr_scan", "ios": "https://dc.lft.to/lastmile_qr_scan"}, "is_disabled": 0, "fusion_lat": 0.0, "lat": 38.87116533333333, "is_reserved": 0}, {"lon": -77.02535583333334, "fusion_lon": 0.0, "bike_id": "0ee459261baf8c0d777475b7bd75d1c8", "type": "electric_scooter", "name": "0ee459261baf8c0d777475b7bd75d1c8", "rental_uris": {"android": "https://dc.lft.to/lastmile_qr_scan", "ios": "https://dc.lft.to/lastmile_qr_scan"}, "is_disabled": 0, "fusion_lat": 0.0, "lat": 38.946222166666665, "is_reserved": 0}, {"lon": -77.02698083333334, "fusion_lon": 0.0, "bike_id": "aff563dbf94fe671b19aacc3ded4ee70", "type": "electric_scooter", "name": "aff563dbf94fe671b19aacc3ded4ee70", "rental_uris": {"android": "https://dc.lft.to/lastmile_qr_scan", "ios": "https://dc.lft.to/lastmile_qr_scan"}, "is_disabled": 0, "fusion_lat": 0.0, "lat": 38.90845383333333, "is_reserved": 0}, {"lon": -77.0227675, "fusion_lon": 0.0, "bike_id": "783862e29dbf9157a221d25ea52a9d3f", "type": "electric_scooter", "name": "783862e29dbf9157a221d25ea52a9d3f", "rental_uris": {"android": "https://dc.lft.to/lastmile_qr_scan", "ios": "https://dc.lft.to/lastmile_qr_scan"}, "is_disabled": 0, "fusion_lat": 0.0, "lat": 38.914143333333335, "is_reserved": 0}, {"lon": -77.01527716666666, "fusion_lon": 0.0, "bike_id": "e4013802cbd3b9bbdca9c2263b80d90e", "type": "electric_scooter", "name": "e4013802cbd3b9bbdca9c2263b80d90e", "rental_uris": {"android": "https://dc.lft.to/lastmile_qr_scan", "ios": "https://dc.lft.to/lastmile_qr_scan"}, "is_disabled": 0, "fusion_lat": 0.0, "lat": 38.902567, "is_reserved": 0}, {"lon": -77.02631166666667, "fusion_lon": 0.0, "bike_id": "28cedd8ee05ebc131e687848a31ca748", "type": "electric_scooter", "name": "28cedd8ee05ebc131e687848a31ca748", "rental_uris": {"android": "https://dc.lft.to/lastmile_qr_scan", "ios": "https://dc.lft.to/lastmile_qr_scan"}, "is_disabled": 0, "fusion_lat": 0.0, "lat": 38.88772316666667, "is_reserved": 0}, {"lon": -76.98317883333333, "fusion_lon": 0.0, "bike_id": "6185403d504bd6a6359392632b47732f", "type": "electric_scooter", "name": "6185403d504bd6a6359392632b47732f", "rental_uris": {"android": "https://dc.lft.to/lastmile_qr_scan", "ios": "https://dc.lft.to/lastmile_qr_scan"}, "is_disabled": 0, "fusion_lat": 0.0, "lat": 38.904347333333334, "is_reserved": 0}, {"lon": -77.00588566666667, "fusion_lon": 0.0, "bike_id": "424c45a2ff8b70174b19b1eb60c4cfa0", "type": "electric_scooter", "name": "424c45a2ff8b70174b19b1eb60c4cfa0", "rental_uris": {"android": "https://dc.lft.to/lastmile_qr_scan", "ios": "https://dc.lft.to/lastmile_qr_scan"}, "is_disabled": 0, "fusion_lat": 0.0, "lat": 38.905407833333335, "is_reserved": 0}, {"lon": -77.00347, "fusion_lon": 0.0, "bike_id": "09bf428533a902c7cb6f62d5194bbd2a", "type": "electric_scooter", "name": "09bf428533a902c7cb6f62d5194bbd2a", "rental_uris": {"android": "https://dc.lft.to/lastmile_qr_scan", "ios": "https://dc.lft.to/lastmile_qr_scan"}, "is_disabled": 0, "fusion_lat": 0.0, "lat": 38.894658166666666, "is_reserved": 0}, {"lon": -77.00568283333334, "fusion_lon": 0.0, "bike_id": "9e30f7dbcf9edfa573d9e90d4c0d4ae1", "type": "electric_scooter", "name": "9e30f7dbcf9edfa573d9e90d4c0d4ae1", "rental_uris": {"android": "https://dc.lft.to/lastmile_qr_scan", "ios": "https://dc.lft.to/lastmile_qr_scan"}, "is_disabled": 0, "fusion_lat": 0.0, "lat": 38.876855666666664, "is_reserved": 0}, {"lon": -77.07724233333333, "fusion_lon": 0.0, "bike_id": "600f20a5b2896e44866a8b38157792b6", "type": "electric_scooter", "name": "600f20a5b2896e44866a8b38157792b6", "rental_uris": {"android": "https://dc.lft.to/lastmile_qr_scan", "ios": "https://dc.lft.to/lastmile_qr_scan"}, "is_disabled": 0, "fusion_lat": 0.0, "lat": 38.9409805, "is_reserved": 0}, {"lon": -77.05135816666666, "fusion_lon": 0.0, "bike_id": "70221995996425e5ae3a2c9cba8a1895", "type": "electric_scooter", "name": "70221995996425e5ae3a2c9cba8a1895", "rental_uris": {"android": "https://dc.lft.to/lastmile_qr_scan", "ios": "https://dc.lft.to/lastmile_qr_scan"}, "is_disabled": 0, "fusion_lat": 0.0, "lat": 38.92522783333333, "is_reserved": 0}, {"lon": -77.05356516666667, "fusion_lon": 0.0, "bike_id": "168972476dcde9433a82f25896a7f2ae", "type": "electric_scooter", "name": "168972476dcde9433a82f25896a7f2ae", "rental_uris": {"android": "https://dc.lft.to/lastmile_qr_scan", "ios": "https://dc.lft.to/lastmile_qr_scan"}, "is_disabled": 0, "fusion_lat": 0.0, "lat": 38.92723766666667, "is_reserved": 0}, {"lon": -77.03456866666667, "fusion_lon": 0.0, "bike_id": "6c59d937fb987cad49015f0fe7b54dff", "type": "electric_scooter", "name": "6c59d937fb987cad49015f0fe7b54dff", "rental_uris": {"android": "https://dc.lft.to/lastmile_qr_scan", "ios": "https://dc.lft.to/lastmile_qr_scan"}, "is_disabled": 0, "fusion_lat": 0.0, "lat": 38.905556, "is_reserved": 0}, {"lon": -77.054533, "fusion_lon": 0.0, "bike_id": "d140589e7ec6021affed0f5cd1ccd079", "type": "electric_scooter", "name": "d140589e7ec6021affed0f5cd1ccd079", "rental_uris": {"android": "https://dc.lft.to/lastmile_qr_scan", "ios": "https://dc.lft.to/lastmile_qr_scan"}, "is_disabled": 0, "fusion_lat": 0.0, "lat": 38.902289333333336, "is_reserved": 0}, {"lon": -77.0480385, "fusion_lon": 0.0, "bike_id": "e2254561e38dd78cd1d258d6b1471df0", "type": "electric_scooter", "name": "e2254561e38dd78cd1d258d6b1471df0", "rental_uris": {"android": "https://dc.lft.to/lastmile_qr_scan", "ios": "https://dc.lft.to/lastmile_qr_scan"}, "is_disabled": 0, "fusion_lat": 0.0, "lat": 38.92035666666666, "is_reserved": 0}, {"lon": -77.02487816666667, "fusion_lon": 0.0, "bike_id": "dd71140bcf543d8e2cc7c38074cb2a31", "type": "electric_scooter", "name": "dd71140bcf543d8e2cc7c38074cb2a31", "rental_uris": {"android": "https://dc.lft.to/lastmile_qr_scan", "ios": "https://dc.lft.to/lastmile_qr_scan"}, "is_disabled": 0, "fusion_lat": 0.0, "lat": 38.93850533333333, "is_reserved": 0}, {"lon": -77.0730625, "fusion_lon": 0.0, "bike_id": "7da07f54c1dcab44edcc093fa7e6fb7b", "type": "electric_scooter", "name": "7da07f54c1dcab44edcc093fa7e6fb7b", "rental_uris": {"android": "https://dc.lft.to/lastmile_qr_scan", "ios": "https://dc.lft.to/lastmile_qr_scan"}, "is_disabled": 0, "fusion_lat": 0.0, "lat": 38.92667266666667, "is_reserved": 0}, {"lon": -77.0365985, "fusion_lon": 0.0, "bike_id": "de9138d74dc4c5d973b64c026726305d", "type": "electric_scooter", "name": "de9138d74dc4c5d973b64c026726305d", "rental_uris": {"android": "https://dc.lft.to/lastmile_qr_scan", "ios": "https://dc.lft.to/lastmile_qr_scan"}, "is_disabled": 0, "fusion_lat": 0.0, "lat": 38.91545333333333, "is_reserved": 0}, {"lon": -77.02686683333333, "fusion_lon": 0.0, "bike_id": "8e088b8bdf55ee479165144698747720", "type": "electric_scooter", "name": "8e088b8bdf55ee479165144698747720", "rental_uris": {"android": "https://dc.lft.to/lastmile_qr_scan", "ios": "https://dc.lft.to/lastmile_qr_scan"}, "is_disabled": 0, "fusion_lat": 0.0, "lat": 38.926738, "is_reserved": 0}, {"lon": -76.99919483333333, "fusion_lon": 0.0, "bike_id": "eafd97c4b32367761a180db2916fe587", "type": "electric_scooter", "name": "eafd97c4b32367761a180db2916fe587", "rental_uris": {"android": "https://dc.lft.to/lastmile_qr_scan", "ios": "https://dc.lft.to/lastmile_qr_scan"}, "is_disabled": 0, "fusion_lat": 0.0, "lat": 38.909251833333336, "is_reserved": 0}, {"lon": -77.00489816666666, "fusion_lon": 0.0, "bike_id": "60e5d1cc99063b4a6c7f5fc4fda0e297", "type": "electric_scooter", "name": "60e5d1cc99063b4a6c7f5fc4fda0e297", "rental_uris": {"android": "https://dc.lft.to/lastmile_qr_scan", "ios": "https://dc.lft.to/lastmile_qr_scan"}, "is_disabled": 0, "fusion_lat": 0.0, "lat": 38.87466583333333, "is_reserved": 0}, {"lon": -77.01621833333333, "fusion_lon": 0.0, "bike_id": "d59869dc8e11a5c7869a27fb334616e9", "type": "electric_scooter", "name": "d59869dc8e11a5c7869a27fb334616e9", "rental_uris": {"android": "https://dc.lft.to/lastmile_qr_scan", "ios": "https://dc.lft.to/lastmile_qr_scan"}, "is_disabled": 0, "fusion_lat": 0.0, "lat": 38.903349666666664, "is_reserved": 0}, {"lon": -77.02154566666667, "fusion_lon": 0.0, "bike_id": "8544a00d4feb32330488f568a0f00246", "type": "electric_scooter", "name": "8544a00d4feb32330488f568a0f00246", "rental_uris": {"android": "https://dc.lft.to/lastmile_qr_scan", "ios": "https://dc.lft.to/lastmile_qr_scan"}, "is_disabled": 0, "fusion_lat": 0.0, "lat": 38.92606166666667, "is_reserved": 0}, {"lon": -77.04187116666667, "fusion_lon": 0.0, "bike_id": "03f4e65b7f770e7754e3b693e13f99fe", "type": "electric_scooter", "name": "03f4e65b7f770e7754e3b693e13f99fe", "rental_uris": {"android": "https://dc.lft.to/lastmile_qr_scan", "ios": "https://dc.lft.to/lastmile_qr_scan"}, "is_disabled": 0, "fusion_lat": 0.0, "lat": 38.920526333333335, "is_reserved": 0}, {"lon": -77.002314, "fusion_lon": 0.0, "bike_id": "a5022eb35e455214f9605ad7be42ecee", "type": "electric_scooter", "name": "a5022eb35e455214f9605ad7be42ecee", "rental_uris": {"android": "https://dc.lft.to/lastmile_qr_scan", "ios": "https://dc.lft.to/lastmile_qr_scan"}, "is_disabled": 0, "fusion_lat": 0.0, "lat": 38.88510433333333, "is_reserved": 0}, {"lon": -77.022148, "fusion_lon": 0.0, "bike_id": "e0f9ab2406b00c41b06398a4b66e7a2e", "type": "electric_scooter", "name": "e0f9ab2406b00c41b06398a4b66e7a2e", "rental_uris": {"android": "https://dc.lft.to/lastmile_qr_scan", "ios": "https://dc.lft.to/lastmile_qr_scan"}, "is_disabled": 0, "fusion_lat": 0.0, "lat": 38.927905, "is_reserved": 0}, {"lon": -77.02479816666667, "fusion_lon": 0.0, "bike_id": "a50589e976b3ca3696989f8b1b916c27", "type": "electric_scooter", "name": "a50589e976b3ca3696989f8b1b916c27", "rental_uris": {"android": "https://dc.lft.to/lastmile_qr_scan", "ios": "https://dc.lft.to/lastmile_qr_scan"}, "is_disabled": 0, "fusion_lat": 0.0, "lat": 38.93963333333333, "is_reserved": 0}, {"lon": -76.98544683333333, "fusion_lon": 0.0, "bike_id": "fcbb5dc0dae08df0a88e8a7afc9d7b8b", "type": "electric_scooter", "name": "fcbb5dc0dae08df0a88e8a7afc9d7b8b", "rental_uris": {"android": "https://dc.lft.to/lastmile_qr_scan", "ios": "https://dc.lft.to/lastmile_qr_scan"}, "is_disabled": 0, "fusion_lat": 0.0, "lat": 38.866860333333335, "is_reserved": 0}, {"lon": -77.0356075, "fusion_lon": 0.0, "bike_id": "1c23a056794512414852dcf517e5e088", "type": "electric_scooter", "name": "1c23a056794512414852dcf517e5e088", "rental_uris": {"android": "https://dc.lft.to/lastmile_qr_scan", "ios": "https://dc.lft.to/lastmile_qr_scan"}, "is_disabled": 0, "fusion_lat": 0.0, "lat": 38.903814, "is_reserved": 0}, {"lon": -77.00953816666667, "fusion_lon": 0.0, "bike_id": "3753561a6bd30b2245f5c1ae0653b348", "type": "electric_scooter", "name": "3753561a6bd30b2245f5c1ae0653b348", "rental_uris": {"android": "https://dc.lft.to/lastmile_qr_scan", "ios": "https://dc.lft.to/lastmile_qr_scan"}, "is_disabled": 0, "fusion_lat": 0.0, "lat": 38.897372, "is_reserved": 0}, {"lon": -77.03131216666667, "fusion_lon": 0.0, "bike_id": "a7d84f2fbcb94f3791f2c673d8d48c3e", "type": "electric_scooter", "name": "a7d84f2fbcb94f3791f2c673d8d48c3e", "rental_uris": {"android": "https://dc.lft.to/lastmile_qr_scan", "ios": "https://dc.lft.to/lastmile_qr_scan"}, "is_disabled": 0, "fusion_lat": 0.0, "lat": 38.904618, "is_reserved": 0}, {"lon": -77.08485516666667, "fusion_lon": 0.0, "bike_id": "830d44db6eb981e2e66a702c4e57e154", "type": "electric_scooter", "name": "830d44db6eb981e2e66a702c4e57e154", "rental_uris": {"android": "https://dc.lft.to/lastmile_qr_scan", "ios": "https://dc.lft.to/lastmile_qr_scan"}, "is_disabled": 0, "fusion_lat": 0.0, "lat": 38.9389875, "is_reserved": 0}, {"lon": -77.01228083333334, "fusion_lon": 0.0, "bike_id": "000c2c458fd6126518a67dceb90214f6", "type": "electric_scooter", "name": "000c2c458fd6126518a67dceb90214f6", "rental_uris": {"android": "https://dc.lft.to/lastmile_qr_scan", "ios": "https://dc.lft.to/lastmile_qr_scan"}, "is_disabled": 0, "fusion_lat": 0.0, "lat": 38.897332666666664, "is_reserved": 0}, {"lon": -77.02231833333333, "fusion_lon": 0.0, "bike_id": "569f9f498c5069837d6bf7c709af22e1", "type": "electric_scooter", "name": "569f9f498c5069837d6bf7c709af22e1", "rental_uris": {"android": "https://dc.lft.to/lastmile_qr_scan", "ios": "https://dc.lft.to/lastmile_qr_scan"}, "is_disabled": 0, "fusion_lat": 0.0, "lat": 38.93475866666667, "is_reserved": 0}, {"lon": -77.04995083333333, "fusion_lon": 0.0, "bike_id": "b420854ce98ed569de9378dee4aa7a14", "type": "electric_scooter", "name": "b420854ce98ed569de9378dee4aa7a14", "rental_uris": {"android": "https://dc.lft.to/lastmile_qr_scan", "ios": "https://dc.lft.to/lastmile_qr_scan"}, "is_disabled": 0, "fusion_lat": 0.0, "lat": 38.90122233333334, "is_reserved": 0}, {"lon": -76.93192066666667, "fusion_lon": 0.0, "bike_id": "b5b7886b9010f2705562075c3d0e8559", "type": "electric_scooter", "name": "b5b7886b9010f2705562075c3d0e8559", "rental_uris": {"android": "https://dc.lft.to/lastmile_qr_scan", "ios": "https://dc.lft.to/lastmile_qr_scan"}, "is_disabled": 0, "fusion_lat": 0.0, "lat": 38.89876783333333, "is_reserved": 0}, {"lon": -76.95257916666667, "fusion_lon": 0.0, "bike_id": "f8e8c17c3ddd67a986a1b40644d9f6f9", "type": "electric_bike", "name": "f8e8c17c3ddd67a986a1b40644d9f6f9", "rental_uris": {"android": "https://dc.lft.to/lastmile_qr_scan", "ios": "https://dc.lft.to/lastmile_qr_scan"}, "is_disabled": 0, "fusion_lat": 0.0, "lat": 38.90693683333333, "is_reserved": 0}, {"lon": -77.03291816666666, "fusion_lon": 0.0, "bike_id": "11785e585a6197bc30136a751b12e795", "type": "electric_scooter", "name": "11785e585a6197bc30136a751b12e795", "rental_uris": {"android": "https://dc.lft.to/lastmile_qr_scan", "ios": "https://dc.lft.to/lastmile_qr_scan"}, "is_disabled": 0, "fusion_lat": 0.0, "lat": 38.922705666666666, "is_reserved": 0}, {"lon": -77.20141766666667, "fusion_lon": 0.0, "bike_id": "746f6a09097e9ab98c78c1255d531b7f", "type": "electric_bike", "name": "746f6a09097e9ab98c78c1255d531b7f", "rental_uris": {"android": "https://dc.lft.to/lastmile_qr_scan", "ios": "https://dc.lft.to/lastmile_qr_scan"}, "is_disabled": 0, "fusion_lat": 0.0, "lat": 38.92218583333333, "is_reserved": 0}, {"lon": -77.0408625, "fusion_lon": 0.0, "bike_id": "6692609c63fa41066ef49d33f7a94033", "type": "electric_scooter", "name": "6692609c63fa41066ef49d33f7a94033", "rental_uris": {"android": "https://dc.lft.to/lastmile_qr_scan", "ios": "https://dc.lft.to/lastmile_qr_scan"}, "is_disabled": 0, "fusion_lat": 0.0, "lat": 38.9039185, "is_reserved": 0}, {"lon": -76.94637316666666, "fusion_lon": 0.0, "bike_id": "f1bf7dd56fc53f4412ebfe812e9f3541", "type": "electric_scooter", "name": "f1bf7dd56fc53f4412ebfe812e9f3541", "rental_uris": {"android": "https://dc.lft.to/lastmile_qr_scan", "ios": "https://dc.lft.to/lastmile_qr_scan"}, "is_disabled": 0, "fusion_lat": 0.0, "lat": 38.89861966666667, "is_reserved": 0}, {"lon": -77.07701633333333, "fusion_lon": 0.0, "bike_id": "aaebb2a7af65512d1c6992ec51ebe47f", "type": "electric_scooter", "name": "aaebb2a7af65512d1c6992ec51ebe47f", "rental_uris": {"android": "https://dc.lft.to/lastmile_qr_scan", "ios": "https://dc.lft.to/lastmile_qr_scan"}, "is_disabled": 0, "fusion_lat": 0.0, "lat": 38.94380566666667, "is_reserved": 0}, {"lon": -76.97097683333334, "fusion_lon": 0.0, "bike_id": "47792325e4a82a2340b2174e6e4c0bad", "type": "electric_scooter", "name": "47792325e4a82a2340b2174e6e4c0bad", "rental_uris": {"android": "https://dc.lft.to/lastmile_qr_scan", "ios": "https://dc.lft.to/lastmile_qr_scan"}, "is_disabled": 0, "fusion_lat": 0.0, "lat": 38.870639833333335, "is_reserved": 0}, {"lon": -76.96059, "fusion_lon": 0.0, "bike_id": "9fdc3f95a8f62e328d954016254226fd", "type": "electric_bike", "name": "9fdc3f95a8f62e328d954016254226fd", "rental_uris": {"android": "https://dc.lft.to/lastmile_qr_scan", "ios": "https://dc.lft.to/lastmile_qr_scan"}, "is_disabled": 0, "fusion_lat": 0.0, "lat": 38.883244166666664, "is_reserved": 0}, {"lon": -77.04419283333333, "fusion_lon": 0.0, "bike_id": "b6c8838fd31fb9e10dcf104e14b13f4f", "type": "electric_scooter", "name": "b6c8838fd31fb9e10dcf104e14b13f4f", "rental_uris": {"android": "https://dc.lft.to/lastmile_qr_scan", "ios": "https://dc.lft.to/lastmile_qr_scan"}, "is_disabled": 0, "fusion_lat": 0.0, "lat": 38.89403633333333, "is_reserved": 0}, {"lon": -76.9800315, "fusion_lon": 0.0, "bike_id": "0d639136f192177df3fdcd841f5cc339", "type": "electric_scooter", "name": "0d639136f192177df3fdcd841f5cc339", "rental_uris": {"android": "https://dc.lft.to/lastmile_qr_scan", "ios": "https://dc.lft.to/lastmile_qr_scan"}, "is_disabled": 0, "fusion_lat": 0.0, "lat": 38.906752833333336, "is_reserved": 0}, {"lon": -77.03450566666666, "fusion_lon": 0.0, "bike_id": "a103a806b045076c677c8955650aeb4c", "type": "electric_scooter", "name": "a103a806b045076c677c8955650aeb4c", "rental_uris": {"android": "https://dc.lft.to/lastmile_qr_scan", "ios": "https://dc.lft.to/lastmile_qr_scan"}, "is_disabled": 0, "fusion_lat": 0.0, "lat": 38.90731183333333, "is_reserved": 0}, {"lon": -77.00217416666666, "fusion_lon": 0.0, "bike_id": "118a4121411de8e3ec370cbcfadda341", "type": "electric_scooter", "name": "118a4121411de8e3ec370cbcfadda341", "rental_uris": {"android": "https://dc.lft.to/lastmile_qr_scan", "ios": "https://dc.lft.to/lastmile_qr_scan"}, "is_disabled": 0, "fusion_lat": 0.0, "lat": 38.91459033333334, "is_reserved": 0}, {"lon": -76.99479266666667, "fusion_lon": 0.0, "bike_id": "1e7a3ae43a6f328b62207af7f29e174e", "type": "electric_scooter", "name": "1e7a3ae43a6f328b62207af7f29e174e", "rental_uris": {"android": "https://dc.lft.to/lastmile_qr_scan", "ios": "https://dc.lft.to/lastmile_qr_scan"}, "is_disabled": 0, "fusion_lat": 0.0, "lat": 38.898370666666665, "is_reserved": 0}, {"lon": -77.02158433333334, "fusion_lon": 0.0, "bike_id": "26eba3d147541cd530210fcde8fbf9f2", "type": "electric_scooter", "name": "26eba3d147541cd530210fcde8fbf9f2", "rental_uris": {"android": "https://dc.lft.to/lastmile_qr_scan", "ios": "https://dc.lft.to/lastmile_qr_scan"}, "is_disabled": 0, "fusion_lat": 0.0, "lat": 38.925999, "is_reserved": 0}, {"lon": -77.02714983333334, "fusion_lon": 0.0, "bike_id": "80d3f5f1aaa93063f7b9e0e088fd42cb", "type": "electric_scooter", "name": "80d3f5f1aaa93063f7b9e0e088fd42cb", "rental_uris": {"android": "https://dc.lft.to/lastmile_qr_scan", "ios": "https://dc.lft.to/lastmile_qr_scan"}, "is_disabled": 0, "fusion_lat": 0.0, "lat": 38.9079025, "is_reserved": 0}, {"lon": -77.02181116666667, "fusion_lon": 0.0, "bike_id": "d64cc0ebd79817d7dc6825b66473f33c", "type": "electric_scooter", "name": "d64cc0ebd79817d7dc6825b66473f33c", "rental_uris": {"android": "https://dc.lft.to/lastmile_qr_scan", "ios": "https://dc.lft.to/lastmile_qr_scan"}, "is_disabled": 0, "fusion_lat": 0.0, "lat": 38.893775833333336, "is_reserved": 0}, {"lon": -77.0013795, "fusion_lon": 0.0, "bike_id": "647b22e118aafbdcd084b2e61149ad48", "type": "electric_scooter", "name": "647b22e118aafbdcd084b2e61149ad48", "rental_uris": {"android": "https://dc.lft.to/lastmile_qr_scan", "ios": "https://dc.lft.to/lastmile_qr_scan"}, "is_disabled": 0, "fusion_lat": 0.0, "lat": 38.9051355, "is_reserved": 0}, {"lon": -76.98545883333334, "fusion_lon": 0.0, "bike_id": "6c793fcedd0fbccc27709795f1cbc61a", "type": "electric_scooter", "name": "6c793fcedd0fbccc27709795f1cbc61a", "rental_uris": {"android": "https://dc.lft.to/lastmile_qr_scan", "ios": "https://dc.lft.to/lastmile_qr_scan"}, "is_disabled": 0, "fusion_lat": 0.0, "lat": 38.8999145, "is_reserved": 0}, {"lon": -77.0236395, "fusion_lon": 0.0, "bike_id": "022a7fdbb763cf1bf0a815b8de80ba0e", "type": "electric_scooter", "name": "022a7fdbb763cf1bf0a815b8de80ba0e", "rental_uris": {"android": "https://dc.lft.to/lastmile_qr_scan", "ios": "https://dc.lft.to/lastmile_qr_scan"}, "is_disabled": 0, "fusion_lat": 0.0, "lat": 38.92908216666667, "is_reserved": 0}, {"lon": -77.00111683333333, "fusion_lon": 0.0, "bike_id": "4e6cd3f96c26538b634b443a7980b754", "type": "electric_scooter", "name": "4e6cd3f96c26538b634b443a7980b754", "rental_uris": {"android": "https://dc.lft.to/lastmile_qr_scan", "ios": "https://dc.lft.to/lastmile_qr_scan"}, "is_disabled": 0, "fusion_lat": 0.0, "lat": 38.87363933333334, "is_reserved": 0}, {"lon": -77.038257, "fusion_lon": 0.0, "bike_id": "90c5f120e228108b9dce06df824a9670", "type": "electric_scooter", "name": "90c5f120e228108b9dce06df824a9670", "rental_uris": {"android": "https://dc.lft.to/lastmile_qr_scan", "ios": "https://dc.lft.to/lastmile_qr_scan"}, "is_disabled": 0, "fusion_lat": 0.0, "lat": 38.907948833333336, "is_reserved": 0}, {"lon": -77.01647816666667, "fusion_lon": 0.0, "bike_id": "8703950ba15805e3c2529e661a1769b5", "type": "electric_scooter", "name": "8703950ba15805e3c2529e661a1769b5", "rental_uris": {"android": "https://dc.lft.to/lastmile_qr_scan", "ios": "https://dc.lft.to/lastmile_qr_scan"}, "is_disabled": 0, "fusion_lat": 0.0, "lat": 38.88126583333333, "is_reserved": 0}, {"lon": -77.03210533333333, "fusion_lon": 0.0, "bike_id": "e254e83f6dff71f4e1c264e45c3c0296", "type": "electric_scooter", "name": "e254e83f6dff71f4e1c264e45c3c0296", "rental_uris": {"android": "https://dc.lft.to/lastmile_qr_scan", "ios": "https://dc.lft.to/lastmile_qr_scan"}, "is_disabled": 0, "fusion_lat": 0.0, "lat": 38.91841266666667, "is_reserved": 0}, {"lon": -77.04941816666667, "fusion_lon": 0.0, "bike_id": "e42db054d880385299eab8d4756440b2", "type": "electric_scooter", "name": "e42db054d880385299eab8d4756440b2", "rental_uris": {"android": "https://dc.lft.to/lastmile_qr_scan", "ios": "https://dc.lft.to/lastmile_qr_scan"}, "is_disabled": 0, "fusion_lat": 0.0, "lat": 38.888247, "is_reserved": 0}, {"lon": -76.98716583333334, "fusion_lon": 0.0, "bike_id": "925c09fb6d9b0d7300482424af38cc4c", "type": "electric_scooter", "name": "925c09fb6d9b0d7300482424af38cc4c", "rental_uris": {"android": "https://dc.lft.to/lastmile_qr_scan", "ios": "https://dc.lft.to/lastmile_qr_scan"}, "is_disabled": 0, "fusion_lat": 0.0, "lat": 38.867016666666665, "is_reserved": 0}, {"lon": -77.0271165, "fusion_lon": 0.0, "bike_id": "333a7b7646849c3c1ccc0d1fcbee71e2", "type": "electric_scooter", "name": "333a7b7646849c3c1ccc0d1fcbee71e2", "rental_uris": {"android": "https://dc.lft.to/lastmile_qr_scan", "ios": "https://dc.lft.to/lastmile_qr_scan"}, "is_disabled": 0, "fusion_lat": 0.0, "lat": 38.91551033333333, "is_reserved": 0}, {"lon": -76.94638466666666, "fusion_lon": 0.0, "bike_id": "4a2c35e7498ca189aa31bc1b2a27ceba", "type": "electric_scooter", "name": "4a2c35e7498ca189aa31bc1b2a27ceba", "rental_uris": {"android": "https://dc.lft.to/lastmile_qr_scan", "ios": "https://dc.lft.to/lastmile_qr_scan"}, "is_disabled": 0, "fusion_lat": 0.0, "lat": 38.89867366666667, "is_reserved": 0}, {"lon": -76.94048466666666, "fusion_lon": 0.0, "bike_id": "5b7532b2e45dfa1c14d44c8f032b14d6", "type": "electric_bike", "name": "5b7532b2e45dfa1c14d44c8f032b14d6", "rental_uris": {"android": "https://dc.lft.to/lastmile_qr_scan", "ios": "https://dc.lft.to/lastmile_qr_scan"}, "is_disabled": 0, "fusion_lat": 0.0, "lat": 38.978578666666664, "is_reserved": 0}, {"lon": -77.04142116666667, "fusion_lon": 0.0, "bike_id": "8e69f8de7bc074640413d5f9572d46bc", "type": "electric_scooter", "name": "8e69f8de7bc074640413d5f9572d46bc", "rental_uris": {"android": "https://dc.lft.to/lastmile_qr_scan", "ios": "https://dc.lft.to/lastmile_qr_scan"}, "is_disabled": 0, "fusion_lat": 0.0, "lat": 38.90630266666667, "is_reserved": 0}, {"lon": -77.01772666666666, "fusion_lon": 0.0, "bike_id": "27b2366277b9b0d220031a2faa239929", "type": "electric_scooter", "name": "27b2366277b9b0d220031a2faa239929", "rental_uris": {"android": "https://dc.lft.to/lastmile_qr_scan", "ios": "https://dc.lft.to/lastmile_qr_scan"}, "is_disabled": 0, "fusion_lat": 0.0, "lat": 38.902618333333336, "is_reserved": 0}, {"lon": -77.032561, "fusion_lon": 0.0, "bike_id": "9165892f077afe723d4e29a969f84de5", "type": "electric_scooter", "name": "9165892f077afe723d4e29a969f84de5", "rental_uris": {"android": "https://dc.lft.to/lastmile_qr_scan", "ios": "https://dc.lft.to/lastmile_qr_scan"}, "is_disabled": 0, "fusion_lat": 0.0, "lat": 38.9055695, "is_reserved": 0}, {"lon": -76.99522833333333, "fusion_lon": 0.0, "bike_id": "ffc1f6f90e27e4c7a81716ca24da9221", "type": "electric_scooter", "name": "ffc1f6f90e27e4c7a81716ca24da9221", "rental_uris": {"android": "https://dc.lft.to/lastmile_qr_scan", "ios": "https://dc.lft.to/lastmile_qr_scan"}, "is_disabled": 0, "fusion_lat": 0.0, "lat": 38.933950833333334, "is_reserved": 0}, {"lon": -76.999471, "fusion_lon": 0.0, "bike_id": "dc55305209cd8dbc799eb4f7acb33e71", "type": "electric_scooter", "name": "dc55305209cd8dbc799eb4f7acb33e71", "rental_uris": {"android": "https://dc.lft.to/lastmile_qr_scan", "ios": "https://dc.lft.to/lastmile_qr_scan"}, "is_disabled": 0, "fusion_lat": 0.0, "lat": 38.842904833333336, "is_reserved": 0}, {"lon": -77.02402233333333, "fusion_lon": 0.0, "bike_id": "a16aa4c61064c12b210d7ddbbcd1a273", "type": "electric_scooter", "name": "a16aa4c61064c12b210d7ddbbcd1a273", "rental_uris": {"android": "https://dc.lft.to/lastmile_qr_scan", "ios": "https://dc.lft.to/lastmile_qr_scan"}, "is_disabled": 0, "fusion_lat": 0.0, "lat": 38.879891666666666, "is_reserved": 0}, {"lon": -77.0246245, "fusion_lon": 0.0, "bike_id": "12c58cbee2f8a33631e7a00a99cb15f0", "type": "electric_scooter", "name": "12c58cbee2f8a33631e7a00a99cb15f0", "rental_uris": {"android": "https://dc.lft.to/lastmile_qr_scan", "ios": "https://dc.lft.to/lastmile_qr_scan"}, "is_disabled": 0, "fusion_lat": 0.0, "lat": 38.936271, "is_reserved": 0}, {"lon": -76.98425566666667, "fusion_lon": 0.0, "bike_id": "9d519fb2e0b8267a2718153880ecc225", "type": "electric_bike", "name": "9d519fb2e0b8267a2718153880ecc225", "rental_uris": {"android": "https://dc.lft.to/lastmile_qr_scan", "ios": "https://dc.lft.to/lastmile_qr_scan"}, "is_disabled": 0, "fusion_lat": 0.0, "lat": 38.92641916666667, "is_reserved": 0}, {"lon": -76.95508833333334, "fusion_lon": 0.0, "bike_id": "6beff517ebdb20c7dc9d37b6c0e7a63c", "type": "electric_bike", "name": "6beff517ebdb20c7dc9d37b6c0e7a63c", "rental_uris": {"android": "https://dc.lft.to/lastmile_qr_scan", "ios": "https://dc.lft.to/lastmile_qr_scan"}, "is_disabled": 0, "fusion_lat": 0.0, "lat": 38.9391635, "is_reserved": 0}, {"lon": -77.0141505, "fusion_lon": 0.0, "bike_id": "f5f6a4a72de3419726399b1f0827c855", "type": "electric_scooter", "name": "f5f6a4a72de3419726399b1f0827c855", "rental_uris": {"android": "https://dc.lft.to/lastmile_qr_scan", "ios": "https://dc.lft.to/lastmile_qr_scan"}, "is_disabled": 0, "fusion_lat": 0.0, "lat": 38.9283545, "is_reserved": 0}, {"lon": -77.0433155, "fusion_lon": 0.0, "bike_id": "ea52f8e87efc9ad64257f8e4dbdb2ad5", "type": "electric_scooter", "name": "ea52f8e87efc9ad64257f8e4dbdb2ad5", "rental_uris": {"android": "https://dc.lft.to/lastmile_qr_scan", "ios": "https://dc.lft.to/lastmile_qr_scan"}, "is_disabled": 0, "fusion_lat": 0.0, "lat": 38.9073185, "is_reserved": 0}, {"lon": -77.01353083333333, "fusion_lon": 0.0, "bike_id": "33ae196a628f0b70d35474779f1d2e11", "type": "electric_scooter", "name": "33ae196a628f0b70d35474779f1d2e11", "rental_uris": {"android": "https://dc.lft.to/lastmile_qr_scan", "ios": "https://dc.lft.to/lastmile_qr_scan"}, "is_disabled": 0, "fusion_lat": 0.0, "lat": 38.91910133333333, "is_reserved": 0}, {"lon": -76.99598283333333, "fusion_lon": 0.0, "bike_id": "47aa923eb16061b9c4e1fec4a3ea0ff2", "type": "electric_scooter", "name": "47aa923eb16061b9c4e1fec4a3ea0ff2", "rental_uris": {"android": "https://dc.lft.to/lastmile_qr_scan", "ios": "https://dc.lft.to/lastmile_qr_scan"}, "is_disabled": 0, "fusion_lat": 0.0, "lat": 38.884259166666666, "is_reserved": 0}, {"lon": -77.0122725, "fusion_lon": 0.0, "bike_id": "5c8d2f3f78a293bf816638babb85d9a0", "type": "electric_scooter", "name": "5c8d2f3f78a293bf816638babb85d9a0", "rental_uris": {"android": "https://dc.lft.to/lastmile_qr_scan", "ios": "https://dc.lft.to/lastmile_qr_scan"}, "is_disabled": 0, "fusion_lat": 0.0, "lat": 38.914032, "is_reserved": 0}, {"lon": -77.04671883333333, "fusion_lon": 0.0, "bike_id": "55e02d9b25dd39e6e68ec740b241a5a0", "type": "electric_scooter", "name": "55e02d9b25dd39e6e68ec740b241a5a0", "rental_uris": {"android": "https://dc.lft.to/lastmile_qr_scan", "ios": "https://dc.lft.to/lastmile_qr_scan"}, "is_disabled": 0, "fusion_lat": 0.0, "lat": 38.91414483333333, "is_reserved": 0}, {"lon": -76.99341, "fusion_lon": 0.0, "bike_id": "eeb77f049b2e6be9f2511064bcf51e91", "type": "electric_scooter", "name": "eeb77f049b2e6be9f2511064bcf51e91", "rental_uris": {"android": "https://dc.lft.to/lastmile_qr_scan", "ios": "https://dc.lft.to/lastmile_qr_scan"}, "is_disabled": 0, "fusion_lat": 0.0, "lat": 38.9103265, "is_reserved": 0}, {"lon": -77.04469, "fusion_lon": 0.0, "bike_id": "e8f69aa228a2fb4fdf8c4fa3b1248dea", "type": "electric_scooter", "name": "e8f69aa228a2fb4fdf8c4fa3b1248dea", "rental_uris": {"android": "https://dc.lft.to/lastmile_qr_scan", "ios": "https://dc.lft.to/lastmile_qr_scan"}, "is_disabled": 0, "fusion_lat": 0.0, "lat": 38.90908683333333, "is_reserved": 0}, {"lon": -77.02241333333333, "fusion_lon": 0.0, "bike_id": "ae90ce3453b02357b4e0989155cd45a5", "type": "electric_scooter", "name": "ae90ce3453b02357b4e0989155cd45a5", "rental_uris": {"android": "https://dc.lft.to/lastmile_qr_scan", "ios": "https://dc.lft.to/lastmile_qr_scan"}, "is_disabled": 0, "fusion_lat": 0.0, "lat": 38.89190766666667, "is_reserved": 0}, {"lon": -77.0265395, "fusion_lon": 0.0, "bike_id": "57c7442c94d633df2f2ac507d5a13f3e", "type": "electric_scooter", "name": "57c7442c94d633df2f2ac507d5a13f3e", "rental_uris": {"android": "https://dc.lft.to/lastmile_qr_scan", "ios": "https://dc.lft.to/lastmile_qr_scan"}, "is_disabled": 0, "fusion_lat": 0.0, "lat": 38.881203166666666, "is_reserved": 0}, {"lon": -77.00796566666666, "fusion_lon": 0.0, "bike_id": "38b3f9be8afafab3cf45b922f5e9e4e1", "type": "electric_scooter", "name": "38b3f9be8afafab3cf45b922f5e9e4e1", "rental_uris": {"android": "https://dc.lft.to/lastmile_qr_scan", "ios": "https://dc.lft.to/lastmile_qr_scan"}, "is_disabled": 0, "fusion_lat": 0.0, "lat": 38.91560583333333, "is_reserved": 0}, {"lon": -77.03501366666667, "fusion_lon": 0.0, "bike_id": "1f68e1f284f1731f45268dab851e1da6", "type": "electric_scooter", "name": "1f68e1f284f1731f45268dab851e1da6", "rental_uris": {"android": "https://dc.lft.to/lastmile_qr_scan", "ios": "https://dc.lft.to/lastmile_qr_scan"}, "is_disabled": 0, "fusion_lat": 0.0, "lat": 38.9315945, "is_reserved": 0}, {"lon": -77.0250365, "fusion_lon": 0.0, "bike_id": "8cf50e644e0c2df635a8d339a743d974", "type": "electric_scooter", "name": "8cf50e644e0c2df635a8d339a743d974", "rental_uris": {"android": "https://dc.lft.to/lastmile_qr_scan", "ios": "https://dc.lft.to/lastmile_qr_scan"}, "is_disabled": 0, "fusion_lat": 0.0, "lat": 38.91928, "is_reserved": 0}, {"lon": -77.00175016666667, "fusion_lon": 0.0, "bike_id": "7a5659dafc642163e561a0f1591acda2", "type": "electric_scooter", "name": "7a5659dafc642163e561a0f1591acda2", "rental_uris": {"android": "https://dc.lft.to/lastmile_qr_scan", "ios": "https://dc.lft.to/lastmile_qr_scan"}, "is_disabled": 0, "fusion_lat": 0.0, "lat": 38.9086835, "is_reserved": 0}, {"lon": -77.02596683333333, "fusion_lon": 0.0, "bike_id": "14efa74ba7f6c12d4897f4757e006505", "type": "electric_scooter", "name": "14efa74ba7f6c12d4897f4757e006505", "rental_uris": {"android": "https://dc.lft.to/lastmile_qr_scan", "ios": "https://dc.lft.to/lastmile_qr_scan"}, "is_disabled": 0, "fusion_lat": 0.0, "lat": 38.91707516666666, "is_reserved": 0}, {"lon": -77.02283233333333, "fusion_lon": 0.0, "bike_id": "19ce7b7b5ecfea936eaaabb1b9feb01c", "type": "electric_scooter", "name": "19ce7b7b5ecfea936eaaabb1b9feb01c", "rental_uris": {"android": "https://dc.lft.to/lastmile_qr_scan", "ios": "https://dc.lft.to/lastmile_qr_scan"}, "is_disabled": 0, "fusion_lat": 0.0, "lat": 38.901378, "is_reserved": 0}, {"lon": -77.02208833333333, "fusion_lon": 0.0, "bike_id": "4fcdeed57cf2aaa96dcaf2dcb474e85f", "type": "electric_bike", "name": "4fcdeed57cf2aaa96dcaf2dcb474e85f", "rental_uris": {"android": "https://dc.lft.to/lastmile_qr_scan", "ios": "https://dc.lft.to/lastmile_qr_scan"}, "is_disabled": 0, "fusion_lat": 0.0, "lat": 38.93393616666667, "is_reserved": 0}, {"lon": -77.03959783333333, "fusion_lon": 0.0, "bike_id": "fcc007f4620193c73c1db5ff62d73efd", "type": "electric_scooter", "name": "fcc007f4620193c73c1db5ff62d73efd", "rental_uris": {"android": "https://dc.lft.to/lastmile_qr_scan", "ios": "https://dc.lft.to/lastmile_qr_scan"}, "is_disabled": 0, "fusion_lat": 0.0, "lat": 38.917083, "is_reserved": 0}, {"lon": -77.000679, "fusion_lon": 0.0, "bike_id": "9d2c67c9d47d1ad4fb96522b70a2577a", "type": "electric_scooter", "name": "9d2c67c9d47d1ad4fb96522b70a2577a", "rental_uris": {"android": "https://dc.lft.to/lastmile_qr_scan", "ios": "https://dc.lft.to/lastmile_qr_scan"}, "is_disabled": 0, "fusion_lat": 0.0, "lat": 38.9254035, "is_reserved": 0}, {"lon": -77.03325066666666, "fusion_lon": 0.0, "bike_id": "3d3e557a70bf51305f9d940b081288cd", "type": "electric_scooter", "name": "3d3e557a70bf51305f9d940b081288cd", "rental_uris": {"android": "https://dc.lft.to/lastmile_qr_scan", "ios": "https://dc.lft.to/lastmile_qr_scan"}, "is_disabled": 0, "fusion_lat": 0.0, "lat": 38.890090666666666, "is_reserved": 0}, {"lon": -77.01668983333333, "fusion_lon": 0.0, "bike_id": "59ca826343e489b29d97ffdb87fa72ba", "type": "electric_scooter", "name": "59ca826343e489b29d97ffdb87fa72ba", "rental_uris": {"android": "https://dc.lft.to/lastmile_qr_scan", "ios": "https://dc.lft.to/lastmile_qr_scan"}, "is_disabled": 0, "fusion_lat": 0.0, "lat": 38.88115233333333, "is_reserved": 0}, {"lon": -77.02104416666667, "fusion_lon": 0.0, "bike_id": "3e4f8f952c32393b0c37dfa73a1ca24e", "type": "electric_bike", "name": "3e4f8f952c32393b0c37dfa73a1ca24e", "rental_uris": {"android": "https://dc.lft.to/lastmile_qr_scan", "ios": "https://dc.lft.to/lastmile_qr_scan"}, "is_disabled": 0, "fusion_lat": 0.0, "lat": 38.911724166666666, "is_reserved": 0}, {"lon": -77.03738816666667, "fusion_lon": 0.0, "bike_id": "95e2f78ee673b06bc358662f901fefbb", "type": "electric_scooter", "name": "95e2f78ee673b06bc358662f901fefbb", "rental_uris": {"android": "https://dc.lft.to/lastmile_qr_scan", "ios": "https://dc.lft.to/lastmile_qr_scan"}, "is_disabled": 0, "fusion_lat": 0.0, "lat": 38.9287695, "is_reserved": 0}, {"lon": -76.9970125, "fusion_lon": 0.0, "bike_id": "723699a421d2db53599053b0b38b5470", "type": "electric_scooter", "name": "723699a421d2db53599053b0b38b5470", "rental_uris": {"android": "https://dc.lft.to/lastmile_qr_scan", "ios": "https://dc.lft.to/lastmile_qr_scan"}, "is_disabled": 0, "fusion_lat": 0.0, "lat": 38.88420133333333, "is_reserved": 0}, {"lon": -77.03071266666667, "fusion_lon": 0.0, "bike_id": "82e92a0c1492845ace34a431e3e4e973", "type": "electric_scooter", "name": "82e92a0c1492845ace34a431e3e4e973", "rental_uris": {"android": "https://dc.lft.to/lastmile_qr_scan", "ios": "https://dc.lft.to/lastmile_qr_scan"}, "is_disabled": 0, "fusion_lat": 0.0, "lat": 38.92248083333333, "is_reserved": 0}, {"lon": -76.99734516666666, "fusion_lon": 0.0, "bike_id": "01323d16f1bf7b706887ab97cab4db1a", "type": "electric_scooter", "name": "01323d16f1bf7b706887ab97cab4db1a", "rental_uris": {"android": "https://dc.lft.to/lastmile_qr_scan", "ios": "https://dc.lft.to/lastmile_qr_scan"}, "is_disabled": 0, "fusion_lat": 0.0, "lat": 38.899303, "is_reserved": 0}, {"lon": -77.03183816666666, "fusion_lon": 0.0, "bike_id": "76c5eb277184da672d082c547e707da7", "type": "electric_scooter", "name": "76c5eb277184da672d082c547e707da7", "rental_uris": {"android": "https://dc.lft.to/lastmile_qr_scan", "ios": "https://dc.lft.to/lastmile_qr_scan"}, "is_disabled": 0, "fusion_lat": 0.0, "lat": 38.9178505, "is_reserved": 0}, {"lon": -76.946319, "fusion_lon": 0.0, "bike_id": "ed1caba9e550b37b558889804fbff9a8", "type": "electric_scooter", "name": "ed1caba9e550b37b558889804fbff9a8", "rental_uris": {"android": "https://dc.lft.to/lastmile_qr_scan", "ios": "https://dc.lft.to/lastmile_qr_scan"}, "is_disabled": 0, "fusion_lat": 0.0, "lat": 38.898291666666665, "is_reserved": 0}, {"lon": -77.02176416666667, "fusion_lon": 0.0, "bike_id": "5a5e9e2cfcb943ee4287f93f98db79ff", "type": "electric_scooter", "name": "5a5e9e2cfcb943ee4287f93f98db79ff", "rental_uris": {"android": "https://dc.lft.to/lastmile_qr_scan", "ios": "https://dc.lft.to/lastmile_qr_scan"}, "is_disabled": 0, "fusion_lat": 0.0, "lat": 38.94294883333333, "is_reserved": 0}, {"lon": -76.99773483333334, "fusion_lon": 0.0, "bike_id": "deeb0198ff644f51eba1ef3ca8d20802", "type": "electric_scooter", "name": "deeb0198ff644f51eba1ef3ca8d20802", "rental_uris": {"android": "https://dc.lft.to/lastmile_qr_scan", "ios": "https://dc.lft.to/lastmile_qr_scan"}, "is_disabled": 0, "fusion_lat": 0.0, "lat": 38.90896433333333, "is_reserved": 0}, {"lon": -77.03171966666666, "fusion_lon": 0.0, "bike_id": "065ef92d07e30e808c1035b4b562a712", "type": "electric_scooter", "name": "065ef92d07e30e808c1035b4b562a712", "rental_uris": {"android": "https://dc.lft.to/lastmile_qr_scan", "ios": "https://dc.lft.to/lastmile_qr_scan"}, "is_disabled": 0, "fusion_lat": 0.0, "lat": 38.91920316666667, "is_reserved": 0}, {"lon": -77.0388615, "fusion_lon": 0.0, "bike_id": "a1d20bb6bba6931f47a9630fdcf87f2b", "type": "electric_scooter", "name": "a1d20bb6bba6931f47a9630fdcf87f2b", "rental_uris": {"android": "https://dc.lft.to/lastmile_qr_scan", "ios": "https://dc.lft.to/lastmile_qr_scan"}, "is_disabled": 0, "fusion_lat": 0.0, "lat": 38.914661, "is_reserved": 0}, {"lon": -77.107892, "fusion_lon": 0.0, "bike_id": "3acd771a0414d267c98213c678093c65", "type": "electric_bike", "name": "3acd771a0414d267c98213c678093c65", "rental_uris": {"android": "https://dc.lft.to/lastmile_qr_scan", "ios": "https://dc.lft.to/lastmile_qr_scan"}, "is_disabled": 0, "fusion_lat": 0.0, "lat": 38.852481833333336, "is_reserved": 0}, {"lon": -77.05041166666666, "fusion_lon": 0.0, "bike_id": "818d6d3ff863db3c1cd59a77300a534e", "type": "electric_scooter", "name": "818d6d3ff863db3c1cd59a77300a534e", "rental_uris": {"android": "https://dc.lft.to/lastmile_qr_scan", "ios": "https://dc.lft.to/lastmile_qr_scan"}, "is_disabled": 0, "fusion_lat": 0.0, "lat": 38.92341833333333, "is_reserved": 0}, {"lon": -77.03439133333333, "fusion_lon": 0.0, "bike_id": "dec3a3220c803d5695ffd42b9b62b2c9", "type": "electric_scooter", "name": "dec3a3220c803d5695ffd42b9b62b2c9", "rental_uris": {"android": "https://dc.lft.to/lastmile_qr_scan", "ios": "https://dc.lft.to/lastmile_qr_scan"}, "is_disabled": 0, "fusion_lat": 0.0, "lat": 38.909777166666665, "is_reserved": 0}, {"lon": -77.04472116666666, "fusion_lon": 0.0, "bike_id": "2c72ca3c77c44756b337458ea3ba8ec5", "type": "electric_scooter", "name": "2c72ca3c77c44756b337458ea3ba8ec5", "rental_uris": {"android": "https://dc.lft.to/lastmile_qr_scan", "ios": "https://dc.lft.to/lastmile_qr_scan"}, "is_disabled": 0, "fusion_lat": 0.0, "lat": 38.899558166666665, "is_reserved": 0}, {"lon": -77.04486166666666, "fusion_lon": 0.0, "bike_id": "1af1c635d6d583e8c607e918dbe31963", "type": "electric_scooter", "name": "1af1c635d6d583e8c607e918dbe31963", "rental_uris": {"android": "https://dc.lft.to/lastmile_qr_scan", "ios": "https://dc.lft.to/lastmile_qr_scan"}, "is_disabled": 0, "fusion_lat": 0.0, "lat": 38.910978666666665, "is_reserved": 0}, {"lon": -76.99515733333334, "fusion_lon": 0.0, "bike_id": "98c8c582b315e67475e3eea32e63dea5", "type": "electric_bike", "name": "98c8c582b315e67475e3eea32e63dea5", "rental_uris": {"android": "https://dc.lft.to/lastmile_qr_scan", "ios": "https://dc.lft.to/lastmile_qr_scan"}, "is_disabled": 0, "fusion_lat": 0.0, "lat": 38.82172966666667, "is_reserved": 0}, {"lon": -76.99125633333334, "fusion_lon": 0.0, "bike_id": "9783e59a02aef1d8e707ee00a550aaef", "type": "electric_scooter", "name": "9783e59a02aef1d8e707ee00a550aaef", "rental_uris": {"android": "https://dc.lft.to/lastmile_qr_scan", "ios": "https://dc.lft.to/lastmile_qr_scan"}, "is_disabled": 0, "fusion_lat": 0.0, "lat": 38.84640266666667, "is_reserved": 0}, {"lon": -76.985467, "fusion_lon": 0.0, "bike_id": "f2e5a5393e074ffbb554763224771728", "type": "electric_scooter", "name": "f2e5a5393e074ffbb554763224771728", "rental_uris": {"android": "https://dc.lft.to/lastmile_qr_scan", "ios": "https://dc.lft.to/lastmile_qr_scan"}, "is_disabled": 0, "fusion_lat": 0.0, "lat": 38.8669, "is_reserved": 0}, {"lon": -77.023532, "fusion_lon": 0.0, "bike_id": "da849de462e7eb9db29ea57f474a835a", "type": "electric_scooter", "name": "da849de462e7eb9db29ea57f474a835a", "rental_uris": {"android": "https://dc.lft.to/lastmile_qr_scan", "ios": "https://dc.lft.to/lastmile_qr_scan"}, "is_disabled": 0, "fusion_lat": 0.0, "lat": 38.9353105, "is_reserved": 0}, {"lon": -77.02942216666666, "fusion_lon": 0.0, "bike_id": "1e22129443facc54b0e91563b4653a02", "type": "electric_scooter", "name": "1e22129443facc54b0e91563b4653a02", "rental_uris": {"android": "https://dc.lft.to/lastmile_qr_scan", "ios": "https://dc.lft.to/lastmile_qr_scan"}, "is_disabled": 0, "fusion_lat": 0.0, "lat": 38.9026495, "is_reserved": 0}, {"lon": -77.05146233333333, "fusion_lon": 0.0, "bike_id": "80d314649aca159e1f1697036df0c4ed", "type": "electric_scooter", "name": "80d314649aca159e1f1697036df0c4ed", "rental_uris": {"android": "https://dc.lft.to/lastmile_qr_scan", "ios": "https://dc.lft.to/lastmile_qr_scan"}, "is_disabled": 0, "fusion_lat": 0.0, "lat": 38.901828333333334, "is_reserved": 0}, {"lon": -77.02405383333334, "fusion_lon": 0.0, "bike_id": "5576fde89c359ea5ea6fb91ad3b6e1fb", "type": "electric_scooter", "name": "5576fde89c359ea5ea6fb91ad3b6e1fb", "rental_uris": {"android": "https://dc.lft.to/lastmile_qr_scan", "ios": "https://dc.lft.to/lastmile_qr_scan"}, "is_disabled": 0, "fusion_lat": 0.0, "lat": 38.90562466666667, "is_reserved": 0}, {"lon": -77.022899, "fusion_lon": 0.0, "bike_id": "4a84ca3e3d16e9f2151ffae6494da584", "type": "electric_scooter", "name": "4a84ca3e3d16e9f2151ffae6494da584", "rental_uris": {"android": "https://dc.lft.to/lastmile_qr_scan", "ios": "https://dc.lft.to/lastmile_qr_scan"}, "is_disabled": 0, "fusion_lat": 0.0, "lat": 38.8948715, "is_reserved": 0}, {"lon": -77.04607083333333, "fusion_lon": 0.0, "bike_id": "ce91fe74ccfc0f821bd39946f875520e", "type": "electric_scooter", "name": "ce91fe74ccfc0f821bd39946f875520e", "rental_uris": {"android": "https://dc.lft.to/lastmile_qr_scan", "ios": "https://dc.lft.to/lastmile_qr_scan"}, "is_disabled": 0, "fusion_lat": 0.0, "lat": 38.91677766666667, "is_reserved": 0}, {"lon": -77.00497666666666, "fusion_lon": 0.0, "bike_id": "443844e645239cebe452186aa0dffff3", "type": "electric_scooter", "name": "443844e645239cebe452186aa0dffff3", "rental_uris": {"android": "https://dc.lft.to/lastmile_qr_scan", "ios": "https://dc.lft.to/lastmile_qr_scan"}, "is_disabled": 0, "fusion_lat": 0.0, "lat": 38.874574833333334, "is_reserved": 0}, {"lon": -77.03891716666666, "fusion_lon": 0.0, "bike_id": "94001739f5127b5bf004c0fb6b3ba376", "type": "electric_scooter", "name": "94001739f5127b5bf004c0fb6b3ba376", "rental_uris": {"android": "https://dc.lft.to/lastmile_qr_scan", "ios": "https://dc.lft.to/lastmile_qr_scan"}, "is_disabled": 0, "fusion_lat": 0.0, "lat": 38.91473283333333, "is_reserved": 0}, {"lon": -77.01361366666667, "fusion_lon": 0.0, "bike_id": "55b4cf07088bc869b17e951fa3381807", "type": "electric_scooter", "name": "55b4cf07088bc869b17e951fa3381807", "rental_uris": {"android": "https://dc.lft.to/lastmile_qr_scan", "ios": "https://dc.lft.to/lastmile_qr_scan"}, "is_disabled": 0, "fusion_lat": 0.0, "lat": 38.928896333333334, "is_reserved": 0}, {"lon": -77.03386283333333, "fusion_lon": 0.0, "bike_id": "376b31a2dbf2e06fce44b39f531139a4", "type": "electric_scooter", "name": "376b31a2dbf2e06fce44b39f531139a4", "rental_uris": {"android": "https://dc.lft.to/lastmile_qr_scan", "ios": "https://dc.lft.to/lastmile_qr_scan"}, "is_disabled": 0, "fusion_lat": 0.0, "lat": 38.925401666666666, "is_reserved": 0}, {"lon": -77.044816, "fusion_lon": 0.0, "bike_id": "7bfc475edeaff9513525ec9cab4fe294", "type": "electric_scooter", "name": "7bfc475edeaff9513525ec9cab4fe294", "rental_uris": {"android": "https://dc.lft.to/lastmile_qr_scan", "ios": "https://dc.lft.to/lastmile_qr_scan"}, "is_disabled": 0, "fusion_lat": 0.0, "lat": 38.897433666666664, "is_reserved": 0}, {"lon": -77.080666, "fusion_lon": 0.0, "bike_id": "684c80e21e6f2e646fa42e28252da9d3", "type": "electric_bike", "name": "684c80e21e6f2e646fa42e28252da9d3", "rental_uris": {"android": "https://dc.lft.to/lastmile_qr_scan", "ios": "https://dc.lft.to/lastmile_qr_scan"}, "is_disabled": 0, "fusion_lat": 0.0, "lat": 39.05252983333333, "is_reserved": 0}, {"lon": -77.038467, "fusion_lon": 0.0, "bike_id": "da8cf69c85764e442164eef550492357", "type": "electric_scooter", "name": "da8cf69c85764e442164eef550492357", "rental_uris": {"android": "https://dc.lft.to/lastmile_qr_scan", "ios": "https://dc.lft.to/lastmile_qr_scan"}, "is_disabled": 0, "fusion_lat": 0.0, "lat": 38.90239416666667, "is_reserved": 0}, {"lon": -77.084345, "fusion_lon": 0.0, "bike_id": "8c103a7e46a7bca877fb7772c0efbe2a", "type": "electric_scooter", "name": "8c103a7e46a7bca877fb7772c0efbe2a", "rental_uris": {"android": "https://dc.lft.to/lastmile_qr_scan", "ios": "https://dc.lft.to/lastmile_qr_scan"}, "is_disabled": 0, "fusion_lat": 0.0, "lat": 38.93994466666667, "is_reserved": 0}, {"lon": -76.97034866666667, "fusion_lon": 0.0, "bike_id": "988d0cb631de4dfd8f67d101d82d55c8", "type": "electric_scooter", "name": "988d0cb631de4dfd8f67d101d82d55c8", "rental_uris": {"android": "https://dc.lft.to/lastmile_qr_scan", "ios": "https://dc.lft.to/lastmile_qr_scan"}, "is_disabled": 0, "fusion_lat": 0.0, "lat": 38.873594833333335, "is_reserved": 0}, {"lon": -77.01773016666667, "fusion_lon": 0.0, "bike_id": "3e97099c71a806b98d4bc06c3619dab3", "type": "electric_scooter", "name": "3e97099c71a806b98d4bc06c3619dab3", "rental_uris": {"android": "https://dc.lft.to/lastmile_qr_scan", "ios": "https://dc.lft.to/lastmile_qr_scan"}, "is_disabled": 0, "fusion_lat": 0.0, "lat": 38.90090166666667, "is_reserved": 0}, {"lon": -77.05919283333333, "fusion_lon": 0.0, "bike_id": "db11a0d5e6e50acf6106dc61ec395e79", "type": "electric_scooter", "name": "db11a0d5e6e50acf6106dc61ec395e79", "rental_uris": {"android": "https://dc.lft.to/lastmile_qr_scan", "ios": "https://dc.lft.to/lastmile_qr_scan"}, "is_disabled": 0, "fusion_lat": 0.0, "lat": 38.90265466666666, "is_reserved": 0}, {"lon": -77.02839583333333, "fusion_lon": 0.0, "bike_id": "bbc16087a786fdd862fc33d403dc113b", "type": "electric_scooter", "name": "bbc16087a786fdd862fc33d403dc113b", "rental_uris": {"android": "https://dc.lft.to/lastmile_qr_scan", "ios": "https://dc.lft.to/lastmile_qr_scan"}, "is_disabled": 0, "fusion_lat": 0.0, "lat": 38.893364166666665, "is_reserved": 0}, {"lon": -77.0318165, "fusion_lon": 0.0, "bike_id": "d0c76fded01459911516e732647f23dd", "type": "electric_scooter", "name": "d0c76fded01459911516e732647f23dd", "rental_uris": {"android": "https://dc.lft.to/lastmile_qr_scan", "ios": "https://dc.lft.to/lastmile_qr_scan"}, "is_disabled": 0, "fusion_lat": 0.0, "lat": 38.91847283333333, "is_reserved": 0}, {"lon": -77.01459416666667, "fusion_lon": 0.0, "bike_id": "53a01003726c6a2785f5fc5c6fd0588c", "type": "electric_scooter", "name": "53a01003726c6a2785f5fc5c6fd0588c", "rental_uris": {"android": "https://dc.lft.to/lastmile_qr_scan", "ios": "https://dc.lft.to/lastmile_qr_scan"}, "is_disabled": 0, "fusion_lat": 0.0, "lat": 38.91582283333334, "is_reserved": 0}, {"lon": -77.0222775, "fusion_lon": 0.0, "bike_id": "aeeed41ad2858aea05506edb4e25afef", "type": "electric_scooter", "name": "aeeed41ad2858aea05506edb4e25afef", "rental_uris": {"android": "https://dc.lft.to/lastmile_qr_scan", "ios": "https://dc.lft.to/lastmile_qr_scan"}, "is_disabled": 0, "fusion_lat": 0.0, "lat": 38.8921695, "is_reserved": 0}, {"lon": -77.03919583333334, "fusion_lon": 0.0, "bike_id": "ba4873871c1b736b895da0d96cc0da50", "type": "electric_scooter", "name": "ba4873871c1b736b895da0d96cc0da50", "rental_uris": {"android": "https://dc.lft.to/lastmile_qr_scan", "ios": "https://dc.lft.to/lastmile_qr_scan"}, "is_disabled": 0, "fusion_lat": 0.0, "lat": 38.912631, "is_reserved": 0}, {"lon": -77.03842983333334, "fusion_lon": 0.0, "bike_id": "49330cfb019104067b1ff7673bad4480", "type": "electric_scooter", "name": "49330cfb019104067b1ff7673bad4480", "rental_uris": {"android": "https://dc.lft.to/lastmile_qr_scan", "ios": "https://dc.lft.to/lastmile_qr_scan"}, "is_disabled": 0, "fusion_lat": 0.0, "lat": 38.941902666666664, "is_reserved": 0}, {"lon": -76.9998115, "fusion_lon": 0.0, "bike_id": "8be44107ed8c24077a06694a57549721", "type": "electric_scooter", "name": "8be44107ed8c24077a06694a57549721", "rental_uris": {"android": "https://dc.lft.to/lastmile_qr_scan", "ios": "https://dc.lft.to/lastmile_qr_scan"}, "is_disabled": 0, "fusion_lat": 0.0, "lat": 38.9069415, "is_reserved": 0}, {"lon": -77.029774, "fusion_lon": 0.0, "bike_id": "c10295d2537343dd565b2d78d29329d7", "type": "electric_scooter", "name": "c10295d2537343dd565b2d78d29329d7", "rental_uris": {"android": "https://dc.lft.to/lastmile_qr_scan", "ios": "https://dc.lft.to/lastmile_qr_scan"}, "is_disabled": 0, "fusion_lat": 0.0, "lat": 38.890381833333336, "is_reserved": 0}, {"lon": -77.04702716666667, "fusion_lon": 0.0, "bike_id": "f8f4119dd04052664eaafca0aa9bf3f7", "type": "electric_scooter", "name": "f8f4119dd04052664eaafca0aa9bf3f7", "rental_uris": {"android": "https://dc.lft.to/lastmile_qr_scan", "ios": "https://dc.lft.to/lastmile_qr_scan"}, "is_disabled": 0, "fusion_lat": 0.0, "lat": 38.92186183333333, "is_reserved": 0}, {"lon": -77.00584616666667, "fusion_lon": 0.0, "bike_id": "dd66a9d21416148993fb8dd8bee952fb", "type": "electric_scooter", "name": "dd66a9d21416148993fb8dd8bee952fb", "rental_uris": {"android": "https://dc.lft.to/lastmile_qr_scan", "ios": "https://dc.lft.to/lastmile_qr_scan"}, "is_disabled": 0, "fusion_lat": 0.0, "lat": 38.87616466666667, "is_reserved": 0}, {"lon": -77.00200116666667, "fusion_lon": 0.0, "bike_id": "c4fab1f0515bd0f385d06a199a6afedb", "type": "electric_scooter", "name": "c4fab1f0515bd0f385d06a199a6afedb", "rental_uris": {"android": "https://dc.lft.to/lastmile_qr_scan", "ios": "https://dc.lft.to/lastmile_qr_scan"}, "is_disabled": 0, "fusion_lat": 0.0, "lat": 38.90234183333333, "is_reserved": 0}, {"lon": -76.96260833333334, "fusion_lon": 0.0, "bike_id": "46b31989a7d698be7fa752ea31bcfb43", "type": "electric_bike", "name": "46b31989a7d698be7fa752ea31bcfb43", "rental_uris": {"android": "https://dc.lft.to/lastmile_qr_scan", "ios": "https://dc.lft.to/lastmile_qr_scan"}, "is_disabled": 0, "fusion_lat": 0.0, "lat": 38.88247366666667, "is_reserved": 0}, {"lon": -76.97759633333334, "fusion_lon": 0.0, "bike_id": "0dbce2dc31b1853bbda7658231eaa821", "type": "electric_scooter", "name": "0dbce2dc31b1853bbda7658231eaa821", "rental_uris": {"android": "https://dc.lft.to/lastmile_qr_scan", "ios": "https://dc.lft.to/lastmile_qr_scan"}, "is_disabled": 0, "fusion_lat": 0.0, "lat": 38.92864183333333, "is_reserved": 0}, {"lon": -77.04284983333334, "fusion_lon": 0.0, "bike_id": "fd3af92df52fbee89899546ae2d2f778", "type": "electric_scooter", "name": "fd3af92df52fbee89899546ae2d2f778", "rental_uris": {"android": "https://dc.lft.to/lastmile_qr_scan", "ios": "https://dc.lft.to/lastmile_qr_scan"}, "is_disabled": 0, "fusion_lat": 0.0, "lat": 38.907355, "is_reserved": 0}, {"lon": -77.03563933333334, "fusion_lon": 0.0, "bike_id": "c5129b7343fd010511412e82c67a57d1", "type": "electric_scooter", "name": "c5129b7343fd010511412e82c67a57d1", "rental_uris": {"android": "https://dc.lft.to/lastmile_qr_scan", "ios": "https://dc.lft.to/lastmile_qr_scan"}, "is_disabled": 0, "fusion_lat": 0.0, "lat": 38.926894, "is_reserved": 0}, {"lon": -76.986537, "fusion_lon": 0.0, "bike_id": "b381bc1df807794846c16657846da9fb", "type": "electric_scooter", "name": "b381bc1df807794846c16657846da9fb", "rental_uris": {"android": "https://dc.lft.to/lastmile_qr_scan", "ios": "https://dc.lft.to/lastmile_qr_scan"}, "is_disabled": 0, "fusion_lat": 0.0, "lat": 38.85804616666667, "is_reserved": 0}, {"lon": -77.03190016666667, "fusion_lon": 0.0, "bike_id": "714a0fe894005000a484175ef7779284", "type": "electric_scooter", "name": "714a0fe894005000a484175ef7779284", "rental_uris": {"android": "https://dc.lft.to/lastmile_qr_scan", "ios": "https://dc.lft.to/lastmile_qr_scan"}, "is_disabled": 0, "fusion_lat": 0.0, "lat": 38.917566666666666, "is_reserved": 0}, {"lon": -76.98385033333334, "fusion_lon": 0.0, "bike_id": "a97d07f4572783140f24f1210620f190", "type": "electric_scooter", "name": "a97d07f4572783140f24f1210620f190", "rental_uris": {"android": "https://dc.lft.to/lastmile_qr_scan", "ios": "https://dc.lft.to/lastmile_qr_scan"}, "is_disabled": 0, "fusion_lat": 0.0, "lat": 38.90652733333334, "is_reserved": 0}, {"lon": -77.07880933333334, "fusion_lon": 0.0, "bike_id": "cdc519b7eee3663d4e336fb8915ba70f", "type": "electric_bike", "name": "cdc519b7eee3663d4e336fb8915ba70f", "rental_uris": {"android": "https://dc.lft.to/lastmile_qr_scan", "ios": "https://dc.lft.to/lastmile_qr_scan"}, "is_disabled": 0, "fusion_lat": 0.0, "lat": 38.8425435, "is_reserved": 0}, {"lon": -77.0500225, "fusion_lon": 0.0, "bike_id": "e44fe217db86279b6a299ef5055c1be2", "type": "electric_scooter", "name": "e44fe217db86279b6a299ef5055c1be2", "rental_uris": {"android": "https://dc.lft.to/lastmile_qr_scan", "ios": "https://dc.lft.to/lastmile_qr_scan"}, "is_disabled": 0, "fusion_lat": 0.0, "lat": 38.89746383333333, "is_reserved": 0}, {"lon": -77.03823666666666, "fusion_lon": 0.0, "bike_id": "5482a28dee52efe45db9e54d6eb5cacd", "type": "electric_scooter", "name": "5482a28dee52efe45db9e54d6eb5cacd", "rental_uris": {"android": "https://dc.lft.to/lastmile_qr_scan", "ios": "https://dc.lft.to/lastmile_qr_scan"}, "is_disabled": 0, "fusion_lat": 0.0, "lat": 38.9079485, "is_reserved": 0}, {"lon": -77.00627933333334, "fusion_lon": 0.0, "bike_id": "dccc804205a8bfeb2a72257b36f9dba4", "type": "electric_scooter", "name": "dccc804205a8bfeb2a72257b36f9dba4", "rental_uris": {"android": "https://dc.lft.to/lastmile_qr_scan", "ios": "https://dc.lft.to/lastmile_qr_scan"}, "is_disabled": 0, "fusion_lat": 0.0, "lat": 38.871755666666665, "is_reserved": 0}, {"lon": -77.04371266666666, "fusion_lon": 0.0, "bike_id": "af9124e879a267271fe17afb93de3f25", "type": "electric_scooter", "name": "af9124e879a267271fe17afb93de3f25", "rental_uris": {"android": "https://dc.lft.to/lastmile_qr_scan", "ios": "https://dc.lft.to/lastmile_qr_scan"}, "is_disabled": 0, "fusion_lat": 0.0, "lat": 38.8972715, "is_reserved": 0}, {"lon": -77.07456416666666, "fusion_lon": 0.0, "bike_id": "abfce71e68b767937b5da5b3eec8aeb3", "type": "electric_scooter", "name": "abfce71e68b767937b5da5b3eec8aeb3", "rental_uris": {"android": "https://dc.lft.to/lastmile_qr_scan", "ios": "https://dc.lft.to/lastmile_qr_scan"}, "is_disabled": 0, "fusion_lat": 0.0, "lat": 38.935545166666664, "is_reserved": 0}, {"lon": -77.0276535, "fusion_lon": 0.0, "bike_id": "477d12dcb613c9dc72778d052a7903a0", "type": "electric_scooter", "name": "477d12dcb613c9dc72778d052a7903a0", "rental_uris": {"android": "https://dc.lft.to/lastmile_qr_scan", "ios": "https://dc.lft.to/lastmile_qr_scan"}, "is_disabled": 0, "fusion_lat": 0.0, "lat": 38.916973166666665, "is_reserved": 0}, {"lon": -77.0337645, "fusion_lon": 0.0, "bike_id": "0035fea80111498d0a0e1e76d1e1892f", "type": "electric_scooter", "name": "0035fea80111498d0a0e1e76d1e1892f", "rental_uris": {"android": "https://dc.lft.to/lastmile_qr_scan", "ios": "https://dc.lft.to/lastmile_qr_scan"}, "is_disabled": 0, "fusion_lat": 0.0, "lat": 38.921423, "is_reserved": 0}, {"lon": -77.02378716666666, "fusion_lon": 0.0, "bike_id": "5ece4734a6e3853d2a5eb6b57966aafe", "type": "electric_scooter", "name": "5ece4734a6e3853d2a5eb6b57966aafe", "rental_uris": {"android": "https://dc.lft.to/lastmile_qr_scan", "ios": "https://dc.lft.to/lastmile_qr_scan"}, "is_disabled": 0, "fusion_lat": 0.0, "lat": 38.89726, "is_reserved": 0}, {"lon": -77.00711283333334, "fusion_lon": 0.0, "bike_id": "3121d3fbf35a25a04fd18cb230f3ec20", "type": "electric_scooter", "name": "3121d3fbf35a25a04fd18cb230f3ec20", "rental_uris": {"android": "https://dc.lft.to/lastmile_qr_scan", "ios": "https://dc.lft.to/lastmile_qr_scan"}, "is_disabled": 0, "fusion_lat": 0.0, "lat": 38.877118333333335, "is_reserved": 0}, {"lon": -77.016579, "fusion_lon": 0.0, "bike_id": "5e0a506b4b35b5f85f96c38a0f79994b", "type": "electric_scooter", "name": "5e0a506b4b35b5f85f96c38a0f79994b", "rental_uris": {"android": "https://dc.lft.to/lastmile_qr_scan", "ios": "https://dc.lft.to/lastmile_qr_scan"}, "is_disabled": 0, "fusion_lat": 0.0, "lat": 38.90296583333333, "is_reserved": 0}, {"lon": -77.02665883333333, "fusion_lon": 0.0, "bike_id": "ae4b2cecfe79b8c8002a78b2292a04c9", "type": "electric_scooter", "name": "ae4b2cecfe79b8c8002a78b2292a04c9", "rental_uris": {"android": "https://dc.lft.to/lastmile_qr_scan", "ios": "https://dc.lft.to/lastmile_qr_scan"}, "is_disabled": 0, "fusion_lat": 0.0, "lat": 38.916986333333334, "is_reserved": 0}, {"lon": -77.00055833333333, "fusion_lon": 0.0, "bike_id": "a5e5a7b894c43a4f27fdb2af5484060a", "type": "electric_scooter", "name": "a5e5a7b894c43a4f27fdb2af5484060a", "rental_uris": {"android": "https://dc.lft.to/lastmile_qr_scan", "ios": "https://dc.lft.to/lastmile_qr_scan"}, "is_disabled": 0, "fusion_lat": 0.0, "lat": 38.87678416666667, "is_reserved": 0}, {"lon": -77.02651916666667, "fusion_lon": 0.0, "bike_id": "1a090e3b817df66fb15f8a0c7815bfa6", "type": "electric_scooter", "name": "1a090e3b817df66fb15f8a0c7815bfa6", "rental_uris": {"android": "https://dc.lft.to/lastmile_qr_scan", "ios": "https://dc.lft.to/lastmile_qr_scan"}, "is_disabled": 0, "fusion_lat": 0.0, "lat": 38.9386265, "is_reserved": 0}, {"lon": -77.02810866666667, "fusion_lon": 0.0, "bike_id": "275401eca6fa6eb81d8851dd2c409508", "type": "electric_scooter", "name": "275401eca6fa6eb81d8851dd2c409508", "rental_uris": {"android": "https://dc.lft.to/lastmile_qr_scan", "ios": "https://dc.lft.to/lastmile_qr_scan"}, "is_disabled": 0, "fusion_lat": 0.0, "lat": 38.9164495, "is_reserved": 0}, {"lon": -77.03659, "fusion_lon": 0.0, "bike_id": "6f5f865c3891c42270f5ccb3cc9154a8", "type": "electric_scooter", "name": "6f5f865c3891c42270f5ccb3cc9154a8", "rental_uris": {"android": "https://dc.lft.to/lastmile_qr_scan", "ios": "https://dc.lft.to/lastmile_qr_scan"}, "is_disabled": 0, "fusion_lat": 0.0, "lat": 38.92209733333333, "is_reserved": 0}, {"lon": -76.95186483333333, "fusion_lon": 0.0, "bike_id": "953ee0a82010b1eb90a77c9dcc778948", "type": "electric_scooter", "name": "953ee0a82010b1eb90a77c9dcc778948", "rental_uris": {"android": "https://dc.lft.to/lastmile_qr_scan", "ios": "https://dc.lft.to/lastmile_qr_scan"}, "is_disabled": 0, "fusion_lat": 0.0, "lat": 38.891326666666664, "is_reserved": 0}, {"lon": -77.04518116666667, "fusion_lon": 0.0, "bike_id": "dda16394ed482f6766b5f0b6061daa69", "type": "electric_scooter", "name": "dda16394ed482f6766b5f0b6061daa69", "rental_uris": {"android": "https://dc.lft.to/lastmile_qr_scan", "ios": "https://dc.lft.to/lastmile_qr_scan"}, "is_disabled": 0, "fusion_lat": 0.0, "lat": 38.91287533333333, "is_reserved": 0}, {"lon": -77.0532085, "fusion_lon": 0.0, "bike_id": "e1c072638b3055e2f043d47fba613665", "type": "electric_scooter", "name": "e1c072638b3055e2f043d47fba613665", "rental_uris": {"android": "https://dc.lft.to/lastmile_qr_scan", "ios": "https://dc.lft.to/lastmile_qr_scan"}, "is_disabled": 0, "fusion_lat": 0.0, "lat": 38.90640483333333, "is_reserved": 0}, {"lon": -76.97621866666667, "fusion_lon": 0.0, "bike_id": "dce91d8a4b5dc69ecef3ce8ee9830a39", "type": "electric_scooter", "name": "dce91d8a4b5dc69ecef3ce8ee9830a39", "rental_uris": {"android": "https://dc.lft.to/lastmile_qr_scan", "ios": "https://dc.lft.to/lastmile_qr_scan"}, "is_disabled": 0, "fusion_lat": 0.0, "lat": 38.892813833333335, "is_reserved": 0}, {"lon": -77.0371985, "fusion_lon": 0.0, "bike_id": "a19214ede525e4c3c06da60c1490fa8e", "type": "electric_scooter", "name": "a19214ede525e4c3c06da60c1490fa8e", "rental_uris": {"android": "https://dc.lft.to/lastmile_qr_scan", "ios": "https://dc.lft.to/lastmile_qr_scan"}, "is_disabled": 0, "fusion_lat": 0.0, "lat": 38.90353833333333, "is_reserved": 0}, {"lon": -77.03998166666666, "fusion_lon": 0.0, "bike_id": "a4a4ab99d5361a42fff3636f3e825c13", "type": "electric_bike", "name": "a4a4ab99d5361a42fff3636f3e825c13", "rental_uris": {"android": "https://dc.lft.to/lastmile_qr_scan", "ios": "https://dc.lft.to/lastmile_qr_scan"}, "is_disabled": 0, "fusion_lat": 0.0, "lat": 38.9963815, "is_reserved": 0}, {"lon": -77.04054616666667, "fusion_lon": 0.0, "bike_id": "e4fe402c698c72c3a12ed3af5ac165e6", "type": "electric_scooter", "name": "e4fe402c698c72c3a12ed3af5ac165e6", "rental_uris": {"android": "https://dc.lft.to/lastmile_qr_scan", "ios": "https://dc.lft.to/lastmile_qr_scan"}, "is_disabled": 0, "fusion_lat": 0.0, "lat": 38.905943666666666, "is_reserved": 0}, {"lon": -76.99856466666667, "fusion_lon": 0.0, "bike_id": "af3e79592cb4bca3fd9a7ca54149bbd3", "type": "electric_scooter", "name": "af3e79592cb4bca3fd9a7ca54149bbd3", "rental_uris": {"android": "https://dc.lft.to/lastmile_qr_scan", "ios": "https://dc.lft.to/lastmile_qr_scan"}, "is_disabled": 0, "fusion_lat": 0.0, "lat": 38.89190816666667, "is_reserved": 0}, {"lon": -77.0237935, "fusion_lon": 0.0, "bike_id": "25a3164097771cad928232cf50ec316f", "type": "electric_scooter", "name": "25a3164097771cad928232cf50ec316f", "rental_uris": {"android": "https://dc.lft.to/lastmile_qr_scan", "ios": "https://dc.lft.to/lastmile_qr_scan"}, "is_disabled": 0, "fusion_lat": 0.0, "lat": 38.90685366666666, "is_reserved": 0}, {"lon": -76.92898833333334, "fusion_lon": 0.0, "bike_id": "8b030c0c192eb7876ed93ba02ba1e3c4", "type": "electric_scooter", "name": "8b030c0c192eb7876ed93ba02ba1e3c4", "rental_uris": {"android": "https://dc.lft.to/lastmile_qr_scan", "ios": "https://dc.lft.to/lastmile_qr_scan"}, "is_disabled": 0, "fusion_lat": 0.0, "lat": 38.90190666666667, "is_reserved": 0}, {"lon": -77.04451766666666, "fusion_lon": 0.0, "bike_id": "d2b71bd4faef6b3e738c34ef813aceec", "type": "electric_bike", "name": "d2b71bd4faef6b3e738c34ef813aceec", "rental_uris": {"android": "https://dc.lft.to/lastmile_qr_scan", "ios": "https://dc.lft.to/lastmile_qr_scan"}, "is_disabled": 0, "fusion_lat": 0.0, "lat": 38.915491833333334, "is_reserved": 0}, {"lon": -77.03667566666667, "fusion_lon": 0.0, "bike_id": "52d622151e660822eaf923ae3947414e", "type": "electric_scooter", "name": "52d622151e660822eaf923ae3947414e", "rental_uris": {"android": "https://dc.lft.to/lastmile_qr_scan", "ios": "https://dc.lft.to/lastmile_qr_scan"}, "is_disabled": 0, "fusion_lat": 0.0, "lat": 38.929807833333335, "is_reserved": 0}, {"lon": -76.9482715, "fusion_lon": 0.0, "bike_id": "ebfe9c33856393de0a91a080bbfb8cfa", "type": "electric_scooter", "name": "ebfe9c33856393de0a91a080bbfb8cfa", "rental_uris": {"android": "https://dc.lft.to/lastmile_qr_scan", "ios": "https://dc.lft.to/lastmile_qr_scan"}, "is_disabled": 0, "fusion_lat": 0.0, "lat": 38.88410316666667, "is_reserved": 0}, {"lon": -77.03008133333333, "fusion_lon": 0.0, "bike_id": "b2f4c6a6bb96f25be1d76abc04fae3db", "type": "electric_scooter", "name": "b2f4c6a6bb96f25be1d76abc04fae3db", "rental_uris": {"android": "https://dc.lft.to/lastmile_qr_scan", "ios": "https://dc.lft.to/lastmile_qr_scan"}, "is_disabled": 0, "fusion_lat": 0.0, "lat": 38.8977955, "is_reserved": 0}, {"lon": -77.0318295, "fusion_lon": 0.0, "bike_id": "10116e711d65b1c8bfa563bea883b48f", "type": "electric_scooter", "name": "10116e711d65b1c8bfa563bea883b48f", "rental_uris": {"android": "https://dc.lft.to/lastmile_qr_scan", "ios": "https://dc.lft.to/lastmile_qr_scan"}, "is_disabled": 0, "fusion_lat": 0.0, "lat": 38.897802166666665, "is_reserved": 0}, {"lon": -77.0238285, "fusion_lon": 0.0, "bike_id": "1de82b3498b1db396abd2c2742f08b95", "type": "electric_scooter", "name": "1de82b3498b1db396abd2c2742f08b95", "rental_uris": {"android": "https://dc.lft.to/lastmile_qr_scan", "ios": "https://dc.lft.to/lastmile_qr_scan"}, "is_disabled": 0, "fusion_lat": 0.0, "lat": 38.891960833333336, "is_reserved": 0}, {"lon": -77.0143485, "fusion_lon": 0.0, "bike_id": "08e64c6af1847cac57215af418203a52", "type": "electric_scooter", "name": "08e64c6af1847cac57215af418203a52", "rental_uris": {"android": "https://dc.lft.to/lastmile_qr_scan", "ios": "https://dc.lft.to/lastmile_qr_scan"}, "is_disabled": 0, "fusion_lat": 0.0, "lat": 38.91958533333333, "is_reserved": 0}, {"lon": -77.02752366666667, "fusion_lon": 0.0, "bike_id": "0c180ad6479b7d3d3a5c199ce1393aaa", "type": "electric_scooter", "name": "0c180ad6479b7d3d3a5c199ce1393aaa", "rental_uris": {"android": "https://dc.lft.to/lastmile_qr_scan", "ios": "https://dc.lft.to/lastmile_qr_scan"}, "is_disabled": 0, "fusion_lat": 0.0, "lat": 38.9346195, "is_reserved": 0}, {"lon": -77.04292733333334, "fusion_lon": 0.0, "bike_id": "01a71b3b22a2446c52a3924f3e45f0de", "type": "electric_bike", "name": "01a71b3b22a2446c52a3924f3e45f0de", "rental_uris": {"android": "https://dc.lft.to/lastmile_qr_scan", "ios": "https://dc.lft.to/lastmile_qr_scan"}, "is_disabled": 0, "fusion_lat": 0.0, "lat": 38.830967666666666, "is_reserved": 0}, {"lon": -77.0154855, "fusion_lon": 0.0, "bike_id": "c9dc5f8786fa14d2f9e295da8717b437", "type": "electric_scooter", "name": "c9dc5f8786fa14d2f9e295da8717b437", "rental_uris": {"android": "https://dc.lft.to/lastmile_qr_scan", "ios": "https://dc.lft.to/lastmile_qr_scan"}, "is_disabled": 0, "fusion_lat": 0.0, "lat": 38.916017333333336, "is_reserved": 0}, {"lon": -77.02035133333334, "fusion_lon": 0.0, "bike_id": "1a1784466843d4f694294361cc339616", "type": "electric_scooter", "name": "1a1784466843d4f694294361cc339616", "rental_uris": {"android": "https://dc.lft.to/lastmile_qr_scan", "ios": "https://dc.lft.to/lastmile_qr_scan"}, "is_disabled": 0, "fusion_lat": 0.0, "lat": 38.901893666666666, "is_reserved": 0}, {"lon": -77.0435055, "fusion_lon": 0.0, "bike_id": "192c6e8259a608a3cabc5a4b2af320ff", "type": "electric_scooter", "name": "192c6e8259a608a3cabc5a4b2af320ff", "rental_uris": {"android": "https://dc.lft.to/lastmile_qr_scan", "ios": "https://dc.lft.to/lastmile_qr_scan"}, "is_disabled": 0, "fusion_lat": 0.0, "lat": 38.908309333333335, "is_reserved": 0}, {"lon": -77.032081, "fusion_lon": 0.0, "bike_id": "e2dd1d8a26faec6ad3d28169fb8cef25", "type": "electric_scooter", "name": "e2dd1d8a26faec6ad3d28169fb8cef25", "rental_uris": {"android": "https://dc.lft.to/lastmile_qr_scan", "ios": "https://dc.lft.to/lastmile_qr_scan"}, "is_disabled": 0, "fusion_lat": 0.0, "lat": 38.927753833333334, "is_reserved": 0}, {"lon": -77.02499116666667, "fusion_lon": 0.0, "bike_id": "222cefb493afd02c8c6b87da48db1f6d", "type": "electric_scooter", "name": "222cefb493afd02c8c6b87da48db1f6d", "rental_uris": {"android": "https://dc.lft.to/lastmile_qr_scan", "ios": "https://dc.lft.to/lastmile_qr_scan"}, "is_disabled": 0, "fusion_lat": 0.0, "lat": 38.940895, "is_reserved": 0}, {"lon": -77.0236715, "fusion_lon": 0.0, "bike_id": "100650d4279769429b2d5aea9332f42a", "type": "electric_scooter", "name": "100650d4279769429b2d5aea9332f42a", "rental_uris": {"android": "https://dc.lft.to/lastmile_qr_scan", "ios": "https://dc.lft.to/lastmile_qr_scan"}, "is_disabled": 0, "fusion_lat": 0.0, "lat": 38.93742, "is_reserved": 0}, {"lon": -77.03894016666666, "fusion_lon": 0.0, "bike_id": "aa5fd5f9f86736f89d52d1d7ffa910b3", "type": "electric_scooter", "name": "aa5fd5f9f86736f89d52d1d7ffa910b3", "rental_uris": {"android": "https://dc.lft.to/lastmile_qr_scan", "ios": "https://dc.lft.to/lastmile_qr_scan"}, "is_disabled": 0, "fusion_lat": 0.0, "lat": 38.904664, "is_reserved": 0}, {"lon": -77.04024633333333, "fusion_lon": 0.0, "bike_id": "d5a9063ace19a32cd1706ab0b47d6e02", "type": "electric_scooter", "name": "d5a9063ace19a32cd1706ab0b47d6e02", "rental_uris": {"android": "https://dc.lft.to/lastmile_qr_scan", "ios": "https://dc.lft.to/lastmile_qr_scan"}, "is_disabled": 0, "fusion_lat": 0.0, "lat": 38.89657366666667, "is_reserved": 0}, {"lon": -77.024884, "fusion_lon": 0.0, "bike_id": "1f3df41ffe8c285af33f041ec5ca988a", "type": "electric_scooter", "name": "1f3df41ffe8c285af33f041ec5ca988a", "rental_uris": {"android": "https://dc.lft.to/lastmile_qr_scan", "ios": "https://dc.lft.to/lastmile_qr_scan"}, "is_disabled": 0, "fusion_lat": 0.0, "lat": 38.916948833333336, "is_reserved": 0}, {"lon": -77.044053, "fusion_lon": 0.0, "bike_id": "23b884d6fd868afe68941afb43bef47e", "type": "electric_scooter", "name": "23b884d6fd868afe68941afb43bef47e", "rental_uris": {"android": "https://dc.lft.to/lastmile_qr_scan", "ios": "https://dc.lft.to/lastmile_qr_scan"}, "is_disabled": 0, "fusion_lat": 0.0, "lat": 38.911078, "is_reserved": 0}, {"lon": -77.04251666666667, "fusion_lon": 0.0, "bike_id": "672b8ac9fa52981c4bbf6ddae69d586f", "type": "electric_scooter", "name": "672b8ac9fa52981c4bbf6ddae69d586f", "rental_uris": {"android": "https://dc.lft.to/lastmile_qr_scan", "ios": "https://dc.lft.to/lastmile_qr_scan"}, "is_disabled": 0, "fusion_lat": 0.0, "lat": 38.92243833333333, "is_reserved": 0}, {"lon": -77.04913216666667, "fusion_lon": 0.0, "bike_id": "97104b550b622e1f8838e5b04608eebd", "type": "electric_bike", "name": "97104b550b622e1f8838e5b04608eebd", "rental_uris": {"android": "https://dc.lft.to/lastmile_qr_scan", "ios": "https://dc.lft.to/lastmile_qr_scan"}, "is_disabled": 0, "fusion_lat": 0.0, "lat": 38.854437, "is_reserved": 0}, {"lon": -77.062563, "fusion_lon": 0.0, "bike_id": "9e5f7484ccca8f44a27401e44a2b79ca", "type": "electric_bike", "name": "9e5f7484ccca8f44a27401e44a2b79ca", "rental_uris": {"android": "https://dc.lft.to/lastmile_qr_scan", "ios": "https://dc.lft.to/lastmile_qr_scan"}, "is_disabled": 0, "fusion_lat": 0.0, "lat": 38.943966333333336, "is_reserved": 0}, {"lon": -77.03327866666666, "fusion_lon": 0.0, "bike_id": "519dea8f3595425e450eff2b0f6ebc7b", "type": "electric_scooter", "name": "519dea8f3595425e450eff2b0f6ebc7b", "rental_uris": {"android": "https://dc.lft.to/lastmile_qr_scan", "ios": "https://dc.lft.to/lastmile_qr_scan"}, "is_disabled": 0, "fusion_lat": 0.0, "lat": 38.92152633333333, "is_reserved": 0}, {"lon": -77.019776, "fusion_lon": 0.0, "bike_id": "3c6d6b359db8654e0ad49db25eb3bbca", "type": "electric_scooter", "name": "3c6d6b359db8654e0ad49db25eb3bbca", "rental_uris": {"android": "https://dc.lft.to/lastmile_qr_scan", "ios": "https://dc.lft.to/lastmile_qr_scan"}, "is_disabled": 0, "fusion_lat": 0.0, "lat": 38.90237233333333, "is_reserved": 0}, {"lon": -77.03430383333334, "fusion_lon": 0.0, "bike_id": "bf62c9cf1f8ff7b555ad740d5e410214", "type": "electric_bike", "name": "bf62c9cf1f8ff7b555ad740d5e410214", "rental_uris": {"android": "https://dc.lft.to/lastmile_qr_scan", "ios": "https://dc.lft.to/lastmile_qr_scan"}, "is_disabled": 0, "fusion_lat": 0.0, "lat": 38.966212, "is_reserved": 0}, {"lon": -77.02709033333333, "fusion_lon": 0.0, "bike_id": "e0b29b0e6be530f181033d50409c1360", "type": "electric_scooter", "name": "e0b29b0e6be530f181033d50409c1360", "rental_uris": {"android": "https://dc.lft.to/lastmile_qr_scan", "ios": "https://dc.lft.to/lastmile_qr_scan"}, "is_disabled": 0, "fusion_lat": 0.0, "lat": 38.928787166666666, "is_reserved": 0}, {"lon": -77.01628966666667, "fusion_lon": 0.0, "bike_id": "af0214c248b2fdd34b59f2d9ad79c155", "type": "electric_scooter", "name": "af0214c248b2fdd34b59f2d9ad79c155", "rental_uris": {"android": "https://dc.lft.to/lastmile_qr_scan", "ios": "https://dc.lft.to/lastmile_qr_scan"}, "is_disabled": 0, "fusion_lat": 0.0, "lat": 38.903667166666665, "is_reserved": 0}, {"lon": -77.036634, "fusion_lon": 0.0, "bike_id": "dea751f6860724eded5fb3203a0dcfce", "type": "electric_scooter", "name": "dea751f6860724eded5fb3203a0dcfce", "rental_uris": {"android": "https://dc.lft.to/lastmile_qr_scan", "ios": "https://dc.lft.to/lastmile_qr_scan"}, "is_disabled": 0, "fusion_lat": 0.0, "lat": 38.921263833333335, "is_reserved": 0}, {"lon": -77.10855583333333, "fusion_lon": 0.0, "bike_id": "451e6f2d334c77077bf44dd81d1ec0ce", "type": "electric_bike", "name": "451e6f2d334c77077bf44dd81d1ec0ce", "rental_uris": {"android": "https://dc.lft.to/lastmile_qr_scan", "ios": "https://dc.lft.to/lastmile_qr_scan"}, "is_disabled": 0, "fusion_lat": 0.0, "lat": 38.87239733333333, "is_reserved": 0}, {"lon": -77.06106083333333, "fusion_lon": 0.0, "bike_id": "491879e91cfc77f078d6f18ba9b3af47", "type": "electric_scooter", "name": "491879e91cfc77f078d6f18ba9b3af47", "rental_uris": {"android": "https://dc.lft.to/lastmile_qr_scan", "ios": "https://dc.lft.to/lastmile_qr_scan"}, "is_disabled": 0, "fusion_lat": 0.0, "lat": 38.93703283333333, "is_reserved": 0}, {"lon": -77.008913, "fusion_lon": 0.0, "bike_id": "dd066cc557adfdc7c0b73f4bc6766d01", "type": "electric_scooter", "name": "dd066cc557adfdc7c0b73f4bc6766d01", "rental_uris": {"android": "https://dc.lft.to/lastmile_qr_scan", "ios": "https://dc.lft.to/lastmile_qr_scan"}, "is_disabled": 0, "fusion_lat": 0.0, "lat": 38.9683605, "is_reserved": 0}, {"lon": -77.050013, "fusion_lon": 0.0, "bike_id": "0420fb19c53b94dd039722d333f2a620", "type": "electric_scooter", "name": "0420fb19c53b94dd039722d333f2a620", "rental_uris": {"android": "https://dc.lft.to/lastmile_qr_scan", "ios": "https://dc.lft.to/lastmile_qr_scan"}, "is_disabled": 0, "fusion_lat": 0.0, "lat": 38.906678166666666, "is_reserved": 0}, {"lon": -77.02795066666667, "fusion_lon": 0.0, "bike_id": "e71cbf1f101db79faacdf3e8e2f66a3f", "type": "electric_scooter", "name": "e71cbf1f101db79faacdf3e8e2f66a3f", "rental_uris": {"android": "https://dc.lft.to/lastmile_qr_scan", "ios": "https://dc.lft.to/lastmile_qr_scan"}, "is_disabled": 0, "fusion_lat": 0.0, "lat": 38.96043366666667, "is_reserved": 0}, {"lon": -77.03576833333334, "fusion_lon": 0.0, "bike_id": "833f2c3f2a8fcb0cb5390851bd4440c2", "type": "electric_scooter", "name": "833f2c3f2a8fcb0cb5390851bd4440c2", "rental_uris": {"android": "https://dc.lft.to/lastmile_qr_scan", "ios": "https://dc.lft.to/lastmile_qr_scan"}, "is_disabled": 0, "fusion_lat": 0.0, "lat": 38.9038105, "is_reserved": 0}, {"lon": -77.03407133333333, "fusion_lon": 0.0, "bike_id": "b54abc1dddc87751ec0f3167128f9200", "type": "electric_scooter", "name": "b54abc1dddc87751ec0f3167128f9200", "rental_uris": {"android": "https://dc.lft.to/lastmile_qr_scan", "ios": "https://dc.lft.to/lastmile_qr_scan"}, "is_disabled": 0, "fusion_lat": 0.0, "lat": 38.92440783333333, "is_reserved": 0}, {"lon": -77.03158266666667, "fusion_lon": 0.0, "bike_id": "e30478bb2a4e421c52fe4011951ee07b", "type": "electric_scooter", "name": "e30478bb2a4e421c52fe4011951ee07b", "rental_uris": {"android": "https://dc.lft.to/lastmile_qr_scan", "ios": "https://dc.lft.to/lastmile_qr_scan"}, "is_disabled": 0, "fusion_lat": 0.0, "lat": 38.897325333333335, "is_reserved": 0}, {"lon": -77.0326545, "fusion_lon": 0.0, "bike_id": "05a86352f5fc3db3f87a4147cf3b5184", "type": "electric_scooter", "name": "05a86352f5fc3db3f87a4147cf3b5184", "rental_uris": {"android": "https://dc.lft.to/lastmile_qr_scan", "ios": "https://dc.lft.to/lastmile_qr_scan"}, "is_disabled": 0, "fusion_lat": 0.0, "lat": 38.93773016666667, "is_reserved": 0}, {"lon": -77.02691716666666, "fusion_lon": 0.0, "bike_id": "2ba4785291cdce8350235d1012fb2864", "type": "electric_scooter", "name": "2ba4785291cdce8350235d1012fb2864", "rental_uris": {"android": "https://dc.lft.to/lastmile_qr_scan", "ios": "https://dc.lft.to/lastmile_qr_scan"}, "is_disabled": 0, "fusion_lat": 0.0, "lat": 38.90704483333333, "is_reserved": 0}, {"lon": -77.03369233333333, "fusion_lon": 0.0, "bike_id": "3749ec51f4c6b1c8f17bcc3acac46485", "type": "electric_scooter", "name": "3749ec51f4c6b1c8f17bcc3acac46485", "rental_uris": {"android": "https://dc.lft.to/lastmile_qr_scan", "ios": "https://dc.lft.to/lastmile_qr_scan"}, "is_disabled": 0, "fusion_lat": 0.0, "lat": 38.923563, "is_reserved": 0}, {"lon": -77.03360516666666, "fusion_lon": 0.0, "bike_id": "d2ecfee267dd4a7aecc80552e38e15c6", "type": "electric_scooter", "name": "d2ecfee267dd4a7aecc80552e38e15c6", "rental_uris": {"android": "https://dc.lft.to/lastmile_qr_scan", "ios": "https://dc.lft.to/lastmile_qr_scan"}, "is_disabled": 0, "fusion_lat": 0.0, "lat": 38.886929333333335, "is_reserved": 0}, {"lon": -77.04116366666666, "fusion_lon": 0.0, "bike_id": "1945c697028ecddb1649dbc40004ff4d", "type": "electric_scooter", "name": "1945c697028ecddb1649dbc40004ff4d", "rental_uris": {"android": "https://dc.lft.to/lastmile_qr_scan", "ios": "https://dc.lft.to/lastmile_qr_scan"}, "is_disabled": 0, "fusion_lat": 0.0, "lat": 38.925308, "is_reserved": 0}, {"lon": -77.01216983333333, "fusion_lon": 0.0, "bike_id": "44eb61bff70e53808ae6ede98418a67a", "type": "electric_scooter", "name": "44eb61bff70e53808ae6ede98418a67a", "rental_uris": {"android": "https://dc.lft.to/lastmile_qr_scan", "ios": "https://dc.lft.to/lastmile_qr_scan"}, "is_disabled": 0, "fusion_lat": 0.0, "lat": 38.91751633333333, "is_reserved": 0}, {"lon": -77.03590233333334, "fusion_lon": 0.0, "bike_id": "0e5cf1c57447d34d85810b02b4963612", "type": "electric_scooter", "name": "0e5cf1c57447d34d85810b02b4963612", "rental_uris": {"android": "https://dc.lft.to/lastmile_qr_scan", "ios": "https://dc.lft.to/lastmile_qr_scan"}, "is_disabled": 0, "fusion_lat": 0.0, "lat": 38.931486166666666, "is_reserved": 0}, {"lon": -77.03474716666666, "fusion_lon": 0.0, "bike_id": "3151457f9c9cc06f7598c42aaaf91e8e", "type": "electric_scooter", "name": "3151457f9c9cc06f7598c42aaaf91e8e", "rental_uris": {"android": "https://dc.lft.to/lastmile_qr_scan", "ios": "https://dc.lft.to/lastmile_qr_scan"}, "is_disabled": 0, "fusion_lat": 0.0, "lat": 38.926361166666666, "is_reserved": 0},