{"data": {"bikes": [{"type": "electric_scooter", "fusion_lon": 0.0, "bike_id": "3eee1deb31f61ba3ea93fcdd0f9f1f9d", "is_disabled": 0, "lat": 38.892262, "rental_uris": {"ios": "https://dc.lft.to/lastmile_qr_scan", "android": "https://dc.lft.to/lastmile_qr_scan"}, "is_reserved": 0, "lon": -77.04509933333334, "fusion_lat": 0.0, "name": "3eee1deb31f61ba3ea93fcdd0f9f1f9d"}, {"type": "electric_scooter", "fusion_lon": 0.0, "bike_id": "444e5bc02659a72fd2f530dee86778bd", "is_disabled": 0, "lat": 38.91017883333333, "rental_uris": {"ios": "https://dc.lft.to/lastmile_qr_scan", "android": "https://dc.lft.to/lastmile_qr_scan"}, "is_reserved": 0, "lon": -77.03850216666666, "fusion_lat": 0.0, "name": "444e5bc02659a72fd2f530dee86778bd"}, {"type": "electric_scooter", "fusion_lon": 0.0, "bike_id": "04aeb50561d3996d3a3061853dafef3a", "is_disabled": 0, "lat": 38.89135783333333, "rental_uris": {"ios": "https://dc.lft.to/lastmile_qr_scan", "android": "https://dc.lft.to/lastmile_qr_scan"}, "is_reserved": 0, "lon": -76.98887416666666, "fusion_lat": 0.0, "name": "04aeb50561d3996d3a3061853dafef3a"}, {"type": "electric_scooter", "fusion_lon": 0.0, "bike_id": "64bc581b3e81e2677658ecf221de81d7", "is_disabled": 0, "lat": 38.900666333333334, "rental_uris": {"ios": "https://dc.lft.to/lastmile_qr_scan", "android": "https://dc.lft.to/lastmile_qr_scan"}, "is_reserved": 0, "lon": -77.02616866666666, "fusion_lat": 0.0, "name": "64bc581b3e81e2677658ecf221de81d7"}, {"type": "electric_scooter", "fusion_lon": 0.0, "bike_id": "6b14397281c2f2d0bb703f8b87f51f77", "is_disabled": 0, "lat": 38.9224205, "rental_uris": {"ios": "https://dc.lft.to/lastmile_qr_scan", "android": "https://dc.lft.to/lastmile_qr_scan"}, "is_reserved": 0, "lon": -77.03074616666666, "fusion_lat": 0.0, "name": "6b14397281c2f2d0bb703f8b87f51f77"}, {"type": "electric_scooter", "fusion_lon": 0.0, "bike_id": "5c0cb44f45d1c2f1f6b1996423ab43a1", "is_disabled": 0, "lat": 38.892254, "rental_uris": {"ios": "https://dc.lft.to/lastmile_qr_scan", "android": "https://dc.lft.to/lastmile_qr_scan"}, "is_reserved": 0, "lon": -77.0282535, "fusion_lat": 0.0, "name": "5c0cb44f45d1c2f1f6b1996423ab43a1"}, {"type": "electric_scooter", "fusion_lon": 0.0, "bike_id": "49ef4220d3ef9b600b00152669feb6d7", "is_disabled": 0, "lat": 38.9356085, "rental_uris": {"ios": "https://dc.lft.to/lastmile_qr_scan", "android": "https://dc.lft.to/lastmile_qr_scan"}, "is_reserved": 0, "lon": -77.07458566666666, "fusion_lat": 0.0, "name": "49ef4220d3ef9b600b00152669feb6d7"}, {"type": "electric_scooter", "fusion_lon": 0.0, "bike_id": "c2df9bd9cc52b4ba02d5dc6136c3356a", "is_disabled": 0, "lat": 38.89228683333333, "rental_uris": {"ios": "https://dc.lft.to/lastmile_qr_scan", "android": "https://dc.lft.to/lastmile_qr_scan"}, "is_reserved": 0, "lon": -77.04182066666667, "fusion_lat": 0.0, "name": "c2df9bd9cc52b4ba02d5dc6136c3356a"}, {"type": "electric_scooter", "fusion_lon": 0.0, "bike_id": "f1d58bb1e1c688a38ac6d0b1583f098b", "is_disabled": 0, "lat": 38.88703066666667, "rental_uris": {"ios": "https://dc.lft.to/lastmile_qr_scan", "android": "https://dc.lft.to/lastmile_qr_scan"}, "is_reserved": 0, "lon": -77.0282545, "fusion_lat": 0.0, "name": "f1d58bb1e1c688a38ac6d0b1583f098b"}, {"type": "electric_scooter", "fusion_lon": 0.0, "bike_id": "be345893e585b755f3cda5a902b607ad", "is_disabled": 0, "lat": 38.914460166666665, "rental_uris": {"ios": "https://dc.lft.to/lastmile_qr_scan", "android": "https://dc.lft.to/lastmile_qr_scan"}, "is_reserved": 0, "lon": -77.04157183333334, "fusion_lat": 0.0, "name": "be345893e585b755f3cda5a902b607ad"}, {"type": "electric_scooter", "fusion_lon": 0.0, "bike_id": "934036551630f3d0decb78fc2fef6de1", "is_disabled": 0, "lat": 38.93425966666667, "rental_uris": {"ios": "https://dc.lft.to/lastmile_qr_scan", "android": "https://dc.lft.to/lastmile_qr_scan"}, "is_reserved": 0, "lon": -77.04423366666667, "fusion_lat": 0.0, "name": "934036551630f3d0decb78fc2fef6de1"}, {"type": "electric_scooter", "fusion_lon": 0.0, "bike_id": "2037bf2576c9903f6679af1649148e35", "is_disabled": 0, "lat": 38.921685833333335, "rental_uris": {"ios": "https://dc.lft.to/lastmile_qr_scan", "android": "https://dc.lft.to/lastmile_qr_scan"}, "is_reserved": 0, "lon": -77.02202, "fusion_lat": 0.0, "name": "2037bf2576c9903f6679af1649148e35"}, {"type": "electric_scooter", "fusion_lon": 0.0, "bike_id": "1bedc4406642e82eea56204cb63f1ec8", "is_disabled": 0, "lat": 38.91912283333333, "rental_uris": {"ios": "https://dc.lft.to/lastmile_qr_scan", "android": "https://dc.lft.to/lastmile_qr_scan"}, "is_reserved": 0, "lon": -77.02137183333333, "fusion_lat": 0.0, "name": "1bedc4406642e82eea56204cb63f1ec8"}, {"type": "electric_bike", "fusion_lon": 0.0, "bike_id": "fc8d9fadd1553b6da4cc8d25c8055e03", "is_disabled": 0, "lat": 38.8578165, "rental_uris": {"ios": "https://dc.lft.to/lastmile_qr_scan", "android": "https://dc.lft.to/lastmile_qr_scan"}, "is_reserved": 0, "lon": -76.9731995, "fusion_lat": 0.0, "name": "fc8d9fadd1553b6da4cc8d25c8055e03"}, {"type": "electric_scooter", "fusion_lon": 0.0, "bike_id": "97db2c05e5cf789c0e15b4a15e30ff48", "is_disabled": 0, "lat": 38.927482166666664, "rental_uris": {"ios": "https://dc.lft.to/lastmile_qr_scan", "android": "https://dc.lft.to/lastmile_qr_scan"}, "is_reserved": 0, "lon": -77.0253325, "fusion_lat": 0.0, "name": "97db2c05e5cf789c0e15b4a15e30ff48"}, {"type": "electric_scooter", "fusion_lon": 0.0, "bike_id": "7defc968958359c6d599220afb310454", "is_disabled": 0, "lat": 38.91986883333333, "rental_uris": {"ios": "https://dc.lft.to/lastmile_qr_scan", "android": "https://dc.lft.to/lastmile_qr_scan"}, "is_reserved": 0, "lon": -77.02952483333334, "fusion_lat": 0.0, "name": "7defc968958359c6d599220afb310454"}, {"type": "electric_scooter", "fusion_lon": 0.0, "bike_id": "b5b5100dfe893f8acead2e46eac61906", "is_disabled": 0, "lat": 38.934608, "rental_uris": {"ios": "https://dc.lft.to/lastmile_qr_scan", "android": "https://dc.lft.to/lastmile_qr_scan"}, "is_reserved": 0, "lon": -77.03242066666667, "fusion_lat": 0.0, "name": "b5b5100dfe893f8acead2e46eac61906"}, {"type": "electric_scooter", "fusion_lon": 0.0, "bike_id": "9c30daec79b23055fb3de7b229f8ab3d", "is_disabled": 0, "lat": 38.908263166666664, "rental_uris": {"ios": "https://dc.lft.to/lastmile_qr_scan", "android": "https://dc.lft.to/lastmile_qr_scan"}, "is_reserved": 0, "lon": -77.039116, "fusion_lat": 0.0, "name": "9c30daec79b23055fb3de7b229f8ab3d"}, {"type": "electric_scooter", "fusion_lon": 0.0, "bike_id": "25533e8cb04802675c3ccc168c2d2e58", "is_disabled": 0, "lat": 38.90033233333333, "rental_uris": {"ios": "https://dc.lft.to/lastmile_qr_scan", "android": "https://dc.lft.to/lastmile_qr_scan"}, "is_reserved": 0, "lon": -77.03711633333333, "fusion_lat": 0.0, "name": "25533e8cb04802675c3ccc168c2d2e58"}, {"type": "electric_scooter", "fusion_lon": 0.0, "bike_id": "cbe80644e95d1689973884d443ec2a31", "is_disabled": 0, "lat": 38.89341966666667, "rental_uris": {"ios": "https://dc.lft.to/lastmile_qr_scan", "android": "https://dc.lft.to/lastmile_qr_scan"}, "is_reserved": 0, "lon": -76.991585, "fusion_lat": 0.0, "name": "cbe80644e95d1689973884d443ec2a31"}, {"type": "electric_scooter", "fusion_lon": 0.0, "bike_id": "eced2c62ccf2e5ab2ca824ee9a282552", "is_disabled": 0, "lat": 38.98428883333333, "rental_uris": {"ios": "https://dc.lft.to/lastmile_qr_scan", "android": "https://dc.lft.to/lastmile_qr_scan"}, "is_reserved": 0, "lon": -77.02669566666667, "fusion_lat": 0.0, "name": "eced2c62ccf2e5ab2ca824ee9a282552"}, {"type": "electric_scooter", "fusion_lon": 0.0, "bike_id": "857893ab1f4672eea40cc22edd5638ba", "is_disabled": 0, "lat": 38.902890666666664, "rental_uris": {"ios": "https://dc.lft.to/lastmile_qr_scan", "android": "https://dc.lft.to/lastmile_qr_scan"}, "is_reserved": 0, "lon": -77.03480666666667, "fusion_lat": 0.0, "name": "857893ab1f4672eea40cc22edd5638ba"}, {"type": "electric_scooter", "fusion_lon": 0.0, "bike_id": "ad56e6e6ded10f7b696e33da72a0e320", "is_disabled": 0, "lat": 38.909752, "rental_uris": {"ios": "https://dc.lft.to/lastmile_qr_scan", "android": "https://dc.lft.to/lastmile_qr_scan"}, "is_reserved": 0, "lon": -77.03851466666667, "fusion_lat": 0.0, "name": "ad56e6e6ded10f7b696e33da72a0e320"}, {"type": "electric_scooter", "fusion_lon": 0.0, "bike_id": "e44d41e31589cf315d19ccbd013d9c83", "is_disabled": 0, "lat": 38.93742816666666, "rental_uris": {"ios": "https://dc.lft.to/lastmile_qr_scan", "android": "https://dc.lft.to/lastmile_qr_scan"}, "is_reserved": 0, "lon": -77.0686975, "fusion_lat": 0.0, "name": "e44d41e31589cf315d19ccbd013d9c83"}, {"type": "electric_scooter", "fusion_lon": 0.0, "bike_id": "fbf21c38e303ad3de4bc557f0872cfe0", "is_disabled": 0, "lat": 38.91044816666667, "rental_uris": {"ios": "https://dc.lft.to/lastmile_qr_scan", "android": "https://dc.lft.to/lastmile_qr_scan"}, "is_reserved": 0, "lon": -77.04351516666667, "fusion_lat": 0.0, "name": "fbf21c38e303ad3de4bc557f0872cfe0"}, {"type": "electric_scooter", "fusion_lon": 0.0, "bike_id": "c8406ce5f7cac4b84b3ae65f20d75883", "is_disabled": 0, "lat": 38.90761066666666, "rental_uris": {"ios": "https://dc.lft.to/lastmile_qr_scan", "android": "https://dc.lft.to/lastmile_qr_scan"}, "is_reserved": 0, "lon": -77.00396766666667, "fusion_lat": 0.0, "name": "c8406ce5f7cac4b84b3ae65f20d75883"}, {"type": "electric_scooter", "fusion_lon": 0.0, "bike_id": "27e736fcb9c46de63edaff2eef7693bc", "is_disabled": 0, "lat": 38.911181, "rental_uris": {"ios": "https://dc.lft.to/lastmile_qr_scan", "android": "https://dc.lft.to/lastmile_qr_scan"}, "is_reserved": 0, "lon": -77.04345383333333, "fusion_lat": 0.0, "name": "27e736fcb9c46de63edaff2eef7693bc"}, {"type": "electric_scooter", "fusion_lon": 0.0, "bike_id": "124c4cfde309cd46670afa5fd102226f", "is_disabled": 0, "lat": 38.927520666666666, "rental_uris": {"ios": "https://dc.lft.to/lastmile_qr_scan", "android": "https://dc.lft.to/lastmile_qr_scan"}, "is_reserved": 0, "lon": -77.032695, "fusion_lat": 0.0, "name": "124c4cfde309cd46670afa5fd102226f"}, {"type": "electric_scooter", "fusion_lon": 0.0, "bike_id": "f033144d86cb46f07bec30145d496841", "is_disabled": 0, "lat": 38.885318, "rental_uris": {"ios": "https://dc.lft.to/lastmile_qr_scan", "android": "https://dc.lft.to/lastmile_qr_scan"}, "is_reserved": 0, "lon": -77.0058285, "fusion_lat": 0.0, "name": "f033144d86cb46f07bec30145d496841"}, {"type": "electric_scooter", "fusion_lon": 0.0, "bike_id": "db15d729a5893b5e36a490f0ff1d8560", "is_disabled": 0, "lat": 38.89225833333333, "rental_uris": {"ios": "https://dc.lft.to/lastmile_qr_scan", "android": "https://dc.lft.to/lastmile_qr_scan"}, "is_reserved": 0, "lon": -77.04860666666667, "fusion_lat": 0.0, "name": "db15d729a5893b5e36a490f0ff1d8560"}, {"type": "electric_scooter", "fusion_lon": 0.0, "bike_id": "429a2b71a53843b5562b3259d262ab79", "is_disabled": 0, "lat": 38.94193516666667, "rental_uris": {"ios": "https://dc.lft.to/lastmile_qr_scan", "android": "https://dc.lft.to/lastmile_qr_scan"}, "is_reserved": 0, "lon": -77.0332385, "fusion_lat": 0.0, "name": "429a2b71a53843b5562b3259d262ab79"}, {"type": "electric_scooter", "fusion_lon": 0.0, "bike_id": "52180a6dfa3c47ee6319e0c4b916adc8", "is_disabled": 0, "lat": 38.895247166666664, "rental_uris": {"ios": "https://dc.lft.to/lastmile_qr_scan", "android": "https://dc.lft.to/lastmile_qr_scan"}, "is_reserved": 0, "lon": -77.03932066666667, "fusion_lat": 0.0, "name": "52180a6dfa3c47ee6319e0c4b916adc8"}, {"type": "electric_scooter", "fusion_lon": 0.0, "bike_id": "51a9fdb6a99b8221392c6a5a690799ac", "is_disabled": 0, "lat": 38.912546666666664, "rental_uris": {"ios": "https://dc.lft.to/lastmile_qr_scan", "android": "https://dc.lft.to/lastmile_qr_scan"}, "is_reserved": 0, "lon": -77.038692, "fusion_lat": 0.0, "name": "51a9fdb6a99b8221392c6a5a690799ac"}, {"type": "electric_scooter", "fusion_lon": 0.0, "bike_id": "e9740d3e96a2cfdffe09eb48bbb951a7", "is_disabled": 0, "lat": 38.90739516666667, "rental_uris": {"ios": "https://dc.lft.to/lastmile_qr_scan", "android": "https://dc.lft.to/lastmile_qr_scan"}, "is_reserved": 0, "lon": -77.00327983333334, "fusion_lat": 0.0, "name": "e9740d3e96a2cfdffe09eb48bbb951a7"}, {"type": "electric_scooter", "fusion_lon": 0.0, "bike_id": "7ba98ec4f4fc9007c6acc8eced083cb2", "is_disabled": 0, "lat": 38.91821766666666, "rental_uris": {"ios": "https://dc.lft.to/lastmile_qr_scan", "android": "https://dc.lft.to/lastmile_qr_scan"}, "is_reserved": 0, "lon": -77.02704133333333, "fusion_lat": 0.0, "name": "7ba98ec4f4fc9007c6acc8eced083cb2"}, {"type": "electric_scooter", "fusion_lon": 0.0, "bike_id": "3ade0386f5a7e16dd77d70251efd8da3", "is_disabled": 0, "lat": 38.918047666666666, "rental_uris": {"ios": "https://dc.lft.to/lastmile_qr_scan", "android": "https://dc.lft.to/lastmile_qr_scan"}, "is_reserved": 0, "lon": -77.03929083333334, "fusion_lat": 0.0, "name": "3ade0386f5a7e16dd77d70251efd8da3"}, {"type": "electric_bike", "fusion_lon": 0.0, "bike_id": "29eabe61a204587d2bc38e57aa1ed3c5", "is_disabled": 0, "lat": 38.8572175, "rental_uris": {"ios": "https://dc.lft.to/lastmile_qr_scan", "android": "https://dc.lft.to/lastmile_qr_scan"}, "is_reserved": 0, "lon": -76.97776366666666, "fusion_lat": 0.0, "name": "29eabe61a204587d2bc38e57aa1ed3c5"}, {"type": "electric_scooter", "fusion_lon": 0.0, "bike_id": "ad88b5fdbd0304204c19eb29e0d49dcb", "is_disabled": 0, "lat": 38.91190116666667, "rental_uris": {"ios": "https://dc.lft.to/lastmile_qr_scan", "android": "https://dc.lft.to/lastmile_qr_scan"}, "is_reserved": 0, "lon": -77.04222166666666, "fusion_lat": 0.0, "name": "ad88b5fdbd0304204c19eb29e0d49dcb"}, {"type": "electric_scooter", "fusion_lon": 0.0, "bike_id": "989368f098359fd1726d509d94d23674", "is_disabled": 0, "lat": 38.886797666666666, "rental_uris": {"ios": "https://dc.lft.to/lastmile_qr_scan", "android": "https://dc.lft.to/lastmile_qr_scan"}, "is_reserved": 0, "lon": -77.01368116666667, "fusion_lat": 0.0, "name": "989368f098359fd1726d509d94d23674"}, {"type": "electric_scooter", "fusion_lon": 0.0, "bike_id": "e851fc492755b2ba771552625e0054c4", "is_disabled": 0, "lat": 38.8971735, "rental_uris": {"ios": "https://dc.lft.to/lastmile_qr_scan", "android": "https://dc.lft.to/lastmile_qr_scan"}, "is_reserved": 0, "lon": -77.02707233333334, "fusion_lat": 0.0, "name": "e851fc492755b2ba771552625e0054c4"}, {"type": "electric_scooter", "fusion_lon": 0.0, "bike_id": "4670d6e60f074aa934d65af718747292", "is_disabled": 0, "lat": 38.93198916666667, "rental_uris": {"ios": "https://dc.lft.to/lastmile_qr_scan", "android": "https://dc.lft.to/lastmile_qr_scan"}, "is_reserved": 0, "lon": -77.07277533333334, "fusion_lat": 0.0, "name": "4670d6e60f074aa934d65af718747292"}, {"type": "electric_scooter", "fusion_lon": 0.0, "bike_id": "f9eaf3585d3bd75dc015da557b047e79", "is_disabled": 0, "lat": 38.900472, "rental_uris": {"ios": "https://dc.lft.to/lastmile_qr_scan", "android": "https://dc.lft.to/lastmile_qr_scan"}, "is_reserved": 0, "lon": -77.0417805, "fusion_lat": 0.0, "name": "f9eaf3585d3bd75dc015da557b047e79"}, {"type": "electric_scooter", "fusion_lon": 0.0, "bike_id": "e751318d4cecc6c005636c651efb8989", "is_disabled": 0, "lat": 38.91482283333333, "rental_uris": {"ios": "https://dc.lft.to/lastmile_qr_scan", "android": "https://dc.lft.to/lastmile_qr_scan"}, "is_reserved": 0, "lon": -77.0218495, "fusion_lat": 0.0, "name": "e751318d4cecc6c005636c651efb8989"}, {"type": "electric_scooter", "fusion_lon": 0.0, "bike_id": "86cc5b9911d3f10fae783cf47c71de35", "is_disabled": 0, "lat": 38.9213795, "rental_uris": {"ios": "https://dc.lft.to/lastmile_qr_scan", "android": "https://dc.lft.to/lastmile_qr_scan"}, "is_reserved": 0, "lon": -77.06298416666667, "fusion_lat": 0.0, "name": "86cc5b9911d3f10fae783cf47c71de35"}, {"type": "electric_scooter", "fusion_lon": 0.0, "bike_id": "27b8cd8561d76167468810fefbdfddcd", "is_disabled": 0, "lat": 38.92398216666667, "rental_uris": {"ios": "https://dc.lft.to/lastmile_qr_scan", "android": "https://dc.lft.to/lastmile_qr_scan"}, "is_reserved": 0, "lon": -77.02433033333334, "fusion_lat": 0.0, "name": "27b8cd8561d76167468810fefbdfddcd"}, {"type": "electric_bike", "fusion_lon": 0.0, "bike_id": "c9d43b19aba4d646261642d9d4adfdc7", "is_disabled": 0, "lat": 38.880233, "rental_uris": {"ios": "https://dc.lft.to/lastmile_qr_scan", "android": "https://dc.lft.to/lastmile_qr_scan"}, "is_reserved": 0, "lon": -76.91722433333334, "fusion_lat": 0.0, "name": "c9d43b19aba4d646261642d9d4adfdc7"}, {"type": "electric_bike", "fusion_lon": 0.0, "bike_id": "b2a502a025df5b457fdb71b97a4be6cc", "is_disabled": 0, "lat": 38.922361333333335, "rental_uris": {"ios": "https://dc.lft.to/lastmile_qr_scan", "android": "https://dc.lft.to/lastmile_qr_scan"}, "is_reserved": 0, "lon": -77.02724116666667, "fusion_lat": 0.0, "name": "b2a502a025df5b457fdb71b97a4be6cc"}, {"type": "electric_scooter", "fusion_lon": 0.0, "bike_id": "a301df6cf4e6c116360b8f65263ec4cc", "is_disabled": 0, "lat": 38.973699, "rental_uris": {"ios": "https://dc.lft.to/lastmile_qr_scan", "android": "https://dc.lft.to/lastmile_qr_scan"}, "is_reserved": 0, "lon": -77.0184785, "fusion_lat": 0.0, "name": "a301df6cf4e6c116360b8f65263ec4cc"}, {"type": "electric_scooter", "fusion_lon": 0.0, "bike_id": "1029b5a55878cf8386c8f5da3a21054d", "is_disabled": 0, "lat": 38.917853666666666, "rental_uris": {"ios": "https://dc.lft.to/lastmile_qr_scan", "android": "https://dc.lft.to/lastmile_qr_scan"}, "is_reserved": 0, "lon": -77.0345065, "fusion_lat": 0.0, "name": "1029b5a55878cf8386c8f5da3a21054d"}, {"type": "electric_scooter", "fusion_lon": 0.0, "bike_id": "f935471be2a89421cda58eafc0b62889", "is_disabled": 0, "lat": 38.93716916666666, "rental_uris": {"ios": "https://dc.lft.to/lastmile_qr_scan", "android": "https://dc.lft.to/lastmile_qr_scan"}, "is_reserved": 0, "lon": -77.01911433333333, "fusion_lat": 0.0, "name": "f935471be2a89421cda58eafc0b62889"}, {"type": "electric_scooter", "fusion_lon": 0.0, "bike_id": "61e11bfbe10f032896b39ce2a6cb29c0", "is_disabled": 0, "lat": 38.9048495, "rental_uris": {"ios": "https://dc.lft.to/lastmile_qr_scan", "android": "https://dc.lft.to/lastmile_qr_scan"}, "is_reserved": 0, "lon": -77.04603, "fusion_lat": 0.0, "name": "61e11bfbe10f032896b39ce2a6cb29c0"}, {"type": "electric_scooter", "fusion_lon": 0.0, "bike_id": "9539eafb0892fc2ed8830f89edf0f31a", "is_disabled": 0, "lat": 38.9000075, "rental_uris": {"ios": "https://dc.lft.to/lastmile_qr_scan", "android": "https://dc.lft.to/lastmile_qr_scan"}, "is_reserved": 0, "lon": -77.00576533333333, "fusion_lat": 0.0, "name": "9539eafb0892fc2ed8830f89edf0f31a"}, {"type": "electric_scooter", "fusion_lon": 0.0, "bike_id": "a0162c55a2f138176984f52f6894b928", "is_disabled": 0, "lat": 38.90030616666667, "rental_uris": {"ios": "https://dc.lft.to/lastmile_qr_scan", "android": "https://dc.lft.to/lastmile_qr_scan"}, "is_reserved": 0, "lon": -77.01176666666667, "fusion_lat": 0.0, "name": "a0162c55a2f138176984f52f6894b928"}, {"type": "electric_scooter", "fusion_lon": 0.0, "bike_id": "810e317a972066968014c841ca291751", "is_disabled": 0, "lat": 38.9089095, "rental_uris": {"ios": "https://dc.lft.to/lastmile_qr_scan", "android": "https://dc.lft.to/lastmile_qr_scan"}, "is_reserved": 0, "lon": -77.043935, "fusion_lat": 0.0, "name": "810e317a972066968014c841ca291751"}, {"type": "electric_scooter", "fusion_lon": 0.0, "bike_id": "9a54927744a4fba8f6af061655833202", "is_disabled": 0, "lat": 38.8921935, "rental_uris": {"ios": "https://dc.lft.to/lastmile_qr_scan", "android": "https://dc.lft.to/lastmile_qr_scan"}, "is_reserved": 0, "lon": -77.02371433333333, "fusion_lat": 0.0, "name": "9a54927744a4fba8f6af061655833202"}, {"type": "electric_scooter", "fusion_lon": 0.0, "bike_id": "be93ef22188e9ae31b60b58f729765eb", "is_disabled": 0, "lat": 38.92530216666667, "rental_uris": {"ios": "https://dc.lft.to/lastmile_qr_scan", "android": "https://dc.lft.to/lastmile_qr_scan"}, "is_reserved": 0, "lon": -76.99562766666666, "fusion_lat": 0.0, "name": "be93ef22188e9ae31b60b58f729765eb"}, {"type": "electric_scooter", "fusion_lon": 0.0, "bike_id": "acc063d01ae0ee38069b85b9d0ea96a1", "is_disabled": 0, "lat": 38.903931666666665, "rental_uris": {"ios": "https://dc.lft.to/lastmile_qr_scan", "android": "https://dc.lft.to/lastmile_qr_scan"}, "is_reserved": 0, "lon": -77.068148, "fusion_lat": 0.0, "name": "acc063d01ae0ee38069b85b9d0ea96a1"}, {"type": "electric_scooter", "fusion_lon": 0.0, "bike_id": "a113374f82704adc015f358257393829", "is_disabled": 0, "lat": 38.93537716666667, "rental_uris": {"ios": "https://dc.lft.to/lastmile_qr_scan", "android": "https://dc.lft.to/lastmile_qr_scan"}, "is_reserved": 0, "lon": -77.0235175, "fusion_lat": 0.0, "name": "a113374f82704adc015f358257393829"}, {"type": "electric_scooter", "fusion_lon": 0.0, "bike_id": "d71357f4c676e7c6ece01e446a9e92f6", "is_disabled": 0, "lat": 38.940933, "rental_uris": {"ios": "https://dc.lft.to/lastmile_qr_scan", "android": "https://dc.lft.to/lastmile_qr_scan"}, "is_reserved": 0, "lon": -77.02644233333334, "fusion_lat": 0.0, "name": "d71357f4c676e7c6ece01e446a9e92f6"}, {"type": "electric_scooter", "fusion_lon": 0.0, "bike_id": "3633ae248533a73e5aeb97cb297d2fc4", "is_disabled": 0, "lat": 38.92092183333333, "rental_uris": {"ios": "https://dc.lft.to/lastmile_qr_scan", "android": "https://dc.lft.to/lastmile_qr_scan"}, "is_reserved": 0, "lon": -77.04203366666667, "fusion_lat": 0.0, "name": "3633ae248533a73e5aeb97cb297d2fc4"}, {"type": "electric_scooter", "fusion_lon": 0.0, "bike_id": "2213a55c77477ffdb91d1e9ea9f349fd", "is_disabled": 0, "lat": 38.9163805, "rental_uris": {"ios": "https://dc.lft.to/lastmile_qr_scan", "android": "https://dc.lft.to/lastmile_qr_scan"}, "is_reserved": 0, "lon": -76.98283516666666, "fusion_lat": 0.0, "name": "2213a55c77477ffdb91d1e9ea9f349fd"}, {"type": "electric_scooter", "fusion_lon": 0.0, "bike_id": "c5b363adc6c19d5ac413130d627a699f", "is_disabled": 0, "lat": 38.893528333333336, "rental_uris": {"ios": "https://dc.lft.to/lastmile_qr_scan", "android": "https://dc.lft.to/lastmile_qr_scan"}, "is_reserved": 0, "lon": -77.0033285, "fusion_lat": 0.0, "name": "c5b363adc6c19d5ac413130d627a699f"}, {"type": "electric_bike", "fusion_lon": 0.0, "bike_id": "3c92b99ee6f730b022ead52499b3b1b2", "is_disabled": 0, "lat": 38.960643166666664, "rental_uris": {"ios": "https://dc.lft.to/lastmile_qr_scan", "android": "https://dc.lft.to/lastmile_qr_scan"}, "is_reserved": 0, "lon": -76.941548, "fusion_lat": 0.0, "name": "3c92b99ee6f730b022ead52499b3b1b2"}, {"type": "electric_bike", "fusion_lon": 0.0, "bike_id": "c2dae29902055493e719be1be425bb73", "is_disabled": 0, "lat": 38.94470783333333, "rental_uris": {"ios": "https://dc.lft.to/lastmile_qr_scan", "android": "https://dc.lft.to/lastmile_qr_scan"}, "is_reserved": 0, "lon": -76.9868815, "fusion_lat": 0.0, "name": "c2dae29902055493e719be1be425bb73"}, {"type": "electric_scooter", "fusion_lon": 0.0, "bike_id": "e48f231b48e38e4416c4368a1d9ee827", "is_disabled": 0, "lat": 38.9072355, "rental_uris": {"ios": "https://dc.lft.to/lastmile_qr_scan", "android": "https://dc.lft.to/lastmile_qr_scan"}, "is_reserved": 0, "lon": -77.04951333333334, "fusion_lat": 0.0, "name": "e48f231b48e38e4416c4368a1d9ee827"}, {"type": "electric_scooter", "fusion_lon": 0.0, "bike_id": "67723b427231013d7abeb928dedf3a2c", "is_disabled": 0, "lat": 38.907137166666665, "rental_uris": {"ios": "https://dc.lft.to/lastmile_qr_scan", "android": "https://dc.lft.to/lastmile_qr_scan"}, "is_reserved": 0, "lon": -77.02184816666667, "fusion_lat": 0.0, "name": "67723b427231013d7abeb928dedf3a2c"}, {"type": "electric_scooter", "fusion_lon": 0.0, "bike_id": "2a943702db9aa37c0e7af1a66502c816", "is_disabled": 0, "lat": 38.90611716666667, "rental_uris": {"ios": "https://dc.lft.to/lastmile_qr_scan", "android": "https://dc.lft.to/lastmile_qr_scan"}, "is_reserved": 0, "lon": -77.04359616666666, "fusion_lat": 0.0, "name": "2a943702db9aa37c0e7af1a66502c816"}, {"type": "electric_scooter", "fusion_lon": 0.0, "bike_id": "7ec00fe33e5282444c617b9743b80474", "is_disabled": 0, "lat": 38.914977, "rental_uris": {"ios": "https://dc.lft.to/lastmile_qr_scan", "android": "https://dc.lft.to/lastmile_qr_scan"}, "is_reserved": 0, "lon": -77.01222416666667, "fusion_lat": 0.0, "name": "7ec00fe33e5282444c617b9743b80474"}, {"type": "electric_scooter", "fusion_lon": 0.0, "bike_id": "0abe10c701aada97ccd9d142b9e69b29", "is_disabled": 0, "lat": 38.9276285, "rental_uris": {"ios": "https://dc.lft.to/lastmile_qr_scan", "android": "https://dc.lft.to/lastmile_qr_scan"}, "is_reserved": 0, "lon": -77.02325, "fusion_lat": 0.0, "name": "0abe10c701aada97ccd9d142b9e69b29"}, {"type": "electric_scooter", "fusion_lon": 0.0, "bike_id": "cebb17f56a4041a37afa89146b013d90", "is_disabled": 0, "lat": 38.8921955, "rental_uris": {"ios": "https://dc.lft.to/lastmile_qr_scan", "android": "https://dc.lft.to/lastmile_qr_scan"}, "is_reserved": 0, "lon": -77.03120283333334, "fusion_lat": 0.0, "name": "cebb17f56a4041a37afa89146b013d90"}, {"type": "electric_scooter", "fusion_lon": 0.0, "bike_id": "b7f413989f48bc1b2ca33ab070fe65cf", "is_disabled": 0, "lat": 38.902664, "rental_uris": {"ios": "https://dc.lft.to/lastmile_qr_scan", "android": "https://dc.lft.to/lastmile_qr_scan"}, "is_reserved": 0, "lon": -77.03423383333333, "fusion_lat": 0.0, "name": "b7f413989f48bc1b2ca33ab070fe65cf"}, {"type": "electric_scooter", "fusion_lon": 0.0, "bike_id": "eedbff0c405766f1f75c3475bef0c7aa", "is_disabled": 0, "lat": 38.89988, "rental_uris": {"ios": "https://dc.lft.to/lastmile_qr_scan", "android": "https://dc.lft.to/lastmile_qr_scan"}, "is_reserved": 0, "lon": -76.99483066666667, "fusion_lat": 0.0, "name": "eedbff0c405766f1f75c3475bef0c7aa"}, {"type": "electric_scooter", "fusion_lon": 0.0, "bike_id": "4547670dcd5aaeabbc9d8a3606990dc4", "is_disabled": 0, "lat": 38.923081, "rental_uris": {"ios": "https://dc.lft.to/lastmile_qr_scan", "android": "https://dc.lft.to/lastmile_qr_scan"}, "is_reserved": 0, "lon": -77.03915716666667, "fusion_lat": 0.0, "name": "4547670dcd5aaeabbc9d8a3606990dc4"}, {"type": "electric_scooter", "fusion_lon": 0.0, "bike_id": "3790af6d8434a1954365ee6d6f4a97de", "is_disabled": 0, "lat": 38.90590566666667, "rental_uris": {"ios": "https://dc.lft.to/lastmile_qr_scan", "android": "https://dc.lft.to/lastmile_qr_scan"}, "is_reserved": 0, "lon": -77.01607033333333, "fusion_lat": 0.0, "name": "3790af6d8434a1954365ee6d6f4a97de"}, {"type": "electric_scooter", "fusion_lon": 0.0, "bike_id": "5ed711cfdd26c8fb4778d2900b6468d4", "is_disabled": 0, "lat": 38.91206016666667, "rental_uris": {"ios": "https://dc.lft.to/lastmile_qr_scan", "android": "https://dc.lft.to/lastmile_qr_scan"}, "is_reserved": 0, "lon": -77.057101, "fusion_lat": 0.0, "name": "5ed711cfdd26c8fb4778d2900b6468d4"}, {"type": "electric_scooter", "fusion_lon": 0.0, "bike_id": "d7cef91847b85bab7b20d6209e5f50af", "is_disabled": 0, "lat": 38.90118783333333, "rental_uris": {"ios": "https://dc.lft.to/lastmile_qr_scan", "android": "https://dc.lft.to/lastmile_qr_scan"}, "is_reserved": 0, "lon": -77.04343016666667, "fusion_lat": 0.0, "name": "d7cef91847b85bab7b20d6209e5f50af"}, {"type": "electric_scooter", "fusion_lon": 0.0, "bike_id": "9cfd1e4ed1cf2d9f00bc4ec48746c1ea", "is_disabled": 0, "lat": 38.901953166666665, "rental_uris": {"ios": "https://dc.lft.to/lastmile_qr_scan", "android": "https://dc.lft.to/lastmile_qr_scan"}, "is_reserved": 0, "lon": -77.021828, "fusion_lat": 0.0, "name": "9cfd1e4ed1cf2d9f00bc4ec48746c1ea"}, {"type": "electric_scooter", "fusion_lon": 0.0, "bike_id": "43f03270f2897e06023d8bf8723c9541", "is_disabled": 0, "lat": 38.8941065, "rental_uris": {"ios": "https://dc.lft.to/lastmile_qr_scan", "android": "https://dc.lft.to/lastmile_qr_scan"}, "is_reserved": 0, "lon": -77.02195133333333, "fusion_lat": 0.0, "name": "43f03270f2897e06023d8bf8723c9541"}, {"type": "electric_scooter", "fusion_lon": 0.0, "bike_id": "176c718d0c07a58a115a5d4ce2cb7d39", "is_disabled": 0, "lat": 38.83779916666667, "rental_uris": {"ios": "https://dc.lft.to/lastmile_qr_scan", "android": "https://dc.lft.to/lastmile_qr_scan"}, "is_reserved": 0, "lon": -76.99836283333333, "fusion_lat": 0.0, "name": "176c718d0c07a58a115a5d4ce2cb7d39"}, {"type": "electric_scooter", "fusion_lon": 0.0, "bike_id": "06948ae9ea217c9682e3c26ad865ce52", "is_disabled": 0, "lat": 38.904060333333334, "rental_uris": {"ios": "https://dc.lft.to/lastmile_qr_scan", "android": "https://dc.lft.to/lastmile_qr_scan"}, "is_reserved": 0, "lon": -76.97334116666667, "fusion_lat": 0.0, "name": "06948ae9ea217c9682e3c26ad865ce52"}, {"type": "electric_scooter", "fusion_lon": 0.0, "bike_id": "3cab434443bd7941c8dcccbf13bed6cd", "is_disabled": 0, "lat": 38.896073666666666, "rental_uris": {"ios": "https://dc.lft.to/lastmile_qr_scan", "android": "https://dc.lft.to/lastmile_qr_scan"}, "is_reserved": 0, "lon": -77.0543855, "fusion_lat": 0.0, "name": "3cab434443bd7941c8dcccbf13bed6cd"}, {"type": "electric_scooter", "fusion_lon": 0.0, "bike_id": "a81515d5a16a47ea79f5457346fbe51c", "is_disabled": 0, "lat": 38.91107383333333, "rental_uris": {"ios": "https://dc.lft.to/lastmile_qr_scan", "android": "https://dc.lft.to/lastmile_qr_scan"}, "is_reserved": 0, "lon": -77.00598966666666, "fusion_lat": 0.0, "name": "a81515d5a16a47ea79f5457346fbe51c"}, {"type": "electric_scooter", "fusion_lon": 0.0, "bike_id": "300169ff1e687213574646a7ff34943c", "is_disabled": 0, "lat": 38.915463833333334, "rental_uris": {"ios": "https://dc.lft.to/lastmile_qr_scan", "android": "https://dc.lft.to/lastmile_qr_scan"}, "is_reserved": 0, "lon": -77.0118705, "fusion_lat": 0.0, "name": "300169ff1e687213574646a7ff34943c"}, {"type": "electric_scooter", "fusion_lon": 0.0, "bike_id": "204f595fea0258c6fa134cc7c3b56d7f", "is_disabled": 0, "lat": 38.930539333333336, "rental_uris": {"ios": "https://dc.lft.to/lastmile_qr_scan", "android": "https://dc.lft.to/lastmile_qr_scan"}, "is_reserved": 0, "lon": -77.05835766666667, "fusion_lat": 0.0, "name": "204f595fea0258c6fa134cc7c3b56d7f"}, {"type": "electric_scooter", "fusion_lon": 0.0, "bike_id": "8d28eb340c391469f21b0db72c185a7c", "is_disabled": 0, "lat": 38.92984083333333, "rental_uris": {"ios": "https://dc.lft.to/lastmile_qr_scan", "android": "https://dc.lft.to/lastmile_qr_scan"}, "is_reserved": 0, "lon": -77.03653583333333, "fusion_lat": 0.0, "name": "8d28eb340c391469f21b0db72c185a7c"}, {"type": "electric_scooter", "fusion_lon": 0.0, "bike_id": "42f97eab5b7499d374e6c485eded5e5c", "is_disabled": 0, "lat": 38.9352285, "rental_uris": {"ios": "https://dc.lft.to/lastmile_qr_scan", "android": "https://dc.lft.to/lastmile_qr_scan"}, "is_reserved": 0, "lon": -77.03260483333334, "fusion_lat": 0.0, "name": "42f97eab5b7499d374e6c485eded5e5c"}, {"type": "electric_scooter", "fusion_lon": 0.0, "bike_id": "62f69711da73d1c5e24d0621aedbcf01", "is_disabled": 0, "lat": 38.9022085, "rental_uris": {"ios": "https://dc.lft.to/lastmile_qr_scan", "android": "https://dc.lft.to/lastmile_qr_scan"}, "is_reserved": 0, "lon": -77.02341983333334, "fusion_lat": 0.0, "name": "62f69711da73d1c5e24d0621aedbcf01"}, {"type": "electric_scooter", "fusion_lon": 0.0, "bike_id": "e37130f08e7b172f80c389dde46584be", "is_disabled": 0, "lat": 38.90843433333333, "rental_uris": {"ios": "https://dc.lft.to/lastmile_qr_scan", "android": "https://dc.lft.to/lastmile_qr_scan"}, "is_reserved": 0, "lon": -77.03317233333334, "fusion_lat": 0.0, "name": "e37130f08e7b172f80c389dde46584be"}, {"type": "electric_scooter", "fusion_lon": 0.0, "bike_id": "0a611a82d5b362bc184611c0b780f57f", "is_disabled": 0, "lat": 38.90151783333334, "rental_uris": {"ios": "https://dc.lft.to/lastmile_qr_scan", "android": "https://dc.lft.to/lastmile_qr_scan"}, "is_reserved": 0, "lon": -77.0378005, "fusion_lat": 0.0, "name": "0a611a82d5b362bc184611c0b780f57f"}, {"type": "electric_scooter", "fusion_lon": 0.0, "bike_id": "d4e3dda12ac0167db646474f2f36b30f", "is_disabled": 0, "lat": 38.87653383333333, "rental_uris": {"ios": "https://dc.lft.to/lastmile_qr_scan", "android": "https://dc.lft.to/lastmile_qr_scan"}, "is_reserved": 0, "lon": -77.005868, "fusion_lat": 0.0, "name": "d4e3dda12ac0167db646474f2f36b30f"}, {"type": "electric_scooter", "fusion_lon": 0.0, "bike_id": "c52e008003928dcec82e23dc236aa7ff", "is_disabled": 0, "lat": 38.90797883333333, "rental_uris": {"ios": "https://dc.lft.to/lastmile_qr_scan", "android": "https://dc.lft.to/lastmile_qr_scan"}, "is_reserved": 0, "lon": -77.03823533333333, "fusion_lat": 0.0, "name": "c52e008003928dcec82e23dc236aa7ff"}, {"type": "electric_scooter", "fusion_lon": 0.0, "bike_id": "1abbe86ff872f2da770803ee57d84adf", "is_disabled": 0, "lat": 38.88300816666667, "rental_uris": {"ios": "https://dc.lft.to/lastmile_qr_scan", "android": "https://dc.lft.to/lastmile_qr_scan"}, "is_reserved": 0, "lon": -76.94853133333334, "fusion_lat": 0.0, "name": "1abbe86ff872f2da770803ee57d84adf"}, {"type": "electric_scooter", "fusion_lon": 0.0, "bike_id": "7d58507cce9d476b718bdf6dd2af5161", "is_disabled": 0, "lat": 38.9069985, "rental_uris": {"ios": "https://dc.lft.to/lastmile_qr_scan", "android": "https://dc.lft.to/lastmile_qr_scan"}, "is_reserved": 0, "lon": -77.04210433333333, "fusion_lat": 0.0, "name": "7d58507cce9d476b718bdf6dd2af5161"}, {"type": "electric_scooter", "fusion_lon": 0.0, "bike_id": "24a8b17f919eb5add88a4a002dd5bda3", "is_disabled": 0, "lat": 38.9141285, "rental_uris": {"ios": "https://dc.lft.to/lastmile_qr_scan", "android": "https://dc.lft.to/lastmile_qr_scan"}, "is_reserved": 0, "lon": -77.04149016666666, "fusion_lat": 0.0, "name": "24a8b17f919eb5add88a4a002dd5bda3"}, {"type": "electric_bike", "fusion_lon": 0.0, "bike_id": "ad6b3c8ca99fc06d61f1b1d2febf0214", "is_disabled": 0, "lat": 38.81908466666667, "rental_uris": {"ios": "https://dc.lft.to/lastmile_qr_scan", "android": "https://dc.lft.to/lastmile_qr_scan"}, "is_reserved": 0, "lon": -77.12646983333333, "fusion_lat": 0.0, "name": "ad6b3c8ca99fc06d61f1b1d2febf0214"}, {"type": "electric_scooter", "fusion_lon": 0.0, "bike_id": "65c7b93145c93f4812cfb479e9100ba8", "is_disabled": 0, "lat": 38.9501115, "rental_uris": {"ios": "https://dc.lft.to/lastmile_qr_scan", "android": "https://dc.lft.to/lastmile_qr_scan"}, "is_reserved": 0, "lon": -77.06712066666667, "fusion_lat": 0.0, "name": "65c7b93145c93f4812cfb479e9100ba8"}, {"type": "electric_scooter", "fusion_lon": 0.0, "bike_id": "33d32331b52b9842b896e25f6093de2a", "is_disabled": 0, "lat": 38.900363666666664, "rental_uris": {"ios": "https://dc.lft.to/lastmile_qr_scan", "android": "https://dc.lft.to/lastmile_qr_scan"}, "is_reserved": 0, "lon": -77.01184683333334, "fusion_lat": 0.0, "name": "33d32331b52b9842b896e25f6093de2a"}, {"type": "electric_scooter", "fusion_lon": 0.0, "bike_id": "e8a416fe918735cda658b64d4a4b6a67", "is_disabled": 0, "lat": 38.935596, "rental_uris": {"ios": "https://dc.lft.to/lastmile_qr_scan", "android": "https://dc.lft.to/lastmile_qr_scan"}, "is_reserved": 0, "lon": -77.06370583333333, "fusion_lat": 0.0, "name": "e8a416fe918735cda658b64d4a4b6a67"}, {"type": "electric_scooter", "fusion_lon": 0.0, "bike_id": "31615d94bf5b26de32a92d0bd53d69df", "is_disabled": 0, "lat": 38.9013085, "rental_uris": {"ios": "https://dc.lft.to/lastmile_qr_scan", "android": "https://dc.lft.to/lastmile_qr_scan"}, "is_reserved": 0, "lon": -77.03969133333334, "fusion_lat": 0.0, "name": "31615d94bf5b26de32a92d0bd53d69df"}, {"type": "electric_bike", "fusion_lon": 0.0, "bike_id": "6c27b236d4d4d119c5065ffbbe7ce436", "is_disabled": 0, "lat": 38.892490333333335, "rental_uris": {"ios": "https://dc.lft.to/lastmile_qr_scan", "android": "https://dc.lft.to/lastmile_qr_scan"}, "is_reserved": 0, "lon": -76.98538183333334, "fusion_lat": 0.0, "name": "6c27b236d4d4d119c5065ffbbe7ce436"}, {"type": "electric_scooter", "fusion_lon": 0.0, "bike_id": "842935fd26cb34aa47934fd0258ee7d2", "is_disabled": 0, "lat": 38.901810166666664, "rental_uris": {"ios": "https://dc.lft.to/lastmile_qr_scan", "android": "https://dc.lft.to/lastmile_qr_scan"}, "is_reserved": 0, "lon": -76.9282165, "fusion_lat": 0.0, "name": "842935fd26cb34aa47934fd0258ee7d2"}, {"type": "electric_scooter", "fusion_lon": 0.0, "bike_id": "d4df52110c63811abf57cb911f169037", "is_disabled": 0, "lat": 38.928906833333336, "rental_uris": {"ios": "https://dc.lft.to/lastmile_qr_scan", "android": "https://dc.lft.to/lastmile_qr_scan"}, "is_reserved": 0, "lon": -77.03254883333334, "fusion_lat": 0.0, "name": "d4df52110c63811abf57cb911f169037"}, {"type": "electric_scooter", "fusion_lon": 0.0, "bike_id": "b70f90084f19f9a96c920b3a6fe45455", "is_disabled": 0, "lat": 38.917473, "rental_uris": {"ios": "https://dc.lft.to/lastmile_qr_scan", "android": "https://dc.lft.to/lastmile_qr_scan"}, "is_reserved": 0, "lon": -77.03656866666667, "fusion_lat": 0.0, "name": "b70f90084f19f9a96c920b3a6fe45455"}, {"type": "electric_scooter", "fusion_lon": 0.0, "bike_id": "cec49bf8c7e40f3360d63c0efa602b0a", "is_disabled": 0, "lat": 38.920696666666664, "rental_uris": {"ios": "https://dc.lft.to/lastmile_qr_scan", "android": "https://dc.lft.to/lastmile_qr_scan"}, "is_reserved": 0, "lon": -77.02500916666666, "fusion_lat": 0.0, "name": "cec49bf8c7e40f3360d63c0efa602b0a"}, {"type": "electric_scooter", "fusion_lon": 0.0, "bike_id": "606ea70bcccff8958e94c4e3a2d709e6", "is_disabled": 0, "lat": 38.89475183333333, "rental_uris": {"ios": "https://dc.lft.to/lastmile_qr_scan", "android": "https://dc.lft.to/lastmile_qr_scan"}, "is_reserved": 0, "lon": -76.949575, "fusion_lat": 0.0, "name": "606ea70bcccff8958e94c4e3a2d709e6"}, {"type": "electric_scooter", "fusion_lon": 0.0, "bike_id": "d2f289d09427978fc24b282b034622b2", "is_disabled": 0, "lat": 38.904803, "rental_uris": {"ios": "https://dc.lft.to/lastmile_qr_scan", "android": "https://dc.lft.to/lastmile_qr_scan"}, "is_reserved": 0, "lon": -77.0355575, "fusion_lat": 0.0, "name": "d2f289d09427978fc24b282b034622b2"}, {"type": "electric_scooter", "fusion_lon": 0.0, "bike_id": "2a6a428f5d4f0641855900784a57a914", "is_disabled": 0, "lat": 38.89288883333333, "rental_uris": {"ios": "https://dc.lft.to/lastmile_qr_scan", "android": "https://dc.lft.to/lastmile_qr_scan"}, "is_reserved": 0, "lon": -77.02119066666667, "fusion_lat": 0.0, "name": "2a6a428f5d4f0641855900784a57a914"}, {"type": "electric_bike", "fusion_lon": 0.0, "bike_id": "bbf90c8187e6544aa9ff7d782d46ac45", "is_disabled": 0, "lat": 39.08438266666667, "rental_uris": {"ios": "https://dc.lft.to/lastmile_qr_scan", "android": "https://dc.lft.to/lastmile_qr_scan"}, "is_reserved": 0, "lon": -76.95162766666667, "fusion_lat": 0.0, "name": "bbf90c8187e6544aa9ff7d782d46ac45"}, {"type": "electric_scooter", "fusion_lon": 0.0, "bike_id": "a1dc714bc427364613c65ab5151a5fd6", "is_disabled": 0, "lat": 38.9236065, "rental_uris": {"ios": "https://dc.lft.to/lastmile_qr_scan", "android": "https://dc.lft.to/lastmile_qr_scan"}, "is_reserved": 0, "lon": -77.0322605, "fusion_lat": 0.0, "name": "a1dc714bc427364613c65ab5151a5fd6"}, {"type": "electric_scooter", "fusion_lon": 0.0, "bike_id": "52e2c562abdea8cd4f4d587e498a42ab", "is_disabled": 0, "lat": 38.92436266666667, "rental_uris": {"ios": "https://dc.lft.to/lastmile_qr_scan", "android": "https://dc.lft.to/lastmile_qr_scan"}, "is_reserved": 0, "lon": -77.0331985, "fusion_lat": 0.0, "name": "52e2c562abdea8cd4f4d587e498a42ab"}, {"type": "electric_scooter", "fusion_lon": 0.0, "bike_id": "3c19a28a419a2319524cfae18e8eb3cd", "is_disabled": 0, "lat": 38.86658033333333, "rental_uris": {"ios": "https://dc.lft.to/lastmile_qr_scan", "android": "https://dc.lft.to/lastmile_qr_scan"}, "is_reserved": 0, "lon": -76.9888605, "fusion_lat": 0.0, "name": "3c19a28a419a2319524cfae18e8eb3cd"}, {"type": "electric_scooter", "fusion_lon": 0.0, "bike_id": "5413530311fd21b310d8152bf80ed449", "is_disabled": 0, "lat": 38.956296, "rental_uris": {"ios": "https://dc.lft.to/lastmile_qr_scan", "android": "https://dc.lft.to/lastmile_qr_scan"}, "is_reserved": 0, "lon": -77.0221355, "fusion_lat": 0.0, "name": "5413530311fd21b310d8152bf80ed449"}, {"type": "electric_scooter", "fusion_lon": 0.0, "bike_id": "d1b08c8f75c1278fdab2430db75ee6dd", "is_disabled": 0, "lat": 38.88394483333333, "rental_uris": {"ios": "https://dc.lft.to/lastmile_qr_scan", "android": "https://dc.lft.to/lastmile_qr_scan"}, "is_reserved": 0, "lon": -76.9304095, "fusion_lat": 0.0, "name": "d1b08c8f75c1278fdab2430db75ee6dd"}, {"type": "electric_scooter", "fusion_lon": 0.0, "bike_id": "d5d895af18a6cbd00a328bc2685f5504", "is_disabled": 0, "lat": 38.90581316666667, "rental_uris": {"ios": "https://dc.lft.to/lastmile_qr_scan", "android": "https://dc.lft.to/lastmile_qr_scan"}, "is_reserved": 0, "lon": -77.04685983333333, "fusion_lat": 0.0, "name": "d5d895af18a6cbd00a328bc2685f5504"}, {"type": "electric_scooter", "fusion_lon": 0.0, "bike_id": "8f32df5afa8b70a5681506aeda2f61b7", "is_disabled": 0, "lat": 38.884431666666664, "rental_uris": {"ios": "https://dc.lft.to/lastmile_qr_scan", "android": "https://dc.lft.to/lastmile_qr_scan"}, "is_reserved": 0, "lon": -77.01524133333334, "fusion_lat": 0.0, "name": "8f32df5afa8b70a5681506aeda2f61b7"}, {"type": "electric_scooter", "fusion_lon": 0.0, "bike_id": "892cff0b4b84ffc2e043fc8d130a5022", "is_disabled": 0, "lat": 38.89221283333333, "rental_uris": {"ios": "https://dc.lft.to/lastmile_qr_scan", "android": "https://dc.lft.to/lastmile_qr_scan"}, "is_reserved": 0, "lon": -77.04334066666667, "fusion_lat": 0.0, "name": "892cff0b4b84ffc2e043fc8d130a5022"}, {"type": "electric_scooter", "fusion_lon": 0.0, "bike_id": "dde05a85d312503a2b992eeeb4ea0800", "is_disabled": 0, "lat": 38.9112145, "rental_uris": {"ios": "https://dc.lft.to/lastmile_qr_scan", "android": "https://dc.lft.to/lastmile_qr_scan"}, "is_reserved": 0, "lon": -77.0218895, "fusion_lat": 0.0, "name": "dde05a85d312503a2b992eeeb4ea0800"}, {"type": "electric_bike", "fusion_lon": 0.0, "bike_id": "11b9eece69e8dad15ab291caf81e6cbf", "is_disabled": 0, "lat": 38.88268333333333, "rental_uris": {"ios": "https://dc.lft.to/lastmile_qr_scan", "android": "https://dc.lft.to/lastmile_qr_scan"}, "is_reserved": 0, "lon": -77.22822866666667, "fusion_lat": 0.0, "name": "11b9eece69e8dad15ab291caf81e6cbf"}, {"type": "electric_scooter", "fusion_lon": 0.0, "bike_id": "eb8a28da226d6badf86d296ceb6b7e2a", "is_disabled": 0, "lat": 38.923375, "rental_uris": {"ios": "https://dc.lft.to/lastmile_qr_scan", "android": "https://dc.lft.to/lastmile_qr_scan"}, "is_reserved": 0, "lon": -77.04152616666667, "fusion_lat": 0.0, "name": "eb8a28da226d6badf86d296ceb6b7e2a"}, {"type": "electric_scooter", "fusion_lon": 0.0, "bike_id": "64ca531d06b5c2c54adf216177f87100", "is_disabled": 0, "lat": 38.85270766666667, "rental_uris": {"ios": "https://dc.lft.to/lastmile_qr_scan", "android": "https://dc.lft.to/lastmile_qr_scan"}, "is_reserved": 0, "lon": -76.9699265, "fusion_lat": 0.0, "name": "64ca531d06b5c2c54adf216177f87100"}, {"type": "electric_scooter", "fusion_lon": 0.0, "bike_id": "46382c4a1a8148bd5dbd61e83873dc26", "is_disabled": 0, "lat": 38.90981216666667, "rental_uris": {"ios": "https://dc.lft.to/lastmile_qr_scan", "android": "https://dc.lft.to/lastmile_qr_scan"}, "is_reserved": 0, "lon": -77.02195616666667, "fusion_lat": 0.0, "name": "46382c4a1a8148bd5dbd61e83873dc26"}, {"type": "electric_scooter", "fusion_lon": 0.0, "bike_id": "e5c99c46854c957991ad3a4e933e14d6", "is_disabled": 0, "lat": 38.87161116666667, "rental_uris": {"ios": "https://dc.lft.to/lastmile_qr_scan", "android": "https://dc.lft.to/lastmile_qr_scan"}, "is_reserved": 0, "lon": -77.00683433333333, "fusion_lat": 0.0, "name": "e5c99c46854c957991ad3a4e933e14d6"}, {"type": "electric_bike", "fusion_lon": 0.0, "bike_id": "608cc47366d9aa3b8fc4290a1f6b4933", "is_disabled": 0, "lat": 38.84193783333333, "rental_uris": {"ios": "https://dc.lft.to/lastmile_qr_scan", "android": "https://dc.lft.to/lastmile_qr_scan"}, "is_reserved": 0, "lon": -77.11356066666667, "fusion_lat": 0.0, "name": "608cc47366d9aa3b8fc4290a1f6b4933"}, {"type": "electric_scooter", "fusion_lon": 0.0, "bike_id": "cc4b813b10619b2f0d107f0606bff936", "is_disabled": 0, "lat": 38.900907, "rental_uris": {"ios": "https://dc.lft.to/lastmile_qr_scan", "android": "https://dc.lft.to/lastmile_qr_scan"}, "is_reserved": 0, "lon": -77.02462266666667, "fusion_lat": 0.0, "name": "cc4b813b10619b2f0d107f0606bff936"}, {"type": "electric_bike", "fusion_lon": 0.0, "bike_id": "9f7db7cbf563e6914cbac41eced04cfc", "is_disabled": 0, "lat": 39.0343255, "rental_uris": {"ios": "https://dc.lft.to/lastmile_qr_scan", "android": "https://dc.lft.to/lastmile_qr_scan"}, "is_reserved": 0, "lon": -77.04316266666666, "fusion_lat": 0.0, "name": "9f7db7cbf563e6914cbac41eced04cfc"}, {"type": "electric_scooter", "fusion_lon": 0.0, "bike_id": "83f64ad69d3b7a2b31430248384dc25e", "is_disabled": 0, "lat": 38.91290816666667, "rental_uris": {"ios": "https://dc.lft.to/lastmile_qr_scan", "android": "https://dc.lft.to/lastmile_qr_scan"}, "is_reserved": 0, "lon": -77.04513133333333, "fusion_lat": 0.0, "name": "83f64ad69d3b7a2b31430248384dc25e"}, {"type": "electric_scooter", "fusion_lon": 0.0, "bike_id": "ef170206256e5e31d6270e8a7fc11dd9", "is_disabled": 0, "lat": 38.90551083333333, "rental_uris": {"ios": "https://dc.lft.to/lastmile_qr_scan", "android": "https://dc.lft.to/lastmile_qr_scan"}, "is_reserved": 0, "lon": -77.05804266666667, "fusion_lat": 0.0, "name": "ef170206256e5e31d6270e8a7fc11dd9"}, {"type": "electric_scooter", "fusion_lon": 0.0, "bike_id": "61f8691900d507904fbe8eb1417e0082", "is_disabled": 0, "lat": 38.91610566666667, "rental_uris": {"ios": "https://dc.lft.to/lastmile_qr_scan", "android": "https://dc.lft.to/lastmile_qr_scan"}, "is_reserved": 0, "lon": -77.04891633333334, "fusion_lat": 0.0, "name": "61f8691900d507904fbe8eb1417e0082"}, {"type": "electric_scooter", "fusion_lon": 0.0, "bike_id": "f5ea6ef4cd033cfe34b602078d3130a0", "is_disabled": 0, "lat": 38.91038366666667, "rental_uris": {"ios": "https://dc.lft.to/lastmile_qr_scan", "android": "https://dc.lft.to/lastmile_qr_scan"}, "is_reserved": 0, "lon": -77.03408416666667, "fusion_lat": 0.0, "name": "f5ea6ef4cd033cfe34b602078d3130a0"}, {"type": "electric_scooter", "fusion_lon": 0.0, "bike_id": "0685567337bbc4f82d6ba7d2a53e732e", "is_disabled": 0, "lat": 38.9005335, "rental_uris": {"ios": "https://dc.lft.to/lastmile_qr_scan", "android": "https://dc.lft.to/lastmile_qr_scan"}, "is_reserved": 0, "lon": -77.01781083333333, "fusion_lat": 0.0, "name": "0685567337bbc4f82d6ba7d2a53e732e"}, {"type": "electric_scooter", "fusion_lon": 0.0, "bike_id": "d03ef44323739d7611750e652411f440", "is_disabled": 0, "lat": 38.920703333333336, "rental_uris": {"ios": "https://dc.lft.to/lastmile_qr_scan", "android": "https://dc.lft.to/lastmile_qr_scan"}, "is_reserved": 0, "lon": -77.02497433333333, "fusion_lat": 0.0, "name": "d03ef44323739d7611750e652411f440"}, {"type": "electric_scooter", "fusion_lon": 0.0, "bike_id": "19e6c71325fc80a26b94a966fbf42b54", "is_disabled": 0, "lat": 38.920584166666664, "rental_uris": {"ios": "https://dc.lft.to/lastmile_qr_scan", "android": "https://dc.lft.to/lastmile_qr_scan"}, "is_reserved": 0, "lon": -77.0419045, "fusion_lat": 0.0, "name": "19e6c71325fc80a26b94a966fbf42b54"}, {"type": "electric_scooter", "fusion_lon": 0.0, "bike_id": "cc01456ee2dedd31f3d1e46087d47624", "is_disabled": 0, "lat": 38.894845, "rental_uris": {"ios": "https://dc.lft.to/lastmile_qr_scan", "android": "https://dc.lft.to/lastmile_qr_scan"}, "is_reserved": 0, "lon": -77.00071683333333, "fusion_lat": 0.0, "name": "cc01456ee2dedd31f3d1e46087d47624"}, {"type": "electric_scooter", "fusion_lon": 0.0, "bike_id": "390cdc248ebebb13f767a8ae51bd2f31", "is_disabled": 0, "lat": 38.90275966666667, "rental_uris": {"ios": "https://dc.lft.to/lastmile_qr_scan", "android": "https://dc.lft.to/lastmile_qr_scan"}, "is_reserved": 0, "lon": -77.016495, "fusion_lat": 0.0, "name": "390cdc248ebebb13f767a8ae51bd2f31"}, {"type": "electric_scooter", "fusion_lon": 0.0, "bike_id": "59cae962efce772783688d9f8ba1d972", "is_disabled": 0, "lat": 38.9353965, "rental_uris": {"ios": "https://dc.lft.to/lastmile_qr_scan", "android": "https://dc.lft.to/lastmile_qr_scan"}, "is_reserved": 0, "lon": -77.0342385, "fusion_lat": 0.0, "name": "59cae962efce772783688d9f8ba1d972"}, {"type": "electric_scooter", "fusion_lon": 0.0, "bike_id": "0bb00ed20eee15ef525267c538c9a5d6", "is_disabled": 0, "lat": 38.88745683333333, "rental_uris": {"ios": "https://dc.lft.to/lastmile_qr_scan", "android": "https://dc.lft.to/lastmile_qr_scan"}, "is_reserved": 0, "lon": -77.02565766666666, "fusion_lat": 0.0, "name": "0bb00ed20eee15ef525267c538c9a5d6"}, {"type": "electric_scooter", "fusion_lon": 0.0, "bike_id": "b2bf7d0bceeaec510c7933ed2471ccee", "is_disabled": 0, "lat": 38.94193116666667, "rental_uris": {"ios": "https://dc.lft.to/lastmile_qr_scan", "android": "https://dc.lft.to/lastmile_qr_scan"}, "is_reserved": 0, "lon": -77.03839966666666, "fusion_lat": 0.0, "name": "b2bf7d0bceeaec510c7933ed2471ccee"}, {"type": "electric_scooter", "fusion_lon": 0.0, "bike_id": "2f4a12765a0507e1932259d4c89bae72", "is_disabled": 0, "lat": 38.90693316666667, "rental_uris": {"ios": "https://dc.lft.to/lastmile_qr_scan", "android": "https://dc.lft.to/lastmile_qr_scan"}, "is_reserved": 0, "lon": -76.9850585, "fusion_lat": 0.0, "name": "2f4a12765a0507e1932259d4c89bae72"}, {"type": "electric_scooter", "fusion_lon": 0.0, "bike_id": "d35ecf4e7e3a75488bb780b3494941bd", "is_disabled": 0, "lat": 38.911897, "rental_uris": {"ios": "https://dc.lft.to/lastmile_qr_scan", "android": "https://dc.lft.to/lastmile_qr_scan"}, "is_reserved": 0, "lon": -77.03803416666666, "fusion_lat": 0.0, "name": "d35ecf4e7e3a75488bb780b3494941bd"}, {"type": "electric_scooter", "fusion_lon": 0.0, "bike_id": "7e02328f7713fd52e957d92eba8367ee", "is_disabled": 0, "lat": 38.91562733333333, "rental_uris": {"ios": "https://dc.lft.to/lastmile_qr_scan", "android": "https://dc.lft.to/lastmile_qr_scan"}, "is_reserved": 0, "lon": -77.02005166666666, "fusion_lat": 0.0, "name": "7e02328f7713fd52e957d92eba8367ee"}, {"type": "electric_scooter", "fusion_lon": 0.0, "bike_id": "02144a8024dd32e09578daf7b90f5443", "is_disabled": 0, "lat": 38.88333983333333, "rental_uris": {"ios": "https://dc.lft.to/lastmile_qr_scan", "android": "https://dc.lft.to/lastmile_qr_scan"}, "is_reserved": 0, "lon": -77.01139866666666, "fusion_lat": 0.0, "name": "02144a8024dd32e09578daf7b90f5443"}, {"type": "electric_scooter", "fusion_lon": 0.0, "bike_id": "0a90a160edd6520ccb2d927fa717cfcf", "is_disabled": 0, "lat": 38.89270333333333, "rental_uris": {"ios": "https://dc.lft.to/lastmile_qr_scan", "android": "https://dc.lft.to/lastmile_qr_scan"}, "is_reserved": 0, "lon": -77.042024, "fusion_lat": 0.0, "name": "0a90a160edd6520ccb2d927fa717cfcf"}, {"type": "electric_scooter", "fusion_lon": 0.0, "bike_id": "1f0802844730c11be33b3f857e62b493", "is_disabled": 0, "lat": 38.902763, "rental_uris": {"ios": "https://dc.lft.to/lastmile_qr_scan", "android": "https://dc.lft.to/lastmile_qr_scan"}, "is_reserved": 0, "lon": -77.022729, "fusion_lat": 0.0, "name": "1f0802844730c11be33b3f857e62b493"}, {"type": "electric_bike", "fusion_lon": 0.0, "bike_id": "b8c4e3844905d64af4b4caefd7f5e172", "is_disabled": 0, "lat": 39.01568416666667, "rental_uris": {"ios": "https://dc.lft.to/lastmile_qr_scan", "android": "https://dc.lft.to/lastmile_qr_scan"}, "is_reserved": 0, "lon": -77.0442115, "fusion_lat": 0.0, "name": "b8c4e3844905d64af4b4caefd7f5e172"}, {"type": "electric_scooter", "fusion_lon": 0.0, "bike_id": "398a5959abfc3cb06d496c8c90c051e7", "is_disabled": 0, "lat": 38.8810745, "rental_uris": {"ios": "https://dc.lft.to/lastmile_qr_scan", "android": "https://dc.lft.to/lastmile_qr_scan"}, "is_reserved": 0, "lon": -77.02641216666666, "fusion_lat": 0.0, "name": "398a5959abfc3cb06d496c8c90c051e7"}, {"type": "electric_scooter", "fusion_lon": 0.0, "bike_id": "66593305f137bbb6af1d7afcca50007c", "is_disabled": 0, "lat": 38.8766325, "rental_uris": {"ios": "https://dc.lft.to/lastmile_qr_scan", "android": "https://dc.lft.to/lastmile_qr_scan"}, "is_reserved": 0, "lon": -77.00294466666666, "fusion_lat": 0.0, "name": "66593305f137bbb6af1d7afcca50007c"}, {"type": "electric_scooter", "fusion_lon": 0.0, "bike_id": "b97a6e2cc028d35b596356aa42eaadc1", "is_disabled": 0, "lat": 38.9152895, "rental_uris": {"ios": "https://dc.lft.to/lastmile_qr_scan", "android": "https://dc.lft.to/lastmile_qr_scan"}, "is_reserved": 0, "lon": -77.04441566666667, "fusion_lat": 0.0, "name": "b97a6e2cc028d35b596356aa42eaadc1"}, {"type": "electric_scooter", "fusion_lon": 0.0, "bike_id": "d55304361608da80d387b398e4302e78", "is_disabled": 0, "lat": 38.866937666666665, "rental_uris": {"ios": "https://dc.lft.to/lastmile_qr_scan", "android": "https://dc.lft.to/lastmile_qr_scan"}, "is_reserved": 0, "lon": -76.980849, "fusion_lat": 0.0, "name": "d55304361608da80d387b398e4302e78"}, {"type": "electric_scooter", "fusion_lon": 0.0, "bike_id": "987a4c6ca23970ca95c84ee5d98a74e6", "is_disabled": 0, "lat": 38.948911833333334, "rental_uris": {"ios": "https://dc.lft.to/lastmile_qr_scan", "android": "https://dc.lft.to/lastmile_qr_scan"}, "is_reserved": 0, "lon": -77.01855516666667, "fusion_lat": 0.0, "name": "987a4c6ca23970ca95c84ee5d98a74e6"}, {"type": "electric_scooter", "fusion_lon": 0.0, "bike_id": "71d604e698e963bef72796aadeb6a930", "is_disabled": 0, "lat": 38.919487833333335, "rental_uris": {"ios": "https://dc.lft.to/lastmile_qr_scan", "android": "https://dc.lft.to/lastmile_qr_scan"}, "is_reserved": 0, "lon": -77.03190916666667, "fusion_lat": 0.0, "name": "71d604e698e963bef72796aadeb6a930"}, {"type": "electric_scooter", "fusion_lon": 0.0, "bike_id": "582d7c16d61878ed110afb17c992e467", "is_disabled": 0, "lat": 38.90046866666667, "rental_uris": {"ios": "https://dc.lft.to/lastmile_qr_scan", "android": "https://dc.lft.to/lastmile_qr_scan"}, "is_reserved": 0, "lon": -77.04342916666667, "fusion_lat": 0.0, "name": "582d7c16d61878ed110afb17c992e467"}, {"type": "electric_scooter", "fusion_lon": 0.0, "bike_id": "57ddb8e38e58bef7ec8381dbe0d62f35", "is_disabled": 0, "lat": 38.927401833333334, "rental_uris": {"ios": "https://dc.lft.to/lastmile_qr_scan", "android": "https://dc.lft.to/lastmile_qr_scan"}, "is_reserved": 0, "lon": -76.95543683333334, "fusion_lat": 0.0, "name": "57ddb8e38e58bef7ec8381dbe0d62f35"}, {"type": "electric_scooter", "fusion_lon": 0.0, "bike_id": "26a7118c741623d176c8b6ac64dd9746", "is_disabled": 0, "lat": 38.917138333333334, "rental_uris": {"ios": "https://dc.lft.to/lastmile_qr_scan", "android": "https://dc.lft.to/lastmile_qr_scan"}, "is_reserved": 0, "lon": -77.03857, "fusion_lat": 0.0, "name": "26a7118c741623d176c8b6ac64dd9746"}, {"type": "electric_scooter", "fusion_lon": 0.0, "bike_id": "f21c403b079cc4e9e025abd69c2d2eb4", "is_disabled": 0, "lat": 38.9105355, "rental_uris": {"ios": "https://dc.lft.to/lastmile_qr_scan", "android": "https://dc.lft.to/lastmile_qr_scan"}, "is_reserved": 0, "lon": -77.0501925, "fusion_lat": 0.0, "name": "f21c403b079cc4e9e025abd69c2d2eb4"}, {"type": "electric_scooter", "fusion_lon": 0.0, "bike_id": "7fe431377d59f29b39df152b7ec21fa5", "is_disabled": 0, "lat": 38.905161166666666, "rental_uris": {"ios": "https://dc.lft.to/lastmile_qr_scan", "android": "https://dc.lft.to/lastmile_qr_scan"}, "is_reserved": 0, "lon": -77.04903816666666, "fusion_lat": 0.0, "name": "7fe431377d59f29b39df152b7ec21fa5"}, {"type": "electric_scooter", "fusion_lon": 0.0, "bike_id": "311809cc8d772aa1589d099557c2294b", "is_disabled": 0, "lat": 38.92610766666667, "rental_uris": {"ios": "https://dc.lft.to/lastmile_qr_scan", "android": "https://dc.lft.to/lastmile_qr_scan"}, "is_reserved": 0, "lon": -77.02152716666667, "fusion_lat": 0.0, "name": "311809cc8d772aa1589d099557c2294b"}, {"type": "electric_scooter", "fusion_lon": 0.0, "bike_id": "46b1b5aefca71c266b637ef96e454081", "is_disabled": 0, "lat": 38.892362, "rental_uris": {"ios": "https://dc.lft.to/lastmile_qr_scan", "android": "https://dc.lft.to/lastmile_qr_scan"}, "is_reserved": 0, "lon": -77.04673833333334, "fusion_lat": 0.0, "name": "46b1b5aefca71c266b637ef96e454081"}, {"type": "electric_scooter", "fusion_lon": 0.0, "bike_id": "9f5955f1104db0844a05de8fda8c3a6c", "is_disabled": 0, "lat": 38.900242666666664, "rental_uris": {"ios": "https://dc.lft.to/lastmile_qr_scan", "android": "https://dc.lft.to/lastmile_qr_scan"}, "is_reserved": 0, "lon": -76.99852783333333, "fusion_lat": 0.0, "name": "9f5955f1104db0844a05de8fda8c3a6c"}, {"type": "electric_scooter", "fusion_lon": 0.0, "bike_id": "064757591fff58abe55efe0bacd72a4a", "is_disabled": 0, "lat": 38.910341333333335, "rental_uris": {"ios": "https://dc.lft.to/lastmile_qr_scan", "android": "https://dc.lft.to/lastmile_qr_scan"}, "is_reserved": 0, "lon": -76.98568516666667, "fusion_lat": 0.0, "name": "064757591fff58abe55efe0bacd72a4a"}, {"type": "electric_scooter", "fusion_lon": 0.0, "bike_id": "1fcdfffe6c1ba792dfd12175db0b207d", "is_disabled": 0, "lat": 38.933141, "rental_uris": {"ios": "https://dc.lft.to/lastmile_qr_scan", "android": "https://dc.lft.to/lastmile_qr_scan"}, "is_reserved": 0, "lon": -77.03280483333333, "fusion_lat": 0.0, "name": "1fcdfffe6c1ba792dfd12175db0b207d"}, {"type": "electric_scooter", "fusion_lon": 0.0, "bike_id": "02dd789e4a60b126673293f13b2b28f1", "is_disabled": 0, "lat": 38.8979435, "rental_uris": {"ios": "https://dc.lft.to/lastmile_qr_scan", "android": "https://dc.lft.to/lastmile_qr_scan"}, "is_reserved": 0, "lon": -77.04191166666666, "fusion_lat": 0.0, "name": "02dd789e4a60b126673293f13b2b28f1"}, {"type": "electric_scooter", "fusion_lon": 0.0, "bike_id": "2f55e91dcc94842dd71c5b817bfb3c89", "is_disabled": 0, "lat": 38.92578266666666, "rental_uris": {"ios": "https://dc.lft.to/lastmile_qr_scan", "android": "https://dc.lft.to/lastmile_qr_scan"}, "is_reserved": 0, "lon": -77.03280833333334, "fusion_lat": 0.0, "name": "2f55e91dcc94842dd71c5b817bfb3c89"}, {"type": "electric_scooter", "fusion_lon": 0.0, "bike_id": "848963cdb67fd4350b2e16366ead011b", "is_disabled": 0, "lat": 38.9378575, "rental_uris": {"ios": "https://dc.lft.to/lastmile_qr_scan", "android": "https://dc.lft.to/lastmile_qr_scan"}, "is_reserved": 0, "lon": -77.023253, "fusion_lat": 0.0, "name": "848963cdb67fd4350b2e16366ead011b"}, {"type": "electric_scooter", "fusion_lon": 0.0, "bike_id": "5e5c3630415ef0970f11e9f76ccbe7f7", "is_disabled": 0, "lat": 38.92046533333333, "rental_uris": {"ios": "https://dc.lft.to/lastmile_qr_scan", "android": "https://dc.lft.to/lastmile_qr_scan"}, "is_reserved": 0, "lon": -77.01668866666667, "fusion_lat": 0.0, "name": "5e5c3630415ef0970f11e9f76ccbe7f7"}, {"type": "electric_scooter", "fusion_lon": 0.0, "bike_id": "e06934a4f46c06c05f4bfa4250c071eb", "is_disabled": 0, "lat": 38.90410216666667, "rental_uris": {"ios": "https://dc.lft.to/lastmile_qr_scan", "android": "https://dc.lft.to/lastmile_qr_scan"}, "is_reserved": 0, "lon": -76.9733025, "fusion_lat": 0.0, "name": "e06934a4f46c06c05f4bfa4250c071eb"}, {"type": "electric_scooter", "fusion_lon": 0.0, "bike_id": "0023d706c98103a2a43f7abf13975e50", "is_disabled": 0, "lat": 38.90433316666667, "rental_uris": {"ios": "https://dc.lft.to/lastmile_qr_scan", "android": "https://dc.lft.to/lastmile_qr_scan"}, "is_reserved": 0, "lon": -77.03439966666667, "fusion_lat": 0.0, "name": "0023d706c98103a2a43f7abf13975e50"}, {"type": "electric_scooter", "fusion_lon": 0.0, "bike_id": "fa5f9785e6ff985e719a0f6ef8e6d8a3", "is_disabled": 0, "lat": 38.901224166666665, "rental_uris": {"ios": "https://dc.lft.to/lastmile_qr_scan", "android": "https://dc.lft.to/lastmile_qr_scan"}, "is_reserved": 0, "lon": -77.03801233333333, "fusion_lat": 0.0, "name": "fa5f9785e6ff985e719a0f6ef8e6d8a3"}, {"type": "electric_scooter", "fusion_lon": 0.0, "bike_id": "769d1dbd7937898f8769a549b473b0f0", "is_disabled": 0, "lat": 38.8833775, "rental_uris": {"ios": "https://dc.lft.to/lastmile_qr_scan", "android": "https://dc.lft.to/lastmile_qr_scan"}, "is_reserved": 0, "lon": -76.93499066666666, "fusion_lat": 0.0, "name": "769d1dbd7937898f8769a549b473b0f0"}, {"type": "electric_scooter", "fusion_lon": 0.0, "bike_id": "09a7c0c17657213345f90c776c730ec4", "is_disabled": 0, "lat": 38.901173, "rental_uris": {"ios": "https://dc.lft.to/lastmile_qr_scan", "android": "https://dc.lft.to/lastmile_qr_scan"}, "is_reserved": 0, "lon": -77.0440575, "fusion_lat": 0.0, "name": "09a7c0c17657213345f90c776c730ec4"}, {"type": "electric_scooter", "fusion_lon": 0.0, "bike_id": "143e04c17586c0341bbd3a5fe9730a01", "is_disabled": 0, "lat": 38.909083, "rental_uris": {"ios": "https://dc.lft.to/lastmile_qr_scan", "android": "https://dc.lft.to/lastmile_qr_scan"}, "is_reserved": 0, "lon": -77.072661, "fusion_lat": 0.0, "name": "143e04c17586c0341bbd3a5fe9730a01"}, {"type": "electric_scooter", "fusion_lon": 0.0, "bike_id": "b35fd861328d4e70452f809b6bc0a1b3", "is_disabled": 0, "lat": 38.91890816666667, "rental_uris": {"ios": "https://dc.lft.to/lastmile_qr_scan", "android": "https://dc.lft.to/lastmile_qr_scan"}, "is_reserved": 0, "lon": -77.0381955, "fusion_lat": 0.0, "name": "b35fd861328d4e70452f809b6bc0a1b3"}, {"type": "electric_scooter", "fusion_lon": 0.0, "bike_id": "b71457d136d29b28fdf87d2dfb9ab128", "is_disabled": 0, "lat": 38.903371166666666, "rental_uris": {"ios": "https://dc.lft.to/lastmile_qr_scan", "android": "https://dc.lft.to/lastmile_qr_scan"}, "is_reserved": 0, "lon": -77.03827333333334, "fusion_lat": 0.0, "name": "b71457d136d29b28fdf87d2dfb9ab128"}, {"type": "electric_scooter", "fusion_lon": 0.0, "bike_id": "22c3e7153281de5f1c55f975d12a1917", "is_disabled": 0, "lat": 38.927496833333336, "rental_uris": {"ios": "https://dc.lft.to/lastmile_qr_scan", "android": "https://dc.lft.to/lastmile_qr_scan"}, "is_reserved": 0, "lon": -77.0253465, "fusion_lat": 0.0, "name": "22c3e7153281de5f1c55f975d12a1917"}, {"type": "electric_scooter", "fusion_lon": 0.0, "bike_id": "179e6161d3c9a98b01422a343ddebdfa", "is_disabled": 0, "lat": 38.902532666666666, "rental_uris": {"ios": "https://dc.lft.to/lastmile_qr_scan", "android": "https://dc.lft.to/lastmile_qr_scan"}, "is_reserved": 0, "lon": -77.02699033333333, "fusion_lat": 0.0, "name": "179e6161d3c9a98b01422a343ddebdfa"}, {"type": "electric_scooter", "fusion_lon": 0.0, "bike_id": "cca6a1061de69cb44c206f42722020ab", "is_disabled": 0, "lat": 38.90552916666667, "rental_uris": {"ios": "https://dc.lft.to/lastmile_qr_scan", "android": "https://dc.lft.to/lastmile_qr_scan"}, "is_reserved": 0, "lon": -77.04660466666667, "fusion_lat": 0.0, "name": "cca6a1061de69cb44c206f42722020ab"}, {"type": "electric_scooter", "fusion_lon": 0.0, "bike_id": "e6eab3ffe62849541581ee8f84e32775", "is_disabled": 0, "lat": 38.92198283333333, "rental_uris": {"ios": "https://dc.lft.to/lastmile_qr_scan", "android": "https://dc.lft.to/lastmile_qr_scan"}, "is_reserved": 0, "lon": -77.04696033333333, "fusion_lat": 0.0, "name": "e6eab3ffe62849541581ee8f84e32775"}, {"type": "electric_scooter", "fusion_lon": 0.0, "bike_id": "ea836d51365512ec53568195ba70b1ec", "is_disabled": 0, "lat": 38.903776666666666, "rental_uris": {"ios": "https://dc.lft.to/lastmile_qr_scan", "android": "https://dc.lft.to/lastmile_qr_scan"}, "is_reserved": 0, "lon": -76.9950745, "fusion_lat": 0.0, "name": "ea836d51365512ec53568195ba70b1ec"}, {"type": "electric_scooter", "fusion_lon": 0.0, "bike_id": "1a516db67969694d3eb8904c2b17efb5", "is_disabled": 0, "lat": 38.89859, "rental_uris": {"ios": "https://dc.lft.to/lastmile_qr_scan", "android": "https://dc.lft.to/lastmile_qr_scan"}, "is_reserved": 0, "lon": -77.0487775, "fusion_lat": 0.0, "name": "1a516db67969694d3eb8904c2b17efb5"}, {"type": "electric_scooter", "fusion_lon": 0.0, "bike_id": "37a8389e0a9f1e73229cf73a521297a5", "is_disabled": 0, "lat": 38.92617116666667, "rental_uris": {"ios": "https://dc.lft.to/lastmile_qr_scan", "android": "https://dc.lft.to/lastmile_qr_scan"}, "is_reserved": 0, "lon": -77.03924783333333, "fusion_lat": 0.0, "name": "37a8389e0a9f1e73229cf73a521297a5"}, {"type": "electric_scooter", "fusion_lon": 0.0, "bike_id": "21ebccc2fb7a662fab7bf2f7ea90d098", "is_disabled": 0, "lat": 38.8781205, "rental_uris": {"ios": "https://dc.lft.to/lastmile_qr_scan", "android": "https://dc.lft.to/lastmile_qr_scan"}, "is_reserved": 0, "lon": -77.00740283333333, "fusion_lat": 0.0, "name": "21ebccc2fb7a662fab7bf2f7ea90d098"}, {"type": "electric_bike", "fusion_lon": 0.0, "bike_id": "cce15a8987e60e40a7642b184fa9ac0e", "is_disabled": 0, "lat": 38.935474666666664, "rental_uris": {"ios": "https://dc.lft.to/lastmile_qr_scan", "android": "https://dc.lft.to/lastmile_qr_scan"}, "is_reserved": 0, "lon": -77.08235133333334, "fusion_lat": 0.0, "name": "cce15a8987e60e40a7642b184fa9ac0e"}, {"type": "electric_scooter", "fusion_lon": 0.0, "bike_id": "21f51ac87efe819be1a23aa0938fce5e", "is_disabled": 0, "lat": 38.87548783333333, "rental_uris": {"ios": "https://dc.lft.to/lastmile_qr_scan", "android": "https://dc.lft.to/lastmile_qr_scan"}, "is_reserved": 0, "lon": -77.0053605, "fusion_lat": 0.0, "name": "21f51ac87efe819be1a23aa0938fce5e"}, {"type": "electric_scooter", "fusion_lon": 0.0, "bike_id": "c226be2d0ea77db2cddec2d49ccabd80", "is_disabled": 0, "lat": 38.884533, "rental_uris": {"ios": "https://dc.lft.to/lastmile_qr_scan", "android": "https://dc.lft.to/lastmile_qr_scan"}, "is_reserved": 0, "lon": -76.94220616666667, "fusion_lat": 0.0, "name": "c226be2d0ea77db2cddec2d49ccabd80"}, {"type": "electric_scooter", "fusion_lon": 0.0, "bike_id": "03f7398baaa09f7d43b35635a8dc7410", "is_disabled": 0, "lat": 38.917574333333334, "rental_uris": {"ios": "https://dc.lft.to/lastmile_qr_scan", "android": "https://dc.lft.to/lastmile_qr_scan"}, "is_reserved": 0, "lon": -77.02282583333333, "fusion_lat": 0.0, "name": "03f7398baaa09f7d43b35635a8dc7410"}, {"type": "electric_scooter", "fusion_lon": 0.0, "bike_id": "0c898e83cbe02a058ecaf5fb49470e40", "is_disabled": 0, "lat": 38.9269815, "rental_uris": {"ios": "https://dc.lft.to/lastmile_qr_scan", "android": "https://dc.lft.to/lastmile_qr_scan"}, "is_reserved": 0, "lon": -77.02391766666666, "fusion_lat": 0.0, "name": "0c898e83cbe02a058ecaf5fb49470e40"}, {"type": "electric_scooter", "fusion_lon": 0.0, "bike_id": "ec657059e7537a8998a7b619d6e1e5ab", "is_disabled": 0, "lat": 38.92079866666667, "rental_uris": {"ios": "https://dc.lft.to/lastmile_qr_scan", "android": "https://dc.lft.to/lastmile_qr_scan"}, "is_reserved": 0, "lon": -77.0251375, "fusion_lat": 0.0, "name": "ec657059e7537a8998a7b619d6e1e5ab"}, {"type": "electric_bike", "fusion_lon": 0.0, "bike_id": "addf2bb82e039fb1a3172acc25acab3c", "is_disabled": 0, "lat": 38.89020266666667, "rental_uris": {"ios": "https://dc.lft.to/lastmile_qr_scan", "android": "https://dc.lft.to/lastmile_qr_scan"}, "is_reserved": 0, "lon": -76.94169116666667, "fusion_lat": 0.0, "name": "addf2bb82e039fb1a3172acc25acab3c"}, {"type": "electric_scooter", "fusion_lon": 0.0, "bike_id": "c6946f0ffaf488eff187ff3252e9cc8f", "is_disabled": 0, "lat": 38.92044666666666, "rental_uris": {"ios": "https://dc.lft.to/lastmile_qr_scan", "android": "https://dc.lft.to/lastmile_qr_scan"}, "is_reserved": 0, "lon": -77.0417775, "fusion_lat": 0.0, "name": "c6946f0ffaf488eff187ff3252e9cc8f"}, {"type": "electric_scooter", "fusion_lon": 0.0, "bike_id": "39dc2cb57864768f9cd734fbbbfe53ea", "is_disabled": 0, "lat": 38.8636735, "rental_uris": {"ios": "https://dc.lft.to/lastmile_qr_scan", "android": "https://dc.lft.to/lastmile_qr_scan"}, "is_reserved": 0, "lon": -76.9904925, "fusion_lat": 0.0, "name": "39dc2cb57864768f9cd734fbbbfe53ea"}, {"type": "electric_scooter", "fusion_lon": 0.0, "bike_id": "0f37b1441820c352fc6df57d675a22c5", "is_disabled": 0, "lat": 38.900003166666664, "rental_uris": {"ios": "https://dc.lft.to/lastmile_qr_scan", "android": "https://dc.lft.to/lastmile_qr_scan"}, "is_reserved": 0, "lon": -77.05234416666667, "fusion_lat": 0.0, "name": "0f37b1441820c352fc6df57d675a22c5"}, {"type": "electric_scooter", "fusion_lon": 0.0, "bike_id": "f56602cd5fd3ad3642b0b349c00a8b34", "is_disabled": 0, "lat": 38.89526516666667, "rental_uris": {"ios": "https://dc.lft.to/lastmile_qr_scan", "android": "https://dc.lft.to/lastmile_qr_scan"}, "is_reserved": 0, "lon": -77.04334483333334, "fusion_lat": 0.0, "name": "f56602cd5fd3ad3642b0b349c00a8b34"}, {"type": "electric_scooter", "fusion_lon": 0.0, "bike_id": "fc819d6cd1b42dbabe9e9fdf9ba40274", "is_disabled": 0, "lat": 38.878649833333334, "rental_uris": {"ios": "https://dc.lft.to/lastmile_qr_scan", "android": "https://dc.lft.to/lastmile_qr_scan"}, "is_reserved": 0, "lon": -76.98929816666667, "fusion_lat": 0.0, "name": "fc819d6cd1b42dbabe9e9fdf9ba40274"}, {"type": "electric_scooter", "fusion_lon": 0.0, "bike_id": "9ac8016b8c4dd9c939bf8e5f4147b50e", "is_disabled": 0, "lat": 38.92661533333333, "rental_uris": {"ios": "https://dc.lft.to/lastmile_qr_scan", "android": "https://dc.lft.to/lastmile_qr_scan"}, "is_reserved": 0, "lon": -77.03712616666667, "fusion_lat": 0.0, "name": "9ac8016b8c4dd9c939bf8e5f4147b50e"}, {"type": "electric_scooter", "fusion_lon": 0.0, "bike_id": "b70db57e6f5b5348a7d21b7be0d03302", "is_disabled": 0, "lat": 38.90668133333333, "rental_uris": {"ios": "https://dc.lft.to/lastmile_qr_scan", "android": "https://dc.lft.to/lastmile_qr_scan"}, "is_reserved": 0, "lon": -77.0219245, "fusion_lat": 0.0, "name": "b70db57e6f5b5348a7d21b7be0d03302"}, {"type": "electric_scooter", "fusion_lon": 0.0, "bike_id": "bcb6d6f99b1ddeda7d174577622249e9", "is_disabled": 0, "lat": 38.895554, "rental_uris": {"ios": "https://dc.lft.to/lastmile_qr_scan", "android": "https://dc.lft.to/lastmile_qr_scan"}, "is_reserved": 0, "lon": -77.04670316666666, "fusion_lat": 0.0, "name": "bcb6d6f99b1ddeda7d174577622249e9"}, {"type": "electric_scooter", "fusion_lon": 0.0, "bike_id": "236c1a83036d2eb7ca4b891fffa3d882", "is_disabled": 0, "lat": 38.89956216666667, "rental_uris": {"ios": "https://dc.lft.to/lastmile_qr_scan", "android": "https://dc.lft.to/lastmile_qr_scan"}, "is_reserved": 0, "lon": -77.044973, "fusion_lat": 0.0, "name": "236c1a83036d2eb7ca4b891fffa3d882"}, {"type": "electric_scooter", "fusion_lon": 0.0, "bike_id": "90c2ca070db5cbc5d513225cb86e5c0b", "is_disabled": 0, "lat": 38.924048666666664, "rental_uris": {"ios": "https://dc.lft.to/lastmile_qr_scan", "android": "https://dc.lft.to/lastmile_qr_scan"}, "is_reserved": 0, "lon": -77.0274725, "fusion_lat": 0.0, "name": "90c2ca070db5cbc5d513225cb86e5c0b"}, {"type": "electric_scooter", "fusion_lon": 0.0, "bike_id": "df6476d184b0ed24b0ff56f8ac8475e4", "is_disabled": 0, "lat": 38.95778983333334, "rental_uris": {"ios": "https://dc.lft.to/lastmile_qr_scan", "android": "https://dc.lft.to/lastmile_qr_scan"}, "is_reserved": 0, "lon": -77.02461183333334, "fusion_lat": 0.0, "name": "df6476d184b0ed24b0ff56f8ac8475e4"}, {"type": "electric_scooter", "fusion_lon": 0.0, "bike_id": "e6c2a84198844ef7b15f5d2dc1841416", "is_disabled": 0, "lat": 38.890023, "rental_uris": {"ios": "https://dc.lft.to/lastmile_qr_scan", "android": "https://dc.lft.to/lastmile_qr_scan"}, "is_reserved": 0, "lon": -77.00344383333334, "fusion_lat": 0.0, "name": "e6c2a84198844ef7b15f5d2dc1841416"}, {"type": "electric_scooter", "fusion_lon": 0.0, "bike_id": "7b632cc607b14d21d7ef7695d4e369c4", "is_disabled": 0, "lat": 38.892223333333334, "rental_uris": {"ios": "https://dc.lft.to/lastmile_qr_scan", "android": "https://dc.lft.to/lastmile_qr_scan"}, "is_reserved": 0, "lon": -77.046882, "fusion_lat": 0.0, "name": "7b632cc607b14d21d7ef7695d4e369c4"}, {"type": "electric_scooter", "fusion_lon": 0.0, "bike_id": "484b9cdbeb5ab014bceea92cb6a3ab8f", "is_disabled": 0, "lat": 38.92284883333333, "rental_uris": {"ios": "https://dc.lft.to/lastmile_qr_scan", "android": "https://dc.lft.to/lastmile_qr_scan"}, "is_reserved": 0, "lon": -77.02711033333334, "fusion_lat": 0.0, "name": "484b9cdbeb5ab014bceea92cb6a3ab8f"}, {"type": "electric_scooter", "fusion_lon": 0.0, "bike_id": "4edac7c156f76badee8081e9eb517d1a", "is_disabled": 0, "lat": 38.9072455, "rental_uris": {"ios": "https://dc.lft.to/lastmile_qr_scan", "android": "https://dc.lft.to/lastmile_qr_scan"}, "is_reserved": 0, "lon": -77.03980966666667, "fusion_lat": 0.0, "name": "4edac7c156f76badee8081e9eb517d1a"}, {"type": "electric_scooter", "fusion_lon": 0.0, "bike_id": "6e2bec3028eb962b06418aafb8f6b81d", "is_disabled": 0, "lat": 38.91768233333333, "rental_uris": {"ios": "https://dc.lft.to/lastmile_qr_scan", "android": "https://dc.lft.to/lastmile_qr_scan"}, "is_reserved": 0, "lon": -77.02347116666667, "fusion_lat": 0.0, "name": "6e2bec3028eb962b06418aafb8f6b81d"}, {"type": "electric_scooter", "fusion_lon": 0.0, "bike_id": "ef145aaba64881b022f1ad0edcdcb835", "is_disabled": 0, "lat": 38.9195815, "rental_uris": {"ios": "https://dc.lft.to/lastmile_qr_scan", "android": "https://dc.lft.to/lastmile_qr_scan"}, "is_reserved": 0, "lon": -77.02708516666667, "fusion_lat": 0.0, "name": "ef145aaba64881b022f1ad0edcdcb835"}, {"type": "electric_scooter", "fusion_lon": 0.0, "bike_id": "1fd6478fb35e8fc63af13324ca1c2186", "is_disabled": 0, "lat": 38.89625783333334, "rental_uris": {"ios": "https://dc.lft.to/lastmile_qr_scan", "android": "https://dc.lft.to/lastmile_qr_scan"}, "is_reserved": 0, "lon": -77.02410383333333, "fusion_lat": 0.0, "name": "1fd6478fb35e8fc63af13324ca1c2186"}, {"type": "electric_scooter", "fusion_lon": 0.0, "bike_id": "3e228bd761176731c06bb1fccd9f167c", "is_disabled": 0, "lat": 38.927017, "rental_uris": {"ios": "https://dc.lft.to/lastmile_qr_scan", "android": "https://dc.lft.to/lastmile_qr_scan"}, "is_reserved": 0, "lon": -77.0233845, "fusion_lat": 0.0, "name": "3e228bd761176731c06bb1fccd9f167c"}, {"type": "electric_scooter", "fusion_lon": 0.0, "bike_id": "702affe55b820e6a4f092d2826cef873", "is_disabled": 0, "lat": 38.9243395, "rental_uris": {"ios": "https://dc.lft.to/lastmile_qr_scan", "android": "https://dc.lft.to/lastmile_qr_scan"}, "is_reserved": 0, "lon": -77.02035083333334, "fusion_lat": 0.0, "name": "702affe55b820e6a4f092d2826cef873"}, {"type": "electric_scooter", "fusion_lon": 0.0, "bike_id": "bdb1abb08e2d4a35c1ea178ff95164c0", "is_disabled": 0, "lat": 38.8950665, "rental_uris": {"ios": "https://dc.lft.to/lastmile_qr_scan", "android": "https://dc.lft.to/lastmile_qr_scan"}, "is_reserved": 0, "lon": -77.003296, "fusion_lat": 0.0, "name": "bdb1abb08e2d4a35c1ea178ff95164c0"}, {"type": "electric_scooter", "fusion_lon": 0.0, "bike_id": "754c2c06f3ac27c6518fcf2c1456ed64", "is_disabled": 0, "lat": 38.905249, "rental_uris": {"ios": "https://dc.lft.to/lastmile_qr_scan", "android": "https://dc.lft.to/lastmile_qr_scan"}, "is_reserved": 0, "lon": -77.06380166666666, "fusion_lat": 0.0, "name": "754c2c06f3ac27c6518fcf2c1456ed64"}, {"type": "electric_scooter", "fusion_lon": 0.0, "bike_id": "412417ee179600b50bb7e55f28d31a1c", "is_disabled": 0, "lat": 38.91490266666667, "rental_uris": {"ios": "https://dc.lft.to/lastmile_qr_scan", "android": "https://dc.lft.to/lastmile_qr_scan"}, "is_reserved": 0, "lon": -77.04153466666666, "fusion_lat": 0.0, "name": "412417ee179600b50bb7e55f28d31a1c"}, {"type": "electric_scooter", "fusion_lon": 0.0, "bike_id": "1712f259bfc310677f26e4daf5083a0c", "is_disabled": 0, "lat": 38.93333466666667, "rental_uris": {"ios": "https://dc.lft.to/lastmile_qr_scan", "android": "https://dc.lft.to/lastmile_qr_scan"}, "is_reserved": 0, "lon": -77.03264366666667, "fusion_lat": 0.0, "name": "1712f259bfc310677f26e4daf5083a0c"}, {"type": "electric_scooter", "fusion_lon": 0.0, "bike_id": "ccb57b02e362053e40e4831c69995aea", "is_disabled": 0, "lat": 38.93841183333333, "rental_uris": {"ios": "https://dc.lft.to/lastmile_qr_scan", "android": "https://dc.lft.to/lastmile_qr_scan"}, "is_reserved": 0, "lon": -77.0338315, "fusion_lat": 0.0, "name": "ccb57b02e362053e40e4831c69995aea"}, {"type": "electric_scooter", "fusion_lon": 0.0, "bike_id": "11f26da65331dcd374f04dd162a52942", "is_disabled": 0, "lat": 38.9078095, "rental_uris": {"ios": "https://dc.lft.to/lastmile_qr_scan", "android": "https://dc.lft.to/lastmile_qr_scan"}, "is_reserved": 0, "lon": -77.07250283333333, "fusion_lat": 0.0, "name": "11f26da65331dcd374f04dd162a52942"}, {"type": "electric_scooter", "fusion_lon": 0.0, "bike_id": "7ee5017a622ed55417477409c7e4eda1", "is_disabled": 0, "lat": 38.911227333333336, "rental_uris": {"ios": "https://dc.lft.to/lastmile_qr_scan", "android": "https://dc.lft.to/lastmile_qr_scan"}, "is_reserved": 0, "lon": -77.0382615, "fusion_lat": 0.0, "name": "7ee5017a622ed55417477409c7e4eda1"}, {"type": "electric_scooter", "fusion_lon": 0.0, "bike_id": "ecd414d803d4d439b2e7c51ce9d46a69", "is_disabled": 0, "lat": 38.907425333333336, "rental_uris": {"ios": "https://dc.lft.to/lastmile_qr_scan", "android": "https://dc.lft.to/lastmile_qr_scan"}, "is_reserved": 0, "lon": -77.000959, "fusion_lat": 0.0, "name": "ecd414d803d4d439b2e7c51ce9d46a69"}, {"type": "electric_scooter", "fusion_lon": 0.0, "bike_id": "1224d22256db2af8306c10230b5f4e18", "is_disabled": 0, "lat": 38.94211283333333, "rental_uris": {"ios": "https://dc.lft.to/lastmile_qr_scan", "android": "https://dc.lft.to/lastmile_qr_scan"}, "is_reserved": 0, "lon": -77.01350283333333, "fusion_lat": 0.0, "name": "1224d22256db2af8306c10230b5f4e18"}, {"type": "electric_scooter", "fusion_lon": 0.0, "bike_id": "6644c85b9ed1e0d09482a6ade21dfbaf", "is_disabled": 0, "lat": 38.91254333333333, "rental_uris": {"ios": "https://dc.lft.to/lastmile_qr_scan", "android": "https://dc.lft.to/lastmile_qr_scan"}, "is_reserved": 0, "lon": -77.03871183333334, "fusion_lat": 0.0, "name": "6644c85b9ed1e0d09482a6ade21dfbaf"}, {"type": "electric_scooter", "fusion_lon": 0.0, "bike_id": "42b64dcddba1bbacf5bbca16442366c8", "is_disabled": 0, "lat": 38.89439683333333, "rental_uris": {"ios": "https://dc.lft.to/lastmile_qr_scan", "android": "https://dc.lft.to/lastmile_qr_scan"}, "is_reserved": 0, "lon": -77.01075816666666, "fusion_lat": 0.0, "name": "42b64dcddba1bbacf5bbca16442366c8"}, {"type": "electric_scooter", "fusion_lon": 0.0, "bike_id": "0335120fefc4127bfe12a58f50431325", "is_disabled": 0, "lat": 38.92247733333333, "rental_uris": {"ios": "https://dc.lft.to/lastmile_qr_scan", "android": "https://dc.lft.to/lastmile_qr_scan"}, "is_reserved": 0, "lon": -77.01949033333334, "fusion_lat": 0.0, "name": "0335120fefc4127bfe12a58f50431325"}, {"type": "electric_scooter", "fusion_lon": 0.0, "bike_id": "409e33987880f4c3d7b220197219edf1", "is_disabled": 0, "lat": 38.908114166666664, "rental_uris": {"ios": "https://dc.lft.to/lastmile_qr_scan", "android": "https://dc.lft.to/lastmile_qr_scan"}, "is_reserved": 0, "lon": -77.03858833333334, "fusion_lat": 0.0, "name": "409e33987880f4c3d7b220197219edf1"}, {"type": "electric_scooter", "fusion_lon": 0.0, "bike_id": "b038344988663f6a7d3827588d47b8d7", "is_disabled": 0, "lat": 38.884937, "rental_uris": {"ios": "https://dc.lft.to/lastmile_qr_scan", "android": "https://dc.lft.to/lastmile_qr_scan"}, "is_reserved": 0, "lon": -77.007112, "fusion_lat": 0.0, "name": "b038344988663f6a7d3827588d47b8d7"}, {"type": "electric_scooter", "fusion_lon": 0.0, "bike_id": "17982b109ed97d46035563b07724d2d8", "is_disabled": 0, "lat": 38.896573833333335, "rental_uris": {"ios": "https://dc.lft.to/lastmile_qr_scan", "android": "https://dc.lft.to/lastmile_qr_scan"}, "is_reserved": 0, "lon": -77.02730533333333, "fusion_lat": 0.0, "name": "17982b109ed97d46035563b07724d2d8"}, {"type": "electric_scooter", "fusion_lon": 0.0, "bike_id": "a81326d707578580c5a1be6621ba6240", "is_disabled": 0, "lat": 38.899527, "rental_uris": {"ios": "https://dc.lft.to/lastmile_qr_scan", "android": "https://dc.lft.to/lastmile_qr_scan"}, "is_reserved": 0, "lon": -77.04775666666667, "fusion_lat": 0.0, "name": "a81326d707578580c5a1be6621ba6240"}, {"type": "electric_scooter", "fusion_lon": 0.0, "bike_id": "0489182d1da5495aea34d486ed97ad2b", "is_disabled": 0, "lat": 38.896747, "rental_uris": {"ios": "https://dc.lft.to/lastmile_qr_scan", "android": "https://dc.lft.to/lastmile_qr_scan"}, "is_reserved": 0, "lon": -77.00514366666667, "fusion_lat": 0.0, "name": "0489182d1da5495aea34d486ed97ad2b"}, {"type": "electric_bike", "fusion_lon": 0.0, "bike_id": "e1b4956c522776eeacaee2ff22b259ae", "is_disabled": 0, "lat": 38.97253466666667, "rental_uris": {"ios": "https://dc.lft.to/lastmile_qr_scan", "android": "https://dc.lft.to/lastmile_qr_scan"}, "is_reserved": 0, "lon": -76.980621, "fusion_lat": 0.0, "name": "e1b4956c522776eeacaee2ff22b259ae"}, {"type": "electric_scooter", "fusion_lon": 0.0, "bike_id": "b1f6cce9fb67857bc905a6eb8589fda8", "is_disabled": 0, "lat": 38.9234215, "rental_uris": {"ios": "https://dc.lft.to/lastmile_qr_scan", "android": "https://dc.lft.to/lastmile_qr_scan"}, "is_reserved": 0, "lon": -77.05174516666666, "fusion_lat": 0.0, "name": "b1f6cce9fb67857bc905a6eb8589fda8"}, {"type": "electric_scooter", "fusion_lon": 0.0, "bike_id": "942e6a0b2eba7cfd323b4e47553821b3", "is_disabled": 0, "lat": 38.89693416666667, "rental_uris": {"ios": "https://dc.lft.to/lastmile_qr_scan", "android": "https://dc.lft.to/lastmile_qr_scan"}, "is_reserved": 0, "lon": -77.01970783333333, "fusion_lat": 0.0, "name": "942e6a0b2eba7cfd323b4e47553821b3"}, {"type": "electric_scooter", "fusion_lon": 0.0, "bike_id": "ac031dd761245c47f04286b45ee2b47b", "is_disabled": 0, "lat": 38.905833666666666, "rental_uris": {"ios": "https://dc.lft.to/lastmile_qr_scan", "android": "https://dc.lft.to/lastmile_qr_scan"}, "is_reserved": 0, "lon": -77.04375233333333, "fusion_lat": 0.0, "name": "ac031dd761245c47f04286b45ee2b47b"}, {"type": "electric_scooter", "fusion_lon": 0.0, "bike_id": "aab7dfe967108627c121177d3f8ae8c1", "is_disabled": 0, "lat": 38.91221616666667, "rental_uris": {"ios": "https://dc.lft.to/lastmile_qr_scan", "android": "https://dc.lft.to/lastmile_qr_scan"}, "is_reserved": 0, "lon": -77.043461, "fusion_lat": 0.0, "name": "aab7dfe967108627c121177d3f8ae8c1"}, {"type": "electric_scooter", "fusion_lon": 0.0, "bike_id": "f4aab73d637a4e0eda67cc411052d2ce", "is_disabled": 0, "lat": 38.8947585, "rental_uris": {"ios": "https://dc.lft.to/lastmile_qr_scan", "android": "https://dc.lft.to/lastmile_qr_scan"}, "is_reserved": 0, "lon": -77.02172366666667, "fusion_lat": 0.0, "name": "f4aab73d637a4e0eda67cc411052d2ce"}, {"type": "electric_scooter", "fusion_lon": 0.0, "bike_id": "de1d91ee17355866515b57fed62a6d08", "is_disabled": 0, "lat": 38.9182045, "rental_uris": {"ios": "https://dc.lft.to/lastmile_qr_scan", "android": "https://dc.lft.to/lastmile_qr_scan"}, "is_reserved": 0, "lon": -77.03130333333333, "fusion_lat": 0.0, "name": "de1d91ee17355866515b57fed62a6d08"}, {"type": "electric_scooter", "fusion_lon": 0.0, "bike_id": "a1edf86d997a4386cbd11e7c768b8f0c", "is_disabled": 0, "lat": 38.878670166666666, "rental_uris": {"ios": "https://dc.lft.to/lastmile_qr_scan", "android": "https://dc.lft.to/lastmile_qr_scan"}, "is_reserved": 0, "lon": -76.96257333333334, "fusion_lat": 0.0, "name": "a1edf86d997a4386cbd11e7c768b8f0c"}, {"type": "electric_scooter", "fusion_lon": 0.0, "bike_id": "0a93e3d872629e2052a17afed4ce2394", "is_disabled": 0, "lat": 38.919516, "rental_uris": {"ios": "https://dc.lft.to/lastmile_qr_scan", "android": "https://dc.lft.to/lastmile_qr_scan"}, "is_reserved": 0, "lon": -77.01780066666667, "fusion_lat": 0.0, "name": "0a93e3d872629e2052a17afed4ce2394"}, {"type": "electric_scooter", "fusion_lon": 0.0, "bike_id": "66ee36050f7203c80b2a00a55b8a98d9", "is_disabled": 0, "lat": 38.8922415, "rental_uris": {"ios": "https://dc.lft.to/lastmile_qr_scan", "android": "https://dc.lft.to/lastmile_qr_scan"}, "is_reserved": 0, "lon": -77.03215583333333, "fusion_lat": 0.0, "name": "66ee36050f7203c80b2a00a55b8a98d9"}, {"type": "electric_scooter", "fusion_lon": 0.0, "bike_id": "6c5d6ce0036c6a40cdf8d4360659d11a", "is_disabled": 0, "lat": 38.90125316666666, "rental_uris": {"ios": "https://dc.lft.to/lastmile_qr_scan", "android": "https://dc.lft.to/lastmile_qr_scan"}, "is_reserved": 0, "lon": -77.03964383333333, "fusion_lat": 0.0, "name": "6c5d6ce0036c6a40cdf8d4360659d11a"}, {"type": "electric_scooter", "fusion_lon": 0.0, "bike_id": "29c730592d86e26c08456a326f8c1c95", "is_disabled": 0, "lat": 38.896039333333334, "rental_uris": {"ios": "https://dc.lft.to/lastmile_qr_scan", "android": "https://dc.lft.to/lastmile_qr_scan"}, "is_reserved": 0, "lon": -77.0194225, "fusion_lat": 0.0, "name": "29c730592d86e26c08456a326f8c1c95"}, {"type": "electric_scooter", "fusion_lon": 0.0, "bike_id": "4cae9a26ff640003505abaae36155f6b", "is_disabled": 0, "lat": 38.892382833333336, "rental_uris": {"ios": "https://dc.lft.to/lastmile_qr_scan", "android": "https://dc.lft.to/lastmile_qr_scan"}, "is_reserved": 0, "lon": -77.03211666666667, "fusion_lat": 0.0, "name": "4cae9a26ff640003505abaae36155f6b"}, {"type": "electric_scooter", "fusion_lon": 0.0, "bike_id": "442e4aa020455b04397befe3ce5b87e8", "is_disabled": 0, "lat": 38.934697666666665, "rental_uris": {"ios": "https://dc.lft.to/lastmile_qr_scan", "android": "https://dc.lft.to/lastmile_qr_scan"}, "is_reserved": 0, "lon": -77.0728005, "fusion_lat": 0.0, "name": "442e4aa020455b04397befe3ce5b87e8"}, {"type": "electric_scooter", "fusion_lon": 0.0, "bike_id": "b06cec456b03beb97f8471cf4cc3098c", "is_disabled": 0, "lat": 38.903327166666664, "rental_uris": {"ios": "https://dc.lft.to/lastmile_qr_scan", "android": "https://dc.lft.to/lastmile_qr_scan"}, "is_reserved": 0, "lon": -76.92954216666666, "fusion_lat": 0.0, "name": "b06cec456b03beb97f8471cf4cc3098c"}, {"type": "electric_scooter", "fusion_lon": 0.0, "bike_id": "df64471029d94a90fd66e417eaba7bb1", "is_disabled": 0, "lat": 38.89834483333333, "rental_uris": {"ios": "https://dc.lft.to/lastmile_qr_scan", "android": "https://dc.lft.to/lastmile_qr_scan"}, "is_reserved": 0, "lon": -76.94633733333333, "fusion_lat": 0.0, "name": "df64471029d94a90fd66e417eaba7bb1"}, {"type": "electric_scooter", "fusion_lon": 0.0, "bike_id": "f0ca3d1bca4caa9d07d9b9510678fe1e", "is_disabled": 0, "lat": 38.931174166666665, "rental_uris": {"ios": "https://dc.lft.to/lastmile_qr_scan", "android": "https://dc.lft.to/lastmile_qr_scan"}, "is_reserved": 0, "lon": -77.05611866666666, "fusion_lat": 0.0, "name": "f0ca3d1bca4caa9d07d9b9510678fe1e"}, {"type": "electric_scooter", "fusion_lon": 0.0, "bike_id": "daec4d8e86d7f8f280cf5d327d8b48db", "is_disabled": 0, "lat": 38.92153416666667, "rental_uris": {"ios": "https://dc.lft.to/lastmile_qr_scan", "android": "https://dc.lft.to/lastmile_qr_scan"}, "is_reserved": 0, "lon": -77.03280466666666, "fusion_lat": 0.0, "name": "daec4d8e86d7f8f280cf5d327d8b48db"}, {"type": "electric_scooter", "fusion_lon": 0.0, "bike_id": "6749a2728c1073dcbc203f9bb9efeeed", "is_disabled": 0, "lat": 38.924294, "rental_uris": {"ios": "https://dc.lft.to/lastmile_qr_scan", "android": "https://dc.lft.to/lastmile_qr_scan"}, "is_reserved": 0, "lon": -77.02033416666667, "fusion_lat": 0.0, "name": "6749a2728c1073dcbc203f9bb9efeeed"}, {"type": "electric_scooter", "fusion_lon": 0.0, "bike_id": "1bc8cd074def044f9dbb446d15a2ef40", "is_disabled": 0, "lat": 38.923306, "rental_uris": {"ios": "https://dc.lft.to/lastmile_qr_scan", "android": "https://dc.lft.to/lastmile_qr_scan"}, "is_reserved": 0, "lon": -77.01955416666667, "fusion_lat": 0.0, "name": "1bc8cd074def044f9dbb446d15a2ef40"}, {"type": "electric_scooter", "fusion_lon": 0.0, "bike_id": "ba2d316b0ea1af5d5523712b0f481153", "is_disabled": 0, "lat": 38.912637, "rental_uris": {"ios": "https://dc.lft.to/lastmile_qr_scan", "android": "https://dc.lft.to/lastmile_qr_scan"}, "is_reserved": 0, "lon": -77.0415655, "fusion_lat": 0.0, "name": "ba2d316b0ea1af5d5523712b0f481153"}, {"type": "electric_scooter", "fusion_lon": 0.0, "bike_id": "5f2e70822dd3cab5893a81c3e1c93fc0", "is_disabled": 0, "lat": 38.90564166666667, "rental_uris": {"ios": "https://dc.lft.to/lastmile_qr_scan", "android": "https://dc.lft.to/lastmile_qr_scan"}, "is_reserved": 0, "lon": -77.04608083333333, "fusion_lat": 0.0, "name": "5f2e70822dd3cab5893a81c3e1c93fc0"}, {"type": "electric_scooter", "fusion_lon": 0.0, "bike_id": "321c66a866218c83cd49d604b5c8d900", "is_disabled": 0, "lat": 38.914223, "rental_uris": {"ios": "https://dc.lft.to/lastmile_qr_scan", "android": "https://dc.lft.to/lastmile_qr_scan"}, "is_reserved": 0, "lon": -77.0390315, "fusion_lat": 0.0, "name": "321c66a866218c83cd49d604b5c8d900"}, {"type": "electric_scooter", "fusion_lon": 0.0, "bike_id": "ff9396a91a08f318cdd285b03fbd893d", "is_disabled": 0, "lat": 38.924975333333336, "rental_uris": {"ios": "https://dc.lft.to/lastmile_qr_scan", "android": "https://dc.lft.to/lastmile_qr_scan"}, "is_reserved": 0, "lon": -77.0240185, "fusion_lat": 0.0, "name": "ff9396a91a08f318cdd285b03fbd893d"}, {"type": "electric_scooter", "fusion_lon": 0.0, "bike_id": "48779a5e4ee8753d7b91ae256749acdc", "is_disabled": 0, "lat": 38.874695833333334, "rental_uris": {"ios": "https://dc.lft.to/lastmile_qr_scan", "android": "https://dc.lft.to/lastmile_qr_scan"}, "is_reserved": 0, "lon": -77.005525, "fusion_lat": 0.0, "name": "48779a5e4ee8753d7b91ae256749acdc"}, {"type": "electric_scooter", "fusion_lon": 0.0, "bike_id": "75feafd2723ca07dff7cafa984057478", "is_disabled": 0, "lat": 38.92132483333334, "rental_uris": {"ios": "https://dc.lft.to/lastmile_qr_scan", "android": "https://dc.lft.to/lastmile_qr_scan"}, "is_reserved": 0, "lon": -77.01856933333333, "fusion_lat": 0.0, "name": "75feafd2723ca07dff7cafa984057478"}, {"type": "electric_bike", "fusion_lon": 0.0, "bike_id": "ade40a93da0108d23f695c016d99fc3d", "is_disabled": 0, "lat": 38.946341, "rental_uris": {"ios": "https://dc.lft.to/lastmile_qr_scan", "android": "https://dc.lft.to/lastmile_qr_scan"}, "is_reserved": 0, "lon": -76.99311016666667, "fusion_lat": 0.0, "name": "ade40a93da0108d23f695c016d99fc3d"}, {"type": "electric_scooter", "fusion_lon": 0.0, "bike_id": "18ec38250bac8616974bf90ca1e0488d", "is_disabled": 0, "lat": 38.904106166666665, "rental_uris": {"ios": "https://dc.lft.to/lastmile_qr_scan", "android": "https://dc.lft.to/lastmile_qr_scan"}, "is_reserved": 0, "lon": -76.97330816666667, "fusion_lat": 0.0, "name": "18ec38250bac8616974bf90ca1e0488d"}, {"type": "electric_scooter", "fusion_lon": 0.0, "bike_id": "f98ba6b579c168daba16e272b3dd16af", "is_disabled": 0, "lat": 38.92708966666667, "rental_uris": {"ios": "https://dc.lft.to/lastmile_qr_scan", "android": "https://dc.lft.to/lastmile_qr_scan"}, "is_reserved": 0, "lon": -77.02106833333333, "fusion_lat": 0.0, "name": "f98ba6b579c168daba16e272b3dd16af"}, {"type": "electric_scooter", "fusion_lon": 0.0, "bike_id": "b14ad281009320fecd513ac5d4fd5696", "is_disabled": 0, "lat": 38.89268116666667, "rental_uris": {"ios": "https://dc.lft.to/lastmile_qr_scan", "android": "https://dc.lft.to/lastmile_qr_scan"}, "is_reserved": 0, "lon": -77.00347133333334, "fusion_lat": 0.0, "name": "b14ad281009320fecd513ac5d4fd5696"}, {"type": "electric_scooter", "fusion_lon": 0.0, "bike_id": "b9dcfe4f895a9844900d40a88ab39086", "is_disabled": 0, "lat": 38.907323833333336, "rental_uris": {"ios": "https://dc.lft.to/lastmile_qr_scan", "android": "https://dc.lft.to/lastmile_qr_scan"}, "is_reserved": 0, "lon": -76.979812, "fusion_lat": 0.0, "name": "b9dcfe4f895a9844900d40a88ab39086"}, {"type": "electric_scooter", "fusion_lon": 0.0, "bike_id": "a9f03efd0c865e7ab395a6f88af8f615", "is_disabled": 0, "lat": 38.907378, "rental_uris": {"ios": "https://dc.lft.to/lastmile_qr_scan", "android": "https://dc.lft.to/lastmile_qr_scan"}, "is_reserved": 0, "lon": -77.0344725, "fusion_lat": 0.0, "name": "a9f03efd0c865e7ab395a6f88af8f615"}, {"type": "electric_scooter", "fusion_lon": 0.0, "bike_id": "8e0cd3ac2d322fc657462b491c42705f", "is_disabled": 0, "lat": 38.92067566666667, "rental_uris": {"ios": "https://dc.lft.to/lastmile_qr_scan", "android": "https://dc.lft.to/lastmile_qr_scan"}, "is_reserved": 0, "lon": -77.02301016666667, "fusion_lat": 0.0, "name": "8e0cd3ac2d322fc657462b491c42705f"}, {"type": "electric_bike", "fusion_lon": 0.0, "bike_id": "a43da067d44f92cf0765e1eaa92d816e", "is_disabled": 0, "lat": 38.920010166666664, "rental_uris": {"ios": "https://dc.lft.to/lastmile_qr_scan", "android": "https://dc.lft.to/lastmile_qr_scan"}, "is_reserved": 0, "lon": -76.95816683333334, "fusion_lat": 0.0, "name": "a43da067d44f92cf0765e1eaa92d816e"}, {"type": "electric_scooter", "fusion_lon": 0.0, "bike_id": "0f91c13046dd09373c21088be368c1cc", "is_disabled": 0, "lat": 38.906006, "rental_uris": {"ios": "https://dc.lft.to/lastmile_qr_scan", "android": "https://dc.lft.to/lastmile_qr_scan"}, "is_reserved": 0, "lon": -77.04712566666667, "fusion_lat": 0.0, "name": "0f91c13046dd09373c21088be368c1cc"}, {"type": "electric_scooter", "fusion_lon": 0.0, "bike_id": "b1efcb48783282d437b93f4f071cd83c", "is_disabled": 0, "lat": 38.887449833333335, "rental_uris": {"ios": "https://dc.lft.to/lastmile_qr_scan", "android": "https://dc.lft.to/lastmile_qr_scan"}, "is_reserved": 0, "lon": -77.02571733333333, "fusion_lat": 0.0, "name": "b1efcb48783282d437b93f4f071cd83c"}, {"type": "electric_scooter", "fusion_lon": 0.0, "bike_id": "2a42e158d1fc98e8b8e90be1cb2d983f", "is_disabled": 0, "lat": 38.892285333333334, "rental_uris": {"ios": "https://dc.lft.to/lastmile_qr_scan", "android": "https://dc.lft.to/lastmile_qr_scan"}, "is_reserved": 0, "lon": -77.0282605, "fusion_lat": 0.0, "name": "2a42e158d1fc98e8b8e90be1cb2d983f"}, {"type": "electric_bike", "fusion_lon": 0.0, "bike_id": "50a600e36a197ca7952b39cafbfba991", "is_disabled": 0, "lat": 38.84279133333333, "rental_uris": {"ios": "https://dc.lft.to/lastmile_qr_scan", "android": "https://dc.lft.to/lastmile_qr_scan"}, "is_reserved": 0, "lon": -76.98837766666666, "fusion_lat": 0.0, "name": "50a600e36a197ca7952b39cafbfba991"}, {"type": "electric_scooter", "fusion_lon": 0.0, "bike_id": "07d585522474a7235fd93a901fc08f83", "is_disabled": 0, "lat": 38.913462, "rental_uris": {"ios": "https://dc.lft.to/lastmile_qr_scan", "android": "https://dc.lft.to/lastmile_qr_scan"}, "is_reserved": 0, "lon": -77.06409666666667, "fusion_lat": 0.0, "name": "07d585522474a7235fd93a901fc08f83"}, {"type": "electric_scooter", "fusion_lon": 0.0, "bike_id": "c29b68e3099e9764fc568013be400d77", "is_disabled": 0, "lat": 38.91748116666667, "rental_uris": {"ios": "https://dc.lft.to/lastmile_qr_scan", "android": "https://dc.lft.to/lastmile_qr_scan"}, "is_reserved": 0, "lon": -77.02820433333333, "fusion_lat": 0.0, "name": "c29b68e3099e9764fc568013be400d77"}, {"type": "electric_scooter", "fusion_lon": 0.0, "bike_id": "aa574614a2946ef2c2567878d3092166", "is_disabled": 0, "lat": 38.93736216666667, "rental_uris": {"ios": "https://dc.lft.to/lastmile_qr_scan", "android": "https://dc.lft.to/lastmile_qr_scan"}, "is_reserved": 0, "lon": -77.03265233333333, "fusion_lat": 0.0, "name": "aa574614a2946ef2c2567878d3092166"}, {"type": "electric_bike", "fusion_lon": 0.0, "bike_id": "c927585b013cd8fcd4893c53ffe66296", "is_disabled": 0, "lat": 38.799868000000004, "rental_uris": {"ios": "https://dc.lft.to/lastmile_qr_scan", "android": "https://dc.lft.to/lastmile_qr_scan"}, "is_reserved": 0, "lon": -77.12976333333333, "fusion_lat": 0.0, "name": "c927585b013cd8fcd4893c53ffe66296"}, {"type": "electric_scooter", "fusion_lon": 0.0, "bike_id": "73ceaca6a39b05758c137dfa5fc37648", "is_disabled": 0, "lat": 38.927342333333335, "rental_uris": {"ios": "https://dc.lft.to/lastmile_qr_scan", "android": "https://dc.lft.to/lastmile_qr_scan"}, "is_reserved": 0, "lon": -77.05250916666667, "fusion_lat": 0.0, "name": "73ceaca6a39b05758c137dfa5fc37648"}, {"type": "electric_scooter", "fusion_lon": 0.0, "bike_id": "b8ec897fb86d2eaf80057f92aa2fa808", "is_disabled": 0, "lat": 38.927643833333335, "rental_uris": {"ios": "https://dc.lft.to/lastmile_qr_scan", "android": "https://dc.lft.to/lastmile_qr_scan"}, "is_reserved": 0, "lon": -77.03243566666667, "fusion_lat": 0.0, "name": "b8ec897fb86d2eaf80057f92aa2fa808"}, {"type": "electric_bike", "fusion_lon": 0.0, "bike_id": "59d71b592c2c2e55325dc3092b65a27d", "is_disabled": 0, "lat": 38.9804995, "rental_uris": {"ios": "https://dc.lft.to/lastmile_qr_scan", "android": "https://dc.lft.to/lastmile_qr_scan"}, "is_reserved": 0, "lon": -76.95789916666666, "fusion_lat": 0.0, "name": "59d71b592c2c2e55325dc3092b65a27d"}, {"type": "electric_scooter", "fusion_lon": 0.0, "bike_id": "c7e86080a420fa7c87dd3ec00dafbf75", "is_disabled": 0, "lat": 38.94197783333333, "rental_uris": {"ios": "https://dc.lft.to/lastmile_qr_scan", "android": "https://dc.lft.to/lastmile_qr_scan"}, "is_reserved": 0, "lon": -77.0252385, "fusion_lat": 0.0, "name": "c7e86080a420fa7c87dd3ec00dafbf75"}, {"type": "electric_scooter", "fusion_lon": 0.0, "bike_id": "8ad3d8233c1eb4d5b8b00a5356ecdbff", "is_disabled": 0, "lat": 38.90321016666667, "rental_uris": {"ios": "https://dc.lft.to/lastmile_qr_scan", "android": "https://dc.lft.to/lastmile_qr_scan"}, "is_reserved": 0, "lon": -77.026506, "fusion_lat": 0.0, "name": "8ad3d8233c1eb4d5b8b00a5356ecdbff"}, {"type": "electric_scooter", "fusion_lon": 0.0, "bike_id": "e8ea5a4ee332f73fc6f0a9f17ad185ae", "is_disabled": 0, "lat": 38.961143666666665, "rental_uris": {"ios": "https://dc.lft.to/lastmile_qr_scan", "android": "https://dc.lft.to/lastmile_qr_scan"}, "is_reserved": 0, "lon": -77.03329, "fusion_lat": 0.0, "name": "e8ea5a4ee332f73fc6f0a9f17ad185ae"}, {"type": "electric_scooter", "fusion_lon": 0.0, "bike_id": "1fcdd052264a7b90c1f9b1d70ed6e300", "is_disabled": 0, "lat": 38.95633216666667, "rental_uris": {"ios": "https://dc.lft.to/lastmile_qr_scan", "android": "https://dc.lft.to/lastmile_qr_scan"}, "is_reserved": 0, "lon": -77.07017216666667, "fusion_lat": 0.0, "name": "1fcdd052264a7b90c1f9b1d70ed6e300"}, {"type": "electric_scooter", "fusion_lon": 0.0, "bike_id": "9be0cd976a79d7a48a87f40fd7d937db", "is_disabled": 0, "lat": 38.9104605, "rental_uris": {"ios": "https://dc.lft.to/lastmile_qr_scan", "android": "https://dc.lft.to/lastmile_qr_scan"}, "is_reserved": 0, "lon": -77.07537316666667, "fusion_lat": 0.0, "name": "9be0cd976a79d7a48a87f40fd7d937db"}, {"type": "electric_scooter", "fusion_lon": 0.0, "bike_id": "93a0cdffc5c2f2dc1c4171ad82941f00", "is_disabled": 0, "lat": 38.916138333333336, "rental_uris": {"ios": "https://dc.lft.to/lastmile_qr_scan", "android": "https://dc.lft.to/lastmile_qr_scan"}, "is_reserved": 0, "lon": -77.0321065, "fusion_lat": 0.0, "name": "93a0cdffc5c2f2dc1c4171ad82941f00"}, {"type": "electric_scooter", "fusion_lon": 0.0, "bike_id": "a2cc577ad784734ee87f37df5959427f", "is_disabled": 0, "lat": 38.96391333333333, "rental_uris": {"ios": "https://dc.lft.to/lastmile_qr_scan", "android": "https://dc.lft.to/lastmile_qr_scan"}, "is_reserved": 0, "lon": -77.02592216666666, "fusion_lat": 0.0, "name": "a2cc577ad784734ee87f37df5959427f"}, {"type": "electric_scooter", "fusion_lon": 0.0, "bike_id": "d181c9a617ac62d8ba79f7255443634f", "is_disabled": 0, "lat": 38.87637133333333, "rental_uris": {"ios": "https://dc.lft.to/lastmile_qr_scan", "android": "https://dc.lft.to/lastmile_qr_scan"}, "is_reserved": 0, "lon": -76.99797133333334, "fusion_lat": 0.0, "name": "d181c9a617ac62d8ba79f7255443634f"}, {"type": "electric_scooter", "fusion_lon": 0.0, "bike_id": "2a1dc613c1fad187c34e0fb4f673744e", "is_disabled": 0, "lat": 38.922666, "rental_uris": {"ios": "https://dc.lft.to/lastmile_qr_scan", "android": "https://dc.lft.to/lastmile_qr_scan"}, "is_reserved": 0, "lon": -77.02239466666667, "fusion_lat": 0.0, "name": "2a1dc613c1fad187c34e0fb4f673744e"}, {"type": "electric_scooter", "fusion_lon": 0.0, "bike_id": "fc827b024459822b67b922924327f362", "is_disabled": 0, "lat": 38.961338, "rental_uris": {"ios": "https://dc.lft.to/lastmile_qr_scan", "android": "https://dc.lft.to/lastmile_qr_scan"}, "is_reserved": 0, "lon": -77.02787383333333, "fusion_lat": 0.0, "name": "fc827b024459822b67b922924327f362"}, {"type": "electric_scooter", "fusion_lon": 0.0, "bike_id": "99318e9f2fc8eb61808bd2d0482ca5ec", "is_disabled": 0, "lat": 38.875352166666666, "rental_uris": {"ios": "https://dc.lft.to/lastmile_qr_scan", "android": "https://dc.lft.to/lastmile_qr_scan"}, "is_reserved": 0, "lon": -77.00041516666667, "fusion_lat": 0.0, "name": "99318e9f2fc8eb61808bd2d0482ca5ec"}, {"type": "electric_scooter", "fusion_lon": 0.0, "bike_id": "3452c2fc349829bbda892597401031ef", "is_disabled": 0, "lat": 38.9038195, "rental_uris": {"ios": "https://dc.lft.to/lastmile_qr_scan", "android": "https://dc.lft.to/lastmile_qr_scan"}, "is_reserved": 0, "lon": -77.001904, "fusion_lat": 0.0, "name": "3452c2fc349829bbda892597401031ef"}, {"type": "electric_scooter", "fusion_lon": 0.0, "bike_id": "9edf3947665c6a983283c5254eaffecd", "is_disabled": 0, "lat": 38.928478, "rental_uris": {"ios": "https://dc.lft.to/lastmile_qr_scan", "android": "https://dc.lft.to/lastmile_qr_scan"}, "is_reserved": 0, "lon": -77.01587, "fusion_lat": 0.0, "name": "9edf3947665c6a983283c5254eaffecd"},