{"data": {"bikes": [{"rental_uris": {"ios": "https://dc.lft.to/lastmile_qr_scan", "android": "https://dc.lft.to/lastmile_qr_scan"}, "fusion_lon": 0.0, "type": "electric_bike", "bike_id": "a31adf7d1df9bcc56df05317a731a55b", "name": "a31adf7d1df9bcc56df05317a731a55b", "lat": 38.8653575, "is_disabled": 0, "lon": -77.12819266666666, "fusion_lat": 0.0, "is_reserved": 0}, {"rental_uris": {"ios": "https://dc.lft.to/lastmile_qr_scan", "android": "https://dc.lft.to/lastmile_qr_scan"}, "fusion_lon": 0.0, "type": "electric_scooter", "bike_id": "7e5d36c46a2d3cb2d312313397d8b4c2", "name": "7e5d36c46a2d3cb2d312313397d8b4c2", "lat": 38.92264866666667, "is_disabled": 0, "lon": -77.04226283333334, "fusion_lat": 0.0, "is_reserved": 0}, {"rental_uris": {"ios": "https://dc.lft.to/lastmile_qr_scan", "android": "https://dc.lft.to/lastmile_qr_scan"}, "fusion_lon": 0.0, "type": "electric_bike", "bike_id": "41fd4f8d4b59c97b3adcc0311e17a170", "name": "41fd4f8d4b59c97b3adcc0311e17a170", "lat": 38.8244805, "is_disabled": 0, "lon": -77.07040683333334, "fusion_lat": 0.0, "is_reserved": 0}, {"rental_uris": {"ios": "https://dc.lft.to/lastmile_qr_scan", "android": "https://dc.lft.to/lastmile_qr_scan"}, "fusion_lon": 0.0, "type": "electric_scooter", "bike_id": "457f8b102e378095f86a3c2cbbee4bb4", "name": "457f8b102e378095f86a3c2cbbee4bb4", "lat": 38.892211333333336, "is_disabled": 0, "lon": -77.02268716666667, "fusion_lat": 0.0, "is_reserved": 0}, {"rental_uris": {"ios": "https://dc.lft.to/lastmile_qr_scan", "android": "https://dc.lft.to/lastmile_qr_scan"}, "fusion_lon": 0.0, "type": "electric_scooter", "bike_id": "bcd35af5fee04e9c32a27675dc989cac", "name": "bcd35af5fee04e9c32a27675dc989cac", "lat": 38.9189665, "is_disabled": 0, "lon": -77.00310266666666, "fusion_lat": 0.0, "is_reserved": 0}, {"rental_uris": {"ios": "https://dc.lft.to/lastmile_qr_scan", "android": "https://dc.lft.to/lastmile_qr_scan"}, "fusion_lon": 0.0, "type": "electric_scooter", "bike_id": "b49ca8c2a6596629b555999f19727746", "name": "b49ca8c2a6596629b555999f19727746", "lat": 38.92275766666667, "is_disabled": 0, "lon": -77.044654, "fusion_lat": 0.0, "is_reserved": 0}, {"rental_uris": {"ios": "https://dc.lft.to/lastmile_qr_scan", "android": "https://dc.lft.to/lastmile_qr_scan"}, "fusion_lon": 0.0, "type": "electric_scooter", "bike_id": "e0b1ae217fcb09aa9122a51d4ac3ae3b", "name": "e0b1ae217fcb09aa9122a51d4ac3ae3b", "lat": 38.863589, "is_disabled": 0, "lon": -76.99058316666667, "fusion_lat": 0.0, "is_reserved": 0}, {"rental_uris": {"ios": "https://dc.lft.to/lastmile_qr_scan", "android": "https://dc.lft.to/lastmile_qr_scan"}, "fusion_lon": 0.0, "type": "electric_scooter", "bike_id": "4534b03b9e5f90403572868228b0fbb7", "name": "4534b03b9e5f90403572868228b0fbb7", "lat": 38.935975666666664, "is_disabled": 0, "lon": -77.03759516666666, "fusion_lat": 0.0, "is_reserved": 0}, {"rental_uris": {"ios": "https://dc.lft.to/lastmile_qr_scan", "android": "https://dc.lft.to/lastmile_qr_scan"}, "fusion_lon": 0.0, "type": "electric_scooter", "bike_id": "6bc39515ee6ab139a23b909ab1389b63", "name": "6bc39515ee6ab139a23b909ab1389b63", "lat": 38.904773, "is_disabled": 0, "lon": -77.03588316666666, "fusion_lat": 0.0, "is_reserved": 0}, {"rental_uris": {"ios": "https://dc.lft.to/lastmile_qr_scan", "android": "https://dc.lft.to/lastmile_qr_scan"}, "fusion_lon": 0.0, "type": "electric_scooter", "bike_id": "d81fd2cf14d4e81ea99a896064795119", "name": "d81fd2cf14d4e81ea99a896064795119", "lat": 38.89741466666667, "is_disabled": 0, "lon": -77.02106533333334, "fusion_lat": 0.0, "is_reserved": 0}, {"rental_uris": {"ios": "https://dc.lft.to/lastmile_qr_scan", "android": "https://dc.lft.to/lastmile_qr_scan"}, "fusion_lon": 0.0, "type": "electric_bike", "bike_id": "a0b3880d520f9897b146395ceeb4e9ea", "name": "a0b3880d520f9897b146395ceeb4e9ea", "lat": 38.94577433333333, "is_disabled": 0, "lon": -76.98774866666666, "fusion_lat": 0.0, "is_reserved": 0}, {"rental_uris": {"ios": "https://dc.lft.to/lastmile_qr_scan", "android": "https://dc.lft.to/lastmile_qr_scan"}, "fusion_lon": 0.0, "type": "electric_scooter", "bike_id": "67c6b0390b38e9308805fce0c6d846f8", "name": "67c6b0390b38e9308805fce0c6d846f8", "lat": 38.91685783333333, "is_disabled": 0, "lon": -77.037706, "fusion_lat": 0.0, "is_reserved": 0}, {"rental_uris": {"ios": "https://dc.lft.to/lastmile_qr_scan", "android": "https://dc.lft.to/lastmile_qr_scan"}, "fusion_lon": 0.0, "type": "electric_scooter", "bike_id": "b0dbd508e8835d6a3c831e36d4c001f3", "name": "b0dbd508e8835d6a3c831e36d4c001f3", "lat": 38.90064233333333, "is_disabled": 0, "lon": -77.048869, "fusion_lat": 0.0, "is_reserved": 0}, {"rental_uris": {"ios": "https://dc.lft.to/lastmile_qr_scan", "android": "https://dc.lft.to/lastmile_qr_scan"}, "fusion_lon": 0.0, "type": "electric_scooter", "bike_id": "e2ddba05492572458b2ae5482d87522f", "name": "e2ddba05492572458b2ae5482d87522f", "lat": 38.915827, "is_disabled": 0, "lon": -77.05007316666666, "fusion_lat": 0.0, "is_reserved": 0}, {"rental_uris": {"ios": "https://dc.lft.to/lastmile_qr_scan", "android": "https://dc.lft.to/lastmile_qr_scan"}, "fusion_lon": 0.0, "type": "electric_scooter", "bike_id": "a04208cb881dc6af6daa1deb1588dffa", "name": "a04208cb881dc6af6daa1deb1588dffa", "lat": 38.90268916666667, "is_disabled": 0, "lon": -77.03837, "fusion_lat": 0.0, "is_reserved": 0}, {"rental_uris": {"ios": "https://dc.lft.to/lastmile_qr_scan", "android": "https://dc.lft.to/lastmile_qr_scan"}, "fusion_lon": 0.0, "type": "electric_scooter", "bike_id": "30be30a1d34191ab821c0884f0d432f1", "name": "30be30a1d34191ab821c0884f0d432f1", "lat": 38.931699, "is_disabled": 0, "lon": -77.03636316666666, "fusion_lat": 0.0, "is_reserved": 0}, {"rental_uris": {"ios": "https://dc.lft.to/lastmile_qr_scan", "android": "https://dc.lft.to/lastmile_qr_scan"}, "fusion_lon": 0.0, "type": "electric_scooter", "bike_id": "d81c34bc384dff3da6fe0f8a2c041f37", "name": "d81c34bc384dff3da6fe0f8a2c041f37", "lat": 38.887961, "is_disabled": 0, "lon": -76.93361, "fusion_lat": 0.0, "is_reserved": 0}, {"rental_uris": {"ios": "https://dc.lft.to/lastmile_qr_scan", "android": "https://dc.lft.to/lastmile_qr_scan"}, "fusion_lon": 0.0, "type": "electric_scooter", "bike_id": "13c961f1ed141995ba965a8b9f2f7bc7", "name": "13c961f1ed141995ba965a8b9f2f7bc7", "lat": 38.846189833333334, "is_disabled": 0, "lon": -76.99631566666666, "fusion_lat": 0.0, "is_reserved": 0}, {"rental_uris": {"ios": "https://dc.lft.to/lastmile_qr_scan", "android": "https://dc.lft.to/lastmile_qr_scan"}, "fusion_lon": 0.0, "type": "electric_scooter", "bike_id": "7333a785194f83db330591daa61eb4dd", "name": "7333a785194f83db330591daa61eb4dd", "lat": 38.87398783333333, "is_disabled": 0, "lon": -77.00203666666667, "fusion_lat": 0.0, "is_reserved": 0}, {"rental_uris": {"ios": "https://dc.lft.to/lastmile_qr_scan", "android": "https://dc.lft.to/lastmile_qr_scan"}, "fusion_lon": 0.0, "type": "electric_scooter", "bike_id": "54ba22ea19da880f8260b8b4dac24e03", "name": "54ba22ea19da880f8260b8b4dac24e03", "lat": 38.9044985, "is_disabled": 0, "lon": -77.03456316666667, "fusion_lat": 0.0, "is_reserved": 0}, {"rental_uris": {"ios": "https://dc.lft.to/lastmile_qr_scan", "android": "https://dc.lft.to/lastmile_qr_scan"}, "fusion_lon": 0.0, "type": "electric_scooter", "bike_id": "a77056019cdf608cb970a7173b4c1441", "name": "a77056019cdf608cb970a7173b4c1441", "lat": 38.89218533333333, "is_disabled": 0, "lon": -77.03180666666667, "fusion_lat": 0.0, "is_reserved": 0}, {"rental_uris": {"ios": "https://dc.lft.to/lastmile_qr_scan", "android": "https://dc.lft.to/lastmile_qr_scan"}, "fusion_lon": 0.0, "type": "electric_bike", "bike_id": "e7249b45af7d431b7aa406d0b09d2ed7", "name": "e7249b45af7d431b7aa406d0b09d2ed7", "lat": 38.936396333333334, "is_disabled": 0, "lon": -76.95456433333334, "fusion_lat": 0.0, "is_reserved": 0}, {"rental_uris": {"ios": "https://dc.lft.to/lastmile_qr_scan", "android": "https://dc.lft.to/lastmile_qr_scan"}, "fusion_lon": 0.0, "type": "electric_scooter", "bike_id": "8c38b36e810b3aa6e7a21f994fcce008", "name": "8c38b36e810b3aa6e7a21f994fcce008", "lat": 38.91018, "is_disabled": 0, "lon": -77.03851683333333, "fusion_lat": 0.0, "is_reserved": 0}, {"rental_uris": {"ios": "https://dc.lft.to/lastmile_qr_scan", "android": "https://dc.lft.to/lastmile_qr_scan"}, "fusion_lon": 0.0, "type": "electric_scooter", "bike_id": "8fda47862ca50aaefea16601bccd6647", "name": "8fda47862ca50aaefea16601bccd6647", "lat": 38.92611433333333, "is_disabled": 0, "lon": -77.02161883333333, "fusion_lat": 0.0, "is_reserved": 0}, {"rental_uris": {"ios": "https://dc.lft.to/lastmile_qr_scan", "android": "https://dc.lft.to/lastmile_qr_scan"}, "fusion_lon": 0.0, "type": "electric_scooter", "bike_id": "1b1097a1f64c78161fe1fc4e2f5c6b01", "name": "1b1097a1f64c78161fe1fc4e2f5c6b01", "lat": 38.88610533333333, "is_disabled": 0, "lon": -76.99502150000001, "fusion_lat": 0.0, "is_reserved": 0}, {"rental_uris": {"ios": "https://dc.lft.to/lastmile_qr_scan", "android": "https://dc.lft.to/lastmile_qr_scan"}, "fusion_lon": 0.0, "type": "electric_scooter", "bike_id": "adbb721aca9b61717b0519286a28ad5b", "name": "adbb721aca9b61717b0519286a28ad5b", "lat": 38.901373166666666, "is_disabled": 0, "lon": -77.0438455, "fusion_lat": 0.0, "is_reserved": 0}, {"rental_uris": {"ios": "https://dc.lft.to/lastmile_qr_scan", "android": "https://dc.lft.to/lastmile_qr_scan"}, "fusion_lon": 0.0, "type": "electric_bike", "bike_id": "63ef6d378b35afe417d4870673373cb5", "name": "63ef6d378b35afe417d4870673373cb5", "lat": 38.93503333333334, "is_disabled": 0, "lon": -76.9495425, "fusion_lat": 0.0, "is_reserved": 0}, {"rental_uris": {"ios": "https://dc.lft.to/lastmile_qr_scan", "android": "https://dc.lft.to/lastmile_qr_scan"}, "fusion_lon": 0.0, "type": "electric_scooter", "bike_id": "9e24770c66c7a95bdbd42f32b8767631", "name": "9e24770c66c7a95bdbd42f32b8767631", "lat": 38.915669666666666, "is_disabled": 0, "lon": -77.04173133333333, "fusion_lat": 0.0, "is_reserved": 0}, {"rental_uris": {"ios": "https://dc.lft.to/lastmile_qr_scan", "android": "https://dc.lft.to/lastmile_qr_scan"}, "fusion_lon": 0.0, "type": "electric_scooter", "bike_id": "a123b6ec5856cf659e2ad5553a1f384f", "name": "a123b6ec5856cf659e2ad5553a1f384f", "lat": 38.905448666666665, "is_disabled": 0, "lon": -77.04095033333333, "fusion_lat": 0.0, "is_reserved": 0}, {"rental_uris": {"ios": "https://dc.lft.to/lastmile_qr_scan", "android": "https://dc.lft.to/lastmile_qr_scan"}, "fusion_lon": 0.0, "type": "electric_scooter", "bike_id": "613a8ab5963f8c5f058f399e5eac192e", "name": "613a8ab5963f8c5f058f399e5eac192e", "lat": 38.916664, "is_disabled": 0, "lon": -77.02273433333333, "fusion_lat": 0.0, "is_reserved": 0}, {"rental_uris": {"ios": "https://dc.lft.to/lastmile_qr_scan", "android": "https://dc.lft.to/lastmile_qr_scan"}, "fusion_lon": 0.0, "type": "electric_scooter", "bike_id": "ddaf8f9b0c505d2f7a165f05f0afba26", "name": "ddaf8f9b0c505d2f7a165f05f0afba26", "lat": 38.902430833333334, "is_disabled": 0, "lon": -76.98966816666666, "fusion_lat": 0.0, "is_reserved": 0}, {"rental_uris": {"ios": "https://dc.lft.to/lastmile_qr_scan", "android": "https://dc.lft.to/lastmile_qr_scan"}, "fusion_lon": 0.0, "type": "electric_scooter", "bike_id": "1efb3a8207ebda4b0b79e5b8f5b5a225", "name": "1efb3a8207ebda4b0b79e5b8f5b5a225", "lat": 38.906176333333335, "is_disabled": 0, "lon": -77.01489166666667, "fusion_lat": 0.0, "is_reserved": 0}, {"rental_uris": {"ios": "https://dc.lft.to/lastmile_qr_scan", "android": "https://dc.lft.to/lastmile_qr_scan"}, "fusion_lon": 0.0, "type": "electric_scooter", "bike_id": "dd045139ed679a1eb25ca61483e938c9", "name": "dd045139ed679a1eb25ca61483e938c9", "lat": 38.84279566666667, "is_disabled": 0, "lon": -76.99955533333333, "fusion_lat": 0.0, "is_reserved": 0}, {"rental_uris": {"ios": "https://dc.lft.to/lastmile_qr_scan", "android": "https://dc.lft.to/lastmile_qr_scan"}, "fusion_lon": 0.0, "type": "electric_bike", "bike_id": "3959e8557c339e401e18c83a79e02519", "name": "3959e8557c339e401e18c83a79e02519", "lat": 38.881410333333335, "is_disabled": 0, "lon": -77.11457766666666, "fusion_lat": 0.0, "is_reserved": 0}, {"rental_uris": {"ios": "https://dc.lft.to/lastmile_qr_scan", "android": "https://dc.lft.to/lastmile_qr_scan"}, "fusion_lon": 0.0, "type": "electric_scooter", "bike_id": "0fa19104ea63da718c521831a4f869bd", "name": "0fa19104ea63da718c521831a4f869bd", "lat": 38.838116, "is_disabled": 0, "lon": -77.004346, "fusion_lat": 0.0, "is_reserved": 0}, {"rental_uris": {"ios": "https://dc.lft.to/lastmile_qr_scan", "android": "https://dc.lft.to/lastmile_qr_scan"}, "fusion_lon": 0.0, "type": "electric_scooter", "bike_id": "e7bdf21c3644ecb7675a7e45b34dd76e", "name": "e7bdf21c3644ecb7675a7e45b34dd76e", "lat": 38.920021, "is_disabled": 0, "lon": -77.02507083333333, "fusion_lat": 0.0, "is_reserved": 0}, {"rental_uris": {"ios": "https://dc.lft.to/lastmile_qr_scan", "android": "https://dc.lft.to/lastmile_qr_scan"}, "fusion_lon": 0.0, "type": "electric_scooter", "bike_id": "1088e80951639835fcac0bbd34e3fbce", "name": "1088e80951639835fcac0bbd34e3fbce", "lat": 38.905596, "is_disabled": 0, "lon": -77.03638233333334, "fusion_lat": 0.0, "is_reserved": 0}, {"rental_uris": {"ios": "https://dc.lft.to/lastmile_qr_scan", "android": "https://dc.lft.to/lastmile_qr_scan"}, "fusion_lon": 0.0, "type": "electric_scooter", "bike_id": "6d65c7fed110423035ebd93e9f3caada", "name": "6d65c7fed110423035ebd93e9f3caada", "lat": 38.90766633333333, "is_disabled": 0, "lon": -77.02821133333333, "fusion_lat": 0.0, "is_reserved": 0}, {"rental_uris": {"ios": "https://dc.lft.to/lastmile_qr_scan", "android": "https://dc.lft.to/lastmile_qr_scan"}, "fusion_lon": 0.0, "type": "electric_scooter", "bike_id": "8bc0b7765dbde90087412a6503cf0a06", "name": "8bc0b7765dbde90087412a6503cf0a06", "lat": 38.8947135, "is_disabled": 0, "lon": -77.00133383333333, "fusion_lat": 0.0, "is_reserved": 0}, {"rental_uris": {"ios": "https://dc.lft.to/lastmile_qr_scan", "android": "https://dc.lft.to/lastmile_qr_scan"}, "fusion_lon": 0.0, "type": "electric_scooter", "bike_id": "fc597cd0ec9a47757fa4c4414064e32a", "name": "fc597cd0ec9a47757fa4c4414064e32a", "lat": 38.91865583333333, "is_disabled": 0, "lon": -77.04457233333333, "fusion_lat": 0.0, "is_reserved": 0}, {"rental_uris": {"ios": "https://dc.lft.to/lastmile_qr_scan", "android": "https://dc.lft.to/lastmile_qr_scan"}, "fusion_lon": 0.0, "type": "electric_scooter", "bike_id": "230dc5ab51ebf7f01fbb58d389fe704b", "name": "230dc5ab51ebf7f01fbb58d389fe704b", "lat": 38.8923, "is_disabled": 0, "lon": -77.0258665, "fusion_lat": 0.0, "is_reserved": 0}, {"rental_uris": {"ios": "https://dc.lft.to/lastmile_qr_scan", "android": "https://dc.lft.to/lastmile_qr_scan"}, "fusion_lon": 0.0, "type": "electric_scooter", "bike_id": "24d7bfe447e915d1878d6c6e145e9da9", "name": "24d7bfe447e915d1878d6c6e145e9da9", "lat": 38.90243483333333, "is_disabled": 0, "lon": -77.04207666666667, "fusion_lat": 0.0, "is_reserved": 0}, {"rental_uris": {"ios": "https://dc.lft.to/lastmile_qr_scan", "android": "https://dc.lft.to/lastmile_qr_scan"}, "fusion_lon": 0.0, "type": "electric_scooter", "bike_id": "774ac1a442bbaf71a937de6cd1a4fda6", "name": "774ac1a442bbaf71a937de6cd1a4fda6", "lat": 38.90795883333333, "is_disabled": 0, "lon": -77.04985333333333, "fusion_lat": 0.0, "is_reserved": 0}, {"rental_uris": {"ios": "https://dc.lft.to/lastmile_qr_scan", "android": "https://dc.lft.to/lastmile_qr_scan"}, "fusion_lon": 0.0, "type": "electric_bike", "bike_id": "f354d55c7bb5e45593de84393329fcb8", "name": "f354d55c7bb5e45593de84393329fcb8", "lat": 38.921352, "is_disabled": 0, "lon": -76.97533683333333, "fusion_lat": 0.0, "is_reserved": 0}, {"rental_uris": {"ios": "https://dc.lft.to/lastmile_qr_scan", "android": "https://dc.lft.to/lastmile_qr_scan"}, "fusion_lon": 0.0, "type": "electric_scooter", "bike_id": "06f4296ce7c7a2e411b78b56583fea09", "name": "06f4296ce7c7a2e411b78b56583fea09", "lat": 38.87626266666667, "is_disabled": 0, "lon": -76.96526, "fusion_lat": 0.0, "is_reserved": 0}, {"rental_uris": {"ios": "https://dc.lft.to/lastmile_qr_scan", "android": "https://dc.lft.to/lastmile_qr_scan"}, "fusion_lon": 0.0, "type": "electric_bike", "bike_id": "6dd25073848d7b9d74af0ebd15f86c40", "name": "6dd25073848d7b9d74af0ebd15f86c40", "lat": 38.899540333333334, "is_disabled": 0, "lon": -77.03382833333333, "fusion_lat": 0.0, "is_reserved": 0}, {"rental_uris": {"ios": "https://dc.lft.to/lastmile_qr_scan", "android": "https://dc.lft.to/lastmile_qr_scan"}, "fusion_lon": 0.0, "type": "electric_bike", "bike_id": "240fe74fa3aad49b8b39bade2b18615e", "name": "240fe74fa3aad49b8b39bade2b18615e", "lat": 38.90979883333333, "is_disabled": 0, "lon": -76.99713416666667, "fusion_lat": 0.0, "is_reserved": 0}, {"rental_uris": {"ios": "https://dc.lft.to/lastmile_qr_scan", "android": "https://dc.lft.to/lastmile_qr_scan"}, "fusion_lon": 0.0, "type": "electric_scooter", "bike_id": "600eee37886a62da73b596e738b8126c", "name": "600eee37886a62da73b596e738b8126c", "lat": 38.925758333333334, "is_disabled": 0, "lon": -76.99492666666667, "fusion_lat": 0.0, "is_reserved": 0}, {"rental_uris": {"ios": "https://dc.lft.to/lastmile_qr_scan", "android": "https://dc.lft.to/lastmile_qr_scan"}, "fusion_lon": 0.0, "type": "electric_scooter", "bike_id": "cc6834b95bfa0633c58d3ea898082119", "name": "cc6834b95bfa0633c58d3ea898082119", "lat": 38.905029666666664, "is_disabled": 0, "lon": -77.0294805, "fusion_lat": 0.0, "is_reserved": 0}, {"rental_uris": {"ios": "https://dc.lft.to/lastmile_qr_scan", "android": "https://dc.lft.to/lastmile_qr_scan"}, "fusion_lon": 0.0, "type": "electric_scooter", "bike_id": "21ed8c297ad4fcd7abc92f226fcf1bb0", "name": "21ed8c297ad4fcd7abc92f226fcf1bb0", "lat": 38.89309216666667, "is_disabled": 0, "lon": -77.02123116666667, "fusion_lat": 0.0, "is_reserved": 0}, {"rental_uris": {"ios": "https://dc.lft.to/lastmile_qr_scan", "android": "https://dc.lft.to/lastmile_qr_scan"}, "fusion_lon": 0.0, "type": "electric_scooter", "bike_id": "e50892bc4384e5b964e1fc5f90b4af0a", "name": "e50892bc4384e5b964e1fc5f90b4af0a", "lat": 38.94229216666667, "is_disabled": 0, "lon": -77.02155083333334, "fusion_lat": 0.0, "is_reserved": 0}, {"rental_uris": {"ios": "https://dc.lft.to/lastmile_qr_scan", "android": "https://dc.lft.to/lastmile_qr_scan"}, "fusion_lon": 0.0, "type": "electric_scooter", "bike_id": "888097b8c3d99166274a6eb99729b37f", "name": "888097b8c3d99166274a6eb99729b37f", "lat": 38.907945166666664, "is_disabled": 0, "lon": -76.9969675, "fusion_lat": 0.0, "is_reserved": 0}, {"rental_uris": {"ios": "https://dc.lft.to/lastmile_qr_scan", "android": "https://dc.lft.to/lastmile_qr_scan"}, "fusion_lon": 0.0, "type": "electric_scooter", "bike_id": "fa7a29e98767de88e6fc89a0ecc34374", "name": "fa7a29e98767de88e6fc89a0ecc34374", "lat": 38.94280216666667, "is_disabled": 0, "lon": -77.036312, "fusion_lat": 0.0, "is_reserved": 0}, {"rental_uris": {"ios": "https://dc.lft.to/lastmile_qr_scan", "android": "https://dc.lft.to/lastmile_qr_scan"}, "fusion_lon": 0.0, "type": "electric_scooter", "bike_id": "2dafe917dd41b027fe652b92323482e3", "name": "2dafe917dd41b027fe652b92323482e3", "lat": 38.898805, "is_disabled": 0, "lon": -77.03276333333334, "fusion_lat": 0.0, "is_reserved": 0}, {"rental_uris": {"ios": "https://dc.lft.to/lastmile_qr_scan", "android": "https://dc.lft.to/lastmile_qr_scan"}, "fusion_lon": 0.0, "type": "electric_scooter", "bike_id": "b7e2ba1b8ffa2b46b4af5cf46ef60bd2", "name": "b7e2ba1b8ffa2b46b4af5cf46ef60bd2", "lat": 38.93754233333333, "is_disabled": 0, "lon": -77.02475716666666, "fusion_lat": 0.0, "is_reserved": 0}, {"rental_uris": {"ios": "https://dc.lft.to/lastmile_qr_scan", "android": "https://dc.lft.to/lastmile_qr_scan"}, "fusion_lon": 0.0, "type": "electric_scooter", "bike_id": "61a05405988903d86a6b9f7acfed950c", "name": "61a05405988903d86a6b9f7acfed950c", "lat": 38.949857333333334, "is_disabled": 0, "lon": -77.027014, "fusion_lat": 0.0, "is_reserved": 0}, {"rental_uris": {"ios": "https://dc.lft.to/lastmile_qr_scan", "android": "https://dc.lft.to/lastmile_qr_scan"}, "fusion_lon": 0.0, "type": "electric_scooter", "bike_id": "378a405206c1946e4a7fc6d5d4e624ac", "name": "378a405206c1946e4a7fc6d5d4e624ac", "lat": 38.85811316666667, "is_disabled": 0, "lon": -76.98962566666667, "fusion_lat": 0.0, "is_reserved": 0}, {"rental_uris": {"ios": "https://dc.lft.to/lastmile_qr_scan", "android": "https://dc.lft.to/lastmile_qr_scan"}, "fusion_lon": 0.0, "type": "electric_scooter", "bike_id": "7cc0e0eabf29feb2c2bfbf3af3af4118", "name": "7cc0e0eabf29feb2c2bfbf3af3af4118", "lat": 38.901379166666665, "is_disabled": 0, "lon": -77.02882866666667, "fusion_lat": 0.0, "is_reserved": 0}, {"rental_uris": {"ios": "https://dc.lft.to/lastmile_qr_scan", "android": "https://dc.lft.to/lastmile_qr_scan"}, "fusion_lon": 0.0, "type": "electric_scooter", "bike_id": "15183d9b7bce6efa8b0402c3fd81e93f", "name": "15183d9b7bce6efa8b0402c3fd81e93f", "lat": 38.84797233333333, "is_disabled": 0, "lon": -76.96711116666667, "fusion_lat": 0.0, "is_reserved": 0}, {"rental_uris": {"ios": "https://dc.lft.to/lastmile_qr_scan", "android": "https://dc.lft.to/lastmile_qr_scan"}, "fusion_lon": 0.0, "type": "electric_scooter", "bike_id": "48d5f81ced625dda009a266e36561567", "name": "48d5f81ced625dda009a266e36561567", "lat": 38.900309166666666, "is_disabled": 0, "lon": -76.9963735, "fusion_lat": 0.0, "is_reserved": 0}, {"rental_uris": {"ios": "https://dc.lft.to/lastmile_qr_scan", "android": "https://dc.lft.to/lastmile_qr_scan"}, "fusion_lon": 0.0, "type": "electric_scooter", "bike_id": "f4b0caa7ab9b49b6a071804e86e3a35d", "name": "f4b0caa7ab9b49b6a071804e86e3a35d", "lat": 38.906357166666666, "is_disabled": 0, "lon": -77.01791416666667, "fusion_lat": 0.0, "is_reserved": 0}, {"rental_uris": {"ios": "https://dc.lft.to/lastmile_qr_scan", "android": "https://dc.lft.to/lastmile_qr_scan"}, "fusion_lon": 0.0, "type": "electric_scooter", "bike_id": "b04b10d2703ab369e3d7835384ff326d", "name": "b04b10d2703ab369e3d7835384ff326d", "lat": 38.886562833333336, "is_disabled": 0, "lon": -77.0338635, "fusion_lat": 0.0, "is_reserved": 0}, {"rental_uris": {"ios": "https://dc.lft.to/lastmile_qr_scan", "android": "https://dc.lft.to/lastmile_qr_scan"}, "fusion_lon": 0.0, "type": "electric_scooter", "bike_id": "db48900cb65fbb515ffd9b80bc3b8492", "name": "db48900cb65fbb515ffd9b80bc3b8492", "lat": 38.96214166666667, "is_disabled": 0, "lon": -77.02803433333334, "fusion_lat": 0.0, "is_reserved": 0}, {"rental_uris": {"ios": "https://dc.lft.to/lastmile_qr_scan", "android": "https://dc.lft.to/lastmile_qr_scan"}, "fusion_lon": 0.0, "type": "electric_scooter", "bike_id": "8627ecf78e8ec68a03027e436e95ea59", "name": "8627ecf78e8ec68a03027e436e95ea59", "lat": 38.86656933333333, "is_disabled": 0, "lon": -76.98883333333333, "fusion_lat": 0.0, "is_reserved": 0}, {"rental_uris": {"ios": "https://dc.lft.to/lastmile_qr_scan", "android": "https://dc.lft.to/lastmile_qr_scan"}, "fusion_lon": 0.0, "type": "electric_scooter", "bike_id": "578343f4a15461c7d237abb57bbeaceb", "name": "578343f4a15461c7d237abb57bbeaceb", "lat": 38.897478166666666, "is_disabled": 0, "lon": -77.04805, "fusion_lat": 0.0, "is_reserved": 0}, {"rental_uris": {"ios": "https://dc.lft.to/lastmile_qr_scan", "android": "https://dc.lft.to/lastmile_qr_scan"}, "fusion_lon": 0.0, "type": "electric_scooter", "bike_id": "52eb2633bf5f9ad4e725936254889377", "name": "52eb2633bf5f9ad4e725936254889377", "lat": 38.90814233333333, "is_disabled": 0, "lon": -77.03852566666667, "fusion_lat": 0.0, "is_reserved": 0}, {"rental_uris": {"ios": "https://dc.lft.to/lastmile_qr_scan", "android": "https://dc.lft.to/lastmile_qr_scan"}, "fusion_lon": 0.0, "type": "electric_scooter", "bike_id": "dfb59a2eb2bdd9c1eaee53d316e52b64", "name": "dfb59a2eb2bdd9c1eaee53d316e52b64", "lat": 38.9158205, "is_disabled": 0, "lon": -77.0467745, "fusion_lat": 0.0, "is_reserved": 0}, {"rental_uris": {"ios": "https://dc.lft.to/lastmile_qr_scan", "android": "https://dc.lft.to/lastmile_qr_scan"}, "fusion_lon": 0.0, "type": "electric_scooter", "bike_id": "1cc126ddbd546470d1bfd052ba61a4af", "name": "1cc126ddbd546470d1bfd052ba61a4af", "lat": 38.89856016666667, "is_disabled": 0, "lon": -77.0162355, "fusion_lat": 0.0, "is_reserved": 0}, {"rental_uris": {"ios": "https://dc.lft.to/lastmile_qr_scan", "android": "https://dc.lft.to/lastmile_qr_scan"}, "fusion_lon": 0.0, "type": "electric_bike", "bike_id": "788b163b723074bb58aa3add1e91805d", "name": "788b163b723074bb58aa3add1e91805d", "lat": 38.95001033333333, "is_disabled": 0, "lon": -77.35309316666667, "fusion_lat": 0.0, "is_reserved": 0}, {"rental_uris": {"ios": "https://dc.lft.to/lastmile_qr_scan", "android": "https://dc.lft.to/lastmile_qr_scan"}, "fusion_lon": 0.0, "type": "electric_scooter", "bike_id": "e62f6074fd7e99c48ff5aad18ad7b37a", "name": "e62f6074fd7e99c48ff5aad18ad7b37a", "lat": 38.885894666666665, "is_disabled": 0, "lon": -77.0176585, "fusion_lat": 0.0, "is_reserved": 0}, {"rental_uris": {"ios": "https://dc.lft.to/lastmile_qr_scan", "android": "https://dc.lft.to/lastmile_qr_scan"}, "fusion_lon": 0.0, "type": "electric_bike", "bike_id": "3164c805d8c6268f101c35faf6381dd6", "name": "3164c805d8c6268f101c35faf6381dd6", "lat": 38.86252983333333, "is_disabled": 0, "lon": -77.05106666666667, "fusion_lat": 0.0, "is_reserved": 0}, {"rental_uris": {"ios": "https://dc.lft.to/lastmile_qr_scan", "android": "https://dc.lft.to/lastmile_qr_scan"}, "fusion_lon": 0.0, "type": "electric_bike", "bike_id": "b033db4f66ed79b9c46162c67bd1e129", "name": "b033db4f66ed79b9c46162c67bd1e129", "lat": 38.9396275, "is_disabled": 0, "lon": -77.3609115, "fusion_lat": 0.0, "is_reserved": 0}, {"rental_uris": {"ios": "https://dc.lft.to/lastmile_qr_scan", "android": "https://dc.lft.to/lastmile_qr_scan"}, "fusion_lon": 0.0, "type": "electric_scooter", "bike_id": "081f59e2eb6ae13f4e50b050fd494b5b", "name": "081f59e2eb6ae13f4e50b050fd494b5b", "lat": 38.920761, "is_disabled": 0, "lon": -77.02516133333333, "fusion_lat": 0.0, "is_reserved": 0}, {"rental_uris": {"ios": "https://dc.lft.to/lastmile_qr_scan", "android": "https://dc.lft.to/lastmile_qr_scan"}, "fusion_lon": 0.0, "type": "electric_scooter", "bike_id": "384b8589b7dd6c45b4c122d46e6c0d8c", "name": "384b8589b7dd6c45b4c122d46e6c0d8c", "lat": 38.92571433333333, "is_disabled": 0, "lon": -77.08060266666666, "fusion_lat": 0.0, "is_reserved": 0}, {"rental_uris": {"ios": "https://dc.lft.to/lastmile_qr_scan", "android": "https://dc.lft.to/lastmile_qr_scan"}, "fusion_lon": 0.0, "type": "electric_scooter", "bike_id": "4d67b95f85ef6eae20ba02ec22fb90b1", "name": "4d67b95f85ef6eae20ba02ec22fb90b1", "lat": 38.90247133333333, "is_disabled": 0, "lon": -77.01511516666666, "fusion_lat": 0.0, "is_reserved": 0}, {"rental_uris": {"ios": "https://dc.lft.to/lastmile_qr_scan", "android": "https://dc.lft.to/lastmile_qr_scan"}, "fusion_lon": 0.0, "type": "electric_scooter", "bike_id": "bf14932117293fff869e484e4c81608d", "name": "bf14932117293fff869e484e4c81608d", "lat": 38.91465866666667, "is_disabled": 0, "lon": -76.984507, "fusion_lat": 0.0, "is_reserved": 0}, {"rental_uris": {"ios": "https://dc.lft.to/lastmile_qr_scan", "android": "https://dc.lft.to/lastmile_qr_scan"}, "fusion_lon": 0.0, "type": "electric_scooter", "bike_id": "a5de6964974c49bf29ea42c9e4949db9", "name": "a5de6964974c49bf29ea42c9e4949db9", "lat": 38.9302055, "is_disabled": 0, "lon": -77.01358866666666, "fusion_lat": 0.0, "is_reserved": 0}, {"rental_uris": {"ios": "https://dc.lft.to/lastmile_qr_scan", "android": "https://dc.lft.to/lastmile_qr_scan"}, "fusion_lon": 0.0, "type": "electric_scooter", "bike_id": "06d1152397f5b10b109863cf0468b98f", "name": "06d1152397f5b10b109863cf0468b98f", "lat": 38.909831, "is_disabled": 0, "lon": -77.0329, "fusion_lat": 0.0, "is_reserved": 0}, {"rental_uris": {"ios": "https://dc.lft.to/lastmile_qr_scan", "android": "https://dc.lft.to/lastmile_qr_scan"}, "fusion_lon": 0.0, "type": "electric_scooter", "bike_id": "98910b7f261e2c2dc75dc79402955f5a", "name": "98910b7f261e2c2dc75dc79402955f5a", "lat": 38.926517, "is_disabled": 0, "lon": -77.03715566666666, "fusion_lat": 0.0, "is_reserved": 0}, {"rental_uris": {"ios": "https://dc.lft.to/lastmile_qr_scan", "android": "https://dc.lft.to/lastmile_qr_scan"}, "fusion_lon": 0.0, "type": "electric_bike", "bike_id": "064e08b08029b528eb4cbca7a05f9c52", "name": "064e08b08029b528eb4cbca7a05f9c52", "lat": 38.87755883333333, "is_disabled": 0, "lon": -76.97993983333333, "fusion_lat": 0.0, "is_reserved": 0}, {"rental_uris": {"ios": "https://dc.lft.to/lastmile_qr_scan", "android": "https://dc.lft.to/lastmile_qr_scan"}, "fusion_lon": 0.0, "type": "electric_scooter", "bike_id": "1412156c9fc289950d21c37cf7df763f", "name": "1412156c9fc289950d21c37cf7df763f", "lat": 38.897422, "is_disabled": 0, "lon": -77.02991766666666, "fusion_lat": 0.0, "is_reserved": 0}, {"rental_uris": {"ios": "https://dc.lft.to/lastmile_qr_scan", "android": "https://dc.lft.to/lastmile_qr_scan"}, "fusion_lon": 0.0, "type": "electric_scooter", "bike_id": "a440add389e9d35e1f1aad002c44a315", "name": "a440add389e9d35e1f1aad002c44a315", "lat": 38.924621, "is_disabled": 0, "lon": -77.078648, "fusion_lat": 0.0, "is_reserved": 0}, {"rental_uris": {"ios": "https://dc.lft.to/lastmile_qr_scan", "android": "https://dc.lft.to/lastmile_qr_scan"}, "fusion_lon": 0.0, "type": "electric_bike", "bike_id": "7d82dfce6ac9acaf756c8ed7b46c3cd3", "name": "7d82dfce6ac9acaf756c8ed7b46c3cd3", "lat": 38.85788933333333, "is_disabled": 0, "lon": -77.09961433333334, "fusion_lat": 0.0, "is_reserved": 0}, {"rental_uris": {"ios": "https://dc.lft.to/lastmile_qr_scan", "android": "https://dc.lft.to/lastmile_qr_scan"}, "fusion_lon": 0.0, "type": "electric_scooter", "bike_id": "2f2c579964717065c9289873f86ced88", "name": "2f2c579964717065c9289873f86ced88", "lat": 38.934989, "is_disabled": 0, "lon": -77.02406916666666, "fusion_lat": 0.0, "is_reserved": 0}, {"rental_uris": {"ios": "https://dc.lft.to/lastmile_qr_scan", "android": "https://dc.lft.to/lastmile_qr_scan"}, "fusion_lon": 0.0, "type": "electric_scooter", "bike_id": "693f6f8bf8405ca22c757567efe2ba31", "name": "693f6f8bf8405ca22c757567efe2ba31", "lat": 38.90200183333333, "is_disabled": 0, "lon": -77.06118166666667, "fusion_lat": 0.0, "is_reserved": 0}, {"rental_uris": {"ios": "https://dc.lft.to/lastmile_qr_scan", "android": "https://dc.lft.to/lastmile_qr_scan"}, "fusion_lon": 0.0, "type": "electric_scooter", "bike_id": "8001916db81d403de589d034b07278be", "name": "8001916db81d403de589d034b07278be", "lat": 38.91330216666667, "is_disabled": 0, "lon": -77.032544, "fusion_lat": 0.0, "is_reserved": 0}, {"rental_uris": {"ios": "https://dc.lft.to/lastmile_qr_scan", "android": "https://dc.lft.to/lastmile_qr_scan"}, "fusion_lon": 0.0, "type": "electric_scooter", "bike_id": "ea4e981c5cc0f6413acbcf322ae61399", "name": "ea4e981c5cc0f6413acbcf322ae61399", "lat": 38.926550166666665, "is_disabled": 0, "lon": -77.03707316666667, "fusion_lat": 0.0, "is_reserved": 0}, {"rental_uris": {"ios": "https://dc.lft.to/lastmile_qr_scan", "android": "https://dc.lft.to/lastmile_qr_scan"}, "fusion_lon": 0.0, "type": "electric_scooter", "bike_id": "eb88487ec5144dc66268760419ec514c", "name": "eb88487ec5144dc66268760419ec514c", "lat": 38.90301866666667, "is_disabled": 0, "lon": -77.02096283333333, "fusion_lat": 0.0, "is_reserved": 0}, {"rental_uris": {"ios": "https://dc.lft.to/lastmile_qr_scan", "android": "https://dc.lft.to/lastmile_qr_scan"}, "fusion_lon": 0.0, "type": "electric_scooter", "bike_id": "7c81221f73d86ffa79e412bf20e495e0", "name": "7c81221f73d86ffa79e412bf20e495e0", "lat": 38.908456, "is_disabled": 0, "lon": -77.034488, "fusion_lat": 0.0, "is_reserved": 0}, {"rental_uris": {"ios": "https://dc.lft.to/lastmile_qr_scan", "android": "https://dc.lft.to/lastmile_qr_scan"}, "fusion_lon": 0.0, "type": "electric_scooter", "bike_id": "8fa377359e2ec87e374d2bc2cc20576e", "name": "8fa377359e2ec87e374d2bc2cc20576e", "lat": 38.8961685, "is_disabled": 0, "lon": -77.01089616666667, "fusion_lat": 0.0, "is_reserved": 0}, {"rental_uris": {"ios": "https://dc.lft.to/lastmile_qr_scan", "android": "https://dc.lft.to/lastmile_qr_scan"}, "fusion_lon": 0.0, "type": "electric_bike", "bike_id": "1b111be94d76b92f8baea4fe3afc52f9", "name": "1b111be94d76b92f8baea4fe3afc52f9", "lat": 38.95203433333333, "is_disabled": 0, "lon": -77.02371183333334, "fusion_lat": 0.0, "is_reserved": 0}, {"rental_uris": {"ios": "https://dc.lft.to/lastmile_qr_scan", "android": "https://dc.lft.to/lastmile_qr_scan"}, "fusion_lon": 0.0, "type": "electric_scooter", "bike_id": "f2cb4de40d54b5c8d379dada526488e9", "name": "f2cb4de40d54b5c8d379dada526488e9", "lat": 38.905922333333336, "is_disabled": 0, "lon": -77.02393283333333, "fusion_lat": 0.0, "is_reserved": 0}, {"rental_uris": {"ios": "https://dc.lft.to/lastmile_qr_scan", "android": "https://dc.lft.to/lastmile_qr_scan"}, "fusion_lon": 0.0, "type": "electric_scooter", "bike_id": "39b6f9ec32eaab7e9e878ea274e21e09", "name": "39b6f9ec32eaab7e9e878ea274e21e09", "lat": 38.902750166666664, "is_disabled": 0, "lon": -77.038484, "fusion_lat": 0.0, "is_reserved": 0}, {"rental_uris": {"ios": "https://dc.lft.to/lastmile_qr_scan", "android": "https://dc.lft.to/lastmile_qr_scan"}, "fusion_lon": 0.0, "type": "electric_scooter", "bike_id": "500bbe1a0f9a5bb816436367aa0173d6", "name": "500bbe1a0f9a5bb816436367aa0173d6", "lat": 38.90220716666666, "is_disabled": 0, "lon": -77.0463595, "fusion_lat": 0.0, "is_reserved": 0}, {"rental_uris": {"ios": "https://dc.lft.to/lastmile_qr_scan", "android": "https://dc.lft.to/lastmile_qr_scan"}, "fusion_lon": 0.0, "type": "electric_scooter", "bike_id": "cab5a4fa720bab523e100af8513d5495", "name": "cab5a4fa720bab523e100af8513d5495", "lat": 38.8807365, "is_disabled": 0, "lon": -77.00653366666667, "fusion_lat": 0.0, "is_reserved": 0}, {"rental_uris": {"ios": "https://dc.lft.to/lastmile_qr_scan", "android": "https://dc.lft.to/lastmile_qr_scan"}, "fusion_lon": 0.0, "type": "electric_scooter", "bike_id": "dc2fc37000836f92931891b4e819188d", "name": "dc2fc37000836f92931891b4e819188d", "lat": 38.95631866666667, "is_disabled": 0, "lon": -77.029783, "fusion_lat": 0.0, "is_reserved": 0}, {"rental_uris": {"ios": "https://dc.lft.to/lastmile_qr_scan", "android": "https://dc.lft.to/lastmile_qr_scan"}, "fusion_lon": 0.0, "type": "electric_scooter", "bike_id": "00d24d30c71be2f28cab6bf6e14cebed", "name": "00d24d30c71be2f28cab6bf6e14cebed", "lat": 38.9070935, "is_disabled": 0, "lon": -77.03956716666667, "fusion_lat": 0.0, "is_reserved": 0}, {"rental_uris": {"ios": "https://dc.lft.to/lastmile_qr_scan", "android": "https://dc.lft.to/lastmile_qr_scan"}, "fusion_lon": 0.0, "type": "electric_bike", "bike_id": "5694a082a238dd95316a41211ced0f9a", "name": "5694a082a238dd95316a41211ced0f9a", "lat": 38.910891666666664, "is_disabled": 0, "lon": -76.98474566666667, "fusion_lat": 0.0, "is_reserved": 0}, {"rental_uris": {"ios": "https://dc.lft.to/lastmile_qr_scan", "android": "https://dc.lft.to/lastmile_qr_scan"}, "fusion_lon": 0.0, "type": "electric_bike", "bike_id": "439d277807a8cc3cfc520e2094de1ba5", "name": "439d277807a8cc3cfc520e2094de1ba5", "lat": 38.85066033333333, "is_disabled": 0, "lon": -76.97332066666667, "fusion_lat": 0.0, "is_reserved": 0}, {"rental_uris": {"ios": "https://dc.lft.to/lastmile_qr_scan", "android": "https://dc.lft.to/lastmile_qr_scan"}, "fusion_lon": 0.0, "type": "electric_scooter", "bike_id": "d810816a7faa07ac205d4bb378a41028", "name": "d810816a7faa07ac205d4bb378a41028", "lat": 38.881182, "is_disabled": 0, "lon": -76.99599, "fusion_lat": 0.0, "is_reserved": 0}, {"rental_uris": {"ios": "https://dc.lft.to/lastmile_qr_scan", "android": "https://dc.lft.to/lastmile_qr_scan"}, "fusion_lon": 0.0, "type": "electric_scooter", "bike_id": "1e99bb788eba66a7de066d9fdb1d2847", "name": "1e99bb788eba66a7de066d9fdb1d2847", "lat": 38.936875666666666, "is_disabled": 0, "lon": -77.03281516666667, "fusion_lat": 0.0, "is_reserved": 0}, {"rental_uris": {"ios": "https://dc.lft.to/lastmile_qr_scan", "android": "https://dc.lft.to/lastmile_qr_scan"}, "fusion_lon": 0.0, "type": "electric_scooter", "bike_id": "014715cf6970cc84a9901366f1045e2b", "name": "014715cf6970cc84a9901366f1045e2b", "lat": 38.93065766666667, "is_disabled": 0, "lon": -77.038162, "fusion_lat": 0.0, "is_reserved": 0}, {"rental_uris": {"ios": "https://dc.lft.to/lastmile_qr_scan", "android": "https://dc.lft.to/lastmile_qr_scan"}, "fusion_lon": 0.0, "type": "electric_scooter", "bike_id": "8869f5edfd859060e034aeb6cccf4b19", "name": "8869f5edfd859060e034aeb6cccf4b19", "lat": 38.9161365, "is_disabled": 0, "lon": -77.024814, "fusion_lat": 0.0, "is_reserved": 0}, {"rental_uris": {"ios": "https://dc.lft.to/lastmile_qr_scan", "android": "https://dc.lft.to/lastmile_qr_scan"}, "fusion_lon": 0.0, "type": "electric_scooter", "bike_id": "ffcf2581e92debda6988f7b0e427758a", "name": "ffcf2581e92debda6988f7b0e427758a", "lat": 38.8960145, "is_disabled": 0, "lon": -77.01120516666667, "fusion_lat": 0.0, "is_reserved": 0}, {"rental_uris": {"ios": "https://dc.lft.to/lastmile_qr_scan", "android": "https://dc.lft.to/lastmile_qr_scan"}, "fusion_lon": 0.0, "type": "electric_scooter", "bike_id": "9d0598e8fa1168037c42c1836c48b824", "name": "9d0598e8fa1168037c42c1836c48b824", "lat": 38.919503666666664, "is_disabled": 0, "lon": -77.04061583333333, "fusion_lat": 0.0, "is_reserved": 0}, {"rental_uris": {"ios": "https://dc.lft.to/lastmile_qr_scan", "android": "https://dc.lft.to/lastmile_qr_scan"}, "fusion_lon": 0.0, "type": "electric_bike", "bike_id": "1bf931f01922f8846ae9b37fc0c3b2ea", "name": "1bf931f01922f8846ae9b37fc0c3b2ea", "lat": 38.998883, "is_disabled": 0, "lon": -77.02884, "fusion_lat": 0.0, "is_reserved": 0}, {"rental_uris": {"ios": "https://dc.lft.to/lastmile_qr_scan", "android": "https://dc.lft.to/lastmile_qr_scan"}, "fusion_lon": 0.0, "type": "electric_scooter", "bike_id": "6fe48be6ecfa01a8e3ca299f4e17ef65", "name": "6fe48be6ecfa01a8e3ca299f4e17ef65", "lat": 38.903275666666666, "is_disabled": 0, "lon": -77.03845416666667, "fusion_lat": 0.0, "is_reserved": 0}, {"rental_uris": {"ios": "https://dc.lft.to/lastmile_qr_scan", "android": "https://dc.lft.to/lastmile_qr_scan"}, "fusion_lon": 0.0, "type": "electric_bike", "bike_id": "194269e5e78962342ce023187563eaab", "name": "194269e5e78962342ce023187563eaab", "lat": 38.8450615, "is_disabled": 0, "lon": -76.9720965, "fusion_lat": 0.0, "is_reserved": 0}, {"rental_uris": {"ios": "https://dc.lft.to/lastmile_qr_scan", "android": "https://dc.lft.to/lastmile_qr_scan"}, "fusion_lon": 0.0, "type": "electric_scooter", "bike_id": "7e64ac3cd813611a51b2a4e81acdef11", "name": "7e64ac3cd813611a51b2a4e81acdef11", "lat": 38.926120833333336, "is_disabled": 0, "lon": -77.0216205, "fusion_lat": 0.0, "is_reserved": 0}, {"rental_uris": {"ios": "https://dc.lft.to/lastmile_qr_scan", "android": "https://dc.lft.to/lastmile_qr_scan"}, "fusion_lon": 0.0, "type": "electric_scooter", "bike_id": "1ba375720c95fbfc89093cde69369875", "name": "1ba375720c95fbfc89093cde69369875", "lat": 38.89693833333333, "is_disabled": 0, "lon": -77.05023416666667, "fusion_lat": 0.0, "is_reserved": 0}, {"rental_uris": {"ios": "https://dc.lft.to/lastmile_qr_scan", "android": "https://dc.lft.to/lastmile_qr_scan"}, "fusion_lon": 0.0, "type": "electric_scooter", "bike_id": "51c97c3f579c261760a03bb517c3044e", "name": "51c97c3f579c261760a03bb517c3044e", "lat": 38.919175333333335, "is_disabled": 0, "lon": -77.03591733333333, "fusion_lat": 0.0, "is_reserved": 0}, {"rental_uris": {"ios": "https://dc.lft.to/lastmile_qr_scan", "android": "https://dc.lft.to/lastmile_qr_scan"}, "fusion_lon": 0.0, "type": "electric_scooter", "bike_id": "82d65fe7e4a0d7c92fb1a2ef5223adf6", "name": "82d65fe7e4a0d7c92fb1a2ef5223adf6", "lat": 38.913063333333334, "is_disabled": 0, "lon": -77.04169116666667, "fusion_lat": 0.0, "is_reserved": 0}, {"rental_uris": {"ios": "https://dc.lft.to/lastmile_qr_scan", "android": "https://dc.lft.to/lastmile_qr_scan"}, "fusion_lon": 0.0, "type": "electric_scooter", "bike_id": "f482ddce0a99acf256216910be23e2a3", "name": "f482ddce0a99acf256216910be23e2a3", "lat": 38.922556, "is_disabled": 0, "lon": -77.041282, "fusion_lat": 0.0, "is_reserved": 0}, {"rental_uris": {"ios": "https://dc.lft.to/lastmile_qr_scan", "android": "https://dc.lft.to/lastmile_qr_scan"}, "fusion_lon": 0.0, "type": "electric_bike", "bike_id": "136ea1f2da71dee41ed15aeec7d9e518", "name": "136ea1f2da71dee41ed15aeec7d9e518", "lat": 38.90568666666667, "is_disabled": 0, "lon": -77.01706433333334, "fusion_lat": 0.0, "is_reserved": 0}, {"rental_uris": {"ios": "https://dc.lft.to/lastmile_qr_scan", "android": "https://dc.lft.to/lastmile_qr_scan"}, "fusion_lon": 0.0, "type": "electric_scooter", "bike_id": "9c0aac7279e9abfc6c83a3c92d20a889", "name": "9c0aac7279e9abfc6c83a3c92d20a889", "lat": 38.9512545, "is_disabled": 0, "lon": -77.0139735, "fusion_lat": 0.0, "is_reserved": 0}, {"rental_uris": {"ios": "https://dc.lft.to/lastmile_qr_scan", "android": "https://dc.lft.to/lastmile_qr_scan"}, "fusion_lon": 0.0, "type": "electric_scooter", "bike_id": "665aaf57e6a71f9827831f7888768d84", "name": "665aaf57e6a71f9827831f7888768d84", "lat": 38.90871883333333, "is_disabled": 0, "lon": -77.02685316666667, "fusion_lat": 0.0, "is_reserved": 0}, {"rental_uris": {"ios": "https://dc.lft.to/lastmile_qr_scan", "android": "https://dc.lft.to/lastmile_qr_scan"}, "fusion_lon": 0.0, "type": "electric_bike", "bike_id": "eedf164f6ca0ec5cd74452568ddcc774", "name": "eedf164f6ca0ec5cd74452568ddcc774", "lat": 38.955208, "is_disabled": 0, "lon": -76.99993416666666, "fusion_lat": 0.0, "is_reserved": 0}, {"rental_uris": {"ios": "https://dc.lft.to/lastmile_qr_scan", "android": "https://dc.lft.to/lastmile_qr_scan"}, "fusion_lon": 0.0, "type": "electric_scooter", "bike_id": "9e1fb19416befb474a211ed111e71add", "name": "9e1fb19416befb474a211ed111e71add", "lat": 38.905011, "is_disabled": 0, "lon": -77.02948983333333, "fusion_lat": 0.0, "is_reserved": 0}, {"rental_uris": {"ios": "https://dc.lft.to/lastmile_qr_scan", "android": "https://dc.lft.to/lastmile_qr_scan"}, "fusion_lon": 0.0, "type": "electric_scooter", "bike_id": "35f9cb12b2675ae88fe3fc82c70cfeeb", "name": "35f9cb12b2675ae88fe3fc82c70cfeeb", "lat": 38.884906, "is_disabled": 0, "lon": -77.02071766666667, "fusion_lat": 0.0, "is_reserved": 0}, {"rental_uris": {"ios": "https://dc.lft.to/lastmile_qr_scan", "android": "https://dc.lft.to/lastmile_qr_scan"}, "fusion_lon": 0.0, "type": "electric_scooter", "bike_id": "4c23724434afccfa2d1481f339580a0e", "name": "4c23724434afccfa2d1481f339580a0e", "lat": 38.9000155, "is_disabled": 0, "lon": -77.03303033333333, "fusion_lat": 0.0, "is_reserved": 0}, {"rental_uris": {"ios": "https://dc.lft.to/lastmile_qr_scan", "android": "https://dc.lft.to/lastmile_qr_scan"}, "fusion_lon": 0.0, "type": "electric_scooter", "bike_id": "85960d9133ece23bd3de39142841e0e2", "name": "85960d9133ece23bd3de39142841e0e2", "lat": 38.909531, "is_disabled": 0, "lon": -77.02711633333334, "fusion_lat": 0.0, "is_reserved": 0}, {"rental_uris": {"ios": "https://dc.lft.to/lastmile_qr_scan", "android": "https://dc.lft.to/lastmile_qr_scan"}, "fusion_lon": 0.0, "type": "electric_scooter", "bike_id": "e7e0c905681159c7d3e94194dd796142", "name": "e7e0c905681159c7d3e94194dd796142", "lat": 38.91697516666667, "is_disabled": 0, "lon": -77.02971516666666, "fusion_lat": 0.0, "is_reserved": 0}, {"rental_uris": {"ios": "https://dc.lft.to/lastmile_qr_scan", "android": "https://dc.lft.to/lastmile_qr_scan"}, "fusion_lon": 0.0, "type": "electric_scooter", "bike_id": "f837e3957ada292e4151e81e254fa233", "name": "f837e3957ada292e4151e81e254fa233", "lat": 38.908775166666665, "is_disabled": 0, "lon": -77.033963, "fusion_lat": 0.0, "is_reserved": 0}, {"rental_uris": {"ios": "https://dc.lft.to/lastmile_qr_scan", "android": "https://dc.lft.to/lastmile_qr_scan"}, "fusion_lon": 0.0, "type": "electric_bike", "bike_id": "e012512a3ce25ba1e1c76852e3ab1034", "name": "e012512a3ce25ba1e1c76852e3ab1034", "lat": 38.915879, "is_disabled": 0, "lon": -76.97150516666666, "fusion_lat": 0.0, "is_reserved": 0}, {"rental_uris": {"ios": "https://dc.lft.to/lastmile_qr_scan", "android": "https://dc.lft.to/lastmile_qr_scan"}, "fusion_lon": 0.0, "type": "electric_bike", "bike_id": "b81e04738cd7ca109c1ae5b90eb629c9", "name": "b81e04738cd7ca109c1ae5b90eb629c9", "lat": 38.88387633333333, "is_disabled": 0, "lon": -77.017748, "fusion_lat": 0.0, "is_reserved": 0}, {"rental_uris": {"ios": "https://dc.lft.to/lastmile_qr_scan", "android": "https://dc.lft.to/lastmile_qr_scan"}, "fusion_lon": 0.0, "type": "electric_scooter", "bike_id": "6ca9130cec496822220c353cde3c0e1c", "name": "6ca9130cec496822220c353cde3c0e1c", "lat": 38.8958295, "is_disabled": 0, "lon": -77.023005, "fusion_lat": 0.0, "is_reserved": 0}, {"rental_uris": {"ios": "https://dc.lft.to/lastmile_qr_scan", "android": "https://dc.lft.to/lastmile_qr_scan"}, "fusion_lon": 0.0, "type": "electric_bike", "bike_id": "1e557abe60232d9faf045a92accbc149", "name": "1e557abe60232d9faf045a92accbc149", "lat": 38.86905633333333, "is_disabled": 0, "lon": -77.13179716666667, "fusion_lat": 0.0, "is_reserved": 0}, {"rental_uris": {"ios": "https://dc.lft.to/lastmile_qr_scan", "android": "https://dc.lft.to/lastmile_qr_scan"}, "fusion_lon": 0.0, "type": "electric_scooter", "bike_id": "a83722d293c52a077c120832e2d51a6a", "name": "a83722d293c52a077c120832e2d51a6a", "lat": 38.90394666666667, "is_disabled": 0, "lon": -77.028019, "fusion_lat": 0.0, "is_reserved": 0}, {"rental_uris": {"ios": "https://dc.lft.to/lastmile_qr_scan", "android": "https://dc.lft.to/lastmile_qr_scan"}, "fusion_lon": 0.0, "type": "electric_scooter", "bike_id": "ee219adbc4f6158825b16ddb2ca2cefd", "name": "ee219adbc4f6158825b16ddb2ca2cefd", "lat": 38.89536233333333, "is_disabled": 0, "lon": -77.01627116666667, "fusion_lat": 0.0, "is_reserved": 0}, {"rental_uris": {"ios": "https://dc.lft.to/lastmile_qr_scan", "android": "https://dc.lft.to/lastmile_qr_scan"}, "fusion_lon": 0.0, "type": "electric_bike", "bike_id": "97b2527a00536d838ecb759dcca6bbbd", "name": "97b2527a00536d838ecb759dcca6bbbd", "lat": 38.919853833333335, "is_disabled": 0, "lon": -76.97313566666666, "fusion_lat": 0.0, "is_reserved": 0}, {"rental_uris": {"ios": "https://dc.lft.to/lastmile_qr_scan", "android": "https://dc.lft.to/lastmile_qr_scan"}, "fusion_lon": 0.0, "type": "electric_scooter", "bike_id": "8619b7b0c482f028d1b78bd35e2b130a", "name": "8619b7b0c482f028d1b78bd35e2b130a", "lat": 38.898322666666665, "is_disabled": 0, "lon": -76.94631233333334, "fusion_lat": 0.0, "is_reserved": 0}, {"rental_uris": {"ios": "https://dc.lft.to/lastmile_qr_scan", "android": "https://dc.lft.to/lastmile_qr_scan"}, "fusion_lon": 0.0, "type": "electric_scooter", "bike_id": "9f959a3ffea752ab8aa1ed3bd613bc37", "name": "9f959a3ffea752ab8aa1ed3bd613bc37", "lat": 38.91605366666667, "is_disabled": 0, "lon": -77.04011, "fusion_lat": 0.0, "is_reserved": 0}, {"rental_uris": {"ios": "https://dc.lft.to/lastmile_qr_scan", "android": "https://dc.lft.to/lastmile_qr_scan"}, "fusion_lon": 0.0, "type": "electric_scooter", "bike_id": "1aa74ba24838410a1abe46e64b5477eb", "name": "1aa74ba24838410a1abe46e64b5477eb", "lat": 38.9330655, "is_disabled": 0, "lon": -77.032645, "fusion_lat": 0.0, "is_reserved": 0}, {"rental_uris": {"ios": "https://dc.lft.to/lastmile_qr_scan", "android": "https://dc.lft.to/lastmile_qr_scan"}, "fusion_lon": 0.0, "type": "electric_scooter", "bike_id": "13382be00f47a7b21ef363018a0e1979", "name": "13382be00f47a7b21ef363018a0e1979", "lat": 38.904567166666666, "is_disabled": 0, "lon": -77.0281575, "fusion_lat": 0.0, "is_reserved": 0}, {"rental_uris": {"ios": "https://dc.lft.to/lastmile_qr_scan", "android": "https://dc.lft.to/lastmile_qr_scan"}, "fusion_lon": 0.0, "type": "electric_scooter", "bike_id": "60aece8d414f7fdd4d9129bd4b4769fc", "name": "60aece8d414f7fdd4d9129bd4b4769fc", "lat": 38.902795833333336, "is_disabled": 0, "lon": -77.03000033333333, "fusion_lat": 0.0, "is_reserved": 0}, {"rental_uris": {"ios": "https://dc.lft.to/lastmile_qr_scan", "android": "https://dc.lft.to/lastmile_qr_scan"}, "fusion_lon": 0.0, "type": "electric_bike", "bike_id": "6fce625d6a55a7ef85976354982c069f", "name": "6fce625d6a55a7ef85976354982c069f", "lat": 38.9355245, "is_disabled": 0, "lon": -77.08181616666667, "fusion_lat": 0.0, "is_reserved": 0}, {"rental_uris": {"ios": "https://dc.lft.to/lastmile_qr_scan", "android": "https://dc.lft.to/lastmile_qr_scan"}, "fusion_lon": 0.0, "type": "electric_scooter", "bike_id": "ca18b742f861498d2df367fa224d0d8b", "name": "ca18b742f861498d2df367fa224d0d8b", "lat": 38.92716733333334, "is_disabled": 0, "lon": -77.04195566666667, "fusion_lat": 0.0, "is_reserved": 0}, {"rental_uris": {"ios": "https://dc.lft.to/lastmile_qr_scan", "android": "https://dc.lft.to/lastmile_qr_scan"}, "fusion_lon": 0.0, "type": "electric_scooter", "bike_id": "b100d26504fadd685e2aff8fff832157", "name": "b100d26504fadd685e2aff8fff832157", "lat": 38.8993795, "is_disabled": 0, "lon": -77.02946733333333, "fusion_lat": 0.0, "is_reserved": 0}, {"rental_uris": {"ios": "https://dc.lft.to/lastmile_qr_scan", "android": "https://dc.lft.to/lastmile_qr_scan"}, "fusion_lon": 0.0, "type": "electric_bike", "bike_id": "692351c006b3b0e7c874de1a529e4923", "name": "692351c006b3b0e7c874de1a529e4923", "lat": 38.97541666666667, "is_disabled": 0, "lon": -76.99530066666667, "fusion_lat": 0.0, "is_reserved": 0}, {"rental_uris": {"ios": "https://dc.lft.to/lastmile_qr_scan", "android": "https://dc.lft.to/lastmile_qr_scan"}, "fusion_lon": 0.0, "type": "electric_bike", "bike_id": "403c7df27b38ad5c38b5e377fef1ce8d", "name": "403c7df27b38ad5c38b5e377fef1ce8d", "lat": 38.870867, "is_disabled": 0, "lon": -77.01209816666666, "fusion_lat": 0.0, "is_reserved": 0}, {"rental_uris": {"ios": "https://dc.lft.to/lastmile_qr_scan", "android": "https://dc.lft.to/lastmile_qr_scan"}, "fusion_lon": 0.0, "type": "electric_scooter", "bike_id": "3db0d341bbf9665690e5de1de7962f75", "name": "3db0d341bbf9665690e5de1de7962f75", "lat": 38.930010833333334, "is_disabled": 0, "lon": -77.02198983333334, "fusion_lat": 0.0, "is_reserved": 0}, {"rental_uris": {"ios": "https://dc.lft.to/lastmile_qr_scan", "android": "https://dc.lft.to/lastmile_qr_scan"}, "fusion_lon": 0.0, "type": "electric_scooter", "bike_id": "6dc80cc2bf7613b438800747aca0387e", "name": "6dc80cc2bf7613b438800747aca0387e", "lat": 38.892992166666666, "is_disabled": 0, "lon": -77.01213633333333, "fusion_lat": 0.0, "is_reserved": 0}, {"rental_uris": {"ios": "https://dc.lft.to/lastmile_qr_scan", "android": "https://dc.lft.to/lastmile_qr_scan"}, "fusion_lon": 0.0, "type": "electric_scooter", "bike_id": "cc58af97de36c1588902879335980e6e", "name": "cc58af97de36c1588902879335980e6e", "lat": 38.91228816666667, "is_disabled": 0, "lon": -77.03206183333333, "fusion_lat": 0.0, "is_reserved": 0}, {"rental_uris": {"ios": "https://dc.lft.to/lastmile_qr_scan", "android": "https://dc.lft.to/lastmile_qr_scan"}, "fusion_lon": 0.0, "type": "electric_scooter", "bike_id": "28b41274a5898371043a4fe31bb9457e", "name": "28b41274a5898371043a4fe31bb9457e", "lat": 38.921178166666664, "is_disabled": 0, "lon": -77.0468705, "fusion_lat": 0.0, "is_reserved": 0}, {"rental_uris": {"ios": "https://dc.lft.to/lastmile_qr_scan", "android": "https://dc.lft.to/lastmile_qr_scan"}, "fusion_lon": 0.0, "type": "electric_scooter", "bike_id": "7844e6ee720c426bd0ebdaa6b0a71466", "name": "7844e6ee720c426bd0ebdaa6b0a71466", "lat": 38.919951166666664, "is_disabled": 0, "lon": -77.02398366666667, "fusion_lat": 0.0, "is_reserved": 0}, {"rental_uris": {"ios": "https://dc.lft.to/lastmile_qr_scan", "android": "https://dc.lft.to/lastmile_qr_scan"}, "fusion_lon": 0.0, "type": "electric_scooter", "bike_id": "82267ce171fa11c9f4132d75c28160f5", "name": "82267ce171fa11c9f4132d75c28160f5", "lat": 38.902409666666664, "is_disabled": 0, "lon": -77.002092, "fusion_lat": 0.0, "is_reserved": 0}, {"rental_uris": {"ios": "https://dc.lft.to/lastmile_qr_scan", "android": "https://dc.lft.to/lastmile_qr_scan"}, "fusion_lon": 0.0, "type": "electric_scooter", "bike_id": "6bff99bd8f0558867dd2b982d9051b34", "name": "6bff99bd8f0558867dd2b982d9051b34", "lat": 38.921003166666665, "is_disabled": 0, "lon": -77.0305065, "fusion_lat": 0.0, "is_reserved": 0}, {"rental_uris": {"ios": "https://dc.lft.to/lastmile_qr_scan", "android": "https://dc.lft.to/lastmile_qr_scan"}, "fusion_lon": 0.0, "type": "electric_scooter", "bike_id": "1f95197ba6888e73cc54f01fbfa5380e", "name": "1f95197ba6888e73cc54f01fbfa5380e", "lat": 38.91090233333333, "is_disabled": 0, "lon": -77.03846066666667, "fusion_lat": 0.0, "is_reserved": 0}, {"rental_uris": {"ios": "https://dc.lft.to/lastmile_qr_scan", "android": "https://dc.lft.to/lastmile_qr_scan"}, "fusion_lon": 0.0, "type": "electric_scooter", "bike_id": "d3e3dd9a5a201166e81ea84da0d5928a", "name": "d3e3dd9a5a201166e81ea84da0d5928a", "lat": 38.903959, "is_disabled": 0, "lon": -77.028048, "fusion_lat": 0.0, "is_reserved": 0}, {"rental_uris": {"ios": "https://dc.lft.to/lastmile_qr_scan", "android": "https://dc.lft.to/lastmile_qr_scan"}, "fusion_lon": 0.0, "type": "electric_scooter", "bike_id": "16d116ec16b28e8c25397fea68b9ae68", "name": "16d116ec16b28e8c25397fea68b9ae68", "lat": 38.9531085, "is_disabled": 0, "lon": -77.03599716666666, "fusion_lat": 0.0, "is_reserved": 0}, {"rental_uris": {"ios": "https://dc.lft.to/lastmile_qr_scan", "android": "https://dc.lft.to/lastmile_qr_scan"}, "fusion_lon": 0.0, "type": "electric_scooter", "bike_id": "e5d7cd7356fb384b72a757a4588c2a3b", "name": "e5d7cd7356fb384b72a757a4588c2a3b", "lat": 38.908288166666665, "is_disabled": 0, "lon": -77.04168116666666, "fusion_lat": 0.0, "is_reserved": 0}, {"rental_uris": {"ios": "https://dc.lft.to/lastmile_qr_scan", "android": "https://dc.lft.to/lastmile_qr_scan"}, "fusion_lon": 0.0, "type": "electric_scooter", "bike_id": "e9e51bcd42fba7d6bab87495f05c1e49", "name": "e9e51bcd42fba7d6bab87495f05c1e49", "lat": 38.931443, "is_disabled": 0, "lon": -77.034543, "fusion_lat": 0.0, "is_reserved": 0}, {"rental_uris": {"ios": "https://dc.lft.to/lastmile_qr_scan", "android": "https://dc.lft.to/lastmile_qr_scan"}, "fusion_lon": 0.0, "type": "electric_scooter", "bike_id": "965d8b5f569a688571667ce49b54316b", "name": "965d8b5f569a688571667ce49b54316b", "lat": 38.919164333333335, "is_disabled": 0, "lon": -77.02143383333333, "fusion_lat": 0.0, "is_reserved": 0}, {"rental_uris": {"ios": "https://dc.lft.to/lastmile_qr_scan", "android": "https://dc.lft.to/lastmile_qr_scan"}, "fusion_lon": 0.0, "type": "electric_scooter", "bike_id": "7559c14c38e4d9c7893877498e1686cf", "name": "7559c14c38e4d9c7893877498e1686cf", "lat": 38.898425833333334, "is_disabled": 0, "lon": -76.9463315, "fusion_lat": 0.0, "is_reserved": 0}, {"rental_uris": {"ios": "https://dc.lft.to/lastmile_qr_scan", "android": "https://dc.lft.to/lastmile_qr_scan"}, "fusion_lon": 0.0, "type": "electric_bike", "bike_id": "c6b188be35bc678196485f07dc994dc8", "name": "c6b188be35bc678196485f07dc994dc8", "lat": 38.89332066666667, "is_disabled": 0, "lon": -77.12405883333334, "fusion_lat": 0.0, "is_reserved": 0}, {"rental_uris": {"ios": "https://dc.lft.to/lastmile_qr_scan", "android": "https://dc.lft.to/lastmile_qr_scan"}, "fusion_lon": 0.0, "type": "electric_scooter", "bike_id": "6605e1909f95e78b624863896d4e4ead", "name": "6605e1909f95e78b624863896d4e4ead", "lat": 38.899773, "is_disabled": 0, "lon": -77.04610766666667, "fusion_lat": 0.0, "is_reserved": 0}, {"rental_uris": {"ios": "https://dc.lft.to/lastmile_qr_scan", "android": "https://dc.lft.to/lastmile_qr_scan"}, "fusion_lon": 0.0, "type": "electric_scooter", "bike_id": "f33a2b4beb5104f929fe21dd2e3b6ba2", "name": "f33a2b4beb5104f929fe21dd2e3b6ba2", "lat": 38.87633966666667, "is_disabled": 0, "lon": -77.01561116666667, "fusion_lat": 0.0, "is_reserved": 0}, {"rental_uris": {"ios": "https://dc.lft.to/lastmile_qr_scan", "android": "https://dc.lft.to/lastmile_qr_scan"}, "fusion_lon": 0.0, "type": "electric_scooter", "bike_id": "cfc34cd3073f95418882622fe476f1cd", "name": "cfc34cd3073f95418882622fe476f1cd", "lat": 38.91806783333333, "is_disabled": 0, "lon": -77.03553266666667, "fusion_lat": 0.0, "is_reserved": 0}, {"rental_uris": {"ios": "https://dc.lft.to/lastmile_qr_scan", "android": "https://dc.lft.to/lastmile_qr_scan"}, "fusion_lon": 0.0, "type": "electric_scooter", "bike_id": "0d4444e9e28aa5553e3d6626e467c80c", "name": "0d4444e9e28aa5553e3d6626e467c80c", "lat": 38.892468, "is_disabled": 0, "lon": -76.99847033333333, "fusion_lat": 0.0, "is_reserved": 0}, {"rental_uris": {"ios": "https://dc.lft.to/lastmile_qr_scan", "android": "https://dc.lft.to/lastmile_qr_scan"}, "fusion_lon": 0.0, "type": "electric_scooter", "bike_id": "772b9aff7fc569921001535c03e08136", "name": "772b9aff7fc569921001535c03e08136", "lat": 38.88226366666667, "is_disabled": 0, "lon": -76.99079483333334, "fusion_lat": 0.0, "is_reserved": 0}, {"rental_uris": {"ios": "https://dc.lft.to/lastmile_qr_scan", "android": "https://dc.lft.to/lastmile_qr_scan"}, "fusion_lon": 0.0, "type": "electric_bike", "bike_id": "c822032cb0850f3ff3d46ce254e72e8b", "name": "c822032cb0850f3ff3d46ce254e72e8b", "lat": 38.865962, "is_disabled": 0, "lon": -76.932246, "fusion_lat": 0.0, "is_reserved": 0}, {"rental_uris": {"ios": "https://dc.lft.to/lastmile_qr_scan", "android": "https://dc.lft.to/lastmile_qr_scan"}, "fusion_lon": 0.0, "type": "electric_scooter", "bike_id": "dab9e22858c4fd6317cbee685fdbbba8", "name": "dab9e22858c4fd6317cbee685fdbbba8", "lat": 38.91927333333334, "is_disabled": 0, "lon": -77.03427433333333, "fusion_lat": 0.0, "is_reserved": 0}, {"rental_uris": {"ios": "https://dc.lft.to/lastmile_qr_scan", "android": "https://dc.lft.to/lastmile_qr_scan"}, "fusion_lon": 0.0, "type": "electric_scooter", "bike_id": "e55db9a003f4c2dec98c68b4ec7aa437", "name": "e55db9a003f4c2dec98c68b4ec7aa437", "lat": 38.915512666666665, "is_disabled": 0, "lon": -77.023691, "fusion_lat": 0.0, "is_reserved": 0}, {"rental_uris": {"ios": "https://dc.lft.to/lastmile_qr_scan", "android": "https://dc.lft.to/lastmile_qr_scan"}, "fusion_lon": 0.0, "type": "electric_scooter", "bike_id": "79a7e1202567f5e9f7841928117be67f", "name": "79a7e1202567f5e9f7841928117be67f", "lat": 38.907437333333334, "is_disabled": 0, "lon": -77.03465616666666, "fusion_lat": 0.0, "is_reserved": 0}, {"rental_uris": {"ios": "https://dc.lft.to/lastmile_qr_scan", "android": "https://dc.lft.to/lastmile_qr_scan"}, "fusion_lon": 0.0, "type": "electric_scooter", "bike_id": "3f6d9f04bf1d538ce7b0ed74e58a34b1", "name": "3f6d9f04bf1d538ce7b0ed74e58a34b1", "lat": 38.901105666666666, "is_disabled": 0, "lon": -77.033752, "fusion_lat": 0.0, "is_reserved": 0}, {"rental_uris": {"ios": "https://dc.lft.to/lastmile_qr_scan", "android": "https://dc.lft.to/lastmile_qr_scan"}, "fusion_lon": 0.0, "type": "electric_scooter", "bike_id": "f5caa6116133287da54c9886e101d615", "name": "f5caa6116133287da54c9886e101d615", "lat": 38.89012116666667, "is_disabled": 0, "lon": -76.9373705, "fusion_lat": 0.0, "is_reserved": 0}, {"rental_uris": {"ios": "https://dc.lft.to/lastmile_qr_scan", "android": "https://dc.lft.to/lastmile_qr_scan"}, "fusion_lon": 0.0, "type": "electric_scooter", "bike_id": "aa705ad6380d2dd00e2d74645dfe718c", "name": "aa705ad6380d2dd00e2d74645dfe718c", "lat": 38.919919, "is_disabled": 0, "lon": -76.98391633333334, "fusion_lat": 0.0, "is_reserved": 0}, {"rental_uris": {"ios": "https://dc.lft.to/lastmile_qr_scan", "android": "https://dc.lft.to/lastmile_qr_scan"}, "fusion_lon": 0.0, "type": "electric_scooter", "bike_id": "3a8c7f4951f7df362149881b1cf05260", "name": "3a8c7f4951f7df362149881b1cf05260", "lat": 38.9177265, "is_disabled": 0, "lon": -77.03202033333334, "fusion_lat": 0.0, "is_reserved": 0}, {"rental_uris": {"ios": "https://dc.lft.to/lastmile_qr_scan", "android": "https://dc.lft.to/lastmile_qr_scan"}, "fusion_lon": 0.0, "type": "electric_bike", "bike_id": "6d0372666564d629715fa32af3b38655", "name": "6d0372666564d629715fa32af3b38655", "lat": 38.85211566666667, "is_disabled": 0, "lon": -77.127573, "fusion_lat": 0.0, "is_reserved": 0}, {"rental_uris": {"ios": "https://dc.lft.to/lastmile_qr_scan", "android": "https://dc.lft.to/lastmile_qr_scan"}, "fusion_lon": 0.0, "type": "electric_scooter", "bike_id": "6d57e1c38c905b023d24a559d1641627", "name": "6d57e1c38c905b023d24a559d1641627", "lat": 38.897435333333334, "is_disabled": 0, "lon": -77.04719316666667, "fusion_lat": 0.0, "is_reserved": 0}, {"rental_uris": {"ios": "https://dc.lft.to/lastmile_qr_scan", "android": "https://dc.lft.to/lastmile_qr_scan"}, "fusion_lon": 0.0, "type": "electric_scooter", "bike_id": "2adc15a7877e64ae7d0a840f5ed78fec", "name": "2adc15a7877e64ae7d0a840f5ed78fec", "lat": 38.91558966666667, "is_disabled": 0, "lon": -77.03867783333334, "fusion_lat": 0.0, "is_reserved": 0}, {"rental_uris": {"ios": "https://dc.lft.to/lastmile_qr_scan", "android": "https://dc.lft.to/lastmile_qr_scan"}, "fusion_lon": 0.0, "type": "electric_scooter", "bike_id": "0667485b46cd19d5d640ed6aa5eaf4ae", "name": "0667485b46cd19d5d640ed6aa5eaf4ae", "lat": 38.934108333333334, "is_disabled": 0, "lon": -77.03258883333334, "fusion_lat": 0.0, "is_reserved": 0}, {"rental_uris": {"ios": "https://dc.lft.to/lastmile_qr_scan", "android": "https://dc.lft.to/lastmile_qr_scan"}, "fusion_lon": 0.0, "type": "electric_scooter", "bike_id": "91924d44bc39f46a987d772253bc09f2", "name": "91924d44bc39f46a987d772253bc09f2", "lat": 38.89749, "is_disabled": 0, "lon": -77.05147283333334, "fusion_lat": 0.0, "is_reserved": 0}, {"rental_uris": {"ios": "https://dc.lft.to/lastmile_qr_scan", "android": "https://dc.lft.to/lastmile_qr_scan"}, "fusion_lon": 0.0, "type": "electric_scooter", "bike_id": "879e34cb2778c576fc6d936d1288910d", "name": "879e34cb2778c576fc6d936d1288910d", "lat": 38.908562833333335, "is_disabled": 0, "lon": -77.043499, "fusion_lat": 0.0, "is_reserved": 0}, {"rental_uris": {"ios": "https://dc.lft.to/lastmile_qr_scan", "android": "https://dc.lft.to/lastmile_qr_scan"}, "fusion_lon": 0.0, "type": "electric_bike", "bike_id": "fa821a907d1946e732189377278c1a0b", "name": "fa821a907d1946e732189377278c1a0b", "lat": 38.9449275, "is_disabled": 0, "lon": -77.00681316666666, "fusion_lat": 0.0, "is_reserved": 0}, {"rental_uris": {"ios": "https://dc.lft.to/lastmile_qr_scan", "android": "https://dc.lft.to/lastmile_qr_scan"}, "fusion_lon": 0.0, "type": "electric_scooter", "bike_id": "6bbfbf48912a2ebee84ca8b98b7a66b7", "name": "6bbfbf48912a2ebee84ca8b98b7a66b7", "lat": 38.922405499999996, "is_disabled": 0, "lon": -77.0180685, "fusion_lat": 0.0, "is_reserved": 0}, {"rental_uris": {"ios": "https://dc.lft.to/lastmile_qr_scan", "android": "https://dc.lft.to/lastmile_qr_scan"}, "fusion_lon": 0.0, "type": "electric_scooter", "bike_id": "cd2bdb775d2a0d669ea69b3251cdeca9", "name": "cd2bdb775d2a0d669ea69b3251cdeca9", "lat": 38.90967666666667, "is_disabled": 0, "lon": -77.03396033333334, "fusion_lat": 0.0, "is_reserved": 0}, {"rental_uris": {"ios": "https://dc.lft.to/lastmile_qr_scan", "android": "https://dc.lft.to/lastmile_qr_scan"}, "fusion_lon": 0.0, "type": "electric_scooter", "bike_id": "42a6cd9a105203a33c7211e07e520ee9", "name": "42a6cd9a105203a33c7211e07e520ee9", "lat": 38.887406166666665, "is_disabled": 0, "lon": -77.01526416666667, "fusion_lat": 0.0, "is_reserved": 0}, {"rental_uris": {"ios": "https://dc.lft.to/lastmile_qr_scan", "android": "https://dc.lft.to/lastmile_qr_scan"}, "fusion_lon": 0.0, "type": "electric_scooter", "bike_id": "9cc6295a6c5efeaca88b5006b5c7c05a", "name": "9cc6295a6c5efeaca88b5006b5c7c05a", "lat": 38.9181635, "is_disabled": 0, "lon": -77.02474, "fusion_lat": 0.0, "is_reserved": 0}, {"rental_uris": {"ios": "https://dc.lft.to/lastmile_qr_scan", "android": "https://dc.lft.to/lastmile_qr_scan"}, "fusion_lon": 0.0, "type": "electric_scooter", "bike_id": "f45f08a23a775ef01c006668a549f7f8", "name": "f45f08a23a775ef01c006668a549f7f8", "lat": 38.90175083333333, "is_disabled": 0, "lon": -77.02600466666667, "fusion_lat": 0.0, "is_reserved": 0}, {"rental_uris": {"ios": "https://dc.lft.to/lastmile_qr_scan", "android": "https://dc.lft.to/lastmile_qr_scan"}, "fusion_lon": 0.0, "type": "electric_scooter", "bike_id": "c0cb41944b5320c7b7156a7998af471b", "name": "c0cb41944b5320c7b7156a7998af471b", "lat": 38.9141005, "is_disabled": 0, "lon": -77.039971, "fusion_lat": 0.0, "is_reserved": 0}, {"rental_uris": {"ios": "https://dc.lft.to/lastmile_qr_scan", "android": "https://dc.lft.to/lastmile_qr_scan"}, "fusion_lon": 0.0, "type": "electric_bike", "bike_id": "7fb402d9f5d51a0db01ac9bf81661c22", "name": "7fb402d9f5d51a0db01ac9bf81661c22", "lat": 38.88222283333333, "is_disabled": 0, "lon": -77.11520133333333, "fusion_lat": 0.0, "is_reserved": 0}, {"rental_uris": {"ios": "https://dc.lft.to/lastmile_qr_scan", "android": "https://dc.lft.to/lastmile_qr_scan"}, "fusion_lon": 0.0, "type": "electric_scooter", "bike_id": "7d7004fb8694588038112bcfad364b36", "name": "7d7004fb8694588038112bcfad364b36", "lat": 38.90733783333334, "is_disabled": 0, "lon": -77.034466, "fusion_lat": 0.0, "is_reserved": 0}, {"rental_uris": {"ios": "https://dc.lft.to/lastmile_qr_scan", "android": "https://dc.lft.to/lastmile_qr_scan"}, "fusion_lon": 0.0, "type": "electric_scooter", "bike_id": "a60678914e1ca8ebfbdb74cd22e40685", "name": "a60678914e1ca8ebfbdb74cd22e40685", "lat": 38.92862066666667, "is_disabled": 0, "lon": -77.03714666666667, "fusion_lat": 0.0, "is_reserved": 0}, {"rental_uris": {"ios": "https://dc.lft.to/lastmile_qr_scan", "android": "https://dc.lft.to/lastmile_qr_scan"}, "fusion_lon": 0.0, "type": "electric_scooter", "bike_id": "e4d49530677d02e5526195879afc2a4d", "name": "e4d49530677d02e5526195879afc2a4d", "lat": 38.907311166666666, "is_disabled": 0, "lon": -77.02282883333334, "fusion_lat": 0.0, "is_reserved": 0}, {"rental_uris": {"ios": "https://dc.lft.to/lastmile_qr_scan", "android": "https://dc.lft.to/lastmile_qr_scan"}, "fusion_lon": 0.0, "type": "electric_scooter", "bike_id": "91af1f43eab2ac84a4797a87c0a6be1e", "name": "91af1f43eab2ac84a4797a87c0a6be1e", "lat": 38.905121666666666, "is_disabled": 0, "lon": -77.034391, "fusion_lat": 0.0, "is_reserved": 0}, {"rental_uris": {"ios": "https://dc.lft.to/lastmile_qr_scan", "android": "https://dc.lft.to/lastmile_qr_scan"}, "fusion_lon": 0.0, "type": "electric_scooter", "bike_id": "92d936e61b55009e93df0f2e7d702573", "name": "92d936e61b55009e93df0f2e7d702573", "lat": 38.91709016666667, "is_disabled": 0, "lon": -77.02717083333333, "fusion_lat": 0.0, "is_reserved": 0}, {"rental_uris": {"ios": "https://dc.lft.to/lastmile_qr_scan", "android": "https://dc.lft.to/lastmile_qr_scan"}, "fusion_lon": 0.0, "type": "electric_scooter", "bike_id": "021ae312d893ff9de86fc10530de5f50", "name": "021ae312d893ff9de86fc10530de5f50", "lat": 38.90141033333333, "is_disabled": 0, "lon": -77.03978816666667, "fusion_lat": 0.0, "is_reserved": 0}, {"rental_uris": {"ios": "https://dc.lft.to/lastmile_qr_scan", "android": "https://dc.lft.to/lastmile_qr_scan"}, "fusion_lon": 0.0, "type": "electric_scooter", "bike_id": "32b00471fe57a4425727d7b6bc80b0bb", "name": "32b00471fe57a4425727d7b6bc80b0bb", "lat": 38.893542, "is_disabled": 0, "lon": -76.98469583333333, "fusion_lat": 0.0, "is_reserved": 0}, {"rental_uris": {"ios": "https://dc.lft.to/lastmile_qr_scan", "android": "https://dc.lft.to/lastmile_qr_scan"}, "fusion_lon": 0.0, "type": "electric_scooter", "bike_id": "8e7042d449849f834d74e20783bbb979", "name": "8e7042d449849f834d74e20783bbb979", "lat": 38.8922355, "is_disabled": 0, "lon": -77.03185, "fusion_lat": 0.0, "is_reserved": 0}, {"rental_uris": {"ios": "https://dc.lft.to/lastmile_qr_scan", "android": "https://dc.lft.to/lastmile_qr_scan"}, "fusion_lon": 0.0, "type": "electric_scooter", "bike_id": "94fd0471b0e4baaed97623579d8ecac1", "name": "94fd0471b0e4baaed97623579d8ecac1", "lat": 38.9062975, "is_disabled": 0, "lon": -77.06897633333334, "fusion_lat": 0.0, "is_reserved": 0}, {"rental_uris": {"ios": "https://dc.lft.to/lastmile_qr_scan", "android": "https://dc.lft.to/lastmile_qr_scan"}, "fusion_lon": 0.0, "type": "electric_bike", "bike_id": "f24175aaa563f9b71e306f19a86a6c8f", "name": "f24175aaa563f9b71e306f19a86a6c8f", "lat": 38.86793466666666, "is_disabled": 0, "lon": -77.01453866666667, "fusion_lat": 0.0, "is_reserved": 0}, {"rental_uris": {"ios": "https://dc.lft.to/lastmile_qr_scan", "android": "https://dc.lft.to/lastmile_qr_scan"}, "fusion_lon": 0.0, "type": "electric_scooter", "bike_id": "74ced9ff3ab03c3bc7fd0035a8633cfd", "name": "74ced9ff3ab03c3bc7fd0035a8633cfd", "lat": 38.907277666666666, "is_disabled": 0, "lon": -77.02975933333333, "fusion_lat": 0.0, "is_reserved": 0}, {"rental_uris": {"ios": "https://dc.lft.to/lastmile_qr_scan", "android": "https://dc.lft.to/lastmile_qr_scan"}, "fusion_lon": 0.0, "type": "electric_scooter", "bike_id": "f0e00fe794c30adb49637fa2811c4b88", "name": "f0e00fe794c30adb49637fa2811c4b88", "lat": 38.884122, "is_disabled": 0, "lon": -77.033006, "fusion_lat": 0.0, "is_reserved": 0}, {"rental_uris": {"ios": "https://dc.lft.to/lastmile_qr_scan", "android": "https://dc.lft.to/lastmile_qr_scan"}, "fusion_lon": 0.0, "type": "electric_scooter", "bike_id": "329a76fb9bf2f739d40a7605bc8fa936", "name": "329a76fb9bf2f739d40a7605bc8fa936", "lat": 38.893549166666666, "is_disabled": 0, "lon": -77.00336716666666, "fusion_lat": 0.0, "is_reserved": 0}, {"rental_uris": {"ios": "https://dc.lft.to/lastmile_qr_scan", "android": "https://dc.lft.to/lastmile_qr_scan"}, "fusion_lon": 0.0, "type": "electric_bike", "bike_id": "b2037d84991b4ccc15602fafb2148209", "name": "b2037d84991b4ccc15602fafb2148209", "lat": 38.99075766666667, "is_disabled": 0, "lon": -77.02381516666667, "fusion_lat": 0.0, "is_reserved": 0}, {"rental_uris": {"ios": "https://dc.lft.to/lastmile_qr_scan", "android": "https://dc.lft.to/lastmile_qr_scan"}, "fusion_lon": 0.0, "type": "electric_scooter", "bike_id": "6788373a04dfacd970ab00035994193f", "name": "6788373a04dfacd970ab00035994193f", "lat": 38.92037666666667, "is_disabled": 0, "lon": -77.0481215, "fusion_lat": 0.0, "is_reserved": 0}, {"rental_uris": {"ios": "https://dc.lft.to/lastmile_qr_scan", "android": "https://dc.lft.to/lastmile_qr_scan"}, "fusion_lon": 0.0, "type": "electric_bike", "bike_id": "0c86d14cab2a8869935a7244a7756ecb", "name": "0c86d14cab2a8869935a7244a7756ecb", "lat": 38.90973866666667, "is_disabled": 0, "lon": -77.0882495, "fusion_lat": 0.0, "is_reserved": 0}, {"rental_uris": {"ios": "https://dc.lft.to/lastmile_qr_scan", "android": "https://dc.lft.to/lastmile_qr_scan"}, "fusion_lon": 0.0, "type": "electric_scooter", "bike_id": "1f112e12f5e1a1635c3c3467cfbb07e3", "name": "1f112e12f5e1a1635c3c3467cfbb07e3", "lat": 38.88123366666667, "is_disabled": 0, "lon": -77.0207425, "fusion_lat": 0.0, "is_reserved": 0}, {"rental_uris": {"ios": "https://dc.lft.to/lastmile_qr_scan", "android": "https://dc.lft.to/lastmile_qr_scan"}, "fusion_lon": 0.0, "type": "electric_scooter", "bike_id": "982da0f859acd3b0acc9efdb6f7f0df1", "name": "982da0f859acd3b0acc9efdb6f7f0df1", "lat": 38.89220316666667, "is_disabled": 0, "lon": -77.02220016666666, "fusion_lat": 0.0, "is_reserved": 0}, {"rental_uris": {"ios": "https://dc.lft.to/lastmile_qr_scan", "android": "https://dc.lft.to/lastmile_qr_scan"}, "fusion_lon": 0.0, "type": "electric_bike", "bike_id": "d15bc563e047962bb898df9bdf8022ac", "name": "d15bc563e047962bb898df9bdf8022ac", "lat": 38.9235005, "is_disabled": 0, "lon": -76.99248183333333, "fusion_lat": 0.0, "is_reserved": 0}, {"rental_uris": {"ios": "https://dc.lft.to/lastmile_qr_scan", "android": "https://dc.lft.to/lastmile_qr_scan"}, "fusion_lon": 0.0, "type": "electric_scooter", "bike_id": "5c4da88592c26fa8bf983b1109d4de59", "name": "5c4da88592c26fa8bf983b1109d4de59", "lat": 38.917876, "is_disabled": 0, "lon": -77.04357516666667, "fusion_lat": 0.0, "is_reserved": 0}, {"rental_uris": {"ios": "https://dc.lft.to/lastmile_qr_scan", "android": "https://dc.lft.to/lastmile_qr_scan"}, "fusion_lon": 0.0, "type": "electric_scooter", "bike_id": "3605b3928e03ef5f46215e17e5a9c4de", "name": "3605b3928e03ef5f46215e17e5a9c4de", "lat": 38.919851666666666, "is_disabled": 0, "lon": -76.9731775, "fusion_lat": 0.0, "is_reserved": 0}, {"rental_uris": {"ios": "https://dc.lft.to/lastmile_qr_scan", "android": "https://dc.lft.to/lastmile_qr_scan"}, "fusion_lon": 0.0, "type": "electric_scooter", "bike_id": "cc34291e957a88fbabd3a37194dc15ef", "name": "cc34291e957a88fbabd3a37194dc15ef", "lat": 38.9169405, "is_disabled": 0, "lon": -77.0339335, "fusion_lat": 0.0, "is_reserved": 0}, {"rental_uris": {"ios": "https://dc.lft.to/lastmile_qr_scan", "android": "https://dc.lft.to/lastmile_qr_scan"}, "fusion_lon": 0.0, "type": "electric_scooter", "bike_id": "b975af1cf41faae5a92ab49ea93e7e05", "name": "b975af1cf41faae5a92ab49ea93e7e05", "lat": 38.867122, "is_disabled": 0, "lon": -76.98730116666667, "fusion_lat": 0.0, "is_reserved": 0}, {"rental_uris": {"ios": "https://dc.lft.to/lastmile_qr_scan", "android": "https://dc.lft.to/lastmile_qr_scan"}, "fusion_lon": 0.0, "type": "electric_scooter", "bike_id": "b0ad2aa5401e0e76a1a9421e309d3909", "name": "b0ad2aa5401e0e76a1a9421e309d3909", "lat": 38.90251683333334, "is_disabled": 0, "lon": -77.02148283333334, "fusion_lat": 0.0, "is_reserved": 0}, {"rental_uris": {"ios": "https://dc.lft.to/lastmile_qr_scan", "android": "https://dc.lft.to/lastmile_qr_scan"}, "fusion_lon": 0.0, "type": "electric_scooter", "bike_id": "dbf874c96938e12081709f8bf7324e30", "name": "dbf874c96938e12081709f8bf7324e30", "lat": 38.91101483333333, "is_disabled": 0, "lon": -77.04490133333333, "fusion_lat": 0.0, "is_reserved": 0}, {"rental_uris": {"ios": "https://dc.lft.to/lastmile_qr_scan", "android": "https://dc.lft.to/lastmile_qr_scan"}, "fusion_lon": 0.0, "type": "electric_scooter", "bike_id": "bffbffc7ba8c53e233e819c6e2f966f3", "name": "bffbffc7ba8c53e233e819c6e2f966f3", "lat": 38.90582883333333, "is_disabled": 0, "lon": -77.02393116666667, "fusion_lat": 0.0, "is_reserved": 0}, {"rental_uris": {"ios": "https://dc.lft.to/lastmile_qr_scan", "android": "https://dc.lft.to/lastmile_qr_scan"}, "fusion_lon": 0.0, "type": "electric_scooter", "bike_id": "007f019ab009dc9c082fd19dcc94e1ce", "name": "007f019ab009dc9c082fd19dcc94e1ce", "lat": 38.898775666666666, "is_disabled": 0, "lon": -77.0417705, "fusion_lat": 0.0, "is_reserved": 0}, {"rental_uris": {"ios": "https://dc.lft.to/lastmile_qr_scan", "android": "https://dc.lft.to/lastmile_qr_scan"}, "fusion_lon": 0.0, "type": "electric_scooter", "bike_id": "3c77716427185bd0fa12727197273007", "name": "3c77716427185bd0fa12727197273007", "lat": 38.90245016666667, "is_disabled": 0, "lon": -77.0309675, "fusion_lat": 0.0, "is_reserved": 0}, {"rental_uris": {"ios": "https://dc.lft.to/lastmile_qr_scan", "android": "https://dc.lft.to/lastmile_qr_scan"}, "fusion_lon": 0.0, "type": "electric_scooter", "bike_id": "0f100ec6be032cdb710d8f94c7be7d91", "name": "0f100ec6be032cdb710d8f94c7be7d91", "lat": 38.885027666666666, "is_disabled": 0, "lon": -77.005647, "fusion_lat": 0.0, "is_reserved": 0}, {"rental_uris": {"ios": "https://dc.lft.to/lastmile_qr_scan", "android": "https://dc.lft.to/lastmile_qr_scan"}, "fusion_lon": 0.0, "type": "electric_bike", "bike_id": "21fba0bee655dd43ca22cf5e044d86e7", "name": "21fba0bee655dd43ca22cf5e044d86e7", "lat": 39.003750833333335, "is_disabled": 0, "lon": -77.01297083333333, "fusion_lat": 0.0, "is_reserved": 0}, {"rental_uris": {"ios": "https://dc.lft.to/lastmile_qr_scan", "android": "https://dc.lft.to/lastmile_qr_scan"}, "fusion_lon": 0.0, "type": "electric_scooter", "bike_id": "1485542d1b7d33d989ba8b8b6d4d0741", "name": "1485542d1b7d33d989ba8b8b6d4d0741", "lat": 38.9181285, "is_disabled": 0, "lon": -77.03176566666667, "fusion_lat": 0.0, "is_reserved": 0}, {"rental_uris": {"ios": "https://dc.lft.to/lastmile_qr_scan", "android": "https://dc.lft.to/lastmile_qr_scan"}, "fusion_lon": 0.0, "type": "electric_scooter", "bike_id": "8d4be9b5faedbde8dd88121c8a6ba011", "name": "8d4be9b5faedbde8dd88121c8a6ba011", "lat": 38.925032, "is_disabled": 0, "lon": -77.035358, "fusion_lat": 0.0, "is_reserved": 0}, {"rental_uris": {"ios": "https://dc.lft.to/lastmile_qr_scan", "android": "https://dc.lft.to/lastmile_qr_scan"}, "fusion_lon": 0.0, "type": "electric_scooter", "bike_id": "265ac21de4e5ca801a1a128852b50008", "name": "265ac21de4e5ca801a1a128852b50008", "lat": 38.916359, "is_disabled": 0, "lon": -77.05055866666666, "fusion_lat": 0.0, "is_reserved": 0}, {"rental_uris": {"ios": "https://dc.lft.to/lastmile_qr_scan", "android": "https://dc.lft.to/lastmile_qr_scan"}, "fusion_lon": 0.0, "type": "electric_scooter", "bike_id": "447cd4d2487f9f0b9cbe729ad0d1fad9", "name": "447cd4d2487f9f0b9cbe729ad0d1fad9", "lat": 38.89744183333333, "is_disabled": 0, "lon": -77.01597683333334, "fusion_lat": 0.0, "is_reserved": 0}, {"rental_uris": {"ios": "https://dc.lft.to/lastmile_qr_scan", "android": "https://dc.lft.to/lastmile_qr_scan"}, "fusion_lon": 0.0, "type": "electric_scooter", "bike_id": "c301d3d94f7bc4e63890a45862238eb0", "name": "c301d3d94f7bc4e63890a45862238eb0", "lat": 38.93189133333333, "is_disabled": 0, "lon": -77.028359, "fusion_lat": 0.0, "is_reserved": 0}, {"rental_uris": {"ios": "https://dc.lft.to/lastmile_qr_scan", "android": "https://dc.lft.to/lastmile_qr_scan"}, "fusion_lon": 0.0, "type": "electric_scooter", "bike_id": "325c90a02b9c620a956853826e42ce4d", "name": "325c90a02b9c620a956853826e42ce4d", "lat": 38.90932033333333, "is_disabled": 0, "lon": -76.99223, "fusion_lat": 0.0, "is_reserved": 0}, {"rental_uris": {"ios": "https://dc.lft.to/lastmile_qr_scan", "android": "https://dc.lft.to/lastmile_qr_scan"}, "fusion_lon": 0.0, "type": "electric_scooter", "bike_id": "10e2f0f8d2ef7c5607283db21dbf9845", "name": "10e2f0f8d2ef7c5607283db21dbf9845", "lat": 38.89780416666667, "is_disabled": 0, "lon": -76.97098833333334, "fusion_lat": 0.0, "is_reserved": 0}, {"rental_uris": {"ios": "https://dc.lft.to/lastmile_qr_scan", "android": "https://dc.lft.to/lastmile_qr_scan"}, "fusion_lon": 0.0, "type": "electric_scooter", "bike_id": "32685b9231b69e7893a092cb5cfbd3a3", "name": "32685b9231b69e7893a092cb5cfbd3a3", "lat": 38.944453333333335, "is_disabled": 0, "lon": -77.06046283333333, "fusion_lat": 0.0, "is_reserved": 0}, {"rental_uris": {"ios": "https://dc.lft.to/lastmile_qr_scan", "android": "https://dc.lft.to/lastmile_qr_scan"}, "fusion_lon": 0.0, "type": "electric_scooter", "bike_id": "1c9e4a1fe0b1f8fb5a46a7a7e46b5109", "name": "1c9e4a1fe0b1f8fb5a46a7a7e46b5109", "lat": 38.90076066666666, "is_disabled": 0, "lon": -77.03923316666666, "fusion_lat": 0.0, "is_reserved": 0}, {"rental_uris": {"ios": "https://dc.lft.to/lastmile_qr_scan", "android": "https://dc.lft.to/lastmile_qr_scan"}, "fusion_lon": 0.0, "type": "electric_scooter", "bike_id": "cbe8e4198d117a7d049a4dd22de564c4", "name": "cbe8e4198d117a7d049a4dd22de564c4", "lat": 38.91059583333333, "is_disabled": 0, "lon": -77.02188166666667, "fusion_lat": 0.0, "is_reserved": 0}, {"rental_uris": {"ios": "https://dc.lft.to/lastmile_qr_scan", "android": "https://dc.lft.to/lastmile_qr_scan"}, "fusion_lon": 0.0, "type": "electric_scooter", "bike_id": "c7c18b3f8b2aa54f52a0b4fb3e66703f", "name": "c7c18b3f8b2aa54f52a0b4fb3e66703f", "lat": 38.9070885, "is_disabled": 0, "lon": -77.02390216666667, "fusion_lat": 0.0, "is_reserved": 0}, {"rental_uris": {"ios": "https://dc.lft.to/lastmile_qr_scan", "android": "https://dc.lft.to/lastmile_qr_scan"}, "fusion_lon": 0.0, "type": "electric_scooter", "bike_id": "eed48f45c822f54c3484fd4797bfb5c4", "name": "eed48f45c822f54c3484fd4797bfb5c4", "lat": 38.905300833333335, "is_disabled": 0, "lon": -77.047495, "fusion_lat": 0.0, "is_reserved": 0}, {"rental_uris": {"ios": "https://dc.lft.to/lastmile_qr_scan", "android": "https://dc.lft.to/lastmile_qr_scan"}, "fusion_lon": 0.0, "type": "electric_scooter", "bike_id": "38e2770191bb7ad4e7e21c085fcf6ad8", "name": "38e2770191bb7ad4e7e21c085fcf6ad8", "lat": 38.91658833333334, "is_disabled": 0, "lon": -77.046538, "fusion_lat": 0.0, "is_reserved": 0}, {"rental_uris": {"ios": "https://dc.lft.to/lastmile_qr_scan", "android": "https://dc.lft.to/lastmile_qr_scan"}, "fusion_lon": 0.0, "type": "electric_scooter", "bike_id": "dc040b25043c510edf94c1eafc7dba7e", "name": "dc040b25043c510edf94c1eafc7dba7e", "lat": 38.88202716666667, "is_disabled": 0, "lon": -77.01765633333333, "fusion_lat": 0.0, "is_reserved": 0}, {"rental_uris": {"ios": "https://dc.lft.to/lastmile_qr_scan", "android": "https://dc.lft.to/lastmile_qr_scan"}, "fusion_lon": 0.0, "type": "electric_scooter", "bike_id": "c4eea44b12d978cc8f573759046928fc", "name": "c4eea44b12d978cc8f573759046928fc", "lat": 38.9055635, "is_disabled": 0, "lon": -77.00605733333333, "fusion_lat": 0.0, "is_reserved": 0}, {"rental_uris": {"ios": "https://dc.lft.to/lastmile_qr_scan", "android": "https://dc.lft.to/lastmile_qr_scan"}, "fusion_lon": 0.0, "type": "electric_scooter", "bike_id": "133835594a25c98b4dfc2648bd65a36b", "name": "133835594a25c98b4dfc2648bd65a36b", "lat": 38.90521416666667, "is_disabled": 0, "lon": -77.05007666666667, "fusion_lat": 0.0, "is_reserved": 0}, {"rental_uris": {"ios": "https://dc.lft.to/lastmile_qr_scan", "android": "https://dc.lft.to/lastmile_qr_scan"}, "fusion_lon": 0.0, "type": "electric_scooter", "bike_id": "a9d15e4031142b81b2ce2f345f1fe817", "name": "a9d15e4031142b81b2ce2f345f1fe817", "lat": 38.9099175, "is_disabled": 0, "lon": -77.00909183333333, "fusion_lat": 0.0, "is_reserved": 0}, {"rental_uris": {"ios": "https://dc.lft.to/lastmile_qr_scan", "android": "https://dc.lft.to/lastmile_qr_scan"}, "fusion_lon": 0.0, "type": "electric_scooter", "bike_id": "9218d1fba46e478d20c36b23d5b1b0df", "name": "9218d1fba46e478d20c36b23d5b1b0df", "lat": 38.90279666666667, "is_disabled": 0, "lon": -77.01730966666666, "fusion_lat": 0.0, "is_reserved": 0}, {"rental_uris": {"ios": "https://dc.lft.to/lastmile_qr_scan", "android": "https://dc.lft.to/lastmile_qr_scan"}, "fusion_lon": 0.0, "type": "electric_scooter", "bike_id": "8bcde968466f8e9da7828f0fb2bdd5b9", "name": "8bcde968466f8e9da7828f0fb2bdd5b9", "lat": 38.91906266666667, "is_disabled": 0, "lon": -77.04168316666667, "fusion_lat": 0.0, "is_reserved": 0}, {"rental_uris": {"ios": "https://dc.lft.to/lastmile_qr_scan", "android": "https://dc.lft.to/lastmile_qr_scan"}, "fusion_lon": 0.0, "type": "electric_scooter", "bike_id": "7e89356912b181d8b1cf423a4ec0d255", "name": "7e89356912b181d8b1cf423a4ec0d255", "lat": 38.902605666666666, "is_disabled": 0, "lon": -77.03862833333334, "fusion_lat": 0.0, "is_reserved": 0}, {"rental_uris": {"ios": "https://dc.lft.to/lastmile_qr_scan", "android": "https://dc.lft.to/lastmile_qr_scan"}, "fusion_lon": 0.0, "type": "electric_bike", "bike_id": "cb8d1951f09e17c5888e5444f203ef77", "name": "cb8d1951f09e17c5888e5444f203ef77", "lat": 39.05202516666667, "is_disabled": 0, "lon": -77.04407166666667, "fusion_lat": 0.0, "is_reserved": 0}, {"rental_uris": {"ios": "https://dc.lft.to/lastmile_qr_scan", "android": "https://dc.lft.to/lastmile_qr_scan"}, "fusion_lon": 0.0, "type": "electric_scooter", "bike_id": "df91b2bfc0ebb0d48ae7a0f81a34ee28", "name": "df91b2bfc0ebb0d48ae7a0f81a34ee28", "lat": 38.887407333333336, "is_disabled": 0, "lon": -77.0153205, "fusion_lat": 0.0, "is_reserved": 0}, {"rental_uris": {"ios": "https://dc.lft.to/lastmile_qr_scan", "android": "https://dc.lft.to/lastmile_qr_scan"}, "fusion_lon": 0.0, "type": "electric_scooter", "bike_id": "ee5e4ccbcef5c15b102297facb84d9b3", "name": "ee5e4ccbcef5c15b102297facb84d9b3", "lat": 38.88664716666667, "is_disabled": 0, "lon": -77.00342666666667, "fusion_lat": 0.0, "is_reserved": 0}, {"rental_uris": {"ios": "https://dc.lft.to/lastmile_qr_scan", "android": "https://dc.lft.to/lastmile_qr_scan"}, "fusion_lon": 0.0, "type": "electric_scooter", "bike_id": "f53357de86bd8d4ea0ed6c461ca5af53", "name": "f53357de86bd8d4ea0ed6c461ca5af53", "lat": 38.913085333333335, "is_disabled": 0, "lon": -77.02023516666667, "fusion_lat": 0.0, "is_reserved": 0}, {"rental_uris": {"ios": "https://dc.lft.to/lastmile_qr_scan", "android": "https://dc.lft.to/lastmile_qr_scan"}, "fusion_lon": 0.0, "type": "electric_bike", "bike_id": "70860a11e0519284c1f56b14fb90d9f6", "name": "70860a11e0519284c1f56b14fb90d9f6", "lat": 38.897333333333336, "is_disabled": 0, "lon": -76.90540133333333, "fusion_lat": 0.0, "is_reserved": 0}, {"rental_uris": {"ios": "https://dc.lft.to/lastmile_qr_scan", "android": "https://dc.lft.to/lastmile_qr_scan"}, "fusion_lon": 0.0, "type": "electric_scooter", "bike_id": "e3fe4edc3da0b7e558e17b944a07ac5e", "name": "e3fe4edc3da0b7e558e17b944a07ac5e", "lat": 38.93525666666667, "is_disabled": 0, "lon": -77.032569, "fusion_lat": 0.0, "is_reserved": 0}, {"rental_uris": {"ios": "https://dc.lft.to/lastmile_qr_scan", "android": "https://dc.lft.to/lastmile_qr_scan"}, "fusion_lon": 0.0, "type": "electric_scooter", "bike_id": "70072677ed3de4ef08d148881588667c", "name": "70072677ed3de4ef08d148881588667c", "lat": 38.9136015, "is_disabled": 0, "lon": -77.0416565, "fusion_lat": 0.0, "is_reserved": 0}, {"rental_uris": {"ios": "https://dc.lft.to/lastmile_qr_scan", "android": "https://dc.lft.to/lastmile_qr_scan"}, "fusion_lon": 0.0, "type": "electric_scooter", "bike_id": "5f636f0e48f7c6c9362c2220581d1605", "name": "5f636f0e48f7c6c9362c2220581d1605", "lat": 38.89346333333334, "is_disabled": 0, "lon": -77.039939, "fusion_lat": 0.0, "is_reserved": 0}, {"rental_uris": {"ios": "https://dc.lft.to/lastmile_qr_scan", "android": "https://dc.lft.to/lastmile_qr_scan"}, "fusion_lon": 0.0, "type": "electric_scooter", "bike_id": "7b8c7ad4fa906e1c3f4f80c194e3431c", "name": "7b8c7ad4fa906e1c3f4f80c194e3431c", "lat": 38.886404666666664, "is_disabled": 0, "lon": -77.01369016666666, "fusion_lat": 0.0, "is_reserved": 0}, {"rental_uris": {"ios": "https://dc.lft.to/lastmile_qr_scan", "android": "https://dc.lft.to/lastmile_qr_scan"}, "fusion_lon": 0.0, "type": "electric_scooter", "bike_id": "8ec813ffbda65414c1e8d1e37228327e", "name": "8ec813ffbda65414c1e8d1e37228327e", "lat": 38.91730183333333, "is_disabled": 0, "lon": -77.03204333333333, "fusion_lat": 0.0, "is_reserved": 0}, {"rental_uris": {"ios": "https://dc.lft.to/lastmile_qr_scan", "android": "https://dc.lft.to/lastmile_qr_scan"}, "fusion_lon": 0.0, "type": "electric_scooter", "bike_id": "d0c582eabdac2f0cba0bec0b40f3d184", "name": "d0c582eabdac2f0cba0bec0b40f3d184", "lat": 38.898422333333336, "is_disabled": 0, "lon": -76.94632366666667, "fusion_lat": 0.0, "is_reserved": 0}, {"rental_uris": {"ios": "https://dc.lft.to/lastmile_qr_scan", "android": "https://dc.lft.to/lastmile_qr_scan"}, "fusion_lon": 0.0, "type": "electric_scooter", "bike_id": "9c7ff2d469c10a11551dd7b0241fd13f", "name": "9c7ff2d469c10a11551dd7b0241fd13f", "lat": 38.89556433333333, "is_disabled": 0, "lon": -77.004098, "fusion_lat": 0.0, "is_reserved": 0}, {"rental_uris": {"ios": "https://dc.lft.to/lastmile_qr_scan", "android": "https://dc.lft.to/lastmile_qr_scan"}, "fusion_lon": 0.0, "type": "electric_bike", "bike_id": "f0e4245fbe4ac85f23fd54da7c21761d", "name": "f0e4245fbe4ac85f23fd54da7c21761d", "lat": 38.980274666666666, "is_disabled": 0, "lon": -76.9291635, "fusion_lat": 0.0, "is_reserved": 0}, {"rental_uris": {"ios": "https://dc.lft.to/lastmile_qr_scan", "android": "https://dc.lft.to/lastmile_qr_scan"}, "fusion_lon": 0.0, "type": "electric_scooter", "bike_id": "b8d2723c938b21c576553af3c2b0dd72", "name": "b8d2723c938b21c576553af3c2b0dd72", "lat": 38.896258333333336, "is_disabled": 0, "lon": -77.02672833333334, "fusion_lat": 0.0, "is_reserved": 0}, {"rental_uris": {"ios": "https://dc.lft.to/lastmile_qr_scan", "android": "https://dc.lft.to/lastmile_qr_scan"}, "fusion_lon": 0.0, "type": "electric_scooter", "bike_id": "ecd456969c35136efdd7b3ec42104d56", "name": "ecd456969c35136efdd7b3ec42104d56", "lat": 38.915564833333335, "is_disabled": 0, "lon": -77.046104, "fusion_lat": 0.0, "is_reserved": 0}, {"rental_uris": {"ios": "https://dc.lft.to/lastmile_qr_scan", "android": "https://dc.lft.to/lastmile_qr_scan"}, "fusion_lon": 0.0, "type": "electric_scooter", "bike_id": "1004852d61b881569f0391642cba7f5b", "name": "1004852d61b881569f0391642cba7f5b", "lat": 38.902364, "is_disabled": 0, "lon": -77.0451, "fusion_lat": 0.0, "is_reserved": 0}, {"rental_uris": {"ios": "https://dc.lft.to/lastmile_qr_scan", "android": "https://dc.lft.to/lastmile_qr_scan"}, "fusion_lon": 0.0, "type": "electric_scooter", "bike_id": "0fac9f9fd1bba7148aafffb87942f122", "name": "0fac9f9fd1bba7148aafffb87942f122", "lat": 38.877306833333336, "is_disabled": 0, "lon": -77.00056916666666, "fusion_lat": 0.0, "is_reserved": 0}, {"rental_uris": {"ios": "https://dc.lft.to/lastmile_qr_scan", "android": "https://dc.lft.to/lastmile_qr_scan"}, "fusion_lon": 0.0, "type": "electric_scooter", "bike_id": "6717f0a8ae8dc9afc5b6fc731ee98da5", "name": "6717f0a8ae8dc9afc5b6fc731ee98da5", "lat": 38.9126765, "is_disabled": 0, "lon": -77.04152733333333, "fusion_lat": 0.0, "is_reserved": 0}, {"rental_uris": {"ios": "https://dc.lft.to/lastmile_qr_scan", "android": "https://dc.lft.to/lastmile_qr_scan"}, "fusion_lon": 0.0, "type": "electric_scooter", "bike_id": "953379d7acd1832abdfe9446af88173a", "name": "953379d7acd1832abdfe9446af88173a", "lat": 38.90743233333333, "is_disabled": 0, "lon": -77.03464533333333, "fusion_lat": 0.0, "is_reserved": 0}, {"rental_uris": {"ios": "https://dc.lft.to/lastmile_qr_scan", "android": "https://dc.lft.to/lastmile_qr_scan"}, "fusion_lon": 0.0, "type": "electric_scooter", "bike_id": "c29a01d0da8fe33575dad0c54e3b1a68", "name": "c29a01d0da8fe33575dad0c54e3b1a68", "lat": 38.915797833333336, "is_disabled": 0, "lon": -77.0199625, "fusion_lat": 0.0, "is_reserved": 0}, {"rental_uris": {"ios": "https://dc.lft.to/lastmile_qr_scan", "android": "https://dc.lft.to/lastmile_qr_scan"}, "fusion_lon": 0.0, "type": "electric_scooter", "bike_id": "92fed6668ddba145c4eea28b95c8c848", "name": "92fed6668ddba145c4eea28b95c8c848", "lat": 38.902845666666664, "is_disabled": 0, "lon": -77.02428166666667, "fusion_lat": 0.0, "is_reserved": 0}, {"rental_uris": {"ios": "https://dc.lft.to/lastmile_qr_scan", "android": "https://dc.lft.to/lastmile_qr_scan"}, "fusion_lon": 0.0, "type": "electric_scooter", "bike_id": "af302510003013b39c19258006ebdbe7", "name": "af302510003013b39c19258006ebdbe7", "lat": 38.909482833333335, "is_disabled": 0, "lon": -77.04527283333333, "fusion_lat": 0.0, "is_reserved": 0}, {"rental_uris": {"ios": "https://dc.lft.to/lastmile_qr_scan", "android": "https://dc.lft.to/lastmile_qr_scan"}, "fusion_lon": 0.0, "type": "electric_scooter", "bike_id": "678099a3e8395fd3704667141fffdaf2", "name": "678099a3e8395fd3704667141fffdaf2", "lat": 38.9024205, "is_disabled": 0, "lon": -77.04507633333333, "fusion_lat": 0.0, "is_reserved": 0}, {"rental_uris": {"ios": "https://dc.lft.to/lastmile_qr_scan", "android": "https://dc.lft.to/lastmile_qr_scan"}, "fusion_lon": 0.0, "type": "electric_scooter", "bike_id": "f60a179a9a054693ae89090f864334f5", "name": "f60a179a9a054693ae89090f864334f5", "lat": 38.910454666666666, "is_disabled": 0, "lon": -77.04392783333333, "fusion_lat": 0.0, "is_reserved": 0}, {"rental_uris": {"ios": "https://dc.lft.to/lastmile_qr_scan", "android": "https://dc.lft.to/lastmile_qr_scan"}, "fusion_lon": 0.0, "type": "electric_scooter", "bike_id": "6d00a479b5bca52bf10d8d45c7968056", "name": "6d00a479b5bca52bf10d8d45c7968056", "lat": 38.92076866666667, "is_disabled": 0, "lon": -77.02512333333334, "fusion_lat": 0.0, "is_reserved": 0}, {"rental_uris": {"ios": "https://dc.lft.to/lastmile_qr_scan", "android": "https://dc.lft.to/lastmile_qr_scan"}, "fusion_lon": 0.0, "type": "electric_scooter", "bike_id": "ff06eb4277110a1d9ae31635d0eacbc6", "name": "ff06eb4277110a1d9ae31635d0eacbc6", "lat": 38.89874666666667, "is_disabled": 0, "lon": -76.9318645, "fusion_lat": 0.0, "is_reserved": 0}, {"rental_uris": {"ios": "https://dc.lft.to/lastmile_qr_scan", "android": "https://dc.lft.to/lastmile_qr_scan"}, "fusion_lon": 0.0, "type": "electric_scooter", "bike_id": "e03439c935c33b03acde7fcb2a8baeb3", "name": "e03439c935c33b03acde7fcb2a8baeb3", "lat": 38.89217083333333, "is_disabled": 0, "lon": -77.00332683333333, "fusion_lat": 0.0, "is_reserved": 0}, {"rental_uris": {"ios": "https://dc.lft.to/lastmile_qr_scan", "android": "https://dc.lft.to/lastmile_qr_scan"}, "fusion_lon": 0.0, "type": "electric_scooter", "bike_id": "8796063fb70b8c7100355f5b7adfcdcb", "name": "8796063fb70b8c7100355f5b7adfcdcb", "lat": 38.90103966666667, "is_disabled": 0, "lon": -77.0320315, "fusion_lat": 0.0, "is_reserved": 0}, {"rental_uris": {"ios": "https://dc.lft.to/lastmile_qr_scan", "android": "https://dc.lft.to/lastmile_qr_scan"}, "fusion_lon": 0.0, "type": "electric_bike", "bike_id": "c0b84eb5ee1c7b6c04b7603d3cd6a310", "name": "c0b84eb5ee1c7b6c04b7603d3cd6a310", "lat": 38.99250516666667, "is_disabled": 0, "lon": -77.04997716666666, "fusion_lat": 0.0, "is_reserved": 0}, {"rental_uris": {"ios": "https://dc.lft.to/lastmile_qr_scan", "android": "https://dc.lft.to/lastmile_qr_scan"}, "fusion_lon": 0.0, "type": "electric_scooter", "bike_id": "1edba71dd4eb2fcc3b4781ba6704bba7", "name": "1edba71dd4eb2fcc3b4781ba6704bba7", "lat": 38.90967533333333, "is_disabled": 0, "lon": -77.0217615, "fusion_lat": 0.0, "is_reserved": 0}, {"rental_uris": {"ios": "https://dc.lft.to/lastmile_qr_scan", "android": "https://dc.lft.to/lastmile_qr_scan"}, "fusion_lon": 0.0, "type": "electric_bike", "bike_id": "d75952203ee8c0940ae7d7e66f9389f3", "name": "d75952203ee8c0940ae7d7e66f9389f3", "lat": 38.86859416666667, "is_disabled": 0, "lon": -76.91656383333333, "fusion_lat": 0.0, "is_reserved": 0}, {"rental_uris": {"ios": "https://dc.lft.to/lastmile_qr_scan", "android": "https://dc.lft.to/lastmile_qr_scan"}, "fusion_lon": 0.0, "type": "electric_scooter", "bike_id": "bf8f3ed42d6b7a2df9207be2b672ba06", "name": "bf8f3ed42d6b7a2df9207be2b672ba06", "lat": 38.91416916666667, "is_disabled": 0, "lon": -77.03903916666667, "fusion_lat": 0.0, "is_reserved": 0}, {"rental_uris": {"ios": "https://dc.lft.to/lastmile_qr_scan", "android": "https://dc.lft.to/lastmile_qr_scan"}, "fusion_lon": 0.0, "type": "electric_scooter", "bike_id": "6c3b01816e92d76718605bf75b163761", "name": "6c3b01816e92d76718605bf75b163761", "lat": 38.884979666666666, "is_disabled": 0, "lon": -77.00563133333333, "fusion_lat": 0.0, "is_reserved": 0}, {"rental_uris": {"ios": "https://dc.lft.to/lastmile_qr_scan", "android": "https://dc.lft.to/lastmile_qr_scan"}, "fusion_lon": 0.0, "type": "electric_bike", "bike_id": "c6eed098bbb883726d64ebb00e6e0d86", "name": "c6eed098bbb883726d64ebb00e6e0d86", "lat": 38.93190883333333, "is_disabled": 0, "lon": -77.229419, "fusion_lat": 0.0, "is_reserved": 0}, {"rental_uris": {"ios": "https://dc.lft.to/lastmile_qr_scan", "android": "https://dc.lft.to/lastmile_qr_scan"}, "fusion_lon": 0.0, "type": "electric_scooter", "bike_id": "06a08a7f68cbcd4de740d2375d3d85f7", "name": "06a08a7f68cbcd4de740d2375d3d85f7", "lat": 38.91751216666667, "is_disabled": 0, "lon": -77.02491566666667, "fusion_lat": 0.0, "is_reserved": 0}, {"rental_uris": {"ios": "https://dc.lft.to/lastmile_qr_scan", "android": "https://dc.lft.to/lastmile_qr_scan"}, "fusion_lon": 0.0, "type": "electric_scooter", "bike_id": "96ec12c59d2c6b6c7244b9771191af6e", "name": "96ec12c59d2c6b6c7244b9771191af6e", "lat": 38.89354083333333, "is_disabled": 0, "lon": -77.003355, "fusion_lat": 0.0, "is_reserved": 0}, {"rental_uris": {"ios": "https://dc.lft.to/lastmile_qr_scan", "android": "https://dc.lft.to/lastmile_qr_scan"}, "fusion_lon": 0.0, "type": "electric_scooter", "bike_id": "7ba158a1c14e6f7526a572e99648c0ba", "name": "7ba158a1c14e6f7526a572e99648c0ba", "lat": 38.892237333333334, "is_disabled": 0, "lon": -77.03181033333334, "fusion_lat": 0.0, "is_reserved": 0}, {"rental_uris": {"ios": "https://dc.lft.to/lastmile_qr_scan", "android": "https://dc.lft.to/lastmile_qr_scan"}, "fusion_lon": 0.0, "type": "electric_scooter", "bike_id": "e51add37252ca7c0245ff8f4630a07f0", "name": "e51add37252ca7c0245ff8f4630a07f0", "lat": 38.90559316666667, "is_disabled": 0, "lon": -77.03460383333334, "fusion_lat": 0.0, "is_reserved": 0}, {"rental_uris": {"ios": "https://dc.lft.to/lastmile_qr_scan", "android": "https://dc.lft.to/lastmile_qr_scan"}, "fusion_lon": 0.0, "type": "electric_scooter", "bike_id": "bc018268d926df7acc5c8e32ec6d5204", "name": "bc018268d926df7acc5c8e32ec6d5204", "lat": 38.90507483333333, "is_disabled": 0, "lon": -77.06151616666666, "fusion_lat": 0.0, "is_reserved": 0}, {"rental_uris": {"ios": "https://dc.lft.to/lastmile_qr_scan", "android": "https://dc.lft.to/lastmile_qr_scan"}, "fusion_lon": 0.0, "type": "electric_scooter", "bike_id": "0c060cd70f74082be009fb79adb517ca", "name": "0c060cd70f74082be009fb79adb517ca", "lat": 38.92471, "is_disabled": 0, "lon": -77.022456, "fusion_lat": 0.0, "is_reserved": 0}, {"rental_uris": {"ios": "https://dc.lft.to/lastmile_qr_scan", "android": "https://dc.lft.to/lastmile_qr_scan"}, "fusion_lon": 0.0, "type": "electric_scooter", "bike_id": "5e4fa0441ab80b6da3a57ec767562047", "name": "5e4fa0441ab80b6da3a57ec767562047", "lat": 38.929694166666664, "is_disabled": 0, "lon": -77.00530166666667, "fusion_lat": 0.0, "is_reserved": 0}, {"rental_uris": {"ios": "https://dc.lft.to/lastmile_qr_scan", "android": "https://dc.lft.to/lastmile_qr_scan"}, "fusion_lon": 0.0, "type": "electric_scooter", "bike_id": "fea46a1e0b8101e59ccf851cf29b5638", "name": "fea46a1e0b8101e59ccf851cf29b5638", "lat": 38.901164, "is_disabled": 0, "lon": -77.0279245, "fusion_lat": 0.0, "is_reserved": 0}, {"rental_uris": {"ios": "https://dc.lft.to/lastmile_qr_scan", "android": "https://dc.lft.to/lastmile_qr_scan"}, "fusion_lon": 0.0, "type": "electric_bike", "bike_id": "952e4b5915e231357ab7761d4a13963a", "name": "952e4b5915e231357ab7761d4a13963a", "lat": 39.058115666666666, "is_disabled": 0, "lon": -77.12625416666667, "fusion_lat": 0.0, "is_reserved": 0}, {"rental_uris": {"ios": "https://dc.lft.to/lastmile_qr_scan", "android": "https://dc.lft.to/lastmile_qr_scan"}, "fusion_lon": 0.0, "type": "electric_scooter", "bike_id": "f8d77da81961f1724d456892daebd36c", "name": "f8d77da81961f1724d456892daebd36c", "lat": 38.9177295, "is_disabled": 0, "lon": -77.01498566666666, "fusion_lat": 0.0, "is_reserved": 0}, {"rental_uris": {"ios": "https://dc.lft.to/lastmile_qr_scan", "android": "https://dc.lft.to/lastmile_qr_scan"}, "fusion_lon": 0.0, "type": "electric_scooter", "bike_id": "3bb5ae82d9a9c4001b997de767ac5743", "name": "3bb5ae82d9a9c4001b997de767ac5743", "lat": 38.92055416666667, "is_disabled": 0, "lon": -76.9988415, "fusion_lat": 0.0, "is_reserved": 0}, {"rental_uris": {"ios": "https://dc.lft.to/lastmile_qr_scan", "android": "https://dc.lft.to/lastmile_qr_scan"}, "fusion_lon": 0.0, "type": "electric_scooter", "bike_id": "c1f24ce3604249e3025c0751ffbe8f2a", "name": "c1f24ce3604249e3025c0751ffbe8f2a", "lat": 38.934972, "is_disabled": 0, "lon": -77.027183, "fusion_lat": 0.0, "is_reserved": 0}, {"rental_uris": {"ios": "https://dc.lft.to/lastmile_qr_scan", "android": "https://dc.lft.to/lastmile_qr_scan"}, "fusion_lon": 0.0, "type": "electric_scooter", "bike_id": "b9224d736d77e91ed904753dc202f4ed", "name": "b9224d736d77e91ed904753dc202f4ed", "lat": 38.895240333333334, "is_disabled": 0, "lon": -76.94888566666667, "fusion_lat": 0.0, "is_reserved": 0}, {"rental_uris": {"ios": "https://dc.lft.to/lastmile_qr_scan", "android": "https://dc.lft.to/lastmile_qr_scan"}, "fusion_lon": 0.0, "type": "electric_scooter", "bike_id": "21c8ab0ae9d4876edf8b63fd4b91f47f", "name": "21c8ab0ae9d4876edf8b63fd4b91f47f", "lat": 38.93255216666667, "is_disabled": 0, "lon": -77.02974883333333, "fusion_lat": 0.0, "is_reserved": 0}, {"rental_uris": {"ios": "https://dc.lft.to/lastmile_qr_scan", "android": "https://dc.lft.to/lastmile_qr_scan"}, "fusion_lon": 0.0, "type": "electric_scooter", "bike_id": "c8d80c144f14b89ce1704945ba422494", "name": "c8d80c144f14b89ce1704945ba422494", "lat": 38.91578466666667, "is_disabled": 0, "lon": -77.01997433333334, "fusion_lat": 0.0, "is_reserved": 0}, {"rental_uris": {"ios": "https://dc.lft.to/lastmile_qr_scan", "android": "https://dc.lft.to/lastmile_qr_scan"}, "fusion_lon": 0.0, "type": "electric_scooter", "bike_id": "3e2810b8ca589f40e84d9735cb995810", "name": "3e2810b8ca589f40e84d9735cb995810", "lat": 38.910379166666665, "is_disabled": 0, "lon": -77.03617816666667, "fusion_lat": 0.0, "is_reserved": 0}, {"rental_uris": {"ios": "https://dc.lft.to/lastmile_qr_scan", "android": "https://dc.lft.to/lastmile_qr_scan"},