{"data": {"bikes": [{"is_reserved": 0, "type": "electric_scooter", "bike_id": "b872426ebe79de08b4d7cc4f0cfff104", "lat": 38.92676866666667, "lon": -77.00737, "rental_uris": {"android": "https://dc.lft.to/lastmile_qr_scan", "ios": "https://dc.lft.to/lastmile_qr_scan"}, "is_disabled": 0, "fusion_lat": 0.0, "name": "b872426ebe79de08b4d7cc4f0cfff104", "fusion_lon": 0.0}, {"is_reserved": 0, "type": "electric_scooter", "bike_id": "44b80d61654c22ffe9bc3f83a57e84e2", "lat": 38.921554666666665, "lon": -77.03362116666666, "rental_uris": {"android": "https://dc.lft.to/lastmile_qr_scan", "ios": "https://dc.lft.to/lastmile_qr_scan"}, "is_disabled": 0, "fusion_lat": 0.0, "name": "44b80d61654c22ffe9bc3f83a57e84e2", "fusion_lon": 0.0}, {"is_reserved": 0, "type": "electric_scooter", "bike_id": "39594e673a0ab6d13d375881a7d09bb5", "lat": 38.89544466666667, "lon": -76.98338566666666, "rental_uris": {"android": "https://dc.lft.to/lastmile_qr_scan", "ios": "https://dc.lft.to/lastmile_qr_scan"}, "is_disabled": 0, "fusion_lat": 0.0, "name": "39594e673a0ab6d13d375881a7d09bb5", "fusion_lon": 0.0}, {"is_reserved": 0, "type": "electric_scooter", "bike_id": "6c4c7b4c0b557d0f09414ee2d38ce56a", "lat": 38.927048166666665, "lon": -77.02072716666666, "rental_uris": {"android": "https://dc.lft.to/lastmile_qr_scan", "ios": "https://dc.lft.to/lastmile_qr_scan"}, "is_disabled": 0, "fusion_lat": 0.0, "name": "6c4c7b4c0b557d0f09414ee2d38ce56a", "fusion_lon": 0.0}, {"is_reserved": 0, "type": "electric_scooter", "bike_id": "ad5fdb036cf06ff95a3304172d9ac34d", "lat": 38.90542133333334, "lon": -77.0073205, "rental_uris": {"android": "https://dc.lft.to/lastmile_qr_scan", "ios": "https://dc.lft.to/lastmile_qr_scan"}, "is_disabled": 0, "fusion_lat": 0.0, "name": "ad5fdb036cf06ff95a3304172d9ac34d", "fusion_lon": 0.0}, {"is_reserved": 0, "type": "electric_scooter", "bike_id": "27a670c09944ab29f981bf2db18b4995", "lat": 38.908655333333336, "lon": -77.04658466666666, "rental_uris": {"android": "https://dc.lft.to/lastmile_qr_scan", "ios": "https://dc.lft.to/lastmile_qr_scan"}, "is_disabled": 0, "fusion_lat": 0.0, "name": "27a670c09944ab29f981bf2db18b4995", "fusion_lon": 0.0}, {"is_reserved": 0, "type": "electric_scooter", "bike_id": "4b61f91028e94aec5b5d4fa0a215e56a", "lat": 38.94008383333333, "lon": -77.01906916666667, "rental_uris": {"android": "https://dc.lft.to/lastmile_qr_scan", "ios": "https://dc.lft.to/lastmile_qr_scan"}, "is_disabled": 0, "fusion_lat": 0.0, "name": "4b61f91028e94aec5b5d4fa0a215e56a", "fusion_lon": 0.0}, {"is_reserved": 0, "type": "electric_scooter", "bike_id": "b0886fec009d097557bfbafdb47d0e4e", "lat": 38.9176855, "lon": -77.02307683333333, "rental_uris": {"android": "https://dc.lft.to/lastmile_qr_scan", "ios": "https://dc.lft.to/lastmile_qr_scan"}, "is_disabled": 0, "fusion_lat": 0.0, "name": "b0886fec009d097557bfbafdb47d0e4e", "fusion_lon": 0.0}, {"is_reserved": 0, "type": "electric_scooter", "bike_id": "a0dd7d04fda4cea4a10c1f483f92e025", "lat": 38.9223665, "lon": -77.03525066666667, "rental_uris": {"android": "https://dc.lft.to/lastmile_qr_scan", "ios": "https://dc.lft.to/lastmile_qr_scan"}, "is_disabled": 0, "fusion_lat": 0.0, "name": "a0dd7d04fda4cea4a10c1f483f92e025", "fusion_lon": 0.0}, {"is_reserved": 0, "type": "electric_scooter", "bike_id": "250211bb14a56b522671c8f389dffaa7", "lat": 38.91569166666667, "lon": -77.03661966666667, "rental_uris": {"android": "https://dc.lft.to/lastmile_qr_scan", "ios": "https://dc.lft.to/lastmile_qr_scan"}, "is_disabled": 0, "fusion_lat": 0.0, "name": "250211bb14a56b522671c8f389dffaa7", "fusion_lon": 0.0}, {"is_reserved": 0, "type": "electric_scooter", "bike_id": "28da6db197cd8a3d8141f4104e880923", "lat": 38.92318516666667, "lon": -77.03713766666667, "rental_uris": {"android": "https://dc.lft.to/lastmile_qr_scan", "ios": "https://dc.lft.to/lastmile_qr_scan"}, "is_disabled": 0, "fusion_lat": 0.0, "name": "28da6db197cd8a3d8141f4104e880923", "fusion_lon": 0.0}, {"is_reserved": 0, "type": "electric_scooter", "bike_id": "9143324a07600378b88dae0db07b431d", "lat": 38.9196755, "lon": -77.0272985, "rental_uris": {"android": "https://dc.lft.to/lastmile_qr_scan", "ios": "https://dc.lft.to/lastmile_qr_scan"}, "is_disabled": 0, "fusion_lat": 0.0, "name": "9143324a07600378b88dae0db07b431d", "fusion_lon": 0.0}, {"is_reserved": 0, "type": "electric_scooter", "bike_id": "37bc284ce10362acd8e9331a18144ec8", "lat": 38.9245455, "lon": -77.00853066666667, "rental_uris": {"android": "https://dc.lft.to/lastmile_qr_scan", "ios": "https://dc.lft.to/lastmile_qr_scan"}, "is_disabled": 0, "fusion_lat": 0.0, "name": "37bc284ce10362acd8e9331a18144ec8", "fusion_lon": 0.0}, {"is_reserved": 0, "type": "electric_scooter", "bike_id": "6461153bbde0196b83097152e7edf112", "lat": 38.90597316666667, "lon": -77.06423866666667, "rental_uris": {"android": "https://dc.lft.to/lastmile_qr_scan", "ios": "https://dc.lft.to/lastmile_qr_scan"}, "is_disabled": 0, "fusion_lat": 0.0, "name": "6461153bbde0196b83097152e7edf112", "fusion_lon": 0.0}, {"is_reserved": 0, "type": "electric_scooter", "bike_id": "dec1d4ccf01ea50b3b82dc793c3e9886", "lat": 38.90837766666667, "lon": -77.00277, "rental_uris": {"android": "https://dc.lft.to/lastmile_qr_scan", "ios": "https://dc.lft.to/lastmile_qr_scan"}, "is_disabled": 0, "fusion_lat": 0.0, "name": "dec1d4ccf01ea50b3b82dc793c3e9886", "fusion_lon": 0.0}, {"is_reserved": 0, "type": "electric_scooter", "bike_id": "80d4b49f81c8a4f5de1a5d7ebe2fee2c", "lat": 38.8935645, "lon": -77.02997033333334, "rental_uris": {"android": "https://dc.lft.to/lastmile_qr_scan", "ios": "https://dc.lft.to/lastmile_qr_scan"}, "is_disabled": 0, "fusion_lat": 0.0, "name": "80d4b49f81c8a4f5de1a5d7ebe2fee2c", "fusion_lon": 0.0}, {"is_reserved": 0, "type": "electric_scooter", "bike_id": "6f2f0012eb72964f684eb6ac02f6079a", "lat": 38.92092816666667, "lon": -77.071796, "rental_uris": {"android": "https://dc.lft.to/lastmile_qr_scan", "ios": "https://dc.lft.to/lastmile_qr_scan"}, "is_disabled": 0, "fusion_lat": 0.0, "name": "6f2f0012eb72964f684eb6ac02f6079a", "fusion_lon": 0.0}, {"is_reserved": 0, "type": "electric_scooter", "bike_id": "1c6d5b88d71fcee86a61199d23ee3285", "lat": 38.877645333333334, "lon": -76.99535916666666, "rental_uris": {"android": "https://dc.lft.to/lastmile_qr_scan", "ios": "https://dc.lft.to/lastmile_qr_scan"}, "is_disabled": 0, "fusion_lat": 0.0, "name": "1c6d5b88d71fcee86a61199d23ee3285", "fusion_lon": 0.0}, {"is_reserved": 0, "type": "electric_scooter", "bike_id": "c49d7b0a3b34269542b9e645f4953aa5", "lat": 38.91606783333334, "lon": -77.00273283333334, "rental_uris": {"android": "https://dc.lft.to/lastmile_qr_scan", "ios": "https://dc.lft.to/lastmile_qr_scan"}, "is_disabled": 0, "fusion_lat": 0.0, "name": "c49d7b0a3b34269542b9e645f4953aa5", "fusion_lon": 0.0}, {"is_reserved": 0, "type": "electric_scooter", "bike_id": "69e016ee6be7aaf1db2f78d0c80cdeeb", "lat": 38.95299216666667, "lon": -77.0684915, "rental_uris": {"android": "https://dc.lft.to/lastmile_qr_scan", "ios": "https://dc.lft.to/lastmile_qr_scan"}, "is_disabled": 0, "fusion_lat": 0.0, "name": "69e016ee6be7aaf1db2f78d0c80cdeeb", "fusion_lon": 0.0}, {"is_reserved": 0, "type": "electric_scooter", "bike_id": "5ebc1fd6aaf5c3438bffd0b50824f8f0", "lat": 38.910407666666664, "lon": -77.030936, "rental_uris": {"android": "https://dc.lft.to/lastmile_qr_scan", "ios": "https://dc.lft.to/lastmile_qr_scan"}, "is_disabled": 0, "fusion_lat": 0.0, "name": "5ebc1fd6aaf5c3438bffd0b50824f8f0", "fusion_lon": 0.0}, {"is_reserved": 0, "type": "electric_scooter", "bike_id": "b76d7735eb91db2ab3c2c4d0f1ac9c41", "lat": 38.899525, "lon": -77.053894, "rental_uris": {"android": "https://dc.lft.to/lastmile_qr_scan", "ios": "https://dc.lft.to/lastmile_qr_scan"}, "is_disabled": 0, "fusion_lat": 0.0, "name": "b76d7735eb91db2ab3c2c4d0f1ac9c41", "fusion_lon": 0.0}, {"is_reserved": 0, "type": "electric_scooter", "bike_id": "5d725c4fc320204f48e94335daa86828", "lat": 38.923991666666666, "lon": -77.05047316666666, "rental_uris": {"android": "https://dc.lft.to/lastmile_qr_scan", "ios": "https://dc.lft.to/lastmile_qr_scan"}, "is_disabled": 0, "fusion_lat": 0.0, "name": "5d725c4fc320204f48e94335daa86828", "fusion_lon": 0.0}, {"is_reserved": 0, "type": "electric_scooter", "bike_id": "84b47ab529d1d92c2651cf92cbf336e1", "lat": 38.89727383333334, "lon": -77.0216765, "rental_uris": {"android": "https://dc.lft.to/lastmile_qr_scan", "ios": "https://dc.lft.to/lastmile_qr_scan"}, "is_disabled": 0, "fusion_lat": 0.0, "name": "84b47ab529d1d92c2651cf92cbf336e1", "fusion_lon": 0.0}, {"is_reserved": 0, "type": "electric_scooter", "bike_id": "300f2b02a2be6c0ed3a9a2f39c2a56c8", "lat": 38.9009945, "lon": -76.9810365, "rental_uris": {"android": "https://dc.lft.to/lastmile_qr_scan", "ios": "https://dc.lft.to/lastmile_qr_scan"}, "is_disabled": 0, "fusion_lat": 0.0, "name": "300f2b02a2be6c0ed3a9a2f39c2a56c8", "fusion_lon": 0.0}, {"is_reserved": 0, "type": "electric_scooter", "bike_id": "7c3e57e4adbc47152779ff51af268fa1", "lat": 38.92381533333333, "lon": -77.02889966666666, "rental_uris": {"android": "https://dc.lft.to/lastmile_qr_scan", "ios": "https://dc.lft.to/lastmile_qr_scan"}, "is_disabled": 0, "fusion_lat": 0.0, "name": "7c3e57e4adbc47152779ff51af268fa1", "fusion_lon": 0.0}, {"is_reserved": 0, "type": "electric_scooter", "bike_id": "7a288ef9cbf766579e004c8120190c2c", "lat": 38.89621366666667, "lon": -76.9973605, "rental_uris": {"android": "https://dc.lft.to/lastmile_qr_scan", "ios": "https://dc.lft.to/lastmile_qr_scan"}, "is_disabled": 0, "fusion_lat": 0.0, "name": "7a288ef9cbf766579e004c8120190c2c", "fusion_lon": 0.0}, {"is_reserved": 0, "type": "electric_scooter", "bike_id": "83c28c020cece708f59baadf0c9573db", "lat": 38.900920166666666, "lon": -77.01879083333333, "rental_uris": {"android": "https://dc.lft.to/lastmile_qr_scan", "ios": "https://dc.lft.to/lastmile_qr_scan"}, "is_disabled": 0, "fusion_lat": 0.0, "name": "83c28c020cece708f59baadf0c9573db", "fusion_lon": 0.0}, {"is_reserved": 0, "type": "electric_scooter", "bike_id": "f012adf74065fbefbe5bb69a6943c374", "lat": 38.93632616666667, "lon": -77.05905983333334, "rental_uris": {"android": "https://dc.lft.to/lastmile_qr_scan", "ios": "https://dc.lft.to/lastmile_qr_scan"}, "is_disabled": 0, "fusion_lat": 0.0, "name": "f012adf74065fbefbe5bb69a6943c374", "fusion_lon": 0.0}, {"is_reserved": 0, "type": "electric_scooter", "bike_id": "9a6d0f1079ef0858265a654892e3a715", "lat": 38.9001355, "lon": -76.99173533333334, "rental_uris": {"android": "https://dc.lft.to/lastmile_qr_scan", "ios": "https://dc.lft.to/lastmile_qr_scan"}, "is_disabled": 0, "fusion_lat": 0.0, "name": "9a6d0f1079ef0858265a654892e3a715", "fusion_lon": 0.0}, {"is_reserved": 0, "type": "electric_bike", "bike_id": "7cd6b05d025f3264987051f03eb8cbf3", "lat": 38.9587615, "lon": -76.970557, "rental_uris": {"android": "https://dc.lft.to/lastmile_qr_scan", "ios": "https://dc.lft.to/lastmile_qr_scan"}, "is_disabled": 0, "fusion_lat": 0.0, "name": "7cd6b05d025f3264987051f03eb8cbf3", "fusion_lon": 0.0}, {"is_reserved": 0, "type": "electric_bike", "bike_id": "936db54fd70be69852a4d7779fa2eaa1", "lat": 38.9456345, "lon": -76.95842933333333, "rental_uris": {"android": "https://dc.lft.to/lastmile_qr_scan", "ios": "https://dc.lft.to/lastmile_qr_scan"}, "is_disabled": 0, "fusion_lat": 0.0, "name": "936db54fd70be69852a4d7779fa2eaa1", "fusion_lon": 0.0}, {"is_reserved": 0, "type": "electric_scooter", "bike_id": "3eda6a75fefe641167f3d25496108758", "lat": 38.9078775, "lon": -77.02810183333334, "rental_uris": {"android": "https://dc.lft.to/lastmile_qr_scan", "ios": "https://dc.lft.to/lastmile_qr_scan"}, "is_disabled": 0, "fusion_lat": 0.0, "name": "3eda6a75fefe641167f3d25496108758", "fusion_lon": 0.0}, {"is_reserved": 0, "type": "electric_scooter", "bike_id": "4ba9f51564bfb45f2281787de3eb8489", "lat": 38.902304, "lon": -77.04156883333333, "rental_uris": {"android": "https://dc.lft.to/lastmile_qr_scan", "ios": "https://dc.lft.to/lastmile_qr_scan"}, "is_disabled": 0, "fusion_lat": 0.0, "name": "4ba9f51564bfb45f2281787de3eb8489", "fusion_lon": 0.0}, {"is_reserved": 0, "type": "electric_scooter", "bike_id": "0c698b4038707f0890d1318a20506003", "lat": 38.902120833333335, "lon": -77.05110166666667, "rental_uris": {"android": "https://dc.lft.to/lastmile_qr_scan", "ios": "https://dc.lft.to/lastmile_qr_scan"}, "is_disabled": 0, "fusion_lat": 0.0, "name": "0c698b4038707f0890d1318a20506003", "fusion_lon": 0.0}, {"is_reserved": 0, "type": "electric_scooter", "bike_id": "30b7d309a38ac4e1d3bf5a390319f09a", "lat": 38.8793315, "lon": -77.01675433333334, "rental_uris": {"android": "https://dc.lft.to/lastmile_qr_scan", "ios": "https://dc.lft.to/lastmile_qr_scan"}, "is_disabled": 0, "fusion_lat": 0.0, "name": "30b7d309a38ac4e1d3bf5a390319f09a", "fusion_lon": 0.0}, {"is_reserved": 0, "type": "electric_scooter", "bike_id": "15d7648ba2862c0c5fd38e8c5d959c7d", "lat": 38.92007983333333, "lon": -77.0318635, "rental_uris": {"android": "https://dc.lft.to/lastmile_qr_scan", "ios": "https://dc.lft.to/lastmile_qr_scan"}, "is_disabled": 0, "fusion_lat": 0.0, "name": "15d7648ba2862c0c5fd38e8c5d959c7d", "fusion_lon": 0.0}, {"is_reserved": 0, "type": "electric_scooter", "bike_id": "4eb96a90f761a5133a7c6010cc966e47", "lat": 38.93114116666667, "lon": -77.02320933333333, "rental_uris": {"android": "https://dc.lft.to/lastmile_qr_scan", "ios": "https://dc.lft.to/lastmile_qr_scan"}, "is_disabled": 0, "fusion_lat": 0.0, "name": "4eb96a90f761a5133a7c6010cc966e47", "fusion_lon": 0.0}, {"is_reserved": 0, "type": "electric_scooter", "bike_id": "1f9b4ae62a4d2e7d2a1bea798ce1c8cd", "lat": 38.88768133333333, "lon": -76.99160833333333, "rental_uris": {"android": "https://dc.lft.to/lastmile_qr_scan", "ios": "https://dc.lft.to/lastmile_qr_scan"}, "is_disabled": 0, "fusion_lat": 0.0, "name": "1f9b4ae62a4d2e7d2a1bea798ce1c8cd", "fusion_lon": 0.0}, {"is_reserved": 0, "type": "electric_bike", "bike_id": "79ed0a5c85ade89316df1bc034ab3b7f", "lat": 38.84083483333333, "lon": -77.08933033333334, "rental_uris": {"android": "https://dc.lft.to/lastmile_qr_scan", "ios": "https://dc.lft.to/lastmile_qr_scan"}, "is_disabled": 0, "fusion_lat": 0.0, "name": "79ed0a5c85ade89316df1bc034ab3b7f", "fusion_lon": 0.0}, {"is_reserved": 0, "type": "electric_scooter", "bike_id": "b7cc8c26b7ff7b91dcc30e7c900bf062", "lat": 38.874713666666665, "lon": -77.005487, "rental_uris": {"android": "https://dc.lft.to/lastmile_qr_scan", "ios": "https://dc.lft.to/lastmile_qr_scan"}, "is_disabled": 0, "fusion_lat": 0.0, "name": "b7cc8c26b7ff7b91dcc30e7c900bf062", "fusion_lon": 0.0}, {"is_reserved": 0, "type": "electric_scooter", "bike_id": "1bd4349a96cc122c44911dcf481f33c6", "lat": 38.88301116666667, "lon": -76.94854050000001, "rental_uris": {"android": "https://dc.lft.to/lastmile_qr_scan", "ios": "https://dc.lft.to/lastmile_qr_scan"}, "is_disabled": 0, "fusion_lat": 0.0, "name": "1bd4349a96cc122c44911dcf481f33c6", "fusion_lon": 0.0}, {"is_reserved": 0, "type": "electric_scooter", "bike_id": "b925715dd12d8919771cb5fe9ac305e3", "lat": 38.910045333333336, "lon": -76.99415333333333, "rental_uris": {"android": "https://dc.lft.to/lastmile_qr_scan", "ios": "https://dc.lft.to/lastmile_qr_scan"}, "is_disabled": 0, "fusion_lat": 0.0, "name": "b925715dd12d8919771cb5fe9ac305e3", "fusion_lon": 0.0}, {"is_reserved": 0, "type": "electric_scooter", "bike_id": "5cdf30f23894032b6cfff5d7dea625a1", "lat": 38.9192105, "lon": -77.04630383333334, "rental_uris": {"android": "https://dc.lft.to/lastmile_qr_scan", "ios": "https://dc.lft.to/lastmile_qr_scan"}, "is_disabled": 0, "fusion_lat": 0.0, "name": "5cdf30f23894032b6cfff5d7dea625a1", "fusion_lon": 0.0}, {"is_reserved": 0, "type": "electric_scooter", "bike_id": "0ded2cd27a73efe0a14b6b750e439ed8", "lat": 38.92252083333333, "lon": -77.03084166666666, "rental_uris": {"android": "https://dc.lft.to/lastmile_qr_scan", "ios": "https://dc.lft.to/lastmile_qr_scan"}, "is_disabled": 0, "fusion_lat": 0.0, "name": "0ded2cd27a73efe0a14b6b750e439ed8", "fusion_lon": 0.0}, {"is_reserved": 0, "type": "electric_bike", "bike_id": "640b9a70c902c80d281be6d9903a2760", "lat": 38.870074, "lon": -77.22989783333334, "rental_uris": {"android": "https://dc.lft.to/lastmile_qr_scan", "ios": "https://dc.lft.to/lastmile_qr_scan"}, "is_disabled": 0, "fusion_lat": 0.0, "name": "640b9a70c902c80d281be6d9903a2760", "fusion_lon": 0.0}, {"is_reserved": 0, "type": "electric_bike", "bike_id": "d80cb6d8230164d5660d15a93cdd86d1", "lat": 38.85418083333333, "lon": -77.08371416666667, "rental_uris": {"android": "https://dc.lft.to/lastmile_qr_scan", "ios": "https://dc.lft.to/lastmile_qr_scan"}, "is_disabled": 0, "fusion_lat": 0.0, "name": "d80cb6d8230164d5660d15a93cdd86d1", "fusion_lon": 0.0}, {"is_reserved": 0, "type": "electric_scooter", "bike_id": "2cd5f5e93976364fc3ae3958ef1b0572", "lat": 38.88626383333333, "lon": -77.02224833333334, "rental_uris": {"android": "https://dc.lft.to/lastmile_qr_scan", "ios": "https://dc.lft.to/lastmile_qr_scan"}, "is_disabled": 0, "fusion_lat": 0.0, "name": "2cd5f5e93976364fc3ae3958ef1b0572", "fusion_lon": 0.0}, {"is_reserved": 0, "type": "electric_scooter", "bike_id": "5e9a4e9d2921af57a4844f3b84a47999", "lat": 38.92525466666667, "lon": -77.0506305, "rental_uris": {"android": "https://dc.lft.to/lastmile_qr_scan", "ios": "https://dc.lft.to/lastmile_qr_scan"}, "is_disabled": 0, "fusion_lat": 0.0, "name": "5e9a4e9d2921af57a4844f3b84a47999", "fusion_lon": 0.0}, {"is_reserved": 0, "type": "electric_bike", "bike_id": "ab85dbe7d16211df8b0226eb5b666cde", "lat": 38.863311333333336, "lon": -76.98723383333333, "rental_uris": {"android": "https://dc.lft.to/lastmile_qr_scan", "ios": "https://dc.lft.to/lastmile_qr_scan"}, "is_disabled": 0, "fusion_lat": 0.0, "name": "ab85dbe7d16211df8b0226eb5b666cde", "fusion_lon": 0.0}, {"is_reserved": 0, "type": "electric_scooter", "bike_id": "66323303f5c4cf95656ab57c85619f87", "lat": 38.87540333333333, "lon": -77.00043583333333, "rental_uris": {"android": "https://dc.lft.to/lastmile_qr_scan", "ios": "https://dc.lft.to/lastmile_qr_scan"}, "is_disabled": 0, "fusion_lat": 0.0, "name": "66323303f5c4cf95656ab57c85619f87", "fusion_lon": 0.0}, {"is_reserved": 0, "type": "electric_scooter", "bike_id": "e11699dd34c4a965e57899089dea8170", "lat": 38.91829383333334, "lon": -77.03194916666666, "rental_uris": {"android": "https://dc.lft.to/lastmile_qr_scan", "ios": "https://dc.lft.to/lastmile_qr_scan"}, "is_disabled": 0, "fusion_lat": 0.0, "name": "e11699dd34c4a965e57899089dea8170", "fusion_lon": 0.0}, {"is_reserved": 0, "type": "electric_scooter", "bike_id": "a33e65d15b361b05cbea9dee1b7d58db", "lat": 38.920603666666665, "lon": -77.02288316666667, "rental_uris": {"android": "https://dc.lft.to/lastmile_qr_scan", "ios": "https://dc.lft.to/lastmile_qr_scan"}, "is_disabled": 0, "fusion_lat": 0.0, "name": "a33e65d15b361b05cbea9dee1b7d58db", "fusion_lon": 0.0}, {"is_reserved": 0, "type": "electric_scooter", "bike_id": "39263a2b0eca51da2276d32e2d4bb5d8", "lat": 38.908490666666665, "lon": -77.04471933333333, "rental_uris": {"android": "https://dc.lft.to/lastmile_qr_scan", "ios": "https://dc.lft.to/lastmile_qr_scan"}, "is_disabled": 0, "fusion_lat": 0.0, "name": "39263a2b0eca51da2276d32e2d4bb5d8", "fusion_lon": 0.0}, {"is_reserved": 0, "type": "electric_scooter", "bike_id": "043ea7b1b621405b3872ed7d1be7bb93", "lat": 38.91817183333333, "lon": -77.04179316666666, "rental_uris": {"android": "https://dc.lft.to/lastmile_qr_scan", "ios": "https://dc.lft.to/lastmile_qr_scan"}, "is_disabled": 0, "fusion_lat": 0.0, "name": "043ea7b1b621405b3872ed7d1be7bb93", "fusion_lon": 0.0}, {"is_reserved": 0, "type": "electric_scooter", "bike_id": "67ff1d95eec267555e5a5dc270102745", "lat": 38.92377366666667, "lon": -77.041134, "rental_uris": {"android": "https://dc.lft.to/lastmile_qr_scan", "ios": "https://dc.lft.to/lastmile_qr_scan"}, "is_disabled": 0, "fusion_lat": 0.0, "name": "67ff1d95eec267555e5a5dc270102745", "fusion_lon": 0.0}, {"is_reserved": 0, "type": "electric_scooter", "bike_id": "bf4c088a5e23b1561a655fa73f25cfc2", "lat": 38.92607683333333, "lon": -77.04312616666667, "rental_uris": {"android": "https://dc.lft.to/lastmile_qr_scan", "ios": "https://dc.lft.to/lastmile_qr_scan"}, "is_disabled": 0, "fusion_lat": 0.0, "name": "bf4c088a5e23b1561a655fa73f25cfc2", "fusion_lon": 0.0}, {"is_reserved": 0, "type": "electric_scooter", "bike_id": "c6d618c875527927d91d3d2e5205d7a2", "lat": 38.925863166666666, "lon": -77.02600183333334, "rental_uris": {"android": "https://dc.lft.to/lastmile_qr_scan", "ios": "https://dc.lft.to/lastmile_qr_scan"}, "is_disabled": 0, "fusion_lat": 0.0, "name": "c6d618c875527927d91d3d2e5205d7a2", "fusion_lon": 0.0}, {"is_reserved": 0, "type": "electric_scooter", "bike_id": "806de60ad510934762ab9b3b84aba5d9", "lat": 38.915804, "lon": -77.01229966666666, "rental_uris": {"android": "https://dc.lft.to/lastmile_qr_scan", "ios": "https://dc.lft.to/lastmile_qr_scan"}, "is_disabled": 0, "fusion_lat": 0.0, "name": "806de60ad510934762ab9b3b84aba5d9", "fusion_lon": 0.0}, {"is_reserved": 0, "type": "electric_scooter", "bike_id": "d9866edc7b6cacc9c9ea5ef96beb0daa", "lat": 38.91110116666667, "lon": -77.03827966666667, "rental_uris": {"android": "https://dc.lft.to/lastmile_qr_scan", "ios": "https://dc.lft.to/lastmile_qr_scan"}, "is_disabled": 0, "fusion_lat": 0.0, "name": "d9866edc7b6cacc9c9ea5ef96beb0daa", "fusion_lon": 0.0}, {"is_reserved": 0, "type": "electric_scooter", "bike_id": "583e7b576f3a1301759d5bf0076d3288", "lat": 38.92688533333333, "lon": -76.997787, "rental_uris": {"android": "https://dc.lft.to/lastmile_qr_scan", "ios": "https://dc.lft.to/lastmile_qr_scan"}, "is_disabled": 0, "fusion_lat": 0.0, "name": "583e7b576f3a1301759d5bf0076d3288", "fusion_lon": 0.0}, {"is_reserved": 0, "type": "electric_scooter", "bike_id": "43d016bdb684b813e6a951accbf062ab", "lat": 38.90443116666667, "lon": -77.03120633333333, "rental_uris": {"android": "https://dc.lft.to/lastmile_qr_scan", "ios": "https://dc.lft.to/lastmile_qr_scan"}, "is_disabled": 0, "fusion_lat": 0.0, "name": "43d016bdb684b813e6a951accbf062ab", "fusion_lon": 0.0}, {"is_reserved": 0, "type": "electric_scooter", "bike_id": "0501ecb61206263bc3565c89786849b1", "lat": 38.905641, "lon": -77.0060855, "rental_uris": {"android": "https://dc.lft.to/lastmile_qr_scan", "ios": "https://dc.lft.to/lastmile_qr_scan"}, "is_disabled": 0, "fusion_lat": 0.0, "name": "0501ecb61206263bc3565c89786849b1", "fusion_lon": 0.0}, {"is_reserved": 0, "type": "electric_bike", "bike_id": "ceac8d758f558f3ea2037e8585277219", "lat": 39.08493933333333, "lon": -76.95064166666667, "rental_uris": {"android": "https://dc.lft.to/lastmile_qr_scan", "ios": "https://dc.lft.to/lastmile_qr_scan"}, "is_disabled": 0, "fusion_lat": 0.0, "name": "ceac8d758f558f3ea2037e8585277219", "fusion_lon": 0.0}, {"is_reserved": 0, "type": "electric_scooter", "bike_id": "3f3c8d1b184e6292f5d0ca07291a5f4f", "lat": 38.89985733333333, "lon": -77.02289433333333, "rental_uris": {"android": "https://dc.lft.to/lastmile_qr_scan", "ios": "https://dc.lft.to/lastmile_qr_scan"}, "is_disabled": 0, "fusion_lat": 0.0, "name": "3f3c8d1b184e6292f5d0ca07291a5f4f", "fusion_lon": 0.0}, {"is_reserved": 0, "type": "electric_scooter", "bike_id": "cd74acf55c2e8005c25ca147c391bf2b", "lat": 38.9203575, "lon": -77.0121795, "rental_uris": {"android": "https://dc.lft.to/lastmile_qr_scan", "ios": "https://dc.lft.to/lastmile_qr_scan"}, "is_disabled": 0, "fusion_lat": 0.0, "name": "cd74acf55c2e8005c25ca147c391bf2b", "fusion_lon": 0.0}, {"is_reserved": 0, "type": "electric_scooter", "bike_id": "05cc294498973a0327c73a949027c579", "lat": 38.944377333333335, "lon": -76.97961483333333, "rental_uris": {"android": "https://dc.lft.to/lastmile_qr_scan", "ios": "https://dc.lft.to/lastmile_qr_scan"}, "is_disabled": 0, "fusion_lat": 0.0, "name": "05cc294498973a0327c73a949027c579", "fusion_lon": 0.0}, {"is_reserved": 0, "type": "electric_scooter", "bike_id": "8b230470ffcee7e1e0fc71bf9661fee9", "lat": 38.9341065, "lon": -77.02039, "rental_uris": {"android": "https://dc.lft.to/lastmile_qr_scan", "ios": "https://dc.lft.to/lastmile_qr_scan"}, "is_disabled": 0, "fusion_lat": 0.0, "name": "8b230470ffcee7e1e0fc71bf9661fee9", "fusion_lon": 0.0}, {"is_reserved": 0, "type": "electric_scooter", "bike_id": "80962bf2c99119b15f4f3b106b05b90c", "lat": 38.92585666666667, "lon": -77.04103233333333, "rental_uris": {"android": "https://dc.lft.to/lastmile_qr_scan", "ios": "https://dc.lft.to/lastmile_qr_scan"}, "is_disabled": 0, "fusion_lat": 0.0, "name": "80962bf2c99119b15f4f3b106b05b90c", "fusion_lon": 0.0}, {"is_reserved": 0, "type": "electric_scooter", "bike_id": "7a7cf26d4e1aca956deef29630a8d060", "lat": 38.89891333333333, "lon": -77.01619133333334, "rental_uris": {"android": "https://dc.lft.to/lastmile_qr_scan", "ios": "https://dc.lft.to/lastmile_qr_scan"}, "is_disabled": 0, "fusion_lat": 0.0, "name": "7a7cf26d4e1aca956deef29630a8d060", "fusion_lon": 0.0}, {"is_reserved": 0, "type": "electric_scooter", "bike_id": "50e0433850eae736edf10db7f1a508b9", "lat": 38.91896066666666, "lon": -77.03498083333334, "rental_uris": {"android": "https://dc.lft.to/lastmile_qr_scan", "ios": "https://dc.lft.to/lastmile_qr_scan"}, "is_disabled": 0, "fusion_lat": 0.0, "name": "50e0433850eae736edf10db7f1a508b9", "fusion_lon": 0.0}, {"is_reserved": 0, "type": "electric_scooter", "bike_id": "08981beba850845e29f6de6b72623482", "lat": 38.911265, "lon": -77.020955, "rental_uris": {"android": "https://dc.lft.to/lastmile_qr_scan", "ios": "https://dc.lft.to/lastmile_qr_scan"}, "is_disabled": 0, "fusion_lat": 0.0, "name": "08981beba850845e29f6de6b72623482", "fusion_lon": 0.0}, {"is_reserved": 0, "type": "electric_scooter", "bike_id": "3c8d965bd575b38c0b4a47c43d1754d4", "lat": 38.934804166666666, "lon": -77.05649433333333, "rental_uris": {"android": "https://dc.lft.to/lastmile_qr_scan", "ios": "https://dc.lft.to/lastmile_qr_scan"}, "is_disabled": 0, "fusion_lat": 0.0, "name": "3c8d965bd575b38c0b4a47c43d1754d4", "fusion_lon": 0.0}, {"is_reserved": 0, "type": "electric_scooter", "bike_id": "da40401df4ff492349b17773fc78c833", "lat": 38.8989305, "lon": -77.00349583333333, "rental_uris": {"android": "https://dc.lft.to/lastmile_qr_scan", "ios": "https://dc.lft.to/lastmile_qr_scan"}, "is_disabled": 0, "fusion_lat": 0.0, "name": "da40401df4ff492349b17773fc78c833", "fusion_lon": 0.0}, {"is_reserved": 0, "type": "electric_scooter", "bike_id": "c2d44e604398800d956b456363857a68", "lat": 38.926416, "lon": -77.0531305, "rental_uris": {"android": "https://dc.lft.to/lastmile_qr_scan", "ios": "https://dc.lft.to/lastmile_qr_scan"}, "is_disabled": 0, "fusion_lat": 0.0, "name": "c2d44e604398800d956b456363857a68", "fusion_lon": 0.0}, {"is_reserved": 0, "type": "electric_bike", "bike_id": "23f0dc5541abee38cc7259119cd75735", "lat": 38.939619666666665, "lon": -77.02752266666667, "rental_uris": {"android": "https://dc.lft.to/lastmile_qr_scan", "ios": "https://dc.lft.to/lastmile_qr_scan"}, "is_disabled": 0, "fusion_lat": 0.0, "name": "23f0dc5541abee38cc7259119cd75735", "fusion_lon": 0.0}, {"is_reserved": 0, "type": "electric_scooter", "bike_id": "9bdea87a2f6b4c4e098b0ff5edab580d", "lat": 38.90015433333333, "lon": -77.0118575, "rental_uris": {"android": "https://dc.lft.to/lastmile_qr_scan", "ios": "https://dc.lft.to/lastmile_qr_scan"}, "is_disabled": 0, "fusion_lat": 0.0, "name": "9bdea87a2f6b4c4e098b0ff5edab580d", "fusion_lon": 0.0}, {"is_reserved": 0, "type": "electric_scooter", "bike_id": "3d6766fc329d9a48d96b8c81333bc11b", "lat": 38.88204433333333, "lon": -77.006052, "rental_uris": {"android": "https://dc.lft.to/lastmile_qr_scan", "ios": "https://dc.lft.to/lastmile_qr_scan"}, "is_disabled": 0, "fusion_lat": 0.0, "name": "3d6766fc329d9a48d96b8c81333bc11b", "fusion_lon": 0.0}, {"is_reserved": 0, "type": "electric_scooter", "bike_id": "d1cdb812d00df3b05279b8698b15b34d", "lat": 38.922894, "lon": -77.03194016666667, "rental_uris": {"android": "https://dc.lft.to/lastmile_qr_scan", "ios": "https://dc.lft.to/lastmile_qr_scan"}, "is_disabled": 0, "fusion_lat": 0.0, "name": "d1cdb812d00df3b05279b8698b15b34d", "fusion_lon": 0.0}, {"is_reserved": 0, "type": "electric_scooter", "bike_id": "fb6e0b753400fadf30b11621a57a7ee2", "lat": 38.921078666666666, "lon": -77.03927366666667, "rental_uris": {"android": "https://dc.lft.to/lastmile_qr_scan", "ios": "https://dc.lft.to/lastmile_qr_scan"}, "is_disabled": 0, "fusion_lat": 0.0, "name": "fb6e0b753400fadf30b11621a57a7ee2", "fusion_lon": 0.0}, {"is_reserved": 0, "type": "electric_scooter", "bike_id": "d36deba4c8e07367daa4b7361d13e1ee", "lat": 38.896479166666666, "lon": -77.0330805, "rental_uris": {"android": "https://dc.lft.to/lastmile_qr_scan", "ios": "https://dc.lft.to/lastmile_qr_scan"}, "is_disabled": 0, "fusion_lat": 0.0, "name": "d36deba4c8e07367daa4b7361d13e1ee", "fusion_lon": 0.0}, {"is_reserved": 0, "type": "electric_scooter", "bike_id": "b44b141011090fab560b3cb986990ae1", "lat": 38.959603, "lon": -77.07269133333334, "rental_uris": {"android": "https://dc.lft.to/lastmile_qr_scan", "ios": "https://dc.lft.to/lastmile_qr_scan"}, "is_disabled": 0, "fusion_lat": 0.0, "name": "b44b141011090fab560b3cb986990ae1", "fusion_lon": 0.0}, {"is_reserved": 0, "type": "electric_scooter", "bike_id": "6d4f3b1ca06ecdee0ed4c7ea49a528c0", "lat": 38.889182, "lon": -76.9938385, "rental_uris": {"android": "https://dc.lft.to/lastmile_qr_scan", "ios": "https://dc.lft.to/lastmile_qr_scan"}, "is_disabled": 0, "fusion_lat": 0.0, "name": "6d4f3b1ca06ecdee0ed4c7ea49a528c0", "fusion_lon": 0.0}, {"is_reserved": 0, "type": "electric_scooter", "bike_id": "d2a208301c69bb285bbf1b7ab242ac86", "lat": 38.876842833333335, "lon": -76.9962885, "rental_uris": {"android": "https://dc.lft.to/lastmile_qr_scan", "ios": "https://dc.lft.to/lastmile_qr_scan"}, "is_disabled": 0, "fusion_lat": 0.0, "name": "d2a208301c69bb285bbf1b7ab242ac86", "fusion_lon": 0.0}, {"is_reserved": 0, "type": "electric_scooter", "bike_id": "b12b1b8f84b24ec9bd8e0efd57b6bd8e", "lat": 38.9193855, "lon": -77.03639266666667, "rental_uris": {"android": "https://dc.lft.to/lastmile_qr_scan", "ios": "https://dc.lft.to/lastmile_qr_scan"}, "is_disabled": 0, "fusion_lat": 0.0, "name": "b12b1b8f84b24ec9bd8e0efd57b6bd8e", "fusion_lon": 0.0}, {"is_reserved": 0, "type": "electric_scooter", "bike_id": "24bf10eb47d60d2b02fb11f9af07a195", "lat": 38.898769333333334, "lon": -77.039749, "rental_uris": {"android": "https://dc.lft.to/lastmile_qr_scan", "ios": "https://dc.lft.to/lastmile_qr_scan"}, "is_disabled": 0, "fusion_lat": 0.0, "name": "24bf10eb47d60d2b02fb11f9af07a195", "fusion_lon": 0.0}, {"is_reserved": 0, "type": "electric_scooter", "bike_id": "3083aa9e1690901a0d0482f7765fc780", "lat": 38.9051, "lon": -77.06847716666667, "rental_uris": {"android": "https://dc.lft.to/lastmile_qr_scan", "ios": "https://dc.lft.to/lastmile_qr_scan"}, "is_disabled": 0, "fusion_lat": 0.0, "name": "3083aa9e1690901a0d0482f7765fc780", "fusion_lon": 0.0}, {"is_reserved": 0, "type": "electric_scooter", "bike_id": "48680b617f923e395bf739eebddd0f15", "lat": 38.899966166666665, "lon": -77.03058466666667, "rental_uris": {"android": "https://dc.lft.to/lastmile_qr_scan", "ios": "https://dc.lft.to/lastmile_qr_scan"}, "is_disabled": 0, "fusion_lat": 0.0, "name": "48680b617f923e395bf739eebddd0f15", "fusion_lon": 0.0}, {"is_reserved": 0, "type": "electric_scooter", "bike_id": "84ca8fc124983df469a629834bb75ee1", "lat": 38.92481983333333, "lon": -77.031877, "rental_uris": {"android": "https://dc.lft.to/lastmile_qr_scan", "ios": "https://dc.lft.to/lastmile_qr_scan"}, "is_disabled": 0, "fusion_lat": 0.0, "name": "84ca8fc124983df469a629834bb75ee1", "fusion_lon": 0.0}, {"is_reserved": 0, "type": "electric_scooter", "bike_id": "b3405d4e07b1b67674413b989d623314", "lat": 38.9737275, "lon": -77.01817716666666, "rental_uris": {"android": "https://dc.lft.to/lastmile_qr_scan", "ios": "https://dc.lft.to/lastmile_qr_scan"}, "is_disabled": 0, "fusion_lat": 0.0, "name": "b3405d4e07b1b67674413b989d623314", "fusion_lon": 0.0}, {"is_reserved": 0, "type": "electric_scooter", "bike_id": "33b1967c86f7857396501eef0acceeae", "lat": 38.9283945, "lon": -77.00606816666667, "rental_uris": {"android": "https://dc.lft.to/lastmile_qr_scan", "ios": "https://dc.lft.to/lastmile_qr_scan"}, "is_disabled": 0, "fusion_lat": 0.0, "name": "33b1967c86f7857396501eef0acceeae", "fusion_lon": 0.0}, {"is_reserved": 0, "type": "electric_scooter", "bike_id": "42ac4ae9bc48099fd7ebde8c69784fe2", "lat": 38.921009833333336, "lon": -77.04698033333334, "rental_uris": {"android": "https://dc.lft.to/lastmile_qr_scan", "ios": "https://dc.lft.to/lastmile_qr_scan"}, "is_disabled": 0, "fusion_lat": 0.0, "name": "42ac4ae9bc48099fd7ebde8c69784fe2", "fusion_lon": 0.0}, {"is_reserved": 0, "type": "electric_scooter", "bike_id": "bae8ddae04bc66f0b0d34439dc1d6b2f", "lat": 38.90134533333333, "lon": -77.03145366666666, "rental_uris": {"android": "https://dc.lft.to/lastmile_qr_scan", "ios": "https://dc.lft.to/lastmile_qr_scan"}, "is_disabled": 0, "fusion_lat": 0.0, "name": "bae8ddae04bc66f0b0d34439dc1d6b2f", "fusion_lon": 0.0}, {"is_reserved": 0, "type": "electric_scooter", "bike_id": "daa212bf78feb2e0fe2110e7d11d59da", "lat": 38.933937, "lon": -77.02377316666667, "rental_uris": {"android": "https://dc.lft.to/lastmile_qr_scan", "ios": "https://dc.lft.to/lastmile_qr_scan"}, "is_disabled": 0, "fusion_lat": 0.0, "name": "daa212bf78feb2e0fe2110e7d11d59da", "fusion_lon": 0.0}, {"is_reserved": 0, "type": "electric_scooter", "bike_id": "bacaf5ed8c0d1729045d2e336f746734", "lat": 38.907010166666666, "lon": -77.03450483333333, "rental_uris": {"android": "https://dc.lft.to/lastmile_qr_scan", "ios": "https://dc.lft.to/lastmile_qr_scan"}, "is_disabled": 0, "fusion_lat": 0.0, "name": "bacaf5ed8c0d1729045d2e336f746734", "fusion_lon": 0.0}, {"is_reserved": 0, "type": "electric_bike", "bike_id": "41464d350f279ea58a95aec86064eb5c", "lat": 38.83935816666666, "lon": -77.07907733333333, "rental_uris": {"android": "https://dc.lft.to/lastmile_qr_scan", "ios": "https://dc.lft.to/lastmile_qr_scan"}, "is_disabled": 0, "fusion_lat": 0.0, "name": "41464d350f279ea58a95aec86064eb5c", "fusion_lon": 0.0}, {"is_reserved": 0, "type": "electric_scooter", "bike_id": "193cd07f539853f98e45ebeb1dc365b8", "lat": 38.90543316666667, "lon": -77.05690483333333, "rental_uris": {"android": "https://dc.lft.to/lastmile_qr_scan", "ios": "https://dc.lft.to/lastmile_qr_scan"}, "is_disabled": 0, "fusion_lat": 0.0, "name": "193cd07f539853f98e45ebeb1dc365b8", "fusion_lon": 0.0}, {"is_reserved": 0, "type": "electric_scooter", "bike_id": "329647b3d0646e30c8ad0ab486ffbfe4", "lat": 38.8956945, "lon": -76.98086833333333, "rental_uris": {"android": "https://dc.lft.to/lastmile_qr_scan", "ios": "https://dc.lft.to/lastmile_qr_scan"}, "is_disabled": 0, "fusion_lat": 0.0, "name": "329647b3d0646e30c8ad0ab486ffbfe4", "fusion_lon": 0.0}, {"is_reserved": 0, "type": "electric_scooter", "bike_id": "9d0bbe4bae26cb88d69bc5068a50a904", "lat": 38.904124, "lon": -77.02606366666667, "rental_uris": {"android": "https://dc.lft.to/lastmile_qr_scan", "ios": "https://dc.lft.to/lastmile_qr_scan"}, "is_disabled": 0, "fusion_lat": 0.0, "name": "9d0bbe4bae26cb88d69bc5068a50a904", "fusion_lon": 0.0}, {"is_reserved": 0, "type": "electric_scooter", "bike_id": "8b61479d7e47782b51260a3ef266027d", "lat": 38.887733, "lon": -76.9326325, "rental_uris": {"android": "https://dc.lft.to/lastmile_qr_scan", "ios": "https://dc.lft.to/lastmile_qr_scan"}, "is_disabled": 0, "fusion_lat": 0.0, "name": "8b61479d7e47782b51260a3ef266027d", "fusion_lon": 0.0}, {"is_reserved": 0, "type": "electric_scooter", "bike_id": "cd8d495b759a8d4f59afb8bf5d95f488", "lat": 38.90511433333333, "lon": -76.99564866666667, "rental_uris": {"android": "https://dc.lft.to/lastmile_qr_scan", "ios": "https://dc.lft.to/lastmile_qr_scan"}, "is_disabled": 0, "fusion_lat": 0.0, "name": "cd8d495b759a8d4f59afb8bf5d95f488", "fusion_lon": 0.0}, {"is_reserved": 0, "type": "electric_scooter", "bike_id": "045b1206eaaf94b5302b787537d12aa4", "lat": 38.921407333333335, "lon": -77.01222583333333, "rental_uris": {"android": "https://dc.lft.to/lastmile_qr_scan", "ios": "https://dc.lft.to/lastmile_qr_scan"}, "is_disabled": 0, "fusion_lat": 0.0, "name": "045b1206eaaf94b5302b787537d12aa4", "fusion_lon": 0.0}, {"is_reserved": 0, "type": "electric_scooter", "bike_id": "98e24faa888a962f59ec9f0c0332c685", "lat": 38.9057055, "lon": -77.0218005, "rental_uris": {"android": "https://dc.lft.to/lastmile_qr_scan", "ios": "https://dc.lft.to/lastmile_qr_scan"}, "is_disabled": 0, "fusion_lat": 0.0, "name": "98e24faa888a962f59ec9f0c0332c685", "fusion_lon": 0.0}, {"is_reserved": 0, "type": "electric_scooter", "bike_id": "5df744d62ec6da740182be8ee2a3f18b", "lat": 38.8864075, "lon": -76.99613983333333, "rental_uris": {"android": "https://dc.lft.to/lastmile_qr_scan", "ios": "https://dc.lft.to/lastmile_qr_scan"}, "is_disabled": 0, "fusion_lat": 0.0, "name": "5df744d62ec6da740182be8ee2a3f18b", "fusion_lon": 0.0}, {"is_reserved": 0, "type": "electric_scooter", "bike_id": "db65dc9171443cbed8e4ae7b515ad4de", "lat": 38.92240233333333, "lon": -77.03886983333334, "rental_uris": {"android": "https://dc.lft.to/lastmile_qr_scan", "ios": "https://dc.lft.to/lastmile_qr_scan"}, "is_disabled": 0, "fusion_lat": 0.0, "name": "db65dc9171443cbed8e4ae7b515ad4de", "fusion_lon": 0.0}, {"is_reserved": 0, "type": "electric_scooter", "bike_id": "9dab8e52d1751c6eecb6bfe5500d3196", "lat": 38.905264333333335, "lon": -77.06704283333333, "rental_uris": {"android": "https://dc.lft.to/lastmile_qr_scan", "ios": "https://dc.lft.to/lastmile_qr_scan"}, "is_disabled": 0, "fusion_lat": 0.0, "name": "9dab8e52d1751c6eecb6bfe5500d3196", "fusion_lon": 0.0}, {"is_reserved": 0, "type": "electric_scooter", "bike_id": "8ec2fbd87c6ae305cf48f11e280a8d20", "lat": 38.9276605, "lon": -77.02787216666667, "rental_uris": {"android": "https://dc.lft.to/lastmile_qr_scan", "ios": "https://dc.lft.to/lastmile_qr_scan"}, "is_disabled": 0, "fusion_lat": 0.0, "name": "8ec2fbd87c6ae305cf48f11e280a8d20", "fusion_lon": 0.0}, {"is_reserved": 0, "type": "electric_scooter", "bike_id": "b9c204ebdf7fc99e47913552b65bd5d4", "lat": 38.94304916666667, "lon": -77.020067, "rental_uris": {"android": "https://dc.lft.to/lastmile_qr_scan", "ios": "https://dc.lft.to/lastmile_qr_scan"}, "is_disabled": 0, "fusion_lat": 0.0, "name": "b9c204ebdf7fc99e47913552b65bd5d4", "fusion_lon": 0.0}, {"is_reserved": 0, "type": "electric_scooter", "bike_id": "99aae7aab8d56f43482bc22f69a142cf", "lat": 38.931833, "lon": -77.02632383333334, "rental_uris": {"android": "https://dc.lft.to/lastmile_qr_scan", "ios": "https://dc.lft.to/lastmile_qr_scan"}, "is_disabled": 0, "fusion_lat": 0.0, "name": "99aae7aab8d56f43482bc22f69a142cf", "fusion_lon": 0.0}, {"is_reserved": 0, "type": "electric_scooter", "bike_id": "8511c2de44bd2bfd5b73d95c35d3b933", "lat": 38.93154766666667, "lon": -77.0784935, "rental_uris": {"android": "https://dc.lft.to/lastmile_qr_scan", "ios": "https://dc.lft.to/lastmile_qr_scan"}, "is_disabled": 0, "fusion_lat": 0.0, "name": "8511c2de44bd2bfd5b73d95c35d3b933", "fusion_lon": 0.0}, {"is_reserved": 0, "type": "electric_scooter", "bike_id": "f11860ed366f3b5656471406637039ee", "lat": 38.89831083333333, "lon": -77.04815516666666, "rental_uris": {"android": "https://dc.lft.to/lastmile_qr_scan", "ios": "https://dc.lft.to/lastmile_qr_scan"}, "is_disabled": 0, "fusion_lat": 0.0, "name": "f11860ed366f3b5656471406637039ee", "fusion_lon": 0.0}, {"is_reserved": 0, "type": "electric_scooter", "bike_id": "54647a6ee63836dce8ea22650b8aabda", "lat": 38.899608, "lon": -77.026374, "rental_uris": {"android": "https://dc.lft.to/lastmile_qr_scan", "ios": "https://dc.lft.to/lastmile_qr_scan"}, "is_disabled": 0, "fusion_lat": 0.0, "name": "54647a6ee63836dce8ea22650b8aabda", "fusion_lon": 0.0}, {"is_reserved": 0, "type": "electric_scooter", "bike_id": "8ac44ab4b52f6a92a5c1638ce16d7e22", "lat": 38.905232, "lon": -77.04824666666667, "rental_uris": {"android": "https://dc.lft.to/lastmile_qr_scan", "ios": "https://dc.lft.to/lastmile_qr_scan"}, "is_disabled": 0, "fusion_lat": 0.0, "name": "8ac44ab4b52f6a92a5c1638ce16d7e22", "fusion_lon": 0.0}, {"is_reserved": 0, "type": "electric_scooter", "bike_id": "5b5680c3f66bd90f94eb5d924b30ab88", "lat": 38.901150333333334, "lon": -77.01612783333333, "rental_uris": {"android": "https://dc.lft.to/lastmile_qr_scan", "ios": "https://dc.lft.to/lastmile_qr_scan"}, "is_disabled": 0, "fusion_lat": 0.0, "name": "5b5680c3f66bd90f94eb5d924b30ab88", "fusion_lon": 0.0}, {"is_reserved": 0, "type": "electric_scooter", "bike_id": "f1ee74bc28c5d7cd1cabb57dd5b54d8d", "lat": 38.911078, "lon": -77.0484835, "rental_uris": {"android": "https://dc.lft.to/lastmile_qr_scan", "ios": "https://dc.lft.to/lastmile_qr_scan"}, "is_disabled": 0, "fusion_lat": 0.0, "name": "f1ee74bc28c5d7cd1cabb57dd5b54d8d", "fusion_lon": 0.0}, {"is_reserved": 0, "type": "electric_bike", "bike_id": "fa380b82961733558cb15ddcddcb0e3f", "lat": 38.92062716666667, "lon": -76.99591216666667, "rental_uris": {"android": "https://dc.lft.to/lastmile_qr_scan", "ios": "https://dc.lft.to/lastmile_qr_scan"}, "is_disabled": 0, "fusion_lat": 0.0, "name": "fa380b82961733558cb15ddcddcb0e3f", "fusion_lon": 0.0}, {"is_reserved": 0, "type": "electric_bike", "bike_id": "8d63745793d6fe5e4723a7a9d998a747", "lat": 38.917036333333336, "lon": -77.0572425, "rental_uris": {"android": "https://dc.lft.to/lastmile_qr_scan", "ios": "https://dc.lft.to/lastmile_qr_scan"}, "is_disabled": 0, "fusion_lat": 0.0, "name": "8d63745793d6fe5e4723a7a9d998a747", "fusion_lon": 0.0}, {"is_reserved": 0, "type": "electric_scooter", "bike_id": "961d515291043efd5fd7227a8bfbe9eb", "lat": 38.896876166666665, "lon": -77.04330633333333, "rental_uris": {"android": "https://dc.lft.to/lastmile_qr_scan", "ios": "https://dc.lft.to/lastmile_qr_scan"}, "is_disabled": 0, "fusion_lat": 0.0, "name": "961d515291043efd5fd7227a8bfbe9eb", "fusion_lon": 0.0}, {"is_reserved": 0, "type": "electric_scooter", "bike_id": "d4e88e6c8cec8ab4da26fdec3f2305ba", "lat": 38.9031825, "lon": -77.01086933333333, "rental_uris": {"android": "https://dc.lft.to/lastmile_qr_scan", "ios": "https://dc.lft.to/lastmile_qr_scan"}, "is_disabled": 0, "fusion_lat": 0.0, "name": "d4e88e6c8cec8ab4da26fdec3f2305ba", "fusion_lon": 0.0}, {"is_reserved": 0, "type": "electric_scooter", "bike_id": "d243518ebeb18b3b65517e28bb32312f", "lat": 38.91922983333333, "lon": -77.00983533333333, "rental_uris": {"android": "https://dc.lft.to/lastmile_qr_scan", "ios": "https://dc.lft.to/lastmile_qr_scan"}, "is_disabled": 0, "fusion_lat": 0.0, "name": "d243518ebeb18b3b65517e28bb32312f", "fusion_lon": 0.0}, {"is_reserved": 0, "type": "electric_scooter", "bike_id": "1a51a0060237a4c5bee530607290b38a", "lat": 38.89195816666667, "lon": -77.02232483333333, "rental_uris": {"android": "https://dc.lft.to/lastmile_qr_scan", "ios": "https://dc.lft.to/lastmile_qr_scan"}, "is_disabled": 0, "fusion_lat": 0.0, "name": "1a51a0060237a4c5bee530607290b38a", "fusion_lon": 0.0}, {"is_reserved": 0, "type": "electric_scooter", "bike_id": "dfe1b1aecd30e7747dd0d0cdf9733f1b", "lat": 38.9176335, "lon": -77.0045295, "rental_uris": {"android": "https://dc.lft.to/lastmile_qr_scan", "ios": "https://dc.lft.to/lastmile_qr_scan"}, "is_disabled": 0, "fusion_lat": 0.0, "name": "dfe1b1aecd30e7747dd0d0cdf9733f1b", "fusion_lon": 0.0}, {"is_reserved": 0, "type": "electric_scooter", "bike_id": "c09dbcf6d3682a7bc0696ee07233961f", "lat": 38.926820666666664, "lon": -77.03240133333334, "rental_uris": {"android": "https://dc.lft.to/lastmile_qr_scan", "ios": "https://dc.lft.to/lastmile_qr_scan"}, "is_disabled": 0, "fusion_lat": 0.0, "name": "c09dbcf6d3682a7bc0696ee07233961f", "fusion_lon": 0.0}, {"is_reserved": 0, "type": "electric_scooter", "bike_id": "bb62d24f6a98bcdd3b2d93286bf0be70", "lat": 38.88281766666667, "lon": -77.02379733333333, "rental_uris": {"android": "https://dc.lft.to/lastmile_qr_scan", "ios": "https://dc.lft.to/lastmile_qr_scan"}, "is_disabled": 0, "fusion_lat": 0.0, "name": "bb62d24f6a98bcdd3b2d93286bf0be70", "fusion_lon": 0.0}, {"is_reserved": 0, "type": "electric_scooter", "bike_id": "513bc92c17b528d494faee1119fd608e", "lat": 38.8922345, "lon": -77.04366783333333, "rental_uris": {"android": "https://dc.lft.to/lastmile_qr_scan", "ios": "https://dc.lft.to/lastmile_qr_scan"}, "is_disabled": 0, "fusion_lat": 0.0, "name": "513bc92c17b528d494faee1119fd608e", "fusion_lon": 0.0}, {"is_reserved": 0, "type": "electric_bike", "bike_id": "6563f65bf25d8dc84497b983c0c1e5b7", "lat": 38.9202995, "lon": -76.97965116666667, "rental_uris": {"android": "https://dc.lft.to/lastmile_qr_scan", "ios": "https://dc.lft.to/lastmile_qr_scan"}, "is_disabled": 0, "fusion_lat": 0.0, "name": "6563f65bf25d8dc84497b983c0c1e5b7", "fusion_lon": 0.0}, {"is_reserved": 0, "type": "electric_scooter", "bike_id": "43a3d662ffff762d34df5f50407318ba", "lat": 38.914999, "lon": -77.04556883333333, "rental_uris": {"android": "https://dc.lft.to/lastmile_qr_scan", "ios": "https://dc.lft.to/lastmile_qr_scan"}, "is_disabled": 0, "fusion_lat": 0.0, "name": "43a3d662ffff762d34df5f50407318ba", "fusion_lon": 0.0}, {"is_reserved": 0, "type": "electric_scooter", "bike_id": "c70da51f300634554f2e2c6623772b93", "lat": 38.9073145, "lon": -77.0109315, "rental_uris": {"android": "https://dc.lft.to/lastmile_qr_scan", "ios": "https://dc.lft.to/lastmile_qr_scan"}, "is_disabled": 0, "fusion_lat": 0.0, "name": "c70da51f300634554f2e2c6623772b93", "fusion_lon": 0.0}, {"is_reserved": 0, "type": "electric_bike", "bike_id": "9b3de27f44f881a4ea71ca0fbc098a15", "lat": 38.9288065, "lon": -77.033735, "rental_uris": {"android": "https://dc.lft.to/lastmile_qr_scan", "ios": "https://dc.lft.to/lastmile_qr_scan"}, "is_disabled": 0, "fusion_lat": 0.0, "name": "9b3de27f44f881a4ea71ca0fbc098a15", "fusion_lon": 0.0}, {"is_reserved": 0, "type": "electric_scooter", "bike_id": "2d7d79d1d87fb4c15927c16a86954ee1", "lat": 38.89635883333333, "lon": -76.928003, "rental_uris": {"android": "https://dc.lft.to/lastmile_qr_scan", "ios": "https://dc.lft.to/lastmile_qr_scan"}, "is_disabled": 0, "fusion_lat": 0.0, "name": "2d7d79d1d87fb4c15927c16a86954ee1", "fusion_lon": 0.0}, {"is_reserved": 0, "type": "electric_bike", "bike_id": "cc0db0532ca0cae2e5d8c54acfe5d0db", "lat": 38.924381833333335, "lon": -77.05735, "rental_uris": {"android": "https://dc.lft.to/lastmile_qr_scan", "ios": "https://dc.lft.to/lastmile_qr_scan"}, "is_disabled": 0, "fusion_lat": 0.0, "name": "cc0db0532ca0cae2e5d8c54acfe5d0db", "fusion_lon": 0.0}, {"is_reserved": 0, "type": "electric_bike", "bike_id": "e9f7726d1ceb7c90f0752d660f2cfc7b", "lat": 38.942601, "lon": -76.99067716666667, "rental_uris": {"android": "https://dc.lft.to/lastmile_qr_scan", "ios": "https://dc.lft.to/lastmile_qr_scan"}, "is_disabled": 0, "fusion_lat": 0.0, "name": "e9f7726d1ceb7c90f0752d660f2cfc7b", "fusion_lon": 0.0}, {"is_reserved": 0, "type": "electric_scooter", "bike_id": "a17f440a24e9b9f49546e829c9b5a09c", "lat": 38.9126375, "lon": -77.0156405, "rental_uris": {"android": "https://dc.lft.to/lastmile_qr_scan", "ios": "https://dc.lft.to/lastmile_qr_scan"}, "is_disabled": 0, "fusion_lat": 0.0, "name": "a17f440a24e9b9f49546e829c9b5a09c", "fusion_lon": 0.0}, {"is_reserved": 0, "type": "electric_scooter", "bike_id": "7aae2c308d4bf1b7002e215adec53da4", "lat": 38.92748533333334, "lon": -77.02540533333334, "rental_uris": {"android": "https://dc.lft.to/lastmile_qr_scan", "ios": "https://dc.lft.to/lastmile_qr_scan"}, "is_disabled": 0, "fusion_lat": 0.0, "name": "7aae2c308d4bf1b7002e215adec53da4", "fusion_lon": 0.0}, {"is_reserved": 0, "type": "electric_scooter", "bike_id": "e856a91eb44fa672e1dc2c343efd021a", "lat": 38.95910833333333, "lon": -77.00022, "rental_uris": {"android": "https://dc.lft.to/lastmile_qr_scan", "ios": "https://dc.lft.to/lastmile_qr_scan"}, "is_disabled": 0, "fusion_lat": 0.0, "name": "e856a91eb44fa672e1dc2c343efd021a", "fusion_lon": 0.0}, {"is_reserved": 0, "type": "electric_scooter", "bike_id": "3016e63df9a72858c12b551d791dfd18", "lat": 38.92824266666667, "lon": -77.05511233333333, "rental_uris": {"android": "https://dc.lft.to/lastmile_qr_scan", "ios": "https://dc.lft.to/lastmile_qr_scan"}, "is_disabled": 0, "fusion_lat": 0.0, "name": "3016e63df9a72858c12b551d791dfd18", "fusion_lon": 0.0}, {"is_reserved": 0, "type": "electric_scooter", "bike_id": "5f60d64b86dbc266a69ecd07da03b8da", "lat": 38.900220833333336, "lon": -76.9882995, "rental_uris": {"android": "https://dc.lft.to/lastmile_qr_scan", "ios": "https://dc.lft.to/lastmile_qr_scan"}, "is_disabled": 0, "fusion_lat": 0.0, "name": "5f60d64b86dbc266a69ecd07da03b8da", "fusion_lon": 0.0}, {"is_reserved": 0, "type": "electric_scooter", "bike_id": "b80ba33209bc6c041d962ae4d4bf19c5", "lat": 38.92396683333333, "lon": -77.050409, "rental_uris": {"android": "https://dc.lft.to/lastmile_qr_scan", "ios": "https://dc.lft.to/lastmile_qr_scan"}, "is_disabled": 0, "fusion_lat": 0.0, "name": "b80ba33209bc6c041d962ae4d4bf19c5", "fusion_lon": 0.0}, {"is_reserved": 0, "type": "electric_scooter", "bike_id": "ec170c27ce8c9f7bc89e076f81bce143", "lat": 38.907936166666666, "lon": -77.00205616666666, "rental_uris": {"android": "https://dc.lft.to/lastmile_qr_scan", "ios": "https://dc.lft.to/lastmile_qr_scan"}, "is_disabled": 0, "fusion_lat": 0.0, "name": "ec170c27ce8c9f7bc89e076f81bce143", "fusion_lon": 0.0}, {"is_reserved": 0, "type": "electric_scooter", "bike_id": "5f9087355a81da2ae612f5082a9328ab", "lat": 38.91075716666667, "lon": -77.0160785, "rental_uris": {"android": "https://dc.lft.to/lastmile_qr_scan", "ios": "https://dc.lft.to/lastmile_qr_scan"}, "is_disabled": 0, "fusion_lat": 0.0, "name": "5f9087355a81da2ae612f5082a9328ab", "fusion_lon": 0.0}, {"is_reserved": 0, "type": "electric_scooter", "bike_id": "374c3e0dd33acd6ddcffe3f5143c43ee", "lat": 38.918358, "lon": -77.031692, "rental_uris": {"android": "https://dc.lft.to/lastmile_qr_scan", "ios": "https://dc.lft.to/lastmile_qr_scan"}, "is_disabled": 0, "fusion_lat": 0.0, "name": "374c3e0dd33acd6ddcffe3f5143c43ee", "fusion_lon": 0.0}, {"is_reserved": 0, "type": "electric_scooter", "bike_id": "90731a15139fb6fcd34ebc49ae53f277", "lat": 38.935094, "lon": -77.04282333333333, "rental_uris": {"android": "https://dc.lft.to/lastmile_qr_scan", "ios": "https://dc.lft.to/lastmile_qr_scan"}, "is_disabled": 0, "fusion_lat": 0.0, "name": "90731a15139fb6fcd34ebc49ae53f277", "fusion_lon": 0.0}, {"is_reserved": 0, "type": "electric_scooter", "bike_id": "4cbe5657dbadf0a0d8475a6d70e55409", "lat": 38.902485666666664, "lon": -77.01858983333334, "rental_uris": {"android": "https://dc.lft.to/lastmile_qr_scan", "ios": "https://dc.lft.to/lastmile_qr_scan"}, "is_disabled": 0, "fusion_lat": 0.0, "name": "4cbe5657dbadf0a0d8475a6d70e55409", "fusion_lon": 0.0}, {"is_reserved": 0, "type": "electric_scooter", "bike_id": "5a17322b9a3eb9d4eb02d2408bcbefa2", "lat": 38.90448466666667, "lon": -76.99627716666667, "rental_uris": {"android": "https://dc.lft.to/lastmile_qr_scan", "ios": "https://dc.lft.to/lastmile_qr_scan"}, "is_disabled": 0, "fusion_lat": 0.0, "name": "5a17322b9a3eb9d4eb02d2408bcbefa2", "fusion_lon": 0.0}, {"is_reserved": 0, "type": "electric_scooter", "bike_id": "b5ddb84f3a9acbb20e9dd3ca6f01980f", "lat": 38.874827, "lon": -77.00032266666666, "rental_uris": {"android": "https://dc.lft.to/lastmile_qr_scan", "ios": "https://dc.lft.to/lastmile_qr_scan"}, "is_disabled": 0, "fusion_lat": 0.0, "name": "b5ddb84f3a9acbb20e9dd3ca6f01980f", "fusion_lon": 0.0}, {"is_reserved": 0, "type": "electric_scooter", "bike_id": "fbedb43cc913b7c0fa496953931f6d5d", "lat": 38.877092, "lon": -77.01854866666666, "rental_uris": {"android": "https://dc.lft.to/lastmile_qr_scan", "ios": "https://dc.lft.to/lastmile_qr_scan"}, "is_disabled": 0, "fusion_lat": 0.0, "name": "fbedb43cc913b7c0fa496953931f6d5d", "fusion_lon": 0.0}, {"is_reserved": 0, "type": "electric_scooter", "bike_id": "359e784d249dff2316aba36f65147974", "lat": 38.856522, "lon": -76.99678183333333, "rental_uris": {"android": "https://dc.lft.to/lastmile_qr_scan", "ios": "https://dc.lft.to/lastmile_qr_scan"}, "is_disabled": 0, "fusion_lat": 0.0, "name": "359e784d249dff2316aba36f65147974", "fusion_lon": 0.0}, {"is_reserved": 0, "type": "electric_bike", "bike_id": "95dd1f17086cf0c6cbf8313a6401b59f", "lat": 38.89458366666667, "lon": -77.10368383333333, "rental_uris": {"android": "https://dc.lft.to/lastmile_qr_scan", "ios": "https://dc.lft.to/lastmile_qr_scan"}, "is_disabled": 0, "fusion_lat": 0.0, "name": "95dd1f17086cf0c6cbf8313a6401b59f", "fusion_lon": 0.0}, {"is_reserved": 0, "type": "electric_scooter", "bike_id": "3c46bd2d2f0038712237a3930bea3eb8", "lat": 38.8989215, "lon": -76.99364566666667, "rental_uris": {"android": "https://dc.lft.to/lastmile_qr_scan", "ios": "https://dc.lft.to/lastmile_qr_scan"}, "is_disabled": 0, "fusion_lat": 0.0, "name": "3c46bd2d2f0038712237a3930bea3eb8", "fusion_lon": 0.0}, {"is_reserved": 0, "type": "electric_scooter", "bike_id": "8779f1a2b00abb280a2847e01ab3ee3f", "lat": 38.883791, "lon": -77.02992566666667, "rental_uris": {"android": "https://dc.lft.to/lastmile_qr_scan", "ios": "https://dc.lft.to/lastmile_qr_scan"}, "is_disabled": 0, "fusion_lat": 0.0, "name": "8779f1a2b00abb280a2847e01ab3ee3f", "fusion_lon": 0.0}, {"is_reserved": 0, "type": "electric_scooter", "bike_id": "88c8ecb1617fd628388524dae69a2618", "lat": 38.928631333333335, "lon": -77.032744, "rental_uris": {"android": "https://dc.lft.to/lastmile_qr_scan", "ios": "https://dc.lft.to/lastmile_qr_scan"}, "is_disabled": 0, "fusion_lat": 0.0, "name": "88c8ecb1617fd628388524dae69a2618", "fusion_lon": 0.0}, {"is_reserved": 0, "type": "electric_scooter", "bike_id": "2ab2ac3ccb75ed3528faa157ff60efa9", "lat": 38.934004333333334, "lon": -77.02845766666667, "rental_uris": {"android": "https://dc.lft.to/lastmile_qr_scan", "ios": "https://dc.lft.to/lastmile_qr_scan"}, "is_disabled": 0, "fusion_lat": 0.0, "name": "2ab2ac3ccb75ed3528faa157ff60efa9", "fusion_lon": 0.0}, {"is_reserved": 0, "type": "electric_scooter", "bike_id": "061e8e0b25083cded0b77505902a1873", "lat": 38.892394333333336, "lon": -77.04488916666666, "rental_uris": {"android": "https://dc.lft.to/lastmile_qr_scan", "ios": "https://dc.lft.to/lastmile_qr_scan"}, "is_disabled": 0, "fusion_lat": 0.0, "name": "061e8e0b25083cded0b77505902a1873", "fusion_lon": 0.0}, {"is_reserved": 0, "type": "electric_bike", "bike_id": "6a42db410c3a1a4deb050487b2cd9879", "lat": 38.94518816666667, "lon": -77.0068185, "rental_uris": {"android": "https://dc.lft.to/lastmile_qr_scan", "ios": "https://dc.lft.to/lastmile_qr_scan"}, "is_disabled": 0, "fusion_lat": 0.0, "name": "6a42db410c3a1a4deb050487b2cd9879", "fusion_lon": 0.0}, {"is_reserved": 0, "type": "electric_scooter", "bike_id": "22b66983cbfd20604da82d34c19bdae4", "lat": 38.9022685, "lon": -77.02866983333334, "rental_uris": {"android": "https://dc.lft.to/lastmile_qr_scan", "ios": "https://dc.lft.to/lastmile_qr_scan"}, "is_disabled": 0, "fusion_lat": 0.0, "name": "22b66983cbfd20604da82d34c19bdae4", "fusion_lon": 0.0}, {"is_reserved": 0, "type": "electric_bike", "bike_id": "5495da916fa5b4facf483468c23a4b69", "lat": 38.87735083333333, "lon": -77.11851383333334, "rental_uris": {"android": "https://dc.lft.to/lastmile_qr_scan", "ios": "https://dc.lft.to/lastmile_qr_scan"}, "is_disabled": 0, "fusion_lat": 0.0, "name": "5495da916fa5b4facf483468c23a4b69", "fusion_lon": 0.0}, {"is_reserved": 0, "type": "electric_scooter", "bike_id": "7e910a980447c51b1e21a431bd7fc85e", "lat": 38.920660833333336, "lon": -77.02286816666667, "rental_uris": {"android": "https://dc.lft.to/lastmile_qr_scan", "ios": "https://dc.lft.to/lastmile_qr_scan"}, "is_disabled": 0, "fusion_lat": 0.0, "name": "7e910a980447c51b1e21a431bd7fc85e", "fusion_lon": 0.0}, {"is_reserved": 0, "type": "electric_scooter", "bike_id": "f37b0066f85fd0c08088d5f473c95a69", "lat": 38.9337365, "lon": -77.03467616666667, "rental_uris": {"android": "https://dc.lft.to/lastmile_qr_scan", "ios": "https://dc.lft.to/lastmile_qr_scan"}, "is_disabled": 0, "fusion_lat": 0.0, "name": "f37b0066f85fd0c08088d5f473c95a69", "fusion_lon": 0.0}, {"is_reserved": 0, "type": "electric_scooter", "bike_id": "2ab5eb611151e134f8c1146e847aa4ca", "lat": 38.9215115, "lon": -77.035077, "rental_uris": {"android": "https://dc.lft.to/lastmile_qr_scan", "ios": "https://dc.lft.to/lastmile_qr_scan"}, "is_disabled": 0, "fusion_lat": 0.0, "name": "2ab5eb611151e134f8c1146e847aa4ca", "fusion_lon": 0.0}, {"is_reserved": 0, "type": "electric_bike", "bike_id": "35aa4a22daa523849d91fedb1729656f", "lat": 38.840550666666665, "lon": -77.056011, "rental_uris": {"android": "https://dc.lft.to/lastmile_qr_scan", "ios": "https://dc.lft.to/lastmile_qr_scan"}, "is_disabled": 0, "fusion_lat": 0.0, "name": "35aa4a22daa523849d91fedb1729656f", "fusion_lon": 0.0}, {"is_reserved": 0, "type": "electric_scooter", "bike_id": "c2bf1c1661803f6bdf0188b50a0b3318", "lat": 38.899255833333335, "lon": -77.03192883333334, "rental_uris": {"android": "https://dc.lft.to/lastmile_qr_scan", "ios": "https://dc.lft.to/lastmile_qr_scan"}, "is_disabled": 0, "fusion_lat": 0.0, "name": "c2bf1c1661803f6bdf0188b50a0b3318", "fusion_lon": 0.0}, {"is_reserved": 0, "type": "electric_scooter", "bike_id": "140412eab0875866973375553028f431", "lat": 38.925814833333334, "lon": -77.01224533333334, "rental_uris": {"android": "https://dc.lft.to/lastmile_qr_scan", "ios": "https://dc.lft.to/lastmile_qr_scan"}, "is_disabled": 0, "fusion_lat": 0.0, "name": "140412eab0875866973375553028f431", "fusion_lon": 0.0}, {"is_reserved": 0, "type": "electric_scooter", "bike_id": "dae65c2ad47cd9902c9ee6c29bca0f38", "lat": 38.935726833333334, "lon": -77.03258933333333, "rental_uris": {"android": "https://dc.lft.to/lastmile_qr_scan", "ios": "https://dc.lft.to/lastmile_qr_scan"}, "is_disabled": 0, "fusion_lat": 0.0, "name": "dae65c2ad47cd9902c9ee6c29bca0f38", "fusion_lon": 0.0}, {"is_reserved": 0, "type": "electric_scooter", "bike_id": "0743cc0b8b97a5695c5fd375ae760334", "lat": 38.91823083333333, "lon": -77.041777, "rental_uris": {"android": "https://dc.lft.to/lastmile_qr_scan", "ios": "https://dc.lft.to/lastmile_qr_scan"}, "is_disabled": 0, "fusion_lat": 0.0, "name": "0743cc0b8b97a5695c5fd375ae760334", "fusion_lon": 0.0}, {"is_reserved": 0, "type": "electric_scooter", "bike_id": "ca4b538c4f04333f1598f93df9dfbf9a", "lat": 38.923672333333336, "lon": -77.036572, "rental_uris": {"android": "https://dc.lft.to/lastmile_qr_scan", "ios": "https://dc.lft.to/lastmile_qr_scan"}, "is_disabled": 0, "fusion_lat": 0.0, "name": "ca4b538c4f04333f1598f93df9dfbf9a", "fusion_lon": 0.0}, {"is_reserved": 0, "type": "electric_scooter", "bike_id": "669aec3917c4ce62ff6cfc6b7d84a696", "lat": 38.877311, "lon": -77.01910066666667, "rental_uris": {"android": "https://dc.lft.to/lastmile_qr_scan", "ios": "https://dc.lft.to/lastmile_qr_scan"}, "is_disabled": 0, "fusion_lat": 0.0, "name": "669aec3917c4ce62ff6cfc6b7d84a696", "fusion_lon": 0.0}, {"is_reserved": 0, "type": "electric_scooter", "bike_id": "a3d7975256fef140da70aa0b4bb6abe9", "lat": 38.87515416666667, "lon": -77.00355766666667, "rental_uris": {"android": "https://dc.lft.to/lastmile_qr_scan", "ios": "https://dc.lft.to/lastmile_qr_scan"}, "is_disabled": 0, "fusion_lat": 0.0, "name": "a3d7975256fef140da70aa0b4bb6abe9", "fusion_lon": 0.0}, {"is_reserved": 0, "type": "electric_scooter", "bike_id": "7e354ed335522d9a4a9567bedcba1894", "lat": 38.924680333333335, "lon": -77.03313116666666, "rental_uris": {"android": "https://dc.lft.to/lastmile_qr_scan", "ios": "https://dc.lft.to/lastmile_qr_scan"}, "is_disabled": 0, "fusion_lat": 0.0, "name": "7e354ed335522d9a4a9567bedcba1894", "fusion_lon": 0.0}, {"is_reserved": 0, "type": "electric_scooter", "bike_id": "f2f7e4ad35405ff110d173e1d63a34be", "lat": 38.889751, "lon": -76.999408, "rental_uris": {"android": "https://dc.lft.to/lastmile_qr_scan", "ios": "https://dc.lft.to/lastmile_qr_scan"}, "is_disabled": 0, "fusion_lat": 0.0, "name": "f2f7e4ad35405ff110d173e1d63a34be", "fusion_lon": 0.0}, {"is_reserved": 0, "type": "electric_scooter", "bike_id": "b07757fdd4959f46a8890411c5bb9515", "lat": 38.8923515, "lon": -77.0448315, "rental_uris": {"android": "https://dc.lft.to/lastmile_qr_scan", "ios": "https://dc.lft.to/lastmile_qr_scan"}, "is_disabled": 0, "fusion_lat": 0.0, "name": "b07757fdd4959f46a8890411c5bb9515", "fusion_lon": 0.0}, {"is_reserved": 0, "type": "electric_scooter", "bike_id": "2d02ae13979e23ae3a913c58b39187d5", "lat": 38.892308666666665, "lon": -77.0318425, "rental_uris": {"android": "https://dc.lft.to/lastmile_qr_scan", "ios": "https://dc.lft.to/lastmile_qr_scan"}, "is_disabled": 0, "fusion_lat": 0.0, "name": "2d02ae13979e23ae3a913c58b39187d5", "fusion_lon": 0.0}, {"is_reserved": 0, "type": "electric_scooter", "bike_id": "4d089b02d5a56e6e7ba68517d4eba7b9", "lat": 38.90003433333333, "lon": -76.99839883333334, "rental_uris": {"android": "https://dc.lft.to/lastmile_qr_scan", "ios": "https://dc.lft.to/lastmile_qr_scan"}, "is_disabled": 0, "fusion_lat": 0.0, "name": "4d089b02d5a56e6e7ba68517d4eba7b9", "fusion_lon": 0.0}, {"is_reserved": 0, "type": "electric_scooter", "bike_id": "d0f1dc36600e78d3ec64f3b64277e4b7", "lat": 38.915535166666665, "lon": -77.0330885, "rental_uris": {"android": "https://dc.lft.to/lastmile_qr_scan", "ios": "https://dc.lft.to/lastmile_qr_scan"}, "is_disabled": 0, "fusion_lat": 0.0, "name": "d0f1dc36600e78d3ec64f3b64277e4b7", "fusion_lon": 0.0}, {"is_reserved": 0, "type": "electric_scooter", "bike_id": "38cae6efbd28cf5f90e03cf94f9fbe79", "lat": 38.8815725, "lon": -76.994837, "rental_uris": {"android": "https://dc.lft.to/lastmile_qr_scan", "ios": "https://dc.lft.to/lastmile_qr_scan"}, "is_disabled": 0, "fusion_lat": 0.0, "name": "38cae6efbd28cf5f90e03cf94f9fbe79", "fusion_lon": 0.0}, {"is_reserved": 0, "type": "electric_scooter", "bike_id": "aa533f605c8efaa59be86994abfde319", "lat": 38.899254666666664, "lon": -77.03198733333333, "rental_uris": {"android": "https://dc.lft.to/lastmile_qr_scan", "ios": "https://dc.lft.to/lastmile_qr_scan"}, "is_disabled": 0, "fusion_lat": 0.0, "name": "aa533f605c8efaa59be86994abfde319", "fusion_lon": 0.0}, {"is_reserved": 0, "type": "electric_scooter", "bike_id": "36fa8793057174827a19063fe63dd18e", "lat": 38.92376866666667, "lon": -77.0305365, "rental_uris": {"android": "https://dc.lft.to/lastmile_qr_scan", "ios": "https://dc.lft.to/lastmile_qr_scan"}, "is_disabled": 0, "fusion_lat": 0.0, "name": "36fa8793057174827a19063fe63dd18e", "fusion_lon": 0.0}, {"is_reserved": 0, "type": "electric_scooter", "bike_id": "d4bccc343de4e844e914ae648fc85af4", "lat": 38.89906283333333, "lon": -77.00344783333334, "rental_uris": {"android": "https://dc.lft.to/lastmile_qr_scan", "ios": "https://dc.lft.to/lastmile_qr_scan"}, "is_disabled": 0, "fusion_lat": 0.0, "name": "d4bccc343de4e844e914ae648fc85af4", "fusion_lon": 0.0}, {"is_reserved": 0, "type": "electric_scooter", "bike_id": "ab10159c7a1c33c9191389e4cc7eb9b7", "lat": 38.898723833333335, "lon": -77.03975716666666, "rental_uris": {"android": "https://dc.lft.to/lastmile_qr_scan", "ios": "https://dc.lft.to/lastmile_qr_scan"}, "is_disabled": 0, "fusion_lat": 0.0, "name": "ab10159c7a1c33c9191389e4cc7eb9b7", "fusion_lon": 0.0}, {"is_reserved": 0, "type": "electric_scooter", "bike_id": "b6be4a9946e1f60909607217bb39c6b8", "lat": 38.9207595, "lon": -77.02506133333333, "rental_uris": {"android": "https://dc.lft.to/lastmile_qr_scan", "ios": "https://dc.lft.to/lastmile_qr_scan"}, "is_disabled": 0, "fusion_lat": 0.0, "name": "b6be4a9946e1f60909607217bb39c6b8", "fusion_lon": 0.0}, {"is_reserved": 0, "type": "electric_bike", "bike_id": "1c457181812dddea72a369e15199a330", "lat": 38.88789516666667, "lon": -76.923431, "rental_uris": {"android": "https://dc.lft.to/lastmile_qr_scan", "ios": "https://dc.lft.to/lastmile_qr_scan"}, "is_disabled": 0, "fusion_lat": 0.0, "name": "1c457181812dddea72a369e15199a330", "fusion_lon": 0.0}, {"is_reserved": 0, "type": "electric_scooter", "bike_id": "06bd73012f0c437142fbb57e102a9ed7", "lat": 38.920370166666665, "lon": -77.04177216666666, "rental_uris": {"android": "https://dc.lft.to/lastmile_qr_scan", "ios": "https://dc.lft.to/lastmile_qr_scan"}, "is_disabled": 0, "fusion_lat": 0.0, "name": "06bd73012f0c437142fbb57e102a9ed7", "fusion_lon": 0.0}, {"is_reserved": 0, "type": "electric_scooter", "bike_id": "16081df0ed4dcdf676742e00ba527746", "lat": 38.926260666666664, "lon": -77.07711733333333, "rental_uris": {"android": "https://dc.lft.to/lastmile_qr_scan", "ios": "https://dc.lft.to/lastmile_qr_scan"}, "is_disabled": 0, "fusion_lat": 0.0, "name": "16081df0ed4dcdf676742e00ba527746", "fusion_lon": 0.0}, {"is_reserved": 0, "type": "electric_scooter", "bike_id": "1d6413249be09110de17ac1bde87243b", "lat": 38.9235485, "lon": -76.99086616666666, "rental_uris": {"android": "https://dc.lft.to/lastmile_qr_scan", "ios": "https://dc.lft.to/lastmile_qr_scan"}, "is_disabled": 0, "fusion_lat": 0.0, "name": "1d6413249be09110de17ac1bde87243b", "fusion_lon": 0.0}, {"is_reserved": 0, "type": "electric_scooter", "bike_id": "74ace7a8d5cd1977326243f1bd4cf9b0", "lat": 38.91333683333333, "lon": -77.04804966666667, "rental_uris": {"android": "https://dc.lft.to/lastmile_qr_scan", "ios": "https://dc.lft.to/lastmile_qr_scan"}, "is_disabled": 0, "fusion_lat": 0.0, "name": "74ace7a8d5cd1977326243f1bd4cf9b0", "fusion_lon": 0.0}, {"is_reserved": 0, "type": "electric_scooter", "bike_id": "ce405c5453e5c36a14fbcdb6e7b89013", "lat": 38.90232866666667, "lon": -77.05327983333333, "rental_uris": {"android": "https://dc.lft.to/lastmile_qr_scan", "ios": "https://dc.lft.to/lastmile_qr_scan"}, "is_disabled": 0, "fusion_lat": 0.0, "name": "ce405c5453e5c36a14fbcdb6e7b89013", "fusion_lon": 0.0}, {"is_reserved": 0, "type": "electric_scooter", "bike_id": "a8c29fe465a4950c7888c00f819ed96a", "lat": 38.918065666666664, "lon": -77.04030983333334, "rental_uris": {"android": "https://dc.lft.to/lastmile_qr_scan", "ios": "https://dc.lft.to/lastmile_qr_scan"}, "is_disabled": 0, "fusion_lat": 0.0, "name": "a8c29fe465a4950c7888c00f819ed96a", "fusion_lon": 0.0}, {"is_reserved": 0, "type": "electric_scooter", "bike_id": "1913b4f7b76c41f7558c62800a5773a9", "lat": 38.892441166666664, "lon": -77.0395705, "rental_uris": {"android": "https://dc.lft.to/lastmile_qr_scan", "ios": "https://dc.lft.to/lastmile_qr_scan"}, "is_disabled": 0, "fusion_lat": 0.0, "name": "1913b4f7b76c41f7558c62800a5773a9", "fusion_lon": 0.0}, {"is_reserved": 0, "type": "electric_scooter", "bike_id": "457c12e09bf6206df136abafd9d1ebe0", "lat": 38.91489683333333, "lon": -77.01217933333334, "rental_uris": {"android": "https://dc.lft.to/lastmile_qr_scan", "ios": "https://dc.lft.to/lastmile_qr_scan"}, "is_disabled": 0, "fusion_lat": 0.0, "name": "457c12e09bf6206df136abafd9d1ebe0", "fusion_lon": 0.0}, {"is_reserved": 0, "type": "electric_scooter", "bike_id": "8505f24155a058c34706872795a67ea8", "lat": 38.916219, "lon": -77.00202983333334, "rental_uris": {"android": "https://dc.lft.to/lastmile_qr_scan", "ios": "https://dc.lft.to/lastmile_qr_scan"}, "is_disabled": 0, "fusion_lat": 0.0, "name": "8505f24155a058c34706872795a67ea8", "fusion_lon": 0.0}, {"is_reserved": 0, "type": "electric_bike", "bike_id": "8a3891c85b6d054a42e55cd5dffc06a8", "lat": 38.974220833333334, "lon": -77.01258333333334, "rental_uris": {"android": "https://dc.lft.to/lastmile_qr_scan", "ios": "https://dc.lft.to/lastmile_qr_scan"}, "is_disabled": 0, "fusion_lat": 0.0, "name": "8a3891c85b6d054a42e55cd5dffc06a8", "fusion_lon": 0.0}, {"is_reserved": 0, "type": "electric_scooter", "bike_id": "7c975bcbb8f145b5fc2168dc00631a35", "lat": 38.9112125, "lon": -77.018265, "rental_uris": {"android": "https://dc.lft.to/lastmile_qr_scan", "ios": "https://dc.lft.to/lastmile_qr_scan"}, "is_disabled": 0, "fusion_lat": 0.0, "name": "7c975bcbb8f145b5fc2168dc00631a35", "fusion_lon": 0.0}, {"is_reserved": 0, "type": "electric_scooter", "bike_id": "9d2667ed29cbdbf55ee268cbe4b7e854", "lat": 38.9310335, "lon": -77.02473, "rental_uris": {"android": "https://dc.lft.to/lastmile_qr_scan", "ios": "https://dc.lft.to/lastmile_qr_scan"}, "is_disabled": 0, "fusion_lat": 0.0, "name": "9d2667ed29cbdbf55ee268cbe4b7e854", "fusion_lon": 0.0}, {"is_reserved": 0, "type": "electric_scooter", "bike_id": "8a1f4357671713b6a1ac5c48f554b5b6", "lat": 38.930650666666665, "lon": -77.02843933333334, "rental_uris": {"android": "https://dc.lft.to/lastmile_qr_scan", "ios": "https://dc.lft.to/lastmile_qr_scan"}, "is_disabled": 0, "fusion_lat": 0.0, "name": "8a1f4357671713b6a1ac5c48f554b5b6", "fusion_lon": 0.0}, {"is_reserved": 0, "type": "electric_scooter", "bike_id": "0dc69cb620df396c91092ded198dbd82", "lat": 38.938272833333336, "lon": -77.026376, "rental_uris": {"android": "https://dc.lft.to/lastmile_qr_scan", "ios": "https://dc.lft.to/lastmile_qr_scan"}, "is_disabled": 0, "fusion_lat": 0.0, "name": "0dc69cb620df396c91092ded198dbd82", "fusion_lon": 0.0}, {"is_reserved": 0, "type": "electric_scooter", "bike_id": "1bae6821e326b8ba7bc46c2f50d4dd15", "lat": 38.93524216666667, "lon": -77.03266316666667, "rental_uris": {"android": "https://dc.lft.to/lastmile_qr_scan", "ios": "https://dc.lft.to/lastmile_qr_scan"}, "is_disabled": 0, "fusion_lat": 0.0, "name": "1bae6821e326b8ba7bc46c2f50d4dd15", "fusion_lon": 0.0}, {"is_reserved": 0, "type": "electric_scooter", "bike_id": "8b306d6690da99595f6795d783369ef6", "lat": 38.89216833333333, "lon": -77.03150416666666, "rental_uris": {"android": "https://dc.lft.to/lastmile_qr_scan", "ios": "https://dc.lft.to/lastmile_qr_scan"}, "is_disabled": 0, "fusion_lat": 0.0, "name": "8b306d6690da99595f6795d783369ef6", "fusion_lon": 0.0}, {"is_reserved": 0, "type": "electric_scooter", "bike_id": "3961a791593904ab84dd36252cbeeae3", "lat": 38.89657066666667, "lon": -77.011799, "rental_uris": {"android": "https://dc.lft.to/lastmile_qr_scan", "ios": "https://dc.lft.to/lastmile_qr_scan"}, "is_disabled": 0, "fusion_lat": 0.0, "name": "3961a791593904ab84dd36252cbeeae3", "fusion_lon": 0.0}, {"is_reserved": 0, "type": "electric_scooter", "bike_id": "719d4d3befaaa8f936bad04135dba301", "lat": 38.90376033333333, "lon": -77.031485, "rental_uris": {"android": "https://dc.lft.to/lastmile_qr_scan", "ios": "https://dc.lft.to/lastmile_qr_scan"}, "is_disabled": 0, "fusion_lat": 0.0, "name": "719d4d3befaaa8f936bad04135dba301", "fusion_lon": 0.0}, {"is_reserved": 0, "type": "electric_scooter", "bike_id": "96e57fa9b903da870faf32602001bb1d", "lat": 38.925483, "lon": -76.999552, "rental_uris": {"android": "https://dc.lft.to/lastmile_qr_scan", "ios": "https://dc.lft.to/lastmile_qr_scan"}, "is_disabled": 0, "fusion_lat": 0.0, "name": "96e57fa9b903da870faf32602001bb1d", "fusion_lon": 0.0}, {"is_reserved": 0, "type": "electric_scooter", "bike_id": "41cc50453212d1abce677022403252b0", "lat": 38.917966666666665, "lon": -77.027035, "rental_uris": {"android": "https://dc.lft.to/lastmile_qr_scan", "ios": "https://dc.lft.to/lastmile_qr_scan"}, "is_disabled": 0, "fusion_lat": 0.0, "name": "41cc50453212d1abce677022403252b0", "fusion_lon": 0.0}, {"is_reserved": 0, "type": "electric_scooter", "bike_id": "b1521946c6f27cc681a664ac94295aef", "lat": 38.92001466666667, "lon": -77.03185966666666, "rental_uris": {"android": "https://dc.lft.to/lastmile_qr_scan", "ios": "https://dc.lft.to/lastmile_qr_scan"}, "is_disabled": 0, "fusion_lat": 0.0, "name": "b1521946c6f27cc681a664ac94295aef", "fusion_lon": 0.0}, {"is_reserved": 0, "type": "electric_scooter", "bike_id": "b2e93a0f58a57e0e4f66808618aa8c59", "lat": 38.90091666666667, "lon": -77.01634483333333, "rental_uris": {"android": "https://dc.lft.to/lastmile_qr_scan", "ios": "https://dc.lft.to/lastmile_qr_scan"}, "is_disabled": 0, "fusion_lat": 0.0, "name": "b2e93a0f58a57e0e4f66808618aa8c59", "fusion_lon": 0.0}, {"is_reserved": 0, "type": "electric_scooter", "bike_id": "662086a445dedf7c7eb0b16289ca11a6", "lat": 38.919534, "lon": -77.0446225, "rental_uris": {"android": "https://dc.lft.to/lastmile_qr_scan", "ios": "https://dc.lft.to/lastmile_qr_scan"}, "is_disabled": 0, "fusion_lat": 0.0, "name": "662086a445dedf7c7eb0b16289ca11a6", "fusion_lon": 0.0}, {"is_reserved": 0, "type": "electric_scooter", "bike_id": "8817afbec652059e118fc04c134978bf", "lat": 38.915664666666665, "lon": -77.022883, "rental_uris": {"android": "https://dc.lft.to/lastmile_qr_scan", "ios": "https://dc.lft.to/lastmile_qr_scan"}, "is_disabled": 0, "fusion_lat": 0.0, "name": "8817afbec652059e118fc04c134978bf", "fusion_lon": 0.0}, {"is_reserved": 0, "type": "electric_scooter", "bike_id": "cd225b26c92b4846fcc57bb6c50a84b8", "lat": 38.89751283333333, "lon": -77.02696783333333, "rental_uris": {"android": "https://dc.lft.to/lastmile_qr_scan", "ios": "https://dc.lft.to/lastmile_qr_scan"}, "is_disabled": 0, "fusion_lat": 0.0, "name": "cd225b26c92b4846fcc57bb6c50a84b8", "fusion_lon": 0.0}, {"is_reserved": 0, "type": "electric_scooter", "bike_id": "d37a1dc9c6565547cb1354d0d1783977", "lat": 38.887657, "lon": -76.9832805, "rental_uris": {"android": "https://dc.lft.to/lastmile_qr_scan", "ios": "https://dc.lft.to/lastmile_qr_scan"}, "is_disabled": 0, "fusion_lat": 0.0, "name": "d37a1dc9c6565547cb1354d0d1783977", "fusion_lon": 0.0}, {"is_reserved": 0, "type": "electric_scooter", "bike_id": "e65d3dfaa0c44106b354d1c6f07f113c", "lat": 38.8980925, "lon": -76.99694683333334, "rental_uris": {"android": "https://dc.lft.to/lastmile_qr_scan", "ios": "https://dc.lft.to/lastmile_qr_scan"}, "is_disabled": 0, "fusion_lat": 0.0, "name": "e65d3dfaa0c44106b354d1c6f07f113c", "fusion_lon": 0.0}, {"is_reserved": 0, "type": "electric_scooter", "bike_id": "4a394659494de9dca41c50590dffd82b", "lat": 38.917773333333336, "lon": -77.02313416666667, "rental_uris": {"android": "https://dc.lft.to/lastmile_qr_scan", "ios": "https://dc.lft.to/lastmile_qr_scan"}, "is_disabled": 0, "fusion_lat": 0.0, "name": "4a394659494de9dca41c50590dffd82b", "fusion_lon": 0.0}, {"is_reserved": 0, "type": "electric_scooter", "bike_id": "398a3ac0d9529a42595a44003f683d14", "lat": 38.919742166666666, "lon": -77.043682, "rental_uris": {"android": "https://dc.lft.to/lastmile_qr_scan", "ios": "https://dc.lft.to/lastmile_qr_scan"}, "is_disabled": 0, "fusion_lat": 0.0, "name": "398a3ac0d9529a42595a44003f683d14", "fusion_lon": 0.0}, {"is_reserved": 0, "type": "electric_scooter", "bike_id": "73de645938ebf8c700165f3d4fa72c20", "lat": 38.919366333333336, "lon": -77.01881383333334, "rental_uris": {"android": "https://dc.lft.to/lastmile_qr_scan", "ios": "https://dc.lft.to/lastmile_qr_scan"}, "is_disabled": 0, "fusion_lat": 0.0, "name": "73de645938ebf8c700165f3d4fa72c20", "fusion_lon": 0.0}, {"is_reserved": 0, "type": "electric_scooter", "bike_id": "f8ec01f20207430d4c5bd72794537103", "lat": 38.86718, "lon": -76.980739, "rental_uris": {"android": "https://dc.lft.to/lastmile_qr_scan", "ios": "https://dc.lft.to/lastmile_qr_scan"}, "is_disabled": 0, "fusion_lat": 0.0, "name": "f8ec01f20207430d4c5bd72794537103", "fusion_lon": 0.0}, {"is_reserved": 0, "type": "electric_scooter", "bike_id": "54b43b2583c06ea1c94557d6554adda6", "lat": 38.91110916666667, "lon": -77.02085566666666, "rental_uris": {"android": "https://dc.lft.to/lastmile_qr_scan", "ios": "https://dc.lft.to/lastmile_qr_scan"}, "is_disabled": 0, "fusion_lat": 0.0, "name": "54b43b2583c06ea1c94557d6554adda6", "fusion_lon": 0.0}, {"is_reserved": 0, "type": "electric_scooter", "bike_id": "5e0939bb72f9c15b44c06230c40d5586", "lat": 38.892243, "lon": -77.03188033333333, "rental_uris": {"android": "https://dc.lft.to/lastmile_qr_scan", "ios": "https://dc.lft.to/lastmile_qr_scan"}, "is_disabled": 0, "fusion_lat": 0.0, "name": "5e0939bb72f9c15b44c06230c40d5586", "fusion_lon": 0.0}, {"is_reserved": 0, "type": "electric_scooter", "bike_id": "317ea6aa42a6fc050729c2c1813f5edc", "lat": 38.90857066666667, "lon": -77.003734, "rental_uris": {"android": "https://dc.lft.to/lastmile_qr_scan", "ios": "https://dc.lft.to/lastmile_qr_scan"}, "is_disabled": 0, "fusion_lat": 0.0, "name": "317ea6aa42a6fc050729c2c1813f5edc", "fusion_lon": 0.0}, {"is_reserved": 0, "type": "electric_scooter", "bike_id": "fddb329c35e63bbf32c231e488b5d3c4", "lat": 38.9097205, "lon": -77.02406183333333, "rental_uris": {"android": "https://dc.lft.to/lastmile_qr_scan", "ios": "https://dc.lft.to/lastmile_qr_scan"}, "is_disabled": 0, "fusion_lat": 0.0, "name": "fddb329c35e63bbf32c231e488b5d3c4", "fusion_lon": 0.0}, {"is_reserved": 0, "type": "electric_scooter", "bike_id": "8805b75336e872fa265034b66da89f03", "lat": 38.8659265, "lon": -76.97453016666667, "rental_uris": {"android": "https://dc.lft.to/lastmile_qr_scan", "ios": "https://dc.lft.to/lastmile_qr_scan"}, "is_disabled": 0, "fusion_lat": 0.0, "name": "8805b75336e872fa265034b66da89f03", "fusion_lon": 0.0}, {"is_reserved": 0, "type": "electric_bike", "bike_id": "672013cac09567e656fd898e8192ab57", "lat": 38.89591466666667, "lon": -76.90693366666666, "rental_uris": {"android": "https://dc.lft.to/lastmile_qr_scan", "ios": "https://dc.lft.to/lastmile_qr_scan"}, "is_disabled": 0, "fusion_lat": 0.0, "name": "672013cac09567e656fd898e8192ab57", "fusion_lon": 0.0}, {"is_reserved": 0, "type": "electric_bike", "bike_id": "5ab1e00e3b3b91faad34b17ee4890ec0", "lat": 38.9564315, "lon": -77.03294016666666, "rental_uris": {"android": "https://dc.lft.to/lastmile_qr_scan", "ios": "https://dc.lft.to/lastmile_qr_scan"}, "is_disabled": 0, "fusion_lat": 0.0, "name": "5ab1e00e3b3b91faad34b17ee4890ec0", "fusion_lon": 0.0}, {"is_reserved": 0, "type": "electric_scooter", "bike_id": "99b20a08c1187ae00a36062e33eeeb5a", "lat": 38.90576266666667, "lon": -77.030707, "rental_uris": {"android": "https://dc.lft.to/lastmile_qr_scan", "ios": "https://dc.lft.to/lastmile_qr_scan"}, "is_disabled": 0, "fusion_lat": 0.0, "name": "99b20a08c1187ae00a36062e33eeeb5a", "fusion_lon": 0.0}, {"is_reserved": 0, "type": "electric_scooter", "bike_id": "161b96c2d71864432d974ea85e9657c4", "lat": 38.8876315, "lon": -76.98322133333333, "rental_uris": {"android": "https://dc.lft.to/lastmile_qr_scan", "ios": "https://dc.lft.to/lastmile_qr_scan"}, "is_disabled": 0, "fusion_lat": 0.0, "name": "161b96c2d71864432d974ea85e9657c4", "fusion_lon": 0.0}, {"is_reserved": 0, "type": "electric_scooter", "bike_id": "3b047f4b1d21444cb7a7c1e824745474", "lat": 38.90741166666667, "lon": -77.007597, "rental_uris": {"android": "https://dc.lft.to/lastmile_qr_scan", "ios": "https://dc.lft.to/lastmile_qr_scan"}, "is_disabled": 0, "fusion_lat": 0.0, "name": "3b047f4b1d21444cb7a7c1e824745474", "fusion_lon": 0.0}, {"is_reserved": 0, "type": "electric_scooter", "bike_id": "22ed25d53a2ce6dc9bcbaa1e0196f50e", "lat": 38.921593666666666, "lon": -77.033313, "rental_uris": {"android": "https://dc.lft.to/lastmile_qr_scan", "ios": "https://dc.lft.to/lastmile_qr_scan"}, "is_disabled": 0, "fusion_lat": 0.0, "name": "22ed25d53a2ce6dc9bcbaa1e0196f50e", "fusion_lon": 0.0}, {"is_reserved": 0, "type": "electric_scooter", "bike_id": "d8b9b66dd38e5c3c5a2b0932b2dd7aa8", "lat": 38.90719833333333, "lon": -77.03203, "rental_uris": {"android": "https://dc.lft.to/lastmile_qr_scan", "ios": "https://dc.lft.to/lastmile_qr_scan"}, "is_disabled": 0, "fusion_lat": 0.0, "name": "d8b9b66dd38e5c3c5a2b0932b2dd7aa8", "fusion_lon": 0.0}, {"is_reserved": 0, "type": "electric_scooter", "bike_id": "df45658b894c67865d8f6a28df6b2cff", "lat": 38.924424, "lon": -77.020351, "rental_uris": {"android": "https://dc.lft.to/lastmile_qr_scan", "ios": "https://dc.lft.to/lastmile_qr_scan"}, "is_disabled": 0, "fusion_lat": 0.0, "name": "df45658b894c67865d8f6a28df6b2cff", "fusion_lon": 0.0}, {"is_reserved": 0, "type": "electric_bike", "bike_id": "8f74bdd62d30c0b0b546463bd8103c2b", "lat": 38.921155666666664, "lon": -76.98880566666666, "rental_uris": {"android": "https://dc.lft.to/lastmile_qr_scan", "ios": "https://dc.lft.to/lastmile_qr_scan"}, "is_disabled": 0, "fusion_lat": 0.0, "name": "8f74bdd62d30c0b0b546463bd8103c2b", "fusion_lon": 0.0}, {"is_reserved": 0, "type": "electric_scooter", "bike_id": "db5bc3b124f0677d06c1013be0c5de0c", "lat": 38.91827083333333, "lon": -77.04525083333333, "rental_uris": {"android": "https://dc.lft.to/lastmile_qr_scan", "ios": "https://dc.lft.to/lastmile_qr_scan"}, "is_disabled": 0, "fusion_lat": 0.0, "name": "db5bc3b124f0677d06c1013be0c5de0c", "fusion_lon": 0.0}, {"is_reserved": 0, "type": "electric_scooter", "bike_id": "6b407289566cabb0869d4fae7c524b3d", "lat": 38.920253333333335, "lon": -77.01856366666667, "rental_uris": {"android": "https://dc.lft.to/lastmile_qr_scan", "ios": "https://dc.lft.to/lastmile_qr_scan"}, "is_disabled": 0, "fusion_lat": 0.0, "name": "6b407289566cabb0869d4fae7c524b3d", "fusion_lon": 0.0}, {"is_reserved": 0, "type": "electric_scooter", "bike_id": "60d935e7b4d49d2c260a058fb23e390e", "lat": 38.898015, "lon": -76.99505483333333, "rental_uris": {"android": "https://dc.lft.to/lastmile_qr_scan", "ios": "https://dc.lft.to/lastmile_qr_scan"}, "is_disabled": 0, "fusion_lat": 0.0, "name": "60d935e7b4d49d2c260a058fb23e390e", "fusion_lon": 0.0}, {"is_reserved": 0, "type": "electric_bike", "bike_id": "3a38acfe9f2e8450480c204a2b6d46d1", "lat": 38.95844566666667, "lon": -76.985847, "rental_uris": {"android": "https://dc.lft.to/lastmile_qr_scan", "ios": "https://dc.lft.to/lastmile_qr_scan"}, "is_disabled": 0, "fusion_lat": 0.0, "name": "3a38acfe9f2e8450480c204a2b6d46d1", "fusion_lon": 0.0}, {"is_reserved": 0, "type": "electric_scooter", "bike_id": "f11b4aed11ebc6b580955389d668d660", "lat": 38.941795, "lon": -77.025689, "rental_uris": {"android": "https://dc.lft.to/lastmile_qr_scan", "ios": "https://dc.lft.to/lastmile_qr_scan"}, "is_disabled": 0, "fusion_lat": 0.0, "name": "f11b4aed11ebc6b580955389d668d660", "fusion_lon": 0.0}, {"is_reserved": 0, "type": "electric_scooter", "bike_id": "2d18174f762d94366344d50e29978565", "lat": 38.92473783333333, "lon": -77.02925983333333, "rental_uris": {"android": "https://dc.lft.to/lastmile_qr_scan", "ios": "https://dc.lft.to/lastmile_qr_scan"}, "is_disabled": 0, "fusion_lat": 0.0, "name": "2d18174f762d94366344d50e29978565", "fusion_lon": 0.0}, {"is_reserved": 0, "type": "electric_scooter", "bike_id": "3ffaeedccb9179eef9d39ba4ff586597", "lat": 38.94193833333333, "lon": -77.0251805, "rental_uris": {"android": "https://dc.lft.to/lastmile_qr_scan", "ios": "https://dc.lft.to/lastmile_qr_scan"}, "is_disabled": 0, "fusion_lat": 0.0, "name": "3ffaeedccb9179eef9d39ba4ff586597", "fusion_lon": 0.0}, {"is_reserved": 0, "type": "electric_scooter", "bike_id": "08c7bdc0175d9b832813cc56c970acb4", "lat": 38.9240605, "lon": -77.03561316666666, "rental_uris": {"android": "https://dc.lft.to/lastmile_qr_scan", "ios": "https://dc.lft.to/lastmile_qr_scan"}, "is_disabled": 0, "fusion_lat": 0.0, "name": "08c7bdc0175d9b832813cc56c970acb4", "fusion_lon": 0.0}, {"is_reserved": 0, "type": "electric_scooter", "bike_id": "7ac53c28b5ef250429a409246b30aa58", "lat": 38.92004383333333, "lon": -76.98505516666667, "rental_uris": {"android": "https://dc.lft.to/lastmile_qr_scan", "ios": "https://dc.lft.to/lastmile_qr_scan"}, "is_disabled": 0, "fusion_lat": 0.0, "name": "7ac53c28b5ef250429a409246b30aa58", "fusion_lon": 0.0}, {"is_reserved": 0, "type": "electric_scooter", "bike_id": "9ce1ed463ae7d6b05ffc65f41fed62d0", "lat": 38.915725, "lon": -77.0200275, "rental_uris": {"android": "https://dc.lft.to/lastmile_qr_scan", "ios": "https://dc.lft.to/lastmile_qr_scan"}, "is_disabled": 0, "fusion_lat": 0.0, "name": "9ce1ed463ae7d6b05ffc65f41fed62d0", "fusion_lon": 0.0}, {"is_reserved": 0, "type": "electric_scooter", "bike_id": "c527e2227ef51ddf81735666e99efd81", "lat": 38.93098366666667, "lon": -77.02484916666667, "rental_uris": {"android": "https://dc.lft.to/lastmile_qr_scan", "ios": "https://dc.lft.to/lastmile_qr_scan"}, "is_disabled": 0, "fusion_lat": 0.0, "name": "c527e2227ef51ddf81735666e99efd81", "fusion_lon": 0.0}, {"is_reserved": 0, "type": "electric_scooter", "bike_id": "112dfb7055d43ab8441e2eb08137bc55", "lat": 38.908334833333335, "lon": -76.9871475, "rental_uris": {"android": "https://dc.lft.to/lastmile_qr_scan", "ios": "https://dc.lft.to/lastmile_qr_scan"}, "is_disabled": 0, "fusion_lat": 0.0, "name": "112dfb7055d43ab8441e2eb08137bc55", "fusion_lon": 0.0}, {"is_reserved": 0, "type": "electric_scooter", "bike_id": "40cf599268b11bf0da1068e4d7bec4ca", "lat": 38.905631, "lon": -77.00600633333333, "rental_uris": {"android": "https://dc.lft.to/lastmile_qr_scan", "ios": "https://dc.lft.to/lastmile_qr_scan"}, "is_disabled": 0, "fusion_lat": 0.0, "name": "40cf599268b11bf0da1068e4d7bec4ca", "fusion_lon": 0.0}, {"is_reserved": 0, "type": "electric_scooter", "bike_id": "c327155df74fa19db4ad376c4c54711d", "lat": 38.91830316666667, "lon": -77.03168566666666, "rental_uris": {"android": "https://dc.lft.to/lastmile_qr_scan", "ios": "https://dc.lft.to/lastmile_qr_scan"}, "is_disabled": 0, "fusion_lat": 0.0, "name": "c327155df74fa19db4ad376c4c54711d", "fusion_lon": 0.0}, {"is_reserved": 0, "type": "electric_scooter", "bike_id": "68eafd3be1385c00c7d6835a68d65402", "lat": 38.88630933333334, "lon": -77.015383, "rental_uris": {"android": "https://dc.lft.to/lastmile_qr_scan", "ios": "https://dc.lft.to/lastmile_qr_scan"}, "is_disabled": 0, "fusion_lat": 0.0, "name": "68eafd3be1385c00c7d6835a68d65402", "fusion_lon": 0.0}, {"is_reserved": 0, "type": "electric_scooter", "bike_id": "f024c4e0587fd192b6a0b20de7c707e6", "lat": 38.92610833333333, "lon": -77.05186566666667, "rental_uris": {"android": "https://dc.lft.to/lastmile_qr_scan", "ios": "https://dc.lft.to/lastmile_qr_scan"}, "is_disabled": 0, "fusion_lat": 0.0, "name": "f024c4e0587fd192b6a0b20de7c707e6", "fusion_lon": 0.0}, {"is_reserved": 0, "type": "electric_scooter", "bike_id": "9e4fe15d9dc3e4ad812fae2339a9130b", "lat": 38.885085833333335, "lon": -77.0111775, "rental_uris": {"android": "https://dc.lft.to/lastmile_qr_scan", "ios": "https://dc.lft.to/lastmile_qr_scan"}, "is_disabled": 0, "fusion_lat": 0.0, "name": "9e4fe15d9dc3e4ad812fae2339a9130b", "fusion_lon": 0.0}, {"is_reserved": 0, "type": "electric_bike", "bike_id": "2547a5e32e46ccd4625112737f10a3da", "lat": 38.991029, "lon": -76.8815595, "rental_uris": {"android": "https://dc.lft.to/lastmile_qr_scan", "ios": "https://dc.lft.to/lastmile_qr_scan"}, "is_disabled": 0, "fusion_lat": 0.0, "name": "2547a5e32e46ccd4625112737f10a3da", "fusion_lon": 0.0}, {"is_reserved": 0, "type": "electric_bike", "bike_id": "2182dd6684d604f57d1b913da752f9df", "lat": 38.84329966666667, "lon": -76.99745116666666, "rental_uris": {"android": "https://dc.lft.to/lastmile_qr_scan", "ios": "https://dc.lft.to/lastmile_qr_scan"}, "is_disabled": 0, "fusion_lat": 0.0, "name": "2182dd6684d604f57d1b913da752f9df", "fusion_lon": 0.0}, {"is_reserved": 0, "type": "electric_scooter", "bike_id": "d0a777db09c3bcdcc4fcd3592ba9dfce", "lat": 38.88608466666667, "lon": -77.00407483333333, "rental_uris": {"android": "https://dc.lft.to/lastmile_qr_scan", "ios": "https://dc.lft.to/lastmile_qr_scan"}, "is_disabled": 0, "fusion_lat": 0.0, "name": "d0a777db09c3bcdcc4fcd3592ba9dfce", "fusion_lon": 0.0}, {"is_reserved": 0, "type": "electric_scooter", "bike_id": "d90816e75cc0566f2b13a527cee9c8ed", "lat": 38.96793733333333, "lon": -77.02432833333333, "rental_uris": {"android": "https://dc.lft.to/lastmile_qr_scan", "ios": "https://dc.lft.to/lastmile_qr_scan"}, "is_disabled": 0, "fusion_lat": 0.0, "name": "d90816e75cc0566f2b13a527cee9c8ed", "fusion_lon": 0.0}, {"is_reserved": 0, "type": "electric_scooter", "bike_id": "a5760d65eea8c61509d36ae0715717b9", "lat": 38.927670166666665, "lon": -77.02788833333334, "rental_uris": {"android": "https://dc.lft.to/lastmile_qr_scan", "ios": "https://dc.lft.to/lastmile_qr_scan"}, "is_disabled": 0, "fusion_lat": 0.0, "name": "a5760d65eea8c61509d36ae0715717b9", "fusion_lon": 0.0}, {"is_reserved": 0, "type": "electric_scooter", "bike_id": "564b7286635ca7f3aff887331c5967d2", "lat": 38.9232575, "lon": -77.0290485, "rental_uris": {"android": "https://dc.lft.to/lastmile_qr_scan", "ios": "https://dc.lft.to/lastmile_qr_scan"}, "is_disabled": 0, "fusion_lat": 0.0, "name": "564b7286635ca7f3aff887331c5967d2", "fusion_lon": 0.0}, {"is_reserved": 0, "type": "electric_scooter", "bike_id": "14bc82119f153ea15fb983cb95bbec55", "lat": 38.934062, "lon": -77.03261483333333, "rental_uris": {"android": "https://dc.lft.to/lastmile_qr_scan", "ios": "https://dc.lft.to/lastmile_qr_scan"}, "is_disabled": 0, "fusion_lat": 0.0, "name": "14bc82119f153ea15fb983cb95bbec55", "fusion_lon": 0.0}, {"is_reserved": 0, "type": "electric_scooter", "bike_id": "4d0c86ee5a79a04c3aa81c2705e97944", "lat": 38.9109735, "lon": -77.0507255, "rental_uris": {"android": "https://dc.lft.to/lastmile_qr_scan", "ios": "https://dc.lft.to/lastmile_qr_scan"}, "is_disabled": 0, "fusion_lat": 0.0, "name": "4d0c86ee5a79a04c3aa81c2705e97944", "fusion_lon": 0.0}, {"is_reserved": 0, "type": "electric_scooter", "bike_id": "d11031923cec2e82fc003443361452cc", "lat": 38.905696, "lon": -77.04168116666666, "rental_uris": {"android": "https://dc.lft.to/lastmile_qr_scan", "ios": "https://dc.lft.to/lastmile_qr_scan"}, "is_disabled": 0, "fusion_lat": 0.0, "name": "d11031923cec2e82fc003443361452cc", "fusion_lon": 0.0}, {"is_reserved": 0, "type": "electric_scooter", "bike_id": "1c02a73c464746c7b7b22868f31592fd", "lat": 38.897642166666664, "lon": -77.0271115, "rental_uris": {"android": "https://dc.lft.to/lastmile_qr_scan", "ios": "https://dc.lft.to/lastmile_qr_scan"}, "is_disabled": 0, "fusion_lat": 0.0, "name": "1c02a73c464746c7b7b22868f31592fd", "fusion_lon": 0.0}, {"is_reserved": 0, "type": "electric_scooter", "bike_id": "905cc6e8c25f71e7f6c9745fa365ea19", "lat": 38.925854, "lon": -77.02942866666666, "rental_uris": {"android": "https://dc.lft.to/lastmile_qr_scan", "ios": "https://dc.lft.to/lastmile_qr_scan"}, "is_disabled": 0, "fusion_lat": 0.0, "name": "905cc6e8c25f71e7f6c9745fa365ea19", "fusion_lon": 0.0}, {"is_reserved": 0, "type": "electric_scooter", "bike_id": "0e70ffd6ce1e53cbaddca816ad2f3dad", "lat": 38.897288833333334, "lon": -77.021707, "rental_uris": {"android": "https://dc.lft.to/lastmile_qr_scan", "ios": "https://dc.lft.to/lastmile_qr_scan"}, "is_disabled": 0, "fusion_lat": 0.0, "name": "0e70ffd6ce1e53cbaddca816ad2f3dad", "fusion_lon": 0.0}, {"is_reserved": 0, "type": "electric_scooter", "bike_id": "f1e86ef6430cdc5ca3b6980758b9cb7b", "lat": 38.8997575, "lon": -77.02219366666667, "rental_uris": {"android": "https://dc.lft.to/lastmile_qr_scan", "ios": "https://dc.lft.to/lastmile_qr_scan"}, "is_disabled": 0, "fusion_lat": 0.0, "name": "f1e86ef6430cdc5ca3b6980758b9cb7b", "fusion_lon": 0.0}, {"is_reserved": 0, "type": "electric_scooter", "bike_id": "1e7312adefa601e787bf991cbca533a1", "lat": 38.91411216666667, "lon": -77.02728666666667, "rental_uris": {"android": "https://dc.lft.to/lastmile_qr_scan", "ios": "https://dc.lft.to/lastmile_qr_scan"}, "is_disabled": 0, "fusion_lat": 0.0, "name": "1e7312adefa601e787bf991cbca533a1", "fusion_lon": 0.0}, {"is_reserved": 0, "type": "electric_scooter", "bike_id": "cd2c18f47faa3c2990d5116686c0e308", "lat": 38.950918, "lon": -77.0253345, "rental_uris": {"android": "https://dc.lft.to/lastmile_qr_scan", "ios": "https://dc.lft.to/lastmile_qr_scan"}, "is_disabled": 0, "fusion_lat": 0.0, "name": "cd2c18f47faa3c2990d5116686c0e308", "fusion_lon": 0.0}, {"is_reserved": 0, "type": "electric_scooter", "bike_id": "4e3ded23443b5a34835b9226164b38da", "lat": 38.93024366666667, "lon": -77.03784516666667, "rental_uris": {"android": "https://dc.lft.to/lastmile_qr_scan", "ios": "https://dc.lft.to/lastmile_qr_scan"}, "is_disabled": 0, "fusion_lat": 0.0, "name": "4e3ded23443b5a34835b9226164b38da", "fusion_lon": 0.0}, {"is_reserved": 0, "type": "electric_scooter", "bike_id": "5c6d0d5498ba82261e3ac6793c776a9c", "lat": 38.934584666666666, "lon": -77.02769266666667, "rental_uris": {"android": "https://dc.lft.to/lastmile_qr_scan", "ios": "https://dc.lft.to/lastmile_qr_scan"}, "is_disabled": 0, "fusion_lat": 0.0, "name": "5c6d0d5498ba82261e3ac6793c776a9c", "fusion_lon": 0.0}, {"is_reserved": 0, "type": "electric_scooter", "bike_id": "a2089d0f33537853792a84efd03e270a", "lat": 38.91563983333333, "lon": -77.0297075, "rental_uris": {"android": "https://dc.lft.to/lastmile_qr_scan", "ios": "https://dc.lft.to/lastmile_qr_scan"}, "is_disabled": 0, "fusion_lat": 0.0, "name": "a2089d0f33537853792a84efd03e270a", "fusion_lon": 0.0}, {"is_reserved": 0, "type": "electric_scooter", "bike_id": "d575cc9642183ce3382c47c9ddd5e2a6", "lat": 38.90552916666667, "lon": -77.0060305, "rental_uris": {"android": "https://dc.lft.to/lastmile_qr_scan", "ios": "https://dc.lft.to/lastmile_qr_scan"}, "is_disabled": 0, "fusion_lat": 0.0, "name": "d575cc9642183ce3382c47c9ddd5e2a6", "fusion_lon": 0.0}, {"is_reserved": 0, "type": "electric_scooter", "bike_id": "b767086e3f5d78169c1416e6e0b511f2", "lat": 38.907224166666666, "lon": -77.00760416666667, "rental_uris": {"android": "https://dc.lft.to/lastmile_qr_scan", "ios": "https://dc.lft.to/lastmile_qr_scan"}, "is_disabled": 0, "fusion_lat": 0.0, "name": "b767086e3f5d78169c1416e6e0b511f2", "fusion_lon": 0.0}, {"is_reserved": 0, "type": "electric_scooter", "bike_id": "2eed35a0b8b1b7fb685d65ed814cb6f7", "lat": 38.8990155, "lon": -77.033726, "rental_uris": {"android": "https://dc.lft.to/lastmile_qr_scan", "ios": "https://dc.lft.to/lastmile_qr_scan"}, "is_disabled": 0, "fusion_lat": 0.0, "name": "2eed35a0b8b1b7fb685d65ed814cb6f7", "fusion_lon": 0.0}, {"is_reserved": 0, "type": "electric_scooter", "bike_id": "a3941cba8f05012efd1092a4bfa78d4e", "lat": 38.935307, "lon": -77.02845333333333, "rental_uris": {"android": "https://dc.lft.to/lastmile_qr_scan", "ios": "https://dc.lft.to/lastmile_qr_scan"}, "is_disabled": 0, "fusion_lat": 0.0, "name": "a3941cba8f05012efd1092a4bfa78d4e", "fusion_lon": 0.0}, {"is_reserved": 0, "type": "electric_scooter", "bike_id": "d226945ff78098730b9fe61752e606bb", "lat": 38.92149233333333, "lon": -77.03870166666667, "rental_uris": {"android": "https://dc.lft.to/lastmile_qr_scan", "ios": "https://dc.lft.to/lastmile_qr_scan"}, "is_disabled": 0, "fusion_lat": 0.0, "name": "d226945ff78098730b9fe61752e606bb", "fusion_lon": 0.0}, {"is_reserved": 0, "type": "electric_scooter", "bike_id": "09d104fcdfedd625c420012d524fd733", "lat": 38.923357, "lon": -77.04517633333333, "rental_uris": {"android": "https://dc.lft.to/lastmile_qr_scan", "ios": "https://dc.lft.to/lastmile_qr_scan"}, "is_disabled": 0, "fusion_lat": 0.0, "name": "09d104fcdfedd625c420012d524fd733", "fusion_lon": 0.0}, {"is_reserved": 0, "type": "electric_scooter", "bike_id": "d8689f8c153d8dba204a41e1cb457109", "lat": 38.9207475, "lon": -77.02506733333334, "rental_uris": {"android": "https://dc.lft.to/lastmile_qr_scan", "ios": "https://dc.lft.to/lastmile_qr_scan"}, "is_disabled": 0, "fusion_lat": 0.0, "name": "d8689f8c153d8dba204a41e1cb457109", "fusion_lon": 0.0}, {"is_reserved": 0, "type": "electric_scooter", "bike_id": "f33542690ab68cb34be4ed223092bc7b", "lat": 38.9372465, "lon": -77.0363695, "rental_uris": {"android": "https://dc.lft.to/lastmile_qr_scan", "ios": "https://dc.lft.to/lastmile_qr_scan"}, "is_disabled": 0, "fusion_lat": 0.0, "name": "f33542690ab68cb34be4ed223092bc7b", "fusion_lon": 0.0}, {"is_reserved": 0, "type": "electric_scooter", "bike_id": "87f3ec17e9bbf36d476c6a2ef0ba3ad9", "lat": 38.90724516666667, "lon": -77.03203716666667, "rental_uris": {"android": "https://dc.lft.to/lastmile_qr_scan", "ios": "https://dc.lft.to/lastmile_qr_scan"}, "is_disabled": 0, "fusion_lat": 0.0, "name": "87f3ec17e9bbf36d476c6a2ef0ba3ad9", "fusion_lon": 0.0}, {"is_reserved": 0, "type": "electric_scooter", "bike_id": "a03cec1f783d7964630099ce33332ba6", "lat": 38.89245533333333, "lon": -77.03345016666667, "rental_uris": {"android": "https://dc.lft.to/lastmile_qr_scan", "ios": "https://dc.lft.to/lastmile_qr_scan"}, "is_disabled": 0, "fusion_lat": 0.0, "name": "a03cec1f783d7964630099ce33332ba6", "fusion_lon": 0.0}, {"is_reserved": 0, "type": "electric_scooter", "bike_id": "41baaf6f1d43dedc713d83947ce72a95", "lat": 38.90065283333333, "lon": -77.049479, "rental_uris": {"android": "https://dc.lft.to/lastmile_qr_scan", "ios": "https://dc.lft.to/lastmile_qr_scan"}, "is_disabled": 0, "fusion_lat": 0.0, "name": "41baaf6f1d43dedc713d83947ce72a95", "fusion_lon": 0.0}, {"is_reserved": 0, "type": "electric_scooter", "bike_id": "e38654bc672741d572e0b3127764c2b6", "lat": 38.89981133333333, "lon": -77.02716116666667, "rental_uris": {"android": "https://dc.lft.to/lastmile_qr_scan", "ios": "https://dc.lft.to/lastmile_qr_scan"}, "is_disabled": 0, "fusion_lat": 0.0, "name": "e38654bc672741d572e0b3127764c2b6", "fusion_lon": 0.0}, {"is_reserved": 0, "type": "electric_scooter", "bike_id": "37e97bb1702ad5e28fe3f23436f950ff", "lat": 38.9206005, "lon": -77.024362, "rental_uris": {"android": "https://dc.lft.to/lastmile_qr_scan", "ios": "https://dc.lft.to/lastmile_qr_scan"}, "is_disabled": 0, "fusion_lat": 0.0, "name": "37e97bb1702ad5e28fe3f23436f950ff", "fusion_lon": 0.0}, {"is_reserved": 0, "type": "electric_scooter", "bike_id": "963e299aad709849f671ff3c85011e4e", "lat": 38.930639666666664, "lon": -77.03821316666667, "rental_uris": {"android": "https://dc.lft.to/lastmile_qr_scan", "ios": "https://dc.lft.to/lastmile_qr_scan"}, "is_disabled": 0, "fusion_lat": 0.0, "name": "963e299aad709849f671ff3c85011e4e", "fusion_lon": 0.0}, {"is_reserved": 0, "type": "electric_bike", "bike_id": "62bfa0654aa56a315fad486f47c704ad", "lat": 38.88344333333333, "lon": -76.93624983333333, "rental_uris": {"android": "https://dc.lft.to/lastmile_qr_scan", "ios": "https://dc.lft.to/lastmile_qr_scan"}, "is_disabled": 0, "fusion_lat": 0.0, "name": "62bfa0654aa56a315fad486f47c704ad", "fusion_lon": 0.0}, {"is_reserved": 0, "type": "electric_scooter", "bike_id": "ae70a91ab66bca3e6eaaef91854d84e1", "lat": 38.91915933333333, "lon": -77.0343135, "rental_uris": {"android": "https://dc.lft.to/lastmile_qr_scan", "ios": "https://dc.lft.to/lastmile_qr_scan"}, "is_disabled": 0, "fusion_lat": 0.0, "name": "ae70a91ab66bca3e6eaaef91854d84e1", "fusion_lon": 0.0}, {"is_reserved": 0, "type": "electric_scooter", "bike_id": "98181c5ca6d0a72d75d4381d8388015e", "lat": 38.9345785, "lon": -77.02953066666667, "rental_uris": {"android": "https://dc.lft.to/lastmile_qr_scan", "ios": "https://dc.lft.to/lastmile_qr_scan"}, "is_disabled": 0, "fusion_lat": 0.0, "name": "98181c5ca6d0a72d75d4381d8388015e", "fusion_lon": 0.0}, {"is_reserved": 0, "type": "electric_scooter", "bike_id": "d67721526523d705f74cd196a99edf8f", "lat": 38.923919833333336, "lon": -77.02957133333334, "rental_uris": {"android": "https://dc.lft.to/lastmile_qr_scan", "ios": "https://dc.lft.to/lastmile_qr_scan"}, "is_disabled": 0, "fusion_lat": 0.0, "name": "d67721526523d705f74cd196a99edf8f", "fusion_lon": 0.0}, {"is_reserved": 0, "type": "electric_scooter", "bike_id": "f423e17c277ec96df1b03b82d2bf3fa8", "lat": 38.9230155, "lon": -77.03035816666667, "rental_uris": {"android": "https://dc.lft.to/lastmile_qr_scan", "ios": "https://dc.lft.to/lastmile_qr_scan"}, "is_disabled": 0, "fusion_lat": 0.0, "name": "f423e17c277ec96df1b03b82d2bf3fa8", "fusion_lon": 0.0}, {"is_reserved": 0, "type": "electric_scooter", "bike_id": "02e74300fc4358efaa0be82092290832", "lat": 38.918017, "lon": -77.03442166666666, "rental_uris": {"android": "https://dc.lft.to/lastmile_qr_scan", "ios": "https://dc.lft.to/lastmile_qr_scan"}, "is_disabled": 0, "fusion_lat": 0.0, "name": "02e74300fc4358efaa0be82092290832", "fusion_lon": 0.0}, {"is_reserved": 0, "type": "electric_scooter", "bike_id": "7f7fd8162e3be25c1788b89e9cd82f60", "lat": 38.88399716666667, "lon": -76.93045283333333, "rental_uris": {"android": "https://dc.lft.to/lastmile_qr_scan", "ios": "https://dc.lft.to/lastmile_qr_scan"}, "is_disabled": 0, "fusion_lat": 0.0, "name": "7f7fd8162e3be25c1788b89e9cd82f60", "fusion_lon": 0.0}, {"is_reserved": 0, "type": "electric_scooter", "bike_id": "791958f8bb06c53073cf6c1df5058704", "lat": 38.9336025, "lon": -77.03418916666666, "rental_uris": {"android": "https://dc.lft.to/lastmile_qr_scan", "ios": "https://dc.lft.to/lastmile_qr_scan"}, "is_disabled": 0, "fusion_lat": 0.0, "name": "791958f8bb06c53073cf6c1df5058704", "fusion_lon": 0.0}, {"is_reserved": 0, "type": "electric_scooter", "bike_id": "31c25016851f2e1c7713656480d614fa", "lat": 38.93376716666667, "lon": -77.045471, "rental_uris": {"android": "https://dc.lft.to/lastmile_qr_scan", "ios": "https://dc.lft.to/lastmile_qr_scan"},