{"data": {"bikes": [{"bike_id": "a1ce0972c4f5127be48c495922f1a0d8", "type": "electric_scooter", "is_disabled": 0, "lat": 38.909464, "rental_uris": {"ios": "https://dc.lft.to/lastmile_qr_scan", "android": "https://dc.lft.to/lastmile_qr_scan"}, "is_reserved": 0, "fusion_lon": 0.0, "fusion_lat": 0.0, "lon": -77.04498616666666, "name": "a1ce0972c4f5127be48c495922f1a0d8"}, {"bike_id": "ceb4801e4f32f4ae1a38b842adea1deb", "type": "electric_scooter", "is_disabled": 0, "lat": 38.904145666666665, "rental_uris": {"ios": "https://dc.lft.to/lastmile_qr_scan", "android": "https://dc.lft.to/lastmile_qr_scan"}, "is_reserved": 0, "fusion_lon": 0.0, "fusion_lat": 0.0, "lon": -76.9732515, "name": "ceb4801e4f32f4ae1a38b842adea1deb"}, {"bike_id": "9e3d6a4b0421e3ba088597f6cc1061e7", "type": "electric_bike", "is_disabled": 0, "lat": 38.87301566666667, "rental_uris": {"ios": "https://dc.lft.to/lastmile_qr_scan", "android": "https://dc.lft.to/lastmile_qr_scan"}, "is_reserved": 0, "fusion_lon": 0.0, "fusion_lat": 0.0, "lon": -76.9697615, "name": "9e3d6a4b0421e3ba088597f6cc1061e7"}, {"bike_id": "c1061678d94f0a2c0adcd77483a24d35", "type": "electric_scooter", "is_disabled": 0, "lat": 38.947379833333336, "rental_uris": {"ios": "https://dc.lft.to/lastmile_qr_scan", "android": "https://dc.lft.to/lastmile_qr_scan"}, "is_reserved": 0, "fusion_lon": 0.0, "fusion_lat": 0.0, "lon": -77.07863316666666, "name": "c1061678d94f0a2c0adcd77483a24d35"}, {"bike_id": "cb90dc864a910c7fd413e316913b23bb", "type": "electric_scooter", "is_disabled": 0, "lat": 38.91247833333333, "rental_uris": {"ios": "https://dc.lft.to/lastmile_qr_scan", "android": "https://dc.lft.to/lastmile_qr_scan"}, "is_reserved": 0, "fusion_lon": 0.0, "fusion_lat": 0.0, "lon": -77.0197675, "name": "cb90dc864a910c7fd413e316913b23bb"}, {"bike_id": "e7753f5c701fcba7870f750cba115bf7", "type": "electric_scooter", "is_disabled": 0, "lat": 38.9290065, "rental_uris": {"ios": "https://dc.lft.to/lastmile_qr_scan", "android": "https://dc.lft.to/lastmile_qr_scan"}, "is_reserved": 0, "fusion_lon": 0.0, "fusion_lat": 0.0, "lon": -77.03259433333334, "name": "e7753f5c701fcba7870f750cba115bf7"}, {"bike_id": "9939868c3b1797e32c3207ba210514b3", "type": "electric_bike", "is_disabled": 0, "lat": 38.99669016666667, "rental_uris": {"ios": "https://dc.lft.to/lastmile_qr_scan", "android": "https://dc.lft.to/lastmile_qr_scan"}, "is_reserved": 0, "fusion_lon": 0.0, "fusion_lat": 0.0, "lon": -77.03785, "name": "9939868c3b1797e32c3207ba210514b3"}, {"bike_id": "9eb6400be25ce3321297421c38c4806d", "type": "electric_scooter", "is_disabled": 0, "lat": 38.919908666666664, "rental_uris": {"ios": "https://dc.lft.to/lastmile_qr_scan", "android": "https://dc.lft.to/lastmile_qr_scan"}, "is_reserved": 0, "fusion_lon": 0.0, "fusion_lat": 0.0, "lon": -76.973011, "name": "9eb6400be25ce3321297421c38c4806d"}, {"bike_id": "79b5566cf34c0460e5dde8fb2249723f", "type": "electric_scooter", "is_disabled": 0, "lat": 38.90758233333333, "rental_uris": {"ios": "https://dc.lft.to/lastmile_qr_scan", "android": "https://dc.lft.to/lastmile_qr_scan"}, "is_reserved": 0, "fusion_lon": 0.0, "fusion_lat": 0.0, "lon": -77.02810583333333, "name": "79b5566cf34c0460e5dde8fb2249723f"}, {"bike_id": "5faab58527fdcb1a0363467d41689496", "type": "electric_bike", "is_disabled": 0, "lat": 38.896137333333336, "rental_uris": {"ios": "https://dc.lft.to/lastmile_qr_scan", "android": "https://dc.lft.to/lastmile_qr_scan"}, "is_reserved": 0, "fusion_lon": 0.0, "fusion_lat": 0.0, "lon": -76.90735566666666, "name": "5faab58527fdcb1a0363467d41689496"}, {"bike_id": "f82759ffdfb91b4789d106674b5da0a4", "type": "electric_scooter", "is_disabled": 0, "lat": 38.90281066666667, "rental_uris": {"ios": "https://dc.lft.to/lastmile_qr_scan", "android": "https://dc.lft.to/lastmile_qr_scan"}, "is_reserved": 0, "fusion_lon": 0.0, "fusion_lat": 0.0, "lon": -77.00341916666666, "name": "f82759ffdfb91b4789d106674b5da0a4"}, {"bike_id": "9d9358bf235f206a871553d4c22f1a9c", "type": "electric_scooter", "is_disabled": 0, "lat": 38.86238816666667, "rental_uris": {"ios": "https://dc.lft.to/lastmile_qr_scan", "android": "https://dc.lft.to/lastmile_qr_scan"}, "is_reserved": 0, "fusion_lon": 0.0, "fusion_lat": 0.0, "lon": -76.99508283333333, "name": "9d9358bf235f206a871553d4c22f1a9c"}, {"bike_id": "5b84fe2010c266dcac7912f463aeff1e", "type": "electric_bike", "is_disabled": 0, "lat": 38.906262166666664, "rental_uris": {"ios": "https://dc.lft.to/lastmile_qr_scan", "android": "https://dc.lft.to/lastmile_qr_scan"}, "is_reserved": 0, "fusion_lon": 0.0, "fusion_lat": 0.0, "lon": -76.9859785, "name": "5b84fe2010c266dcac7912f463aeff1e"}, {"bike_id": "f28e84319182263d64683f0ac7b887ae", "type": "electric_scooter", "is_disabled": 0, "lat": 38.921666, "rental_uris": {"ios": "https://dc.lft.to/lastmile_qr_scan", "android": "https://dc.lft.to/lastmile_qr_scan"}, "is_reserved": 0, "fusion_lon": 0.0, "fusion_lat": 0.0, "lon": -77.03849216666667, "name": "f28e84319182263d64683f0ac7b887ae"}, {"bike_id": "ed3d1c1ec6642e8f73678395e405f619", "type": "electric_scooter", "is_disabled": 0, "lat": 38.909643, "rental_uris": {"ios": "https://dc.lft.to/lastmile_qr_scan", "android": "https://dc.lft.to/lastmile_qr_scan"}, "is_reserved": 0, "fusion_lon": 0.0, "fusion_lat": 0.0, "lon": -77.02287533333333, "name": "ed3d1c1ec6642e8f73678395e405f619"}, {"bike_id": "529a5a1a4940473ab9ad5021f0fa307e", "type": "electric_scooter", "is_disabled": 0, "lat": 38.916942166666665, "rental_uris": {"ios": "https://dc.lft.to/lastmile_qr_scan", "android": "https://dc.lft.to/lastmile_qr_scan"}, "is_reserved": 0, "fusion_lon": 0.0, "fusion_lat": 0.0, "lon": -77.02600366666667, "name": "529a5a1a4940473ab9ad5021f0fa307e"}, {"bike_id": "3b2acac5ea9a3a80fce572ed5b2fa654", "type": "electric_scooter", "is_disabled": 0, "lat": 38.942263, "rental_uris": {"ios": "https://dc.lft.to/lastmile_qr_scan", "android": "https://dc.lft.to/lastmile_qr_scan"}, "is_reserved": 0, "fusion_lon": 0.0, "fusion_lat": 0.0, "lon": -77.01433583333333, "name": "3b2acac5ea9a3a80fce572ed5b2fa654"}, {"bike_id": "7a87e2fa2774f8f472cf6fcb47ef266c", "type": "electric_bike", "is_disabled": 0, "lat": 38.82957, "rental_uris": {"ios": "https://dc.lft.to/lastmile_qr_scan", "android": "https://dc.lft.to/lastmile_qr_scan"}, "is_reserved": 0, "fusion_lon": 0.0, "fusion_lat": 0.0, "lon": -77.12356566666666, "name": "7a87e2fa2774f8f472cf6fcb47ef266c"}, {"bike_id": "1ebdad19b31598f8b3b55ab6f0052966", "type": "electric_scooter", "is_disabled": 0, "lat": 38.86701133333333, "rental_uris": {"ios": "https://dc.lft.to/lastmile_qr_scan", "android": "https://dc.lft.to/lastmile_qr_scan"}, "is_reserved": 0, "fusion_lon": 0.0, "fusion_lat": 0.0, "lon": -76.98712466666667, "name": "1ebdad19b31598f8b3b55ab6f0052966"}, {"bike_id": "3ac51798b8637a03b73da9f6cd64186c", "type": "electric_scooter", "is_disabled": 0, "lat": 38.862032166666665, "rental_uris": {"ios": "https://dc.lft.to/lastmile_qr_scan", "android": "https://dc.lft.to/lastmile_qr_scan"}, "is_reserved": 0, "fusion_lon": 0.0, "fusion_lat": 0.0, "lon": -76.99464683333333, "name": "3ac51798b8637a03b73da9f6cd64186c"}, {"bike_id": "2bda2136a8b3b60b61c5ed8889a17edb", "type": "electric_scooter", "is_disabled": 0, "lat": 38.947157, "rental_uris": {"ios": "https://dc.lft.to/lastmile_qr_scan", "android": "https://dc.lft.to/lastmile_qr_scan"}, "is_reserved": 0, "fusion_lon": 0.0, "fusion_lat": 0.0, "lon": -77.027756, "name": "2bda2136a8b3b60b61c5ed8889a17edb"}, {"bike_id": "15c6cc786073ecaef6d1a25215623ef9", "type": "electric_scooter", "is_disabled": 0, "lat": 38.899317333333336, "rental_uris": {"ios": "https://dc.lft.to/lastmile_qr_scan", "android": "https://dc.lft.to/lastmile_qr_scan"}, "is_reserved": 0, "fusion_lon": 0.0, "fusion_lat": 0.0, "lon": -77.0037795, "name": "15c6cc786073ecaef6d1a25215623ef9"}, {"bike_id": "995da9e78cdb2ef76bb478213f1e961c", "type": "electric_scooter", "is_disabled": 0, "lat": 38.857545, "rental_uris": {"ios": "https://dc.lft.to/lastmile_qr_scan", "android": "https://dc.lft.to/lastmile_qr_scan"}, "is_reserved": 0, "fusion_lon": 0.0, "fusion_lat": 0.0, "lon": -76.99303083333334, "name": "995da9e78cdb2ef76bb478213f1e961c"}, {"bike_id": "b5ad9c6c7b8d3408169223007c4c4ce1", "type": "electric_scooter", "is_disabled": 0, "lat": 38.93820183333333, "rental_uris": {"ios": "https://dc.lft.to/lastmile_qr_scan", "android": "https://dc.lft.to/lastmile_qr_scan"}, "is_reserved": 0, "fusion_lon": 0.0, "fusion_lat": 0.0, "lon": -77.02711866666667, "name": "b5ad9c6c7b8d3408169223007c4c4ce1"}, {"bike_id": "9bff772c30bb1b15c2b05bfaf5239822", "type": "electric_scooter", "is_disabled": 0, "lat": 38.8948215, "rental_uris": {"ios": "https://dc.lft.to/lastmile_qr_scan", "android": "https://dc.lft.to/lastmile_qr_scan"}, "is_reserved": 0, "fusion_lon": 0.0, "fusion_lat": 0.0, "lon": -76.99519183333334, "name": "9bff772c30bb1b15c2b05bfaf5239822"}, {"bike_id": "3d0b00c08ae0130c3700f4a570b1bfe3", "type": "electric_scooter", "is_disabled": 0, "lat": 38.9236475, "rental_uris": {"ios": "https://dc.lft.to/lastmile_qr_scan", "android": "https://dc.lft.to/lastmile_qr_scan"}, "is_reserved": 0, "fusion_lon": 0.0, "fusion_lat": 0.0, "lon": -77.03534866666666, "name": "3d0b00c08ae0130c3700f4a570b1bfe3"}, {"bike_id": "f05115a9b0118fd87b8b2b5bdde1f45d", "type": "electric_scooter", "is_disabled": 0, "lat": 38.93128516666667, "rental_uris": {"ios": "https://dc.lft.to/lastmile_qr_scan", "android": "https://dc.lft.to/lastmile_qr_scan"}, "is_reserved": 0, "fusion_lon": 0.0, "fusion_lat": 0.0, "lon": -77.05726066666666, "name": "f05115a9b0118fd87b8b2b5bdde1f45d"}, {"bike_id": "cfa7f70173e3418ccc299b53ecf21f8e", "type": "electric_scooter", "is_disabled": 0, "lat": 38.92280866666667, "rental_uris": {"ios": "https://dc.lft.to/lastmile_qr_scan", "android": "https://dc.lft.to/lastmile_qr_scan"}, "is_reserved": 0, "fusion_lon": 0.0, "fusion_lat": 0.0, "lon": -77.01885933333334, "name": "cfa7f70173e3418ccc299b53ecf21f8e"}, {"bike_id": "a3c5bd772ce5c0d680c18a65dd3d3052", "type": "electric_scooter", "is_disabled": 0, "lat": 38.933705833333335, "rental_uris": {"ios": "https://dc.lft.to/lastmile_qr_scan", "android": "https://dc.lft.to/lastmile_qr_scan"}, "is_reserved": 0, "fusion_lon": 0.0, "fusion_lat": 0.0, "lon": -77.05733116666667, "name": "a3c5bd772ce5c0d680c18a65dd3d3052"}, {"bike_id": "ca9cefd04bea30945ec26c68a94acf50", "type": "electric_scooter", "is_disabled": 0, "lat": 38.905283833333336, "rental_uris": {"ios": "https://dc.lft.to/lastmile_qr_scan", "android": "https://dc.lft.to/lastmile_qr_scan"}, "is_reserved": 0, "fusion_lon": 0.0, "fusion_lat": 0.0, "lon": -76.98623583333334, "name": "ca9cefd04bea30945ec26c68a94acf50"}, {"bike_id": "0590660040fc5879e5c5e9344b7db8cc", "type": "electric_scooter", "is_disabled": 0, "lat": 38.844378, "rental_uris": {"ios": "https://dc.lft.to/lastmile_qr_scan", "android": "https://dc.lft.to/lastmile_qr_scan"}, "is_reserved": 0, "fusion_lon": 0.0, "fusion_lat": 0.0, "lon": -76.99871833333333, "name": "0590660040fc5879e5c5e9344b7db8cc"}, {"bike_id": "00ab82391ac76819675dd32a321a6d76", "type": "electric_scooter", "is_disabled": 0, "lat": 38.91556, "rental_uris": {"ios": "https://dc.lft.to/lastmile_qr_scan", "android": "https://dc.lft.to/lastmile_qr_scan"}, "is_reserved": 0, "fusion_lon": 0.0, "fusion_lat": 0.0, "lon": -77.0264255, "name": "00ab82391ac76819675dd32a321a6d76"}, {"bike_id": "d45deba6e2a86f3dc11d13395c351e5c", "type": "electric_scooter", "is_disabled": 0, "lat": 38.91267916666666, "rental_uris": {"ios": "https://dc.lft.to/lastmile_qr_scan", "android": "https://dc.lft.to/lastmile_qr_scan"}, "is_reserved": 0, "fusion_lon": 0.0, "fusion_lat": 0.0, "lon": -77.03021633333333, "name": "d45deba6e2a86f3dc11d13395c351e5c"}, {"bike_id": "68eb165771ffb44ce821cbd300ee924a", "type": "electric_scooter", "is_disabled": 0, "lat": 38.91784216666667, "rental_uris": {"ios": "https://dc.lft.to/lastmile_qr_scan", "android": "https://dc.lft.to/lastmile_qr_scan"}, "is_reserved": 0, "fusion_lon": 0.0, "fusion_lat": 0.0, "lon": -77.03638766666667, "name": "68eb165771ffb44ce821cbd300ee924a"}, {"bike_id": "44fafbac9898e32ff0e27b419b1ff390", "type": "electric_scooter", "is_disabled": 0, "lat": 38.9223865, "rental_uris": {"ios": "https://dc.lft.to/lastmile_qr_scan", "android": "https://dc.lft.to/lastmile_qr_scan"}, "is_reserved": 0, "fusion_lon": 0.0, "fusion_lat": 0.0, "lon": -77.03520183333333, "name": "44fafbac9898e32ff0e27b419b1ff390"}, {"bike_id": "7d3f895e56a9c57f721a32dbf81da2f6", "type": "electric_scooter", "is_disabled": 0, "lat": 38.89001866666667, "rental_uris": {"ios": "https://dc.lft.to/lastmile_qr_scan", "android": "https://dc.lft.to/lastmile_qr_scan"}, "is_reserved": 0, "fusion_lon": 0.0, "fusion_lat": 0.0, "lon": -77.0490055, "name": "7d3f895e56a9c57f721a32dbf81da2f6"}, {"bike_id": "f4083f29a4a217dfaefee4f71fb42a47", "type": "electric_scooter", "is_disabled": 0, "lat": 38.94900766666667, "rental_uris": {"ios": "https://dc.lft.to/lastmile_qr_scan", "android": "https://dc.lft.to/lastmile_qr_scan"}, "is_reserved": 0, "fusion_lon": 0.0, "fusion_lat": 0.0, "lon": -77.0207395, "name": "f4083f29a4a217dfaefee4f71fb42a47"}, {"bike_id": "d68920b0a801554362bda6eb740fa7ea", "type": "electric_scooter", "is_disabled": 0, "lat": 38.94073783333333, "rental_uris": {"ios": "https://dc.lft.to/lastmile_qr_scan", "android": "https://dc.lft.to/lastmile_qr_scan"}, "is_reserved": 0, "fusion_lon": 0.0, "fusion_lat": 0.0, "lon": -77.06112533333334, "name": "d68920b0a801554362bda6eb740fa7ea"}, {"bike_id": "be7f0994f920c4ea94cc9abdb36d0faa", "type": "electric_scooter", "is_disabled": 0, "lat": 38.93750683333333, "rental_uris": {"ios": "https://dc.lft.to/lastmile_qr_scan", "android": "https://dc.lft.to/lastmile_qr_scan"}, "is_reserved": 0, "fusion_lon": 0.0, "fusion_lat": 0.0, "lon": -77.03576566666666, "name": "be7f0994f920c4ea94cc9abdb36d0faa"}, {"bike_id": "632ae05e9acd226809c8d1f7f0f74a9f", "type": "electric_scooter", "is_disabled": 0, "lat": 38.90576466666667, "rental_uris": {"ios": "https://dc.lft.to/lastmile_qr_scan", "android": "https://dc.lft.to/lastmile_qr_scan"}, "is_reserved": 0, "fusion_lon": 0.0, "fusion_lat": 0.0, "lon": -77.00556466666667, "name": "632ae05e9acd226809c8d1f7f0f74a9f"}, {"bike_id": "ae41f7ed90629d6596428f8ad8d30502", "type": "electric_scooter", "is_disabled": 0, "lat": 38.92578816666666, "rental_uris": {"ios": "https://dc.lft.to/lastmile_qr_scan", "android": "https://dc.lft.to/lastmile_qr_scan"}, "is_reserved": 0, "fusion_lon": 0.0, "fusion_lat": 0.0, "lon": -77.030249, "name": "ae41f7ed90629d6596428f8ad8d30502"}, {"bike_id": "529805b8e41bb8e5ee64d9a169cab5c6", "type": "electric_scooter", "is_disabled": 0, "lat": 38.912559333333334, "rental_uris": {"ios": "https://dc.lft.to/lastmile_qr_scan", "android": "https://dc.lft.to/lastmile_qr_scan"}, "is_reserved": 0, "fusion_lon": 0.0, "fusion_lat": 0.0, "lon": -77.03270533333334, "name": "529805b8e41bb8e5ee64d9a169cab5c6"}, {"bike_id": "cd2c76982969e4a10a1ebf022ffbeeb9", "type": "electric_scooter", "is_disabled": 0, "lat": 38.933992, "rental_uris": {"ios": "https://dc.lft.to/lastmile_qr_scan", "android": "https://dc.lft.to/lastmile_qr_scan"}, "is_reserved": 0, "fusion_lon": 0.0, "fusion_lat": 0.0, "lon": -77.02222566666667, "name": "cd2c76982969e4a10a1ebf022ffbeeb9"}, {"bike_id": "1822ac85155807bd01d50207a8cde37d", "type": "electric_bike", "is_disabled": 0, "lat": 38.9486695, "rental_uris": {"ios": "https://dc.lft.to/lastmile_qr_scan", "android": "https://dc.lft.to/lastmile_qr_scan"}, "is_reserved": 0, "fusion_lon": 0.0, "fusion_lat": 0.0, "lon": -77.02197283333334, "name": "1822ac85155807bd01d50207a8cde37d"}, {"bike_id": "60f0d4d1ba5b5fc1bb1b1a9018b46cbe", "type": "electric_scooter", "is_disabled": 0, "lat": 38.912480333333335, "rental_uris": {"ios": "https://dc.lft.to/lastmile_qr_scan", "android": "https://dc.lft.to/lastmile_qr_scan"}, "is_reserved": 0, "fusion_lon": 0.0, "fusion_lat": 0.0, "lon": -77.0223215, "name": "60f0d4d1ba5b5fc1bb1b1a9018b46cbe"}, {"bike_id": "4db7dd9e3ef940b48c6932eafa3305cd", "type": "electric_scooter", "is_disabled": 0, "lat": 38.91386816666667, "rental_uris": {"ios": "https://dc.lft.to/lastmile_qr_scan", "android": "https://dc.lft.to/lastmile_qr_scan"}, "is_reserved": 0, "fusion_lon": 0.0, "fusion_lat": 0.0, "lon": -77.04133533333334, "name": "4db7dd9e3ef940b48c6932eafa3305cd"}, {"bike_id": "34a550f4ee90826ba8bbe260e7a82c6d", "type": "electric_scooter", "is_disabled": 0, "lat": 38.942949166666665, "rental_uris": {"ios": "https://dc.lft.to/lastmile_qr_scan", "android": "https://dc.lft.to/lastmile_qr_scan"}, "is_reserved": 0, "fusion_lon": 0.0, "fusion_lat": 0.0, "lon": -77.02168916666666, "name": "34a550f4ee90826ba8bbe260e7a82c6d"}, {"bike_id": "38cac8ae7607621f7ac9b16b12021cef", "type": "electric_scooter", "is_disabled": 0, "lat": 38.9234315, "rental_uris": {"ios": "https://dc.lft.to/lastmile_qr_scan", "android": "https://dc.lft.to/lastmile_qr_scan"}, "is_reserved": 0, "fusion_lon": 0.0, "fusion_lat": 0.0, "lon": -77.03610533333334, "name": "38cac8ae7607621f7ac9b16b12021cef"}, {"bike_id": "1d6e6756449607a8e43dda508b1d6a4a", "type": "electric_scooter", "is_disabled": 0, "lat": 38.894885333333335, "rental_uris": {"ios": "https://dc.lft.to/lastmile_qr_scan", "android": "https://dc.lft.to/lastmile_qr_scan"}, "is_reserved": 0, "fusion_lon": 0.0, "fusion_lat": 0.0, "lon": -77.0110895, "name": "1d6e6756449607a8e43dda508b1d6a4a"}, {"bike_id": "e5ee4ff84b083a3314fb2d692ac30e4f", "type": "electric_scooter", "is_disabled": 0, "lat": 38.88746316666667, "rental_uris": {"ios": "https://dc.lft.to/lastmile_qr_scan", "android": "https://dc.lft.to/lastmile_qr_scan"}, "is_reserved": 0, "fusion_lon": 0.0, "fusion_lat": 0.0, "lon": -76.99624683333333, "name": "e5ee4ff84b083a3314fb2d692ac30e4f"}, {"bike_id": "859feba452235a4859f8ce1e11a6355c", "type": "electric_scooter", "is_disabled": 0, "lat": 38.88859183333334, "rental_uris": {"ios": "https://dc.lft.to/lastmile_qr_scan", "android": "https://dc.lft.to/lastmile_qr_scan"}, "is_reserved": 0, "fusion_lon": 0.0, "fusion_lat": 0.0, "lon": -77.00048866666667, "name": "859feba452235a4859f8ce1e11a6355c"}, {"bike_id": "02ed4ca4cb815e13e3f1a49ae647507f", "type": "electric_scooter", "is_disabled": 0, "lat": 38.9190865, "rental_uris": {"ios": "https://dc.lft.to/lastmile_qr_scan", "android": "https://dc.lft.to/lastmile_qr_scan"}, "is_reserved": 0, "fusion_lon": 0.0, "fusion_lat": 0.0, "lon": -77.070657, "name": "02ed4ca4cb815e13e3f1a49ae647507f"}, {"bike_id": "62d1d6fedcf13da603775c332853015b", "type": "electric_scooter", "is_disabled": 0, "lat": 38.9186815, "rental_uris": {"ios": "https://dc.lft.to/lastmile_qr_scan", "android": "https://dc.lft.to/lastmile_qr_scan"}, "is_reserved": 0, "fusion_lon": 0.0, "fusion_lat": 0.0, "lon": -77.04760383333333, "name": "62d1d6fedcf13da603775c332853015b"}, {"bike_id": "ff482d4531f38bde02e939674e8aa97c", "type": "electric_scooter", "is_disabled": 0, "lat": 38.91177666666667, "rental_uris": {"ios": "https://dc.lft.to/lastmile_qr_scan", "android": "https://dc.lft.to/lastmile_qr_scan"}, "is_reserved": 0, "fusion_lon": 0.0, "fusion_lat": 0.0, "lon": -77.00214066666666, "name": "ff482d4531f38bde02e939674e8aa97c"}, {"bike_id": "9ed641909700eda30fa0c518e14419e1", "type": "electric_scooter", "is_disabled": 0, "lat": 38.905772, "rental_uris": {"ios": "https://dc.lft.to/lastmile_qr_scan", "android": "https://dc.lft.to/lastmile_qr_scan"}, "is_reserved": 0, "fusion_lon": 0.0, "fusion_lat": 0.0, "lon": -77.00581983333333, "name": "9ed641909700eda30fa0c518e14419e1"}, {"bike_id": "cae8adfee9f0a9adaec6192edb145af7", "type": "electric_scooter", "is_disabled": 0, "lat": 38.91511583333333, "rental_uris": {"ios": "https://dc.lft.to/lastmile_qr_scan", "android": "https://dc.lft.to/lastmile_qr_scan"}, "is_reserved": 0, "fusion_lon": 0.0, "fusion_lat": 0.0, "lon": -77.02180033333333, "name": "cae8adfee9f0a9adaec6192edb145af7"}, {"bike_id": "62746d579a6bb682fb53452d9a1d1640", "type": "electric_scooter", "is_disabled": 0, "lat": 38.8806225, "rental_uris": {"ios": "https://dc.lft.to/lastmile_qr_scan", "android": "https://dc.lft.to/lastmile_qr_scan"}, "is_reserved": 0, "fusion_lon": 0.0, "fusion_lat": 0.0, "lon": -76.93213083333333, "name": "62746d579a6bb682fb53452d9a1d1640"}, {"bike_id": "d9a5d29d3655c1aa63e72a63c9190911", "type": "electric_scooter", "is_disabled": 0, "lat": 38.924814, "rental_uris": {"ios": "https://dc.lft.to/lastmile_qr_scan", "android": "https://dc.lft.to/lastmile_qr_scan"}, "is_reserved": 0, "fusion_lon": 0.0, "fusion_lat": 0.0, "lon": -77.0521045, "name": "d9a5d29d3655c1aa63e72a63c9190911"}, {"bike_id": "d08db1a4bf77d0a6062bc5edc7ad0590", "type": "electric_scooter", "is_disabled": 0, "lat": 38.92801766666667, "rental_uris": {"ios": "https://dc.lft.to/lastmile_qr_scan", "android": "https://dc.lft.to/lastmile_qr_scan"}, "is_reserved": 0, "fusion_lon": 0.0, "fusion_lat": 0.0, "lon": -77.0236015, "name": "d08db1a4bf77d0a6062bc5edc7ad0590"}, {"bike_id": "4eca181c90e066e0d82a7b3112fda4d6", "type": "electric_bike", "is_disabled": 0, "lat": 38.879862, "rental_uris": {"ios": "https://dc.lft.to/lastmile_qr_scan", "android": "https://dc.lft.to/lastmile_qr_scan"}, "is_reserved": 0, "fusion_lon": 0.0, "fusion_lat": 0.0, "lon": -76.91595366666667, "name": "4eca181c90e066e0d82a7b3112fda4d6"}, {"bike_id": "fcea1915652eeb68e552acfc1d5e16ac", "type": "electric_scooter", "is_disabled": 0, "lat": 38.916714, "rental_uris": {"ios": "https://dc.lft.to/lastmile_qr_scan", "android": "https://dc.lft.to/lastmile_qr_scan"}, "is_reserved": 0, "fusion_lon": 0.0, "fusion_lat": 0.0, "lon": -77.02889666666667, "name": "fcea1915652eeb68e552acfc1d5e16ac"}, {"bike_id": "6bf664f5ad8cc3d1a6495fe85875da56", "type": "electric_scooter", "is_disabled": 0, "lat": 38.9295555, "rental_uris": {"ios": "https://dc.lft.to/lastmile_qr_scan", "android": "https://dc.lft.to/lastmile_qr_scan"}, "is_reserved": 0, "fusion_lon": 0.0, "fusion_lat": 0.0, "lon": -77.01839166666667, "name": "6bf664f5ad8cc3d1a6495fe85875da56"}, {"bike_id": "defaa935303f5735080e0c602f9a0aac", "type": "electric_scooter", "is_disabled": 0, "lat": 38.93343333333333, "rental_uris": {"ios": "https://dc.lft.to/lastmile_qr_scan", "android": "https://dc.lft.to/lastmile_qr_scan"}, "is_reserved": 0, "fusion_lon": 0.0, "fusion_lat": 0.0, "lon": -77.03985716666666, "name": "defaa935303f5735080e0c602f9a0aac"}, {"bike_id": "8c2e42ee0f2c41cf8fc18ed9710eb072", "type": "electric_scooter", "is_disabled": 0, "lat": 38.88746366666667, "rental_uris": {"ios": "https://dc.lft.to/lastmile_qr_scan", "android": "https://dc.lft.to/lastmile_qr_scan"}, "is_reserved": 0, "fusion_lon": 0.0, "fusion_lat": 0.0, "lon": -76.99624283333333, "name": "8c2e42ee0f2c41cf8fc18ed9710eb072"}, {"bike_id": "9bcbf634c7b4863dcbe5f4406e7b983d", "type": "electric_scooter", "is_disabled": 0, "lat": 38.865672833333335, "rental_uris": {"ios": "https://dc.lft.to/lastmile_qr_scan", "android": "https://dc.lft.to/lastmile_qr_scan"}, "is_reserved": 0, "fusion_lon": 0.0, "fusion_lat": 0.0, "lon": -76.982123, "name": "9bcbf634c7b4863dcbe5f4406e7b983d"}, {"bike_id": "0598b46de20820a058aa1029a326044e", "type": "electric_bike", "is_disabled": 0, "lat": 38.8543095, "rental_uris": {"ios": "https://dc.lft.to/lastmile_qr_scan", "android": "https://dc.lft.to/lastmile_qr_scan"}, "is_reserved": 0, "fusion_lon": 0.0, "fusion_lat": 0.0, "lon": -77.1207575, "name": "0598b46de20820a058aa1029a326044e"}, {"bike_id": "56f28eae744820dbffb84e1ab0e237b7", "type": "electric_scooter", "is_disabled": 0, "lat": 38.90527483333334, "rental_uris": {"ios": "https://dc.lft.to/lastmile_qr_scan", "android": "https://dc.lft.to/lastmile_qr_scan"}, "is_reserved": 0, "fusion_lon": 0.0, "fusion_lat": 0.0, "lon": -76.99634083333333, "name": "56f28eae744820dbffb84e1ab0e237b7"}, {"bike_id": "a43a13af6267fdd4c0c1a38669b1c1eb", "type": "electric_scooter", "is_disabled": 0, "lat": 38.93409583333333, "rental_uris": {"ios": "https://dc.lft.to/lastmile_qr_scan", "android": "https://dc.lft.to/lastmile_qr_scan"}, "is_reserved": 0, "fusion_lon": 0.0, "fusion_lat": 0.0, "lon": -77.0391135, "name": "a43a13af6267fdd4c0c1a38669b1c1eb"}, {"bike_id": "0bade605f8dafe1263ae76b6ad4f31c3", "type": "electric_scooter", "is_disabled": 0, "lat": 38.90177633333333, "rental_uris": {"ios": "https://dc.lft.to/lastmile_qr_scan", "android": "https://dc.lft.to/lastmile_qr_scan"}, "is_reserved": 0, "fusion_lon": 0.0, "fusion_lat": 0.0, "lon": -76.98453116666667, "name": "0bade605f8dafe1263ae76b6ad4f31c3"}, {"bike_id": "d9f43e68e704f56fe28e3f011291bb6e", "type": "electric_scooter", "is_disabled": 0, "lat": 38.94295733333333, "rental_uris": {"ios": "https://dc.lft.to/lastmile_qr_scan", "android": "https://dc.lft.to/lastmile_qr_scan"}, "is_reserved": 0, "fusion_lon": 0.0, "fusion_lat": 0.0, "lon": -77.02167316666667, "name": "d9f43e68e704f56fe28e3f011291bb6e"}, {"bike_id": "e220acadf31e2f7697e39d9f037eee8f", "type": "electric_scooter", "is_disabled": 0, "lat": 38.94842516666667, "rental_uris": {"ios": "https://dc.lft.to/lastmile_qr_scan", "android": "https://dc.lft.to/lastmile_qr_scan"}, "is_reserved": 0, "fusion_lon": 0.0, "fusion_lat": 0.0, "lon": -77.0254185, "name": "e220acadf31e2f7697e39d9f037eee8f"}, {"bike_id": "f546f02ef388de01d3ff2b39cb24fdc6", "type": "electric_scooter", "is_disabled": 0, "lat": 38.86232183333333, "rental_uris": {"ios": "https://dc.lft.to/lastmile_qr_scan", "android": "https://dc.lft.to/lastmile_qr_scan"}, "is_reserved": 0, "fusion_lon": 0.0, "fusion_lat": 0.0, "lon": -76.99506633333333, "name": "f546f02ef388de01d3ff2b39cb24fdc6"}, {"bike_id": "9dabc72d4ec4b05d216136146fd72572", "type": "electric_scooter", "is_disabled": 0, "lat": 38.92453183333333, "rental_uris": {"ios": "https://dc.lft.to/lastmile_qr_scan", "android": "https://dc.lft.to/lastmile_qr_scan"}, "is_reserved": 0, "fusion_lon": 0.0, "fusion_lat": 0.0, "lon": -77.02413916666667, "name": "9dabc72d4ec4b05d216136146fd72572"}, {"bike_id": "57447004c44d8fac0a7d6a0bd367fa7b", "type": "electric_scooter", "is_disabled": 0, "lat": 38.90422733333333, "rental_uris": {"ios": "https://dc.lft.to/lastmile_qr_scan", "android": "https://dc.lft.to/lastmile_qr_scan"}, "is_reserved": 0, "fusion_lon": 0.0, "fusion_lat": 0.0, "lon": -76.97373666666667, "name": "57447004c44d8fac0a7d6a0bd367fa7b"}, {"bike_id": "826f3962d4080733ea187d347858dd28", "type": "electric_scooter", "is_disabled": 0, "lat": 38.954783666666664, "rental_uris": {"ios": "https://dc.lft.to/lastmile_qr_scan", "android": "https://dc.lft.to/lastmile_qr_scan"}, "is_reserved": 0, "fusion_lon": 0.0, "fusion_lat": 0.0, "lon": -77.09252366666666, "name": "826f3962d4080733ea187d347858dd28"}, {"bike_id": "9971257cbdd83a37c55c417d5c2e85b4", "type": "electric_scooter", "is_disabled": 0, "lat": 38.88885966666667, "rental_uris": {"ios": "https://dc.lft.to/lastmile_qr_scan", "android": "https://dc.lft.to/lastmile_qr_scan"}, "is_reserved": 0, "fusion_lon": 0.0, "fusion_lat": 0.0, "lon": -76.9903095, "name": "9971257cbdd83a37c55c417d5c2e85b4"}, {"bike_id": "cca5f590102dbfa903a034b0158cf916", "type": "electric_scooter", "is_disabled": 0, "lat": 38.907946333333335, "rental_uris": {"ios": "https://dc.lft.to/lastmile_qr_scan", "android": "https://dc.lft.to/lastmile_qr_scan"}, "is_reserved": 0, "fusion_lon": 0.0, "fusion_lat": 0.0, "lon": -77.00196216666667, "name": "cca5f590102dbfa903a034b0158cf916"}, {"bike_id": "552c986528daf79d0f3f5a89b182aa19", "type": "electric_bike", "is_disabled": 0, "lat": 38.87731333333333, "rental_uris": {"ios": "https://dc.lft.to/lastmile_qr_scan", "android": "https://dc.lft.to/lastmile_qr_scan"}, "is_reserved": 0, "fusion_lon": 0.0, "fusion_lat": 0.0, "lon": -77.0035715, "name": "552c986528daf79d0f3f5a89b182aa19"}, {"bike_id": "759fea343ed41b677878fd5e159334a2", "type": "electric_scooter", "is_disabled": 0, "lat": 38.90725716666667, "rental_uris": {"ios": "https://dc.lft.to/lastmile_qr_scan", "android": "https://dc.lft.to/lastmile_qr_scan"}, "is_reserved": 0, "fusion_lon": 0.0, "fusion_lat": 0.0, "lon": -77.01022866666666, "name": "759fea343ed41b677878fd5e159334a2"}, {"bike_id": "4f3ba62e32b20816670d014b0f9e9880", "type": "electric_bike", "is_disabled": 0, "lat": 38.9450605, "rental_uris": {"ios": "https://dc.lft.to/lastmile_qr_scan", "android": "https://dc.lft.to/lastmile_qr_scan"}, "is_reserved": 0, "fusion_lon": 0.0, "fusion_lat": 0.0, "lon": -77.00664033333334, "name": "4f3ba62e32b20816670d014b0f9e9880"}, {"bike_id": "e32b4f291c81bfd11b26808bca93ad19", "type": "electric_bike", "is_disabled": 0, "lat": 38.81172, "rental_uris": {"ios": "https://dc.lft.to/lastmile_qr_scan", "android": "https://dc.lft.to/lastmile_qr_scan"}, "is_reserved": 0, "fusion_lon": 0.0, "fusion_lat": 0.0, "lon": -77.06964366666666, "name": "e32b4f291c81bfd11b26808bca93ad19"}, {"bike_id": "fc9491f73db1d1b3a639be5a94d26499", "type": "electric_scooter", "is_disabled": 0, "lat": 38.92233433333333, "rental_uris": {"ios": "https://dc.lft.to/lastmile_qr_scan", "android": "https://dc.lft.to/lastmile_qr_scan"}, "is_reserved": 0, "fusion_lon": 0.0, "fusion_lat": 0.0, "lon": -76.9734245, "name": "fc9491f73db1d1b3a639be5a94d26499"}, {"bike_id": "42188085b765277c46ff3236c59284ba", "type": "electric_bike", "is_disabled": 0, "lat": 38.90001066666667, "rental_uris": {"ios": "https://dc.lft.to/lastmile_qr_scan", "android": "https://dc.lft.to/lastmile_qr_scan"}, "is_reserved": 0, "fusion_lon": 0.0, "fusion_lat": 0.0, "lon": -77.07544916666667, "name": "42188085b765277c46ff3236c59284ba"}, {"bike_id": "37ae7c9581ad89bb3c6be01fdeca93fb", "type": "electric_scooter", "is_disabled": 0, "lat": 38.922769, "rental_uris": {"ios": "https://dc.lft.to/lastmile_qr_scan", "android": "https://dc.lft.to/lastmile_qr_scan"}, "is_reserved": 0, "fusion_lon": 0.0, "fusion_lat": 0.0, "lon": -76.994659, "name": "37ae7c9581ad89bb3c6be01fdeca93fb"}, {"bike_id": "2371fc321067904a7865a5ee2ccd94b5", "type": "electric_scooter", "is_disabled": 0, "lat": 38.92254583333333, "rental_uris": {"ios": "https://dc.lft.to/lastmile_qr_scan", "android": "https://dc.lft.to/lastmile_qr_scan"}, "is_reserved": 0, "fusion_lon": 0.0, "fusion_lat": 0.0, "lon": -77.03905583333334, "name": "2371fc321067904a7865a5ee2ccd94b5"}, {"bike_id": "884c55d924058367090a8b94a7692436", "type": "electric_scooter", "is_disabled": 0, "lat": 38.905530666666664, "rental_uris": {"ios": "https://dc.lft.to/lastmile_qr_scan", "android": "https://dc.lft.to/lastmile_qr_scan"}, "is_reserved": 0, "fusion_lon": 0.0, "fusion_lat": 0.0, "lon": -76.99617566666667, "name": "884c55d924058367090a8b94a7692436"}, {"bike_id": "c464a2206056f6db815699451d865a2f", "type": "electric_scooter", "is_disabled": 0, "lat": 38.919827, "rental_uris": {"ios": "https://dc.lft.to/lastmile_qr_scan", "android": "https://dc.lft.to/lastmile_qr_scan"}, "is_reserved": 0, "fusion_lon": 0.0, "fusion_lat": 0.0, "lon": -77.04212516666666, "name": "c464a2206056f6db815699451d865a2f"}, {"bike_id": "ccc802a3861c763e0129e41c09a25bd2", "type": "electric_scooter", "is_disabled": 0, "lat": 38.9249025, "rental_uris": {"ios": "https://dc.lft.to/lastmile_qr_scan", "android": "https://dc.lft.to/lastmile_qr_scan"}, "is_reserved": 0, "fusion_lon": 0.0, "fusion_lat": 0.0, "lon": -77.05214383333333, "name": "ccc802a3861c763e0129e41c09a25bd2"}, {"bike_id": "66cf34c7f777d8efdbc78c5c851bf058", "type": "electric_scooter", "is_disabled": 0, "lat": 38.92654233333333, "rental_uris": {"ios": "https://dc.lft.to/lastmile_qr_scan", "android": "https://dc.lft.to/lastmile_qr_scan"}, "is_reserved": 0, "fusion_lon": 0.0, "fusion_lat": 0.0, "lon": -77.0245005, "name": "66cf34c7f777d8efdbc78c5c851bf058"}, {"bike_id": "9b0610a17f48607434806944b24519c8", "type": "electric_scooter", "is_disabled": 0, "lat": 38.8842555, "rental_uris": {"ios": "https://dc.lft.to/lastmile_qr_scan", "android": "https://dc.lft.to/lastmile_qr_scan"}, "is_reserved": 0, "fusion_lon": 0.0, "fusion_lat": 0.0, "lon": -76.9573765, "name": "9b0610a17f48607434806944b24519c8"}, {"bike_id": "f7e8e130b8e5a4a6d0e2a907724ae4a5", "type": "electric_bike", "is_disabled": 0, "lat": 38.8041235, "rental_uris": {"ios": "https://dc.lft.to/lastmile_qr_scan", "android": "https://dc.lft.to/lastmile_qr_scan"}, "is_reserved": 0, "fusion_lon": 0.0, "fusion_lat": 0.0, "lon": -77.055526, "name": "f7e8e130b8e5a4a6d0e2a907724ae4a5"}, {"bike_id": "5110bc88e8e9762253aa903a815b9c0e", "type": "electric_scooter", "is_disabled": 0, "lat": 38.90576683333333, "rental_uris": {"ios": "https://dc.lft.to/lastmile_qr_scan", "android": "https://dc.lft.to/lastmile_qr_scan"}, "is_reserved": 0, "fusion_lon": 0.0, "fusion_lat": 0.0, "lon": -77.0058145, "name": "5110bc88e8e9762253aa903a815b9c0e"}, {"bike_id": "f81d7436302e688f83aee1e05408f142", "type": "electric_bike", "is_disabled": 0, "lat": 38.890481333333334, "rental_uris": {"ios": "https://dc.lft.to/lastmile_qr_scan", "android": "https://dc.lft.to/lastmile_qr_scan"}, "is_reserved": 0, "fusion_lon": 0.0, "fusion_lat": 0.0, "lon": -77.086356, "name": "f81d7436302e688f83aee1e05408f142"}, {"bike_id": "0c416c61004e1edd303e70a4c8b3a821", "type": "electric_bike", "is_disabled": 0, "lat": 38.95336533333333, "rental_uris": {"ios": "https://dc.lft.to/lastmile_qr_scan", "android": "https://dc.lft.to/lastmile_qr_scan"}, "is_reserved": 0, "fusion_lon": 0.0, "fusion_lat": 0.0, "lon": -76.9825835, "name": "0c416c61004e1edd303e70a4c8b3a821"}, {"bike_id": "a472aa74fa0c289025b8edf86ba36e16", "type": "electric_scooter", "is_disabled": 0, "lat": 38.90073833333334, "rental_uris": {"ios": "https://dc.lft.to/lastmile_qr_scan", "android": "https://dc.lft.to/lastmile_qr_scan"}, "is_reserved": 0, "fusion_lon": 0.0, "fusion_lat": 0.0, "lon": -77.03644483333333, "name": "a472aa74fa0c289025b8edf86ba36e16"}, {"bike_id": "8faba84008fb49c3dd3dac63a709d3bd", "type": "electric_scooter", "is_disabled": 0, "lat": 38.90378966666667, "rental_uris": {"ios": "https://dc.lft.to/lastmile_qr_scan", "android": "https://dc.lft.to/lastmile_qr_scan"}, "is_reserved": 0, "fusion_lon": 0.0, "fusion_lat": 0.0, "lon": -77.03818883333334, "name": "8faba84008fb49c3dd3dac63a709d3bd"}, {"bike_id": "22b7c428377f97e32c0a6337ed68758f", "type": "electric_scooter", "is_disabled": 0, "lat": 38.9170795, "rental_uris": {"ios": "https://dc.lft.to/lastmile_qr_scan", "android": "https://dc.lft.to/lastmile_qr_scan"}, "is_reserved": 0, "fusion_lon": 0.0, "fusion_lat": 0.0, "lon": -77.04612533333334, "name": "22b7c428377f97e32c0a6337ed68758f"}, {"bike_id": "774831cb2725280440b087fac200262b", "type": "electric_scooter", "is_disabled": 0, "lat": 38.94023216666667, "rental_uris": {"ios": "https://dc.lft.to/lastmile_qr_scan", "android": "https://dc.lft.to/lastmile_qr_scan"}, "is_reserved": 0, "fusion_lon": 0.0, "fusion_lat": 0.0, "lon": -77.02763, "name": "774831cb2725280440b087fac200262b"}, {"bike_id": "47a3d60609695fb3f9e717bd2a5aadf8", "type": "electric_scooter", "is_disabled": 0, "lat": 38.9210695, "rental_uris": {"ios": "https://dc.lft.to/lastmile_qr_scan", "android": "https://dc.lft.to/lastmile_qr_scan"}, "is_reserved": 0, "fusion_lon": 0.0, "fusion_lat": 0.0, "lon": -77.02502066666666, "name": "47a3d60609695fb3f9e717bd2a5aadf8"}, {"bike_id": "9a1098bc5d8765d9c944abb384a9a224", "type": "electric_scooter", "is_disabled": 0, "lat": 38.9222315, "rental_uris": {"ios": "https://dc.lft.to/lastmile_qr_scan", "android": "https://dc.lft.to/lastmile_qr_scan"}, "is_reserved": 0, "fusion_lon": 0.0, "fusion_lat": 0.0, "lon": -77.03455633333333, "name": "9a1098bc5d8765d9c944abb384a9a224"}, {"bike_id": "82cc4b486c369365c82e5baf1888cfcb", "type": "electric_bike", "is_disabled": 0, "lat": 39.03995466666667, "rental_uris": {"ios": "https://dc.lft.to/lastmile_qr_scan", "android": "https://dc.lft.to/lastmile_qr_scan"}, "is_reserved": 0, "fusion_lon": 0.0, "fusion_lat": 0.0, "lon": -76.9992105, "name": "82cc4b486c369365c82e5baf1888cfcb"}, {"bike_id": "ce6446a9e70bfead36c59d99b816afde", "type": "electric_scooter", "is_disabled": 0, "lat": 38.90574383333333, "rental_uris": {"ios": "https://dc.lft.to/lastmile_qr_scan", "android": "https://dc.lft.to/lastmile_qr_scan"}, "is_reserved": 0, "fusion_lon": 0.0, "fusion_lat": 0.0, "lon": -77.02214966666666, "name": "ce6446a9e70bfead36c59d99b816afde"}, {"bike_id": "fe18279b816154b94a9fa371697a9b07", "type": "electric_scooter", "is_disabled": 0, "lat": 38.902598, "rental_uris": {"ios": "https://dc.lft.to/lastmile_qr_scan", "android": "https://dc.lft.to/lastmile_qr_scan"}, "is_reserved": 0, "fusion_lon": 0.0, "fusion_lat": 0.0, "lon": -76.97547533333334, "name": "fe18279b816154b94a9fa371697a9b07"}, {"bike_id": "1db527876d21b901b6cfb2dbbae02712", "type": "electric_scooter", "is_disabled": 0, "lat": 38.915232333333336, "rental_uris": {"ios": "https://dc.lft.to/lastmile_qr_scan", "android": "https://dc.lft.to/lastmile_qr_scan"}, "is_reserved": 0, "fusion_lon": 0.0, "fusion_lat": 0.0, "lon": -77.01222283333334, "name": "1db527876d21b901b6cfb2dbbae02712"}, {"bike_id": "3d9907cb45f5156797166d1cf07a2574", "type": "electric_bike", "is_disabled": 0, "lat": 38.87915233333333, "rental_uris": {"ios": "https://dc.lft.to/lastmile_qr_scan", "android": "https://dc.lft.to/lastmile_qr_scan"}, "is_reserved": 0, "fusion_lon": 0.0, "fusion_lat": 0.0, "lon": -77.00709083333334, "name": "3d9907cb45f5156797166d1cf07a2574"}, {"bike_id": "253b516be6cd4d13fd4e285194e2e113", "type": "electric_scooter", "is_disabled": 0, "lat": 38.9161745, "rental_uris": {"ios": "https://dc.lft.to/lastmile_qr_scan", "android": "https://dc.lft.to/lastmile_qr_scan"}, "is_reserved": 0, "fusion_lon": 0.0, "fusion_lat": 0.0, "lon": -77.02387283333333, "name": "253b516be6cd4d13fd4e285194e2e113"}, {"bike_id": "ff53b9f613f97527598d03b69abc62e7", "type": "electric_scooter", "is_disabled": 0, "lat": 38.913137, "rental_uris": {"ios": "https://dc.lft.to/lastmile_qr_scan", "android": "https://dc.lft.to/lastmile_qr_scan"}, "is_reserved": 0, "fusion_lon": 0.0, "fusion_lat": 0.0, "lon": -77.04481083333333, "name": "ff53b9f613f97527598d03b69abc62e7"}, {"bike_id": "1ba844f85d0660b0fe4bc94452da8697", "type": "electric_scooter", "is_disabled": 0, "lat": 38.900637, "rental_uris": {"ios": "https://dc.lft.to/lastmile_qr_scan", "android": "https://dc.lft.to/lastmile_qr_scan"}, "is_reserved": 0, "fusion_lon": 0.0, "fusion_lat": 0.0, "lon": -77.0363885, "name": "1ba844f85d0660b0fe4bc94452da8697"}, {"bike_id": "a0dec2dbdfa8b52b83028b4f989078b6", "type": "electric_scooter", "is_disabled": 0, "lat": 38.905617166666666, "rental_uris": {"ios": "https://dc.lft.to/lastmile_qr_scan", "android": "https://dc.lft.to/lastmile_qr_scan"}, "is_reserved": 0, "fusion_lon": 0.0, "fusion_lat": 0.0, "lon": -77.065224, "name": "a0dec2dbdfa8b52b83028b4f989078b6"}, {"bike_id": "f9bca5a0138ee3ddd352c5c76a4d144f", "type": "electric_scooter", "is_disabled": 0, "lat": 38.9236475, "rental_uris": {"ios": "https://dc.lft.to/lastmile_qr_scan", "android": "https://dc.lft.to/lastmile_qr_scan"}, "is_reserved": 0, "fusion_lon": 0.0, "fusion_lat": 0.0, "lon": -77.051299, "name": "f9bca5a0138ee3ddd352c5c76a4d144f"}, {"bike_id": "1bc092bf5463b22de79db7d11cc6fd62", "type": "electric_scooter", "is_disabled": 0, "lat": 38.914072166666664, "rental_uris": {"ios": "https://dc.lft.to/lastmile_qr_scan", "android": "https://dc.lft.to/lastmile_qr_scan"}, "is_reserved": 0, "fusion_lon": 0.0, "fusion_lat": 0.0, "lon": -77.02110733333333, "name": "1bc092bf5463b22de79db7d11cc6fd62"}, {"bike_id": "a349399b68e193e333b967ac47705018", "type": "electric_scooter", "is_disabled": 0, "lat": 38.9128445, "rental_uris": {"ios": "https://dc.lft.to/lastmile_qr_scan", "android": "https://dc.lft.to/lastmile_qr_scan"}, "is_reserved": 0, "fusion_lon": 0.0, "fusion_lat": 0.0, "lon": -77.06119066666666, "name": "a349399b68e193e333b967ac47705018"}, {"bike_id": "4c8bb92863eba1995c7532f036404fee", "type": "electric_scooter", "is_disabled": 0, "lat": 38.90385466666667, "rental_uris": {"ios": "https://dc.lft.to/lastmile_qr_scan", "android": "https://dc.lft.to/lastmile_qr_scan"}, "is_reserved": 0, "fusion_lon": 0.0, "fusion_lat": 0.0, "lon": -77.038384, "name": "4c8bb92863eba1995c7532f036404fee"}, {"bike_id": "67edaaed1aff376881ebd735ca5fba3c", "type": "electric_bike", "is_disabled": 0, "lat": 38.84275016666667, "rental_uris": {"ios": "https://dc.lft.to/lastmile_qr_scan", "android": "https://dc.lft.to/lastmile_qr_scan"}, "is_reserved": 0, "fusion_lon": 0.0, "fusion_lat": 0.0, "lon": -76.98841333333333, "name": "67edaaed1aff376881ebd735ca5fba3c"}, {"bike_id": "b7c48a3cc93829075d93c8218903c32a", "type": "electric_scooter", "is_disabled": 0, "lat": 38.933559833333334, "rental_uris": {"ios": "https://dc.lft.to/lastmile_qr_scan", "android": "https://dc.lft.to/lastmile_qr_scan"}, "is_reserved": 0, "fusion_lon": 0.0, "fusion_lat": 0.0, "lon": -77.07312516666667, "name": "b7c48a3cc93829075d93c8218903c32a"}, {"bike_id": "c600c91421788cfee20d478c449d162e", "type": "electric_scooter", "is_disabled": 0, "lat": 38.914104, "rental_uris": {"ios": "https://dc.lft.to/lastmile_qr_scan", "android": "https://dc.lft.to/lastmile_qr_scan"}, "is_reserved": 0, "fusion_lon": 0.0, "fusion_lat": 0.0, "lon": -77.03593533333333, "name": "c600c91421788cfee20d478c449d162e"}, {"bike_id": "4a4d53e296145f2ebc199e8035d80391", "type": "electric_scooter", "is_disabled": 0, "lat": 38.908416833333334, "rental_uris": {"ios": "https://dc.lft.to/lastmile_qr_scan", "android": "https://dc.lft.to/lastmile_qr_scan"}, "is_reserved": 0, "fusion_lon": 0.0, "fusion_lat": 0.0, "lon": -77.026926, "name": "4a4d53e296145f2ebc199e8035d80391"}, {"bike_id": "d947da1f43133285dd7dad0ff33d59e1", "type": "electric_scooter", "is_disabled": 0, "lat": 38.935176166666665, "rental_uris": {"ios": "https://dc.lft.to/lastmile_qr_scan", "android": "https://dc.lft.to/lastmile_qr_scan"}, "is_reserved": 0, "fusion_lon": 0.0, "fusion_lat": 0.0, "lon": -77.034514, "name": "d947da1f43133285dd7dad0ff33d59e1"}, {"bike_id": "8376b6072613b440fb0c2685e0194c9f", "type": "electric_scooter", "is_disabled": 0, "lat": 38.843141, "rental_uris": {"ios": "https://dc.lft.to/lastmile_qr_scan", "android": "https://dc.lft.to/lastmile_qr_scan"}, "is_reserved": 0, "fusion_lon": 0.0, "fusion_lat": 0.0, "lon": -76.99914733333334, "name": "8376b6072613b440fb0c2685e0194c9f"}, {"bike_id": "d653f6f4e88da6b720715aa75e2de196", "type": "electric_scooter", "is_disabled": 0, "lat": 38.90805816666666, "rental_uris": {"ios": "https://dc.lft.to/lastmile_qr_scan", "android": "https://dc.lft.to/lastmile_qr_scan"}, "is_reserved": 0, "fusion_lon": 0.0, "fusion_lat": 0.0, "lon": -77.03060016666667, "name": "d653f6f4e88da6b720715aa75e2de196"}, {"bike_id": "d323f931a2a75484709682bef9f4d28d", "type": "electric_scooter", "is_disabled": 0, "lat": 38.912707166666664, "rental_uris": {"ios": "https://dc.lft.to/lastmile_qr_scan", "android": "https://dc.lft.to/lastmile_qr_scan"}, "is_reserved": 0, "fusion_lon": 0.0, "fusion_lat": 0.0, "lon": -77.01219566666667, "name": "d323f931a2a75484709682bef9f4d28d"}, {"bike_id": "2925be51bf4123b9ebe1807fb6028974", "type": "electric_scooter", "is_disabled": 0, "lat": 38.92825116666667, "rental_uris": {"ios": "https://dc.lft.to/lastmile_qr_scan", "android": "https://dc.lft.to/lastmile_qr_scan"}, "is_reserved": 0, "fusion_lon": 0.0, "fusion_lat": 0.0, "lon": -77.02252633333333, "name": "2925be51bf4123b9ebe1807fb6028974"}, {"bike_id": "3bee803b2557fee5d29cda1e47c3332c", "type": "electric_scooter", "is_disabled": 0, "lat": 38.91971566666667, "rental_uris": {"ios": "https://dc.lft.to/lastmile_qr_scan", "android": "https://dc.lft.to/lastmile_qr_scan"}, "is_reserved": 0, "fusion_lon": 0.0, "fusion_lat": 0.0, "lon": -77.03944566666667, "name": "3bee803b2557fee5d29cda1e47c3332c"}, {"bike_id": "82bf4a9d8fe2a3ff4b280914715f532b", "type": "electric_scooter", "is_disabled": 0, "lat": 38.915563666666664, "rental_uris": {"ios": "https://dc.lft.to/lastmile_qr_scan", "android": "https://dc.lft.to/lastmile_qr_scan"}, "is_reserved": 0, "fusion_lon": 0.0, "fusion_lat": 0.0, "lon": -77.02554083333334, "name": "82bf4a9d8fe2a3ff4b280914715f532b"}, {"bike_id": "1f83f4e890706aafd067ab6144dcf0cd", "type": "electric_scooter", "is_disabled": 0, "lat": 38.875758, "rental_uris": {"ios": "https://dc.lft.to/lastmile_qr_scan", "android": "https://dc.lft.to/lastmile_qr_scan"}, "is_reserved": 0, "fusion_lon": 0.0, "fusion_lat": 0.0, "lon": -77.012712, "name": "1f83f4e890706aafd067ab6144dcf0cd"}, {"bike_id": "25b3122a61a67681cab518743c306c58", "type": "electric_scooter", "is_disabled": 0, "lat": 38.930134333333335, "rental_uris": {"ios": "https://dc.lft.to/lastmile_qr_scan", "android": "https://dc.lft.to/lastmile_qr_scan"}, "is_reserved": 0, "fusion_lon": 0.0, "fusion_lat": 0.0, "lon": -77.0208865, "name": "25b3122a61a67681cab518743c306c58"}, {"bike_id": "7e354d4e490be01c92ab01a51dcb4596", "type": "electric_scooter", "is_disabled": 0, "lat": 38.881829833333335, "rental_uris": {"ios": "https://dc.lft.to/lastmile_qr_scan", "android": "https://dc.lft.to/lastmile_qr_scan"}, "is_reserved": 0, "fusion_lon": 0.0, "fusion_lat": 0.0, "lon": -77.0281155, "name": "7e354d4e490be01c92ab01a51dcb4596"}, {"bike_id": "c44e1c3690f243f08fd0dfeea8659198", "type": "electric_scooter", "is_disabled": 0, "lat": 38.92880483333333, "rental_uris": {"ios": "https://dc.lft.to/lastmile_qr_scan", "android": "https://dc.lft.to/lastmile_qr_scan"}, "is_reserved": 0, "fusion_lon": 0.0, "fusion_lat": 0.0, "lon": -77.032951, "name": "c44e1c3690f243f08fd0dfeea8659198"}, {"bike_id": "1e9a7e5674f8ee0202511893593f6de4", "type": "electric_bike", "is_disabled": 0, "lat": 38.88929366666667, "rental_uris": {"ios": "https://dc.lft.to/lastmile_qr_scan", "android": "https://dc.lft.to/lastmile_qr_scan"}, "is_reserved": 0, "fusion_lon": 0.0, "fusion_lat": 0.0, "lon": -76.99167183333333, "name": "1e9a7e5674f8ee0202511893593f6de4"}, {"bike_id": "f36a1b739ddd1cdf876af7728454513e", "type": "electric_scooter", "is_disabled": 0, "lat": 38.901970666666664, "rental_uris": {"ios": "https://dc.lft.to/lastmile_qr_scan", "android": "https://dc.lft.to/lastmile_qr_scan"}, "is_reserved": 0, "fusion_lon": 0.0, "fusion_lat": 0.0, "lon": -76.98838683333334, "name": "f36a1b739ddd1cdf876af7728454513e"}, {"bike_id": "a0dcf7ff0ca0c4a6d49f3a00a94b6270", "type": "electric_scooter", "is_disabled": 0, "lat": 38.905427, "rental_uris": {"ios": "https://dc.lft.to/lastmile_qr_scan", "android": "https://dc.lft.to/lastmile_qr_scan"}, "is_reserved": 0, "fusion_lon": 0.0, "fusion_lat": 0.0, "lon": -77.04998833333333, "name": "a0dcf7ff0ca0c4a6d49f3a00a94b6270"}, {"bike_id": "6d998d22556eac590ae46f2f77c2591a", "type": "electric_bike", "is_disabled": 0, "lat": 39.034014666666664, "rental_uris": {"ios": "https://dc.lft.to/lastmile_qr_scan", "android": "https://dc.lft.to/lastmile_qr_scan"}, "is_reserved": 0, "fusion_lon": 0.0, "fusion_lat": 0.0, "lon": -77.04142116666667, "name": "6d998d22556eac590ae46f2f77c2591a"}, {"bike_id": "29f0c747a3e04d6d2b6d7bc22bf90647", "type": "electric_scooter", "is_disabled": 0, "lat": 38.91826733333333, "rental_uris": {"ios": "https://dc.lft.to/lastmile_qr_scan", "android": "https://dc.lft.to/lastmile_qr_scan"}, "is_reserved": 0, "fusion_lon": 0.0, "fusion_lat": 0.0, "lon": -77.02266333333333, "name": "29f0c747a3e04d6d2b6d7bc22bf90647"}, {"bike_id": "dbcac5b244bfb4f2f0a688891ed21054", "type": "electric_scooter", "is_disabled": 0, "lat": 38.91929733333333, "rental_uris": {"ios": "https://dc.lft.to/lastmile_qr_scan", "android": "https://dc.lft.to/lastmile_qr_scan"}, "is_reserved": 0, "fusion_lon": 0.0, "fusion_lat": 0.0, "lon": -77.0318565, "name": "dbcac5b244bfb4f2f0a688891ed21054"}, {"bike_id": "9e4e769608b34afc6a7a9e14a595c3a2", "type": "electric_scooter", "is_disabled": 0, "lat": 38.903064, "rental_uris": {"ios": "https://dc.lft.to/lastmile_qr_scan", "android": "https://dc.lft.to/lastmile_qr_scan"}, "is_reserved": 0, "fusion_lon": 0.0, "fusion_lat": 0.0, "lon": -77.05053383333333, "name": "9e4e769608b34afc6a7a9e14a595c3a2"}, {"bike_id": "f81b79f1fc3b578c748f41cca8c3e544", "type": "electric_scooter", "is_disabled": 0, "lat": 38.89743566666667, "rental_uris": {"ios": "https://dc.lft.to/lastmile_qr_scan", "android": "https://dc.lft.to/lastmile_qr_scan"}, "is_reserved": 0, "fusion_lon": 0.0, "fusion_lat": 0.0, "lon": -76.94724116666667, "name": "f81b79f1fc3b578c748f41cca8c3e544"}, {"bike_id": "8620cd250b8ef0b224acc5857f58d825", "type": "electric_scooter", "is_disabled": 0, "lat": 38.92786066666667, "rental_uris": {"ios": "https://dc.lft.to/lastmile_qr_scan", "android": "https://dc.lft.to/lastmile_qr_scan"}, "is_reserved": 0, "fusion_lon": 0.0, "fusion_lat": 0.0, "lon": -77.0431915, "name": "8620cd250b8ef0b224acc5857f58d825"}, {"bike_id": "d6cda977a613d868dee57a5709650c4b", "type": "electric_scooter", "is_disabled": 0, "lat": 38.921932, "rental_uris": {"ios": "https://dc.lft.to/lastmile_qr_scan", "android": "https://dc.lft.to/lastmile_qr_scan"}, "is_reserved": 0, "fusion_lon": 0.0, "fusion_lat": 0.0, "lon": -77.019675, "name": "d6cda977a613d868dee57a5709650c4b"}, {"bike_id": "f7b7fe14aff8f7882cb0961a130717eb", "type": "electric_scooter", "is_disabled": 0, "lat": 38.964215333333335, "rental_uris": {"ios": "https://dc.lft.to/lastmile_qr_scan", "android": "https://dc.lft.to/lastmile_qr_scan"}, "is_reserved": 0, "fusion_lon": 0.0, "fusion_lat": 0.0, "lon": -77.02423316666666, "name": "f7b7fe14aff8f7882cb0961a130717eb"}, {"bike_id": "f6ff4782e85501ea039cf90aa65b07b0", "type": "electric_scooter", "is_disabled": 0, "lat": 38.9048835, "rental_uris": {"ios": "https://dc.lft.to/lastmile_qr_scan", "android": "https://dc.lft.to/lastmile_qr_scan"}, "is_reserved": 0, "fusion_lon": 0.0, "fusion_lat": 0.0, "lon": -77.02730466666667, "name": "f6ff4782e85501ea039cf90aa65b07b0"}, {"bike_id": "1d0f8f9a89b74465d27eb0f094ea91a4", "type": "electric_scooter", "is_disabled": 0, "lat": 38.898477666666665, "rental_uris": {"ios": "https://dc.lft.to/lastmile_qr_scan", "android": "https://dc.lft.to/lastmile_qr_scan"}, "is_reserved": 0, "fusion_lon": 0.0, "fusion_lat": 0.0, "lon": -77.04656766666666, "name": "1d0f8f9a89b74465d27eb0f094ea91a4"}, {"bike_id": "0e56c7219fc196eedfbf2b5b91c54179", "type": "electric_scooter", "is_disabled": 0, "lat": 38.8975265, "rental_uris": {"ios": "https://dc.lft.to/lastmile_qr_scan", "android": "https://dc.lft.to/lastmile_qr_scan"}, "is_reserved": 0, "fusion_lon": 0.0, "fusion_lat": 0.0, "lon": -77.02422116666666, "name": "0e56c7219fc196eedfbf2b5b91c54179"}, {"bike_id": "8e259e0bd1005c64d82648a4b92f1da0", "type": "electric_scooter", "is_disabled": 0, "lat": 38.918251, "rental_uris": {"ios": "https://dc.lft.to/lastmile_qr_scan", "android": "https://dc.lft.to/lastmile_qr_scan"}, "is_reserved": 0, "fusion_lon": 0.0, "fusion_lat": 0.0, "lon": -77.04942833333334, "name": "8e259e0bd1005c64d82648a4b92f1da0"}, {"bike_id": "29a37d90ff53690067e682225e5bad7b", "type": "electric_scooter", "is_disabled": 0, "lat": 38.924504666666664, "rental_uris": {"ios": "https://dc.lft.to/lastmile_qr_scan", "android": "https://dc.lft.to/lastmile_qr_scan"}, "is_reserved": 0, "fusion_lon": 0.0, "fusion_lat": 0.0, "lon": -77.04195683333333, "name": "29a37d90ff53690067e682225e5bad7b"}, {"bike_id": "6b862c8cb670fb0159c95eebc3ac8c7c", "type": "electric_scooter", "is_disabled": 0, "lat": 38.9221705, "rental_uris": {"ios": "https://dc.lft.to/lastmile_qr_scan", "android": "https://dc.lft.to/lastmile_qr_scan"}, "is_reserved": 0, "fusion_lon": 0.0, "fusion_lat": 0.0, "lon": -77.032919, "name": "6b862c8cb670fb0159c95eebc3ac8c7c"}, {"bike_id": "cfe4b12b1e0f3695501e01244e3c6d16", "type": "electric_scooter", "is_disabled": 0, "lat": 38.91556716666667, "rental_uris": {"ios": "https://dc.lft.to/lastmile_qr_scan", "android": "https://dc.lft.to/lastmile_qr_scan"}, "is_reserved": 0, "fusion_lon": 0.0, "fusion_lat": 0.0, "lon": -77.0447425, "name": "cfe4b12b1e0f3695501e01244e3c6d16"}, {"bike_id": "c568660e9585ebbbe58cdcdf20079095", "type": "electric_scooter", "is_disabled": 0, "lat": 38.9172705, "rental_uris": {"ios": "https://dc.lft.to/lastmile_qr_scan", "android": "https://dc.lft.to/lastmile_qr_scan"}, "is_reserved": 0, "fusion_lon": 0.0, "fusion_lat": 0.0, "lon": -77.03660983333333, "name": "c568660e9585ebbbe58cdcdf20079095"}, {"bike_id": "7711db5f6306539e31f23d499806b7ff", "type": "electric_bike", "is_disabled": 0, "lat": 38.89741433333333, "rental_uris": {"ios": "https://dc.lft.to/lastmile_qr_scan", "android": "https://dc.lft.to/lastmile_qr_scan"}, "is_reserved": 0, "fusion_lon": 0.0, "fusion_lat": 0.0, "lon": -76.920431, "name": "7711db5f6306539e31f23d499806b7ff"}, {"bike_id": "3a1e5d18ce9922dc90b7e5bd97de57c1", "type": "electric_scooter", "is_disabled": 0, "lat": 38.944168833333336, "rental_uris": {"ios": "https://dc.lft.to/lastmile_qr_scan", "android": "https://dc.lft.to/lastmile_qr_scan"}, "is_reserved": 0, "fusion_lon": 0.0, "fusion_lat": 0.0, "lon": -77.00735283333333, "name": "3a1e5d18ce9922dc90b7e5bd97de57c1"}, {"bike_id": "54759ca904675694f56924e004695cd2", "type": "electric_scooter", "is_disabled": 0, "lat": 38.92486616666667, "rental_uris": {"ios": "https://dc.lft.to/lastmile_qr_scan", "android": "https://dc.lft.to/lastmile_qr_scan"}, "is_reserved": 0, "fusion_lon": 0.0, "fusion_lat": 0.0, "lon": -77.05213216666667, "name": "54759ca904675694f56924e004695cd2"}, {"bike_id": "85c0a37bd730a636a8d6b99f88bd0dcf", "type": "electric_scooter", "is_disabled": 0, "lat": 38.90953533333333, "rental_uris": {"ios": "https://dc.lft.to/lastmile_qr_scan", "android": "https://dc.lft.to/lastmile_qr_scan"}, "is_reserved": 0, "fusion_lon": 0.0, "fusion_lat": 0.0, "lon": -77.05566933333333, "name": "85c0a37bd730a636a8d6b99f88bd0dcf"}, {"bike_id": "f3a3045299d74ee71f7688645934352f", "type": "electric_scooter", "is_disabled": 0, "lat": 38.91105266666667, "rental_uris": {"ios": "https://dc.lft.to/lastmile_qr_scan", "android": "https://dc.lft.to/lastmile_qr_scan"}, "is_reserved": 0, "fusion_lon": 0.0, "fusion_lat": 0.0, "lon": -77.011467, "name": "f3a3045299d74ee71f7688645934352f"}, {"bike_id": "f9ce79e55c78cf0b7985a26c9d09a6ba", "type": "electric_scooter", "is_disabled": 0, "lat": 38.84439583333333, "rental_uris": {"ios": "https://dc.lft.to/lastmile_qr_scan", "android": "https://dc.lft.to/lastmile_qr_scan"}, "is_reserved": 0, "fusion_lon": 0.0, "fusion_lat": 0.0, "lon": -76.998636, "name": "f9ce79e55c78cf0b7985a26c9d09a6ba"}, {"bike_id": "3ed2eabc8bb3a57faaa8df54291bd04b", "type": "electric_scooter", "is_disabled": 0, "lat": 38.934031, "rental_uris": {"ios": "https://dc.lft.to/lastmile_qr_scan", "android": "https://dc.lft.to/lastmile_qr_scan"}, "is_reserved": 0, "fusion_lon": 0.0, "fusion_lat": 0.0, "lon": -77.03522, "name": "3ed2eabc8bb3a57faaa8df54291bd04b"}, {"bike_id": "19bfc6976c10d7f9f45513119634fde0", "type": "electric_scooter", "is_disabled": 0, "lat": 38.90703583333333, "rental_uris": {"ios": "https://dc.lft.to/lastmile_qr_scan", "android": "https://dc.lft.to/lastmile_qr_scan"}, "is_reserved": 0, "fusion_lon": 0.0, "fusion_lat": 0.0, "lon": -77.04184433333333, "name": "19bfc6976c10d7f9f45513119634fde0"}, {"bike_id": "66d5be2fb7bfccff2c6e9c7f7354918f", "type": "electric_scooter", "is_disabled": 0, "lat": 38.9172685, "rental_uris": {"ios": "https://dc.lft.to/lastmile_qr_scan", "android": "https://dc.lft.to/lastmile_qr_scan"}, "is_reserved": 0, "fusion_lon": 0.0, "fusion_lat": 0.0, "lon": -77.03662466666667, "name": "66d5be2fb7bfccff2c6e9c7f7354918f"}, {"bike_id": "5a05684443fb0253ba932a3e3a591473", "type": "electric_scooter", "is_disabled": 0, "lat": 38.908356, "rental_uris": {"ios": "https://dc.lft.to/lastmile_qr_scan", "android": "https://dc.lft.to/lastmile_qr_scan"}, "is_reserved": 0, "fusion_lon": 0.0, "fusion_lat": 0.0, "lon": -77.01976133333334, "name": "5a05684443fb0253ba932a3e3a591473"}, {"bike_id": "3f717aee1420074cf1d83536699d5b47", "type": "electric_scooter", "is_disabled": 0, "lat": 38.93848533333333, "rental_uris": {"ios": "https://dc.lft.to/lastmile_qr_scan", "android": "https://dc.lft.to/lastmile_qr_scan"}, "is_reserved": 0, "fusion_lon": 0.0, "fusion_lat": 0.0, "lon": -77.07230483333333, "name": "3f717aee1420074cf1d83536699d5b47"}, {"bike_id": "6b224c292e86175bc715f6c2ebd91388", "type": "electric_scooter", "is_disabled": 0, "lat": 38.90978716666667, "rental_uris": {"ios": "https://dc.lft.to/lastmile_qr_scan", "android": "https://dc.lft.to/lastmile_qr_scan"}, "is_reserved": 0, "fusion_lon": 0.0, "fusion_lat": 0.0, "lon": -77.01511216666667, "name": "6b224c292e86175bc715f6c2ebd91388"}, {"bike_id": "9ebeaca128dd2a7ab0e516376b964733", "type": "electric_scooter", "is_disabled": 0, "lat": 38.919285, "rental_uris": {"ios": "https://dc.lft.to/lastmile_qr_scan", "android": "https://dc.lft.to/lastmile_qr_scan"}, "is_reserved": 0, "fusion_lon": 0.0, "fusion_lat": 0.0, "lon": -77.02578666666666, "name": "9ebeaca128dd2a7ab0e516376b964733"}, {"bike_id": "db8b5fa9e99a0cbb4c509e8c14690be8", "type": "electric_scooter", "is_disabled": 0, "lat": 38.907217833333334, "rental_uris": {"ios": "https://dc.lft.to/lastmile_qr_scan", "android": "https://dc.lft.to/lastmile_qr_scan"}, "is_reserved": 0, "fusion_lon": 0.0, "fusion_lat": 0.0, "lon": -77.05014933333334, "name": "db8b5fa9e99a0cbb4c509e8c14690be8"}, {"bike_id": "1c404beb629c1d8dde55d95bf5ef8c4f", "type": "electric_scooter", "is_disabled": 0, "lat": 38.95692283333333, "rental_uris": {"ios": "https://dc.lft.to/lastmile_qr_scan", "android": "https://dc.lft.to/lastmile_qr_scan"}, "is_reserved": 0, "fusion_lon": 0.0, "fusion_lat": 0.0, "lon": -77.02394466666667, "name": "1c404beb629c1d8dde55d95bf5ef8c4f"}, {"bike_id": "814d47dbfc9a6fe781dee0c32ca89fab", "type": "electric_scooter", "is_disabled": 0, "lat": 38.920679666666665, "rental_uris": {"ios": "https://dc.lft.to/lastmile_qr_scan", "android": "https://dc.lft.to/lastmile_qr_scan"}, "is_reserved": 0, "fusion_lon": 0.0, "fusion_lat": 0.0, "lon": -77.0346065, "name": "814d47dbfc9a6fe781dee0c32ca89fab"}, {"bike_id": "6871bf02e795460c10d7c6693ab7c1c0", "type": "electric_scooter", "is_disabled": 0, "lat": 38.910962833333336, "rental_uris": {"ios": "https://dc.lft.to/lastmile_qr_scan", "android": "https://dc.lft.to/lastmile_qr_scan"}, "is_reserved": 0, "fusion_lon": 0.0, "fusion_lat": 0.0, "lon": -77.02975633333334, "name": "6871bf02e795460c10d7c6693ab7c1c0"}, {"bike_id": "80ce3b4f90d178c04e1aba86c5082abf", "type": "electric_scooter", "is_disabled": 0, "lat": 38.93240683333333, "rental_uris": {"ios": "https://dc.lft.to/lastmile_qr_scan", "android": "https://dc.lft.to/lastmile_qr_scan"}, "is_reserved": 0, "fusion_lon": 0.0, "fusion_lat": 0.0, "lon": -77.03586483333333, "name": "80ce3b4f90d178c04e1aba86c5082abf"}, {"bike_id": "cba4ff4d7207d7b45abb66253d085c29", "type": "electric_scooter", "is_disabled": 0, "lat": 38.901300166666665, "rental_uris": {"ios": "https://dc.lft.to/lastmile_qr_scan", "android": "https://dc.lft.to/lastmile_qr_scan"}, "is_reserved": 0, "fusion_lon": 0.0, "fusion_lat": 0.0, "lon": -77.03641416666666, "name": "cba4ff4d7207d7b45abb66253d085c29"}, {"bike_id": "519ac6ea24ffb981169728268315ccb4", "type": "electric_scooter", "is_disabled": 0, "lat": 38.909752833333336, "rental_uris": {"ios": "https://dc.lft.to/lastmile_qr_scan", "android": "https://dc.lft.to/lastmile_qr_scan"}, "is_reserved": 0, "fusion_lon": 0.0, "fusion_lat": 0.0, "lon": -77.0333835, "name": "519ac6ea24ffb981169728268315ccb4"}, {"bike_id": "dec8e8383f1f881717e496922071fe78", "type": "electric_scooter", "is_disabled": 0, "lat": 38.921510166666664, "rental_uris": {"ios": "https://dc.lft.to/lastmile_qr_scan", "android": "https://dc.lft.to/lastmile_qr_scan"}, "is_reserved": 0, "fusion_lon": 0.0, "fusion_lat": 0.0, "lon": -77.03875233333333, "name": "dec8e8383f1f881717e496922071fe78"}, {"bike_id": "cd44c1464d62aafef78dbce23d5551a2", "type": "electric_scooter", "is_disabled": 0, "lat": 38.926846, "rental_uris": {"ios": "https://dc.lft.to/lastmile_qr_scan", "android": "https://dc.lft.to/lastmile_qr_scan"}, "is_reserved": 0, "fusion_lon": 0.0, "fusion_lat": 0.0, "lon": -77.02159316666666, "name": "cd44c1464d62aafef78dbce23d5551a2"}, {"bike_id": "3b2c45d128982890099068f36a5378e8", "type": "electric_scooter", "is_disabled": 0, "lat": 38.872855333333334, "rental_uris": {"ios": "https://dc.lft.to/lastmile_qr_scan", "android": "https://dc.lft.to/lastmile_qr_scan"}, "is_reserved": 0, "fusion_lon": 0.0, "fusion_lat": 0.0, "lon": -77.009869, "name": "3b2c45d128982890099068f36a5378e8"}, {"bike_id": "ac8a18164d684291f97902de38050c57", "type": "electric_scooter", "is_disabled": 0, "lat": 38.907338333333335, "rental_uris": {"ios": "https://dc.lft.to/lastmile_qr_scan", "android": "https://dc.lft.to/lastmile_qr_scan"}, "is_reserved": 0, "fusion_lon": 0.0, "fusion_lat": 0.0, "lon": -77.05325816666667, "name": "ac8a18164d684291f97902de38050c57"}, {"bike_id": "1fb4bb2b2798985e1c212b9ba7a088d6", "type": "electric_scooter", "is_disabled": 0, "lat": 38.90718016666667, "rental_uris": {"ios": "https://dc.lft.to/lastmile_qr_scan", "android": "https://dc.lft.to/lastmile_qr_scan"}, "is_reserved": 0, "fusion_lon": 0.0, "fusion_lat": 0.0, "lon": -77.04647366666667, "name": "1fb4bb2b2798985e1c212b9ba7a088d6"}, {"bike_id": "648d1b8de8b8047d5cd566320c119ae2", "type": "electric_scooter", "is_disabled": 0, "lat": 38.90555766666667, "rental_uris": {"ios": "https://dc.lft.to/lastmile_qr_scan", "android": "https://dc.lft.to/lastmile_qr_scan"}, "is_reserved": 0, "fusion_lon": 0.0, "fusion_lat": 0.0, "lon": -77.04421766666667, "name": "648d1b8de8b8047d5cd566320c119ae2"}, {"bike_id": "55f71891c45b29db3f1fc0e494662015", "type": "electric_scooter", "is_disabled": 0, "lat": 38.909137666666666, "rental_uris": {"ios": "https://dc.lft.to/lastmile_qr_scan", "android": "https://dc.lft.to/lastmile_qr_scan"}, "is_reserved": 0, "fusion_lon": 0.0, "fusion_lat": 0.0, "lon": -77.01893833333334, "name": "55f71891c45b29db3f1fc0e494662015"}, {"bike_id": "84b399607d9a3c2a33ef213c13612c33", "type": "electric_scooter", "is_disabled": 0, "lat": 38.90002483333333, "rental_uris": {"ios": "https://dc.lft.to/lastmile_qr_scan", "android": "https://dc.lft.to/lastmile_qr_scan"}, "is_reserved": 0, "fusion_lon": 0.0, "fusion_lat": 0.0, "lon": -77.00664783333333, "name": "84b399607d9a3c2a33ef213c13612c33"}, {"bike_id": "45e9885a3fb5eb7c0d3529b6e88de357", "type": "electric_scooter", "is_disabled": 0, "lat": 38.9719875, "rental_uris": {"ios": "https://dc.lft.to/lastmile_qr_scan", "android": "https://dc.lft.to/lastmile_qr_scan"}, "is_reserved": 0, "fusion_lon": 0.0, "fusion_lat": 0.0, "lon": -77.02650866666667, "name": "45e9885a3fb5eb7c0d3529b6e88de357"}, {"bike_id": "c4e411e80ae74f7b3372451dd1967811", "type": "electric_scooter", "is_disabled": 0, "lat": 38.9175585, "rental_uris": {"ios": "https://dc.lft.to/lastmile_qr_scan", "android": "https://dc.lft.to/lastmile_qr_scan"}, "is_reserved": 0, "fusion_lon": 0.0, "fusion_lat": 0.0, "lon": -77.0281115, "name": "c4e411e80ae74f7b3372451dd1967811"}, {"bike_id": "d526f918f6a397db75237c708681451e", "type": "electric_scooter", "is_disabled": 0, "lat": 38.866286, "rental_uris": {"ios": "https://dc.lft.to/lastmile_qr_scan", "android": "https://dc.lft.to/lastmile_qr_scan"}, "is_reserved": 0, "fusion_lon": 0.0, "fusion_lat": 0.0, "lon": -76.9871515, "name": "d526f918f6a397db75237c708681451e"}, {"bike_id": "5554e148f675ef300695fceeb3c49564", "type": "electric_scooter", "is_disabled": 0, "lat": 38.897591, "rental_uris": {"ios": "https://dc.lft.to/lastmile_qr_scan", "android": "https://dc.lft.to/lastmile_qr_scan"}, "is_reserved": 0, "fusion_lon": 0.0, "fusion_lat": 0.0, "lon": -77.02686066666666, "name": "5554e148f675ef300695fceeb3c49564"}, {"bike_id": "b2cf70e0194d429658462c756dd38f0c", "type": "electric_scooter", "is_disabled": 0, "lat": 38.886428333333335, "rental_uris": {"ios": "https://dc.lft.to/lastmile_qr_scan", "android": "https://dc.lft.to/lastmile_qr_scan"}, "is_reserved": 0, "fusion_lon": 0.0, "fusion_lat": 0.0, "lon": -77.021373, "name": "b2cf70e0194d429658462c756dd38f0c"}, {"bike_id": "3e7d5fdc8bd1d335aa9aef519dada1f1", "type": "electric_scooter", "is_disabled": 0, "lat": 38.90560466666667, "rental_uris": {"ios": "https://dc.lft.to/lastmile_qr_scan", "android": "https://dc.lft.to/lastmile_qr_scan"}, "is_reserved": 0, "fusion_lon": 0.0, "fusion_lat": 0.0, "lon": -77.01634833333334, "name": "3e7d5fdc8bd1d335aa9aef519dada1f1"}, {"bike_id": "d60c88dc14a68cfbf730878994789b1a", "type": "electric_scooter", "is_disabled": 0, "lat": 38.933604833333334, "rental_uris": {"ios": "https://dc.lft.to/lastmile_qr_scan", "android": "https://dc.lft.to/lastmile_qr_scan"}, "is_reserved": 0, "fusion_lon": 0.0, "fusion_lat": 0.0, "lon": -77.08856183333333, "name": "d60c88dc14a68cfbf730878994789b1a"}, {"bike_id": "0ef89d0e2099a56ab1d0f6a294ec272f", "type": "electric_scooter", "is_disabled": 0, "lat": 38.93740833333333, "rental_uris": {"ios": "https://dc.lft.to/lastmile_qr_scan", "android": "https://dc.lft.to/lastmile_qr_scan"}, "is_reserved": 0, "fusion_lon": 0.0, "fusion_lat": 0.0, "lon": -77.02424683333334, "name": "0ef89d0e2099a56ab1d0f6a294ec272f"}, {"bike_id": "9edea2cb04cfe168549307410dd93493", "type": "electric_scooter", "is_disabled": 0, "lat": 38.91402316666667, "rental_uris": {"ios": "https://dc.lft.to/lastmile_qr_scan", "android": "https://dc.lft.to/lastmile_qr_scan"}, "is_reserved": 0, "fusion_lon": 0.0, "fusion_lat": 0.0, "lon": -77.01794216666667, "name": "9edea2cb04cfe168549307410dd93493"}, {"bike_id": "a8f0b3eed4d9f180f73067f35a41f918", "type": "electric_scooter", "is_disabled": 0, "lat": 38.92863, "rental_uris": {"ios": "https://dc.lft.to/lastmile_qr_scan", "android": "https://dc.lft.to/lastmile_qr_scan"}, "is_reserved": 0, "fusion_lon": 0.0, "fusion_lat": 0.0, "lon": -77.03705183333334, "name": "a8f0b3eed4d9f180f73067f35a41f918"}, {"bike_id": "6167dccb357b515aa3bc389873b4a3e8", "type": "electric_scooter", "is_disabled": 0, "lat": 38.92194416666667, "rental_uris": {"ios": "https://dc.lft.to/lastmile_qr_scan", "android": "https://dc.lft.to/lastmile_qr_scan"}, "is_reserved": 0, "fusion_lon": 0.0, "fusion_lat": 0.0, "lon": -77.03805866666667, "name": "6167dccb357b515aa3bc389873b4a3e8"}, {"bike_id": "d10546ee3e8d7851ab4a21ed8e337135", "type": "electric_bike", "is_disabled": 0, "lat": 38.862658833333334, "rental_uris": {"ios": "https://dc.lft.to/lastmile_qr_scan", "android": "https://dc.lft.to/lastmile_qr_scan"}, "is_reserved": 0, "fusion_lon": 0.0, "fusion_lat": 0.0, "lon": -76.98350266666667, "name": "d10546ee3e8d7851ab4a21ed8e337135"}, {"bike_id": "5fe9ccb417e79593fda041d4ce025639", "type": "electric_scooter", "is_disabled": 0, "lat": 38.919973166666665, "rental_uris": {"ios": "https://dc.lft.to/lastmile_qr_scan", "android": "https://dc.lft.to/lastmile_qr_scan"}, "is_reserved": 0, "fusion_lon": 0.0, "fusion_lat": 0.0, "lon": -77.03964583333334, "name": "5fe9ccb417e79593fda041d4ce025639"}, {"bike_id": "9540017715494c719f1c6ef2d5c69234", "type": "electric_scooter", "is_disabled": 0, "lat": 38.908942, "rental_uris": {"ios": "https://dc.lft.to/lastmile_qr_scan", "android": "https://dc.lft.to/lastmile_qr_scan"}, "is_reserved": 0, "fusion_lon": 0.0, "fusion_lat": 0.0, "lon": -77.00302533333333, "name": "9540017715494c719f1c6ef2d5c69234"}, {"bike_id": "fa306fd22993b658a8d4438eb66e8c0d", "type": "electric_scooter", "is_disabled": 0, "lat": 38.914236333333335, "rental_uris": {"ios": "https://dc.lft.to/lastmile_qr_scan", "android": "https://dc.lft.to/lastmile_qr_scan"}, "is_reserved": 0, "fusion_lon": 0.0, "fusion_lat": 0.0, "lon": -77.02302083333333, "name": "fa306fd22993b658a8d4438eb66e8c0d"}, {"bike_id": "b3583f263f9e16ade724818ae8dfe113", "type": "electric_scooter", "is_disabled": 0, "lat": 38.9177025, "rental_uris": {"ios": "https://dc.lft.to/lastmile_qr_scan", "android": "https://dc.lft.to/lastmile_qr_scan"}, "is_reserved": 0, "fusion_lon": 0.0, "fusion_lat": 0.0, "lon": -77.0476855, "name": "b3583f263f9e16ade724818ae8dfe113"}, {"bike_id": "e4d5e35cb397bbe9e8d37366dcccb47e", "type": "electric_scooter", "is_disabled": 0, "lat": 38.91355733333333, "rental_uris": {"ios": "https://dc.lft.to/lastmile_qr_scan", "android": "https://dc.lft.to/lastmile_qr_scan"}, "is_reserved": 0, "fusion_lon": 0.0, "fusion_lat": 0.0, "lon": -77.02559466666666, "name": "e4d5e35cb397bbe9e8d37366dcccb47e"}, {"bike_id": "e9d468531649ac51c75e7507de84f28a", "type": "electric_scooter", "is_disabled": 0, "lat": 38.92475566666667, "rental_uris": {"ios": "https://dc.lft.to/lastmile_qr_scan", "android": "https://dc.lft.to/lastmile_qr_scan"}, "is_reserved": 0, "fusion_lon": 0.0, "fusion_lat": 0.0, "lon": -77.026288, "name": "e9d468531649ac51c75e7507de84f28a"}, {"bike_id": "e4a19b2f003d1270a59a2fef69304c75", "type": "electric_scooter", "is_disabled": 0, "lat": 38.914748, "rental_uris": {"ios": "https://dc.lft.to/lastmile_qr_scan", "android": "https://dc.lft.to/lastmile_qr_scan"}, "is_reserved": 0, "fusion_lon": 0.0, "fusion_lat": 0.0, "lon": -77.04536983333334, "name": "e4a19b2f003d1270a59a2fef69304c75"}, {"bike_id": "c0544476884ef046ccbbc151cb2981b0", "type": "electric_scooter", "is_disabled": 0, "lat": 38.92700416666667, "rental_uris": {"ios": "https://dc.lft.to/lastmile_qr_scan", "android": "https://dc.lft.to/lastmile_qr_scan"}, "is_reserved": 0, "fusion_lon": 0.0, "fusion_lat": 0.0, "lon": -77.02073833333333, "name": "c0544476884ef046ccbbc151cb2981b0"}, {"bike_id": "7b3f31cb6af4566e8c7338cc6132f1c7", "type": "electric_scooter", "is_disabled": 0, "lat": 38.91334883333333, "rental_uris": {"ios": "https://dc.lft.to/lastmile_qr_scan", "android": "https://dc.lft.to/lastmile_qr_scan"}, "is_reserved": 0, "fusion_lon": 0.0, "fusion_lat": 0.0, "lon": -77.03986066666667, "name": "7b3f31cb6af4566e8c7338cc6132f1c7"}, {"bike_id": "989a0206ba68a61b2709197ad25efd81", "type": "electric_scooter", "is_disabled": 0, "lat": 38.916028, "rental_uris": {"ios": "https://dc.lft.to/lastmile_qr_scan", "android": "https://dc.lft.to/lastmile_qr_scan"}, "is_reserved": 0, "fusion_lon": 0.0, "fusion_lat": 0.0, "lon": -77.032147, "name": "989a0206ba68a61b2709197ad25efd81"}, {"bike_id": "260424302b07eeb8f210efffe800edc1", "type": "electric_scooter", "is_disabled": 0, "lat": 38.922144333333335, "rental_uris": {"ios": "https://dc.lft.to/lastmile_qr_scan", "android": "https://dc.lft.to/lastmile_qr_scan"}, "is_reserved": 0, "fusion_lon": 0.0, "fusion_lat": 0.0, "lon": -77.03658433333334, "name": "260424302b07eeb8f210efffe800edc1"}, {"bike_id": "723127494f03713e75c7c660f01348f9", "type": "electric_scooter", "is_disabled": 0, "lat": 38.914010166666664, "rental_uris": {"ios": "https://dc.lft.to/lastmile_qr_scan", "android": "https://dc.lft.to/lastmile_qr_scan"}, "is_reserved": 0, "fusion_lon": 0.0, "fusion_lat": 0.0, "lon": -76.98187483333334, "name": "723127494f03713e75c7c660f01348f9"}, {"bike_id": "4c2b068f40c676550f6d60abc50bfa95", "type": "electric_scooter", "is_disabled": 0, "lat": 38.91929866666667, "rental_uris": {"ios": "https://dc.lft.to/lastmile_qr_scan", "android": "https://dc.lft.to/lastmile_qr_scan"}, "is_reserved": 0, "fusion_lon": 0.0, "fusion_lat": 0.0, "lon": -77.03181883333333, "name": "4c2b068f40c676550f6d60abc50bfa95"}, {"bike_id": "44000a76c0311898eced3e7952c03a7e", "type": "electric_bike", "is_disabled": 0, "lat": 38.99328883333333, "rental_uris": {"ios": "https://dc.lft.to/lastmile_qr_scan", "android": "https://dc.lft.to/lastmile_qr_scan"}, "is_reserved": 0, "fusion_lon": 0.0, "fusion_lat": 0.0, "lon": -76.94612666666667, "name": "44000a76c0311898eced3e7952c03a7e"}, {"bike_id": "00c688e2e63033a4fd32665e47f52ea5", "type": "electric_scooter", "is_disabled": 0, "lat": 38.9335655, "rental_uris": {"ios": "https://dc.lft.to/lastmile_qr_scan", "android": "https://dc.lft.to/lastmile_qr_scan"}, "is_reserved": 0, "fusion_lon": 0.0, "fusion_lat": 0.0, "lon": -77.07357116666667, "name": "00c688e2e63033a4fd32665e47f52ea5"}, {"bike_id": "8def083e8490c59d9c06913ab37832db", "type": "electric_bike", "is_disabled": 0, "lat": 38.85538433333333, "rental_uris": {"ios": "https://dc.lft.to/lastmile_qr_scan", "android": "https://dc.lft.to/lastmile_qr_scan"}, "is_reserved": 0, "fusion_lon": 0.0, "fusion_lat": 0.0, "lon": -77.1202865, "name": "8def083e8490c59d9c06913ab37832db"}, {"bike_id": "9e14db2463c3df276b4663eeef968a55", "type": "electric_scooter", "is_disabled": 0, "lat": 38.90789483333333, "rental_uris": {"ios": "https://dc.lft.to/lastmile_qr_scan", "android": "https://dc.lft.to/lastmile_qr_scan"}, "is_reserved": 0, "fusion_lon": 0.0, "fusion_lat": 0.0, "lon": -77.00196116666666, "name": "9e14db2463c3df276b4663eeef968a55"}, {"bike_id": "761049789d93953aa5b18f81075fe3d7", "type": "electric_scooter", "is_disabled": 0, "lat": 38.90305683333333, "rental_uris": {"ios": "https://dc.lft.to/lastmile_qr_scan", "android": "https://dc.lft.to/lastmile_qr_scan"}, "is_reserved": 0, "fusion_lon": 0.0, "fusion_lat": 0.0, "lon": -77.04951533333333, "name": "761049789d93953aa5b18f81075fe3d7"}, {"bike_id": "a691b5d55d81c550bf5b60fc65f8800c", "type": "electric_scooter", "is_disabled": 0, "lat": 38.9360115, "rental_uris": {"ios": "https://dc.lft.to/lastmile_qr_scan", "android": "https://dc.lft.to/lastmile_qr_scan"}, "is_reserved": 0, "fusion_lon": 0.0, "fusion_lat": 0.0, "lon": -77.0365705, "name": "a691b5d55d81c550bf5b60fc65f8800c"}, {"bike_id": "ca5b56d4d803fdede2543dc0ce332d2e", "type": "electric_scooter", "is_disabled": 0, "lat": 38.9023605, "rental_uris": {"ios": "https://dc.lft.to/lastmile_qr_scan", "android": "https://dc.lft.to/lastmile_qr_scan"}, "is_reserved": 0, "fusion_lon": 0.0, "fusion_lat": 0.0, "lon": -77.04035783333333, "name": "ca5b56d4d803fdede2543dc0ce332d2e"}, {"bike_id": "21ea6590421c7d88c4bc50924dc834a1", "type": "electric_scooter", "is_disabled": 0, "lat": 38.935387166666665, "rental_uris": {"ios": "https://dc.lft.to/lastmile_qr_scan", "android": "https://dc.lft.to/lastmile_qr_scan"}, "is_reserved": 0, "fusion_lon": 0.0, "fusion_lat": 0.0, "lon": -77.05818566666666, "name": "21ea6590421c7d88c4bc50924dc834a1"}, {"bike_id": "c37cb5b9e6c036275b513fce26e874b5", "type": "electric_scooter", "is_disabled": 0, "lat": 38.83829516666667, "rental_uris": {"ios": "https://dc.lft.to/lastmile_qr_scan", "android": "https://dc.lft.to/lastmile_qr_scan"}, "is_reserved": 0, "fusion_lon": 0.0, "fusion_lat": 0.0, "lon": -77.002711, "name": "c37cb5b9e6c036275b513fce26e874b5"}, {"bike_id": "5e1172f5ec00e579a5c83e04148e7ce0", "type": "electric_scooter", "is_disabled": 0, "lat": 38.914974, "rental_uris": {"ios": "https://dc.lft.to/lastmile_qr_scan", "android": "https://dc.lft.to/lastmile_qr_scan"}, "is_reserved": 0, "fusion_lon": 0.0, "fusion_lat": 0.0, "lon": -76.98573733333333, "name": "5e1172f5ec00e579a5c83e04148e7ce0"}, {"bike_id": "a9abe186f9cc3cd05a29dd3c1ca1a446", "type": "electric_scooter", "is_disabled": 0, "lat": 38.904713, "rental_uris": {"ios": "https://dc.lft.to/lastmile_qr_scan", "android": "https://dc.lft.to/lastmile_qr_scan"}, "is_reserved": 0, "fusion_lon": 0.0, "fusion_lat": 0.0, "lon": -77.00724266666667, "name": "a9abe186f9cc3cd05a29dd3c1ca1a446"}, {"bike_id": "a7229098f97a8bba8928a5ebdf29e436", "type": "electric_scooter", "is_disabled": 0, "lat": 38.907239, "rental_uris": {"ios": "https://dc.lft.to/lastmile_qr_scan", "android": "https://dc.lft.to/lastmile_qr_scan"}, "is_reserved": 0, "fusion_lon": 0.0, "fusion_lat": 0.0, "lon": -77.03436683333334, "name": "a7229098f97a8bba8928a5ebdf29e436"}, {"bike_id": "ed61efbc7d20903ced6b1ae01eaf1f88", "type": "electric_scooter", "is_disabled": 0, "lat": 38.92155016666667, "rental_uris": {"ios": "https://dc.lft.to/lastmile_qr_scan", "android": "https://dc.lft.to/lastmile_qr_scan"}, "is_reserved": 0, "fusion_lon": 0.0, "fusion_lat": 0.0, "lon": -77.03316966666667, "name": "ed61efbc7d20903ced6b1ae01eaf1f88"}, {"bike_id": "c725289b0784e3ca5700aae4a0e53183", "type": "electric_scooter", "is_disabled": 0, "lat": 38.92252166666667, "rental_uris": {"ios": "https://dc.lft.to/lastmile_qr_scan", "android": "https://dc.lft.to/lastmile_qr_scan"}, "is_reserved": 0, "fusion_lon": 0.0, "fusion_lat": 0.0, "lon": -77.02838633333333, "name": "c725289b0784e3ca5700aae4a0e53183"}, {"bike_id": "fe1c84f1d445ff9e2cdadcede132fd0d", "type": "electric_scooter", "is_disabled": 0, "lat": 38.9000715, "rental_uris": {"ios": "https://dc.lft.to/lastmile_qr_scan", "android": "https://dc.lft.to/lastmile_qr_scan"}, "is_reserved": 0, "fusion_lon": 0.0, "fusion_lat": 0.0, "lon": -77.010345, "name": "fe1c84f1d445ff9e2cdadcede132fd0d"}, {"bike_id": "9222bf907c62f1edb721f18aa14b39ef", "type": "electric_scooter", "is_disabled": 0, "lat": 38.902549666666665, "rental_uris": {"ios": "https://dc.lft.to/lastmile_qr_scan", "android": "https://dc.lft.to/lastmile_qr_scan"}, "is_reserved": 0, "fusion_lon": 0.0, "fusion_lat": 0.0, "lon": -76.98667266666666, "name": "9222bf907c62f1edb721f18aa14b39ef"}, {"bike_id": "b3e33133035d110bd50db642e2de0fa5", "type": "electric_scooter", "is_disabled": 0, "lat": 38.8968485, "rental_uris": {"ios": "https://dc.lft.to/lastmile_qr_scan", "android": "https://dc.lft.to/lastmile_qr_scan"}, "is_reserved": 0, "fusion_lon": 0.0, "fusion_lat": 0.0, "lon": -77.02375383333333, "name": "b3e33133035d110bd50db642e2de0fa5"}, {"bike_id": "5a1631e12a4492785716feb0522367a1", "type": "electric_scooter", "is_disabled": 0, "lat": 38.885839833333335, "rental_uris": {"ios": "https://dc.lft.to/lastmile_qr_scan", "android": "https://dc.lft.to/lastmile_qr_scan"}, "is_reserved": 0, "fusion_lon": 0.0, "fusion_lat": 0.0, "lon": -77.02840283333333, "name": "5a1631e12a4492785716feb0522367a1"}, {"bike_id": "d824e5d0e38b7e289baf8042c8de7d1e", "type": "electric_bike", "is_disabled": 0, "lat": 38.908212166666665, "rental_uris": {"ios": "https://dc.lft.to/lastmile_qr_scan", "android": "https://dc.lft.to/lastmile_qr_scan"}, "is_reserved": 0, "fusion_lon": 0.0, "fusion_lat": 0.0, "lon": -76.940363, "name": "d824e5d0e38b7e289baf8042c8de7d1e"}, {"bike_id": "8732a1c4279c8b33b6583ba32a66cc8b", "type": "electric_scooter", "is_disabled": 0, "lat": 38.91072483333333, "rental_uris": {"ios": "https://dc.lft.to/lastmile_qr_scan", "android": "https://dc.lft.to/lastmile_qr_scan"}, "is_reserved": 0, "fusion_lon": 0.0, "fusion_lat": 0.0, "lon": -77.03718766666667, "name": "8732a1c4279c8b33b6583ba32a66cc8b"}, {"bike_id": "e129784baf1175ca425d8944a87ea70a", "type": "electric_scooter", "is_disabled": 0, "lat": 38.90574483333333, "rental_uris": {"ios": "https://dc.lft.to/lastmile_qr_scan", "android": "https://dc.lft.to/lastmile_qr_scan"}, "is_reserved": 0, "fusion_lon": 0.0, "fusion_lat": 0.0, "lon": -76.9762765, "name": "e129784baf1175ca425d8944a87ea70a"}, {"bike_id": "6538342efa40de0b18baacfe43d7b51e", "type": "electric_scooter", "is_disabled": 0, "lat": 38.87097683333333, "rental_uris": {"ios": "https://dc.lft.to/lastmile_qr_scan", "android": "https://dc.lft.to/lastmile_qr_scan"}, "is_reserved": 0, "fusion_lon": 0.0, "fusion_lat": 0.0, "lon": -77.012018, "name": "6538342efa40de0b18baacfe43d7b51e"}, {"bike_id": "b88eae1173e54b3ef0161f3a69a1239b", "type": "electric_scooter", "is_disabled": 0, "lat": 38.90086, "rental_uris": {"ios": "https://dc.lft.to/lastmile_qr_scan", "android": "https://dc.lft.to/lastmile_qr_scan"}, "is_reserved": 0, "fusion_lon": 0.0, "fusion_lat": 0.0, "lon": -77.01848716666667, "name": "b88eae1173e54b3ef0161f3a69a1239b"}, {"bike_id": "068db8799ecf084b3704327b5e2709d1", "type": "electric_scooter", "is_disabled": 0, "lat": 38.92569, "rental_uris": {"ios": "https://dc.lft.to/lastmile_qr_scan", "android": "https://dc.lft.to/lastmile_qr_scan"}, "is_reserved": 0, "fusion_lon": 0.0, "fusion_lat": 0.0, "lon": -77.03774716666666, "name": "068db8799ecf084b3704327b5e2709d1"}, {"bike_id": "41c4b11270ad701d4b6ac42aede9fb25", "type": "electric_scooter", "is_disabled": 0, "lat": 38.92258533333333, "rental_uris": {"ios": "https://dc.lft.to/lastmile_qr_scan", "android": "https://dc.lft.to/lastmile_qr_scan"}, "is_reserved": 0, "fusion_lon": 0.0, "fusion_lat": 0.0, "lon": -77.04299416666667, "name": "41c4b11270ad701d4b6ac42aede9fb25"}, {"bike_id": "5f97470e65c3c304f6947ca1a2a444e6", "type": "electric_scooter", "is_disabled": 0, "lat": 38.932532333333334, "rental_uris": {"ios": "https://dc.lft.to/lastmile_qr_scan", "android": "https://dc.lft.to/lastmile_qr_scan"}, "is_reserved": 0, "fusion_lon": 0.0, "fusion_lat": 0.0, "lon": -77.03280766666667, "name": "5f97470e65c3c304f6947ca1a2a444e6"}, {"bike_id": "fc96ffda81526c4c25c791502d5d8acc", "type": "electric_scooter", "is_disabled": 0, "lat": 38.884019333333335, "rental_uris": {"ios": "https://dc.lft.to/lastmile_qr_scan", "android": "https://dc.lft.to/lastmile_qr_scan"}, "is_reserved": 0, "fusion_lon": 0.0, "fusion_lat": 0.0, "lon": -76.953911, "name": "fc96ffda81526c4c25c791502d5d8acc"}, {"bike_id": "3caed329d6cb164394ae9cd91e73b7d0", "type": "electric_scooter", "is_disabled": 0, "lat": 38.89098233333333, "rental_uris": {"ios": "https://dc.lft.to/lastmile_qr_scan", "android": "https://dc.lft.to/lastmile_qr_scan"}, "is_reserved": 0, "fusion_lon": 0.0, "fusion_lat": 0.0, "lon": -76.93850016666667, "name": "3caed329d6cb164394ae9cd91e73b7d0"}, {"bike_id": "5c54f12068ec723f7a3129a62038be62", "type": "electric_scooter", "is_disabled": 0, "lat": 38.901249, "rental_uris": {"ios": "https://dc.lft.to/lastmile_qr_scan", "android": "https://dc.lft.to/lastmile_qr_scan"}, "is_reserved": 0, "fusion_lon": 0.0, "fusion_lat": 0.0, "lon": -77.04867716666666, "name": "5c54f12068ec723f7a3129a62038be62"}, {"bike_id": "d8e0ac349d0aebc3e3cf466a9b2f5530", "type": "electric_scooter", "is_disabled": 0, "lat": 38.91525983333333, "rental_uris": {"ios": "https://dc.lft.to/lastmile_qr_scan", "android": "https://dc.lft.to/lastmile_qr_scan"}, "is_reserved": 0, "fusion_lon": 0.0, "fusion_lat": 0.0, "lon": -77.04848316666667, "name": "d8e0ac349d0aebc3e3cf466a9b2f5530"}, {"bike_id": "cf83d3ab6f3f8248d9faf040829a9d1b", "type": "electric_scooter", "is_disabled": 0, "lat": 38.92412733333333, "rental_uris": {"ios": "https://dc.lft.to/lastmile_qr_scan", "android": "https://dc.lft.to/lastmile_qr_scan"}, "is_reserved": 0, "fusion_lon": 0.0, "fusion_lat": 0.0, "lon": -77.03637416666666, "name": "cf83d3ab6f3f8248d9faf040829a9d1b"}, {"bike_id": "75c279c674d7995a46dc67be50774627", "type": "electric_scooter", "is_disabled": 0, "lat": 38.89200683333333, "rental_uris": {"ios": "https://dc.lft.to/lastmile_qr_scan", "android": "https://dc.lft.to/lastmile_qr_scan"}, "is_reserved": 0, "fusion_lon": 0.0, "fusion_lat": 0.0, "lon": -77.00229983333334, "name": "75c279c674d7995a46dc67be50774627"}, {"bike_id": "d2ae6a8b1decee207b0b9bc871db7ea3", "type": "electric_scooter", "is_disabled": 0, "lat": 38.9171495, "rental_uris": {"ios": "https://dc.lft.to/lastmile_qr_scan", "android": "https://dc.lft.to/lastmile_qr_scan"}, "is_reserved": 0, "fusion_lon": 0.0, "fusion_lat": 0.0, "lon": -77.0460805, "name": "d2ae6a8b1decee207b0b9bc871db7ea3"}, {"bike_id": "3cf34132c147c6d081bfa8fa62ace9ef", "type": "electric_scooter", "is_disabled": 0, "lat": 38.87801566666667, "rental_uris": {"ios": "https://dc.lft.to/lastmile_qr_scan", "android": "https://dc.lft.to/lastmile_qr_scan"}, "is_reserved": 0, "fusion_lon": 0.0, "fusion_lat": 0.0, "lon": -77.0175655, "name": "3cf34132c147c6d081bfa8fa62ace9ef"}, {"bike_id": "831b02f8b18c9c0a69eec27f5be52c7c", "type": "electric_scooter", "is_disabled": 0, "lat": 38.96608116666667, "rental_uris": {"ios": "https://dc.lft.to/lastmile_qr_scan", "android": "https://dc.lft.to/lastmile_qr_scan"}, "is_reserved": 0, "fusion_lon": 0.0, "fusion_lat": 0.0, "lon": -77.01979733333333, "name": "831b02f8b18c9c0a69eec27f5be52c7c"}, {"bike_id": "12803a997dd4fab8ab86208f00181987", "type": "electric_scooter", "is_disabled": 0, "lat": 38.920705833333336, "rental_uris": {"ios": "https://dc.lft.to/lastmile_qr_scan", "android": "https://dc.lft.to/lastmile_qr_scan"}, "is_reserved": 0, "fusion_lon": 0.0, "fusion_lat": 0.0, "lon": -77.0346385, "name": "12803a997dd4fab8ab86208f00181987"}, {"bike_id": "b2eff8bdf041d03b09fb4916a438cb19", "type": "electric_scooter", "is_disabled": 0, "lat": 38.92875983333333, "rental_uris": {"ios": "https://dc.lft.to/lastmile_qr_scan", "android": "https://dc.lft.to/lastmile_qr_scan"}, "is_reserved": 0, "fusion_lon": 0.0, "fusion_lat": 0.0, "lon": -77.0335805, "name": "b2eff8bdf041d03b09fb4916a438cb19"}, {"bike_id": "8dd4a41af90579c6bb1b1cda5730c763", "type": "electric_scooter", "is_disabled": 0, "lat": 38.896701166666666, "rental_uris": {"ios": "https://dc.lft.to/lastmile_qr_scan", "android": "https://dc.lft.to/lastmile_qr_scan"}, "is_reserved": 0, "fusion_lon": 0.0, "fusion_lat": 0.0, "lon": -76.98814233333333, "name": "8dd4a41af90579c6bb1b1cda5730c763"}, {"bike_id": "ff3efda409e5b5ccc948e2dfc09dbc47", "type": "electric_scooter", "is_disabled": 0, "lat": 38.91056483333333, "rental_uris": {"ios": "https://dc.lft.to/lastmile_qr_scan", "android": "https://dc.lft.to/lastmile_qr_scan"}, "is_reserved": 0, "fusion_lon": 0.0, "fusion_lat": 0.0, "lon": -77.052817, "name": "ff3efda409e5b5ccc948e2dfc09dbc47"}, {"bike_id": "4c5ad38e0fdd0fb40a3f4102cd18ad4d", "type": "electric_scooter", "is_disabled": 0, "lat": 38.908257666666664, "rental_uris": {"ios": "https://dc.lft.to/lastmile_qr_scan", "android": "https://dc.lft.to/lastmile_qr_scan"}, "is_reserved": 0, "fusion_lon": 0.0, "fusion_lat": 0.0, "lon": -77.03658866666666, "name": "4c5ad38e0fdd0fb40a3f4102cd18ad4d"}, {"bike_id": "94961164063ea2d1afaa2b01e8392867", "type": "electric_scooter", "is_disabled": 0, "lat": 38.90351366666667, "rental_uris": {"ios": "https://dc.lft.to/lastmile_qr_scan", "android": "https://dc.lft.to/lastmile_qr_scan"}, "is_reserved": 0, "fusion_lon": 0.0, "fusion_lat": 0.0, "lon": -77.03643816666667, "name": "94961164063ea2d1afaa2b01e8392867"}, {"bike_id": "85eef48460a9643b5f5a4fc2d02f8af1", "type": "electric_scooter", "is_disabled": 0, "lat": 38.965744, "rental_uris": {"ios": "https://dc.lft.to/lastmile_qr_scan", "android": "https://dc.lft.to/lastmile_qr_scan"}, "is_reserved": 0, "fusion_lon": 0.0, "fusion_lat": 0.0, "lon": -77.0277155, "name": "85eef48460a9643b5f5a4fc2d02f8af1"}, {"bike_id": "4d17b8316ed9b316d9e3b6ba67219b67", "type": "electric_scooter", "is_disabled": 0, "lat": 38.876496333333336, "rental_uris": {"ios": "https://dc.lft.to/lastmile_qr_scan", "android": "https://dc.lft.to/lastmile_qr_scan"}, "is_reserved": 0, "fusion_lon": 0.0, "fusion_lat": 0.0, "lon": -76.96505183333333, "name": "4d17b8316ed9b316d9e3b6ba67219b67"}, {"bike_id": "c2f93e54ba16018ba4d0bf8d032fa791", "type": "electric_scooter", "is_disabled": 0, "lat": 38.91347833333333, "rental_uris": {"ios": "https://dc.lft.to/lastmile_qr_scan", "android": "https://dc.lft.to/lastmile_qr_scan"}, "is_reserved": 0, "fusion_lon": 0.0, "fusion_lat": 0.0, "lon": -77.07114033333333, "name": "c2f93e54ba16018ba4d0bf8d032fa791"}, {"bike_id": "fdbfe331bd97a8cac088f65a57fab46d", "type": "electric_scooter", "is_disabled": 0, "lat": 38.89757016666667, "rental_uris": {"ios": "https://dc.lft.to/lastmile_qr_scan", "android": "https://dc.lft.to/lastmile_qr_scan"}, "is_reserved": 0, "fusion_lon": 0.0, "fusion_lat": 0.0, "lon": -77.0291495, "name": "fdbfe331bd97a8cac088f65a57fab46d"}, {"bike_id": "9dfeb3fe452898e8c66d73fa09cf79fa", "type": "electric_scooter", "is_disabled": 0, "lat": 38.900298, "rental_uris": {"ios": "https://dc.lft.to/lastmile_qr_scan", "android": "https://dc.lft.to/lastmile_qr_scan"}, "is_reserved": 0, "fusion_lon": 0.0, "fusion_lat": 0.0, "lon": -77.01122466666666, "name": "9dfeb3fe452898e8c66d73fa09cf79fa"}, {"bike_id": "6bc64ab9134031ca85b859fba89bc67f", "type": "electric_scooter", "is_disabled": 0, "lat": 38.937241, "rental_uris": {"ios": "https://dc.lft.to/lastmile_qr_scan", "android": "https://dc.lft.to/lastmile_qr_scan"}, "is_reserved": 0, "fusion_lon": 0.0, "fusion_lat": 0.0, "lon": -77.0252285, "name": "6bc64ab9134031ca85b859fba89bc67f"}, {"bike_id": "7e34ebb198e637c5f9e89da07839d986", "type": "electric_scooter", "is_disabled": 0, "lat": 38.97367216666667, "rental_uris": {"ios": "https://dc.lft.to/lastmile_qr_scan", "android": "https://dc.lft.to/lastmile_qr_scan"}, "is_reserved": 0, "fusion_lon": 0.0, "fusion_lat": 0.0, "lon": -77.01865283333333, "name": "7e34ebb198e637c5f9e89da07839d986"}, {"bike_id": "29d2009f07290a14c274e00f39652f15", "type": "electric_scooter", "is_disabled": 0, "lat": 38.8689175, "rental_uris": {"ios": "https://dc.lft.to/lastmile_qr_scan", "android": "https://dc.lft.to/lastmile_qr_scan"}, "is_reserved": 0, "fusion_lon": 0.0, "fusion_lat": 0.0, "lon": -76.9830655, "name": "29d2009f07290a14c274e00f39652f15"}, {"bike_id": "3291301dd14dbefa7af28a8e934ae99b", "type": "electric_scooter", "is_disabled": 0, "lat": 38.939664, "rental_uris": {"ios": "https://dc.lft.to/lastmile_qr_scan", "android": "https://dc.lft.to/lastmile_qr_scan"}, "is_reserved": 0, "fusion_lon": 0.0, "fusion_lat": 0.0, "lon": -77.03753816666666, "name": "3291301dd14dbefa7af28a8e934ae99b"}, {"bike_id": "c877d44028c2f2e8f6426e67b231f74d", "type": "electric_bike", "is_disabled": 0, "lat": 38.995298166666664, "rental_uris": {"ios": "https://dc.lft.to/lastmile_qr_scan", "android": "https://dc.lft.to/lastmile_qr_scan"}, "is_reserved": 0, "fusion_lon": 0.0, "fusion_lat": 0.0, "lon": -77.06949716666666, "name": "c877d44028c2f2e8f6426e67b231f74d"}, {"bike_id": "57fb083d22d1b74fbf70383940a1ccf7", "type": "electric_scooter", "is_disabled": 0, "lat": 38.93799716666667, "rental_uris": {"ios": "https://dc.lft.to/lastmile_qr_scan", "android": "https://dc.lft.to/lastmile_qr_scan"}, "is_reserved": 0, "fusion_lon": 0.0, "fusion_lat": 0.0, "lon": -77.024529, "name": "57fb083d22d1b74fbf70383940a1ccf7"}, {"bike_id": "5bda3c2f410f3339d97a736b69ba01ef", "type": "electric_scooter", "is_disabled": 0, "lat": 38.928171666666664, "rental_uris": {"ios": "https://dc.lft.to/lastmile_qr_scan", "android": "https://dc.lft.to/lastmile_qr_scan"}, "is_reserved": 0, "fusion_lon": 0.0, "fusion_lat": 0.0, "lon": -77.014273, "name": "5bda3c2f410f3339d97a736b69ba01ef"}, {"bike_id": "dc5dceab6e284b88f13cad34713ff22d", "type": "electric_scooter", "is_disabled": 0, "lat": 38.92055083333333, "rental_uris": {"ios": "https://dc.lft.to/lastmile_qr_scan", "android": "https://dc.lft.to/lastmile_qr_scan"}, "is_reserved": 0, "fusion_lon": 0.0, "fusion_lat": 0.0, "lon": -77.02367566666666, "name": "dc5dceab6e284b88f13cad34713ff22d"}, {"bike_id": "8a5194321037b2457c3bc42c72f46a87", "type": "electric_scooter", "is_disabled": 0, "lat": 38.8900355, "rental_uris": {"ios": "https://dc.lft.to/lastmile_qr_scan", "android": "https://dc.lft.to/lastmile_qr_scan"}, "is_reserved": 0, "fusion_lon": 0.0, "fusion_lat": 0.0, "lon": -77.04896633333334, "name": "8a5194321037b2457c3bc42c72f46a87"}, {"bike_id": "1695c6a5956d315bb34074b084940e8b", "type": "electric_scooter", "is_disabled": 0, "lat": 38.8842975, "rental_uris": {"ios": "https://dc.lft.to/lastmile_qr_scan", "android": "https://dc.lft.to/lastmile_qr_scan"}, "is_reserved": 0, "fusion_lon": 0.0, "fusion_lat": 0.0, "lon": -76.9574885, "name": "1695c6a5956d315bb34074b084940e8b"}, {"bike_id": "e42f1b9f284aa4e5f7b50789f078099d", "type": "electric_scooter", "is_disabled": 0, "lat": 38.910514166666665, "rental_uris": {"ios": "https://dc.lft.to/lastmile_qr_scan", "android": "https://dc.lft.to/lastmile_qr_scan"}, "is_reserved": 0, "fusion_lon": 0.0, "fusion_lat": 0.0, "lon": -77.0219255, "name": "e42f1b9f284aa4e5f7b50789f078099d"}, {"bike_id": "14a8d50669d7ca0df51193071d18edc8", "type": "electric_scooter", "is_disabled": 0, "lat": 38.861777833333335, "rental_uris": {"ios": "https://dc.lft.to/lastmile_qr_scan", "android": "https://dc.lft.to/lastmile_qr_scan"}, "is_reserved": 0, "fusion_lon": 0.0, "fusion_lat": 0.0, "lon": -77.08841666666666, "name": "14a8d50669d7ca0df51193071d18edc8"}, {"bike_id": "903ac7216bc792653d1e5387bf78b6a6", "type": "electric_scooter", "is_disabled": 0, "lat": 38.9248665, "rental_uris": {"ios": "https://dc.lft.to/lastmile_qr_scan", "android": "https://dc.lft.to/lastmile_qr_scan"}, "is_reserved": 0, "fusion_lon": 0.0, "fusion_lat": 0.0, "lon": -77.052175, "name": "903ac7216bc792653d1e5387bf78b6a6"}, {"bike_id": "8e65b112801a2b8f8260daf869de7516", "type": "electric_scooter", "is_disabled": 0, "lat": 38.9144765, "rental_uris": {"ios": "https://dc.lft.to/lastmile_qr_scan", "android": "https://dc.lft.to/lastmile_qr_scan"}, "is_reserved": 0, "fusion_lon": 0.0, "fusion_lat": 0.0, "lon": -77.025906, "name": "8e65b112801a2b8f8260daf869de7516"}, {"bike_id": "e77e66f8b2a16f38d843c4f5b52b6ba7", "type": "electric_scooter", "is_disabled": 0, "lat": 38.902496166666666, "rental_uris": {"ios": "https://dc.lft.to/lastmile_qr_scan", "android": "https://dc.lft.to/lastmile_qr_scan"}, "is_reserved": 0, "fusion_lon": 0.0, "fusion_lat": 0.0, "lon": -77.0176425, "name": "e77e66f8b2a16f38d843c4f5b52b6ba7"}, {"bike_id": "cc402f1eeaadfece6aaa3a1528ab2ba7", "type": "electric_scooter", "is_disabled": 0, "lat": 38.9183355, "rental_uris": {"ios": "https://dc.lft.to/lastmile_qr_scan", "android": "https://dc.lft.to/lastmile_qr_scan"}, "is_reserved": 0, "fusion_lon": 0.0, "fusion_lat": 0.0, "lon": -77.04510583333334, "name": "cc402f1eeaadfece6aaa3a1528ab2ba7"}, {"bike_id": "46273e2ec80adfae3cad510818463326", "type": "electric_bike", "is_disabled": 0, "lat": 38.83244583333333, "rental_uris": {"ios": "https://dc.lft.to/lastmile_qr_scan", "android": "https://dc.lft.to/lastmile_qr_scan"}, "is_reserved": 0, "fusion_lon": 0.0, "fusion_lat": 0.0, "lon": -76.9463295, "name": "46273e2ec80adfae3cad510818463326"}, {"bike_id": "fe4920bbadeafab8ea6dad647e055b8f", "type": "electric_scooter", "is_disabled": 0, "lat": 38.905672, "rental_uris": {"ios": "https://dc.lft.to/lastmile_qr_scan", "android": "https://dc.lft.to/lastmile_qr_scan"}, "is_reserved": 0, "fusion_lon": 0.0, "fusion_lat": 0.0, "lon": -76.97786433333333, "name": "fe4920bbadeafab8ea6dad647e055b8f"}, {"bike_id": "7c64adb817a0abf3063add6fc7e34e23", "type": "electric_scooter", "is_disabled": 0, "lat": 38.939910166666664, "rental_uris": {"ios": "https://dc.lft.to/lastmile_qr_scan", "android": "https://dc.lft.to/lastmile_qr_scan"}, "is_reserved": 0, "fusion_lon": 0.0, "fusion_lat": 0.0, "lon": -77.0169695, "name": "7c64adb817a0abf3063add6fc7e34e23"}, {"bike_id": "8e1d80307d4d9678047e55077ff80d76", "type": "electric_scooter", "is_disabled": 0, "lat": 38.91111633333333, "rental_uris": {"ios": "https://dc.lft.to/lastmile_qr_scan", "android": "https://dc.lft.to/lastmile_qr_scan"}, "is_reserved": 0, "fusion_lon": 0.0, "fusion_lat": 0.0, "lon": -77.03249916666667, "name": "8e1d80307d4d9678047e55077ff80d76"}, {"bike_id": "b9fbc61c2f82886fc7c73d183fada760", "type": "electric_scooter", "is_disabled": 0, "lat": 38.91603083333333, "rental_uris": {"ios": "https://dc.lft.to/lastmile_qr_scan", "android": "https://dc.lft.to/lastmile_qr_scan"}, "is_reserved": 0, "fusion_lon": 0.0, "fusion_lat": 0.0, "lon": -77.024095, "name": "b9fbc61c2f82886fc7c73d183fada760"}, {"bike_id": "c92382eae14aa3b9532c7a946f8b19d1", "type": "electric_scooter", "is_disabled": 0, "lat": 38.895720833333336, "rental_uris": {"ios": "https://dc.lft.to/lastmile_qr_scan", "android": "https://dc.lft.to/lastmile_qr_scan"}, "is_reserved": 0, "fusion_lon": 0.0, "fusion_lat": 0.0, "lon": -76.93026866666666, "name": "c92382eae14aa3b9532c7a946f8b19d1"}, {"bike_id": "dd7aff475450360cc47c10f856053d37", "type": "electric_scooter", "is_disabled": 0, "lat": 38.90410083333333, "rental_uris": {"ios": "https://dc.lft.to/lastmile_qr_scan", "android": "https://dc.lft.to/lastmile_qr_scan"}, "is_reserved": 0, "fusion_lon": 0.0, "fusion_lat": 0.0, "lon": -76.97330983333333, "name": "dd7aff475450360cc47c10f856053d37"}, {"bike_id": "7ea765ae072e7c05a5dfe637e408b7cc", "type": "electric_scooter", "is_disabled": 0, "lat": 38.903614, "rental_uris": {"ios": "https://dc.lft.to/lastmile_qr_scan", "android": "https://dc.lft.to/lastmile_qr_scan"}, "is_reserved": 0, "fusion_lon": 0.0, "fusion_lat": 0.0, "lon": -77.00734533333333, "name": "7ea765ae072e7c05a5dfe637e408b7cc"}, {"bike_id": "3562818047d38e483192fdee846e86a1", "type": "electric_scooter", "is_disabled": 0, "lat": 38.921215333333336, "rental_uris": {"ios": "https://dc.lft.to/lastmile_qr_scan", "android": "https://dc.lft.to/lastmile_qr_scan"}, "is_reserved": 0, "fusion_lon": 0.0, "fusion_lat": 0.0, "lon": -77.01211333333333, "name": "3562818047d38e483192fdee846e86a1"}, {"bike_id": "b7c2919e9f75e3e239b2526f36abd7fe", "type": "electric_scooter", "is_disabled": 0, "lat": 38.93636583333333, "rental_uris": {"ios": "https://dc.lft.to/lastmile_qr_scan", "android": "https://dc.lft.to/lastmile_qr_scan"}, "is_reserved": 0, "fusion_lon": 0.0, "fusion_lat": 0.0, "lon": -77.0364475, "name": "b7c2919e9f75e3e239b2526f36abd7fe"}, {"bike_id": "ee99d03b2be4a31158dd9857f315a589", "type": "electric_scooter", "is_disabled": 0, "lat": 38.9308465, "rental_uris": {"ios": "https://dc.lft.to/lastmile_qr_scan", "android": "https://dc.lft.to/lastmile_qr_scan"}, "is_reserved": 0, "fusion_lon": 0.0, "fusion_lat": 0.0, "lon": -77.0364745, "name": "ee99d03b2be4a31158dd9857f315a589"}, {"bike_id": "e0c3919507ace05deed6e9a7cbc4c073", "type": "electric_scooter", "is_disabled": 0, "lat": 38.877582333333336, "rental_uris": {"ios": "https://dc.lft.to/lastmile_qr_scan", "android": "https://dc.lft.to/lastmile_qr_scan"}, "is_reserved": 0, "fusion_lon": 0.0, "fusion_lat": 0.0, "lon": -76.986819, "name": "e0c3919507ace05deed6e9a7cbc4c073"}, {"bike_id": "c79f43c26c3a3499c67c9f2a15a0b28a", "type": "electric_scooter", "is_disabled": 0, "lat": 38.91565266666667, "rental_uris": {"ios": "https://dc.lft.to/lastmile_qr_scan", "android": "https://dc.lft.to/lastmile_qr_scan"}, "is_reserved": 0, "fusion_lon": 0.0, "fusion_lat": 0.0, "lon": -77.00977533333334, "name": "c79f43c26c3a3499c67c9f2a15a0b28a"}, {"bike_id": "ce90c9a248053403811ad6d10b3011b7", "type": "electric_bike", "is_disabled": 0, "lat": 39.050549, "rental_uris": {"ios": "https://dc.lft.to/lastmile_qr_scan", "android": "https://dc.lft.to/lastmile_qr_scan"}, "is_reserved": 0, "fusion_lon": 0.0, "fusion_lat": 0.0, "lon": -77.05149433333334, "name": "ce90c9a248053403811ad6d10b3011b7"}, {"bike_id": "9a5a41c897e70ee7f24709241d900b88", "type": "electric_scooter", "is_disabled": 0, "lat": 38.91675733333334, "rental_uris": {"ios": "https://dc.lft.to/lastmile_qr_scan", "android": "https://dc.lft.to/lastmile_qr_scan"}, "is_reserved": 0, "fusion_lon": 0.0, "fusion_lat": 0.0, "lon": -77.036863, "name": "9a5a41c897e70ee7f24709241d900b88"}, {"bike_id": "807c2fd707c6a413115d36c02f1f5aa1", "type": "electric_scooter", "is_disabled": 0, "lat": 38.902558, "rental_uris": {"ios": "https://dc.lft.to/lastmile_qr_scan", "android": "https://dc.lft.to/lastmile_qr_scan"}, "is_reserved": 0, "fusion_lon": 0.0, "fusion_lat": 0.0, "lon": -77.01758716666667, "name": "807c2fd707c6a413115d36c02f1f5aa1"}, {"bike_id": "e4defab0fd6163666b5a991a817e4ede", "type": "electric_scooter", "is_disabled": 0, "lat": 38.90733216666667, "rental_uris": {"ios": "https://dc.lft.to/lastmile_qr_scan", "android": "https://dc.lft.to/lastmile_qr_scan"}, "is_reserved": 0, "fusion_lon": 0.0, "fusion_lat": 0.0, "lon": -77.0320615, "name": "e4defab0fd6163666b5a991a817e4ede"}, {"bike_id": "8d15ccfda7e0405ef56caee52ed78f49", "type": "electric_scooter", "is_disabled": 0, "lat": 38.90575283333333, "rental_uris": {"ios": "https://dc.lft.to/lastmile_qr_scan", "android": "https://dc.lft.to/lastmile_qr_scan"}, "is_reserved": 0, "fusion_lon": 0.0, "fusion_lat": 0.0, "lon": -77.05140866666666, "name": "8d15ccfda7e0405ef56caee52ed78f49"}, {"bike_id": "df38d6c23eadcc7c04d6aa1123890835", "type": "electric_scooter", "is_disabled": 0, "lat": 38.909361, "rental_uris": {"ios": "https://dc.lft.to/lastmile_qr_scan", "android": "https://dc.lft.to/lastmile_qr_scan"}, "is_reserved": 0, "fusion_lon": 0.0, "fusion_lat": 0.0, "lon": -77.049402, "name": "df38d6c23eadcc7c04d6aa1123890835"}, {"bike_id": "4bfd42a03298379191ae31d0f2dddb85", "type": "electric_scooter", "is_disabled": 0, "lat": 38.91424766666667, "rental_uris": {"ios": "https://dc.lft.to/lastmile_qr_scan", "android": "https://dc.lft.to/lastmile_qr_scan"}, "is_reserved": 0, "fusion_lon": 0.0, "fusion_lat": 0.0, "lon": -77.032676, "name": "4bfd42a03298379191ae31d0f2dddb85"},