{"data": {"bikes": [{"rental_uris": {"ios": "https://dc.lft.to/lastmile_qr_scan", "android": "https://dc.lft.to/lastmile_qr_scan"}, "lon": -76.96529366666667, "type": "electric_scooter", "fusion_lat": 0.0, "lat": 38.876278166666665, "name": "4f25280400ebe219ae2b380a335f8fd6", "fusion_lon": 0.0, "bike_id": "4f25280400ebe219ae2b380a335f8fd6", "is_disabled": 0, "is_reserved": 0}, {"rental_uris": {"ios": "https://dc.lft.to/lastmile_qr_scan", "android": "https://dc.lft.to/lastmile_qr_scan"}, "lon": -77.01867916666667, "type": "electric_scooter", "fusion_lat": 0.0, "lat": 38.94891116666667, "name": "25639c26233a2dead67696826e1d27e2", "fusion_lon": 0.0, "bike_id": "25639c26233a2dead67696826e1d27e2", "is_disabled": 0, "is_reserved": 0}, {"rental_uris": {"ios": "https://dc.lft.to/lastmile_qr_scan", "android": "https://dc.lft.to/lastmile_qr_scan"}, "lon": -77.04507433333333, "type": "electric_scooter", "fusion_lat": 0.0, "lat": 38.918747, "name": "478f5629696118805a32a0555d4a61dd", "fusion_lon": 0.0, "bike_id": "478f5629696118805a32a0555d4a61dd", "is_disabled": 0, "is_reserved": 0}, {"rental_uris": {"ios": "https://dc.lft.to/lastmile_qr_scan", "android": "https://dc.lft.to/lastmile_qr_scan"}, "lon": -77.0323675, "type": "electric_scooter", "fusion_lat": 0.0, "lat": 38.91709566666667, "name": "aa7cd7ea0eefcb404a563c0db845c301", "fusion_lon": 0.0, "bike_id": "aa7cd7ea0eefcb404a563c0db845c301", "is_disabled": 0, "is_reserved": 0}, {"rental_uris": {"ios": "https://dc.lft.to/lastmile_qr_scan", "android": "https://dc.lft.to/lastmile_qr_scan"}, "lon": -76.99760716666667, "type": "electric_scooter", "fusion_lat": 0.0, "lat": 38.90938333333333, "name": "0687c303a8cf40cb1aabaaef0bf90adb", "fusion_lon": 0.0, "bike_id": "0687c303a8cf40cb1aabaaef0bf90adb", "is_disabled": 0, "is_reserved": 0}, {"rental_uris": {"ios": "https://dc.lft.to/lastmile_qr_scan", "android": "https://dc.lft.to/lastmile_qr_scan"}, "lon": -77.04336766666667, "type": "electric_scooter", "fusion_lat": 0.0, "lat": 38.911247833333334, "name": "0c74d30f83c6a88270c43b5bed919104", "fusion_lon": 0.0, "bike_id": "0c74d30f83c6a88270c43b5bed919104", "is_disabled": 0, "is_reserved": 0}, {"rental_uris": {"ios": "https://dc.lft.to/lastmile_qr_scan", "android": "https://dc.lft.to/lastmile_qr_scan"}, "lon": -77.047927, "type": "electric_scooter", "fusion_lat": 0.0, "lat": 38.89771116666667, "name": "d6ad391ef524ee030ba73ae553adbff4", "fusion_lon": 0.0, "bike_id": "d6ad391ef524ee030ba73ae553adbff4", "is_disabled": 0, "is_reserved": 0}, {"rental_uris": {"ios": "https://dc.lft.to/lastmile_qr_scan", "android": "https://dc.lft.to/lastmile_qr_scan"}, "lon": -77.08822416666666, "type": "electric_bike", "fusion_lat": 0.0, "lat": 38.911692, "name": "c578376fddd594f6069452c5c973da47", "fusion_lon": 0.0, "bike_id": "c578376fddd594f6069452c5c973da47", "is_disabled": 0, "is_reserved": 0}, {"rental_uris": {"ios": "https://dc.lft.to/lastmile_qr_scan", "android": "https://dc.lft.to/lastmile_qr_scan"}, "lon": -77.06614083333334, "type": "electric_scooter", "fusion_lat": 0.0, "lat": 38.90536216666667, "name": "0e0f62d763407c634b8e20d86c030bbb", "fusion_lon": 0.0, "bike_id": "0e0f62d763407c634b8e20d86c030bbb", "is_disabled": 0, "is_reserved": 0}, {"rental_uris": {"ios": "https://dc.lft.to/lastmile_qr_scan", "android": "https://dc.lft.to/lastmile_qr_scan"}, "lon": -77.02118216666666, "type": "electric_scooter", "fusion_lat": 0.0, "lat": 38.914125, "name": "58563852c6992a6db3ed29875c5f9325", "fusion_lon": 0.0, "bike_id": "58563852c6992a6db3ed29875c5f9325", "is_disabled": 0, "is_reserved": 0}, {"rental_uris": {"ios": "https://dc.lft.to/lastmile_qr_scan", "android": "https://dc.lft.to/lastmile_qr_scan"}, "lon": -77.040151, "type": "electric_scooter", "fusion_lat": 0.0, "lat": 38.9325555, "name": "8370ed39dde9f51595107af5b80b8494", "fusion_lon": 0.0, "bike_id": "8370ed39dde9f51595107af5b80b8494", "is_disabled": 0, "is_reserved": 0}, {"rental_uris": {"ios": "https://dc.lft.to/lastmile_qr_scan", "android": "https://dc.lft.to/lastmile_qr_scan"}, "lon": -77.021958, "type": "electric_scooter", "fusion_lat": 0.0, "lat": 38.8977945, "name": "a6be718df8f65a4571dab4fc069dce40", "fusion_lon": 0.0, "bike_id": "a6be718df8f65a4571dab4fc069dce40", "is_disabled": 0, "is_reserved": 0}, {"rental_uris": {"ios": "https://dc.lft.to/lastmile_qr_scan", "android": "https://dc.lft.to/lastmile_qr_scan"}, "lon": -77.02336083333333, "type": "electric_scooter", "fusion_lat": 0.0, "lat": 38.930492, "name": "5c7dc66e4e5603a6774e96cd3895ce83", "fusion_lon": 0.0, "bike_id": "5c7dc66e4e5603a6774e96cd3895ce83", "is_disabled": 0, "is_reserved": 0}, {"rental_uris": {"ios": "https://dc.lft.to/lastmile_qr_scan", "android": "https://dc.lft.to/lastmile_qr_scan"}, "lon": -76.99672, "type": "electric_scooter", "fusion_lat": 0.0, "lat": 38.9005315, "name": "0c510eb4ff0ea0c875ed66de47fc16c4", "fusion_lon": 0.0, "bike_id": "0c510eb4ff0ea0c875ed66de47fc16c4", "is_disabled": 0, "is_reserved": 0}, {"rental_uris": {"ios": "https://dc.lft.to/lastmile_qr_scan", "android": "https://dc.lft.to/lastmile_qr_scan"}, "lon": -77.02206933333333, "type": "electric_scooter", "fusion_lat": 0.0, "lat": 38.909707, "name": "f879aee45cc0f663f9e98ef0e679a82e", "fusion_lon": 0.0, "bike_id": "f879aee45cc0f663f9e98ef0e679a82e", "is_disabled": 0, "is_reserved": 0}, {"rental_uris": {"ios": "https://dc.lft.to/lastmile_qr_scan", "android": "https://dc.lft.to/lastmile_qr_scan"}, "lon": -76.98589316666667, "type": "electric_scooter", "fusion_lat": 0.0, "lat": 38.89925916666667, "name": "7ac2c3a2a130d6c062069243603893b2", "fusion_lon": 0.0, "bike_id": "7ac2c3a2a130d6c062069243603893b2", "is_disabled": 0, "is_reserved": 0}, {"rental_uris": {"ios": "https://dc.lft.to/lastmile_qr_scan", "android": "https://dc.lft.to/lastmile_qr_scan"}, "lon": -76.99820316666667, "type": "electric_bike", "fusion_lat": 0.0, "lat": 38.84435233333333, "name": "b7c04910fc043450468a9066d93e5ce8", "fusion_lon": 0.0, "bike_id": "b7c04910fc043450468a9066d93e5ce8", "is_disabled": 0, "is_reserved": 0}, {"rental_uris": {"ios": "https://dc.lft.to/lastmile_qr_scan", "android": "https://dc.lft.to/lastmile_qr_scan"}, "lon": -77.04820433333333, "type": "electric_scooter", "fusion_lat": 0.0, "lat": 38.920392, "name": "28bdad03ea52961996e7ffa817ae3f69", "fusion_lon": 0.0, "bike_id": "28bdad03ea52961996e7ffa817ae3f69", "is_disabled": 0, "is_reserved": 0}, {"rental_uris": {"ios": "https://dc.lft.to/lastmile_qr_scan", "android": "https://dc.lft.to/lastmile_qr_scan"}, "lon": -77.03720166666666, "type": "electric_scooter", "fusion_lat": 0.0, "lat": 38.910411333333336, "name": "9ef6c4ce125507d893d535467f81274c", "fusion_lon": 0.0, "bike_id": "9ef6c4ce125507d893d535467f81274c", "is_disabled": 0, "is_reserved": 0}, {"rental_uris": {"ios": "https://dc.lft.to/lastmile_qr_scan", "android": "https://dc.lft.to/lastmile_qr_scan"}, "lon": -77.0128485, "type": "electric_scooter", "fusion_lat": 0.0, "lat": 38.906163666666664, "name": "1294c5d6591b6712556a4569fa981ae9", "fusion_lon": 0.0, "bike_id": "1294c5d6591b6712556a4569fa981ae9", "is_disabled": 0, "is_reserved": 0}, {"rental_uris": {"ios": "https://dc.lft.to/lastmile_qr_scan", "android": "https://dc.lft.to/lastmile_qr_scan"}, "lon": -76.988464, "type": "electric_bike", "fusion_lat": 0.0, "lat": 38.842756, "name": "6a8802dd1135d5010935e1067ce8604a", "fusion_lon": 0.0, "bike_id": "6a8802dd1135d5010935e1067ce8604a", "is_disabled": 0, "is_reserved": 0}, {"rental_uris": {"ios": "https://dc.lft.to/lastmile_qr_scan", "android": "https://dc.lft.to/lastmile_qr_scan"}, "lon": -77.03407316666667, "type": "electric_scooter", "fusion_lat": 0.0, "lat": 38.906065, "name": "dd7ae087e463e9fa23741285a0f02cc3", "fusion_lon": 0.0, "bike_id": "dd7ae087e463e9fa23741285a0f02cc3", "is_disabled": 0, "is_reserved": 0}, {"rental_uris": {"ios": "https://dc.lft.to/lastmile_qr_scan", "android": "https://dc.lft.to/lastmile_qr_scan"}, "lon": -77.0481715, "type": "electric_scooter", "fusion_lat": 0.0, "lat": 38.90978416666667, "name": "a54c5dc5fadd07b01ce63ca079b220ce", "fusion_lon": 0.0, "bike_id": "a54c5dc5fadd07b01ce63ca079b220ce", "is_disabled": 0, "is_reserved": 0}, {"rental_uris": {"ios": "https://dc.lft.to/lastmile_qr_scan", "android": "https://dc.lft.to/lastmile_qr_scan"}, "lon": -77.01082783333334, "type": "electric_bike", "fusion_lat": 0.0, "lat": 38.95654566666666, "name": "3583ef4edc0c1d571ccbdc9384fe42c6", "fusion_lon": 0.0, "bike_id": "3583ef4edc0c1d571ccbdc9384fe42c6", "is_disabled": 0, "is_reserved": 0}, {"rental_uris": {"ios": "https://dc.lft.to/lastmile_qr_scan", "android": "https://dc.lft.to/lastmile_qr_scan"}, "lon": -77.03278616666667, "type": "electric_scooter", "fusion_lat": 0.0, "lat": 38.93495033333333, "name": "738ef41c4a928387ba32cec30b1f0daa", "fusion_lon": 0.0, "bike_id": "738ef41c4a928387ba32cec30b1f0daa", "is_disabled": 0, "is_reserved": 0}, {"rental_uris": {"ios": "https://dc.lft.to/lastmile_qr_scan", "android": "https://dc.lft.to/lastmile_qr_scan"}, "lon": -76.989558, "type": "electric_scooter", "fusion_lat": 0.0, "lat": 38.90139033333333, "name": "7859aa3d014d8953d39adf97dc0f7f52", "fusion_lon": 0.0, "bike_id": "7859aa3d014d8953d39adf97dc0f7f52", "is_disabled": 0, "is_reserved": 0}, {"rental_uris": {"ios": "https://dc.lft.to/lastmile_qr_scan", "android": "https://dc.lft.to/lastmile_qr_scan"}, "lon": -77.00264816666666, "type": "electric_scooter", "fusion_lat": 0.0, "lat": 38.898967, "name": "83ca214ef6cc1d09c8c33b3aede9c366", "fusion_lon": 0.0, "bike_id": "83ca214ef6cc1d09c8c33b3aede9c366", "is_disabled": 0, "is_reserved": 0}, {"rental_uris": {"ios": "https://dc.lft.to/lastmile_qr_scan", "android": "https://dc.lft.to/lastmile_qr_scan"}, "lon": -77.07776266666667, "type": "electric_scooter", "fusion_lat": 0.0, "lat": 38.945624, "name": "a33526818b3137f934465bb4e6a42bf1", "fusion_lon": 0.0, "bike_id": "a33526818b3137f934465bb4e6a42bf1", "is_disabled": 0, "is_reserved": 0}, {"rental_uris": {"ios": "https://dc.lft.to/lastmile_qr_scan", "android": "https://dc.lft.to/lastmile_qr_scan"}, "lon": -77.00560283333333, "type": "electric_scooter", "fusion_lat": 0.0, "lat": 38.879221333333334, "name": "1e12855b3bf6d516a36afaad2283bf85", "fusion_lon": 0.0, "bike_id": "1e12855b3bf6d516a36afaad2283bf85", "is_disabled": 0, "is_reserved": 0}, {"rental_uris": {"ios": "https://dc.lft.to/lastmile_qr_scan", "android": "https://dc.lft.to/lastmile_qr_scan"}, "lon": -77.0083035, "type": "electric_scooter", "fusion_lat": 0.0, "lat": 38.87919, "name": "580c0918b489a2ac5593150d06bf5a05", "fusion_lon": 0.0, "bike_id": "580c0918b489a2ac5593150d06bf5a05", "is_disabled": 0, "is_reserved": 0}, {"rental_uris": {"ios": "https://dc.lft.to/lastmile_qr_scan", "android": "https://dc.lft.to/lastmile_qr_scan"}, "lon": -77.01883883333333, "type": "electric_scooter", "fusion_lat": 0.0, "lat": 38.917456666666666, "name": "a20fcdf9c3b830cda4e5b59de161f994", "fusion_lon": 0.0, "bike_id": "a20fcdf9c3b830cda4e5b59de161f994", "is_disabled": 0, "is_reserved": 0}, {"rental_uris": {"ios": "https://dc.lft.to/lastmile_qr_scan", "android": "https://dc.lft.to/lastmile_qr_scan"}, "lon": -77.03199966666666, "type": "electric_scooter", "fusion_lat": 0.0, "lat": 38.907664833333335, "name": "1013b79583d0892f420e8409a0563278", "fusion_lon": 0.0, "bike_id": "1013b79583d0892f420e8409a0563278", "is_disabled": 0, "is_reserved": 0}, {"rental_uris": {"ios": "https://dc.lft.to/lastmile_qr_scan", "android": "https://dc.lft.to/lastmile_qr_scan"}, "lon": -77.03375816666667, "type": "electric_scooter", "fusion_lat": 0.0, "lat": 38.899652, "name": "579c525e3d178fa89b3fae2a62ff0a3c", "fusion_lon": 0.0, "bike_id": "579c525e3d178fa89b3fae2a62ff0a3c", "is_disabled": 0, "is_reserved": 0}, {"rental_uris": {"ios": "https://dc.lft.to/lastmile_qr_scan", "android": "https://dc.lft.to/lastmile_qr_scan"}, "lon": -77.04026833333333, "type": "electric_scooter", "fusion_lat": 0.0, "lat": 38.90014933333333, "name": "2066db5478e4002ee92ac5d6036932ad", "fusion_lon": 0.0, "bike_id": "2066db5478e4002ee92ac5d6036932ad", "is_disabled": 0, "is_reserved": 0}, {"rental_uris": {"ios": "https://dc.lft.to/lastmile_qr_scan", "android": "https://dc.lft.to/lastmile_qr_scan"}, "lon": -77.001983, "type": "electric_bike", "fusion_lat": 0.0, "lat": 38.941524, "name": "001ab6e4392355726ab836f817bda2a1", "fusion_lon": 0.0, "bike_id": "001ab6e4392355726ab836f817bda2a1", "is_disabled": 0, "is_reserved": 0}, {"rental_uris": {"ios": "https://dc.lft.to/lastmile_qr_scan", "android": "https://dc.lft.to/lastmile_qr_scan"}, "lon": -76.97987183333333, "type": "electric_bike", "fusion_lat": 0.0, "lat": 38.87755033333333, "name": "85c0c48d758a99830533e4a5f21636ab", "fusion_lon": 0.0, "bike_id": "85c0c48d758a99830533e4a5f21636ab", "is_disabled": 0, "is_reserved": 0}, {"rental_uris": {"ios": "https://dc.lft.to/lastmile_qr_scan", "android": "https://dc.lft.to/lastmile_qr_scan"}, "lon": -77.360958, "type": "electric_bike", "fusion_lat": 0.0, "lat": 38.939552166666665, "name": "a778dad98c309662574e1fedb2f3243f", "fusion_lon": 0.0, "bike_id": "a778dad98c309662574e1fedb2f3243f", "is_disabled": 0, "is_reserved": 0}, {"rental_uris": {"ios": "https://dc.lft.to/lastmile_qr_scan", "android": "https://dc.lft.to/lastmile_qr_scan"}, "lon": -77.01768416666667, "type": "electric_scooter", "fusion_lat": 0.0, "lat": 38.88734016666667, "name": "9a252b71120867747a68fef640807a91", "fusion_lon": 0.0, "bike_id": "9a252b71120867747a68fef640807a91", "is_disabled": 0, "is_reserved": 0}, {"rental_uris": {"ios": "https://dc.lft.to/lastmile_qr_scan", "android": "https://dc.lft.to/lastmile_qr_scan"}, "lon": -77.02820883333334, "type": "electric_scooter", "fusion_lat": 0.0, "lat": 38.898391833333335, "name": "cbead242bb7a6162d0c81d7564b63829", "fusion_lon": 0.0, "bike_id": "cbead242bb7a6162d0c81d7564b63829", "is_disabled": 0, "is_reserved": 0}, {"rental_uris": {"ios": "https://dc.lft.to/lastmile_qr_scan", "android": "https://dc.lft.to/lastmile_qr_scan"}, "lon": -77.0533435, "type": "electric_scooter", "fusion_lat": 0.0, "lat": 38.90024116666667, "name": "9f5d139b632d02c71585a1cf62a36467", "fusion_lon": 0.0, "bike_id": "9f5d139b632d02c71585a1cf62a36467", "is_disabled": 0, "is_reserved": 0}, {"rental_uris": {"ios": "https://dc.lft.to/lastmile_qr_scan", "android": "https://dc.lft.to/lastmile_qr_scan"}, "lon": -77.009291, "type": "electric_scooter", "fusion_lat": 0.0, "lat": 38.902453666666666, "name": "d84e9e2e14a4114a54a7bf1a1c5342f0", "fusion_lon": 0.0, "bike_id": "d84e9e2e14a4114a54a7bf1a1c5342f0", "is_disabled": 0, "is_reserved": 0}, {"rental_uris": {"ios": "https://dc.lft.to/lastmile_qr_scan", "android": "https://dc.lft.to/lastmile_qr_scan"}, "lon": -77.00893933333333, "type": "electric_scooter", "fusion_lat": 0.0, "lat": 38.897675, "name": "8cd75fbbf36d5f13e11a348554661eb7", "fusion_lon": 0.0, "bike_id": "8cd75fbbf36d5f13e11a348554661eb7", "is_disabled": 0, "is_reserved": 0}, {"rental_uris": {"ios": "https://dc.lft.to/lastmile_qr_scan", "android": "https://dc.lft.to/lastmile_qr_scan"}, "lon": -77.04104666666667, "type": "electric_scooter", "fusion_lat": 0.0, "lat": 38.91776816666667, "name": "2bbe081988ae66c86abaccf08259213e", "fusion_lon": 0.0, "bike_id": "2bbe081988ae66c86abaccf08259213e", "is_disabled": 0, "is_reserved": 0}, {"rental_uris": {"ios": "https://dc.lft.to/lastmile_qr_scan", "android": "https://dc.lft.to/lastmile_qr_scan"}, "lon": -77.0250845, "type": "electric_scooter", "fusion_lat": 0.0, "lat": 38.90714166666667, "name": "84e4d810f57f36d23a5dfb0c48ee064e", "fusion_lon": 0.0, "bike_id": "84e4d810f57f36d23a5dfb0c48ee064e", "is_disabled": 0, "is_reserved": 0}, {"rental_uris": {"ios": "https://dc.lft.to/lastmile_qr_scan", "android": "https://dc.lft.to/lastmile_qr_scan"}, "lon": -77.07028166666667, "type": "electric_scooter", "fusion_lat": 0.0, "lat": 38.907339666666665, "name": "9d08a675f6a9f4d00d201150a0252814", "fusion_lon": 0.0, "bike_id": "9d08a675f6a9f4d00d201150a0252814", "is_disabled": 0, "is_reserved": 0}, {"rental_uris": {"ios": "https://dc.lft.to/lastmile_qr_scan", "android": "https://dc.lft.to/lastmile_qr_scan"}, "lon": -77.018603, "type": "electric_scooter", "fusion_lat": 0.0, "lat": 38.91506033333334, "name": "52cd56d5426268972ba1948e3024510f", "fusion_lon": 0.0, "bike_id": "52cd56d5426268972ba1948e3024510f", "is_disabled": 0, "is_reserved": 0}, {"rental_uris": {"ios": "https://dc.lft.to/lastmile_qr_scan", "android": "https://dc.lft.to/lastmile_qr_scan"}, "lon": -76.95000633333333, "type": "electric_scooter", "fusion_lat": 0.0, "lat": 38.893716166666664, "name": "e72f5d32262c4e7e7d0df4f461afab7d", "fusion_lon": 0.0, "bike_id": "e72f5d32262c4e7e7d0df4f461afab7d", "is_disabled": 0, "is_reserved": 0}, {"rental_uris": {"ios": "https://dc.lft.to/lastmile_qr_scan", "android": "https://dc.lft.to/lastmile_qr_scan"}, "lon": -77.18299016666667, "type": "electric_bike", "fusion_lat": 0.0, "lat": 38.88344883333333, "name": "fd813e3131db7361a7038f6611695475", "fusion_lon": 0.0, "bike_id": "fd813e3131db7361a7038f6611695475", "is_disabled": 0, "is_reserved": 0}, {"rental_uris": {"ios": "https://dc.lft.to/lastmile_qr_scan", "android": "https://dc.lft.to/lastmile_qr_scan"}, "lon": -77.07144866666667, "type": "electric_scooter", "fusion_lat": 0.0, "lat": 38.9272845, "name": "c152b6ff2d3cfd1674120c177df0a90f", "fusion_lon": 0.0, "bike_id": "c152b6ff2d3cfd1674120c177df0a90f", "is_disabled": 0, "is_reserved": 0}, {"rental_uris": {"ios": "https://dc.lft.to/lastmile_qr_scan", "android": "https://dc.lft.to/lastmile_qr_scan"}, "lon": -77.02472066666667, "type": "electric_scooter", "fusion_lat": 0.0, "lat": 38.930988166666666, "name": "f1a11762fc9945b7b7455da02f649fe4", "fusion_lon": 0.0, "bike_id": "f1a11762fc9945b7b7455da02f649fe4", "is_disabled": 0, "is_reserved": 0}, {"rental_uris": {"ios": "https://dc.lft.to/lastmile_qr_scan", "android": "https://dc.lft.to/lastmile_qr_scan"}, "lon": -77.05058116666666, "type": "electric_scooter", "fusion_lat": 0.0, "lat": 38.900770666666666, "name": "251aa8c91659df1e565fd0705c17703a", "fusion_lon": 0.0, "bike_id": "251aa8c91659df1e565fd0705c17703a", "is_disabled": 0, "is_reserved": 0}, {"rental_uris": {"ios": "https://dc.lft.to/lastmile_qr_scan", "android": "https://dc.lft.to/lastmile_qr_scan"}, "lon": -77.03325383333333, "type": "electric_scooter", "fusion_lat": 0.0, "lat": 38.901239833333335, "name": "c86dd36a262bca38cc7bb30b6387a890", "fusion_lon": 0.0, "bike_id": "c86dd36a262bca38cc7bb30b6387a890", "is_disabled": 0, "is_reserved": 0}, {"rental_uris": {"ios": "https://dc.lft.to/lastmile_qr_scan", "android": "https://dc.lft.to/lastmile_qr_scan"}, "lon": -76.97434266666667, "type": "electric_bike", "fusion_lat": 0.0, "lat": 38.932099666666666, "name": "f798a96ea0c5f1087ee9f9056cd971d0", "fusion_lon": 0.0, "bike_id": "f798a96ea0c5f1087ee9f9056cd971d0", "is_disabled": 0, "is_reserved": 0}, {"rental_uris": {"ios": "https://dc.lft.to/lastmile_qr_scan", "android": "https://dc.lft.to/lastmile_qr_scan"}, "lon": -77.01787916666666, "type": "electric_scooter", "fusion_lat": 0.0, "lat": 38.900404333333334, "name": "55fa91a3d35249a1c75abe65928eda0a", "fusion_lon": 0.0, "bike_id": "55fa91a3d35249a1c75abe65928eda0a", "is_disabled": 0, "is_reserved": 0}, {"rental_uris": {"ios": "https://dc.lft.to/lastmile_qr_scan", "android": "https://dc.lft.to/lastmile_qr_scan"}, "lon": -76.97826116666667, "type": "electric_scooter", "fusion_lat": 0.0, "lat": 38.895199, "name": "f4d3474cdedd98bde9851e120a89008e", "fusion_lon": 0.0, "bike_id": "f4d3474cdedd98bde9851e120a89008e", "is_disabled": 0, "is_reserved": 0}, {"rental_uris": {"ios": "https://dc.lft.to/lastmile_qr_scan", "android": "https://dc.lft.to/lastmile_qr_scan"}, "lon": -77.021787, "type": "electric_scooter", "fusion_lat": 0.0, "lat": 38.914849833333335, "name": "e7d08342a824ca6b03912a210adea703", "fusion_lon": 0.0, "bike_id": "e7d08342a824ca6b03912a210adea703", "is_disabled": 0, "is_reserved": 0}, {"rental_uris": {"ios": "https://dc.lft.to/lastmile_qr_scan", "android": "https://dc.lft.to/lastmile_qr_scan"}, "lon": -77.0021795, "type": "electric_scooter", "fusion_lat": 0.0, "lat": 38.9083075, "name": "ffed94bc98c1b176a7fec638d4701f9f", "fusion_lon": 0.0, "bike_id": "ffed94bc98c1b176a7fec638d4701f9f", "is_disabled": 0, "is_reserved": 0}, {"rental_uris": {"ios": "https://dc.lft.to/lastmile_qr_scan", "android": "https://dc.lft.to/lastmile_qr_scan"}, "lon": -77.04685116666667, "type": "electric_scooter", "fusion_lat": 0.0, "lat": 38.8922165, "name": "97559bca01a724944131b826e9bc48dc", "fusion_lon": 0.0, "bike_id": "97559bca01a724944131b826e9bc48dc", "is_disabled": 0, "is_reserved": 0}, {"rental_uris": {"ios": "https://dc.lft.to/lastmile_qr_scan", "android": "https://dc.lft.to/lastmile_qr_scan"}, "lon": -76.95743733333333, "type": "electric_scooter", "fusion_lat": 0.0, "lat": 38.892173666666665, "name": "2deced34c7517551d2cc53f20ac79728", "fusion_lon": 0.0, "bike_id": "2deced34c7517551d2cc53f20ac79728", "is_disabled": 0, "is_reserved": 0}, {"rental_uris": {"ios": "https://dc.lft.to/lastmile_qr_scan", "android": "https://dc.lft.to/lastmile_qr_scan"}, "lon": -77.0343835, "type": "electric_scooter", "fusion_lat": 0.0, "lat": 38.9097585, "name": "3cce2b2e2523186d2200e534f06a4adf", "fusion_lon": 0.0, "bike_id": "3cce2b2e2523186d2200e534f06a4adf", "is_disabled": 0, "is_reserved": 0}, {"rental_uris": {"ios": "https://dc.lft.to/lastmile_qr_scan", "android": "https://dc.lft.to/lastmile_qr_scan"}, "lon": -77.0546765, "type": "electric_bike", "fusion_lat": 0.0, "lat": 38.908551333333335, "name": "1b12cbe2eb9f21b1aa1c51a76a3c86ee", "fusion_lon": 0.0, "bike_id": "1b12cbe2eb9f21b1aa1c51a76a3c86ee", "is_disabled": 0, "is_reserved": 0}, {"rental_uris": {"ios": "https://dc.lft.to/lastmile_qr_scan", "android": "https://dc.lft.to/lastmile_qr_scan"}, "lon": -77.04899666666667, "type": "electric_scooter", "fusion_lat": 0.0, "lat": 38.903065833333336, "name": "099d17cfc9819f4b48d9a0fe0f4f7446", "fusion_lon": 0.0, "bike_id": "099d17cfc9819f4b48d9a0fe0f4f7446", "is_disabled": 0, "is_reserved": 0}, {"rental_uris": {"ios": "https://dc.lft.to/lastmile_qr_scan", "android": "https://dc.lft.to/lastmile_qr_scan"}, "lon": -77.029916, "type": "electric_scooter", "fusion_lat": 0.0, "lat": 38.900490166666664, "name": "1d0c274d4848429ed1585ac3946e9fde", "fusion_lon": 0.0, "bike_id": "1d0c274d4848429ed1585ac3946e9fde", "is_disabled": 0, "is_reserved": 0}, {"rental_uris": {"ios": "https://dc.lft.to/lastmile_qr_scan", "android": "https://dc.lft.to/lastmile_qr_scan"}, "lon": -77.05083033333334, "type": "electric_scooter", "fusion_lat": 0.0, "lat": 38.90046683333333, "name": "a0ffee26add40e47085cf2348b7137aa", "fusion_lon": 0.0, "bike_id": "a0ffee26add40e47085cf2348b7137aa", "is_disabled": 0, "is_reserved": 0}, {"rental_uris": {"ios": "https://dc.lft.to/lastmile_qr_scan", "android": "https://dc.lft.to/lastmile_qr_scan"}, "lon": -77.03627116666667, "type": "electric_scooter", "fusion_lat": 0.0, "lat": 38.93683883333333, "name": "7f748802e7303cd5ae972877d7c7dcdf", "fusion_lon": 0.0, "bike_id": "7f748802e7303cd5ae972877d7c7dcdf", "is_disabled": 0, "is_reserved": 0}, {"rental_uris": {"ios": "https://dc.lft.to/lastmile_qr_scan", "android": "https://dc.lft.to/lastmile_qr_scan"}, "lon": -76.9742605, "type": "electric_bike", "fusion_lat": 0.0, "lat": 38.8640475, "name": "5aaa5faef8ac9696cfdb51dfbf20059e", "fusion_lon": 0.0, "bike_id": "5aaa5faef8ac9696cfdb51dfbf20059e", "is_disabled": 0, "is_reserved": 0}, {"rental_uris": {"ios": "https://dc.lft.to/lastmile_qr_scan", "android": "https://dc.lft.to/lastmile_qr_scan"}, "lon": -76.99779566666666, "type": "electric_scooter", "fusion_lat": 0.0, "lat": 38.84426, "name": "544edc958cb144e0b497916b0ed8e48a", "fusion_lon": 0.0, "bike_id": "544edc958cb144e0b497916b0ed8e48a", "is_disabled": 0, "is_reserved": 0}, {"rental_uris": {"ios": "https://dc.lft.to/lastmile_qr_scan", "android": "https://dc.lft.to/lastmile_qr_scan"}, "lon": -77.01525833333334, "type": "electric_scooter", "fusion_lat": 0.0, "lat": 38.89826016666667, "name": "35675e49f76d12b8adeca8ab42e6888e", "fusion_lon": 0.0, "bike_id": "35675e49f76d12b8adeca8ab42e6888e", "is_disabled": 0, "is_reserved": 0}, {"rental_uris": {"ios": "https://dc.lft.to/lastmile_qr_scan", "android": "https://dc.lft.to/lastmile_qr_scan"}, "lon": -77.03630716666666, "type": "electric_bike", "fusion_lat": 0.0, "lat": 38.912671333333336, "name": "fa621672838cef67640e928e1dd1fc7e", "fusion_lon": 0.0, "bike_id": "fa621672838cef67640e928e1dd1fc7e", "is_disabled": 0, "is_reserved": 0}, {"rental_uris": {"ios": "https://dc.lft.to/lastmile_qr_scan", "android": "https://dc.lft.to/lastmile_qr_scan"}, "lon": -77.041145, "type": "electric_scooter", "fusion_lat": 0.0, "lat": 38.90587716666667, "name": "eb3f34c8821f92c00444253f299cfecf", "fusion_lon": 0.0, "bike_id": "eb3f34c8821f92c00444253f299cfecf", "is_disabled": 0, "is_reserved": 0}, {"rental_uris": {"ios": "https://dc.lft.to/lastmile_qr_scan", "android": "https://dc.lft.to/lastmile_qr_scan"}, "lon": -77.062868, "type": "electric_scooter", "fusion_lat": 0.0, "lat": 38.91244433333333, "name": "a2f3fe7cc3bc7a54ec44542cd8d4f4d1", "fusion_lon": 0.0, "bike_id": "a2f3fe7cc3bc7a54ec44542cd8d4f4d1", "is_disabled": 0, "is_reserved": 0}, {"rental_uris": {"ios": "https://dc.lft.to/lastmile_qr_scan", "android": "https://dc.lft.to/lastmile_qr_scan"}, "lon": -77.0186795, "type": "electric_scooter", "fusion_lat": 0.0, "lat": 38.9157505, "name": "21f6797f2fd94e48deb57404f68b32fb", "fusion_lon": 0.0, "bike_id": "21f6797f2fd94e48deb57404f68b32fb", "is_disabled": 0, "is_reserved": 0}, {"rental_uris": {"ios": "https://dc.lft.to/lastmile_qr_scan", "android": "https://dc.lft.to/lastmile_qr_scan"}, "lon": -77.03589133333334, "type": "electric_scooter", "fusion_lat": 0.0, "lat": 38.932409166666666, "name": "7bfd15c89e94365ecbe764ec605a14f3", "fusion_lon": 0.0, "bike_id": "7bfd15c89e94365ecbe764ec605a14f3", "is_disabled": 0, "is_reserved": 0}, {"rental_uris": {"ios": "https://dc.lft.to/lastmile_qr_scan", "android": "https://dc.lft.to/lastmile_qr_scan"}, "lon": -76.94983816666667, "type": "electric_scooter", "fusion_lat": 0.0, "lat": 38.893637166666664, "name": "0f937869bd471fd308ae7aaae50c5160", "fusion_lon": 0.0, "bike_id": "0f937869bd471fd308ae7aaae50c5160", "is_disabled": 0, "is_reserved": 0}, {"rental_uris": {"ios": "https://dc.lft.to/lastmile_qr_scan", "android": "https://dc.lft.to/lastmile_qr_scan"}, "lon": -77.03788416666667, "type": "electric_bike", "fusion_lat": 0.0, "lat": 38.99677116666667, "name": "ba3a190cd898734a9acd20cd1ff3d38a", "fusion_lon": 0.0, "bike_id": "ba3a190cd898734a9acd20cd1ff3d38a", "is_disabled": 0, "is_reserved": 0}, {"rental_uris": {"ios": "https://dc.lft.to/lastmile_qr_scan", "android": "https://dc.lft.to/lastmile_qr_scan"}, "lon": -77.0450425, "type": "electric_scooter", "fusion_lat": 0.0, "lat": 38.912845, "name": "c9767acb901b2ff4031f7cbd693fdc2a", "fusion_lon": 0.0, "bike_id": "c9767acb901b2ff4031f7cbd693fdc2a", "is_disabled": 0, "is_reserved": 0}, {"rental_uris": {"ios": "https://dc.lft.to/lastmile_qr_scan", "android": "https://dc.lft.to/lastmile_qr_scan"}, "lon": -77.04122283333334, "type": "electric_scooter", "fusion_lat": 0.0, "lat": 38.921501666666664, "name": "13e3b45132d559c1ce77eeab75a4e060", "fusion_lon": 0.0, "bike_id": "13e3b45132d559c1ce77eeab75a4e060", "is_disabled": 0, "is_reserved": 0}, {"rental_uris": {"ios": "https://dc.lft.to/lastmile_qr_scan", "android": "https://dc.lft.to/lastmile_qr_scan"}, "lon": -77.01735533333333, "type": "electric_scooter", "fusion_lat": 0.0, "lat": 38.90378583333333, "name": "3021add9b09089221a009ec3979cacd5", "fusion_lon": 0.0, "bike_id": "3021add9b09089221a009ec3979cacd5", "is_disabled": 0, "is_reserved": 0}, {"rental_uris": {"ios": "https://dc.lft.to/lastmile_qr_scan", "android": "https://dc.lft.to/lastmile_qr_scan"}, "lon": -76.95738583333333, "type": "electric_scooter", "fusion_lat": 0.0, "lat": 38.89185966666667, "name": "c6bc3995adfba9a82ea3c3c8d08a9306", "fusion_lon": 0.0, "bike_id": "c6bc3995adfba9a82ea3c3c8d08a9306", "is_disabled": 0, "is_reserved": 0}, {"rental_uris": {"ios": "https://dc.lft.to/lastmile_qr_scan", "android": "https://dc.lft.to/lastmile_qr_scan"}, "lon": -76.98619966666666, "type": "electric_scooter", "fusion_lat": 0.0, "lat": 38.868196833333336, "name": "0e880cc9ce259775210fc7c3996972f5", "fusion_lon": 0.0, "bike_id": "0e880cc9ce259775210fc7c3996972f5", "is_disabled": 0, "is_reserved": 0}, {"rental_uris": {"ios": "https://dc.lft.to/lastmile_qr_scan", "android": "https://dc.lft.to/lastmile_qr_scan"}, "lon": -77.032684, "type": "electric_scooter", "fusion_lat": 0.0, "lat": 38.92545233333333, "name": "00e088de042dcd5980adc71e559fcdb5", "fusion_lon": 0.0, "bike_id": "00e088de042dcd5980adc71e559fcdb5", "is_disabled": 0, "is_reserved": 0}, {"rental_uris": {"ios": "https://dc.lft.to/lastmile_qr_scan", "android": "https://dc.lft.to/lastmile_qr_scan"}, "lon": -77.038899, "type": "electric_scooter", "fusion_lat": 0.0, "lat": 38.93262516666667, "name": "ec114d11e9be4c013a7de8a9cea8903a", "fusion_lon": 0.0, "bike_id": "ec114d11e9be4c013a7de8a9cea8903a", "is_disabled": 0, "is_reserved": 0}, {"rental_uris": {"ios": "https://dc.lft.to/lastmile_qr_scan", "android": "https://dc.lft.to/lastmile_qr_scan"}, "lon": -77.05825816666666, "type": "electric_scooter", "fusion_lat": 0.0, "lat": 38.93422116666667, "name": "a90c9398411eb5a8bc0a4294c9944a9a", "fusion_lon": 0.0, "bike_id": "a90c9398411eb5a8bc0a4294c9944a9a", "is_disabled": 0, "is_reserved": 0}, {"rental_uris": {"ios": "https://dc.lft.to/lastmile_qr_scan", "android": "https://dc.lft.to/lastmile_qr_scan"}, "lon": -77.03569283333333, "type": "electric_scooter", "fusion_lat": 0.0, "lat": 38.91817366666667, "name": "45dc8825a1b0c165231a5013d49f6fde", "fusion_lon": 0.0, "bike_id": "45dc8825a1b0c165231a5013d49f6fde", "is_disabled": 0, "is_reserved": 0}, {"rental_uris": {"ios": "https://dc.lft.to/lastmile_qr_scan", "android": "https://dc.lft.to/lastmile_qr_scan"}, "lon": -77.02220666666666, "type": "electric_scooter", "fusion_lat": 0.0, "lat": 38.892202166666664, "name": "ab4cfb8f8837d92cb9038accca576cb4", "fusion_lon": 0.0, "bike_id": "ab4cfb8f8837d92cb9038accca576cb4", "is_disabled": 0, "is_reserved": 0}, {"rental_uris": {"ios": "https://dc.lft.to/lastmile_qr_scan", "android": "https://dc.lft.to/lastmile_qr_scan"}, "lon": -77.05582216666667, "type": "electric_scooter", "fusion_lat": 0.0, "lat": 38.92790883333333, "name": "e019229c7fe240a9704a3f4904ae60b8", "fusion_lon": 0.0, "bike_id": "e019229c7fe240a9704a3f4904ae60b8", "is_disabled": 0, "is_reserved": 0}, {"rental_uris": {"ios": "https://dc.lft.to/lastmile_qr_scan", "android": "https://dc.lft.to/lastmile_qr_scan"}, "lon": -77.04728333333334, "type": "electric_bike", "fusion_lat": 0.0, "lat": 38.905859, "name": "520eefd872a398d69463c57f6fcce6f1", "fusion_lon": 0.0, "bike_id": "520eefd872a398d69463c57f6fcce6f1", "is_disabled": 0, "is_reserved": 0}, {"rental_uris": {"ios": "https://dc.lft.to/lastmile_qr_scan", "android": "https://dc.lft.to/lastmile_qr_scan"}, "lon": -77.02214366666666, "type": "electric_scooter", "fusion_lat": 0.0, "lat": 38.912681166666665, "name": "4a53b7b783752d0553ad26816479daa4", "fusion_lon": 0.0, "bike_id": "4a53b7b783752d0553ad26816479daa4", "is_disabled": 0, "is_reserved": 0}, {"rental_uris": {"ios": "https://dc.lft.to/lastmile_qr_scan", "android": "https://dc.lft.to/lastmile_qr_scan"}, "lon": -77.0427995, "type": "electric_scooter", "fusion_lat": 0.0, "lat": 38.90847866666667, "name": "10c7a1e9d03a14eec6cb4698d7d07377", "fusion_lon": 0.0, "bike_id": "10c7a1e9d03a14eec6cb4698d7d07377", "is_disabled": 0, "is_reserved": 0}, {"rental_uris": {"ios": "https://dc.lft.to/lastmile_qr_scan", "android": "https://dc.lft.to/lastmile_qr_scan"}, "lon": -77.0333555, "type": "electric_scooter", "fusion_lat": 0.0, "lat": 38.9192265, "name": "7cb1d54d7ed529c5e72a830e01474c6c", "fusion_lon": 0.0, "bike_id": "7cb1d54d7ed529c5e72a830e01474c6c", "is_disabled": 0, "is_reserved": 0}, {"rental_uris": {"ios": "https://dc.lft.to/lastmile_qr_scan", "android": "https://dc.lft.to/lastmile_qr_scan"}, "lon": -77.0952425, "type": "electric_bike", "fusion_lat": 0.0, "lat": 38.83814433333333, "name": "9b6444d3176c4c1a0ae95e531146f20e", "fusion_lon": 0.0, "bike_id": "9b6444d3176c4c1a0ae95e531146f20e", "is_disabled": 0, "is_reserved": 0}, {"rental_uris": {"ios": "https://dc.lft.to/lastmile_qr_scan", "android": "https://dc.lft.to/lastmile_qr_scan"}, "lon": -77.021347, "type": "electric_scooter", "fusion_lat": 0.0, "lat": 38.91563883333333, "name": "351db2f243d10df42354ef9274872d43", "fusion_lon": 0.0, "bike_id": "351db2f243d10df42354ef9274872d43", "is_disabled": 0, "is_reserved": 0}, {"rental_uris": {"ios": "https://dc.lft.to/lastmile_qr_scan", "android": "https://dc.lft.to/lastmile_qr_scan"}, "lon": -77.129035, "type": "electric_bike", "fusion_lat": 0.0, "lat": 38.8637955, "name": "025ad7c395abb6ffb2623bd011727cb2", "fusion_lon": 0.0, "bike_id": "025ad7c395abb6ffb2623bd011727cb2", "is_disabled": 0, "is_reserved": 0}, {"rental_uris": {"ios": "https://dc.lft.to/lastmile_qr_scan", "android": "https://dc.lft.to/lastmile_qr_scan"}, "lon": -77.03227616666666, "type": "electric_scooter", "fusion_lat": 0.0, "lat": 38.92664283333333, "name": "bb74727a63b20f9fc9edb2c041ac87dc", "fusion_lon": 0.0, "bike_id": "bb74727a63b20f9fc9edb2c041ac87dc", "is_disabled": 0, "is_reserved": 0}, {"rental_uris": {"ios": "https://dc.lft.to/lastmile_qr_scan", "android": "https://dc.lft.to/lastmile_qr_scan"}, "lon": -77.03268916666667, "type": "electric_scooter", "fusion_lat": 0.0, "lat": 38.9323555, "name": "7d2022024263a01ce159babe24e61e80", "fusion_lon": 0.0, "bike_id": "7d2022024263a01ce159babe24e61e80", "is_disabled": 0, "is_reserved": 0}, {"rental_uris": {"ios": "https://dc.lft.to/lastmile_qr_scan", "android": "https://dc.lft.to/lastmile_qr_scan"}, "lon": -77.0489365, "type": "electric_scooter", "fusion_lat": 0.0, "lat": 38.90307766666667, "name": "0ac80cb472d5d3e981caa97a156c9aed", "fusion_lon": 0.0, "bike_id": "0ac80cb472d5d3e981caa97a156c9aed", "is_disabled": 0, "is_reserved": 0}, {"rental_uris": {"ios": "https://dc.lft.to/lastmile_qr_scan", "android": "https://dc.lft.to/lastmile_qr_scan"}, "lon": -76.98960283333334, "type": "electric_scooter", "fusion_lat": 0.0, "lat": 38.9003055, "name": "727a0b5a97aee67dec163d26486d0806", "fusion_lon": 0.0, "bike_id": "727a0b5a97aee67dec163d26486d0806", "is_disabled": 0, "is_reserved": 0}, {"rental_uris": {"ios": "https://dc.lft.to/lastmile_qr_scan", "android": "https://dc.lft.to/lastmile_qr_scan"}, "lon": -77.05294633333334, "type": "electric_scooter", "fusion_lat": 0.0, "lat": 38.9279185, "name": "bfc7ab0fc7e56dbcd985b267e4dea557", "fusion_lon": 0.0, "bike_id": "bfc7ab0fc7e56dbcd985b267e4dea557", "is_disabled": 0, "is_reserved": 0}, {"rental_uris": {"ios": "https://dc.lft.to/lastmile_qr_scan", "android": "https://dc.lft.to/lastmile_qr_scan"}, "lon": -77.00944066666666, "type": "electric_scooter", "fusion_lat": 0.0, "lat": 38.87194516666667, "name": "592f9b4c86819c3ec427907d24cd3115", "fusion_lon": 0.0, "bike_id": "592f9b4c86819c3ec427907d24cd3115", "is_disabled": 0, "is_reserved": 0}, {"rental_uris": {"ios": "https://dc.lft.to/lastmile_qr_scan", "android": "https://dc.lft.to/lastmile_qr_scan"}, "lon": -76.97462116666667, "type": "electric_scooter", "fusion_lat": 0.0, "lat": 38.865407, "name": "74dd3f009f8f648df416e3f1151e0b09", "fusion_lon": 0.0, "bike_id": "74dd3f009f8f648df416e3f1151e0b09", "is_disabled": 0, "is_reserved": 0}, {"rental_uris": {"ios": "https://dc.lft.to/lastmile_qr_scan", "android": "https://dc.lft.to/lastmile_qr_scan"}, "lon": -77.03210683333333, "type": "electric_scooter", "fusion_lat": 0.0, "lat": 38.900232333333335, "name": "0c274d67733a41c7b908b2e4fa6ee422", "fusion_lon": 0.0, "bike_id": "0c274d67733a41c7b908b2e4fa6ee422", "is_disabled": 0, "is_reserved": 0}, {"rental_uris": {"ios": "https://dc.lft.to/lastmile_qr_scan", "android": "https://dc.lft.to/lastmile_qr_scan"}, "lon": -76.990643, "type": "electric_scooter", "fusion_lat": 0.0, "lat": 38.8636425, "name": "bc029b4a7d4146552bddd31c26d91554", "fusion_lon": 0.0, "bike_id": "bc029b4a7d4146552bddd31c26d91554", "is_disabled": 0, "is_reserved": 0}, {"rental_uris": {"ios": "https://dc.lft.to/lastmile_qr_scan", "android": "https://dc.lft.to/lastmile_qr_scan"}, "lon": -77.022294, "type": "electric_scooter", "fusion_lat": 0.0, "lat": 38.912692166666666, "name": "efda1c508e81c64048050bc05703c1e6", "fusion_lon": 0.0, "bike_id": "efda1c508e81c64048050bc05703c1e6", "is_disabled": 0, "is_reserved": 0}, {"rental_uris": {"ios": "https://dc.lft.to/lastmile_qr_scan", "android": "https://dc.lft.to/lastmile_qr_scan"}, "lon": -77.03400083333334, "type": "electric_scooter", "fusion_lat": 0.0, "lat": 38.921655, "name": "c1a691cf0a664c94f97786b7ec03c7c7", "fusion_lon": 0.0, "bike_id": "c1a691cf0a664c94f97786b7ec03c7c7", "is_disabled": 0, "is_reserved": 0}, {"rental_uris": {"ios": "https://dc.lft.to/lastmile_qr_scan", "android": "https://dc.lft.to/lastmile_qr_scan"}, "lon": -76.98793416666666, "type": "electric_bike", "fusion_lat": 0.0, "lat": 38.904209, "name": "30c07c10a530c3a1dc92fad277e40b93", "fusion_lon": 0.0, "bike_id": "30c07c10a530c3a1dc92fad277e40b93", "is_disabled": 0, "is_reserved": 0}, {"rental_uris": {"ios": "https://dc.lft.to/lastmile_qr_scan", "android": "https://dc.lft.to/lastmile_qr_scan"}, "lon": -77.01246966666666, "type": "electric_scooter", "fusion_lat": 0.0, "lat": 38.9171185, "name": "8a7057eb9b338975a442930ab11fffba", "fusion_lon": 0.0, "bike_id": "8a7057eb9b338975a442930ab11fffba", "is_disabled": 0, "is_reserved": 0}, {"rental_uris": {"ios": "https://dc.lft.to/lastmile_qr_scan", "android": "https://dc.lft.to/lastmile_qr_scan"}, "lon": -76.95472066666666, "type": "electric_bike", "fusion_lat": 0.0, "lat": 38.88642, "name": "9f4155f0c7cd783b31ae6dbdddd9ae5a", "fusion_lon": 0.0, "bike_id": "9f4155f0c7cd783b31ae6dbdddd9ae5a", "is_disabled": 0, "is_reserved": 0}, {"rental_uris": {"ios": "https://dc.lft.to/lastmile_qr_scan", "android": "https://dc.lft.to/lastmile_qr_scan"}, "lon": -77.0033015, "type": "electric_scooter", "fusion_lat": 0.0, "lat": 38.89727283333333, "name": "885f1a3423f957f2daf0df00104b1a2b", "fusion_lon": 0.0, "bike_id": "885f1a3423f957f2daf0df00104b1a2b", "is_disabled": 0, "is_reserved": 0}, {"rental_uris": {"ios": "https://dc.lft.to/lastmile_qr_scan", "android": "https://dc.lft.to/lastmile_qr_scan"}, "lon": -77.05982483333334, "type": "electric_scooter", "fusion_lat": 0.0, "lat": 38.93549983333333, "name": "4f0d3a0f9f1370a56dd0e978acd49883", "fusion_lon": 0.0, "bike_id": "4f0d3a0f9f1370a56dd0e978acd49883", "is_disabled": 0, "is_reserved": 0}, {"rental_uris": {"ios": "https://dc.lft.to/lastmile_qr_scan", "android": "https://dc.lft.to/lastmile_qr_scan"}, "lon": -77.01211016666667, "type": "electric_scooter", "fusion_lat": 0.0, "lat": 38.91503083333333, "name": "53ac1e1571e8991a47b5d72f947e7918", "fusion_lon": 0.0, "bike_id": "53ac1e1571e8991a47b5d72f947e7918", "is_disabled": 0, "is_reserved": 0}, {"rental_uris": {"ios": "https://dc.lft.to/lastmile_qr_scan", "android": "https://dc.lft.to/lastmile_qr_scan"}, "lon": -77.05208216666666, "type": "electric_scooter", "fusion_lat": 0.0, "lat": 38.89819516666667, "name": "b0c443464919fa9e8a38b0bf287d0d72", "fusion_lon": 0.0, "bike_id": "b0c443464919fa9e8a38b0bf287d0d72", "is_disabled": 0, "is_reserved": 0}, {"rental_uris": {"ios": "https://dc.lft.to/lastmile_qr_scan", "android": "https://dc.lft.to/lastmile_qr_scan"}, "lon": -77.1180295, "type": "electric_bike", "fusion_lat": 0.0, "lat": 38.898340166666664, "name": "838ef77e5b09eef66c6e71d96f3d353f", "fusion_lon": 0.0, "bike_id": "838ef77e5b09eef66c6e71d96f3d353f", "is_disabled": 0, "is_reserved": 0}, {"rental_uris": {"ios": "https://dc.lft.to/lastmile_qr_scan", "android": "https://dc.lft.to/lastmile_qr_scan"}, "lon": -77.02963633333333, "type": "electric_scooter", "fusion_lat": 0.0, "lat": 38.925687333333336, "name": "dd9d59ed3057504f06b1797b92a0f77e", "fusion_lon": 0.0, "bike_id": "dd9d59ed3057504f06b1797b92a0f77e", "is_disabled": 0, "is_reserved": 0}, {"rental_uris": {"ios": "https://dc.lft.to/lastmile_qr_scan", "android": "https://dc.lft.to/lastmile_qr_scan"}, "lon": -77.038558, "type": "electric_scooter", "fusion_lat": 0.0, "lat": 38.92649516666667, "name": "b3de7b951affe98afd0957b66aa09e01", "fusion_lon": 0.0, "bike_id": "b3de7b951affe98afd0957b66aa09e01", "is_disabled": 0, "is_reserved": 0}, {"rental_uris": {"ios": "https://dc.lft.to/lastmile_qr_scan", "android": "https://dc.lft.to/lastmile_qr_scan"}, "lon": -77.01514033333333, "type": "electric_scooter", "fusion_lat": 0.0, "lat": 38.88740683333333, "name": "7496fcd0bc2f1a873bbc01fd75306cbc", "fusion_lon": 0.0, "bike_id": "7496fcd0bc2f1a873bbc01fd75306cbc", "is_disabled": 0, "is_reserved": 0}, {"rental_uris": {"ios": "https://dc.lft.to/lastmile_qr_scan", "android": "https://dc.lft.to/lastmile_qr_scan"}, "lon": -77.027079, "type": "electric_scooter", "fusion_lat": 0.0, "lat": 38.91818166666667, "name": "4bd8a9583218295bd00ad2bc73cc7782", "fusion_lon": 0.0, "bike_id": "4bd8a9583218295bd00ad2bc73cc7782", "is_disabled": 0, "is_reserved": 0}, {"rental_uris": {"ios": "https://dc.lft.to/lastmile_qr_scan", "android": "https://dc.lft.to/lastmile_qr_scan"}, "lon": -77.04620516666667, "type": "electric_scooter", "fusion_lat": 0.0, "lat": 38.91907416666667, "name": "a40da30b647289ba76019477562ec459", "fusion_lon": 0.0, "bike_id": "a40da30b647289ba76019477562ec459", "is_disabled": 0, "is_reserved": 0}, {"rental_uris": {"ios": "https://dc.lft.to/lastmile_qr_scan", "android": "https://dc.lft.to/lastmile_qr_scan"}, "lon": -77.0263875, "type": "electric_scooter", "fusion_lat": 0.0, "lat": 38.896302, "name": "797d6d358a2fd908f79411f715183df1", "fusion_lon": 0.0, "bike_id": "797d6d358a2fd908f79411f715183df1", "is_disabled": 0, "is_reserved": 0}, {"rental_uris": {"ios": "https://dc.lft.to/lastmile_qr_scan", "android": "https://dc.lft.to/lastmile_qr_scan"}, "lon": -77.03466416666667, "type": "electric_scooter", "fusion_lat": 0.0, "lat": 38.91713133333333, "name": "0b681dd9dc35519c76620d145d66585c", "fusion_lon": 0.0, "bike_id": "0b681dd9dc35519c76620d145d66585c", "is_disabled": 0, "is_reserved": 0}, {"rental_uris": {"ios": "https://dc.lft.to/lastmile_qr_scan", "android": "https://dc.lft.to/lastmile_qr_scan"}, "lon": -77.04488766666667, "type": "electric_scooter", "fusion_lat": 0.0, "lat": 38.91871716666667, "name": "ed01b5c39e8ec0d0fa36eddcedbb2858", "fusion_lon": 0.0, "bike_id": "ed01b5c39e8ec0d0fa36eddcedbb2858", "is_disabled": 0, "is_reserved": 0}, {"rental_uris": {"ios": "https://dc.lft.to/lastmile_qr_scan", "android": "https://dc.lft.to/lastmile_qr_scan"}, "lon": -76.9989315, "type": "electric_scooter", "fusion_lat": 0.0, "lat": 38.90741, "name": "89d667bb08f5ac02bc725916c6074a2a", "fusion_lon": 0.0, "bike_id": "89d667bb08f5ac02bc725916c6074a2a", "is_disabled": 0, "is_reserved": 0}, {"rental_uris": {"ios": "https://dc.lft.to/lastmile_qr_scan", "android": "https://dc.lft.to/lastmile_qr_scan"}, "lon": -77.03842216666666, "type": "electric_scooter", "fusion_lat": 0.0, "lat": 38.926449833333336, "name": "82cf398aedb8d353983b0bc8c8cba858", "fusion_lon": 0.0, "bike_id": "82cf398aedb8d353983b0bc8c8cba858", "is_disabled": 0, "is_reserved": 0}, {"rental_uris": {"ios": "https://dc.lft.to/lastmile_qr_scan", "android": "https://dc.lft.to/lastmile_qr_scan"}, "lon": -77.015264, "type": "electric_scooter", "fusion_lat": 0.0, "lat": 38.901487, "name": "7bf95faca59113bfc0eed35a0ba89f60", "fusion_lon": 0.0, "bike_id": "7bf95faca59113bfc0eed35a0ba89f60", "is_disabled": 0, "is_reserved": 0}, {"rental_uris": {"ios": "https://dc.lft.to/lastmile_qr_scan", "android": "https://dc.lft.to/lastmile_qr_scan"}, "lon": -76.97209383333333, "type": "electric_scooter", "fusion_lat": 0.0, "lat": 38.8549605, "name": "7a1d7ca0ffd1cf74eb83b10b9fa2dcff", "fusion_lon": 0.0, "bike_id": "7a1d7ca0ffd1cf74eb83b10b9fa2dcff", "is_disabled": 0, "is_reserved": 0}, {"rental_uris": {"ios": "https://dc.lft.to/lastmile_qr_scan", "android": "https://dc.lft.to/lastmile_qr_scan"}, "lon": -77.03838733333333, "type": "electric_scooter", "fusion_lat": 0.0, "lat": 38.90761033333333, "name": "4704fb2db15f65d2dfac2baf60b2e606", "fusion_lon": 0.0, "bike_id": "4704fb2db15f65d2dfac2baf60b2e606", "is_disabled": 0, "is_reserved": 0}, {"rental_uris": {"ios": "https://dc.lft.to/lastmile_qr_scan", "android": "https://dc.lft.to/lastmile_qr_scan"}, "lon": -77.03937016666667, "type": "electric_scooter", "fusion_lat": 0.0, "lat": 38.899144166666666, "name": "5762dc585f015c1d5ab08e3a1b4f20f4", "fusion_lon": 0.0, "bike_id": "5762dc585f015c1d5ab08e3a1b4f20f4", "is_disabled": 0, "is_reserved": 0}, {"rental_uris": {"ios": "https://dc.lft.to/lastmile_qr_scan", "android": "https://dc.lft.to/lastmile_qr_scan"}, "lon": -77.0433885, "type": "electric_scooter", "fusion_lat": 0.0, "lat": 38.89594133333333, "name": "b257610a253152a22d3e935f70b9ce92", "fusion_lon": 0.0, "bike_id": "b257610a253152a22d3e935f70b9ce92", "is_disabled": 0, "is_reserved": 0}, {"rental_uris": {"ios": "https://dc.lft.to/lastmile_qr_scan", "android": "https://dc.lft.to/lastmile_qr_scan"}, "lon": -77.04682616666666, "type": "electric_scooter", "fusion_lat": 0.0, "lat": 38.90379333333333, "name": "cad62b7392413a395969096984b86ecd", "fusion_lon": 0.0, "bike_id": "cad62b7392413a395969096984b86ecd", "is_disabled": 0, "is_reserved": 0}, {"rental_uris": {"ios": "https://dc.lft.to/lastmile_qr_scan", "android": "https://dc.lft.to/lastmile_qr_scan"}, "lon": -76.9463105, "type": "electric_bike", "fusion_lat": 0.0, "lat": 38.94626133333333, "name": "d339d94e84e13665b0e5a544657b27bc", "fusion_lon": 0.0, "bike_id": "d339d94e84e13665b0e5a544657b27bc", "is_disabled": 0, "is_reserved": 0}, {"rental_uris": {"ios": "https://dc.lft.to/lastmile_qr_scan", "android": "https://dc.lft.to/lastmile_qr_scan"}, "lon": -77.03206516666667, "type": "electric_scooter", "fusion_lat": 0.0, "lat": 38.907746833333334, "name": "134c70796855b9b3627ecd38c70b6c86", "fusion_lon": 0.0, "bike_id": "134c70796855b9b3627ecd38c70b6c86", "is_disabled": 0, "is_reserved": 0}, {"rental_uris": {"ios": "https://dc.lft.to/lastmile_qr_scan", "android": "https://dc.lft.to/lastmile_qr_scan"}, "lon": -77.03635083333333, "type": "electric_scooter", "fusion_lat": 0.0, "lat": 38.9031525, "name": "3cfbe9a9e310f34ff6d4b73b7e5e23c3", "fusion_lon": 0.0, "bike_id": "3cfbe9a9e310f34ff6d4b73b7e5e23c3", "is_disabled": 0, "is_reserved": 0}, {"rental_uris": {"ios": "https://dc.lft.to/lastmile_qr_scan", "android": "https://dc.lft.to/lastmile_qr_scan"}, "lon": -76.98648116666666, "type": "electric_scooter", "fusion_lat": 0.0, "lat": 38.9001745, "name": "48db43668d22c8058ae7a6f2f63652e2", "fusion_lon": 0.0, "bike_id": "48db43668d22c8058ae7a6f2f63652e2", "is_disabled": 0, "is_reserved": 0}, {"rental_uris": {"ios": "https://dc.lft.to/lastmile_qr_scan", "android": "https://dc.lft.to/lastmile_qr_scan"}, "lon": -77.04372666666667, "type": "electric_scooter", "fusion_lat": 0.0, "lat": 38.91040983333333, "name": "d06b85243d0b2f2a49424d15cbd25153", "fusion_lon": 0.0, "bike_id": "d06b85243d0b2f2a49424d15cbd25153", "is_disabled": 0, "is_reserved": 0}, {"rental_uris": {"ios": "https://dc.lft.to/lastmile_qr_scan", "android": "https://dc.lft.to/lastmile_qr_scan"}, "lon": -77.05502816666667, "type": "electric_scooter", "fusion_lat": 0.0, "lat": 38.92972733333333, "name": "1018a974e5c1313665445911dc9456ca", "fusion_lon": 0.0, "bike_id": "1018a974e5c1313665445911dc9456ca", "is_disabled": 0, "is_reserved": 0}, {"rental_uris": {"ios": "https://dc.lft.to/lastmile_qr_scan", "android": "https://dc.lft.to/lastmile_qr_scan"}, "lon": -77.04191266666666, "type": "electric_scooter", "fusion_lat": 0.0, "lat": 38.92205633333333, "name": "0fd630fbff5d9e71c8dafa9357f60278", "fusion_lon": 0.0, "bike_id": "0fd630fbff5d9e71c8dafa9357f60278", "is_disabled": 0, "is_reserved": 0}, {"rental_uris": {"ios": "https://dc.lft.to/lastmile_qr_scan", "android": "https://dc.lft.to/lastmile_qr_scan"}, "lon": -77.03173516666666, "type": "electric_scooter", "fusion_lat": 0.0, "lat": 38.91118083333333, "name": "9bab3a58556b2ba639abbbe6c118985e", "fusion_lon": 0.0, "bike_id": "9bab3a58556b2ba639abbbe6c118985e", "is_disabled": 0, "is_reserved": 0}, {"rental_uris": {"ios": "https://dc.lft.to/lastmile_qr_scan", "android": "https://dc.lft.to/lastmile_qr_scan"}, "lon": -76.99506383333333, "type": "electric_scooter", "fusion_lat": 0.0, "lat": 38.880334500000004, "name": "cca1e8460b8207f668bfe26e010c4c74", "fusion_lon": 0.0, "bike_id": "cca1e8460b8207f668bfe26e010c4c74", "is_disabled": 0, "is_reserved": 0}, {"rental_uris": {"ios": "https://dc.lft.to/lastmile_qr_scan", "android": "https://dc.lft.to/lastmile_qr_scan"}, "lon": -77.02368883333334, "type": "electric_scooter", "fusion_lat": 0.0, "lat": 38.935578, "name": "351c42f2ef9332d1305b9e47fe69eee8", "fusion_lon": 0.0, "bike_id": "351c42f2ef9332d1305b9e47fe69eee8", "is_disabled": 0, "is_reserved": 0}, {"rental_uris": {"ios": "https://dc.lft.to/lastmile_qr_scan", "android": "https://dc.lft.to/lastmile_qr_scan"}, "lon": -76.99615, "type": "electric_scooter", "fusion_lat": 0.0, "lat": 38.897528333333334, "name": "573d186d061c0c9e189130610e82beda", "fusion_lon": 0.0, "bike_id": "573d186d061c0c9e189130610e82beda", "is_disabled": 0, "is_reserved": 0}, {"rental_uris": {"ios": "https://dc.lft.to/lastmile_qr_scan", "android": "https://dc.lft.to/lastmile_qr_scan"}, "lon": -76.932425, "type": "electric_bike", "fusion_lat": 0.0, "lat": 38.88281766666667, "name": "b17aaa5e4df68df2399d29107cab44af", "fusion_lon": 0.0, "bike_id": "b17aaa5e4df68df2399d29107cab44af", "is_disabled": 0, "is_reserved": 0}, {"rental_uris": {"ios": "https://dc.lft.to/lastmile_qr_scan", "android": "https://dc.lft.to/lastmile_qr_scan"}, "lon": -77.03210516666667, "type": "electric_scooter", "fusion_lat": 0.0, "lat": 38.920678, "name": "eebe2aecaacd51f031cbe4f8d0c85dd9", "fusion_lon": 0.0, "bike_id": "eebe2aecaacd51f031cbe4f8d0c85dd9", "is_disabled": 0, "is_reserved": 0}, {"rental_uris": {"ios": "https://dc.lft.to/lastmile_qr_scan", "android": "https://dc.lft.to/lastmile_qr_scan"}, "lon": -77.070951, "type": "electric_scooter", "fusion_lat": 0.0, "lat": 38.93368066666667, "name": "89ba19369d9beaa84f8140ee06e0419c", "fusion_lon": 0.0, "bike_id": "89ba19369d9beaa84f8140ee06e0419c", "is_disabled": 0, "is_reserved": 0}, {"rental_uris": {"ios": "https://dc.lft.to/lastmile_qr_scan", "android": "https://dc.lft.to/lastmile_qr_scan"}, "lon": -77.0504745, "type": "electric_scooter", "fusion_lat": 0.0, "lat": 38.9236165, "name": "1d77afbc5c822606f4ac246e9bae39f7", "fusion_lon": 0.0, "bike_id": "1d77afbc5c822606f4ac246e9bae39f7", "is_disabled": 0, "is_reserved": 0}, {"rental_uris": {"ios": "https://dc.lft.to/lastmile_qr_scan", "android": "https://dc.lft.to/lastmile_qr_scan"}, "lon": -77.0520615, "type": "electric_scooter", "fusion_lat": 0.0, "lat": 38.92444033333334, "name": "c5578db72473271bb2f936d214e16beb", "fusion_lon": 0.0, "bike_id": "c5578db72473271bb2f936d214e16beb", "is_disabled": 0, "is_reserved": 0}, {"rental_uris": {"ios": "https://dc.lft.to/lastmile_qr_scan", "android": "https://dc.lft.to/lastmile_qr_scan"}, "lon": -77.027612, "type": "electric_scooter", "fusion_lat": 0.0, "lat": 38.9715525, "name": "3d42a471c30cea849c46ac9f89e54d57", "fusion_lon": 0.0, "bike_id": "3d42a471c30cea849c46ac9f89e54d57", "is_disabled": 0, "is_reserved": 0}, {"rental_uris": {"ios": "https://dc.lft.to/lastmile_qr_scan", "android": "https://dc.lft.to/lastmile_qr_scan"}, "lon": -77.05102083333334, "type": "electric_scooter", "fusion_lat": 0.0, "lat": 38.90536866666667, "name": "4cfc9ff6ca11a56e1b95586f7ca7a6d2", "fusion_lon": 0.0, "bike_id": "4cfc9ff6ca11a56e1b95586f7ca7a6d2", "is_disabled": 0, "is_reserved": 0}, {"rental_uris": {"ios": "https://dc.lft.to/lastmile_qr_scan", "android": "https://dc.lft.to/lastmile_qr_scan"}, "lon": -76.9986635, "type": "electric_scooter", "fusion_lat": 0.0, "lat": 38.9002815, "name": "9d6d93e90a502eed22c96e136f46cf66", "fusion_lon": 0.0, "bike_id": "9d6d93e90a502eed22c96e136f46cf66", "is_disabled": 0, "is_reserved": 0}, {"rental_uris": {"ios": "https://dc.lft.to/lastmile_qr_scan", "android": "https://dc.lft.to/lastmile_qr_scan"}, "lon": -77.01268566666667, "type": "electric_scooter", "fusion_lat": 0.0, "lat": 38.91544733333333, "name": "7229a09058f5ec7ce2fe0c403f55be7e", "fusion_lon": 0.0, "bike_id": "7229a09058f5ec7ce2fe0c403f55be7e", "is_disabled": 0, "is_reserved": 0}, {"rental_uris": {"ios": "https://dc.lft.to/lastmile_qr_scan", "android": "https://dc.lft.to/lastmile_qr_scan"}, "lon": -77.006422, "type": "electric_scooter", "fusion_lat": 0.0, "lat": 38.87636783333333, "name": "ce3f16d19c5f3847706327c933dd5bec", "fusion_lon": 0.0, "bike_id": "ce3f16d19c5f3847706327c933dd5bec", "is_disabled": 0, "is_reserved": 0}, {"rental_uris": {"ios": "https://dc.lft.to/lastmile_qr_scan", "android": "https://dc.lft.to/lastmile_qr_scan"}, "lon": -76.9808795, "type": "electric_bike", "fusion_lat": 0.0, "lat": 38.90294866666667, "name": "b44b5903bc17a4c937d2e446bf0f1902", "fusion_lon": 0.0, "bike_id": "b44b5903bc17a4c937d2e446bf0f1902", "is_disabled": 0, "is_reserved": 0}, {"rental_uris": {"ios": "https://dc.lft.to/lastmile_qr_scan", "android": "https://dc.lft.to/lastmile_qr_scan"}, "lon": -77.02463916666666, "type": "electric_scooter", "fusion_lat": 0.0, "lat": 38.938673666666666, "name": "aae3570fc1025d05ca2accb32c878982", "fusion_lon": 0.0, "bike_id": "aae3570fc1025d05ca2accb32c878982", "is_disabled": 0, "is_reserved": 0}, {"rental_uris": {"ios": "https://dc.lft.to/lastmile_qr_scan", "android": "https://dc.lft.to/lastmile_qr_scan"}, "lon": -77.07904766666667, "type": "electric_bike", "fusion_lat": 0.0, "lat": 38.83934, "name": "0a6f020b5b57863d27ff7bcba88a0607", "fusion_lon": 0.0, "bike_id": "0a6f020b5b57863d27ff7bcba88a0607", "is_disabled": 0, "is_reserved": 0}, {"rental_uris": {"ios": "https://dc.lft.to/lastmile_qr_scan", "android": "https://dc.lft.to/lastmile_qr_scan"}, "lon": -77.0022205, "type": "electric_scooter", "fusion_lat": 0.0, "lat": 38.91195583333333, "name": "3ccc7316866d27fd558f782c6a382683", "fusion_lon": 0.0, "bike_id": "3ccc7316866d27fd558f782c6a382683", "is_disabled": 0, "is_reserved": 0}, {"rental_uris": {"ios": "https://dc.lft.to/lastmile_qr_scan", "android": "https://dc.lft.to/lastmile_qr_scan"}, "lon": -76.93621016666667, "type": "electric_bike", "fusion_lat": 0.0, "lat": 38.970556, "name": "a9f7584c68c3d3ac087a94f4bb5e9bc6", "fusion_lon": 0.0, "bike_id": "a9f7584c68c3d3ac087a94f4bb5e9bc6", "is_disabled": 0, "is_reserved": 0}, {"rental_uris": {"ios": "https://dc.lft.to/lastmile_qr_scan", "android": "https://dc.lft.to/lastmile_qr_scan"}, "lon": -77.02760633333334, "type": "electric_scooter", "fusion_lat": 0.0, "lat": 38.923151, "name": "68d70be3596c8812edb854eb07e2fd3e", "fusion_lon": 0.0, "bike_id": "68d70be3596c8812edb854eb07e2fd3e", "is_disabled": 0, "is_reserved": 0}, {"rental_uris": {"ios": "https://dc.lft.to/lastmile_qr_scan", "android": "https://dc.lft.to/lastmile_qr_scan"}, "lon": -77.02845316666667, "type": "electric_scooter", "fusion_lat": 0.0, "lat": 38.9257085, "name": "510a7587b06590bde017eccc2a67426d", "fusion_lon": 0.0, "bike_id": "510a7587b06590bde017eccc2a67426d", "is_disabled": 0, "is_reserved": 0}, {"rental_uris": {"ios": "https://dc.lft.to/lastmile_qr_scan", "android": "https://dc.lft.to/lastmile_qr_scan"}, "lon": -76.96508866666667, "type": "electric_scooter", "fusion_lat": 0.0, "lat": 38.876467833333336, "name": "fd42bc2a3636c922db6807bce3000cce", "fusion_lon": 0.0, "bike_id": "fd42bc2a3636c922db6807bce3000cce", "is_disabled": 0, "is_reserved": 0}, {"rental_uris": {"ios": "https://dc.lft.to/lastmile_qr_scan", "android": "https://dc.lft.to/lastmile_qr_scan"}, "lon": -77.04871783333333, "type": "electric_scooter", "fusion_lat": 0.0, "lat": 38.9006865, "name": "e9faf0be24ee5b5fac91e3353848012f", "fusion_lon": 0.0, "bike_id": "e9faf0be24ee5b5fac91e3353848012f", "is_disabled": 0, "is_reserved": 0}, {"rental_uris": {"ios": "https://dc.lft.to/lastmile_qr_scan", "android": "https://dc.lft.to/lastmile_qr_scan"}, "lon": -77.028513, "type": "electric_scooter", "fusion_lat": 0.0, "lat": 38.950906833333335, "name": "860d9c54f5ba543e0c3764d4691d05d1", "fusion_lon": 0.0, "bike_id": "860d9c54f5ba543e0c3764d4691d05d1", "is_disabled": 0, "is_reserved": 0}, {"rental_uris": {"ios": "https://dc.lft.to/lastmile_qr_scan", "android": "https://dc.lft.to/lastmile_qr_scan"}, "lon": -77.0559295, "type": "electric_scooter", "fusion_lat": 0.0, "lat": 38.905189166666666, "name": "f2868eac2a77a911968dceb31484d96c", "fusion_lon": 0.0, "bike_id": "f2868eac2a77a911968dceb31484d96c", "is_disabled": 0, "is_reserved": 0}, {"rental_uris": {"ios": "https://dc.lft.to/lastmile_qr_scan", "android": "https://dc.lft.to/lastmile_qr_scan"}, "lon": -77.00432833333333, "type": "electric_scooter", "fusion_lat": 0.0, "lat": 38.903976666666665, "name": "85d4c955af5589ee0ac714761677e6cf", "fusion_lon": 0.0, "bike_id": "85d4c955af5589ee0ac714761677e6cf", "is_disabled": 0, "is_reserved": 0}, {"rental_uris": {"ios": "https://dc.lft.to/lastmile_qr_scan", "android": "https://dc.lft.to/lastmile_qr_scan"}, "lon": -76.93833583333333, "type": "electric_scooter", "fusion_lat": 0.0, "lat": 38.897605666666664, "name": "d5ef74c5d971b11132af8575ee25e62d", "fusion_lon": 0.0, "bike_id": "d5ef74c5d971b11132af8575ee25e62d", "is_disabled": 0, "is_reserved": 0}, {"rental_uris": {"ios": "https://dc.lft.to/lastmile_qr_scan", "android": "https://dc.lft.to/lastmile_qr_scan"}, "lon": -77.03512816666667, "type": "electric_scooter", "fusion_lat": 0.0, "lat": 38.921477333333335, "name": "1d34b95696c1723db665ffbe33987373", "fusion_lon": 0.0, "bike_id": "1d34b95696c1723db665ffbe33987373", "is_disabled": 0, "is_reserved": 0}, {"rental_uris": {"ios": "https://dc.lft.to/lastmile_qr_scan", "android": "https://dc.lft.to/lastmile_qr_scan"}, "lon": -77.03013433333334, "type": "electric_scooter", "fusion_lat": 0.0, "lat": 38.89764816666667, "name": "7ec3c2ae5a2facc051a70f8ba9c0e0f7", "fusion_lon": 0.0, "bike_id": "7ec3c2ae5a2facc051a70f8ba9c0e0f7", "is_disabled": 0, "is_reserved": 0}, {"rental_uris": {"ios": "https://dc.lft.to/lastmile_qr_scan", "android": "https://dc.lft.to/lastmile_qr_scan"}, "lon": -77.043591, "type": "electric_scooter", "fusion_lat": 0.0, "lat": 38.92675766666667, "name": "fb88224b1b0e1b48bd68aab5ced66dc6", "fusion_lon": 0.0, "bike_id": "fb88224b1b0e1b48bd68aab5ced66dc6", "is_disabled": 0, "is_reserved": 0}, {"rental_uris": {"ios": "https://dc.lft.to/lastmile_qr_scan", "android": "https://dc.lft.to/lastmile_qr_scan"}, "lon": -77.027449, "type": "electric_scooter", "fusion_lat": 0.0, "lat": 38.9277195, "name": "9fecfa86e79808da896b9354a23c578c", "fusion_lon": 0.0, "bike_id": "9fecfa86e79808da896b9354a23c578c", "is_disabled": 0, "is_reserved": 0}, {"rental_uris": {"ios": "https://dc.lft.to/lastmile_qr_scan", "android": "https://dc.lft.to/lastmile_qr_scan"}, "lon": -76.99962033333334, "type": "electric_scooter", "fusion_lat": 0.0, "lat": 38.90869516666667, "name": "2bc24e06ae19dd6f820d5cbd3676b82f", "fusion_lon": 0.0, "bike_id": "2bc24e06ae19dd6f820d5cbd3676b82f", "is_disabled": 0, "is_reserved": 0}, {"rental_uris": {"ios": "https://dc.lft.to/lastmile_qr_scan", "android": "https://dc.lft.to/lastmile_qr_scan"}, "lon": -77.03072483333334, "type": "electric_scooter", "fusion_lat": 0.0, "lat": 38.92381666666667, "name": "3674ad9d397df12d9147a1d573cf6699", "fusion_lon": 0.0, "bike_id": "3674ad9d397df12d9147a1d573cf6699", "is_disabled": 0, "is_reserved": 0}, {"rental_uris": {"ios": "https://dc.lft.to/lastmile_qr_scan", "android": "https://dc.lft.to/lastmile_qr_scan"}, "lon": -77.01532583333334, "type": "electric_scooter", "fusion_lat": 0.0, "lat": 38.88746416666667, "name": "9879a4d9215c3a69cd77f043780297f4", "fusion_lon": 0.0, "bike_id": "9879a4d9215c3a69cd77f043780297f4", "is_disabled": 0, "is_reserved": 0}, {"rental_uris": {"ios": "https://dc.lft.to/lastmile_qr_scan", "android": "https://dc.lft.to/lastmile_qr_scan"}, "lon": -77.04127683333333, "type": "electric_scooter", "fusion_lat": 0.0, "lat": 38.92433033333333, "name": "967d57266c8ccd76218c6cb7ab0f7e67", "fusion_lon": 0.0, "bike_id": "967d57266c8ccd76218c6cb7ab0f7e67", "is_disabled": 0, "is_reserved": 0}, {"rental_uris": {"ios": "https://dc.lft.to/lastmile_qr_scan", "android": "https://dc.lft.to/lastmile_qr_scan"}, "lon": -77.01392933333334, "type": "electric_scooter", "fusion_lat": 0.0, "lat": 38.91944866666667, "name": "39e9acb256d1603b2c3b96ea7078f8cf", "fusion_lon": 0.0, "bike_id": "39e9acb256d1603b2c3b96ea7078f8cf", "is_disabled": 0, "is_reserved": 0}, {"rental_uris": {"ios": "https://dc.lft.to/lastmile_qr_scan", "android": "https://dc.lft.to/lastmile_qr_scan"}, "lon": -77.03321566666666, "type": "electric_scooter", "fusion_lat": 0.0, "lat": 38.9198705, "name": "df864f47ded1a75d0448142aac5dcf49", "fusion_lon": 0.0, "bike_id": "df864f47ded1a75d0448142aac5dcf49", "is_disabled": 0, "is_reserved": 0}, {"rental_uris": {"ios": "https://dc.lft.to/lastmile_qr_scan", "android": "https://dc.lft.to/lastmile_qr_scan"}, "lon": -77.033284, "type": "electric_scooter", "fusion_lat": 0.0, "lat": 38.9199245, "name": "3e930209136c2d8fa04cb118c385eb0b", "fusion_lon": 0.0, "bike_id": "3e930209136c2d8fa04cb118c385eb0b", "is_disabled": 0, "is_reserved": 0}, {"rental_uris": {"ios": "https://dc.lft.to/lastmile_qr_scan", "android": "https://dc.lft.to/lastmile_qr_scan"}, "lon": -77.03070816666667, "type": "electric_scooter", "fusion_lat": 0.0, "lat": 38.89475483333333, "name": "a8613642b6c1d051ce47ea5bd51c22e0", "fusion_lon": 0.0, "bike_id": "a8613642b6c1d051ce47ea5bd51c22e0", "is_disabled": 0, "is_reserved": 0}, {"rental_uris": {"ios": "https://dc.lft.to/lastmile_qr_scan", "android": "https://dc.lft.to/lastmile_qr_scan"}, "lon": -77.026958, "type": "electric_scooter", "fusion_lat": 0.0, "lat": 38.9068605, "name": "c7a6ebc269604dcf69977f7d80be7328", "fusion_lon": 0.0, "bike_id": "c7a6ebc269604dcf69977f7d80be7328", "is_disabled": 0, "is_reserved": 0}, {"rental_uris": {"ios": "https://dc.lft.to/lastmile_qr_scan", "android": "https://dc.lft.to/lastmile_qr_scan"}, "lon": -77.10508133333333, "type": "electric_bike", "fusion_lat": 0.0, "lat": 38.9284895, "name": "dd6a3c91f0a1b80a8eb483643fae1f7f", "fusion_lon": 0.0, "bike_id": "dd6a3c91f0a1b80a8eb483643fae1f7f", "is_disabled": 0, "is_reserved": 0}, {"rental_uris": {"ios": "https://dc.lft.to/lastmile_qr_scan", "android": "https://dc.lft.to/lastmile_qr_scan"}, "lon": -76.96719533333334, "type": "electric_scooter", "fusion_lat": 0.0, "lat": 38.85077116666667, "name": "a96ec0c0605fa809c6c3adefb68629f9", "fusion_lon": 0.0, "bike_id": "a96ec0c0605fa809c6c3adefb68629f9", "is_disabled": 0, "is_reserved": 0}, {"rental_uris": {"ios": "https://dc.lft.to/lastmile_qr_scan", "android": "https://dc.lft.to/lastmile_qr_scan"}, "lon": -77.03649633333333, "type": "electric_scooter", "fusion_lat": 0.0, "lat": 38.906784333333334, "name": "d63d15d3bbdd5f7e0e59594cd94c4b5c", "fusion_lon": 0.0, "bike_id": "d63d15d3bbdd5f7e0e59594cd94c4b5c", "is_disabled": 0, "is_reserved": 0}, {"rental_uris": {"ios": "https://dc.lft.to/lastmile_qr_scan", "android": "https://dc.lft.to/lastmile_qr_scan"}, "lon": -77.05508216666666, "type": "electric_scooter", "fusion_lat": 0.0, "lat": 38.929775166666666, "name": "57676a9ee39178a1467f7be7f4e4e325", "fusion_lon": 0.0, "bike_id": "57676a9ee39178a1467f7be7f4e4e325", "is_disabled": 0, "is_reserved": 0}, {"rental_uris": {"ios": "https://dc.lft.to/lastmile_qr_scan", "android": "https://dc.lft.to/lastmile_qr_scan"}, "lon": -77.02527233333333, "type": "electric_scooter", "fusion_lat": 0.0, "lat": 38.920158666666666, "name": "8680ea4bb21f5fa2af93871bdbf3ea0c", "fusion_lon": 0.0, "bike_id": "8680ea4bb21f5fa2af93871bdbf3ea0c", "is_disabled": 0, "is_reserved": 0}, {"rental_uris": {"ios": "https://dc.lft.to/lastmile_qr_scan", "android": "https://dc.lft.to/lastmile_qr_scan"}, "lon": -77.0737355, "type": "electric_bike", "fusion_lat": 0.0, "lat": 38.96174633333333, "name": "ae58456eed3078233bcf1e82231c8cf4", "fusion_lon": 0.0, "bike_id": "ae58456eed3078233bcf1e82231c8cf4", "is_disabled": 0, "is_reserved": 0}, {"rental_uris": {"ios": "https://dc.lft.to/lastmile_qr_scan", "android": "https://dc.lft.to/lastmile_qr_scan"}, "lon": -77.00974383333333, "type": "electric_scooter", "fusion_lat": 0.0, "lat": 38.914158, "name": "ad0ef22d95fae20726282b0c54389832", "fusion_lon": 0.0, "bike_id": "ad0ef22d95fae20726282b0c54389832", "is_disabled": 0, "is_reserved": 0}, {"rental_uris": {"ios": "https://dc.lft.to/lastmile_qr_scan", "android": "https://dc.lft.to/lastmile_qr_scan"}, "lon": -77.04674866666667, "type": "electric_scooter", "fusion_lat": 0.0, "lat": 38.89235083333333, "name": "402069a2bb1ca3c51ec9c157e390aa2d", "fusion_lon": 0.0, "bike_id": "402069a2bb1ca3c51ec9c157e390aa2d", "is_disabled": 0, "is_reserved": 0}, {"rental_uris": {"ios": "https://dc.lft.to/lastmile_qr_scan", "android": "https://dc.lft.to/lastmile_qr_scan"}, "lon": -77.16241583333333, "type": "electric_bike", "fusion_lat": 0.0, "lat": 38.88655516666667, "name": "dd93e77bf872f07c9aad9cee7278bc40", "fusion_lon": 0.0, "bike_id": "dd93e77bf872f07c9aad9cee7278bc40", "is_disabled": 0, "is_reserved": 0}, {"rental_uris": {"ios": "https://dc.lft.to/lastmile_qr_scan", "android": "https://dc.lft.to/lastmile_qr_scan"}, "lon": -76.948649, "type": "electric_scooter", "fusion_lat": 0.0, "lat": 38.895951833333335, "name": "fd090646b5dd76fae291acd1ab17353b", "fusion_lon": 0.0, "bike_id": "fd090646b5dd76fae291acd1ab17353b", "is_disabled": 0, "is_reserved": 0}, {"rental_uris": {"ios": "https://dc.lft.to/lastmile_qr_scan", "android": "https://dc.lft.to/lastmile_qr_scan"}, "lon": -77.03292983333333, "type": "electric_scooter", "fusion_lat": 0.0, "lat": 38.90969333333334, "name": "f48559592c3cb74b41178898b24b73f1", "fusion_lon": 0.0, "bike_id": "f48559592c3cb74b41178898b24b73f1", "is_disabled": 0, "is_reserved": 0}, {"rental_uris": {"ios": "https://dc.lft.to/lastmile_qr_scan", "android": "https://dc.lft.to/lastmile_qr_scan"}, "lon": -77.01071216666666, "type": "electric_scooter", "fusion_lat": 0.0, "lat": 38.87477, "name": "1d7b45f413ef84fc0535760f5e5c0497", "fusion_lon": 0.0, "bike_id": "1d7b45f413ef84fc0535760f5e5c0497", "is_disabled": 0, "is_reserved": 0}, {"rental_uris": {"ios": "https://dc.lft.to/lastmile_qr_scan", "android": "https://dc.lft.to/lastmile_qr_scan"}, "lon": -77.027984, "type": "electric_scooter", "fusion_lat": 0.0, "lat": 38.910684, "name": "1667bc65932f7e9a0c1eb2740aa059b7", "fusion_lon": 0.0, "bike_id": "1667bc65932f7e9a0c1eb2740aa059b7", "is_disabled": 0, "is_reserved": 0}, {"rental_uris": {"ios": "https://dc.lft.to/lastmile_qr_scan", "android": "https://dc.lft.to/lastmile_qr_scan"}, "lon": -76.99004, "type": "electric_scooter", "fusion_lat": 0.0, "lat": 38.903898166666664, "name": "a44046d3e87c1b255e80f5ac11e3497a", "fusion_lon": 0.0, "bike_id": "a44046d3e87c1b255e80f5ac11e3497a", "is_disabled": 0, "is_reserved": 0}, {"rental_uris": {"ios": "https://dc.lft.to/lastmile_qr_scan", "android": "https://dc.lft.to/lastmile_qr_scan"}, "lon": -76.9165385, "type": "electric_bike", "fusion_lat": 0.0, "lat": 38.86858933333333, "name": "744b55910e574799513d82569baa3708", "fusion_lon": 0.0, "bike_id": "744b55910e574799513d82569baa3708", "is_disabled": 0, "is_reserved": 0}, {"rental_uris": {"ios": "https://dc.lft.to/lastmile_qr_scan", "android": "https://dc.lft.to/lastmile_qr_scan"}, "lon": -77.02334433333333, "type": "electric_scooter", "fusion_lat": 0.0, "lat": 38.93050566666667, "name": "95af91e648af927fab4cf50c34b4124b", "fusion_lon": 0.0, "bike_id": "95af91e648af927fab4cf50c34b4124b", "is_disabled": 0, "is_reserved": 0}, {"rental_uris": {"ios": "https://dc.lft.to/lastmile_qr_scan", "android": "https://dc.lft.to/lastmile_qr_scan"}, "lon": -77.048033, "type": "electric_scooter", "fusion_lat": 0.0, "lat": 38.911108166666665, "name": "c0484bbf23ca567f90a0a932cde02325", "fusion_lon": 0.0, "bike_id": "c0484bbf23ca567f90a0a932cde02325", "is_disabled": 0, "is_reserved": 0}, {"rental_uris": {"ios": "https://dc.lft.to/lastmile_qr_scan", "android": "https://dc.lft.to/lastmile_qr_scan"}, "lon": -76.98659983333333, "type": "electric_scooter", "fusion_lat": 0.0, "lat": 38.85808133333333, "name": "b0497636630dee7792542949e81e71a6", "fusion_lon": 0.0, "bike_id": "b0497636630dee7792542949e81e71a6", "is_disabled": 0, "is_reserved": 0}, {"rental_uris": {"ios": "https://dc.lft.to/lastmile_qr_scan", "android": "https://dc.lft.to/lastmile_qr_scan"}, "lon": -77.04159116666666, "type": "electric_scooter", "fusion_lat": 0.0, "lat": 38.919563833333335, "name": "feed35342d74ac8e1ce861e9f7b2f71f", "fusion_lon": 0.0, "bike_id": "feed35342d74ac8e1ce861e9f7b2f71f", "is_disabled": 0, "is_reserved": 0}, {"rental_uris": {"ios": "https://dc.lft.to/lastmile_qr_scan", "android": "https://dc.lft.to/lastmile_qr_scan"}, "lon": -76.98763433333333, "type": "electric_scooter", "fusion_lat": 0.0, "lat": 38.845025, "name": "5264ecfd3daea616a05a3c4c2f31615a", "fusion_lon": 0.0, "bike_id": "5264ecfd3daea616a05a3c4c2f31615a", "is_disabled": 0, "is_reserved": 0}, {"rental_uris": {"ios": "https://dc.lft.to/lastmile_qr_scan", "android": "https://dc.lft.to/lastmile_qr_scan"}, "lon": -76.979295, "type": "electric_scooter", "fusion_lat": 0.0, "lat": 38.905061833333335, "name": "ec3f3b1792df6bfb9f7b31d08e6f1fbf", "fusion_lon": 0.0, "bike_id": "ec3f3b1792df6bfb9f7b31d08e6f1fbf", "is_disabled": 0, "is_reserved": 0}, {"rental_uris": {"ios": "https://dc.lft.to/lastmile_qr_scan", "android": "https://dc.lft.to/lastmile_qr_scan"}, "lon": -77.0223945, "type": "electric_scooter", "fusion_lat": 0.0, "lat": 38.962162166666666, "name": "3bc4e6556ca573b327b212600eb9d88f", "fusion_lon": 0.0, "bike_id": "3bc4e6556ca573b327b212600eb9d88f", "is_disabled": 0, "is_reserved": 0}, {"rental_uris": {"ios": "https://dc.lft.to/lastmile_qr_scan", "android": "https://dc.lft.to/lastmile_qr_scan"}, "lon": -76.98558916666667, "type": "electric_scooter", "fusion_lat": 0.0, "lat": 38.8560825, "name": "d74ce97b287ce324d88bfbdb136a2d19", "fusion_lon": 0.0, "bike_id": "d74ce97b287ce324d88bfbdb136a2d19", "is_disabled": 0, "is_reserved": 0}, {"rental_uris": {"ios": "https://dc.lft.to/lastmile_qr_scan", "android": "https://dc.lft.to/lastmile_qr_scan"}, "lon": -76.986584, "type": "electric_scooter", "fusion_lat": 0.0, "lat": 38.8580855, "name": "420e1f66338e68d59dd95dfac7269efd", "fusion_lon": 0.0, "bike_id": "420e1f66338e68d59dd95dfac7269efd", "is_disabled": 0, "is_reserved": 0}, {"rental_uris": {"ios": "https://dc.lft.to/lastmile_qr_scan", "android": "https://dc.lft.to/lastmile_qr_scan"}, "lon": -77.005555, "type": "electric_scooter", "fusion_lat": 0.0, "lat": 38.905790833333334, "name": "545fa430bd63c4b814761de7aeb7fa84", "fusion_lon": 0.0, "bike_id": "545fa430bd63c4b814761de7aeb7fa84", "is_disabled": 0, "is_reserved": 0}, {"rental_uris": {"ios": "https://dc.lft.to/lastmile_qr_scan", "android": "https://dc.lft.to/lastmile_qr_scan"}, "lon": -77.04713716666667, "type": "electric_scooter", "fusion_lat": 0.0, "lat": 38.897212833333334, "name": "004e991ac01a4f6525ee4e9c7f9945d3", "fusion_lon": 0.0, "bike_id": "004e991ac01a4f6525ee4e9c7f9945d3", "is_disabled": 0, "is_reserved": 0}, {"rental_uris": {"ios": "https://dc.lft.to/lastmile_qr_scan", "android": "https://dc.lft.to/lastmile_qr_scan"}, "lon": -77.03486433333333, "type": "electric_scooter", "fusion_lat": 0.0, "lat": 38.932607833333336, "name": "26c577fd99a0cdfd87abef0002c66c80", "fusion_lon": 0.0, "bike_id": "26c577fd99a0cdfd87abef0002c66c80", "is_disabled": 0, "is_reserved": 0}, {"rental_uris": {"ios": "https://dc.lft.to/lastmile_qr_scan", "android": "https://dc.lft.to/lastmile_qr_scan"}, "lon": -77.041889, "type": "electric_scooter", "fusion_lat": 0.0, "lat": 38.92049516666667, "name": "c86aa7e375e86d9b8937e4053ba7867e", "fusion_lon": 0.0, "bike_id": "c86aa7e375e86d9b8937e4053ba7867e", "is_disabled": 0, "is_reserved": 0}, {"rental_uris": {"ios": "https://dc.lft.to/lastmile_qr_scan", "android": "https://dc.lft.to/lastmile_qr_scan"}, "lon": -77.10032066666666, "type": "electric_bike", "fusion_lat": 0.0, "lat": 38.99068366666667, "name": "79679ce45093caa3954cdc66cb423e9c", "fusion_lon": 0.0, "bike_id": "79679ce45093caa3954cdc66cb423e9c", "is_disabled": 0, "is_reserved": 0}, {"rental_uris": {"ios": "https://dc.lft.to/lastmile_qr_scan", "android": "https://dc.lft.to/lastmile_qr_scan"}, "lon": -77.02223416666666, "type": "electric_scooter", "fusion_lat": 0.0, "lat": 38.893548, "name": "f49dd31bc7c31a1a76af311a75ee4adf", "fusion_lon": 0.0, "bike_id": "f49dd31bc7c31a1a76af311a75ee4adf", "is_disabled": 0, "is_reserved": 0}, {"rental_uris": {"ios": "https://dc.lft.to/lastmile_qr_scan", "android": "https://dc.lft.to/lastmile_qr_scan"}, "lon": -77.00354266666666, "type": "electric_scooter", "fusion_lat": 0.0, "lat": 38.897593666666666, "name": "d937497a4c592bbcd7a3c370b8aa6285", "fusion_lon": 0.0, "bike_id": "d937497a4c592bbcd7a3c370b8aa6285", "is_disabled": 0, "is_reserved": 0}, {"rental_uris": {"ios": "https://dc.lft.to/lastmile_qr_scan", "android": "https://dc.lft.to/lastmile_qr_scan"}, "lon": -76.946556, "type": "electric_scooter", "fusion_lat": 0.0, "lat": 38.8982755, "name": "03c3cc4654e494144aadd700b7fd88df", "fusion_lon": 0.0, "bike_id": "03c3cc4654e494144aadd700b7fd88df", "is_disabled": 0, "is_reserved": 0}, {"rental_uris": {"ios": "https://dc.lft.to/lastmile_qr_scan", "android": "https://dc.lft.to/lastmile_qr_scan"}, "lon": -76.98571916666667, "type": "electric_scooter", "fusion_lat": 0.0, "lat": 38.898917, "name": "d7ee3207152c9a19c6e07d1a503d9304", "fusion_lon": 0.0, "bike_id": "d7ee3207152c9a19c6e07d1a503d9304", "is_disabled": 0, "is_reserved": 0}, {"rental_uris": {"ios": "https://dc.lft.to/lastmile_qr_scan", "android": "https://dc.lft.to/lastmile_qr_scan"}, "lon": -77.01015933333333, "type": "electric_scooter", "fusion_lat": 0.0, "lat": 38.9181405, "name": "d1ff2b37af0d3c156af3bab73f6d24c4", "fusion_lon": 0.0, "bike_id": "d1ff2b37af0d3c156af3bab73f6d24c4", "is_disabled": 0, "is_reserved": 0}, {"rental_uris": {"ios": "https://dc.lft.to/lastmile_qr_scan", "android": "https://dc.lft.to/lastmile_qr_scan"}, "lon": -77.02840616666667, "type": "electric_scooter", "fusion_lat": 0.0, "lat": 38.928620333333335, "name": "4314fbe338952a3faeb29e5242caf983", "fusion_lon": 0.0, "bike_id": "4314fbe338952a3faeb29e5242caf983", "is_disabled": 0, "is_reserved": 0}, {"rental_uris": {"ios": "https://dc.lft.to/lastmile_qr_scan", "android": "https://dc.lft.to/lastmile_qr_scan"}, "lon": -76.965526, "type": "electric_scooter", "fusion_lat": 0.0, "lat": 38.918764833333334, "name": "9cf7013e805ddef3261579de10196b7d", "fusion_lon": 0.0, "bike_id": "9cf7013e805ddef3261579de10196b7d", "is_disabled": 0, "is_reserved": 0}, {"rental_uris": {"ios": "https://dc.lft.to/lastmile_qr_scan", "android": "https://dc.lft.to/lastmile_qr_scan"}, "lon": -77.02463933333334, "type": "electric_scooter", "fusion_lat": 0.0, "lat": 38.93739983333333, "name": "af76460e9b01460353d0579ccbc9255f", "fusion_lon": 0.0, "bike_id": "af76460e9b01460353d0579ccbc9255f", "is_disabled": 0, "is_reserved": 0}, {"rental_uris": {"ios": "https://dc.lft.to/lastmile_qr_scan", "android": "https://dc.lft.to/lastmile_qr_scan"}, "lon": -77.03562233333334, "type": "electric_scooter", "fusion_lat": 0.0, "lat": 38.9275285, "name": "a4ce59f430b62a329460a3f07085829b", "fusion_lon": 0.0, "bike_id": "a4ce59f430b62a329460a3f07085829b", "is_disabled": 0, "is_reserved": 0}, {"rental_uris": {"ios": "https://dc.lft.to/lastmile_qr_scan", "android": "https://dc.lft.to/lastmile_qr_scan"}, "lon": -76.98998866666666, "type": "electric_scooter", "fusion_lat": 0.0, "lat": 38.903949, "name": "65175a0802af5d5bab94969930af07c4", "fusion_lon": 0.0, "bike_id": "65175a0802af5d5bab94969930af07c4", "is_disabled": 0, "is_reserved": 0}, {"rental_uris": {"ios": "https://dc.lft.to/lastmile_qr_scan", "android": "https://dc.lft.to/lastmile_qr_scan"}, "lon": -76.92587266666666, "type": "electric_scooter", "fusion_lat": 0.0, "lat": 38.89732683333333, "name": "5625af8a4e91b3b08019aaf07ac66a10", "fusion_lon": 0.0, "bike_id": "5625af8a4e91b3b08019aaf07ac66a10", "is_disabled": 0, "is_reserved": 0}, {"rental_uris": {"ios": "https://dc.lft.to/lastmile_qr_scan", "android": "https://dc.lft.to/lastmile_qr_scan"}, "lon": -77.0297745, "type": "electric_scooter", "fusion_lat": 0.0, "lat": 38.96232, "name": "9f697827f1e62b1ae90308a0d7be230a", "fusion_lon": 0.0, "bike_id": "9f697827f1e62b1ae90308a0d7be230a", "is_disabled": 0, "is_reserved": 0}, {"rental_uris": {"ios": "https://dc.lft.to/lastmile_qr_scan", "android": "https://dc.lft.to/lastmile_qr_scan"}, "lon": -77.10340816666667, "type": "electric_bike", "fusion_lat": 0.0, "lat": 38.85230333333333, "name": "358400e833b9a1256127957db83bbe08", "fusion_lon": 0.0, "bike_id": "358400e833b9a1256127957db83bbe08", "is_disabled": 0, "is_reserved": 0}, {"rental_uris": {"ios": "https://dc.lft.to/lastmile_qr_scan", "android": "https://dc.lft.to/lastmile_qr_scan"}, "lon": -77.0385185, "type": "electric_scooter", "fusion_lat": 0.0, "lat": 38.91315516666667, "name": "a5633ab3f2d2d73dbb45dbf25ef60300", "fusion_lon": 0.0, "bike_id": "a5633ab3f2d2d73dbb45dbf25ef60300", "is_disabled": 0, "is_reserved": 0}, {"rental_uris": {"ios": "https://dc.lft.to/lastmile_qr_scan", "android": "https://dc.lft.to/lastmile_qr_scan"}, "lon": -77.0269215, "type": "electric_scooter", "fusion_lat": 0.0, "lat": 38.88096933333333, "name": "cf6d97c7fe5990c54948af2c156481a8", "fusion_lon": 0.0, "bike_id": "cf6d97c7fe5990c54948af2c156481a8", "is_disabled": 0, "is_reserved": 0}, {"rental_uris": {"ios": "https://dc.lft.to/lastmile_qr_scan", "android": "https://dc.lft.to/lastmile_qr_scan"}, "lon": -77.04002333333334, "type": "electric_scooter", "fusion_lat": 0.0, "lat": 38.918274833333335, "name": "6de229514a6f35291ebdd819f3a2c920", "fusion_lon": 0.0, "bike_id": "6de229514a6f35291ebdd819f3a2c920", "is_disabled": 0, "is_reserved": 0}, {"rental_uris": {"ios": "https://dc.lft.to/lastmile_qr_scan", "android": "https://dc.lft.to/lastmile_qr_scan"}, "lon": -77.001358, "type": "electric_scooter", "fusion_lat": 0.0, "lat": 38.904154, "name": "b5ad0f92d09206a60f06ab34ffef06da", "fusion_lon": 0.0, "bike_id": "b5ad0f92d09206a60f06ab34ffef06da", "is_disabled": 0, "is_reserved": 0}, {"rental_uris": {"ios": "https://dc.lft.to/lastmile_qr_scan", "android": "https://dc.lft.to/lastmile_qr_scan"}, "lon": -76.927232, "type": "electric_scooter", "fusion_lat": 0.0, "lat": 38.88042983333333, "name": "7d897194aa68e6553755ea7bafa93181", "fusion_lon": 0.0, "bike_id": "7d897194aa68e6553755ea7bafa93181", "is_disabled": 0, "is_reserved": 0}, {"rental_uris": {"ios": "https://dc.lft.to/lastmile_qr_scan", "android": "https://dc.lft.to/lastmile_qr_scan"}, "lon": -77.00890766666667, "type": "electric_scooter", "fusion_lat": 0.0, "lat": 38.914053, "name": "82a4f200fb5e48fb97c238dd3bd7508c", "fusion_lon": 0.0, "bike_id": "82a4f200fb5e48fb97c238dd3bd7508c", "is_disabled": 0, "is_reserved": 0}, {"rental_uris": {"ios": "https://dc.lft.to/lastmile_qr_scan", "android": "https://dc.lft.to/lastmile_qr_scan"}, "lon": -77.0239915, "type": "electric_scooter", "fusion_lat": 0.0, "lat": 38.907089, "name": "c511e1b817d274ad0bbd45fc5f9df934", "fusion_lon": 0.0, "bike_id": "c511e1b817d274ad0bbd45fc5f9df934", "is_disabled": 0, "is_reserved": 0}, {"rental_uris": {"ios": "https://dc.lft.to/lastmile_qr_scan", "android": "https://dc.lft.to/lastmile_qr_scan"}, "lon": -77.0050675, "type": "electric_scooter", "fusion_lat": 0.0, "lat": 38.87862366666667, "name": "d58dc79b3e6f36dd55d6ff7447991cdf", "fusion_lon": 0.0, "bike_id": "d58dc79b3e6f36dd55d6ff7447991cdf", "is_disabled": 0, "is_reserved": 0}, {"rental_uris": {"ios": "https://dc.lft.to/lastmile_qr_scan", "android": "https://dc.lft.to/lastmile_qr_scan"}, "lon": -77.14999833333333, "type": "electric_bike", "fusion_lat": 0.0, "lat": 39.09465216666667, "name": "db64d696aced8c5d600f8c0f16172836", "fusion_lon": 0.0, "bike_id": "db64d696aced8c5d600f8c0f16172836", "is_disabled": 0, "is_reserved": 0}, {"rental_uris": {"ios": "https://dc.lft.to/lastmile_qr_scan", "android": "https://dc.lft.to/lastmile_qr_scan"}, "lon": -76.93366166666667, "type": "electric_scooter", "fusion_lat": 0.0, "lat": 38.89919166666667, "name": "8e5af313699ea2f711fd8d7c6f5b2a39", "fusion_lon": 0.0, "bike_id": "8e5af313699ea2f711fd8d7c6f5b2a39", "is_disabled": 0, "is_reserved": 0}, {"rental_uris": {"ios": "https://dc.lft.to/lastmile_qr_scan", "android": "https://dc.lft.to/lastmile_qr_scan"}, "lon": -77.04715033333333, "type": "electric_scooter", "fusion_lat": 0.0, "lat": 38.91671733333333, "name": "19a69ed54ad0b6fbd2c2612b0a6dbee1", "fusion_lon": 0.0, "bike_id": "19a69ed54ad0b6fbd2c2612b0a6dbee1", "is_disabled": 0, "is_reserved": 0}, {"rental_uris": {"ios": "https://dc.lft.to/lastmile_qr_scan", "android": "https://dc.lft.to/lastmile_qr_scan"}, "lon": -77.04623533333333, "type": "electric_scooter", "fusion_lat": 0.0, "lat": 38.919246, "name": "1f13205a866dfc92f2a218ca8c0f47c5", "fusion_lon": 0.0, "bike_id": "1f13205a866dfc92f2a218ca8c0f47c5", "is_disabled": 0, "is_reserved": 0}, {"rental_uris": {"ios": "https://dc.lft.to/lastmile_qr_scan", "android": "https://dc.lft.to/lastmile_qr_scan"}, "lon": -77.1990955, "type": "electric_bike", "fusion_lat": 0.0, "lat": 38.875322833333335, "name": "dd9fe693aeb2a035889edbe93dc1bf92", "fusion_lon": 0.0, "bike_id": "dd9fe693aeb2a035889edbe93dc1bf92", "is_disabled": 0, "is_reserved": 0}, {"rental_uris": {"ios": "https://dc.lft.to/lastmile_qr_scan", "android": "https://dc.lft.to/lastmile_qr_scan"}, "lon": -77.00579433333333, "type": "electric_scooter", "fusion_lat": 0.0, "lat": 38.8788275, "name": "1f2877ea52bd66cea5fd5a51a091d747", "fusion_lon": 0.0, "bike_id": "1f2877ea52bd66cea5fd5a51a091d747", "is_disabled": 0, "is_reserved": 0}, {"rental_uris": {"ios": "https://dc.lft.to/lastmile_qr_scan", "android": "https://dc.lft.to/lastmile_qr_scan"}, "lon": -77.0240615, "type": "electric_scooter", "fusion_lat": 0.0, "lat": 38.896209666666664, "name": "8ff66cfb01df835dc57057948eeb2714", "fusion_lon": 0.0, "bike_id": "8ff66cfb01df835dc57057948eeb2714", "is_disabled": 0, "is_reserved": 0}, {"rental_uris": {"ios": "https://dc.lft.to/lastmile_qr_scan", "android": "https://dc.lft.to/lastmile_qr_scan"}, "lon": -77.0706725, "type": "electric_scooter", "fusion_lat": 0.0, "lat": 38.952201333333335, "name": "a642d10b601b446fad352eb190a832c1", "fusion_lon": 0.0, "bike_id": "a642d10b601b446fad352eb190a832c1", "is_disabled": 0, "is_reserved": 0}, {"rental_uris": {"ios": "https://dc.lft.to/lastmile_qr_scan", "android": "https://dc.lft.to/lastmile_qr_scan"}, "lon": -77.04187483333334, "type": "electric_scooter", "fusion_lat": 0.0, "lat": 38.903443833333334, "name": "d0710a6280484836ed46262158c1dc5d", "fusion_lon": 0.0, "bike_id": "d0710a6280484836ed46262158c1dc5d", "is_disabled": 0, "is_reserved": 0}, {"rental_uris": {"ios": "https://dc.lft.to/lastmile_qr_scan", "android": "https://dc.lft.to/lastmile_qr_scan"}, "lon": -77.054045, "type": "electric_scooter", "fusion_lat": 0.0, "lat": 38.902636, "name": "a39eae8ac1fb26b052fed82f0dccc06c", "fusion_lon": 0.0, "bike_id": "a39eae8ac1fb26b052fed82f0dccc06c", "is_disabled": 0, "is_reserved": 0}, {"rental_uris": {"ios": "https://dc.lft.to/lastmile_qr_scan", "android": "https://dc.lft.to/lastmile_qr_scan"}, "lon": -77.04715633333333, "type": "electric_scooter", "fusion_lat": 0.0, "lat": 38.922419, "name": "5d5bb45947efaac88ebe585e2e925d4f", "fusion_lon": 0.0, "bike_id": "5d5bb45947efaac88ebe585e2e925d4f", "is_disabled": 0, "is_reserved": 0}, {"rental_uris": {"ios": "https://dc.lft.to/lastmile_qr_scan", "android": "https://dc.lft.to/lastmile_qr_scan"}, "lon": -77.0195005, "type": "electric_scooter", "fusion_lat": 0.0, "lat": 38.92413716666667, "name": "047cc497aa5e8432d06bfb6aa9452d08", "fusion_lon": 0.0, "bike_id": "047cc497aa5e8432d06bfb6aa9452d08", "is_disabled": 0, "is_reserved": 0}, {"rental_uris": {"ios": "https://dc.lft.to/lastmile_qr_scan", "android": "https://dc.lft.to/lastmile_qr_scan"}, "lon": -77.01766433333333, "type": "electric_scooter", "fusion_lat": 0.0, "lat": 38.921309666666666, "name": "177b688c9b4c3c0bfdc870a84a735167", "fusion_lon": 0.0, "bike_id": "177b688c9b4c3c0bfdc870a84a735167", "is_disabled": 0, "is_reserved": 0}, {"rental_uris": {"ios": "https://dc.lft.to/lastmile_qr_scan", "android": "https://dc.lft.to/lastmile_qr_scan"}, "lon": -77.01640016666667, "type": "electric_scooter", "fusion_lat": 0.0, "lat": 38.89965616666667, "name": "100f356f467754257f39776555790ded", "fusion_lon": 0.0, "bike_id": "100f356f467754257f39776555790ded", "is_disabled": 0, "is_reserved": 0}, {"rental_uris": {"ios": "https://dc.lft.to/lastmile_qr_scan", "android": "https://dc.lft.to/lastmile_qr_scan"}, "lon": -77.03508766666667, "type": "electric_scooter", "fusion_lat": 0.0, "lat": 38.9215305, "name": "c11eb7bcac049fe2c0f761608a90bee8", "fusion_lon": 0.0, "bike_id": "c11eb7bcac049fe2c0f761608a90bee8", "is_disabled": 0, "is_reserved": 0}, {"rental_uris": {"ios": "https://dc.lft.to/lastmile_qr_scan", "android": "https://dc.lft.to/lastmile_qr_scan"}, "lon": -77.055041, "type": "electric_scooter", "fusion_lat": 0.0, "lat": 38.929775, "name": "5202bee3520a2129e23f06681db714f2", "fusion_lon": 0.0, "bike_id": "5202bee3520a2129e23f06681db714f2", "is_disabled": 0, "is_reserved": 0}, {"rental_uris": {"ios": "https://dc.lft.to/lastmile_qr_scan", "android": "https://dc.lft.to/lastmile_qr_scan"}, "lon": -77.031123, "type": "electric_scooter", "fusion_lat": 0.0, "lat": 38.91415816666667, "name": "506d3d24d7a0c637fc6b098d39d14746", "fusion_lon": 0.0, "bike_id": "506d3d24d7a0c637fc6b098d39d14746", "is_disabled": 0, "is_reserved": 0}, {"rental_uris": {"ios": "https://dc.lft.to/lastmile_qr_scan", "android": "https://dc.lft.to/lastmile_qr_scan"}, "lon": -77.03800533333333, "type": "electric_scooter", "fusion_lat": 0.0, "lat": 38.9015305, "name": "1688553dca11033b8e50c2d9c80742dd", "fusion_lon": 0.0, "bike_id": "1688553dca11033b8e50c2d9c80742dd", "is_disabled": 0, "is_reserved": 0}, {"rental_uris": {"ios": "https://dc.lft.to/lastmile_qr_scan", "android": "https://dc.lft.to/lastmile_qr_scan"}, "lon": -77.0217815, "type": "electric_scooter", "fusion_lat": 0.0, "lat": 38.905435, "name": "3405035e1f1be07d4a7a354e190dad0f", "fusion_lon": 0.0, "bike_id": "3405035e1f1be07d4a7a354e190dad0f", "is_disabled": 0, "is_reserved": 0}, {"rental_uris": {"ios": "https://dc.lft.to/lastmile_qr_scan", "android": "https://dc.lft.to/lastmile_qr_scan"}, "lon": -76.94894066666667, "type": "electric_scooter", "fusion_lat": 0.0, "lat": 38.89530166666667, "name": "8106d286a488ebd1dacd6661cdd536a4", "fusion_lon": 0.0, "bike_id": "8106d286a488ebd1dacd6661cdd536a4", "is_disabled": 0, "is_reserved": 0}, {"rental_uris": {"ios": "https://dc.lft.to/lastmile_qr_scan", "android": "https://dc.lft.to/lastmile_qr_scan"}, "lon": -77.02726616666666, "type": "electric_scooter", "fusion_lat": 0.0, "lat": 38.91703316666667, "name": "83d743d5f20ec0204eba0f9f2ca53e4f", "fusion_lon": 0.0, "bike_id": "83d743d5f20ec0204eba0f9f2ca53e4f", "is_disabled": 0, "is_reserved": 0}, {"rental_uris": {"ios": "https://dc.lft.to/lastmile_qr_scan", "android": "https://dc.lft.to/lastmile_qr_scan"}, "lon": -77.05292766666666, "type": "electric_scooter", "fusion_lat": 0.0, "lat": 38.91892333333333, "name": "fce26a75a7578ce2b9a020860eb21af8", "fusion_lon": 0.0, "bike_id": "fce26a75a7578ce2b9a020860eb21af8", "is_disabled": 0, "is_reserved": 0}, {"rental_uris": {"ios": "https://dc.lft.to/lastmile_qr_scan", "android": "https://dc.lft.to/lastmile_qr_scan"}, "lon": -77.008617, "type": "electric_bike", "fusion_lat": 0.0, "lat": 38.827379666666666, "name": "8c921163c4aae9fff5ea227539ab5869", "fusion_lon": 0.0, "bike_id": "8c921163c4aae9fff5ea227539ab5869", "is_disabled": 0, "is_reserved": 0}, {"rental_uris": {"ios": "https://dc.lft.to/lastmile_qr_scan", "android": "https://dc.lft.to/lastmile_qr_scan"}, "lon": -76.99002833333333, "type": "electric_scooter", "fusion_lat": 0.0, "lat": 38.86506683333333, "name": "bfb1f38cee53030b6714c79ef26c180c", "fusion_lon": 0.0, "bike_id": "bfb1f38cee53030b6714c79ef26c180c", "is_disabled": 0, "is_reserved": 0}, {"rental_uris": {"ios": "https://dc.lft.to/lastmile_qr_scan", "android": "https://dc.lft.to/lastmile_qr_scan"}, "lon": -76.98501016666667, "type": "electric_scooter", "fusion_lat": 0.0, "lat": 38.86045633333333, "name": "2887076f0fa5fc2c3e745a2363d14ad8", "fusion_lon": 0.0, "bike_id": "2887076f0fa5fc2c3e745a2363d14ad8", "is_disabled": 0, "is_reserved": 0}, {"rental_uris": {"ios": "https://dc.lft.to/lastmile_qr_scan", "android": "https://dc.lft.to/lastmile_qr_scan"}, "lon": -76.97888683333333, "type": "electric_scooter", "fusion_lat": 0.0, "lat": 38.9042235, "name": "19ff721c7fbdbaf0accbf95630de8183", "fusion_lon": 0.0, "bike_id": "19ff721c7fbdbaf0accbf95630de8183", "is_disabled": 0, "is_reserved": 0}, {"rental_uris": {"ios": "https://dc.lft.to/lastmile_qr_scan", "android": "https://dc.lft.to/lastmile_qr_scan"}, "lon": -77.039394, "type": "electric_scooter", "fusion_lat": 0.0, "lat": 38.89906383333334, "name": "a49c23399443b93f6aad01f2c96cd9b6", "fusion_lon": 0.0, "bike_id": "a49c23399443b93f6aad01f2c96cd9b6", "is_disabled": 0, "is_reserved": 0}, {"rental_uris": {"ios": "https://dc.lft.to/lastmile_qr_scan", "android": "https://dc.lft.to/lastmile_qr_scan"}, "lon": -77.04457666666667, "type": "electric_scooter", "fusion_lat": 0.0, "lat": 38.9111885, "name": "525ffdb6bd5a7eb7921482d8af8db271", "fusion_lon": 0.0, "bike_id": "525ffdb6bd5a7eb7921482d8af8db271", "is_disabled": 0, "is_reserved": 0}, {"rental_uris": {"ios": "https://dc.lft.to/lastmile_qr_scan", "android": "https://dc.lft.to/lastmile_qr_scan"}, "lon": -76.99597833333333, "type": "electric_scooter", "fusion_lat": 0.0, "lat": 38.84544316666667, "name": "a051633bb90383d277e15236c900af86", "fusion_lon": 0.0, "bike_id": "a051633bb90383d277e15236c900af86", "is_disabled": 0, "is_reserved": 0}, {"rental_uris": {"ios": "https://dc.lft.to/lastmile_qr_scan", "android": "https://dc.lft.to/lastmile_qr_scan"}, "lon": -77.0153235, "type": "electric_scooter", "fusion_lat": 0.0, "lat": 38.902033, "name": "8cf7623ad3947bbed43e5f72991bb91b", "fusion_lon": 0.0, "bike_id": "8cf7623ad3947bbed43e5f72991bb91b", "is_disabled": 0, "is_reserved": 0}, {"rental_uris": {"ios": "https://dc.lft.to/lastmile_qr_scan", "android": "https://dc.lft.to/lastmile_qr_scan"}, "lon": -77.03149483333333, "type": "electric_scooter", "fusion_lat": 0.0, "lat": 38.91123016666667, "name": "1c66e5eeac6c959d34ddd877f1236fb3", "fusion_lon": 0.0, "bike_id": "1c66e5eeac6c959d34ddd877f1236fb3", "is_disabled": 0, "is_reserved": 0}, {"rental_uris": {"ios": "https://dc.lft.to/lastmile_qr_scan", "android": "https://dc.lft.to/lastmile_qr_scan"}, "lon": -77.100918, "type": "electric_bike", "fusion_lat": 0.0, "lat": 38.95963966666667, "name": "78dc9ddac15ce70c70dcae97e3d0c3e2", "fusion_lon": 0.0, "bike_id": "78dc9ddac15ce70c70dcae97e3d0c3e2", "is_disabled": 0, "is_reserved": 0}, {"rental_uris": {"ios": "https://dc.lft.to/lastmile_qr_scan", "android": "https://dc.lft.to/lastmile_qr_scan"}, "lon": -77.01395666666667, "type": "electric_scooter", "fusion_lat": 0.0, "lat": 38.97013583333333, "name": "cb3ebb8b0b5f7ea076183df4b6720b89", "fusion_lon": 0.0, "bike_id": "cb3ebb8b0b5f7ea076183df4b6720b89", "is_disabled": 0, "is_reserved": 0}, {"rental_uris": {"ios": "https://dc.lft.to/lastmile_qr_scan", "android": "https://dc.lft.to/lastmile_qr_scan"}, "lon": -77.03170266666666, "type": "electric_scooter", "fusion_lat": 0.0, "lat": 38.913369833333334, "name": "590aa60684dd0cdac52e7e3f19a0212c", "fusion_lon": 0.0, "bike_id": "590aa60684dd0cdac52e7e3f19a0212c", "is_disabled": 0, "is_reserved": 0}, {"rental_uris": {"ios": "https://dc.lft.to/lastmile_qr_scan", "android": "https://dc.lft.to/lastmile_qr_scan"}, "lon": -77.03442833333334, "type": "electric_scooter", "fusion_lat": 0.0, "lat": 38.9025825, "name": "0c4adcc0f6cedd005d6fd7050ace2ab3", "fusion_lon": 0.0, "bike_id": "0c4adcc0f6cedd005d6fd7050ace2ab3", "is_disabled": 0, "is_reserved": 0}, {"rental_uris": {"ios": "https://dc.lft.to/lastmile_qr_scan", "android": "https://dc.lft.to/lastmile_qr_scan"}, "lon": -76.99790733333333, "type": "electric_scooter", "fusion_lat": 0.0, "lat": 38.921825166666665, "name": "37617ba9adb6e7095f88111437ae1fb1", "fusion_lon": 0.0, "bike_id": "37617ba9adb6e7095f88111437ae1fb1", "is_disabled": 0, "is_reserved": 0}, {"rental_uris": {"ios": "https://dc.lft.to/lastmile_qr_scan", "android": "https://dc.lft.to/lastmile_qr_scan"}, "lon": -77.03663183333333, "type": "electric_scooter", "fusion_lat": 0.0, "lat": 38.91823566666667, "name": "804e281a04bbf557f7c1e4c7dc382226", "fusion_lon": 0.0, "bike_id": "804e281a04bbf557f7c1e4c7dc382226", "is_disabled": 0, "is_reserved": 0}, {"rental_uris": {"ios": "https://dc.lft.to/lastmile_qr_scan", "android": "https://dc.lft.to/lastmile_qr_scan"}, "lon": -77.02718216666666, "type": "electric_scooter", "fusion_lat": 0.0, "lat": 38.918101166666666, "name": "eadaa7a8434ff9f4d95b9faf6bb81082", "fusion_lon": 0.0, "bike_id": "eadaa7a8434ff9f4d95b9faf6bb81082", "is_disabled": 0, "is_reserved": 0}, {"rental_uris": {"ios": "https://dc.lft.to/lastmile_qr_scan", "android": "https://dc.lft.to/lastmile_qr_scan"}, "lon": -76.98744383333333, "type": "electric_bike", "fusion_lat": 0.0, "lat": 38.857913833333335, "name": "185bcd8960b66c11fe6edd5a530db105", "fusion_lon": 0.0, "bike_id": "185bcd8960b66c11fe6edd5a530db105", "is_disabled": 0, "is_reserved": 0}, {"rental_uris": {"ios": "https://dc.lft.to/lastmile_qr_scan", "android": "https://dc.lft.to/lastmile_qr_scan"}, "lon": -77.04707983333333, "type": "electric_scooter", "fusion_lat": 0.0, "lat": 38.9217315, "name": "3f7824dbbf50b45eaf1cc1b81f1b9115", "fusion_lon": 0.0, "bike_id": "3f7824dbbf50b45eaf1cc1b81f1b9115", "is_disabled": 0, "is_reserved": 0}, {"rental_uris": {"ios": "https://dc.lft.to/lastmile_qr_scan", "android": "https://dc.lft.to/lastmile_qr_scan"}, "lon": -77.0163685, "type": "electric_scooter", "fusion_lat": 0.0, "lat": 38.899671, "name": "30535c67bab3777d1357bdf9ef374764", "fusion_lon": 0.0, "bike_id": "30535c67bab3777d1357bdf9ef374764", "is_disabled": 0, "is_reserved": 0}, {"rental_uris": {"ios": "https://dc.lft.to/lastmile_qr_scan", "android": "https://dc.lft.to/lastmile_qr_scan"}, "lon": -77.05277483333333, "type": "electric_scooter", "fusion_lat": 0.0, "lat": 38.9102025, "name": "ddab46ccb369a9afe84d12c68946be52", "fusion_lon": 0.0, "bike_id": "ddab46ccb369a9afe84d12c68946be52", "is_disabled": 0, "is_reserved": 0}, {"rental_uris": {"ios": "https://dc.lft.to/lastmile_qr_scan", "android": "https://dc.lft.to/lastmile_qr_scan"}, "lon": -77.02717733333333, "type": "electric_scooter", "fusion_lat": 0.0, "lat": 38.90689066666667, "name": "1e5e94a934f5884058fac3b523c20457", "fusion_lon": 0.0, "bike_id": "1e5e94a934f5884058fac3b523c20457", "is_disabled": 0, "is_reserved": 0}, {"rental_uris": {"ios": "https://dc.lft.to/lastmile_qr_scan", "android": "https://dc.lft.to/lastmile_qr_scan"}, "lon": -77.07794216666667, "type": "electric_scooter", "fusion_lat": 0.0, "lat": 38.9409545, "name": "008335bdff39bf16997ea5ca19569a09", "fusion_lon": 0.0, "bike_id": "008335bdff39bf16997ea5ca19569a09", "is_disabled": 0, "is_reserved": 0}, {"rental_uris": {"ios": "https://dc.lft.to/lastmile_qr_scan", "android": "https://dc.lft.to/lastmile_qr_scan"}, "lon": -77.019976, "type": "electric_scooter", "fusion_lat": 0.0, "lat": 38.885719333333334, "name": "96bf815832bdbc7930ff47ea09d3758a", "fusion_lon": 0.0, "bike_id": "96bf815832bdbc7930ff47ea09d3758a", "is_disabled": 0, "is_reserved": 0}, {"rental_uris": {"ios": "https://dc.lft.to/lastmile_qr_scan", "android": "https://dc.lft.to/lastmile_qr_scan"}, "lon": -76.93964616666666, "type": "electric_scooter", "fusion_lat": 0.0, "lat": 38.894148333333334, "name": "dee08a41a30d63bceaf2c7f42dbd86e8", "fusion_lon": 0.0, "bike_id": "dee08a41a30d63bceaf2c7f42dbd86e8", "is_disabled": 0, "is_reserved": 0}, {"rental_uris": {"ios": "https://dc.lft.to/lastmile_qr_scan", "android": "https://dc.lft.to/lastmile_qr_scan"}, "lon": -77.0159775, "type": "electric_scooter", "fusion_lat": 0.0, "lat": 38.8962115, "name": "c43e73e78fa1bfe3be93d089d5c266b0", "fusion_lon": 0.0, "bike_id": "c43e73e78fa1bfe3be93d089d5c266b0", "is_disabled": 0, "is_reserved": 0}, {"rental_uris": {"ios": "https://dc.lft.to/lastmile_qr_scan", "android": "https://dc.lft.to/lastmile_qr_scan"}, "lon": -77.00717783333333, "type": "electric_scooter", "fusion_lat": 0.0, "lat": 38.913480666666665, "name": "1732037241bfb8a8712e63b11d0de429", "fusion_lon": 0.0, "bike_id": "1732037241bfb8a8712e63b11d0de429", "is_disabled": 0, "is_reserved": 0}, {"rental_uris": {"ios": "https://dc.lft.to/lastmile_qr_scan", "android": "https://dc.lft.to/lastmile_qr_scan"}, "lon": -76.92998183333333, "type": "electric_bike", "fusion_lat": 0.0, "lat": 38.88796266666667, "name": "a7a12e94a6090173a61fa463e4405630", "fusion_lon": 0.0, "bike_id": "a7a12e94a6090173a61fa463e4405630", "is_disabled": 0, "is_reserved": 0}, {"rental_uris": {"ios": "https://dc.lft.to/lastmile_qr_scan", "android": "https://dc.lft.to/lastmile_qr_scan"}, "lon": -77.03198416666666, "type": "electric_scooter", "fusion_lat": 0.0, "lat": 38.918035333333336, "name": "151ff2f877a1980757420a37f7751df9", "fusion_lon": 0.0, "bike_id": "151ff2f877a1980757420a37f7751df9", "is_disabled": 0, "is_reserved": 0}, {"rental_uris": {"ios": "https://dc.lft.to/lastmile_qr_scan", "android": "https://dc.lft.to/lastmile_qr_scan"}, "lon": -77.00614733333333, "type": "electric_scooter", "fusion_lat": 0.0, "lat": 38.90581783333333, "name": "69dbc6fa6bff76faecab30530b169855", "fusion_lon": 0.0, "bike_id": "69dbc6fa6bff76faecab30530b169855", "is_disabled": 0, "is_reserved": 0}, {"rental_uris": {"ios": "https://dc.lft.to/lastmile_qr_scan", "android": "https://dc.lft.to/lastmile_qr_scan"}, "lon": -77.049241, "type": "electric_scooter", "fusion_lat": 0.0, "lat": 38.89607616666667, "name": "e32110eca02b492acc3ec8b9a16a5cb5", "fusion_lon": 0.0, "bike_id": "e32110eca02b492acc3ec8b9a16a5cb5", "is_disabled": 0, "is_reserved": 0}, {"rental_uris": {"ios": "https://dc.lft.to/lastmile_qr_scan", "android": "https://dc.lft.to/lastmile_qr_scan"}, "lon": -76.947581, "type": "electric_scooter", "fusion_lat": 0.0, "lat": 38.90058783333333, "name": "d27bd112a5747f0f393bc1d910688005", "fusion_lon": 0.0, "bike_id": "d27bd112a5747f0f393bc1d910688005", "is_disabled": 0, "is_reserved": 0}, {"rental_uris": {"ios": "https://dc.lft.to/lastmile_qr_scan", "android": "https://dc.lft.to/lastmile_qr_scan"}, "lon": -77.03645033333333, "type": "electric_scooter", "fusion_lat": 0.0, "lat": 38.917341666666665, "name": "ae1da8751b0aff9a8db2d35550407bc9", "fusion_lon": 0.0, "bike_id": "ae1da8751b0aff9a8db2d35550407bc9", "is_disabled": 0, "is_reserved": 0}, {"rental_uris": {"ios": "https://dc.lft.to/lastmile_qr_scan", "android": "https://dc.lft.to/lastmile_qr_scan"}, "lon": -77.03208416666666, "type": "electric_scooter", "fusion_lat": 0.0, "lat": 38.9180005, "name": "aedc308d844a35b333e36b53ec48764f", "fusion_lon": 0.0, "bike_id": "aedc308d844a35b333e36b53ec48764f", "is_disabled": 0, "is_reserved": 0}, {"rental_uris": {"ios": "https://dc.lft.to/lastmile_qr_scan", "android": "https://dc.lft.to/lastmile_qr_scan"}, "lon": -77.0111235, "type": "electric_scooter", "fusion_lat": 0.0, "lat": 38.9037, "name": "218bc57dcdae9794aeef9827ab8bc428", "fusion_lon": 0.0, "bike_id": "218bc57dcdae9794aeef9827ab8bc428", "is_disabled": 0, "is_reserved": 0}, {"rental_uris": {"ios": "https://dc.lft.to/lastmile_qr_scan", "android": "https://dc.lft.to/lastmile_qr_scan"}, "lon": -77.03223116666666, "type": "electric_scooter", "fusion_lat": 0.0, "lat": 38.92590833333333, "name": "35bfcbaa49848c5133532c6cc19e8410", "fusion_lon": 0.0, "bike_id": "35bfcbaa49848c5133532c6cc19e8410", "is_disabled": 0, "is_reserved": 0}, {"rental_uris": {"ios": "https://dc.lft.to/lastmile_qr_scan", "android": "https://dc.lft.to/lastmile_qr_scan"},