{"data": {"bikes": [{"fusion_lat": 0.0, "name": "feff6d42f4050a2c9327d25cbdbfb553", "is_disabled": 0, "rental_uris": {"android": "https://dc.lft.to/lastmile_qr_scan", "ios": "https://dc.lft.to/lastmile_qr_scan"}, "fusion_lon": 0.0, "lat": 38.8872545, "bike_id": "feff6d42f4050a2c9327d25cbdbfb553", "type": "electric_scooter", "is_reserved": 0, "lon": -76.98358383333333}, {"fusion_lat": 0.0, "name": "2130e6b508a518176fc7b2ee4a35c9ac", "is_disabled": 0, "rental_uris": {"android": "https://dc.lft.to/lastmile_qr_scan", "ios": "https://dc.lft.to/lastmile_qr_scan"}, "fusion_lon": 0.0, "lat": 38.914169333333334, "bike_id": "2130e6b508a518176fc7b2ee4a35c9ac", "type": "electric_scooter", "is_reserved": 0, "lon": -77.04074283333334}, {"fusion_lat": 0.0, "name": "c0ef842fe4873c4d83718631e48f3785", "is_disabled": 0, "rental_uris": {"android": "https://dc.lft.to/lastmile_qr_scan", "ios": "https://dc.lft.to/lastmile_qr_scan"}, "fusion_lon": 0.0, "lat": 38.84136383333333, "bike_id": "c0ef842fe4873c4d83718631e48f3785", "type": "electric_bike", "is_reserved": 0, "lon": -76.947629}, {"fusion_lat": 0.0, "name": "a854ecc43ae2815ae173243f31ae1837", "is_disabled": 0, "rental_uris": {"android": "https://dc.lft.to/lastmile_qr_scan", "ios": "https://dc.lft.to/lastmile_qr_scan"}, "fusion_lon": 0.0, "lat": 38.909872666666665, "bike_id": "a854ecc43ae2815ae173243f31ae1837", "type": "electric_scooter", "is_reserved": 0, "lon": -77.0385}, {"fusion_lat": 0.0, "name": "35b5ca4ec3b0b4ef05c809f3e08a1aab", "is_disabled": 0, "rental_uris": {"android": "https://dc.lft.to/lastmile_qr_scan", "ios": "https://dc.lft.to/lastmile_qr_scan"}, "fusion_lon": 0.0, "lat": 38.881311, "bike_id": "35b5ca4ec3b0b4ef05c809f3e08a1aab", "type": "electric_scooter", "is_reserved": 0, "lon": -77.01659966666666}, {"fusion_lat": 0.0, "name": "b2006f2aaca3a8714ecf79421dd0f8e9", "is_disabled": 0, "rental_uris": {"android": "https://dc.lft.to/lastmile_qr_scan", "ios": "https://dc.lft.to/lastmile_qr_scan"}, "fusion_lon": 0.0, "lat": 38.924435, "bike_id": "b2006f2aaca3a8714ecf79421dd0f8e9", "type": "electric_scooter", "is_reserved": 0, "lon": -77.018694}, {"fusion_lat": 0.0, "name": "cf5c9336c0ef7ec7f40453a2671251bc", "is_disabled": 0, "rental_uris": {"android": "https://dc.lft.to/lastmile_qr_scan", "ios": "https://dc.lft.to/lastmile_qr_scan"}, "fusion_lon": 0.0, "lat": 38.8966885, "bike_id": "cf5c9336c0ef7ec7f40453a2671251bc", "type": "electric_scooter", "is_reserved": 0, "lon": -77.02256933333334}, {"fusion_lat": 0.0, "name": "2202224fab05c713b721cb861caaeb01", "is_disabled": 0, "rental_uris": {"android": "https://dc.lft.to/lastmile_qr_scan", "ios": "https://dc.lft.to/lastmile_qr_scan"}, "fusion_lon": 0.0, "lat": 38.924860833333334, "bike_id": "2202224fab05c713b721cb861caaeb01", "type": "electric_scooter", "is_reserved": 0, "lon": -77.05215116666666}, {"fusion_lat": 0.0, "name": "fd50dd11d77267ff1483d8a700c48f47", "is_disabled": 0, "rental_uris": {"android": "https://dc.lft.to/lastmile_qr_scan", "ios": "https://dc.lft.to/lastmile_qr_scan"}, "fusion_lon": 0.0, "lat": 38.931292166666665, "bike_id": "fd50dd11d77267ff1483d8a700c48f47", "type": "electric_scooter", "is_reserved": 0, "lon": -77.036023}, {"fusion_lat": 0.0, "name": "937e3b5c92e1934eda41ef76cc12308f", "is_disabled": 0, "rental_uris": {"android": "https://dc.lft.to/lastmile_qr_scan", "ios": "https://dc.lft.to/lastmile_qr_scan"}, "fusion_lon": 0.0, "lat": 38.8442205, "bike_id": "937e3b5c92e1934eda41ef76cc12308f", "type": "electric_scooter", "is_reserved": 0, "lon": -76.99781966666667}, {"fusion_lat": 0.0, "name": "e2bd4c0f08f9ffdbe7da34f391d695de", "is_disabled": 0, "rental_uris": {"android": "https://dc.lft.to/lastmile_qr_scan", "ios": "https://dc.lft.to/lastmile_qr_scan"}, "fusion_lon": 0.0, "lat": 38.89607, "bike_id": "e2bd4c0f08f9ffdbe7da34f391d695de", "type": "electric_scooter", "is_reserved": 0, "lon": -77.021919}, {"fusion_lat": 0.0, "name": "3cc6be8c96ede408d63bf0240e9029ff", "is_disabled": 0, "rental_uris": {"android": "https://dc.lft.to/lastmile_qr_scan", "ios": "https://dc.lft.to/lastmile_qr_scan"}, "fusion_lon": 0.0, "lat": 38.886612166666666, "bike_id": "3cc6be8c96ede408d63bf0240e9029ff", "type": "electric_scooter", "is_reserved": 0, "lon": -77.03389216666666}, {"fusion_lat": 0.0, "name": "e08d56ba3950f7c1af936de7c2b9b220", "is_disabled": 0, "rental_uris": {"android": "https://dc.lft.to/lastmile_qr_scan", "ios": "https://dc.lft.to/lastmile_qr_scan"}, "fusion_lon": 0.0, "lat": 38.90241833333333, "bike_id": "e08d56ba3950f7c1af936de7c2b9b220", "type": "electric_scooter", "is_reserved": 0, "lon": -77.04349716666667}, {"fusion_lat": 0.0, "name": "6ca6493865b9a183a8f942c2c82782e8", "is_disabled": 0, "rental_uris": {"android": "https://dc.lft.to/lastmile_qr_scan", "ios": "https://dc.lft.to/lastmile_qr_scan"}, "fusion_lon": 0.0, "lat": 38.926485, "bike_id": "6ca6493865b9a183a8f942c2c82782e8", "type": "electric_scooter", "is_reserved": 0, "lon": -77.03702933333334}, {"fusion_lat": 0.0, "name": "6fc655fb9011901a0411839fc9806c4e", "is_disabled": 0, "rental_uris": {"android": "https://dc.lft.to/lastmile_qr_scan", "ios": "https://dc.lft.to/lastmile_qr_scan"}, "fusion_lon": 0.0, "lat": 38.93199583333333, "bike_id": "6fc655fb9011901a0411839fc9806c4e", "type": "electric_scooter", "is_reserved": 0, "lon": -77.04302733333333}, {"fusion_lat": 0.0, "name": "c55c2676c858d58b2fdcbe240cd0d1dc", "is_disabled": 0, "rental_uris": {"android": "https://dc.lft.to/lastmile_qr_scan", "ios": "https://dc.lft.to/lastmile_qr_scan"}, "fusion_lon": 0.0, "lat": 38.883786666666666, "bike_id": "c55c2676c858d58b2fdcbe240cd0d1dc", "type": "electric_scooter", "is_reserved": 0, "lon": -77.0052635}, {"fusion_lat": 0.0, "name": "ce75118018a083200407443d41644e90", "is_disabled": 0, "rental_uris": {"android": "https://dc.lft.to/lastmile_qr_scan", "ios": "https://dc.lft.to/lastmile_qr_scan"}, "fusion_lon": 0.0, "lat": 38.916906833333336, "bike_id": "ce75118018a083200407443d41644e90", "type": "electric_scooter", "is_reserved": 0, "lon": -77.02896166666666}, {"fusion_lat": 0.0, "name": "374e5e71144a4de8e9e8da8395e6c022", "is_disabled": 0, "rental_uris": {"android": "https://dc.lft.to/lastmile_qr_scan", "ios": "https://dc.lft.to/lastmile_qr_scan"}, "fusion_lon": 0.0, "lat": 38.84762966666667, "bike_id": "374e5e71144a4de8e9e8da8395e6c022", "type": "electric_bike", "is_reserved": 0, "lon": -76.96631866666667}, {"fusion_lat": 0.0, "name": "516e8f26dda12cb9cc4684671f0eb294", "is_disabled": 0, "rental_uris": {"android": "https://dc.lft.to/lastmile_qr_scan", "ios": "https://dc.lft.to/lastmile_qr_scan"}, "fusion_lon": 0.0, "lat": 38.92697233333333, "bike_id": "516e8f26dda12cb9cc4684671f0eb294", "type": "electric_scooter", "is_reserved": 0, "lon": -77.025886}, {"fusion_lat": 0.0, "name": "a2b88f8906df3ab744827523bc76a846", "is_disabled": 0, "rental_uris": {"android": "https://dc.lft.to/lastmile_qr_scan", "ios": "https://dc.lft.to/lastmile_qr_scan"}, "fusion_lon": 0.0, "lat": 38.915508833333334, "bike_id": "a2b88f8906df3ab744827523bc76a846", "type": "electric_scooter", "is_reserved": 0, "lon": -77.03867666666666}, {"fusion_lat": 0.0, "name": "f7fb983b6ab18d671069928b0f14d4dc", "is_disabled": 0, "rental_uris": {"android": "https://dc.lft.to/lastmile_qr_scan", "ios": "https://dc.lft.to/lastmile_qr_scan"}, "fusion_lon": 0.0, "lat": 38.919797333333335, "bike_id": "f7fb983b6ab18d671069928b0f14d4dc", "type": "electric_scooter", "is_reserved": 0, "lon": -77.0237445}, {"fusion_lat": 0.0, "name": "beb7faee7113c567828fecd684becfeb", "is_disabled": 0, "rental_uris": {"android": "https://dc.lft.to/lastmile_qr_scan", "ios": "https://dc.lft.to/lastmile_qr_scan"}, "fusion_lon": 0.0, "lat": 38.917219, "bike_id": "beb7faee7113c567828fecd684becfeb", "type": "electric_scooter", "is_reserved": 0, "lon": -77.03237233333333}, {"fusion_lat": 0.0, "name": "c66fdbfeff8c09f600b32e0d07206109", "is_disabled": 0, "rental_uris": {"android": "https://dc.lft.to/lastmile_qr_scan", "ios": "https://dc.lft.to/lastmile_qr_scan"}, "fusion_lon": 0.0, "lat": 38.8984045, "bike_id": "c66fdbfeff8c09f600b32e0d07206109", "type": "electric_scooter", "is_reserved": 0, "lon": -76.9463835}, {"fusion_lat": 0.0, "name": "6be86a65e8c34a0df026dd8a0df455e7", "is_disabled": 0, "rental_uris": {"android": "https://dc.lft.to/lastmile_qr_scan", "ios": "https://dc.lft.to/lastmile_qr_scan"}, "fusion_lon": 0.0, "lat": 38.90633666666667, "bike_id": "6be86a65e8c34a0df026dd8a0df455e7", "type": "electric_scooter", "is_reserved": 0, "lon": -77.00589283333333}, {"fusion_lat": 0.0, "name": "89d651f1430a9dd92492e4b73225616f", "is_disabled": 0, "rental_uris": {"android": "https://dc.lft.to/lastmile_qr_scan", "ios": "https://dc.lft.to/lastmile_qr_scan"}, "fusion_lon": 0.0, "lat": 38.92144733333333, "bike_id": "89d651f1430a9dd92492e4b73225616f", "type": "electric_scooter", "is_reserved": 0, "lon": -77.0192645}, {"fusion_lat": 0.0, "name": "bb5070140fc2bd07baced8c17d3152ee", "is_disabled": 0, "rental_uris": {"android": "https://dc.lft.to/lastmile_qr_scan", "ios": "https://dc.lft.to/lastmile_qr_scan"}, "fusion_lon": 0.0, "lat": 38.92378183333334, "bike_id": "bb5070140fc2bd07baced8c17d3152ee", "type": "electric_scooter", "is_reserved": 0, "lon": -77.051542}, {"fusion_lat": 0.0, "name": "cb8583f711b24d952f4b3861a8b8b2c8", "is_disabled": 0, "rental_uris": {"android": "https://dc.lft.to/lastmile_qr_scan", "ios": "https://dc.lft.to/lastmile_qr_scan"}, "fusion_lon": 0.0, "lat": 38.879121833333336, "bike_id": "cb8583f711b24d952f4b3861a8b8b2c8", "type": "electric_scooter", "is_reserved": 0, "lon": -77.0082375}, {"fusion_lat": 0.0, "name": "82f708cb78e6839aa5f6268081d5a5f9", "is_disabled": 0, "rental_uris": {"android": "https://dc.lft.to/lastmile_qr_scan", "ios": "https://dc.lft.to/lastmile_qr_scan"}, "fusion_lon": 0.0, "lat": 38.91693516666667, "bike_id": "82f708cb78e6839aa5f6268081d5a5f9", "type": "electric_scooter", "is_reserved": 0, "lon": -77.024903}, {"fusion_lat": 0.0, "name": "888c42beb3951a4bd3aa1ef32733e3aa", "is_disabled": 0, "rental_uris": {"android": "https://dc.lft.to/lastmile_qr_scan", "ios": "https://dc.lft.to/lastmile_qr_scan"}, "fusion_lon": 0.0, "lat": 38.9294035, "bike_id": "888c42beb3951a4bd3aa1ef32733e3aa", "type": "electric_scooter", "is_reserved": 0, "lon": -77.032592}, {"fusion_lat": 0.0, "name": "80fa52672ba2f9cd2b3fca8c4fb8bcbd", "is_disabled": 0, "rental_uris": {"android": "https://dc.lft.to/lastmile_qr_scan", "ios": "https://dc.lft.to/lastmile_qr_scan"}, "fusion_lon": 0.0, "lat": 38.9320445, "bike_id": "80fa52672ba2f9cd2b3fca8c4fb8bcbd", "type": "electric_scooter", "is_reserved": 0, "lon": -77.0349885}, {"fusion_lat": 0.0, "name": "3c4968f75f3902f96eb25c43a07cf755", "is_disabled": 0, "rental_uris": {"android": "https://dc.lft.to/lastmile_qr_scan", "ios": "https://dc.lft.to/lastmile_qr_scan"}, "fusion_lon": 0.0, "lat": 38.895964666666664, "bike_id": "3c4968f75f3902f96eb25c43a07cf755", "type": "electric_scooter", "is_reserved": 0, "lon": -77.02585133333334}, {"fusion_lat": 0.0, "name": "f65515b5345b82ce5e6a39119ce82c96", "is_disabled": 0, "rental_uris": {"android": "https://dc.lft.to/lastmile_qr_scan", "ios": "https://dc.lft.to/lastmile_qr_scan"}, "fusion_lon": 0.0, "lat": 38.90011116666667, "bike_id": "f65515b5345b82ce5e6a39119ce82c96", "type": "electric_scooter", "is_reserved": 0, "lon": -76.98814083333333}, {"fusion_lat": 0.0, "name": "e7f3d6f7db407b19d930ae1dad730c90", "is_disabled": 0, "rental_uris": {"android": "https://dc.lft.to/lastmile_qr_scan", "ios": "https://dc.lft.to/lastmile_qr_scan"}, "fusion_lon": 0.0, "lat": 38.922268333333335, "bike_id": "e7f3d6f7db407b19d930ae1dad730c90", "type": "electric_scooter", "is_reserved": 0, "lon": -77.04241466666667}, {"fusion_lat": 0.0, "name": "17626efb69e8a6ef54e2b8ddd751a85a", "is_disabled": 0, "rental_uris": {"android": "https://dc.lft.to/lastmile_qr_scan", "ios": "https://dc.lft.to/lastmile_qr_scan"}, "fusion_lon": 0.0, "lat": 38.9155375, "bike_id": "17626efb69e8a6ef54e2b8ddd751a85a", "type": "electric_scooter", "is_reserved": 0, "lon": -77.01994583333334}, {"fusion_lat": 0.0, "name": "4a80109a862ef7c7fc978702d4f7080f", "is_disabled": 0, "rental_uris": {"android": "https://dc.lft.to/lastmile_qr_scan", "ios": "https://dc.lft.to/lastmile_qr_scan"}, "fusion_lon": 0.0, "lat": 38.91703166666667, "bike_id": "4a80109a862ef7c7fc978702d4f7080f", "type": "electric_scooter", "is_reserved": 0, "lon": -77.0241135}, {"fusion_lat": 0.0, "name": "e35d1114bb870b17f48c0ef6360d94b9", "is_disabled": 0, "rental_uris": {"android": "https://dc.lft.to/lastmile_qr_scan", "ios": "https://dc.lft.to/lastmile_qr_scan"}, "fusion_lon": 0.0, "lat": 38.915601, "bike_id": "e35d1114bb870b17f48c0ef6360d94b9", "type": "electric_scooter", "is_reserved": 0, "lon": -77.031401}, {"fusion_lat": 0.0, "name": "6b237c5b2bdea95da994a459b22b46f6", "is_disabled": 0, "rental_uris": {"android": "https://dc.lft.to/lastmile_qr_scan", "ios": "https://dc.lft.to/lastmile_qr_scan"}, "fusion_lon": 0.0, "lat": 38.911234, "bike_id": "6b237c5b2bdea95da994a459b22b46f6", "type": "electric_scooter", "is_reserved": 0, "lon": -77.03245633333333}, {"fusion_lat": 0.0, "name": "574257e16245df0edc1dd8bd0c6e55b2", "is_disabled": 0, "rental_uris": {"android": "https://dc.lft.to/lastmile_qr_scan", "ios": "https://dc.lft.to/lastmile_qr_scan"}, "fusion_lon": 0.0, "lat": 38.8922595, "bike_id": "574257e16245df0edc1dd8bd0c6e55b2", "type": "electric_scooter", "is_reserved": 0, "lon": -77.02049616666666}, {"fusion_lat": 0.0, "name": "9fb36951542cf2add6fb255886a0e8e7", "is_disabled": 0, "rental_uris": {"android": "https://dc.lft.to/lastmile_qr_scan", "ios": "https://dc.lft.to/lastmile_qr_scan"}, "fusion_lon": 0.0, "lat": 38.886241166666665, "bike_id": "9fb36951542cf2add6fb255886a0e8e7", "type": "electric_scooter", "is_reserved": 0, "lon": -77.02830816666666}, {"fusion_lat": 0.0, "name": "687685c048f49f68ce19da3033ffc827", "is_disabled": 0, "rental_uris": {"android": "https://dc.lft.to/lastmile_qr_scan", "ios": "https://dc.lft.to/lastmile_qr_scan"}, "fusion_lon": 0.0, "lat": 38.905055833333336, "bike_id": "687685c048f49f68ce19da3033ffc827", "type": "electric_scooter", "is_reserved": 0, "lon": -77.0601495}, {"fusion_lat": 0.0, "name": "fd7d87b9d336d2983959d569f9179b37", "is_disabled": 0, "rental_uris": {"android": "https://dc.lft.to/lastmile_qr_scan", "ios": "https://dc.lft.to/lastmile_qr_scan"}, "fusion_lon": 0.0, "lat": 38.926201166666665, "bike_id": "fd7d87b9d336d2983959d569f9179b37", "type": "electric_scooter", "is_reserved": 0, "lon": -77.04327983333333}, {"fusion_lat": 0.0, "name": "c94f0e2fdf071c1f92bc54e6fa8a2cb5", "is_disabled": 0, "rental_uris": {"android": "https://dc.lft.to/lastmile_qr_scan", "ios": "https://dc.lft.to/lastmile_qr_scan"}, "fusion_lon": 0.0, "lat": 38.922631, "bike_id": "c94f0e2fdf071c1f92bc54e6fa8a2cb5", "type": "electric_scooter", "is_reserved": 0, "lon": -77.01952183333333}, {"fusion_lat": 0.0, "name": "f8c84b69865e2c4f7268a3877ff4f88b", "is_disabled": 0, "rental_uris": {"android": "https://dc.lft.to/lastmile_qr_scan", "ios": "https://dc.lft.to/lastmile_qr_scan"}, "fusion_lon": 0.0, "lat": 38.925493333333335, "bike_id": "f8c84b69865e2c4f7268a3877ff4f88b", "type": "electric_scooter", "is_reserved": 0, "lon": -77.04299333333333}, {"fusion_lat": 0.0, "name": "e311446ffa1938ab0a8cc407d27e1d8b", "is_disabled": 0, "rental_uris": {"android": "https://dc.lft.to/lastmile_qr_scan", "ios": "https://dc.lft.to/lastmile_qr_scan"}, "fusion_lon": 0.0, "lat": 38.877592166666666, "bike_id": "e311446ffa1938ab0a8cc407d27e1d8b", "type": "electric_scooter", "is_reserved": 0, "lon": -77.007678}, {"fusion_lat": 0.0, "name": "c978b4f65dcea7efd006141d0b248293", "is_disabled": 0, "rental_uris": {"android": "https://dc.lft.to/lastmile_qr_scan", "ios": "https://dc.lft.to/lastmile_qr_scan"}, "fusion_lon": 0.0, "lat": 38.91815916666667, "bike_id": "c978b4f65dcea7efd006141d0b248293", "type": "electric_scooter", "is_reserved": 0, "lon": -77.03750033333333}, {"fusion_lat": 0.0, "name": "a8fc3fb006fd1e905bc2b7f942ecea19", "is_disabled": 0, "rental_uris": {"android": "https://dc.lft.to/lastmile_qr_scan", "ios": "https://dc.lft.to/lastmile_qr_scan"}, "fusion_lon": 0.0, "lat": 38.91910283333333, "bike_id": "a8fc3fb006fd1e905bc2b7f942ecea19", "type": "electric_scooter", "is_reserved": 0, "lon": -77.01362583333334}, {"fusion_lat": 0.0, "name": "3e42749ff392e7153410f46ae82e74ea", "is_disabled": 0, "rental_uris": {"android": "https://dc.lft.to/lastmile_qr_scan", "ios": "https://dc.lft.to/lastmile_qr_scan"}, "fusion_lon": 0.0, "lat": 38.920196833333335, "bike_id": "3e42749ff392e7153410f46ae82e74ea", "type": "electric_scooter", "is_reserved": 0, "lon": -77.02504966666666}, {"fusion_lat": 0.0, "name": "11db7d0598c88d3407c5bf29f46259a9", "is_disabled": 0, "rental_uris": {"android": "https://dc.lft.to/lastmile_qr_scan", "ios": "https://dc.lft.to/lastmile_qr_scan"}, "fusion_lon": 0.0, "lat": 38.892178666666666, "bike_id": "11db7d0598c88d3407c5bf29f46259a9", "type": "electric_scooter", "is_reserved": 0, "lon": -77.02654516666666}, {"fusion_lat": 0.0, "name": "fe4f93ccf4d9bfeb6bf78bc3164e8d03", "is_disabled": 0, "rental_uris": {"android": "https://dc.lft.to/lastmile_qr_scan", "ios": "https://dc.lft.to/lastmile_qr_scan"}, "fusion_lon": 0.0, "lat": 38.876556666666666, "bike_id": "fe4f93ccf4d9bfeb6bf78bc3164e8d03", "type": "electric_scooter", "is_reserved": 0, "lon": -77.0012105}, {"fusion_lat": 0.0, "name": "9cb866f1df6aa5b2bd420f4740178ed5", "is_disabled": 0, "rental_uris": {"android": "https://dc.lft.to/lastmile_qr_scan", "ios": "https://dc.lft.to/lastmile_qr_scan"}, "fusion_lon": 0.0, "lat": 38.91339633333333, "bike_id": "9cb866f1df6aa5b2bd420f4740178ed5", "type": "electric_scooter", "is_reserved": 0, "lon": -77.0478475}, {"fusion_lat": 0.0, "name": "def8c786c749cee2e7114b9000e835bc", "is_disabled": 0, "rental_uris": {"android": "https://dc.lft.to/lastmile_qr_scan", "ios": "https://dc.lft.to/lastmile_qr_scan"}, "fusion_lon": 0.0, "lat": 38.9181815, "bike_id": "def8c786c749cee2e7114b9000e835bc", "type": "electric_scooter", "is_reserved": 0, "lon": -77.03073233333333}, {"fusion_lat": 0.0, "name": "64fd53bbfca43f4a350e17f667f2454b", "is_disabled": 0, "rental_uris": {"android": "https://dc.lft.to/lastmile_qr_scan", "ios": "https://dc.lft.to/lastmile_qr_scan"}, "fusion_lon": 0.0, "lat": 38.915546, "bike_id": "64fd53bbfca43f4a350e17f667f2454b", "type": "electric_scooter", "is_reserved": 0, "lon": -77.03242266666666}, {"fusion_lat": 0.0, "name": "b2ac367575114d41173a53f96e75cbf1", "is_disabled": 0, "rental_uris": {"android": "https://dc.lft.to/lastmile_qr_scan", "ios": "https://dc.lft.to/lastmile_qr_scan"}, "fusion_lon": 0.0, "lat": 38.905255833333335, "bike_id": "b2ac367575114d41173a53f96e75cbf1", "type": "electric_scooter", "is_reserved": 0, "lon": -77.06606116666667}, {"fusion_lat": 0.0, "name": "9093ee056fe9fdf814a7e278fe19ebe1", "is_disabled": 0, "rental_uris": {"android": "https://dc.lft.to/lastmile_qr_scan", "ios": "https://dc.lft.to/lastmile_qr_scan"}, "fusion_lon": 0.0, "lat": 38.912325833333334, "bike_id": "9093ee056fe9fdf814a7e278fe19ebe1", "type": "electric_scooter", "is_reserved": 0, "lon": -77.03207116666667}, {"fusion_lat": 0.0, "name": "7855f0b3903f40ad34ae0958caa0d385", "is_disabled": 0, "rental_uris": {"android": "https://dc.lft.to/lastmile_qr_scan", "ios": "https://dc.lft.to/lastmile_qr_scan"}, "fusion_lon": 0.0, "lat": 38.90089416666667, "bike_id": "7855f0b3903f40ad34ae0958caa0d385", "type": "electric_scooter", "is_reserved": 0, "lon": -77.025288}, {"fusion_lat": 0.0, "name": "ee5ce27e99054bf548a22315fb9e215b", "is_disabled": 0, "rental_uris": {"android": "https://dc.lft.to/lastmile_qr_scan", "ios": "https://dc.lft.to/lastmile_qr_scan"}, "fusion_lon": 0.0, "lat": 38.936376333333335, "bike_id": "ee5ce27e99054bf548a22315fb9e215b", "type": "electric_scooter", "is_reserved": 0, "lon": -77.0365385}, {"fusion_lat": 0.0, "name": "804562abc23adcc09607c86241b893e2", "is_disabled": 0, "rental_uris": {"android": "https://dc.lft.to/lastmile_qr_scan", "ios": "https://dc.lft.to/lastmile_qr_scan"}, "fusion_lon": 0.0, "lat": 38.90291533333333, "bike_id": "804562abc23adcc09607c86241b893e2", "type": "electric_scooter", "is_reserved": 0, "lon": -77.03658283333333}, {"fusion_lat": 0.0, "name": "2fff84fd7c6dcaba3485fe5840271572", "is_disabled": 0, "rental_uris": {"android": "https://dc.lft.to/lastmile_qr_scan", "ios": "https://dc.lft.to/lastmile_qr_scan"}, "fusion_lon": 0.0, "lat": 38.915479833333336, "bike_id": "2fff84fd7c6dcaba3485fe5840271572", "type": "electric_scooter", "is_reserved": 0, "lon": -77.020838}, {"fusion_lat": 0.0, "name": "9a4c60948b67bb1e3642600a43f11c33", "is_disabled": 0, "rental_uris": {"android": "https://dc.lft.to/lastmile_qr_scan", "ios": "https://dc.lft.to/lastmile_qr_scan"}, "fusion_lon": 0.0, "lat": 38.89311166666667, "bike_id": "9a4c60948b67bb1e3642600a43f11c33", "type": "electric_scooter", "is_reserved": 0, "lon": -77.055903}, {"fusion_lat": 0.0, "name": "abc9c6b2963ca526c7310f6d8bb7705e", "is_disabled": 0, "rental_uris": {"android": "https://dc.lft.to/lastmile_qr_scan", "ios": "https://dc.lft.to/lastmile_qr_scan"}, "fusion_lon": 0.0, "lat": 38.892210666666664, "bike_id": "abc9c6b2963ca526c7310f6d8bb7705e", "type": "electric_scooter", "is_reserved": 0, "lon": -77.0236815}, {"fusion_lat": 0.0, "name": "ba199266937f5daa92c88026ef56d74a", "is_disabled": 0, "rental_uris": {"android": "https://dc.lft.to/lastmile_qr_scan", "ios": "https://dc.lft.to/lastmile_qr_scan"}, "fusion_lon": 0.0, "lat": 38.916033, "bike_id": "ba199266937f5daa92c88026ef56d74a", "type": "electric_scooter", "is_reserved": 0, "lon": -77.067762}, {"fusion_lat": 0.0, "name": "9990eecdffea5f231f015f7f424104b1", "is_disabled": 0, "rental_uris": {"android": "https://dc.lft.to/lastmile_qr_scan", "ios": "https://dc.lft.to/lastmile_qr_scan"}, "fusion_lon": 0.0, "lat": 38.90818433333333, "bike_id": "9990eecdffea5f231f015f7f424104b1", "type": "electric_scooter", "is_reserved": 0, "lon": -77.04349983333333}, {"fusion_lat": 0.0, "name": "c09955f9cbfae07256f9b83d5e00be21", "is_disabled": 0, "rental_uris": {"android": "https://dc.lft.to/lastmile_qr_scan", "ios": "https://dc.lft.to/lastmile_qr_scan"}, "fusion_lon": 0.0, "lat": 38.878632833333334, "bike_id": "c09955f9cbfae07256f9b83d5e00be21", "type": "electric_scooter", "is_reserved": 0, "lon": -77.0057465}, {"fusion_lat": 0.0, "name": "429c409a71b1928d67b3549dcc1a8fb8", "is_disabled": 0, "rental_uris": {"android": "https://dc.lft.to/lastmile_qr_scan", "ios": "https://dc.lft.to/lastmile_qr_scan"}, "fusion_lon": 0.0, "lat": 38.861379, "bike_id": "429c409a71b1928d67b3549dcc1a8fb8", "type": "electric_bike", "is_reserved": 0, "lon": -76.97171333333333}, {"fusion_lat": 0.0, "name": "d4f0c0e2965eee771fdffde7579a9e7a", "is_disabled": 0, "rental_uris": {"android": "https://dc.lft.to/lastmile_qr_scan", "ios": "https://dc.lft.to/lastmile_qr_scan"}, "fusion_lon": 0.0, "lat": 38.90242416666667, "bike_id": "d4f0c0e2965eee771fdffde7579a9e7a", "type": "electric_scooter", "is_reserved": 0, "lon": -77.01094483333334}, {"fusion_lat": 0.0, "name": "391c0fb1067ed67790d1c7e87892332e", "is_disabled": 0, "rental_uris": {"android": "https://dc.lft.to/lastmile_qr_scan", "ios": "https://dc.lft.to/lastmile_qr_scan"}, "fusion_lon": 0.0, "lat": 38.9118125, "bike_id": "391c0fb1067ed67790d1c7e87892332e", "type": "electric_scooter", "is_reserved": 0, "lon": -77.03210166666666}, {"fusion_lat": 0.0, "name": "df6614dd14940883aadf94c4de0ef87f", "is_disabled": 0, "rental_uris": {"android": "https://dc.lft.to/lastmile_qr_scan", "ios": "https://dc.lft.to/lastmile_qr_scan"}, "fusion_lon": 0.0, "lat": 38.96408133333333, "bike_id": "df6614dd14940883aadf94c4de0ef87f", "type": "electric_scooter", "is_reserved": 0, "lon": -77.02767}, {"fusion_lat": 0.0, "name": "6744bf82106c5aba39024557c72bea70", "is_disabled": 0, "rental_uris": {"android": "https://dc.lft.to/lastmile_qr_scan", "ios": "https://dc.lft.to/lastmile_qr_scan"}, "fusion_lon": 0.0, "lat": 38.915502333333336, "bike_id": "6744bf82106c5aba39024557c72bea70", "type": "electric_scooter", "is_reserved": 0, "lon": -77.046166}, {"fusion_lat": 0.0, "name": "0c44f578062e294a60e55dd9a6d2ac4c", "is_disabled": 0, "rental_uris": {"android": "https://dc.lft.to/lastmile_qr_scan", "ios": "https://dc.lft.to/lastmile_qr_scan"}, "fusion_lon": 0.0, "lat": 38.9165685, "bike_id": "0c44f578062e294a60e55dd9a6d2ac4c", "type": "electric_scooter", "is_reserved": 0, "lon": -77.009593}, {"fusion_lat": 0.0, "name": "6f6e94966b996ef51b6a573fa178ff38", "is_disabled": 0, "rental_uris": {"android": "https://dc.lft.to/lastmile_qr_scan", "ios": "https://dc.lft.to/lastmile_qr_scan"}, "fusion_lon": 0.0, "lat": 38.8651745, "bike_id": "6f6e94966b996ef51b6a573fa178ff38", "type": "electric_bike", "is_reserved": 0, "lon": -77.12935683333333}, {"fusion_lat": 0.0, "name": "372e6d643155714d0d63a12ce3162532", "is_disabled": 0, "rental_uris": {"android": "https://dc.lft.to/lastmile_qr_scan", "ios": "https://dc.lft.to/lastmile_qr_scan"}, "fusion_lon": 0.0, "lat": 38.903745, "bike_id": "372e6d643155714d0d63a12ce3162532", "type": "electric_scooter", "is_reserved": 0, "lon": -77.017556}, {"fusion_lat": 0.0, "name": "9eaa0fdff824cadacbe83c549b502244", "is_disabled": 0, "rental_uris": {"android": "https://dc.lft.to/lastmile_qr_scan", "ios": "https://dc.lft.to/lastmile_qr_scan"}, "fusion_lon": 0.0, "lat": 38.9224195, "bike_id": "9eaa0fdff824cadacbe83c549b502244", "type": "electric_scooter", "is_reserved": 0, "lon": -77.02237516666666}, {"fusion_lat": 0.0, "name": "d5e377ca7072f9d6b5a16c9b5f88a9a4", "is_disabled": 0, "rental_uris": {"android": "https://dc.lft.to/lastmile_qr_scan", "ios": "https://dc.lft.to/lastmile_qr_scan"}, "fusion_lon": 0.0, "lat": 38.90109366666667, "bike_id": "d5e377ca7072f9d6b5a16c9b5f88a9a4", "type": "electric_scooter", "is_reserved": 0, "lon": -77.0231275}, {"fusion_lat": 0.0, "name": "dfef8ddf1935ffb5bf0c53cc085c5b33", "is_disabled": 0, "rental_uris": {"android": "https://dc.lft.to/lastmile_qr_scan", "ios": "https://dc.lft.to/lastmile_qr_scan"}, "fusion_lon": 0.0, "lat": 38.9141375, "bike_id": "dfef8ddf1935ffb5bf0c53cc085c5b33", "type": "electric_scooter", "is_reserved": 0, "lon": -77.04251666666667}, {"fusion_lat": 0.0, "name": "3d39be33d086e478a25925ea93966198", "is_disabled": 0, "rental_uris": {"android": "https://dc.lft.to/lastmile_qr_scan", "ios": "https://dc.lft.to/lastmile_qr_scan"}, "fusion_lon": 0.0, "lat": 38.88731966666667, "bike_id": "3d39be33d086e478a25925ea93966198", "type": "electric_scooter", "is_reserved": 0, "lon": -77.01515366666666}, {"fusion_lat": 0.0, "name": "a3f6c94f8533a7606cd14e8e59064bae", "is_disabled": 0, "rental_uris": {"android": "https://dc.lft.to/lastmile_qr_scan", "ios": "https://dc.lft.to/lastmile_qr_scan"}, "fusion_lon": 0.0, "lat": 38.91266516666666, "bike_id": "a3f6c94f8533a7606cd14e8e59064bae", "type": "electric_scooter", "is_reserved": 0, "lon": -77.036351}, {"fusion_lat": 0.0, "name": "48a0febd847368037ca76524b175fc86", "is_disabled": 0, "rental_uris": {"android": "https://dc.lft.to/lastmile_qr_scan", "ios": "https://dc.lft.to/lastmile_qr_scan"}, "fusion_lon": 0.0, "lat": 38.929661333333335, "bike_id": "48a0febd847368037ca76524b175fc86", "type": "electric_scooter", "is_reserved": 0, "lon": -77.03102533333333}, {"fusion_lat": 0.0, "name": "be3dc351bc86d193747f3367119beb93", "is_disabled": 0, "rental_uris": {"android": "https://dc.lft.to/lastmile_qr_scan", "ios": "https://dc.lft.to/lastmile_qr_scan"}, "fusion_lon": 0.0, "lat": 38.8876765, "bike_id": "be3dc351bc86d193747f3367119beb93", "type": "electric_scooter", "is_reserved": 0, "lon": -77.02864733333334}, {"fusion_lat": 0.0, "name": "a8887a8707af0c65ab97685ec1867f37", "is_disabled": 0, "rental_uris": {"android": "https://dc.lft.to/lastmile_qr_scan", "ios": "https://dc.lft.to/lastmile_qr_scan"}, "fusion_lon": 0.0, "lat": 38.901743833333335, "bike_id": "a8887a8707af0c65ab97685ec1867f37", "type": "electric_scooter", "is_reserved": 0, "lon": -77.02486783333333}, {"fusion_lat": 0.0, "name": "66e5da34464d8e41ed5270a36b0acc74", "is_disabled": 0, "rental_uris": {"android": "https://dc.lft.to/lastmile_qr_scan", "ios": "https://dc.lft.to/lastmile_qr_scan"}, "fusion_lon": 0.0, "lat": 38.916821, "bike_id": "66e5da34464d8e41ed5270a36b0acc74", "type": "electric_scooter", "is_reserved": 0, "lon": -77.03687616666667}, {"fusion_lat": 0.0, "name": "68e75ffb96b84686606b3f4f0dbdc88a", "is_disabled": 0, "rental_uris": {"android": "https://dc.lft.to/lastmile_qr_scan", "ios": "https://dc.lft.to/lastmile_qr_scan"}, "fusion_lon": 0.0, "lat": 38.905396833333334, "bike_id": "68e75ffb96b84686606b3f4f0dbdc88a", "type": "electric_scooter", "is_reserved": 0, "lon": -76.981991}, {"fusion_lat": 0.0, "name": "b05e87dc1ced2ca3ed8a8f71b5095c27", "is_disabled": 0, "rental_uris": {"android": "https://dc.lft.to/lastmile_qr_scan", "ios": "https://dc.lft.to/lastmile_qr_scan"}, "fusion_lon": 0.0, "lat": 38.89826883333333, "bike_id": "b05e87dc1ced2ca3ed8a8f71b5095c27", "type": "electric_scooter", "is_reserved": 0, "lon": -77.024847}, {"fusion_lat": 0.0, "name": "66afc1b3df4667e2e5538152e808e720", "is_disabled": 0, "rental_uris": {"android": "https://dc.lft.to/lastmile_qr_scan", "ios": "https://dc.lft.to/lastmile_qr_scan"}, "fusion_lon": 0.0, "lat": 38.92461933333333, "bike_id": "66afc1b3df4667e2e5538152e808e720", "type": "electric_scooter", "is_reserved": 0, "lon": -77.05228}, {"fusion_lat": 0.0, "name": "8e93b7afe1cb2c8902cf3e5bde4ceee7", "is_disabled": 0, "rental_uris": {"android": "https://dc.lft.to/lastmile_qr_scan", "ios": "https://dc.lft.to/lastmile_qr_scan"}, "fusion_lon": 0.0, "lat": 38.923325, "bike_id": "8e93b7afe1cb2c8902cf3e5bde4ceee7", "type": "electric_scooter", "is_reserved": 0, "lon": -77.05680266666667}, {"fusion_lat": 0.0, "name": "c88d4f0df109571d0687fd5972d800e7", "is_disabled": 0, "rental_uris": {"android": "https://dc.lft.to/lastmile_qr_scan", "ios": "https://dc.lft.to/lastmile_qr_scan"}, "fusion_lon": 0.0, "lat": 38.9095555, "bike_id": "c88d4f0df109571d0687fd5972d800e7", "type": "electric_scooter", "is_reserved": 0, "lon": -76.9877275}, {"fusion_lat": 0.0, "name": "8115d0c138ea07f7e427f4a5ed1d9c0b", "is_disabled": 0, "rental_uris": {"android": "https://dc.lft.to/lastmile_qr_scan", "ios": "https://dc.lft.to/lastmile_qr_scan"}, "fusion_lon": 0.0, "lat": 38.907167333333334, "bike_id": "8115d0c138ea07f7e427f4a5ed1d9c0b", "type": "electric_scooter", "is_reserved": 0, "lon": -76.999613}, {"fusion_lat": 0.0, "name": "ef485cf4a8611e41f831a10e27d8cc27", "is_disabled": 0, "rental_uris": {"android": "https://dc.lft.to/lastmile_qr_scan", "ios": "https://dc.lft.to/lastmile_qr_scan"}, "fusion_lon": 0.0, "lat": 38.90026, "bike_id": "ef485cf4a8611e41f831a10e27d8cc27", "type": "electric_scooter", "is_reserved": 0, "lon": -76.9740115}, {"fusion_lat": 0.0, "name": "0dedaf5691a60540a5fa2ea0a68a14e1", "is_disabled": 0, "rental_uris": {"android": "https://dc.lft.to/lastmile_qr_scan", "ios": "https://dc.lft.to/lastmile_qr_scan"}, "fusion_lon": 0.0, "lat": 38.915365333333334, "bike_id": "0dedaf5691a60540a5fa2ea0a68a14e1", "type": "electric_scooter", "is_reserved": 0, "lon": -77.0122515}, {"fusion_lat": 0.0, "name": "78a05178362e1c120da817c3759d6c71", "is_disabled": 0, "rental_uris": {"android": "https://dc.lft.to/lastmile_qr_scan", "ios": "https://dc.lft.to/lastmile_qr_scan"}, "fusion_lon": 0.0, "lat": 38.919928, "bike_id": "78a05178362e1c120da817c3759d6c71", "type": "electric_scooter", "is_reserved": 0, "lon": -77.0219405}, {"fusion_lat": 0.0, "name": "fad276f5ba64f68cdf18f8eaf06bd482", "is_disabled": 0, "rental_uris": {"android": "https://dc.lft.to/lastmile_qr_scan", "ios": "https://dc.lft.to/lastmile_qr_scan"}, "fusion_lon": 0.0, "lat": 38.9223005, "bike_id": "fad276f5ba64f68cdf18f8eaf06bd482", "type": "electric_bike", "is_reserved": 0, "lon": -77.023397}, {"fusion_lat": 0.0, "name": "3c22da0d052571ec2cd38c13b1f6ead2", "is_disabled": 0, "rental_uris": {"android": "https://dc.lft.to/lastmile_qr_scan", "ios": "https://dc.lft.to/lastmile_qr_scan"}, "fusion_lon": 0.0, "lat": 38.9057555, "bike_id": "3c22da0d052571ec2cd38c13b1f6ead2", "type": "electric_scooter", "is_reserved": 0, "lon": -77.04074616666666}, {"fusion_lat": 0.0, "name": "f7ebf43b5bb76af2134861d74f472add", "is_disabled": 0, "rental_uris": {"android": "https://dc.lft.to/lastmile_qr_scan", "ios": "https://dc.lft.to/lastmile_qr_scan"}, "fusion_lon": 0.0, "lat": 38.8781375, "bike_id": "f7ebf43b5bb76af2134861d74f472add", "type": "electric_scooter", "is_reserved": 0, "lon": -77.01529583333334}, {"fusion_lat": 0.0, "name": "96815f32c04b9fac4bfa4c831fd41480", "is_disabled": 0, "rental_uris": {"android": "https://dc.lft.to/lastmile_qr_scan", "ios": "https://dc.lft.to/lastmile_qr_scan"}, "fusion_lon": 0.0, "lat": 38.89800616666667, "bike_id": "96815f32c04b9fac4bfa4c831fd41480", "type": "electric_scooter", "is_reserved": 0, "lon": -76.98458033333333}, {"fusion_lat": 0.0, "name": "c60d037fb7e9257c0c597ad010215b79", "is_disabled": 0, "rental_uris": {"android": "https://dc.lft.to/lastmile_qr_scan", "ios": "https://dc.lft.to/lastmile_qr_scan"}, "fusion_lon": 0.0, "lat": 38.8716045, "bike_id": "c60d037fb7e9257c0c597ad010215b79", "type": "electric_scooter", "is_reserved": 0, "lon": -77.00575533333334}, {"fusion_lat": 0.0, "name": "569df90798124b53f1ba4deed4fbde29", "is_disabled": 0, "rental_uris": {"android": "https://dc.lft.to/lastmile_qr_scan", "ios": "https://dc.lft.to/lastmile_qr_scan"}, "fusion_lon": 0.0, "lat": 38.934555, "bike_id": "569df90798124b53f1ba4deed4fbde29", "type": "electric_scooter", "is_reserved": 0, "lon": -77.03870133333334}, {"fusion_lat": 0.0, "name": "7ba60e122e8c448eaebc94293a1ab42c", "is_disabled": 0, "rental_uris": {"android": "https://dc.lft.to/lastmile_qr_scan", "ios": "https://dc.lft.to/lastmile_qr_scan"}, "fusion_lon": 0.0, "lat": 38.9281425, "bike_id": "7ba60e122e8c448eaebc94293a1ab42c", "type": "electric_scooter", "is_reserved": 0, "lon": -77.0233015}, {"fusion_lat": 0.0, "name": "78f291dce4556a2cc509cc88b201082c", "is_disabled": 0, "rental_uris": {"android": "https://dc.lft.to/lastmile_qr_scan", "ios": "https://dc.lft.to/lastmile_qr_scan"}, "fusion_lon": 0.0, "lat": 38.892901333333334, "bike_id": "78f291dce4556a2cc509cc88b201082c", "type": "electric_scooter", "is_reserved": 0, "lon": -77.03201966666667}, {"fusion_lat": 0.0, "name": "2ed8191b6e91b8a0808bafc71a834673", "is_disabled": 0, "rental_uris": {"android": "https://dc.lft.to/lastmile_qr_scan", "ios": "https://dc.lft.to/lastmile_qr_scan"}, "fusion_lon": 0.0, "lat": 38.91663833333333, "bike_id": "2ed8191b6e91b8a0808bafc71a834673", "type": "electric_scooter", "is_reserved": 0, "lon": -77.038573}, {"fusion_lat": 0.0, "name": "d9aec4f319e0c871aa90adf5085d2d40", "is_disabled": 0, "rental_uris": {"android": "https://dc.lft.to/lastmile_qr_scan", "ios": "https://dc.lft.to/lastmile_qr_scan"}, "fusion_lon": 0.0, "lat": 38.85876783333333, "bike_id": "d9aec4f319e0c871aa90adf5085d2d40", "type": "electric_bike", "is_reserved": 0, "lon": -77.09558166666666}, {"fusion_lat": 0.0, "name": "652c55753e843482e445e0b6727344b2", "is_disabled": 0, "rental_uris": {"android": "https://dc.lft.to/lastmile_qr_scan", "ios": "https://dc.lft.to/lastmile_qr_scan"}, "fusion_lon": 0.0, "lat": 38.8954585, "bike_id": "652c55753e843482e445e0b6727344b2", "type": "electric_scooter", "is_reserved": 0, "lon": -77.02694016666666}, {"fusion_lat": 0.0, "name": "8c2e5d53caaf05e508d6c37b70e9cc7f", "is_disabled": 0, "rental_uris": {"android": "https://dc.lft.to/lastmile_qr_scan", "ios": "https://dc.lft.to/lastmile_qr_scan"}, "fusion_lon": 0.0, "lat": 38.9281455, "bike_id": "8c2e5d53caaf05e508d6c37b70e9cc7f", "type": "electric_scooter", "is_reserved": 0, "lon": -77.04340533333334}, {"fusion_lat": 0.0, "name": "1ef895eb0042df4001bb3db23a6f21e2", "is_disabled": 0, "rental_uris": {"android": "https://dc.lft.to/lastmile_qr_scan", "ios": "https://dc.lft.to/lastmile_qr_scan"}, "fusion_lon": 0.0, "lat": 38.906900666666665, "bike_id": "1ef895eb0042df4001bb3db23a6f21e2", "type": "electric_bike", "is_reserved": 0, "lon": -77.02697633333334}, {"fusion_lat": 0.0, "name": "998cc25df270919a8a4e66c4edcb8b38", "is_disabled": 0, "rental_uris": {"android": "https://dc.lft.to/lastmile_qr_scan", "ios": "https://dc.lft.to/lastmile_qr_scan"}, "fusion_lon": 0.0, "lat": 38.90297616666667, "bike_id": "998cc25df270919a8a4e66c4edcb8b38", "type": "electric_scooter", "is_reserved": 0, "lon": -77.04955333333334}, {"fusion_lat": 0.0, "name": "f440fee1691b8ddc7c5dabb7993c3389", "is_disabled": 0, "rental_uris": {"android": "https://dc.lft.to/lastmile_qr_scan", "ios": "https://dc.lft.to/lastmile_qr_scan"}, "fusion_lon": 0.0, "lat": 38.929271666666665, "bike_id": "f440fee1691b8ddc7c5dabb7993c3389", "type": "electric_scooter", "is_reserved": 0, "lon": -77.032765}, {"fusion_lat": 0.0, "name": "913c45015578c089b9246eb9a4463a58", "is_disabled": 0, "rental_uris": {"android": "https://dc.lft.to/lastmile_qr_scan", "ios": "https://dc.lft.to/lastmile_qr_scan"}, "fusion_lon": 0.0, "lat": 38.912203, "bike_id": "913c45015578c089b9246eb9a4463a58", "type": "electric_scooter", "is_reserved": 0, "lon": -77.03211783333333}, {"fusion_lat": 0.0, "name": "2d55d3637ef9f075c09da0c7b3da2509", "is_disabled": 0, "rental_uris": {"android": "https://dc.lft.to/lastmile_qr_scan", "ios": "https://dc.lft.to/lastmile_qr_scan"}, "fusion_lon": 0.0, "lat": 38.93207116666667, "bike_id": "2d55d3637ef9f075c09da0c7b3da2509", "type": "electric_scooter", "is_reserved": 0, "lon": -77.03661383333333}, {"fusion_lat": 0.0, "name": "8fe9d7aa0b12b58739b8c3774a17b154", "is_disabled": 0, "rental_uris": {"android": "https://dc.lft.to/lastmile_qr_scan", "ios": "https://dc.lft.to/lastmile_qr_scan"}, "fusion_lon": 0.0, "lat": 38.91705666666667, "bike_id": "8fe9d7aa0b12b58739b8c3774a17b154", "type": "electric_scooter", "is_reserved": 0, "lon": -77.04206983333333}, {"fusion_lat": 0.0, "name": "827a30a7bb00cb100a5f2356815a6e91", "is_disabled": 0, "rental_uris": {"android": "https://dc.lft.to/lastmile_qr_scan", "ios": "https://dc.lft.to/lastmile_qr_scan"}, "fusion_lon": 0.0, "lat": 38.88710533333333, "bike_id": "827a30a7bb00cb100a5f2356815a6e91", "type": "electric_scooter", "is_reserved": 0, "lon": -76.99680616666667}, {"fusion_lat": 0.0, "name": "8e20c4227d9801a1de4901b76ce4941e", "is_disabled": 0, "rental_uris": {"android": "https://dc.lft.to/lastmile_qr_scan", "ios": "https://dc.lft.to/lastmile_qr_scan"}, "fusion_lon": 0.0, "lat": 38.895482, "bike_id": "8e20c4227d9801a1de4901b76ce4941e", "type": "electric_scooter", "is_reserved": 0, "lon": -76.98339916666667}, {"fusion_lat": 0.0, "name": "d2dc3cadf984f5cecaadb3ad071d4736", "is_disabled": 0, "rental_uris": {"android": "https://dc.lft.to/lastmile_qr_scan", "ios": "https://dc.lft.to/lastmile_qr_scan"}, "fusion_lon": 0.0, "lat": 38.934468, "bike_id": "d2dc3cadf984f5cecaadb3ad071d4736", "type": "electric_scooter", "is_reserved": 0, "lon": -77.03873016666667}, {"fusion_lat": 0.0, "name": "0cc4233c1f2008b9d70f5a01f54a8164", "is_disabled": 0, "rental_uris": {"android": "https://dc.lft.to/lastmile_qr_scan", "ios": "https://dc.lft.to/lastmile_qr_scan"}, "fusion_lon": 0.0, "lat": 38.90725333333334, "bike_id": "0cc4233c1f2008b9d70f5a01f54a8164", "type": "electric_scooter", "is_reserved": 0, "lon": -77.00061133333334}, {"fusion_lat": 0.0, "name": "abaec308afb7b0feead5feeea6d69f21", "is_disabled": 0, "rental_uris": {"android": "https://dc.lft.to/lastmile_qr_scan", "ios": "https://dc.lft.to/lastmile_qr_scan"}, "fusion_lon": 0.0, "lat": 38.891988166666664, "bike_id": "abaec308afb7b0feead5feeea6d69f21", "type": "electric_scooter", "is_reserved": 0, "lon": -77.04337033333333}, {"fusion_lat": 0.0, "name": "eac2c00cf19786b74f09eb7ee4139f5e", "is_disabled": 0, "rental_uris": {"android": "https://dc.lft.to/lastmile_qr_scan", "ios": "https://dc.lft.to/lastmile_qr_scan"}, "fusion_lon": 0.0, "lat": 38.905747166666664, "bike_id": "eac2c00cf19786b74f09eb7ee4139f5e", "type": "electric_scooter", "is_reserved": 0, "lon": -77.00704166666667}, {"fusion_lat": 0.0, "name": "88e3e980d091c20c17643a84db02b1e6", "is_disabled": 0, "rental_uris": {"android": "https://dc.lft.to/lastmile_qr_scan", "ios": "https://dc.lft.to/lastmile_qr_scan"}, "fusion_lon": 0.0, "lat": 38.92535983333333, "bike_id": "88e3e980d091c20c17643a84db02b1e6", "type": "electric_scooter", "is_reserved": 0, "lon": -77.03487183333333}, {"fusion_lat": 0.0, "name": "6054340b189ce034514244cfea068bc1", "is_disabled": 0, "rental_uris": {"android": "https://dc.lft.to/lastmile_qr_scan", "ios": "https://dc.lft.to/lastmile_qr_scan"}, "fusion_lon": 0.0, "lat": 38.92239983333333, "bike_id": "6054340b189ce034514244cfea068bc1", "type": "electric_scooter", "is_reserved": 0, "lon": -77.03524016666667}, {"fusion_lat": 0.0, "name": "8d931f696accf1378136852d2037dc92", "is_disabled": 0, "rental_uris": {"android": "https://dc.lft.to/lastmile_qr_scan", "ios": "https://dc.lft.to/lastmile_qr_scan"}, "fusion_lon": 0.0, "lat": 38.8961875, "bike_id": "8d931f696accf1378136852d2037dc92", "type": "electric_scooter", "is_reserved": 0, "lon": -76.98570033333333}, {"fusion_lat": 0.0, "name": "6737a9d520543e392ed189786938cae7", "is_disabled": 0, "rental_uris": {"android": "https://dc.lft.to/lastmile_qr_scan", "ios": "https://dc.lft.to/lastmile_qr_scan"}, "fusion_lon": 0.0, "lat": 38.914646, "bike_id": "6737a9d520543e392ed189786938cae7", "type": "electric_scooter", "is_reserved": 0, "lon": -77.01555983333333}, {"fusion_lat": 0.0, "name": "97ff1ca9761950e6f1973a8981dfbe28", "is_disabled": 0, "rental_uris": {"android": "https://dc.lft.to/lastmile_qr_scan", "ios": "https://dc.lft.to/lastmile_qr_scan"}, "fusion_lon": 0.0, "lat": 38.902408666666666, "bike_id": "97ff1ca9761950e6f1973a8981dfbe28", "type": "electric_scooter", "is_reserved": 0, "lon": -77.01891616666667}, {"fusion_lat": 0.0, "name": "1494b5a71192b5516dada1b90aa57e38", "is_disabled": 0, "rental_uris": {"android": "https://dc.lft.to/lastmile_qr_scan", "ios": "https://dc.lft.to/lastmile_qr_scan"}, "fusion_lon": 0.0, "lat": 38.91223083333333, "bike_id": "1494b5a71192b5516dada1b90aa57e38", "type": "electric_scooter", "is_reserved": 0, "lon": -77.0478425}, {"fusion_lat": 0.0, "name": "27e50ac8c702b17265e2bd4a681aeb8f", "is_disabled": 0, "rental_uris": {"android": "https://dc.lft.to/lastmile_qr_scan", "ios": "https://dc.lft.to/lastmile_qr_scan"}, "fusion_lon": 0.0, "lat": 38.90514433333333, "bike_id": "27e50ac8c702b17265e2bd4a681aeb8f", "type": "electric_scooter", "is_reserved": 0, "lon": -77.01716666666667}, {"fusion_lat": 0.0, "name": "06ba47a37d4605d39a932d8f1a1cc097", "is_disabled": 0, "rental_uris": {"android": "https://dc.lft.to/lastmile_qr_scan", "ios": "https://dc.lft.to/lastmile_qr_scan"}, "fusion_lon": 0.0, "lat": 38.855156666666666, "bike_id": "06ba47a37d4605d39a932d8f1a1cc097", "type": "electric_bike", "is_reserved": 0, "lon": -77.10538516666666}, {"fusion_lat": 0.0, "name": "986a8cbcf267f91cac13cba56d62b238", "is_disabled": 0, "rental_uris": {"android": "https://dc.lft.to/lastmile_qr_scan", "ios": "https://dc.lft.to/lastmile_qr_scan"}, "fusion_lon": 0.0, "lat": 38.9006035, "bike_id": "986a8cbcf267f91cac13cba56d62b238", "type": "electric_scooter", "is_reserved": 0, "lon": -77.029519}, {"fusion_lat": 0.0, "name": "83b3b0c894a1f7799380abf3752a5dee", "is_disabled": 0, "rental_uris": {"android": "https://dc.lft.to/lastmile_qr_scan", "ios": "https://dc.lft.to/lastmile_qr_scan"}, "fusion_lon": 0.0, "lat": 38.901924, "bike_id": "83b3b0c894a1f7799380abf3752a5dee", "type": "electric_scooter", "is_reserved": 0, "lon": -77.023022}, {"fusion_lat": 0.0, "name": "971dc49d0eeec319de7c899f51ffbc64", "is_disabled": 0, "rental_uris": {"android": "https://dc.lft.to/lastmile_qr_scan", "ios": "https://dc.lft.to/lastmile_qr_scan"}, "fusion_lon": 0.0, "lat": 38.959611333333335, "bike_id": "971dc49d0eeec319de7c899f51ffbc64", "type": "electric_bike", "is_reserved": 0, "lon": -76.98160116666666}, {"fusion_lat": 0.0, "name": "bb502b48ed2460af718df6babf7b21c7", "is_disabled": 0, "rental_uris": {"android": "https://dc.lft.to/lastmile_qr_scan", "ios": "https://dc.lft.to/lastmile_qr_scan"}, "fusion_lon": 0.0, "lat": 38.909608, "bike_id": "bb502b48ed2460af718df6babf7b21c7", "type": "electric_scooter", "is_reserved": 0, "lon": -77.03939483333333}, {"fusion_lat": 0.0, "name": "e1c884f1e47ff87a8ea8a1274379e810", "is_disabled": 0, "rental_uris": {"android": "https://dc.lft.to/lastmile_qr_scan", "ios": "https://dc.lft.to/lastmile_qr_scan"}, "fusion_lon": 0.0, "lat": 38.89248666666667, "bike_id": "e1c884f1e47ff87a8ea8a1274379e810", "type": "electric_scooter", "is_reserved": 0, "lon": -77.05028133333333}, {"fusion_lat": 0.0, "name": "8785462ef29cfcdf2b378756998a25c1", "is_disabled": 0, "rental_uris": {"android": "https://dc.lft.to/lastmile_qr_scan", "ios": "https://dc.lft.to/lastmile_qr_scan"}, "fusion_lon": 0.0, "lat": 38.91112483333333, "bike_id": "8785462ef29cfcdf2b378756998a25c1", "type": "electric_scooter", "is_reserved": 0, "lon": -77.032874}, {"fusion_lat": 0.0, "name": "f2102b1b745a77f2ba8213f0e773529a", "is_disabled": 0, "rental_uris": {"android": "https://dc.lft.to/lastmile_qr_scan", "ios": "https://dc.lft.to/lastmile_qr_scan"}, "fusion_lon": 0.0, "lat": 38.95886683333333, "bike_id": "f2102b1b745a77f2ba8213f0e773529a", "type": "electric_scooter", "is_reserved": 0, "lon": -77.00281366666667}, {"fusion_lat": 0.0, "name": "32522cb59a3ab8a692a88ee78a5ca1d5", "is_disabled": 0, "rental_uris": {"android": "https://dc.lft.to/lastmile_qr_scan", "ios": "https://dc.lft.to/lastmile_qr_scan"}, "fusion_lon": 0.0, "lat": 38.89955883333333, "bike_id": "32522cb59a3ab8a692a88ee78a5ca1d5", "type": "electric_scooter", "is_reserved": 0, "lon": -77.0223155}, {"fusion_lat": 0.0, "name": "d171f6926ea57906e95470567392174d", "is_disabled": 0, "rental_uris": {"android": "https://dc.lft.to/lastmile_qr_scan", "ios": "https://dc.lft.to/lastmile_qr_scan"}, "fusion_lon": 0.0, "lat": 38.92453866666666, "bike_id": "d171f6926ea57906e95470567392174d", "type": "electric_scooter", "is_reserved": 0, "lon": -77.03977833333333}, {"fusion_lat": 0.0, "name": "b7ad5a0e629b30effc2b91fba1243c7a", "is_disabled": 0, "rental_uris": {"android": "https://dc.lft.to/lastmile_qr_scan", "ios": "https://dc.lft.to/lastmile_qr_scan"}, "fusion_lon": 0.0, "lat": 38.900882, "bike_id": "b7ad5a0e629b30effc2b91fba1243c7a", "type": "electric_bike", "is_reserved": 0, "lon": -77.0394365}, {"fusion_lat": 0.0, "name": "958b55cbc54f7159774cbf9f7f3ec1af", "is_disabled": 0, "rental_uris": {"android": "https://dc.lft.to/lastmile_qr_scan", "ios": "https://dc.lft.to/lastmile_qr_scan"}, "fusion_lon": 0.0, "lat": 38.92131533333333, "bike_id": "958b55cbc54f7159774cbf9f7f3ec1af", "type": "electric_scooter", "is_reserved": 0, "lon": -77.04431583333333}, {"fusion_lat": 0.0, "name": "4ecd7964bdb5a65798cc161984e7f221", "is_disabled": 0, "rental_uris": {"android": "https://dc.lft.to/lastmile_qr_scan", "ios": "https://dc.lft.to/lastmile_qr_scan"}, "fusion_lon": 0.0, "lat": 38.90973833333334, "bike_id": "4ecd7964bdb5a65798cc161984e7f221", "type": "electric_bike", "is_reserved": 0, "lon": -77.04629}, {"fusion_lat": 0.0, "name": "c027cd7994150e13c33620ba136757d9", "is_disabled": 0, "rental_uris": {"android": "https://dc.lft.to/lastmile_qr_scan", "ios": "https://dc.lft.to/lastmile_qr_scan"}, "fusion_lon": 0.0, "lat": 38.9066795, "bike_id": "c027cd7994150e13c33620ba136757d9", "type": "electric_scooter", "is_reserved": 0, "lon": -77.027093}, {"fusion_lat": 0.0, "name": "a18de757b8d223edccae0d1b9032d8de", "is_disabled": 0, "rental_uris": {"android": "https://dc.lft.to/lastmile_qr_scan", "ios": "https://dc.lft.to/lastmile_qr_scan"}, "fusion_lon": 0.0, "lat": 38.88996483333333, "bike_id": "a18de757b8d223edccae0d1b9032d8de", "type": "electric_scooter", "is_reserved": 0, "lon": -77.003378}, {"fusion_lat": 0.0, "name": "c42406ebb8f570afd5999a1413d0895f", "is_disabled": 0, "rental_uris": {"android": "https://dc.lft.to/lastmile_qr_scan", "ios": "https://dc.lft.to/lastmile_qr_scan"}, "fusion_lon": 0.0, "lat": 38.88738933333333, "bike_id": "c42406ebb8f570afd5999a1413d0895f", "type": "electric_scooter", "is_reserved": 0, "lon": -77.015332}, {"fusion_lat": 0.0, "name": "c3ce38b51f22e4fb6c1f26b0d4b1dd1e", "is_disabled": 0, "rental_uris": {"android": "https://dc.lft.to/lastmile_qr_scan", "ios": "https://dc.lft.to/lastmile_qr_scan"}, "fusion_lon": 0.0, "lat": 38.92149216666667, "bike_id": "c3ce38b51f22e4fb6c1f26b0d4b1dd1e", "type": "electric_scooter", "is_reserved": 0, "lon": -77.04363516666666}, {"fusion_lat": 0.0, "name": "18dafdb41f5c9b9a449b9e155ac0c25e", "is_disabled": 0, "rental_uris": {"android": "https://dc.lft.to/lastmile_qr_scan", "ios": "https://dc.lft.to/lastmile_qr_scan"}, "fusion_lon": 0.0, "lat": 38.935875333333335, "bike_id": "18dafdb41f5c9b9a449b9e155ac0c25e", "type": "electric_scooter", "is_reserved": 0, "lon": -77.03349333333334}, {"fusion_lat": 0.0, "name": "a5f657d230b5e01fb1d9fa66295d520b", "is_disabled": 0, "rental_uris": {"android": "https://dc.lft.to/lastmile_qr_scan", "ios": "https://dc.lft.to/lastmile_qr_scan"}, "fusion_lon": 0.0, "lat": 38.9228555, "bike_id": "a5f657d230b5e01fb1d9fa66295d520b", "type": "electric_scooter", "is_reserved": 0, "lon": -77.02332616666666}, {"fusion_lat": 0.0, "name": "ecd3bf9b6bfbab42740c553fb98980f6", "is_disabled": 0, "rental_uris": {"android": "https://dc.lft.to/lastmile_qr_scan", "ios": "https://dc.lft.to/lastmile_qr_scan"}, "fusion_lon": 0.0, "lat": 38.90634266666667, "bike_id": "ecd3bf9b6bfbab42740c553fb98980f6", "type": "electric_scooter", "is_reserved": 0, "lon": -77.02532166666667}, {"fusion_lat": 0.0, "name": "90e2bd3f88a4654e81e982cea90075b0", "is_disabled": 0, "rental_uris": {"android": "https://dc.lft.to/lastmile_qr_scan", "ios": "https://dc.lft.to/lastmile_qr_scan"}, "fusion_lon": 0.0, "lat": 38.89223766666667, "bike_id": "90e2bd3f88a4654e81e982cea90075b0", "type": "electric_scooter", "is_reserved": 0, "lon": -77.03226916666667}, {"fusion_lat": 0.0, "name": "473ffc9b7e2071cd2b5f02eca21d14b7", "is_disabled": 0, "rental_uris": {"android": "https://dc.lft.to/lastmile_qr_scan", "ios": "https://dc.lft.to/lastmile_qr_scan"}, "fusion_lon": 0.0, "lat": 38.8829195, "bike_id": "473ffc9b7e2071cd2b5f02eca21d14b7", "type": "electric_scooter", "is_reserved": 0, "lon": -77.01403766666667}, {"fusion_lat": 0.0, "name": "a9c788d138d1832453abdd82a203ef3b", "is_disabled": 0, "rental_uris": {"android": "https://dc.lft.to/lastmile_qr_scan", "ios": "https://dc.lft.to/lastmile_qr_scan"}, "fusion_lon": 0.0, "lat": 38.907392333333334, "bike_id": "a9c788d138d1832453abdd82a203ef3b", "type": "electric_scooter", "is_reserved": 0, "lon": -77.02803466666667}, {"fusion_lat": 0.0, "name": "1bb5a32f91770427075864ac4ef6eecc", "is_disabled": 0, "rental_uris": {"android": "https://dc.lft.to/lastmile_qr_scan", "ios": "https://dc.lft.to/lastmile_qr_scan"}, "fusion_lon": 0.0, "lat": 38.893839166666666, "bike_id": "1bb5a32f91770427075864ac4ef6eecc", "type": "electric_scooter", "is_reserved": 0, "lon": -76.92309033333333}, {"fusion_lat": 0.0, "name": "ad0dfbd67bff06c00f1b60f7e39c10bc", "is_disabled": 0, "rental_uris": {"android": "https://dc.lft.to/lastmile_qr_scan", "ios": "https://dc.lft.to/lastmile_qr_scan"}, "fusion_lon": 0.0, "lat": 38.937564, "bike_id": "ad0dfbd67bff06c00f1b60f7e39c10bc", "type": "electric_bike", "is_reserved": 0, "lon": -76.95825616666667}, {"fusion_lat": 0.0, "name": "7f609d68640772517524807de79665f8", "is_disabled": 0, "rental_uris": {"android": "https://dc.lft.to/lastmile_qr_scan", "ios": "https://dc.lft.to/lastmile_qr_scan"}, "fusion_lon": 0.0, "lat": 38.925575333333335, "bike_id": "7f609d68640772517524807de79665f8", "type": "electric_scooter", "is_reserved": 0, "lon": -77.03551816666666}, {"fusion_lat": 0.0, "name": "49d8ec44547ab27ce11fb6d46cf52fa8", "is_disabled": 0, "rental_uris": {"android": "https://dc.lft.to/lastmile_qr_scan", "ios": "https://dc.lft.to/lastmile_qr_scan"}, "fusion_lon": 0.0, "lat": 38.955147333333336, "bike_id": "49d8ec44547ab27ce11fb6d46cf52fa8", "type": "electric_scooter", "is_reserved": 0, "lon": -77.028397}, {"fusion_lat": 0.0, "name": "df81d6a6f0aae503a21db5f29c357f2b", "is_disabled": 0, "rental_uris": {"android": "https://dc.lft.to/lastmile_qr_scan", "ios": "https://dc.lft.to/lastmile_qr_scan"}, "fusion_lon": 0.0, "lat": 38.9046025, "bike_id": "df81d6a6f0aae503a21db5f29c357f2b", "type": "electric_bike", "is_reserved": 0, "lon": -77.00343183333334}, {"fusion_lat": 0.0, "name": "bd9dbb7e0434a8c6e0d91a9459a710a9", "is_disabled": 0, "rental_uris": {"android": "https://dc.lft.to/lastmile_qr_scan", "ios": "https://dc.lft.to/lastmile_qr_scan"}, "fusion_lon": 0.0, "lat": 38.8842875, "bike_id": "bd9dbb7e0434a8c6e0d91a9459a710a9", "type": "electric_scooter", "is_reserved": 0, "lon": -76.996137}, {"fusion_lat": 0.0, "name": "87bd7a964590f9fa657b9542f1b515b8", "is_disabled": 0, "rental_uris": {"android": "https://dc.lft.to/lastmile_qr_scan", "ios": "https://dc.lft.to/lastmile_qr_scan"}, "fusion_lon": 0.0, "lat": 38.930224833333334, "bike_id": "87bd7a964590f9fa657b9542f1b515b8", "type": "electric_bike", "is_reserved": 0, "lon": -77.01654683333334}, {"fusion_lat": 0.0, "name": "c3a8e369b3b5bb96956109634fed1324", "is_disabled": 0, "rental_uris": {"android": "https://dc.lft.to/lastmile_qr_scan", "ios": "https://dc.lft.to/lastmile_qr_scan"}, "fusion_lon": 0.0, "lat": 38.892492833333336, "bike_id": "c3a8e369b3b5bb96956109634fed1324", "type": "electric_scooter", "is_reserved": 0, "lon": -77.03958566666667}, {"fusion_lat": 0.0, "name": "746250bfa732b7f073bf9026b48c7e99", "is_disabled": 0, "rental_uris": {"android": "https://dc.lft.to/lastmile_qr_scan", "ios": "https://dc.lft.to/lastmile_qr_scan"}, "fusion_lon": 0.0, "lat": 38.930482833333336, "bike_id": "746250bfa732b7f073bf9026b48c7e99", "type": "electric_scooter", "is_reserved": 0, "lon": -77.03243516666667}, {"fusion_lat": 0.0, "name": "7e33c6cd5ea05eed15badcc3b0604f81", "is_disabled": 0, "rental_uris": {"android": "https://dc.lft.to/lastmile_qr_scan", "ios": "https://dc.lft.to/lastmile_qr_scan"}, "fusion_lon": 0.0, "lat": 38.9250605, "bike_id": "7e33c6cd5ea05eed15badcc3b0604f81", "type": "electric_scooter", "is_reserved": 0, "lon": -77.05232016666666}, {"fusion_lat": 0.0, "name": "71b5e97f684a899e114cb14a3403782c", "is_disabled": 0, "rental_uris": {"android": "https://dc.lft.to/lastmile_qr_scan", "ios": "https://dc.lft.to/lastmile_qr_scan"}, "fusion_lon": 0.0, "lat": 38.91022733333333, "bike_id": "71b5e97f684a899e114cb14a3403782c", "type": "electric_scooter", "is_reserved": 0, "lon": -77.06905916666666}, {"fusion_lat": 0.0, "name": "f558e40313a0fcda03c192e1b47809b2", "is_disabled": 0, "rental_uris": {"android": "https://dc.lft.to/lastmile_qr_scan", "ios": "https://dc.lft.to/lastmile_qr_scan"}, "fusion_lon": 0.0, "lat": 38.907749333333335, "bike_id": "f558e40313a0fcda03c192e1b47809b2", "type": "electric_scooter", "is_reserved": 0, "lon": -76.99715383333333}, {"fusion_lat": 0.0, "name": "7931c23b353579f880626aba14f90823", "is_disabled": 0, "rental_uris": {"android": "https://dc.lft.to/lastmile_qr_scan", "ios": "https://dc.lft.to/lastmile_qr_scan"}, "fusion_lon": 0.0, "lat": 38.932425, "bike_id": "7931c23b353579f880626aba14f90823", "type": "electric_scooter", "is_reserved": 0, "lon": -77.03846383333334}, {"fusion_lat": 0.0, "name": "7e981fc526e7247b5a6e2e750b64fb12", "is_disabled": 0, "rental_uris": {"android": "https://dc.lft.to/lastmile_qr_scan", "ios": "https://dc.lft.to/lastmile_qr_scan"}, "fusion_lon": 0.0, "lat": 38.90759366666666, "bike_id": "7e981fc526e7247b5a6e2e750b64fb12", "type": "electric_scooter", "is_reserved": 0, "lon": -77.00034066666667}, {"fusion_lat": 0.0, "name": "bacefe2faa05debf73b70062c76e3f60", "is_disabled": 0, "rental_uris": {"android": "https://dc.lft.to/lastmile_qr_scan", "ios": "https://dc.lft.to/lastmile_qr_scan"}, "fusion_lon": 0.0, "lat": 38.87830616666667, "bike_id": "bacefe2faa05debf73b70062c76e3f60", "type": "electric_scooter", "is_reserved": 0, "lon": -77.001257}, {"fusion_lat": 0.0, "name": "80938da7911aabc1e90df1b5db95774c", "is_disabled": 0, "rental_uris": {"android": "https://dc.lft.to/lastmile_qr_scan", "ios": "https://dc.lft.to/lastmile_qr_scan"}, "fusion_lon": 0.0, "lat": 38.92812883333333, "bike_id": "80938da7911aabc1e90df1b5db95774c", "type": "electric_scooter", "is_reserved": 0, "lon": -77.04364066666666}, {"fusion_lat": 0.0, "name": "778bf5e82c54bc47075c133d5febd806", "is_disabled": 0, "rental_uris": {"android": "https://dc.lft.to/lastmile_qr_scan", "ios": "https://dc.lft.to/lastmile_qr_scan"}, "fusion_lon": 0.0, "lat": 38.91724, "bike_id": "778bf5e82c54bc47075c133d5febd806", "type": "electric_scooter", "is_reserved": 0, "lon": -77.031895}, {"fusion_lat": 0.0, "name": "32a6d1a74d5b5b4e2abcef3b1818c1fd", "is_disabled": 0, "rental_uris": {"android": "https://dc.lft.to/lastmile_qr_scan", "ios": "https://dc.lft.to/lastmile_qr_scan"}, "fusion_lon": 0.0, "lat": 38.91485466666666, "bike_id": "32a6d1a74d5b5b4e2abcef3b1818c1fd", "type": "electric_scooter", "is_reserved": 0, "lon": -77.02185033333333}, {"fusion_lat": 0.0, "name": "9cd22eb3efe52c0ac6651f30648fb551", "is_disabled": 0, "rental_uris": {"android": "https://dc.lft.to/lastmile_qr_scan", "ios": "https://dc.lft.to/lastmile_qr_scan"}, "fusion_lon": 0.0, "lat": 38.849137, "bike_id": "9cd22eb3efe52c0ac6651f30648fb551", "type": "electric_bike", "is_reserved": 0, "lon": -77.099804}, {"fusion_lat": 0.0, "name": "2495f97149fb9888b8d14bd79de6826a", "is_disabled": 0, "rental_uris": {"android": "https://dc.lft.to/lastmile_qr_scan", "ios": "https://dc.lft.to/lastmile_qr_scan"}, "fusion_lon": 0.0, "lat": 38.916632666666665, "bike_id": "2495f97149fb9888b8d14bd79de6826a", "type": "electric_scooter", "is_reserved": 0, "lon": -77.03855916666667}, {"fusion_lat": 0.0, "name": "96be323c6fba8ef7211f858d4363b76d", "is_disabled": 0, "rental_uris": {"android": "https://dc.lft.to/lastmile_qr_scan", "ios": "https://dc.lft.to/lastmile_qr_scan"}, "fusion_lon": 0.0, "lat": 38.91241866666667, "bike_id": "96be323c6fba8ef7211f858d4363b76d", "type": "electric_scooter", "is_reserved": 0, "lon": -77.03200283333334}, {"fusion_lat": 0.0, "name": "9938bbdf0240b2a2b64cfbe8e27e3c33", "is_disabled": 0, "rental_uris": {"android": "https://dc.lft.to/lastmile_qr_scan", "ios": "https://dc.lft.to/lastmile_qr_scan"}, "fusion_lon": 0.0, "lat": 38.915975333333336, "bike_id": "9938bbdf0240b2a2b64cfbe8e27e3c33", "type": "electric_scooter", "is_reserved": 0, "lon": -77.044805}, {"fusion_lat": 0.0, "name": "87a8cdd2787934c7b251d2c28451d395", "is_disabled": 0, "rental_uris": {"android": "https://dc.lft.to/lastmile_qr_scan", "ios": "https://dc.lft.to/lastmile_qr_scan"}, "fusion_lon": 0.0, "lat": 38.88899466666667, "bike_id": "87a8cdd2787934c7b251d2c28451d395", "type": "electric_scooter", "is_reserved": 0, "lon": -76.992056}, {"fusion_lat": 0.0, "name": "10d7bee909c36b1f9c34203e2f0a7230", "is_disabled": 0, "rental_uris": {"android": "https://dc.lft.to/lastmile_qr_scan", "ios": "https://dc.lft.to/lastmile_qr_scan"}, "fusion_lon": 0.0, "lat": 38.90098033333334, "bike_id": "10d7bee909c36b1f9c34203e2f0a7230", "type": "electric_scooter", "is_reserved": 0, "lon": -77.03194566666667}, {"fusion_lat": 0.0, "name": "ed1f4be55ddeab2d3fd2d1bd7d74caa4", "is_disabled": 0, "rental_uris": {"android": "https://dc.lft.to/lastmile_qr_scan", "ios": "https://dc.lft.to/lastmile_qr_scan"}, "fusion_lon": 0.0, "lat": 38.8874825, "bike_id": "ed1f4be55ddeab2d3fd2d1bd7d74caa4", "type": "electric_scooter", "is_reserved": 0, "lon": -77.02230566666667}, {"fusion_lat": 0.0, "name": "1b08cd794d8603ba14c5a82adbfd0373", "is_disabled": 0, "rental_uris": {"android": "https://dc.lft.to/lastmile_qr_scan", "ios": "https://dc.lft.to/lastmile_qr_scan"}, "fusion_lon": 0.0, "lat": 38.865188333333336, "bike_id": "1b08cd794d8603ba14c5a82adbfd0373", "type": "electric_bike", "is_reserved": 0, "lon": -76.97337983333334}, {"fusion_lat": 0.0, "name": "60ecbfcc5f9513ac239c085fd09d199e", "is_disabled": 0, "rental_uris": {"android": "https://dc.lft.to/lastmile_qr_scan", "ios": "https://dc.lft.to/lastmile_qr_scan"}, "fusion_lon": 0.0, "lat": 38.873724833333334, "bike_id": "60ecbfcc5f9513ac239c085fd09d199e", "type": "electric_scooter", "is_reserved": 0, "lon": -77.00066516666666}, {"fusion_lat": 0.0, "name": "9e589d8e334c791f7161912fef9116b2", "is_disabled": 0, "rental_uris": {"android": "https://dc.lft.to/lastmile_qr_scan", "ios": "https://dc.lft.to/lastmile_qr_scan"}, "fusion_lon": 0.0, "lat": 38.9003065, "bike_id": "9e589d8e334c791f7161912fef9116b2", "type": "electric_scooter", "is_reserved": 0, "lon": -76.996033}, {"fusion_lat": 0.0, "name": "dcd677f9caa6985aa60801ab7079675c", "is_disabled": 0, "rental_uris": {"android": "https://dc.lft.to/lastmile_qr_scan", "ios": "https://dc.lft.to/lastmile_qr_scan"}, "fusion_lon": 0.0, "lat": 38.8947415, "bike_id": "dcd677f9caa6985aa60801ab7079675c", "type": "electric_scooter", "is_reserved": 0, "lon": -77.0176875}, {"fusion_lat": 0.0, "name": "e00701c05ce7687857fff3cbded495cc", "is_disabled": 0, "rental_uris": {"android": "https://dc.lft.to/lastmile_qr_scan", "ios": "https://dc.lft.to/lastmile_qr_scan"}, "fusion_lon": 0.0, "lat": 38.92645866666667, "bike_id": "e00701c05ce7687857fff3cbded495cc", "type": "electric_scooter", "is_reserved": 0, "lon": -77.0413535}, {"fusion_lat": 0.0, "name": "2c2fe53792464f98d7cfe7fe0cee12bb", "is_disabled": 0, "rental_uris": {"android": "https://dc.lft.to/lastmile_qr_scan", "ios": "https://dc.lft.to/lastmile_qr_scan"}, "fusion_lon": 0.0, "lat": 38.87118733333333, "bike_id": "2c2fe53792464f98d7cfe7fe0cee12bb", "type": "electric_scooter", "is_reserved": 0, "lon": -77.00755733333334}, {"fusion_lat": 0.0, "name": "efce2d9bfeb6ee37dcf266e1ab345218", "is_disabled": 0, "rental_uris": {"android": "https://dc.lft.to/lastmile_qr_scan", "ios": "https://dc.lft.to/lastmile_qr_scan"}, "fusion_lon": 0.0, "lat": 38.905045, "bike_id": "efce2d9bfeb6ee37dcf266e1ab345218", "type": "electric_scooter", "is_reserved": 0, "lon": -77.0484545}, {"fusion_lat": 0.0, "name": "ae51125e878cea954dea7934a1f26e77", "is_disabled": 0, "rental_uris": {"android": "https://dc.lft.to/lastmile_qr_scan", "ios": "https://dc.lft.to/lastmile_qr_scan"}, "fusion_lon": 0.0, "lat": 38.9314435, "bike_id": "ae51125e878cea954dea7934a1f26e77", "type": "electric_scooter", "is_reserved": 0, "lon": -77.0214225}, {"fusion_lat": 0.0, "name": "5d561c80f5b5dbe3fb3ea03b775a8c11", "is_disabled": 0, "rental_uris": {"android": "https://dc.lft.to/lastmile_qr_scan", "ios": "https://dc.lft.to/lastmile_qr_scan"}, "fusion_lon": 0.0, "lat": 38.92295383333333, "bike_id": "5d561c80f5b5dbe3fb3ea03b775a8c11", "type": "electric_scooter", "is_reserved": 0, "lon": -77.04209233333333}, {"fusion_lat": 0.0, "name": "21984057327bc96a1306a72eb8ecd774", "is_disabled": 0, "rental_uris": {"android": "https://dc.lft.to/lastmile_qr_scan", "ios": "https://dc.lft.to/lastmile_qr_scan"}, "fusion_lon": 0.0, "lat": 38.9024195, "bike_id": "21984057327bc96a1306a72eb8ecd774", "type": "electric_scooter", "is_reserved": 0, "lon": -77.0019995}, {"fusion_lat": 0.0, "name": "2bd7684644841ceb20264ff88f5a7881", "is_disabled": 0, "rental_uris": {"android": "https://dc.lft.to/lastmile_qr_scan", "ios": "https://dc.lft.to/lastmile_qr_scan"}, "fusion_lon": 0.0, "lat": 38.8929195, "bike_id": "2bd7684644841ceb20264ff88f5a7881", "type": "electric_scooter", "is_reserved": 0, "lon": -77.03205116666666}, {"fusion_lat": 0.0, "name": "0502afb4bd9647fa47398d9a90bfa682", "is_disabled": 0, "rental_uris": {"android": "https://dc.lft.to/lastmile_qr_scan", "ios": "https://dc.lft.to/lastmile_qr_scan"}, "fusion_lon": 0.0, "lat": 38.923057, "bike_id": "0502afb4bd9647fa47398d9a90bfa682", "type": "electric_scooter", "is_reserved": 0, "lon": -77.04277583333334}, {"fusion_lat": 0.0, "name": "d219b44656700f21de95133ae009af36", "is_disabled": 0, "rental_uris": {"android": "https://dc.lft.to/lastmile_qr_scan", "ios": "https://dc.lft.to/lastmile_qr_scan"}, "fusion_lon": 0.0, "lat": 38.8874735, "bike_id": "d219b44656700f21de95133ae009af36", "type": "electric_scooter", "is_reserved": 0, "lon": -77.022295}, {"fusion_lat": 0.0, "name": "1a835df1aa52677af5534432ff02ec04", "is_disabled": 0, "rental_uris": {"android": "https://dc.lft.to/lastmile_qr_scan", "ios": "https://dc.lft.to/lastmile_qr_scan"}, "fusion_lon": 0.0, "lat": 38.9192945, "bike_id": "1a835df1aa52677af5534432ff02ec04", "type": "electric_scooter", "is_reserved": 0, "lon": -77.031713}, {"fusion_lat": 0.0, "name": "909ddb931e9ab706154512ce66c62f50", "is_disabled": 0, "rental_uris": {"android": "https://dc.lft.to/lastmile_qr_scan", "ios": "https://dc.lft.to/lastmile_qr_scan"}, "fusion_lon": 0.0, "lat": 38.87725866666667, "bike_id": "909ddb931e9ab706154512ce66c62f50", "type": "electric_scooter", "is_reserved": 0, "lon": -77.01761983333333}, {"fusion_lat": 0.0, "name": "722474f6694c8a12fd27eb4446142d9f", "is_disabled": 0, "rental_uris": {"android": "https://dc.lft.to/lastmile_qr_scan", "ios": "https://dc.lft.to/lastmile_qr_scan"}, "fusion_lon": 0.0, "lat": 38.84757833333333, "bike_id": "722474f6694c8a12fd27eb4446142d9f", "type": "electric_scooter", "is_reserved": 0, "lon": -76.99501433333333}, {"fusion_lat": 0.0, "name": "462ec4d04d94e2163ecde47eb0d11b60", "is_disabled": 0, "rental_uris": {"android": "https://dc.lft.to/lastmile_qr_scan", "ios": "https://dc.lft.to/lastmile_qr_scan"}, "fusion_lon": 0.0, "lat": 38.886648666666666, "bike_id": "462ec4d04d94e2163ecde47eb0d11b60", "type": "electric_scooter", "is_reserved": 0, "lon": -76.98259183333333}, {"fusion_lat": 0.0, "name": "93df7963f5d03e701cf6fa3a34b5203b", "is_disabled": 0, "rental_uris": {"android": "https://dc.lft.to/lastmile_qr_scan", "ios": "https://dc.lft.to/lastmile_qr_scan"}, "fusion_lon": 0.0, "lat": 39.052555, "bike_id": "93df7963f5d03e701cf6fa3a34b5203b", "type": "electric_bike", "is_reserved": 0, "lon": -77.08066383333333}, {"fusion_lat": 0.0, "name": "3cb332cb6853c4011ffd7c6156f4d275", "is_disabled": 0, "rental_uris": {"android": "https://dc.lft.to/lastmile_qr_scan", "ios": "https://dc.lft.to/lastmile_qr_scan"}, "fusion_lon": 0.0, "lat": 38.89222316666667, "bike_id": "3cb332cb6853c4011ffd7c6156f4d275", "type": "electric_scooter", "is_reserved": 0, "lon": -77.0236555}, {"fusion_lat": 0.0, "name": "3c70b20e6a1b19db67d9e2b9fa886e5b", "is_disabled": 0, "rental_uris": {"android": "https://dc.lft.to/lastmile_qr_scan", "ios": "https://dc.lft.to/lastmile_qr_scan"}, "fusion_lon": 0.0, "lat": 38.898771333333336, "bike_id": "3c70b20e6a1b19db67d9e2b9fa886e5b", "type": "electric_scooter", "is_reserved": 0, "lon": -76.93184766666667}, {"fusion_lat": 0.0, "name": "26f8ffba07a93bfe055394d312e53b1d", "is_disabled": 0, "rental_uris": {"android": "https://dc.lft.to/lastmile_qr_scan", "ios": "https://dc.lft.to/lastmile_qr_scan"}, "fusion_lon": 0.0, "lat": 38.90126866666667, "bike_id": "26f8ffba07a93bfe055394d312e53b1d", "type": "electric_scooter", "is_reserved": 0, "lon": -77.02604683333334}, {"fusion_lat": 0.0, "name": "5e27632b056a7390a71808a78c8cd7ce", "is_disabled": 0, "rental_uris": {"android": "https://dc.lft.to/lastmile_qr_scan", "ios": "https://dc.lft.to/lastmile_qr_scan"}, "fusion_lon": 0.0, "lat": 38.90391733333333, "bike_id": "5e27632b056a7390a71808a78c8cd7ce", "type": "electric_scooter", "is_reserved": 0, "lon": -77.068454}, {"fusion_lat": 0.0, "name": "8db68727d51a3a664797201f6992e6cf", "is_disabled": 0, "rental_uris": {"android": "https://dc.lft.to/lastmile_qr_scan", "ios": "https://dc.lft.to/lastmile_qr_scan"}, "fusion_lon": 0.0, "lat": 38.89523533333333, "bike_id": "8db68727d51a3a664797201f6992e6cf", "type": "electric_scooter", "is_reserved": 0, "lon": -76.98824183333333}, {"fusion_lat": 0.0, "name": "d5d2bca548ec4f0c9dd087c5d25362de", "is_disabled": 0, "rental_uris": {"android": "https://dc.lft.to/lastmile_qr_scan", "ios": "https://dc.lft.to/lastmile_qr_scan"}, "fusion_lon": 0.0, "lat": 38.9064915, "bike_id": "d5d2bca548ec4f0c9dd087c5d25362de", "type": "electric_scooter", "is_reserved": 0, "lon": -77.05328133333333}, {"fusion_lat": 0.0, "name": "9bb9016349ffbf2a332ad35991a84e86", "is_disabled": 0, "rental_uris": {"android": "https://dc.lft.to/lastmile_qr_scan", "ios": "https://dc.lft.to/lastmile_qr_scan"}, "fusion_lon": 0.0, "lat": 38.928530333333335, "bike_id": "9bb9016349ffbf2a332ad35991a84e86", "type": "electric_scooter", "is_reserved": 0, "lon": -77.0542755}, {"fusion_lat": 0.0, "name": "de7a47074867f9c42b6be408b0ce0101", "is_disabled": 0, "rental_uris": {"android": "https://dc.lft.to/lastmile_qr_scan", "ios": "https://dc.lft.to/lastmile_qr_scan"}, "fusion_lon": 0.0, "lat": 38.923716666666664, "bike_id": "de7a47074867f9c42b6be408b0ce0101", "type": "electric_scooter", "is_reserved": 0, "lon": -77.05176233333333}, {"fusion_lat": 0.0, "name": "9efc4d0310bd50ebc6b35bec5d1cbbb3", "is_disabled": 0, "rental_uris": {"android": "https://dc.lft.to/lastmile_qr_scan", "ios": "https://dc.lft.to/lastmile_qr_scan"}, "fusion_lon": 0.0, "lat": 38.9010415, "bike_id": "9efc4d0310bd50ebc6b35bec5d1cbbb3", "type": "electric_scooter", "is_reserved": 0, "lon": -77.03807683333334}, {"fusion_lat": 0.0, "name": "5f80e0c1a754a1cdc3b1f391fed80514", "is_disabled": 0, "rental_uris": {"android": "https://dc.lft.to/lastmile_qr_scan", "ios": "https://dc.lft.to/lastmile_qr_scan"}, "fusion_lon": 0.0, "lat": 38.897319833333334, "bike_id": "5f80e0c1a754a1cdc3b1f391fed80514", "type": "electric_scooter", "is_reserved": 0, "lon": -76.9470235}, {"fusion_lat": 0.0, "name": "9098ba710eac6ba0c121150afc058f85", "is_disabled": 0, "rental_uris": {"android": "https://dc.lft.to/lastmile_qr_scan", "ios": "https://dc.lft.to/lastmile_qr_scan"}, "fusion_lon": 0.0, "lat": 38.93244983333334, "bike_id": "9098ba710eac6ba0c121150afc058f85", "type": "electric_scooter", "is_reserved": 0, "lon": -77.03411033333333}, {"fusion_lat": 0.0, "name": "7d4dc234df903fc07c816ec3fffea4d9", "is_disabled": 0, "rental_uris": {"android": "https://dc.lft.to/lastmile_qr_scan", "ios": "https://dc.lft.to/lastmile_qr_scan"}, "fusion_lon": 0.0, "lat": 38.87086033333333, "bike_id": "7d4dc234df903fc07c816ec3fffea4d9", "type": "electric_bike", "is_reserved": 0, "lon": -77.13332883333334}, {"fusion_lat": 0.0, "name": "ce4ccd170be71e3118448581a8d9cbed", "is_disabled": 0, "rental_uris": {"android": "https://dc.lft.to/lastmile_qr_scan", "ios": "https://dc.lft.to/lastmile_qr_scan"}, "fusion_lon": 0.0, "lat": 38.907980333333334, "bike_id": "ce4ccd170be71e3118448581a8d9cbed", "type": "electric_scooter", "is_reserved": 0, "lon": -77.002051}, {"fusion_lat": 0.0, "name": "161eb3395c555834989c6707be1092ea", "is_disabled": 0, "rental_uris": {"android": "https://dc.lft.to/lastmile_qr_scan", "ios": "https://dc.lft.to/lastmile_qr_scan"}, "fusion_lon": 0.0, "lat": 38.9607465, "bike_id": "161eb3395c555834989c6707be1092ea", "type": "electric_scooter", "is_reserved": 0, "lon": -77.00096733333334}, {"fusion_lat": 0.0, "name": "0e0776861303e5abeffc5fba26b1c4ac", "is_disabled": 0, "rental_uris": {"android": "https://dc.lft.to/lastmile_qr_scan", "ios": "https://dc.lft.to/lastmile_qr_scan"}, "fusion_lon": 0.0, "lat": 38.9057985, "bike_id": "0e0776861303e5abeffc5fba26b1c4ac", "type": "electric_scooter", "is_reserved": 0, "lon": -77.04192416666666}, {"fusion_lat": 0.0, "name": "6a05fb2eb4e9e8468546f8a9823280ed", "is_disabled": 0, "rental_uris": {"android": "https://dc.lft.to/lastmile_qr_scan", "ios": "https://dc.lft.to/lastmile_qr_scan"}, "fusion_lon": 0.0, "lat": 38.904309833333336, "bike_id": "6a05fb2eb4e9e8468546f8a9823280ed", "type": "electric_scooter", "is_reserved": 0, "lon": -77.04846533333334}, {"fusion_lat": 0.0, "name": "cfc953a22095d71d80c8d73cdb1d44a0", "is_disabled": 0, "rental_uris": {"android": "https://dc.lft.to/lastmile_qr_scan", "ios": "https://dc.lft.to/lastmile_qr_scan"}, "fusion_lon": 0.0, "lat": 38.90215083333333, "bike_id": "cfc953a22095d71d80c8d73cdb1d44a0", "type": "electric_scooter", "is_reserved": 0, "lon": -77.02381266666667}, {"fusion_lat": 0.0, "name": "41ff21f40d73210807d08234850d8420", "is_disabled": 0, "rental_uris": {"android": "https://dc.lft.to/lastmile_qr_scan", "ios": "https://dc.lft.to/lastmile_qr_scan"}, "fusion_lon": 0.0, "lat": 38.90732333333333, "bike_id": "41ff21f40d73210807d08234850d8420", "type": "electric_scooter", "is_reserved": 0, "lon": -77.04346683333333}, {"fusion_lat": 0.0, "name": "1db013c1a93223629e6993112dacc9db", "is_disabled": 0, "rental_uris": {"android": "https://dc.lft.to/lastmile_qr_scan", "ios": "https://dc.lft.to/lastmile_qr_scan"}, "fusion_lon": 0.0, "lat": 38.904343833333336, "bike_id": "1db013c1a93223629e6993112dacc9db", "type": "electric_scooter", "is_reserved": 0, "lon": -77.02592033333333}, {"fusion_lat": 0.0, "name": "44b0569f9649d76007f8ef9e566313f6", "is_disabled": 0, "rental_uris": {"android": "https://dc.lft.to/lastmile_qr_scan", "ios": "https://dc.lft.to/lastmile_qr_scan"}, "fusion_lon": 0.0, "lat": 38.9001805, "bike_id": "44b0569f9649d76007f8ef9e566313f6", "type": "electric_scooter", "is_reserved": 0, "lon": -76.98817133333333}, {"fusion_lat": 0.0, "name": "f73ee58afeb52ed03932faa995f9259c", "is_disabled": 0, "rental_uris": {"android": "https://dc.lft.to/lastmile_qr_scan", "ios": "https://dc.lft.to/lastmile_qr_scan"}, "fusion_lon": 0.0, "lat": 38.923509333333335, "bike_id": "f73ee58afeb52ed03932faa995f9259c", "type": "electric_scooter", "is_reserved": 0, "lon": -77.019071}, {"fusion_lat": 0.0, "name": "e70166216e545fffbad6b34cf93494d5", "is_disabled": 0, "rental_uris": {"android": "https://dc.lft.to/lastmile_qr_scan", "ios": "https://dc.lft.to/lastmile_qr_scan"}, "fusion_lon": 0.0, "lat": 38.89875816666667, "bike_id": "e70166216e545fffbad6b34cf93494d5", "type": "electric_scooter", "is_reserved": 0, "lon": -76.93184566666666}, {"fusion_lat": 0.0, "name": "875d07a65fc005a6fe33c5b6e7980c0d", "is_disabled": 0, "rental_uris": {"android": "https://dc.lft.to/lastmile_qr_scan", "ios": "https://dc.lft.to/lastmile_qr_scan"}, "fusion_lon": 0.0, "lat": 38.92020766666667, "bike_id": "875d07a65fc005a6fe33c5b6e7980c0d", "type": "electric_scooter", "is_reserved": 0, "lon": -77.01316866666667}, {"fusion_lat": 0.0, "name": "1bbf128714ccf74a85bff302d75b43c3", "is_disabled": 0, "rental_uris": {"android": "https://dc.lft.to/lastmile_qr_scan", "ios": "https://dc.lft.to/lastmile_qr_scan"}, "fusion_lon": 0.0, "lat": 38.893404, "bike_id": "1bbf128714ccf74a85bff302d75b43c3", "type": "electric_scooter", "is_reserved": 0, "lon": -77.03176166666667}, {"fusion_lat": 0.0, "name": "d4533c4e0cbb869167b9af39b0e49cf2", "is_disabled": 0, "rental_uris": {"android": "https://dc.lft.to/lastmile_qr_scan", "ios": "https://dc.lft.to/lastmile_qr_scan"}, "fusion_lon": 0.0, "lat": 38.91121316666667, "bike_id": "d4533c4e0cbb869167b9af39b0e49cf2", "type": "electric_scooter", "is_reserved": 0, "lon": -77.00767683333333}, {"fusion_lat": 0.0, "name": "c99e4ba4b2690091e2dc836b66059232", "is_disabled": 0, "rental_uris": {"android": "https://dc.lft.to/lastmile_qr_scan", "ios": "https://dc.lft.to/lastmile_qr_scan"}, "fusion_lon": 0.0, "lat": 38.92974866666667, "bike_id": "c99e4ba4b2690091e2dc836b66059232", "type": "electric_scooter", "is_reserved": 0, "lon": -77.0280025}, {"fusion_lat": 0.0, "name": "dc10ad647e75abfa8c447508852c7c26", "is_disabled": 0, "rental_uris": {"android": "https://dc.lft.to/lastmile_qr_scan", "ios": "https://dc.lft.to/lastmile_qr_scan"}, "fusion_lon": 0.0, "lat": 38.92070066666667, "bike_id": "dc10ad647e75abfa8c447508852c7c26", "type": "electric_scooter", "is_reserved": 0, "lon": -77.04099066666667}, {"fusion_lat": 0.0, "name": "facccf325639f091744dc81c902909b2", "is_disabled": 0, "rental_uris": {"android": "https://dc.lft.to/lastmile_qr_scan", "ios": "https://dc.lft.to/lastmile_qr_scan"}, "fusion_lon": 0.0, "lat": 38.997787333333335, "bike_id": "facccf325639f091744dc81c902909b2", "type": "electric_bike", "is_reserved": 0, "lon": -77.047181}, {"fusion_lat": 0.0, "name": "83345ac735df86af981e66b6c73072d7", "is_disabled": 0, "rental_uris": {"android": "https://dc.lft.to/lastmile_qr_scan", "ios": "https://dc.lft.to/lastmile_qr_scan"}, "fusion_lon": 0.0, "lat": 38.90014633333333, "bike_id": "83345ac735df86af981e66b6c73072d7", "type": "electric_scooter", "is_reserved": 0, "lon": -77.022052}, {"fusion_lat": 0.0, "name": "b32d02cf5ed19ed1c4bd8ea6c48eb8de", "is_disabled": 0, "rental_uris": {"android": "https://dc.lft.to/lastmile_qr_scan", "ios": "https://dc.lft.to/lastmile_qr_scan"}, "fusion_lon": 0.0, "lat": 38.895398666666665, "bike_id": "b32d02cf5ed19ed1c4bd8ea6c48eb8de", "type": "electric_scooter", "is_reserved": 0, "lon": -77.01121016666667}, {"fusion_lat": 0.0, "name": "0d67f97130a3f6e5b283f1dbcf9ca7c2", "is_disabled": 0, "rental_uris": {"android": "https://dc.lft.to/lastmile_qr_scan", "ios": "https://dc.lft.to/lastmile_qr_scan"}, "fusion_lon": 0.0, "lat": 38.897062166666664, "bike_id": "0d67f97130a3f6e5b283f1dbcf9ca7c2", "type": "electric_scooter", "is_reserved": 0, "lon": -77.00829566666667}, {"fusion_lat": 0.0, "name": "413010ec282c578be93de89f9374fdbf", "is_disabled": 0, "rental_uris": {"android": "https://dc.lft.to/lastmile_qr_scan", "ios": "https://dc.lft.to/lastmile_qr_scan"}, "fusion_lon": 0.0, "lat": 38.928779, "bike_id": "413010ec282c578be93de89f9374fdbf", "type": "electric_scooter", "is_reserved": 0, "lon": -77.032475}, {"fusion_lat": 0.0, "name": "27dbef6465d8bb3db05317e36f97787d", "is_disabled": 0, "rental_uris": {"android": "https://dc.lft.to/lastmile_qr_scan", "ios": "https://dc.lft.to/lastmile_qr_scan"}, "fusion_lon": 0.0, "lat": 38.90387666666667, "bike_id": "27dbef6465d8bb3db05317e36f97787d", "type": "electric_scooter", "is_reserved": 0, "lon": -77.04820483333333}, {"fusion_lat": 0.0, "name": "4f4de3fac1e7b94a9f430891466d12fa", "is_disabled": 0, "rental_uris": {"android": "https://dc.lft.to/lastmile_qr_scan", "ios": "https://dc.lft.to/lastmile_qr_scan"}, "fusion_lon": 0.0, "lat": 38.92042083333333, "bike_id": "4f4de3fac1e7b94a9f430891466d12fa", "type": "electric_scooter", "is_reserved": 0, "lon": -77.025877}, {"fusion_lat": 0.0, "name": "e28c3f0d68fc1e3259489f9b75b76fd6", "is_disabled": 0, "rental_uris": {"android": "https://dc.lft.to/lastmile_qr_scan", "ios": "https://dc.lft.to/lastmile_qr_scan"}, "fusion_lon": 0.0, "lat": 38.905789166666665, "bike_id": "e28c3f0d68fc1e3259489f9b75b76fd6", "type": "electric_scooter", "is_reserved": 0, "lon": -77.00645966666667}, {"fusion_lat": 0.0, "name": "a26c3172b17c9ce845f287666ed7528c", "is_disabled": 0, "rental_uris": {"android": "https://dc.lft.to/lastmile_qr_scan", "ios": "https://dc.lft.to/lastmile_qr_scan"}, "fusion_lon": 0.0, "lat": 38.8884675, "bike_id": "a26c3172b17c9ce845f287666ed7528c", "type": "electric_bike", "is_reserved": 0, "lon": -77.0827155}, {"fusion_lat": 0.0, "name": "c96c2dc05ef776b3815c0778507fda9c", "is_disabled": 0, "rental_uris": {"android": "https://dc.lft.to/lastmile_qr_scan", "ios": "https://dc.lft.to/lastmile_qr_scan"}, "fusion_lon": 0.0, "lat": 38.905770833333335, "bike_id": "c96c2dc05ef776b3815c0778507fda9c", "type": "electric_scooter", "is_reserved": 0, "lon": -77.0456055}, {"fusion_lat": 0.0, "name": "75a47223799adc6567f83e6e0db9f5e8", "is_disabled": 0, "rental_uris": {"android": "https://dc.lft.to/lastmile_qr_scan", "ios": "https://dc.lft.to/lastmile_qr_scan"}, "fusion_lon": 0.0, "lat": 38.905351333333336, "bike_id": "75a47223799adc6567f83e6e0db9f5e8", "type": "electric_scooter", "is_reserved": 0, "lon": -77.06138583333333}, {"fusion_lat": 0.0, "name": "8d39fec24ae4ed4b1e1cb64dca86484b", "is_disabled": 0, "rental_uris": {"android": "https://dc.lft.to/lastmile_qr_scan", "ios": "https://dc.lft.to/lastmile_qr_scan"}, "fusion_lon": 0.0, "lat": 38.921753, "bike_id": "8d39fec24ae4ed4b1e1cb64dca86484b", "type": "electric_scooter", "is_reserved": 0, "lon": -77.04246166666667}, {"fusion_lat": 0.0, "name": "b8af1da7e5532fd9f530b107dd824dde", "is_disabled": 0, "rental_uris": {"android": "https://dc.lft.to/lastmile_qr_scan", "ios": "https://dc.lft.to/lastmile_qr_scan"}, "fusion_lon": 0.0, "lat": 38.9307105, "bike_id": "b8af1da7e5532fd9f530b107dd824dde", "type": "electric_scooter", "is_reserved": 0, "lon": -77.02273033333333}, {"fusion_lat": 0.0, "name": "0f6fba0943ade9e1b2ccbca30aeee690", "is_disabled": 0, "rental_uris": {"android": "https://dc.lft.to/lastmile_qr_scan", "ios": "https://dc.lft.to/lastmile_qr_scan"}, "fusion_lon": 0.0, "lat": 38.931847833333336, "bike_id": "0f6fba0943ade9e1b2ccbca30aeee690", "type": "electric_scooter", "is_reserved": 0, "lon": -77.01964783333334}, {"fusion_lat": 0.0, "name": "5d8d7a8be337ee358356a5be088859f7", "is_disabled": 0, "rental_uris": {"android": "https://dc.lft.to/lastmile_qr_scan", "ios": "https://dc.lft.to/lastmile_qr_scan"}, "fusion_lon": 0.0, "lat": 38.87934633333333, "bike_id": "5d8d7a8be337ee358356a5be088859f7", "type": "electric_scooter", "is_reserved": 0, "lon": -77.00422066666667}, {"fusion_lat": 0.0, "name": "4a4a7684c501160872f051c834b46fc9", "is_disabled": 0, "rental_uris": {"android": "https://dc.lft.to/lastmile_qr_scan", "ios": "https://dc.lft.to/lastmile_qr_scan"}, "fusion_lon": 0.0, "lat": 38.899367, "bike_id": "4a4a7684c501160872f051c834b46fc9", "type": "electric_scooter", "is_reserved": 0, "lon": -77.0035635}, {"fusion_lat": 0.0, "name": "25cd03dcc99d60db1661975f3b7ba0dc", "is_disabled": 0, "rental_uris": {"android": "https://dc.lft.to/lastmile_qr_scan", "ios": "https://dc.lft.to/lastmile_qr_scan"}, "fusion_lon": 0.0, "lat": 38.921227333333334, "bike_id": "25cd03dcc99d60db1661975f3b7ba0dc", "type": "electric_scooter", "is_reserved": 0, "lon": -77.0439195}, {"fusion_lat": 0.0, "name": "93c971f7cd4ea45792f191180c3e5df5", "is_disabled": 0, "rental_uris": {"android": "https://dc.lft.to/lastmile_qr_scan", "ios": "https://dc.lft.to/lastmile_qr_scan"}, "fusion_lon": 0.0, "lat": 38.9267675, "bike_id": "93c971f7cd4ea45792f191180c3e5df5", "type": "electric_scooter", "is_reserved": 0, "lon": -77.03099116666667}, {"fusion_lat": 0.0, "name": "afc8aac22512a74f8059e70ba376d730", "is_disabled": 0, "rental_uris": {"android": "https://dc.lft.to/lastmile_qr_scan", "ios": "https://dc.lft.to/lastmile_qr_scan"}, "fusion_lon": 0.0, "lat": 38.9138305, "bike_id": "afc8aac22512a74f8059e70ba376d730", "type": "electric_scooter", "is_reserved": 0, "lon": -77.01804133333333}, {"fusion_lat": 0.0, "name": "98c4736a2e2acf872a1b7dccc400e3de", "is_disabled": 0, "rental_uris": {"android": "https://dc.lft.to/lastmile_qr_scan", "ios": "https://dc.lft.to/lastmile_qr_scan"}, "fusion_lon": 0.0, "lat": 38.9168105, "bike_id": "98c4736a2e2acf872a1b7dccc400e3de", "type": "electric_scooter", "is_reserved": 0, "lon": -77.03175283333333}, {"fusion_lat": 0.0, "name": "9a2250c3dc3e4b3347a28347821cf6ca", "is_disabled": 0, "rental_uris": {"android": "https://dc.lft.to/lastmile_qr_scan", "ios": "https://dc.lft.to/lastmile_qr_scan"}, "fusion_lon": 0.0, "lat": 38.952445833333336, "bike_id": "9a2250c3dc3e4b3347a28347821cf6ca", "type": "electric_scooter", "is_reserved": 0, "lon": -77.0237615}, {"fusion_lat": 0.0, "name": "83f572fe3b2c345d2e6aaa6a3c662303", "is_disabled": 0, "rental_uris": {"android": "https://dc.lft.to/lastmile_qr_scan", "ios": "https://dc.lft.to/lastmile_qr_scan"}, "fusion_lon": 0.0, "lat": 38.89015916666666, "bike_id": "83f572fe3b2c345d2e6aaa6a3c662303", "type": "electric_scooter", "is_reserved": 0, "lon": -76.93736283333334}, {"fusion_lat": 0.0, "name": "f5fdd356e409539389cfb7bae4da3761", "is_disabled": 0, "rental_uris": {"android": "https://dc.lft.to/lastmile_qr_scan", "ios": "https://dc.lft.to/lastmile_qr_scan"}, "fusion_lon": 0.0, "lat": 38.9167235, "bike_id": "f5fdd356e409539389cfb7bae4da3761", "type": "electric_scooter", "is_reserved": 0, "lon": -77.02614583333333}, {"fusion_lat": 0.0, "name": "59d3d461f0cc457a44ef4f2f380fc910", "is_disabled": 0, "rental_uris": {"android": "https://dc.lft.to/lastmile_qr_scan", "ios": "https://dc.lft.to/lastmile_qr_scan"}, "fusion_lon": 0.0, "lat": 38.897154666666665, "bike_id": "59d3d461f0cc457a44ef4f2f380fc910", "type": "electric_scooter", "is_reserved": 0, "lon": -77.00798383333333}, {"fusion_lat": 0.0, "name": "0a14281b0f6eafdbd490b25ec40b4996", "is_disabled": 0, "rental_uris": {"android": "https://dc.lft.to/lastmile_qr_scan", "ios": "https://dc.lft.to/lastmile_qr_scan"}, "fusion_lon": 0.0, "lat": 38.930854833333335, "bike_id": "0a14281b0f6eafdbd490b25ec40b4996", "type": "electric_scooter", "is_reserved": 0, "lon": -77.02008416666666}, {"fusion_lat": 0.0, "name": "402d7bd26917a29d2f99717ff07e495b", "is_disabled": 0, "rental_uris": {"android": "https://dc.lft.to/lastmile_qr_scan", "ios": "https://dc.lft.to/lastmile_qr_scan"}, "fusion_lon": 0.0, "lat": 38.902519, "bike_id": "402d7bd26917a29d2f99717ff07e495b", "type": "electric_bike", "is_reserved": 0, "lon": -77.01795683333333}, {"fusion_lat": 0.0, "name": "68c6b2099f28b4b70968994f7ee6f82e", "is_disabled": 0, "rental_uris": {"android": "https://dc.lft.to/lastmile_qr_scan", "ios": "https://dc.lft.to/lastmile_qr_scan"}, "fusion_lon": 0.0, "lat": 38.993861833333334, "bike_id": "68c6b2099f28b4b70968994f7ee6f82e", "type": "electric_bike", "is_reserved": 0, "lon": -76.92884116666667}, {"fusion_lat": 0.0, "name": "e603d58610ec070db72bf8c573fb8457", "is_disabled": 0, "rental_uris": {"android": "https://dc.lft.to/lastmile_qr_scan", "ios": "https://dc.lft.to/lastmile_qr_scan"}, "fusion_lon": 0.0, "lat": 38.917578166666665, "bike_id": "e603d58610ec070db72bf8c573fb8457", "type": "electric_scooter", "is_reserved": 0, "lon": -77.01604883333333}, {"fusion_lat": 0.0, "name": "99ef00484936c99298052979a2cd491b", "is_disabled": 0, "rental_uris": {"android": "https://dc.lft.to/lastmile_qr_scan", "ios": "https://dc.lft.to/lastmile_qr_scan"}, "fusion_lon": 0.0, "lat": 38.914151333333336, "bike_id": "99ef00484936c99298052979a2cd491b", "type": "electric_scooter", "is_reserved": 0, "lon": -77.03938383333333}, {"fusion_lat": 0.0, "name": "511ef5e1d9d0b9021604693d30afd96b", "is_disabled": 0, "rental_uris": {"android": "https://dc.lft.to/lastmile_qr_scan", "ios": "https://dc.lft.to/lastmile_qr_scan"}, "fusion_lon": 0.0, "lat": 38.90142566666667, "bike_id": "511ef5e1d9d0b9021604693d30afd96b", "type": "electric_scooter", "is_reserved": 0, "lon": -77.04503133333333}, {"fusion_lat": 0.0, "name": "49c37a7c2ecefe2a098e960561fea076", "is_disabled": 0, "rental_uris": {"android": "https://dc.lft.to/lastmile_qr_scan", "ios": "https://dc.lft.to/lastmile_qr_scan"}, "fusion_lon": 0.0, "lat": 38.91279316666667, "bike_id": "49c37a7c2ecefe2a098e960561fea076", "type": "electric_scooter", "is_reserved": 0, "lon": -77.02246033333333}, {"fusion_lat": 0.0, "name": "2b2acc1976d7897a1637185147739e1c", "is_disabled": 0, "rental_uris": {"android": "https://dc.lft.to/lastmile_qr_scan", "ios": "https://dc.lft.to/lastmile_qr_scan"}, "fusion_lon": 0.0, "lat": 38.9204415, "bike_id": "2b2acc1976d7897a1637185147739e1c", "type": "electric_scooter", "is_reserved": 0, "lon": -77.03412033333333}, {"fusion_lat": 0.0, "name": "9acb256048b8ae980101882f6bd896cd", "is_disabled": 0, "rental_uris": {"android": "https://dc.lft.to/lastmile_qr_scan", "ios": "https://dc.lft.to/lastmile_qr_scan"}, "fusion_lon": 0.0, "lat": 38.892244, "bike_id": "9acb256048b8ae980101882f6bd896cd", "type": "electric_scooter", "is_reserved": 0, "lon": -77.0222175}, {"fusion_lat": 0.0, "name": "a8c4672998ccbebec20d08547c40d370", "is_disabled": 0, "rental_uris": {"android": "https://dc.lft.to/lastmile_qr_scan", "ios": "https://dc.lft.to/lastmile_qr_scan"}, "fusion_lon": 0.0, "lat": 38.91029966666667, "bike_id": "a8c4672998ccbebec20d08547c40d370", "type": "electric_scooter", "is_reserved": 0, "lon": -77.00758983333333}, {"fusion_lat": 0.0, "name": "50a01599152eac3942779ac73ccd3c46", "is_disabled": 0, "rental_uris": {"android": "https://dc.lft.to/lastmile_qr_scan", "ios": "https://dc.lft.to/lastmile_qr_scan"}, "fusion_lon": 0.0, "lat": 38.90100016666667, "bike_id": "50a01599152eac3942779ac73ccd3c46", "type": "electric_scooter", "is_reserved": 0, "lon": -77.01975766666666}, {"fusion_lat": 0.0, "name": "da4006445e774dd6a009e5b4b3de561a", "is_disabled": 0, "rental_uris": {"android": "https://dc.lft.to/lastmile_qr_scan", "ios": "https://dc.lft.to/lastmile_qr_scan"}, "fusion_lon": 0.0, "lat": 38.91820666666667, "bike_id": "da4006445e774dd6a009e5b4b3de561a", "type": "electric_scooter", "is_reserved": 0, "lon": -77.039975}, {"fusion_lat": 0.0, "name": "d43609121ce033880e3774969833f0e3", "is_disabled": 0, "rental_uris": {"android": "https://dc.lft.to/lastmile_qr_scan", "ios": "https://dc.lft.to/lastmile_qr_scan"}, "fusion_lon": 0.0, "lat": 38.9142945, "bike_id": "d43609121ce033880e3774969833f0e3", "type": "electric_scooter", "is_reserved": 0, "lon": -77.0449845}, {"fusion_lat": 0.0, "name": "9db3f6b659ae76ed2a62d099f371cceb", "is_disabled": 0, "rental_uris": {"android": "https://dc.lft.to/lastmile_qr_scan", "ios": "https://dc.lft.to/lastmile_qr_scan"}, "fusion_lon": 0.0, "lat": 38.892211833333334, "bike_id": "9db3f6b659ae76ed2a62d099f371cceb", "type": "electric_scooter", "is_reserved": 0, "lon": -77.022209}, {"fusion_lat": 0.0, "name": "461a2aaaad66388891f69d96fb792de7", "is_disabled": 0, "rental_uris": {"android": "https://dc.lft.to/lastmile_qr_scan", "ios": "https://dc.lft.to/lastmile_qr_scan"}, "fusion_lon": 0.0, "lat": 38.9418095, "bike_id": "461a2aaaad66388891f69d96fb792de7", "type": "electric_scooter", "is_reserved": 0, "lon": -77.03653833333334}, {"fusion_lat": 0.0, "name": "65ebd4a81f6b66959deba2f70278e832", "is_disabled": 0, "rental_uris": {"android": "https://dc.lft.to/lastmile_qr_scan", "ios": "https://dc.lft.to/lastmile_qr_scan"}, "fusion_lon": 0.0, "lat": 38.92145, "bike_id": "65ebd4a81f6b66959deba2f70278e832", "type": "electric_scooter", "is_reserved": 0, "lon": -77.040133}, {"fusion_lat": 0.0, "name": "e9db1c9888a2ffb3596c804cbadde4d9", "is_disabled": 0, "rental_uris": {"android": "https://dc.lft.to/lastmile_qr_scan", "ios": "https://dc.lft.to/lastmile_qr_scan"}, "fusion_lon": 0.0, "lat": 38.85808466666667, "bike_id": "e9db1c9888a2ffb3596c804cbadde4d9", "type": "electric_bike", "is_reserved": 0, "lon": -76.9873955}, {"fusion_lat": 0.0, "name": "e8be596ddc8cdd4eb1726fb141292101", "is_disabled": 0, "rental_uris": {"android": "https://dc.lft.to/lastmile_qr_scan", "ios": "https://dc.lft.to/lastmile_qr_scan"}, "fusion_lon": 0.0, "lat": 38.917239333333335, "bike_id": "e8be596ddc8cdd4eb1726fb141292101", "type": "electric_scooter", "is_reserved": 0, "lon": -77.00817633333334}, {"fusion_lat": 0.0, "name": "a244a9f8b68ecd5464091ee475e97b99", "is_disabled": 0, "rental_uris": {"android": "https://dc.lft.to/lastmile_qr_scan", "ios": "https://dc.lft.to/lastmile_qr_scan"}, "fusion_lon": 0.0, "lat": 38.86257333333333, "bike_id": "a244a9f8b68ecd5464091ee475e97b99", "type": "electric_bike", "is_reserved": 0, "lon": -76.98334166666666}, {"fusion_lat": 0.0, "name": "b052956da788f079142866797d310a90", "is_disabled": 0, "rental_uris": {"android": "https://dc.lft.to/lastmile_qr_scan", "ios": "https://dc.lft.to/lastmile_qr_scan"}, "fusion_lon": 0.0, "lat": 38.914167, "bike_id": "b052956da788f079142866797d310a90", "type": "electric_scooter", "is_reserved": 0, "lon": -77.03940183333333}, {"fusion_lat": 0.0, "name": "aeb6789433c794208034e7e26e1bb309", "is_disabled": 0, "rental_uris": {"android": "https://dc.lft.to/lastmile_qr_scan", "ios": "https://dc.lft.to/lastmile_qr_scan"}, "fusion_lon": 0.0, "lat": 38.919844833333336, "bike_id": "aeb6789433c794208034e7e26e1bb309", "type": "electric_scooter", "is_reserved": 0, "lon": -77.0415515}, {"fusion_lat": 0.0, "name": "044536b81811465cb9f4c7df4ed79507", "is_disabled": 0, "rental_uris": {"android": "https://dc.lft.to/lastmile_qr_scan", "ios": "https://dc.lft.to/lastmile_qr_scan"}, "fusion_lon": 0.0, "lat": 38.897383833333336, "bike_id": "044536b81811465cb9f4c7df4ed79507", "type": "electric_scooter", "is_reserved": 0, "lon": -76.94723416666666}, {"fusion_lat": 0.0, "name": "a846d597c36923bd2b9bc731b07927eb", "is_disabled": 0, "rental_uris": {"android": "https://dc.lft.to/lastmile_qr_scan", "ios": "https://dc.lft.to/lastmile_qr_scan"}, "fusion_lon": 0.0, "lat": 38.93286166666667, "bike_id": "a846d597c36923bd2b9bc731b07927eb", "type": "electric_scooter", "is_reserved": 0, "lon": -77.03633866666667}, {"fusion_lat": 0.0, "name": "9a0d990a0d488e670bfa1691dec8c1bd", "is_disabled": 0, "rental_uris": {"android": "https://dc.lft.to/lastmile_qr_scan", "ios": "https://dc.lft.to/lastmile_qr_scan"}, "fusion_lon": 0.0, "lat": 38.9699135, "bike_id": "9a0d990a0d488e670bfa1691dec8c1bd", "type": "electric_scooter", "is_reserved": 0, "lon": -77.01163266666667}, {"fusion_lat": 0.0, "name": "e711927ad68fefafb4f3cacb5cf2ea6a", "is_disabled": 0, "rental_uris": {"android": "https://dc.lft.to/lastmile_qr_scan", "ios": "https://dc.lft.to/lastmile_qr_scan"}, "fusion_lon": 0.0, "lat": 38.874760333333334, "bike_id": "e711927ad68fefafb4f3cacb5cf2ea6a", "type": "electric_scooter", "is_reserved": 0, "lon": -77.01848016666666}, {"fusion_lat": 0.0, "name": "13603ac7e87243cfa88a06f9f4ec1b10", "is_disabled": 0, "rental_uris": {"android": "https://dc.lft.to/lastmile_qr_scan", "ios": "https://dc.lft.to/lastmile_qr_scan"}, "fusion_lon": 0.0, "lat": 38.907219833333336, "bike_id": "13603ac7e87243cfa88a06f9f4ec1b10", "type": "electric_scooter", "is_reserved": 0, "lon": -77.02507316666667}, {"fusion_lat": 0.0, "name": "a34047f84f806c36d901daccc8f6d69a", "is_disabled": 0, "rental_uris": {"android": "https://dc.lft.to/lastmile_qr_scan", "ios": "https://dc.lft.to/lastmile_qr_scan"}, "fusion_lon": 0.0, "lat": 38.884233333333334, "bike_id": "a34047f84f806c36d901daccc8f6d69a", "type": "electric_scooter", "is_reserved": 0, "lon": -77.0289605}, {"fusion_lat": 0.0, "name": "794c8984368c3fe7bedb33cddfe0f139", "is_disabled": 0, "rental_uris": {"android": "https://dc.lft.to/lastmile_qr_scan", "ios": "https://dc.lft.to/lastmile_qr_scan"}, "fusion_lon": 0.0, "lat": 38.93346716666667, "bike_id": "794c8984368c3fe7bedb33cddfe0f139", "type": "electric_scooter", "is_reserved": 0, "lon": -77.062027}, {"fusion_lat": 0.0, "name": "00ebc786bd4f486f1aa42402046f4e23", "is_disabled": 0, "rental_uris": {"android": "https://dc.lft.to/lastmile_qr_scan", "ios": "https://dc.lft.to/lastmile_qr_scan"}, "fusion_lon": 0.0, "lat": 38.9026555, "bike_id": "00ebc786bd4f486f1aa42402046f4e23", "type": "electric_scooter", "is_reserved": 0, "lon": -76.9961215}, {"fusion_lat": 0.0, "name": "036e3875df060abaeab72303a563bd6e", "is_disabled": 0, "rental_uris": {"android": "https://dc.lft.to/lastmile_qr_scan", "ios": "https://dc.lft.to/lastmile_qr_scan"}, "fusion_lon": 0.0, "lat": 38.90955866666667, "bike_id": "036e3875df060abaeab72303a563bd6e", "type": "electric_scooter", "is_reserved": 0, "lon": -77.0344665}, {"fusion_lat": 0.0, "name": "6a5dbcbf368213905749bca6f20234d8", "is_disabled": 0, "rental_uris": {"android": "https://dc.lft.to/lastmile_qr_scan", "ios": "https://dc.lft.to/lastmile_qr_scan"}, "fusion_lon": 0.0, "lat": 38.8840845, "bike_id": "6a5dbcbf368213905749bca6f20234d8", "type": "electric_scooter", "is_reserved": 0, "lon": -77.02516916666667}, {"fusion_lat": 0.0, "name": "bf75731d2e9c2581ef89b4fbb4556a3c", "is_disabled": 0, "rental_uris": {"android": "https://dc.lft.to/lastmile_qr_scan", "ios": "https://dc.lft.to/lastmile_qr_scan"}, "fusion_lon": 0.0, "lat": 38.940940499999996, "bike_id": "bf75731d2e9c2581ef89b4fbb4556a3c", "type": "electric_scooter", "is_reserved": 0, "lon": -77.02322733333334}, {"fusion_lat": 0.0, "name": "54f1e5deecd90e1a85a6d000689c52dc", "is_disabled": 0, "rental_uris": {"android": "https://dc.lft.to/lastmile_qr_scan", "ios": "https://dc.lft.to/lastmile_qr_scan"}, "fusion_lon": 0.0, "lat": 38.887304666666665, "bike_id": "54f1e5deecd90e1a85a6d000689c52dc", "type": "electric_scooter", "is_reserved": 0, "lon": -77.01338983333333}, {"fusion_lat": 0.0, "name": "55eca468b87ab1d818f9e59d7ef96add", "is_disabled": 0, "rental_uris": {"android": "https://dc.lft.to/lastmile_qr_scan", "ios": "https://dc.lft.to/lastmile_qr_scan"}, "fusion_lon": 0.0, "lat": 38.89576133333333, "bike_id": "55eca468b87ab1d818f9e59d7ef96add", "type": "electric_scooter", "is_reserved": 0, "lon": -77.02208233333333}, {"fusion_lat": 0.0, "name": "d211df70e898a2b256fece1bff95996b", "is_disabled": 0, "rental_uris": {"android": "https://dc.lft.to/lastmile_qr_scan", "ios": "https://dc.lft.to/lastmile_qr_scan"}, "fusion_lon": 0.0, "lat": 38.90075933333333, "bike_id": "d211df70e898a2b256fece1bff95996b", "type": "electric_scooter", "is_reserved": 0, "lon": -77.02205566666666}, {"fusion_lat": 0.0, "name": "2ca6bf7268e936fa7e6ae85e5faac8cd", "is_disabled": 0, "rental_uris": {"android": "https://dc.lft.to/lastmile_qr_scan", "ios": "https://dc.lft.to/lastmile_qr_scan"}, "fusion_lon": 0.0, "lat": 38.9062675, "bike_id": "2ca6bf7268e936fa7e6ae85e5faac8cd", "type": "electric_scooter", "is_reserved": 0, "lon": -77.05011233333333}, {"fusion_lat": 0.0, "name": "da349dadf1a4def1f073db978a0189d9", "is_disabled": 0, "rental_uris": {"android": "https://dc.lft.to/lastmile_qr_scan", "ios": "https://dc.lft.to/lastmile_qr_scan"}, "fusion_lon": 0.0, "lat": 38.92318383333333, "bike_id": "da349dadf1a4def1f073db978a0189d9", "type": "electric_scooter", "is_reserved": 0, "lon": -77.04622466666666}, {"fusion_lat": 0.0, "name": "b427d868b33b642fdde5274b719418b0", "is_disabled": 0, "rental_uris": {"android": "https://dc.lft.to/lastmile_qr_scan", "ios": "https://dc.lft.to/lastmile_qr_scan"}, "fusion_lon": 0.0, "lat": 38.9170435, "bike_id": "b427d868b33b642fdde5274b719418b0", "type": "electric_scooter", "is_reserved": 0, "lon": -77.024216}, {"fusion_lat": 0.0, "name": "2bd9b70ca9acf20cf6af4d04470a5d12", "is_disabled": 0, "rental_uris": {"android": "https://dc.lft.to/lastmile_qr_scan", "ios": "https://dc.lft.to/lastmile_qr_scan"}, "fusion_lon": 0.0, "lat": 38.90151066666667, "bike_id": "2bd9b70ca9acf20cf6af4d04470a5d12", "type": "electric_scooter", "is_reserved": 0, "lon": -76.93064366666667}, {"fusion_lat": 0.0, "name": "cc41d1ec1f480a01ff22a8dc07d1eb78", "is_disabled": 0, "rental_uris": {"android": "https://dc.lft.to/lastmile_qr_scan", "ios": "https://dc.lft.to/lastmile_qr_scan"}, "fusion_lon": 0.0, "lat": 38.92237216666667, "bike_id": "cc41d1ec1f480a01ff22a8dc07d1eb78", "type": "electric_scooter", "is_reserved": 0, "lon": -77.0424455}, {"fusion_lat": 0.0, "name": "79ec727b5d0707e22479c051265ea9a4", "is_disabled": 0, "rental_uris": {"android": "https://dc.lft.to/lastmile_qr_scan", "ios": "https://dc.lft.to/lastmile_qr_scan"}, "fusion_lon": 0.0, "lat": 38.961336833333334, "bike_id": "79ec727b5d0707e22479c051265ea9a4", "type": "electric_bike", "is_reserved": 0, "lon": -77.03276}, {"fusion_lat": 0.0, "name": "3f51587edb14f03e1ddaefe008ca5a00", "is_disabled": 0, "rental_uris": {"android": "https://dc.lft.to/lastmile_qr_scan", "ios": "https://dc.lft.to/lastmile_qr_scan"}, "fusion_lon": 0.0, "lat": 38.90582333333333, "bike_id": "3f51587edb14f03e1ddaefe008ca5a00", "type": "electric_bike", "is_reserved": 0, "lon": -77.00871833333333}, {"fusion_lat": 0.0, "name": "daf6a7c8ad87c952639cad914a6190e3", "is_disabled": 0, "rental_uris": {"android": "https://dc.lft.to/lastmile_qr_scan", "ios": "https://dc.lft.to/lastmile_qr_scan"}, "fusion_lon": 0.0, "lat": 38.87994466666667, "bike_id": "daf6a7c8ad87c952639cad914a6190e3", "type": "electric_bike", "is_reserved": 0, "lon": -76.98412483333334}, {"fusion_lat": 0.0, "name": "c6b740c666ef40d318ee3d837d812397", "is_disabled": 0, "rental_uris": {"android": "https://dc.lft.to/lastmile_qr_scan", "ios": "https://dc.lft.to/lastmile_qr_scan"}, "fusion_lon": 0.0, "lat": 38.9141915, "bike_id": "c6b740c666ef40d318ee3d837d812397", "type": "electric_scooter", "is_reserved": 0, "lon": -77.02819083333333}, {"fusion_lat": 0.0, "name": "932f218b3a5a1dc437e931e1ec80a52c", "is_disabled": 0, "rental_uris": {"android": "https://dc.lft.to/lastmile_qr_scan", "ios": "https://dc.lft.to/lastmile_qr_scan"}, "fusion_lon": 0.0, "lat": 38.92319083333334, "bike_id": "932f218b3a5a1dc437e931e1ec80a52c", "type": "electric_scooter", "is_reserved": 0, "lon": -77.0412745}, {"fusion_lat": 0.0, "name": "e57566087a9a38327d49841018aa70f0", "is_disabled": 0, "rental_uris": {"android": "https://dc.lft.to/lastmile_qr_scan", "ios": "https://dc.lft.to/lastmile_qr_scan"},