{"data": {"bikes": [{"rental_uris": {"ios": "https://dc.lft.to/lastmile_qr_scan", "android": "https://dc.lft.to/lastmile_qr_scan"}, "type": "electric_scooter", "name": "380dfb2f1a53b07015be946c0b6ad878", "is_reserved": 0, "lon": -77.01797233333333, "is_disabled": 0, "fusion_lat": 0.0, "lat": 38.9198025, "bike_id": "380dfb2f1a53b07015be946c0b6ad878", "fusion_lon": 0.0}, {"rental_uris": {"ios": "https://dc.lft.to/lastmile_qr_scan", "android": "https://dc.lft.to/lastmile_qr_scan"}, "type": "electric_scooter", "name": "7f16d9be8788e66d5dc501960ad41b16", "is_reserved": 0, "lon": -77.04648933333333, "is_disabled": 0, "fusion_lat": 0.0, "lat": 38.905541, "bike_id": "7f16d9be8788e66d5dc501960ad41b16", "fusion_lon": 0.0}, {"rental_uris": {"ios": "https://dc.lft.to/lastmile_qr_scan", "android": "https://dc.lft.to/lastmile_qr_scan"}, "type": "electric_scooter", "name": "6547c9416f97ff362334520b216a1671", "is_reserved": 0, "lon": -77.04653466666667, "is_disabled": 0, "fusion_lat": 0.0, "lat": 38.905550833333336, "bike_id": "6547c9416f97ff362334520b216a1671", "fusion_lon": 0.0}, {"rental_uris": {"ios": "https://dc.lft.to/lastmile_qr_scan", "android": "https://dc.lft.to/lastmile_qr_scan"}, "type": "electric_scooter", "name": "144084b732a02aa6db2a74ac3bd2cdc3", "is_reserved": 0, "lon": -77.04502833333333, "is_disabled": 0, "fusion_lat": 0.0, "lat": 38.89226383333333, "bike_id": "144084b732a02aa6db2a74ac3bd2cdc3", "fusion_lon": 0.0}, {"rental_uris": {"ios": "https://dc.lft.to/lastmile_qr_scan", "android": "https://dc.lft.to/lastmile_qr_scan"}, "type": "electric_scooter", "name": "ad9259418277479bb11d2dc184f5c831", "is_reserved": 0, "lon": -77.02242516666666, "is_disabled": 0, "fusion_lat": 0.0, "lat": 38.9154765, "bike_id": "ad9259418277479bb11d2dc184f5c831", "fusion_lon": 0.0}, {"rental_uris": {"ios": "https://dc.lft.to/lastmile_qr_scan", "android": "https://dc.lft.to/lastmile_qr_scan"}, "type": "electric_scooter", "name": "65ad98aa29bb573d1bf709d11ce3322f", "is_reserved": 0, "lon": -77.05456316666667, "is_disabled": 0, "fusion_lat": 0.0, "lat": 38.9289945, "bike_id": "65ad98aa29bb573d1bf709d11ce3322f", "fusion_lon": 0.0}, {"rental_uris": {"ios": "https://dc.lft.to/lastmile_qr_scan", "android": "https://dc.lft.to/lastmile_qr_scan"}, "type": "electric_scooter", "name": "195e3d195aa44e1f9a706afb38a2772a", "is_reserved": 0, "lon": -77.03488166666666, "is_disabled": 0, "fusion_lat": 0.0, "lat": 38.904372, "bike_id": "195e3d195aa44e1f9a706afb38a2772a", "fusion_lon": 0.0}, {"rental_uris": {"ios": "https://dc.lft.to/lastmile_qr_scan", "android": "https://dc.lft.to/lastmile_qr_scan"}, "type": "electric_scooter", "name": "b687b351a6ba57eaa769ee486051bdcc", "is_reserved": 0, "lon": -77.04913883333333, "is_disabled": 0, "fusion_lat": 0.0, "lat": 38.91037866666667, "bike_id": "b687b351a6ba57eaa769ee486051bdcc", "fusion_lon": 0.0}, {"rental_uris": {"ios": "https://dc.lft.to/lastmile_qr_scan", "android": "https://dc.lft.to/lastmile_qr_scan"}, "type": "electric_scooter", "name": "ccbf1448a41d24129ea5e781f15a364e", "is_reserved": 0, "lon": -77.036704, "is_disabled": 0, "fusion_lat": 0.0, "lat": 38.91604183333333, "bike_id": "ccbf1448a41d24129ea5e781f15a364e", "fusion_lon": 0.0}, {"rental_uris": {"ios": "https://dc.lft.to/lastmile_qr_scan", "android": "https://dc.lft.to/lastmile_qr_scan"}, "type": "electric_scooter", "name": "b9a1b9c0fa802455d4334f9e6f1c8210", "is_reserved": 0, "lon": -77.02170766666667, "is_disabled": 0, "fusion_lat": 0.0, "lat": 38.89397366666667, "bike_id": "b9a1b9c0fa802455d4334f9e6f1c8210", "fusion_lon": 0.0}, {"rental_uris": {"ios": "https://dc.lft.to/lastmile_qr_scan", "android": "https://dc.lft.to/lastmile_qr_scan"}, "type": "electric_scooter", "name": "9488691410fe00e708acf9c0b141d1f2", "is_reserved": 0, "lon": -77.041046, "is_disabled": 0, "fusion_lat": 0.0, "lat": 38.9053885, "bike_id": "9488691410fe00e708acf9c0b141d1f2", "fusion_lon": 0.0}, {"rental_uris": {"ios": "https://dc.lft.to/lastmile_qr_scan", "android": "https://dc.lft.to/lastmile_qr_scan"}, "type": "electric_scooter", "name": "a42685b1f0aa2029dcfa4a0c96c75a21", "is_reserved": 0, "lon": -77.0266285, "is_disabled": 0, "fusion_lat": 0.0, "lat": 38.884883, "bike_id": "a42685b1f0aa2029dcfa4a0c96c75a21", "fusion_lon": 0.0}, {"rental_uris": {"ios": "https://dc.lft.to/lastmile_qr_scan", "android": "https://dc.lft.to/lastmile_qr_scan"}, "type": "electric_bike", "name": "3815901e6e0a5512d3227e6d64b2abd2", "is_reserved": 0, "lon": -76.95742783333333, "is_disabled": 0, "fusion_lat": 0.0, "lat": 38.888518, "bike_id": "3815901e6e0a5512d3227e6d64b2abd2", "fusion_lon": 0.0}, {"rental_uris": {"ios": "https://dc.lft.to/lastmile_qr_scan", "android": "https://dc.lft.to/lastmile_qr_scan"}, "type": "electric_scooter", "name": "a11a50dd76f32e283d0487691efd2c23", "is_reserved": 0, "lon": -76.94717516666667, "is_disabled": 0, "fusion_lat": 0.0, "lat": 38.89083083333333, "bike_id": "a11a50dd76f32e283d0487691efd2c23", "fusion_lon": 0.0}, {"rental_uris": {"ios": "https://dc.lft.to/lastmile_qr_scan", "android": "https://dc.lft.to/lastmile_qr_scan"}, "type": "electric_scooter", "name": "a987986a3915d4e6991546a30401deab", "is_reserved": 0, "lon": -77.01637616666666, "is_disabled": 0, "fusion_lat": 0.0, "lat": 38.90376366666667, "bike_id": "a987986a3915d4e6991546a30401deab", "fusion_lon": 0.0}, {"rental_uris": {"ios": "https://dc.lft.to/lastmile_qr_scan", "android": "https://dc.lft.to/lastmile_qr_scan"}, "type": "electric_scooter", "name": "239f6094eef5d47e0a0e1e7c2cf8f0b2", "is_reserved": 0, "lon": -77.021476, "is_disabled": 0, "fusion_lat": 0.0, "lat": 38.915517666666666, "bike_id": "239f6094eef5d47e0a0e1e7c2cf8f0b2", "fusion_lon": 0.0}, {"rental_uris": {"ios": "https://dc.lft.to/lastmile_qr_scan", "android": "https://dc.lft.to/lastmile_qr_scan"}, "type": "electric_scooter", "name": "6de368c046a75e9f56e32d03382cf01c", "is_reserved": 0, "lon": -77.00213383333333, "is_disabled": 0, "fusion_lat": 0.0, "lat": 38.9004445, "bike_id": "6de368c046a75e9f56e32d03382cf01c", "fusion_lon": 0.0}, {"rental_uris": {"ios": "https://dc.lft.to/lastmile_qr_scan", "android": "https://dc.lft.to/lastmile_qr_scan"}, "type": "electric_scooter", "name": "500a902f2277331f5a77e1956d894517", "is_reserved": 0, "lon": -77.04245116666667, "is_disabled": 0, "fusion_lat": 0.0, "lat": 38.9229165, "bike_id": "500a902f2277331f5a77e1956d894517", "fusion_lon": 0.0}, {"rental_uris": {"ios": "https://dc.lft.to/lastmile_qr_scan", "android": "https://dc.lft.to/lastmile_qr_scan"}, "type": "electric_scooter", "name": "f2af2db3d356dd0ce8edbbc1fb1daddf", "is_reserved": 0, "lon": -77.03203866666666, "is_disabled": 0, "fusion_lat": 0.0, "lat": 38.9082025, "bike_id": "f2af2db3d356dd0ce8edbbc1fb1daddf", "fusion_lon": 0.0}, {"rental_uris": {"ios": "https://dc.lft.to/lastmile_qr_scan", "android": "https://dc.lft.to/lastmile_qr_scan"}, "type": "electric_scooter", "name": "155e0b8c157e731410d22f9175e3c40f", "is_reserved": 0, "lon": -77.03196233333334, "is_disabled": 0, "fusion_lat": 0.0, "lat": 38.907082833333334, "bike_id": "155e0b8c157e731410d22f9175e3c40f", "fusion_lon": 0.0}, {"rental_uris": {"ios": "https://dc.lft.to/lastmile_qr_scan", "android": "https://dc.lft.to/lastmile_qr_scan"}, "type": "electric_bike", "name": "da7cd7eda2493fe82913e3d0705a2274", "is_reserved": 0, "lon": -77.0595255, "is_disabled": 0, "fusion_lat": 0.0, "lat": 38.863797, "bike_id": "da7cd7eda2493fe82913e3d0705a2274", "fusion_lon": 0.0}, {"rental_uris": {"ios": "https://dc.lft.to/lastmile_qr_scan", "android": "https://dc.lft.to/lastmile_qr_scan"}, "type": "electric_scooter", "name": "2bf9c14aa840f8fbd47686e142140abb", "is_reserved": 0, "lon": -77.0380515, "is_disabled": 0, "fusion_lat": 0.0, "lat": 38.91033433333333, "bike_id": "2bf9c14aa840f8fbd47686e142140abb", "fusion_lon": 0.0}, {"rental_uris": {"ios": "https://dc.lft.to/lastmile_qr_scan", "android": "https://dc.lft.to/lastmile_qr_scan"}, "type": "electric_scooter", "name": "985977e372a567fd44272992de686f98", "is_reserved": 0, "lon": -77.0379065, "is_disabled": 0, "fusion_lat": 0.0, "lat": 38.93102716666667, "bike_id": "985977e372a567fd44272992de686f98", "fusion_lon": 0.0}, {"rental_uris": {"ios": "https://dc.lft.to/lastmile_qr_scan", "android": "https://dc.lft.to/lastmile_qr_scan"}, "type": "electric_scooter", "name": "3451ed7814692cb12ccb5ab5c2226325", "is_reserved": 0, "lon": -77.07909783333334, "is_disabled": 0, "fusion_lat": 0.0, "lat": 38.947733666666664, "bike_id": "3451ed7814692cb12ccb5ab5c2226325", "fusion_lon": 0.0}, {"rental_uris": {"ios": "https://dc.lft.to/lastmile_qr_scan", "android": "https://dc.lft.to/lastmile_qr_scan"}, "type": "electric_scooter", "name": "c4b65edc956729e9396d990362d3514c", "is_reserved": 0, "lon": -77.04704783333334, "is_disabled": 0, "fusion_lat": 0.0, "lat": 38.902825666666665, "bike_id": "c4b65edc956729e9396d990362d3514c", "fusion_lon": 0.0}, {"rental_uris": {"ios": "https://dc.lft.to/lastmile_qr_scan", "android": "https://dc.lft.to/lastmile_qr_scan"}, "type": "electric_scooter", "name": "1cba084d8912a4f7914758574f743596", "is_reserved": 0, "lon": -77.04248866666667, "is_disabled": 0, "fusion_lat": 0.0, "lat": 38.92211133333333, "bike_id": "1cba084d8912a4f7914758574f743596", "fusion_lon": 0.0}, {"rental_uris": {"ios": "https://dc.lft.to/lastmile_qr_scan", "android": "https://dc.lft.to/lastmile_qr_scan"}, "type": "electric_scooter", "name": "9e5dea3b883ebad530ac1c6d151c9f29", "is_reserved": 0, "lon": -76.93736233333334, "is_disabled": 0, "fusion_lat": 0.0, "lat": 38.888775, "bike_id": "9e5dea3b883ebad530ac1c6d151c9f29", "fusion_lon": 0.0}, {"rental_uris": {"ios": "https://dc.lft.to/lastmile_qr_scan", "android": "https://dc.lft.to/lastmile_qr_scan"}, "type": "electric_bike", "name": "f2c9094afd2cf436cdfadfb4fbbaf57a", "is_reserved": 0, "lon": -77.07529533333333, "is_disabled": 0, "fusion_lat": 0.0, "lat": 38.84281166666667, "bike_id": "f2c9094afd2cf436cdfadfb4fbbaf57a", "fusion_lon": 0.0}, {"rental_uris": {"ios": "https://dc.lft.to/lastmile_qr_scan", "android": "https://dc.lft.to/lastmile_qr_scan"}, "type": "electric_scooter", "name": "47d7a039b4b8baca86f650950c2a3631", "is_reserved": 0, "lon": -77.034816, "is_disabled": 0, "fusion_lat": 0.0, "lat": 38.90319566666667, "bike_id": "47d7a039b4b8baca86f650950c2a3631", "fusion_lon": 0.0}, {"rental_uris": {"ios": "https://dc.lft.to/lastmile_qr_scan", "android": "https://dc.lft.to/lastmile_qr_scan"}, "type": "electric_scooter", "name": "7d75d07a456c75ce83902a395875a870", "is_reserved": 0, "lon": -77.03589616666666, "is_disabled": 0, "fusion_lat": 0.0, "lat": 38.902364166666665, "bike_id": "7d75d07a456c75ce83902a395875a870", "fusion_lon": 0.0}, {"rental_uris": {"ios": "https://dc.lft.to/lastmile_qr_scan", "android": "https://dc.lft.to/lastmile_qr_scan"}, "type": "electric_bike", "name": "13d35bb16ebf927d1a9ca6704801e0d6", "is_reserved": 0, "lon": -77.12729866666666, "is_disabled": 0, "fusion_lat": 0.0, "lat": 38.895615666666664, "bike_id": "13d35bb16ebf927d1a9ca6704801e0d6", "fusion_lon": 0.0}, {"rental_uris": {"ios": "https://dc.lft.to/lastmile_qr_scan", "android": "https://dc.lft.to/lastmile_qr_scan"}, "type": "electric_scooter", "name": "b0e118283340ace5538768382563f2d2", "is_reserved": 0, "lon": -76.99859633333334, "is_disabled": 0, "fusion_lat": 0.0, "lat": 38.90023583333333, "bike_id": "b0e118283340ace5538768382563f2d2", "fusion_lon": 0.0}, {"rental_uris": {"ios": "https://dc.lft.to/lastmile_qr_scan", "android": "https://dc.lft.to/lastmile_qr_scan"}, "type": "electric_bike", "name": "dd6ce86b3bac24ac5265c2d81146a4b4", "is_reserved": 0, "lon": -77.000022, "is_disabled": 0, "fusion_lat": 0.0, "lat": 38.923919833333336, "bike_id": "dd6ce86b3bac24ac5265c2d81146a4b4", "fusion_lon": 0.0}, {"rental_uris": {"ios": "https://dc.lft.to/lastmile_qr_scan", "android": "https://dc.lft.to/lastmile_qr_scan"}, "type": "electric_scooter", "name": "4ce244dcbf570f398ea4efe78efffbce", "is_reserved": 0, "lon": -77.02311733333333, "is_disabled": 0, "fusion_lat": 0.0, "lat": 38.90277316666667, "bike_id": "4ce244dcbf570f398ea4efe78efffbce", "fusion_lon": 0.0}, {"rental_uris": {"ios": "https://dc.lft.to/lastmile_qr_scan", "android": "https://dc.lft.to/lastmile_qr_scan"}, "type": "electric_scooter", "name": "867d81b1c6baf94908425c090a66d293", "is_reserved": 0, "lon": -77.0283455, "is_disabled": 0, "fusion_lat": 0.0, "lat": 38.90241133333333, "bike_id": "867d81b1c6baf94908425c090a66d293", "fusion_lon": 0.0}, {"rental_uris": {"ios": "https://dc.lft.to/lastmile_qr_scan", "android": "https://dc.lft.to/lastmile_qr_scan"}, "type": "electric_scooter", "name": "c63a25a599dbf31141ba3465a09df13d", "is_reserved": 0, "lon": -77.04119783333333, "is_disabled": 0, "fusion_lat": 0.0, "lat": 38.931027, "bike_id": "c63a25a599dbf31141ba3465a09df13d", "fusion_lon": 0.0}, {"rental_uris": {"ios": "https://dc.lft.to/lastmile_qr_scan", "android": "https://dc.lft.to/lastmile_qr_scan"}, "type": "electric_bike", "name": "21041f159721d8322bf3080735bf91eb", "is_reserved": 0, "lon": -77.0122445, "is_disabled": 0, "fusion_lat": 0.0, "lat": 38.95086833333333, "bike_id": "21041f159721d8322bf3080735bf91eb", "fusion_lon": 0.0}, {"rental_uris": {"ios": "https://dc.lft.to/lastmile_qr_scan", "android": "https://dc.lft.to/lastmile_qr_scan"}, "type": "electric_scooter", "name": "f36806c8e0ae0b0b4cfabc0396d993fe", "is_reserved": 0, "lon": -76.98574566666667, "is_disabled": 0, "fusion_lat": 0.0, "lat": 38.854514, "bike_id": "f36806c8e0ae0b0b4cfabc0396d993fe", "fusion_lon": 0.0}, {"rental_uris": {"ios": "https://dc.lft.to/lastmile_qr_scan", "android": "https://dc.lft.to/lastmile_qr_scan"}, "type": "electric_scooter", "name": "bb5dbcb2e3bc5b70a08b7069b8663458", "is_reserved": 0, "lon": -77.0448655, "is_disabled": 0, "fusion_lat": 0.0, "lat": 38.9109245, "bike_id": "bb5dbcb2e3bc5b70a08b7069b8663458", "fusion_lon": 0.0}, {"rental_uris": {"ios": "https://dc.lft.to/lastmile_qr_scan", "android": "https://dc.lft.to/lastmile_qr_scan"}, "type": "electric_scooter", "name": "86787838c72a31cd43e5f097223d681b", "is_reserved": 0, "lon": -77.04478566666667, "is_disabled": 0, "fusion_lat": 0.0, "lat": 38.92417866666667, "bike_id": "86787838c72a31cd43e5f097223d681b", "fusion_lon": 0.0}, {"rental_uris": {"ios": "https://dc.lft.to/lastmile_qr_scan", "android": "https://dc.lft.to/lastmile_qr_scan"}, "type": "electric_scooter", "name": "b7e8f2b7a25c1e2c5e59cedce5bb5872", "is_reserved": 0, "lon": -77.02705816666666, "is_disabled": 0, "fusion_lat": 0.0, "lat": 38.9059945, "bike_id": "b7e8f2b7a25c1e2c5e59cedce5bb5872", "fusion_lon": 0.0}, {"rental_uris": {"ios": "https://dc.lft.to/lastmile_qr_scan", "android": "https://dc.lft.to/lastmile_qr_scan"}, "type": "electric_scooter", "name": "82d24c5bdb367c308f7b6d90f9b04eed", "is_reserved": 0, "lon": -77.0417535, "is_disabled": 0, "fusion_lat": 0.0, "lat": 38.9158475, "bike_id": "82d24c5bdb367c308f7b6d90f9b04eed", "fusion_lon": 0.0}, {"rental_uris": {"ios": "https://dc.lft.to/lastmile_qr_scan", "android": "https://dc.lft.to/lastmile_qr_scan"}, "type": "electric_scooter", "name": "46b9acd1bc3464fce428f88cdd2cebcb", "is_reserved": 0, "lon": -77.03074916666667, "is_disabled": 0, "fusion_lat": 0.0, "lat": 38.938739166666664, "bike_id": "46b9acd1bc3464fce428f88cdd2cebcb", "fusion_lon": 0.0}, {"rental_uris": {"ios": "https://dc.lft.to/lastmile_qr_scan", "android": "https://dc.lft.to/lastmile_qr_scan"}, "type": "electric_scooter", "name": "b68556637d47b8da63cb5d8a4f153f5b", "is_reserved": 0, "lon": -77.02572566666667, "is_disabled": 0, "fusion_lat": 0.0, "lat": 38.9352385, "bike_id": "b68556637d47b8da63cb5d8a4f153f5b", "fusion_lon": 0.0}, {"rental_uris": {"ios": "https://dc.lft.to/lastmile_qr_scan", "android": "https://dc.lft.to/lastmile_qr_scan"}, "type": "electric_scooter", "name": "5c163fd3cb72b7fccfe6e76a69046ad2", "is_reserved": 0, "lon": -77.01538166666667, "is_disabled": 0, "fusion_lat": 0.0, "lat": 38.89169366666667, "bike_id": "5c163fd3cb72b7fccfe6e76a69046ad2", "fusion_lon": 0.0}, {"rental_uris": {"ios": "https://dc.lft.to/lastmile_qr_scan", "android": "https://dc.lft.to/lastmile_qr_scan"}, "type": "electric_scooter", "name": "e5b70ceb77d5331de9bc67972b5e2185", "is_reserved": 0, "lon": -77.0252185, "is_disabled": 0, "fusion_lat": 0.0, "lat": 38.88049516666667, "bike_id": "e5b70ceb77d5331de9bc67972b5e2185", "fusion_lon": 0.0}, {"rental_uris": {"ios": "https://dc.lft.to/lastmile_qr_scan", "android": "https://dc.lft.to/lastmile_qr_scan"}, "type": "electric_scooter", "name": "4345a180b825cca0640eaa4f5f293b0f", "is_reserved": 0, "lon": -77.0364315, "is_disabled": 0, "fusion_lat": 0.0, "lat": 38.902019833333334, "bike_id": "4345a180b825cca0640eaa4f5f293b0f", "fusion_lon": 0.0}, {"rental_uris": {"ios": "https://dc.lft.to/lastmile_qr_scan", "android": "https://dc.lft.to/lastmile_qr_scan"}, "type": "electric_scooter", "name": "d41f1c92c989bea40f19a1a9c6159f89", "is_reserved": 0, "lon": -77.02979733333333, "is_disabled": 0, "fusion_lat": 0.0, "lat": 38.93247983333333, "bike_id": "d41f1c92c989bea40f19a1a9c6159f89", "fusion_lon": 0.0}, {"rental_uris": {"ios": "https://dc.lft.to/lastmile_qr_scan", "android": "https://dc.lft.to/lastmile_qr_scan"}, "type": "electric_scooter", "name": "bcd43740d3d56c3570bf6fbe3b5596cc", "is_reserved": 0, "lon": -77.02154316666666, "is_disabled": 0, "fusion_lat": 0.0, "lat": 38.92600733333333, "bike_id": "bcd43740d3d56c3570bf6fbe3b5596cc", "fusion_lon": 0.0}, {"rental_uris": {"ios": "https://dc.lft.to/lastmile_qr_scan", "android": "https://dc.lft.to/lastmile_qr_scan"}, "type": "electric_bike", "name": "74b2ed9669c36517882f7772a552045e", "is_reserved": 0, "lon": -77.01355783333334, "is_disabled": 0, "fusion_lat": 0.0, "lat": 38.91600666666667, "bike_id": "74b2ed9669c36517882f7772a552045e", "fusion_lon": 0.0}, {"rental_uris": {"ios": "https://dc.lft.to/lastmile_qr_scan", "android": "https://dc.lft.to/lastmile_qr_scan"}, "type": "electric_scooter", "name": "dfd1fd580f56049df56ceed9cc7c3ff3", "is_reserved": 0, "lon": -77.06283533333334, "is_disabled": 0, "fusion_lat": 0.0, "lat": 38.912442, "bike_id": "dfd1fd580f56049df56ceed9cc7c3ff3", "fusion_lon": 0.0}, {"rental_uris": {"ios": "https://dc.lft.to/lastmile_qr_scan", "android": "https://dc.lft.to/lastmile_qr_scan"}, "type": "electric_scooter", "name": "f128129c60def0235ff34546a2f76e10", "is_reserved": 0, "lon": -77.04418016666666, "is_disabled": 0, "fusion_lat": 0.0, "lat": 38.9112765, "bike_id": "f128129c60def0235ff34546a2f76e10", "fusion_lon": 0.0}, {"rental_uris": {"ios": "https://dc.lft.to/lastmile_qr_scan", "android": "https://dc.lft.to/lastmile_qr_scan"}, "type": "electric_scooter", "name": "77bdf4b29fb7d703e1c0f334a0cd5af5", "is_reserved": 0, "lon": -77.03438883333334, "is_disabled": 0, "fusion_lat": 0.0, "lat": 38.90972983333333, "bike_id": "77bdf4b29fb7d703e1c0f334a0cd5af5", "fusion_lon": 0.0}, {"rental_uris": {"ios": "https://dc.lft.to/lastmile_qr_scan", "android": "https://dc.lft.to/lastmile_qr_scan"}, "type": "electric_scooter", "name": "b00e586bca91a9013d49ffe35ad98911", "is_reserved": 0, "lon": -77.021362, "is_disabled": 0, "fusion_lat": 0.0, "lat": 38.924466833333334, "bike_id": "b00e586bca91a9013d49ffe35ad98911", "fusion_lon": 0.0}, {"rental_uris": {"ios": "https://dc.lft.to/lastmile_qr_scan", "android": "https://dc.lft.to/lastmile_qr_scan"}, "type": "electric_scooter", "name": "395614659eba356ea3e26cb2cb88cd40", "is_reserved": 0, "lon": -77.0196385, "is_disabled": 0, "fusion_lat": 0.0, "lat": 38.929083166666665, "bike_id": "395614659eba356ea3e26cb2cb88cd40", "fusion_lon": 0.0}, {"rental_uris": {"ios": "https://dc.lft.to/lastmile_qr_scan", "android": "https://dc.lft.to/lastmile_qr_scan"}, "type": "electric_scooter", "name": "459b0f6fddaeee705cf4be427ff2a8fa", "is_reserved": 0, "lon": -76.981603, "is_disabled": 0, "fusion_lat": 0.0, "lat": 38.861756166666666, "bike_id": "459b0f6fddaeee705cf4be427ff2a8fa", "fusion_lon": 0.0}, {"rental_uris": {"ios": "https://dc.lft.to/lastmile_qr_scan", "android": "https://dc.lft.to/lastmile_qr_scan"}, "type": "electric_scooter", "name": "893eace2da997ca2dbd7f1ad4822772c", "is_reserved": 0, "lon": -77.0459905, "is_disabled": 0, "fusion_lat": 0.0, "lat": 38.919219, "bike_id": "893eace2da997ca2dbd7f1ad4822772c", "fusion_lon": 0.0}, {"rental_uris": {"ios": "https://dc.lft.to/lastmile_qr_scan", "android": "https://dc.lft.to/lastmile_qr_scan"}, "type": "electric_scooter", "name": "e45d0dfb211145b7a7810cd4eac0f453", "is_reserved": 0, "lon": -77.02972366666667, "is_disabled": 0, "fusion_lat": 0.0, "lat": 38.90646183333333, "bike_id": "e45d0dfb211145b7a7810cd4eac0f453", "fusion_lon": 0.0}, {"rental_uris": {"ios": "https://dc.lft.to/lastmile_qr_scan", "android": "https://dc.lft.to/lastmile_qr_scan"}, "type": "electric_bike", "name": "0d984fe1d8fd9bb7199a258143d58908", "is_reserved": 0, "lon": -76.96091366666667, "is_disabled": 0, "fusion_lat": 0.0, "lat": 38.91852866666667, "bike_id": "0d984fe1d8fd9bb7199a258143d58908", "fusion_lon": 0.0}, {"rental_uris": {"ios": "https://dc.lft.to/lastmile_qr_scan", "android": "https://dc.lft.to/lastmile_qr_scan"}, "type": "electric_scooter", "name": "375c95f22d7a15bb02bb9d110e364d62", "is_reserved": 0, "lon": -77.00816816666666, "is_disabled": 0, "fusion_lat": 0.0, "lat": 38.91692166666667, "bike_id": "375c95f22d7a15bb02bb9d110e364d62", "fusion_lon": 0.0}, {"rental_uris": {"ios": "https://dc.lft.to/lastmile_qr_scan", "android": "https://dc.lft.to/lastmile_qr_scan"}, "type": "electric_scooter", "name": "080b4ffef10e24bc3b349ddf838de962", "is_reserved": 0, "lon": -77.05506, "is_disabled": 0, "fusion_lat": 0.0, "lat": 38.91539933333333, "bike_id": "080b4ffef10e24bc3b349ddf838de962", "fusion_lon": 0.0}, {"rental_uris": {"ios": "https://dc.lft.to/lastmile_qr_scan", "android": "https://dc.lft.to/lastmile_qr_scan"}, "type": "electric_scooter", "name": "3b99120b95d27d9c0d68af08d0b54969", "is_reserved": 0, "lon": -77.0194, "is_disabled": 0, "fusion_lat": 0.0, "lat": 38.947033166666664, "bike_id": "3b99120b95d27d9c0d68af08d0b54969", "fusion_lon": 0.0}, {"rental_uris": {"ios": "https://dc.lft.to/lastmile_qr_scan", "android": "https://dc.lft.to/lastmile_qr_scan"}, "type": "electric_scooter", "name": "00c0135bd4da9a12f40affd8aee20703", "is_reserved": 0, "lon": -77.04458983333333, "is_disabled": 0, "fusion_lat": 0.0, "lat": 38.90146683333333, "bike_id": "00c0135bd4da9a12f40affd8aee20703", "fusion_lon": 0.0}, {"rental_uris": {"ios": "https://dc.lft.to/lastmile_qr_scan", "android": "https://dc.lft.to/lastmile_qr_scan"}, "type": "electric_scooter", "name": "e0c777a5fd594657405de2d93b648f0c", "is_reserved": 0, "lon": -76.99963783333334, "is_disabled": 0, "fusion_lat": 0.0, "lat": 38.90851633333333, "bike_id": "e0c777a5fd594657405de2d93b648f0c", "fusion_lon": 0.0}, {"rental_uris": {"ios": "https://dc.lft.to/lastmile_qr_scan", "android": "https://dc.lft.to/lastmile_qr_scan"}, "type": "electric_scooter", "name": "ec9c7c4434ec01ea048f0e49effc4e0c", "is_reserved": 0, "lon": -77.04341333333333, "is_disabled": 0, "fusion_lat": 0.0, "lat": 38.91775533333333, "bike_id": "ec9c7c4434ec01ea048f0e49effc4e0c", "fusion_lon": 0.0}, {"rental_uris": {"ios": "https://dc.lft.to/lastmile_qr_scan", "android": "https://dc.lft.to/lastmile_qr_scan"}, "type": "electric_scooter", "name": "b0ab0a10d394f6b0d1092cb85c8f2ec4", "is_reserved": 0, "lon": -77.02301783333333, "is_disabled": 0, "fusion_lat": 0.0, "lat": 38.8789295, "bike_id": "b0ab0a10d394f6b0d1092cb85c8f2ec4", "fusion_lon": 0.0}, {"rental_uris": {"ios": "https://dc.lft.to/lastmile_qr_scan", "android": "https://dc.lft.to/lastmile_qr_scan"}, "type": "electric_scooter", "name": "54fd5c4293af305249f17da190fed08a", "is_reserved": 0, "lon": -77.02180816666667, "is_disabled": 0, "fusion_lat": 0.0, "lat": 38.89565866666667, "bike_id": "54fd5c4293af305249f17da190fed08a", "fusion_lon": 0.0}, {"rental_uris": {"ios": "https://dc.lft.to/lastmile_qr_scan", "android": "https://dc.lft.to/lastmile_qr_scan"}, "type": "electric_bike", "name": "35b90a5ea639d7d4d80f6175d1131ab6", "is_reserved": 0, "lon": -76.973119, "is_disabled": 0, "fusion_lat": 0.0, "lat": 38.9176055, "bike_id": "35b90a5ea639d7d4d80f6175d1131ab6", "fusion_lon": 0.0}, {"rental_uris": {"ios": "https://dc.lft.to/lastmile_qr_scan", "android": "https://dc.lft.to/lastmile_qr_scan"}, "type": "electric_scooter", "name": "c5bb3ff8aa0c3ec790abddfdb0ebd024", "is_reserved": 0, "lon": -77.01266716666666, "is_disabled": 0, "fusion_lat": 0.0, "lat": 38.8971605, "bike_id": "c5bb3ff8aa0c3ec790abddfdb0ebd024", "fusion_lon": 0.0}, {"rental_uris": {"ios": "https://dc.lft.to/lastmile_qr_scan", "android": "https://dc.lft.to/lastmile_qr_scan"}, "type": "electric_scooter", "name": "53f421026434979901cf0e124618b110", "is_reserved": 0, "lon": -77.02240433333333, "is_disabled": 0, "fusion_lat": 0.0, "lat": 38.91269883333333, "bike_id": "53f421026434979901cf0e124618b110", "fusion_lon": 0.0}, {"rental_uris": {"ios": "https://dc.lft.to/lastmile_qr_scan", "android": "https://dc.lft.to/lastmile_qr_scan"}, "type": "electric_scooter", "name": "72e4489cdb6be71ff41ea3f857dfc092", "is_reserved": 0, "lon": -77.04250216666667, "is_disabled": 0, "fusion_lat": 0.0, "lat": 38.922343, "bike_id": "72e4489cdb6be71ff41ea3f857dfc092", "fusion_lon": 0.0}, {"rental_uris": {"ios": "https://dc.lft.to/lastmile_qr_scan", "android": "https://dc.lft.to/lastmile_qr_scan"}, "type": "electric_scooter", "name": "3e5b9e9d15cf2f47247df18cae7567b1", "is_reserved": 0, "lon": -77.0383815, "is_disabled": 0, "fusion_lat": 0.0, "lat": 38.9067005, "bike_id": "3e5b9e9d15cf2f47247df18cae7567b1", "fusion_lon": 0.0}, {"rental_uris": {"ios": "https://dc.lft.to/lastmile_qr_scan", "android": "https://dc.lft.to/lastmile_qr_scan"}, "type": "electric_scooter", "name": "06b5593c61e492a418b326adf0fb7dac", "is_reserved": 0, "lon": -77.02192, "is_disabled": 0, "fusion_lat": 0.0, "lat": 38.8871745, "bike_id": "06b5593c61e492a418b326adf0fb7dac", "fusion_lon": 0.0}, {"rental_uris": {"ios": "https://dc.lft.to/lastmile_qr_scan", "android": "https://dc.lft.to/lastmile_qr_scan"}, "type": "electric_scooter", "name": "9396b061f4cc9b18995806f7722a55da", "is_reserved": 0, "lon": -77.044982, "is_disabled": 0, "fusion_lat": 0.0, "lat": 38.897091, "bike_id": "9396b061f4cc9b18995806f7722a55da", "fusion_lon": 0.0}, {"rental_uris": {"ios": "https://dc.lft.to/lastmile_qr_scan", "android": "https://dc.lft.to/lastmile_qr_scan"}, "type": "electric_scooter", "name": "7b3a1a81eda0d828bf046a2ab5cde1a2", "is_reserved": 0, "lon": -76.99612016666667, "is_disabled": 0, "fusion_lat": 0.0, "lat": 38.90910816666667, "bike_id": "7b3a1a81eda0d828bf046a2ab5cde1a2", "fusion_lon": 0.0}, {"rental_uris": {"ios": "https://dc.lft.to/lastmile_qr_scan", "android": "https://dc.lft.to/lastmile_qr_scan"}, "type": "electric_scooter", "name": "e550c377721fe727cb5ff043b1f40b52", "is_reserved": 0, "lon": -76.97151016666666, "is_disabled": 0, "fusion_lat": 0.0, "lat": 38.916256, "bike_id": "e550c377721fe727cb5ff043b1f40b52", "fusion_lon": 0.0}, {"rental_uris": {"ios": "https://dc.lft.to/lastmile_qr_scan", "android": "https://dc.lft.to/lastmile_qr_scan"}, "type": "electric_scooter", "name": "4189a32583d48b4bc35f4cb8cf8f4e38", "is_reserved": 0, "lon": -77.03937066666667, "is_disabled": 0, "fusion_lat": 0.0, "lat": 38.909602, "bike_id": "4189a32583d48b4bc35f4cb8cf8f4e38", "fusion_lon": 0.0}, {"rental_uris": {"ios": "https://dc.lft.to/lastmile_qr_scan", "android": "https://dc.lft.to/lastmile_qr_scan"}, "type": "electric_scooter", "name": "674be1c2a1850d021c76834d3035e4e9", "is_reserved": 0, "lon": -77.03450883333333, "is_disabled": 0, "fusion_lat": 0.0, "lat": 38.911952666666664, "bike_id": "674be1c2a1850d021c76834d3035e4e9", "fusion_lon": 0.0}, {"rental_uris": {"ios": "https://dc.lft.to/lastmile_qr_scan", "android": "https://dc.lft.to/lastmile_qr_scan"}, "type": "electric_scooter", "name": "90d69966887c7e89d8b066d99371188b", "is_reserved": 0, "lon": -77.02313483333333, "is_disabled": 0, "fusion_lat": 0.0, "lat": 38.938032166666666, "bike_id": "90d69966887c7e89d8b066d99371188b", "fusion_lon": 0.0}, {"rental_uris": {"ios": "https://dc.lft.to/lastmile_qr_scan", "android": "https://dc.lft.to/lastmile_qr_scan"}, "type": "electric_scooter", "name": "59bdee081aa64c8d7473a64ba6b01f2b", "is_reserved": 0, "lon": -77.02973883333334, "is_disabled": 0, "fusion_lat": 0.0, "lat": 38.91682516666667, "bike_id": "59bdee081aa64c8d7473a64ba6b01f2b", "fusion_lon": 0.0}, {"rental_uris": {"ios": "https://dc.lft.to/lastmile_qr_scan", "android": "https://dc.lft.to/lastmile_qr_scan"}, "type": "electric_scooter", "name": "e3a3ada09445f1219004535a84289d72", "is_reserved": 0, "lon": -76.94061816666667, "is_disabled": 0, "fusion_lat": 0.0, "lat": 38.885866, "bike_id": "e3a3ada09445f1219004535a84289d72", "fusion_lon": 0.0}, {"rental_uris": {"ios": "https://dc.lft.to/lastmile_qr_scan", "android": "https://dc.lft.to/lastmile_qr_scan"}, "type": "electric_scooter", "name": "b0f5e818f6acd6423eaad64674215642", "is_reserved": 0, "lon": -77.03467916666666, "is_disabled": 0, "fusion_lat": 0.0, "lat": 38.9023785, "bike_id": "b0f5e818f6acd6423eaad64674215642", "fusion_lon": 0.0}, {"rental_uris": {"ios": "https://dc.lft.to/lastmile_qr_scan", "android": "https://dc.lft.to/lastmile_qr_scan"}, "type": "electric_scooter", "name": "8c6c26a8fb9dad46383eca4537648344", "is_reserved": 0, "lon": -76.99514533333334, "is_disabled": 0, "fusion_lat": 0.0, "lat": 38.90977066666667, "bike_id": "8c6c26a8fb9dad46383eca4537648344", "fusion_lon": 0.0}, {"rental_uris": {"ios": "https://dc.lft.to/lastmile_qr_scan", "android": "https://dc.lft.to/lastmile_qr_scan"}, "type": "electric_scooter", "name": "fd3d4b0f9a30b0ff9d5034fb2b51b426", "is_reserved": 0, "lon": -77.0046715, "is_disabled": 0, "fusion_lat": 0.0, "lat": 38.88506183333333, "bike_id": "fd3d4b0f9a30b0ff9d5034fb2b51b426", "fusion_lon": 0.0}, {"rental_uris": {"ios": "https://dc.lft.to/lastmile_qr_scan", "android": "https://dc.lft.to/lastmile_qr_scan"}, "type": "electric_scooter", "name": "67ac033af5df51c3f424d4cc3e21f844", "is_reserved": 0, "lon": -77.06128, "is_disabled": 0, "fusion_lat": 0.0, "lat": 38.90606366666667, "bike_id": "67ac033af5df51c3f424d4cc3e21f844", "fusion_lon": 0.0}, {"rental_uris": {"ios": "https://dc.lft.to/lastmile_qr_scan", "android": "https://dc.lft.to/lastmile_qr_scan"}, "type": "electric_scooter", "name": "e3d723cee388fc3071f3a7ed55d3e5cc", "is_reserved": 0, "lon": -77.01934983333334, "is_disabled": 0, "fusion_lat": 0.0, "lat": 38.947002166666664, "bike_id": "e3d723cee388fc3071f3a7ed55d3e5cc", "fusion_lon": 0.0}, {"rental_uris": {"ios": "https://dc.lft.to/lastmile_qr_scan", "android": "https://dc.lft.to/lastmile_qr_scan"}, "type": "electric_scooter", "name": "02b4974c833e0b391539aa8398fe3fa7", "is_reserved": 0, "lon": -77.00156916666667, "is_disabled": 0, "fusion_lat": 0.0, "lat": 38.82131283333333, "bike_id": "02b4974c833e0b391539aa8398fe3fa7", "fusion_lon": 0.0}, {"rental_uris": {"ios": "https://dc.lft.to/lastmile_qr_scan", "android": "https://dc.lft.to/lastmile_qr_scan"}, "type": "electric_scooter", "name": "7087c219bb37adeb47cd0ab4afbd74d7", "is_reserved": 0, "lon": -77.0340335, "is_disabled": 0, "fusion_lat": 0.0, "lat": 38.922609, "bike_id": "7087c219bb37adeb47cd0ab4afbd74d7", "fusion_lon": 0.0}, {"rental_uris": {"ios": "https://dc.lft.to/lastmile_qr_scan", "android": "https://dc.lft.to/lastmile_qr_scan"}, "type": "electric_scooter", "name": "7915530c4a75468abdaf48788f3ca231", "is_reserved": 0, "lon": -77.02037266666666, "is_disabled": 0, "fusion_lat": 0.0, "lat": 38.89444833333334, "bike_id": "7915530c4a75468abdaf48788f3ca231", "fusion_lon": 0.0}, {"rental_uris": {"ios": "https://dc.lft.to/lastmile_qr_scan", "android": "https://dc.lft.to/lastmile_qr_scan"}, "type": "electric_scooter", "name": "6e50c43f327923ebc7a7dd80d5375f30", "is_reserved": 0, "lon": -77.00785266666666, "is_disabled": 0, "fusion_lat": 0.0, "lat": 38.95237783333334, "bike_id": "6e50c43f327923ebc7a7dd80d5375f30", "fusion_lon": 0.0}, {"rental_uris": {"ios": "https://dc.lft.to/lastmile_qr_scan", "android": "https://dc.lft.to/lastmile_qr_scan"}, "type": "electric_scooter", "name": "a59982eea290078eb0ff28e18045f146", "is_reserved": 0, "lon": -77.02240083333334, "is_disabled": 0, "fusion_lat": 0.0, "lat": 38.89193783333333, "bike_id": "a59982eea290078eb0ff28e18045f146", "fusion_lon": 0.0}, {"rental_uris": {"ios": "https://dc.lft.to/lastmile_qr_scan", "android": "https://dc.lft.to/lastmile_qr_scan"}, "type": "electric_bike", "name": "7ee6425daa72fdb26379c5be5db9d7e3", "is_reserved": 0, "lon": -76.97555066666666, "is_disabled": 0, "fusion_lat": 0.0, "lat": 38.904258, "bike_id": "7ee6425daa72fdb26379c5be5db9d7e3", "fusion_lon": 0.0}, {"rental_uris": {"ios": "https://dc.lft.to/lastmile_qr_scan", "android": "https://dc.lft.to/lastmile_qr_scan"}, "type": "electric_scooter", "name": "90d517a9dbf36ca415e7a32cbe6ce673", "is_reserved": 0, "lon": -77.02813366666666, "is_disabled": 0, "fusion_lat": 0.0, "lat": 38.89883483333333, "bike_id": "90d517a9dbf36ca415e7a32cbe6ce673", "fusion_lon": 0.0}, {"rental_uris": {"ios": "https://dc.lft.to/lastmile_qr_scan", "android": "https://dc.lft.to/lastmile_qr_scan"}, "type": "electric_scooter", "name": "7eb934fd11f75395dae57f137da3c0df", "is_reserved": 0, "lon": -77.03437816666667, "is_disabled": 0, "fusion_lat": 0.0, "lat": 38.918119, "bike_id": "7eb934fd11f75395dae57f137da3c0df", "fusion_lon": 0.0}, {"rental_uris": {"ios": "https://dc.lft.to/lastmile_qr_scan", "android": "https://dc.lft.to/lastmile_qr_scan"}, "type": "electric_scooter", "name": "f419ba4e135d64f55fa2d976b68e45a3", "is_reserved": 0, "lon": -77.02221833333333, "is_disabled": 0, "fusion_lat": 0.0, "lat": 38.90304833333333, "bike_id": "f419ba4e135d64f55fa2d976b68e45a3", "fusion_lon": 0.0}, {"rental_uris": {"ios": "https://dc.lft.to/lastmile_qr_scan", "android": "https://dc.lft.to/lastmile_qr_scan"}, "type": "electric_scooter", "name": "a72663fdf748d8bc413642dd5605f9ad", "is_reserved": 0, "lon": -77.0348435, "is_disabled": 0, "fusion_lat": 0.0, "lat": 38.935354, "bike_id": "a72663fdf748d8bc413642dd5605f9ad", "fusion_lon": 0.0}, {"rental_uris": {"ios": "https://dc.lft.to/lastmile_qr_scan", "android": "https://dc.lft.to/lastmile_qr_scan"}, "type": "electric_bike", "name": "65710220139e95385d6759fac302f1b1", "is_reserved": 0, "lon": -76.951536, "is_disabled": 0, "fusion_lat": 0.0, "lat": 39.08433466666666, "bike_id": "65710220139e95385d6759fac302f1b1", "fusion_lon": 0.0}, {"rental_uris": {"ios": "https://dc.lft.to/lastmile_qr_scan", "android": "https://dc.lft.to/lastmile_qr_scan"}, "type": "electric_scooter", "name": "9ed80db083dc42c47dc004cdc9bcde2b", "is_reserved": 0, "lon": -77.0281105, "is_disabled": 0, "fusion_lat": 0.0, "lat": 38.907344333333334, "bike_id": "9ed80db083dc42c47dc004cdc9bcde2b", "fusion_lon": 0.0}, {"rental_uris": {"ios": "https://dc.lft.to/lastmile_qr_scan", "android": "https://dc.lft.to/lastmile_qr_scan"}, "type": "electric_scooter", "name": "6b477231c9a6ab10a18bb65aee18aa97", "is_reserved": 0, "lon": -76.99386783333334, "is_disabled": 0, "fusion_lat": 0.0, "lat": 38.91011183333333, "bike_id": "6b477231c9a6ab10a18bb65aee18aa97", "fusion_lon": 0.0}, {"rental_uris": {"ios": "https://dc.lft.to/lastmile_qr_scan", "android": "https://dc.lft.to/lastmile_qr_scan"}, "type": "electric_scooter", "name": "5638616bb8dd8f2442dd3cd85f6132dd", "is_reserved": 0, "lon": -77.02871066666667, "is_disabled": 0, "fusion_lat": 0.0, "lat": 38.91689216666666, "bike_id": "5638616bb8dd8f2442dd3cd85f6132dd", "fusion_lon": 0.0}, {"rental_uris": {"ios": "https://dc.lft.to/lastmile_qr_scan", "android": "https://dc.lft.to/lastmile_qr_scan"}, "type": "electric_scooter", "name": "01747975858f00a0b35aa6cfbb0f7b5e", "is_reserved": 0, "lon": -77.007896, "is_disabled": 0, "fusion_lat": 0.0, "lat": 38.89719316666667, "bike_id": "01747975858f00a0b35aa6cfbb0f7b5e", "fusion_lon": 0.0}, {"rental_uris": {"ios": "https://dc.lft.to/lastmile_qr_scan", "android": "https://dc.lft.to/lastmile_qr_scan"}, "type": "electric_scooter", "name": "d727ccd5c2359a8636882a757fc5887b", "is_reserved": 0, "lon": -77.043519, "is_disabled": 0, "fusion_lat": 0.0, "lat": 38.89973033333333, "bike_id": "d727ccd5c2359a8636882a757fc5887b", "fusion_lon": 0.0}, {"rental_uris": {"ios": "https://dc.lft.to/lastmile_qr_scan", "android": "https://dc.lft.to/lastmile_qr_scan"}, "type": "electric_scooter", "name": "ad8b6323c578b21365cd719994582d88", "is_reserved": 0, "lon": -77.0308475, "is_disabled": 0, "fusion_lat": 0.0, "lat": 38.9387715, "bike_id": "ad8b6323c578b21365cd719994582d88", "fusion_lon": 0.0}, {"rental_uris": {"ios": "https://dc.lft.to/lastmile_qr_scan", "android": "https://dc.lft.to/lastmile_qr_scan"}, "type": "electric_bike", "name": "c641e4269fc8aec371d603b49eb6432d", "is_reserved": 0, "lon": -77.11322566666666, "is_disabled": 0, "fusion_lat": 0.0, "lat": 38.85589133333333, "bike_id": "c641e4269fc8aec371d603b49eb6432d", "fusion_lon": 0.0}, {"rental_uris": {"ios": "https://dc.lft.to/lastmile_qr_scan", "android": "https://dc.lft.to/lastmile_qr_scan"}, "type": "electric_scooter", "name": "05992690a2c4ac7b4495fdc701e1ce43", "is_reserved": 0, "lon": -77.03261, "is_disabled": 0, "fusion_lat": 0.0, "lat": 38.9388315, "bike_id": "05992690a2c4ac7b4495fdc701e1ce43", "fusion_lon": 0.0}, {"rental_uris": {"ios": "https://dc.lft.to/lastmile_qr_scan", "android": "https://dc.lft.to/lastmile_qr_scan"}, "type": "electric_scooter", "name": "f18ba4fb75a72b3386559acd162e81aa", "is_reserved": 0, "lon": -77.024214, "is_disabled": 0, "fusion_lat": 0.0, "lat": 38.91102466666667, "bike_id": "f18ba4fb75a72b3386559acd162e81aa", "fusion_lon": 0.0}, {"rental_uris": {"ios": "https://dc.lft.to/lastmile_qr_scan", "android": "https://dc.lft.to/lastmile_qr_scan"}, "type": "electric_scooter", "name": "9b7a174c737aba8d9de71cd82c90cac4", "is_reserved": 0, "lon": -77.0227725, "is_disabled": 0, "fusion_lat": 0.0, "lat": 38.927233, "bike_id": "9b7a174c737aba8d9de71cd82c90cac4", "fusion_lon": 0.0}, {"rental_uris": {"ios": "https://dc.lft.to/lastmile_qr_scan", "android": "https://dc.lft.to/lastmile_qr_scan"}, "type": "electric_scooter", "name": "0afe2209a856aace5c176a4ba4da6f8e", "is_reserved": 0, "lon": -77.043522, "is_disabled": 0, "fusion_lat": 0.0, "lat": 38.9100295, "bike_id": "0afe2209a856aace5c176a4ba4da6f8e", "fusion_lon": 0.0}, {"rental_uris": {"ios": "https://dc.lft.to/lastmile_qr_scan", "android": "https://dc.lft.to/lastmile_qr_scan"}, "type": "electric_scooter", "name": "44a0e0ca7e7eb062dc74d8a752e651fa", "is_reserved": 0, "lon": -77.044014, "is_disabled": 0, "fusion_lat": 0.0, "lat": 38.908945, "bike_id": "44a0e0ca7e7eb062dc74d8a752e651fa", "fusion_lon": 0.0}, {"rental_uris": {"ios": "https://dc.lft.to/lastmile_qr_scan", "android": "https://dc.lft.to/lastmile_qr_scan"}, "type": "electric_scooter", "name": "315c9868892152c631de7f4ec99a5f52", "is_reserved": 0, "lon": -76.99620466666667, "is_disabled": 0, "fusion_lat": 0.0, "lat": 38.904480666666664, "bike_id": "315c9868892152c631de7f4ec99a5f52", "fusion_lon": 0.0}, {"rental_uris": {"ios": "https://dc.lft.to/lastmile_qr_scan", "android": "https://dc.lft.to/lastmile_qr_scan"}, "type": "electric_scooter", "name": "83c8aaf7dd840d945a40eb2f476be322", "is_reserved": 0, "lon": -77.0233935, "is_disabled": 0, "fusion_lat": 0.0, "lat": 38.929895, "bike_id": "83c8aaf7dd840d945a40eb2f476be322", "fusion_lon": 0.0}, {"rental_uris": {"ios": "https://dc.lft.to/lastmile_qr_scan", "android": "https://dc.lft.to/lastmile_qr_scan"}, "type": "electric_scooter", "name": "dc8202eac42426f17a86c156343a4a7b", "is_reserved": 0, "lon": -77.0780025, "is_disabled": 0, "fusion_lat": 0.0, "lat": 38.94307516666667, "bike_id": "dc8202eac42426f17a86c156343a4a7b", "fusion_lon": 0.0}, {"rental_uris": {"ios": "https://dc.lft.to/lastmile_qr_scan", "android": "https://dc.lft.to/lastmile_qr_scan"}, "type": "electric_scooter", "name": "ee656599d94de08530e09516d2f6f3d8", "is_reserved": 0, "lon": -77.03200316666667, "is_disabled": 0, "fusion_lat": 0.0, "lat": 38.91321083333333, "bike_id": "ee656599d94de08530e09516d2f6f3d8", "fusion_lon": 0.0}, {"rental_uris": {"ios": "https://dc.lft.to/lastmile_qr_scan", "android": "https://dc.lft.to/lastmile_qr_scan"}, "type": "electric_scooter", "name": "310397c207c97cb573d84da248b69d7f", "is_reserved": 0, "lon": -77.03922566666667, "is_disabled": 0, "fusion_lat": 0.0, "lat": 38.9012675, "bike_id": "310397c207c97cb573d84da248b69d7f", "fusion_lon": 0.0}, {"rental_uris": {"ios": "https://dc.lft.to/lastmile_qr_scan", "android": "https://dc.lft.to/lastmile_qr_scan"}, "type": "electric_bike", "name": "5fea92f0ee1020e2c97a66dd4576f91a", "is_reserved": 0, "lon": -76.96322766666667, "is_disabled": 0, "fusion_lat": 0.0, "lat": 38.93889333333333, "bike_id": "5fea92f0ee1020e2c97a66dd4576f91a", "fusion_lon": 0.0}, {"rental_uris": {"ios": "https://dc.lft.to/lastmile_qr_scan", "android": "https://dc.lft.to/lastmile_qr_scan"}, "type": "electric_scooter", "name": "cd860292fb977089535609d7bf7e28af", "is_reserved": 0, "lon": -77.04200166666666, "is_disabled": 0, "fusion_lat": 0.0, "lat": 38.91672333333333, "bike_id": "cd860292fb977089535609d7bf7e28af", "fusion_lon": 0.0}, {"rental_uris": {"ios": "https://dc.lft.to/lastmile_qr_scan", "android": "https://dc.lft.to/lastmile_qr_scan"}, "type": "electric_scooter", "name": "84ef1c3956d589f5ce9f1bd1f2295d39", "is_reserved": 0, "lon": -77.04280583333333, "is_disabled": 0, "fusion_lat": 0.0, "lat": 38.92265883333334, "bike_id": "84ef1c3956d589f5ce9f1bd1f2295d39", "fusion_lon": 0.0}, {"rental_uris": {"ios": "https://dc.lft.to/lastmile_qr_scan", "android": "https://dc.lft.to/lastmile_qr_scan"}, "type": "electric_scooter", "name": "ae879d89088b462b95d2a4599876ff8b", "is_reserved": 0, "lon": -77.0385215, "is_disabled": 0, "fusion_lat": 0.0, "lat": 38.90830866666667, "bike_id": "ae879d89088b462b95d2a4599876ff8b", "fusion_lon": 0.0}, {"rental_uris": {"ios": "https://dc.lft.to/lastmile_qr_scan", "android": "https://dc.lft.to/lastmile_qr_scan"}, "type": "electric_scooter", "name": "5f8222d249e483b829ab99c983086fe4", "is_reserved": 0, "lon": -77.029631, "is_disabled": 0, "fusion_lat": 0.0, "lat": 38.928421166666666, "bike_id": "5f8222d249e483b829ab99c983086fe4", "fusion_lon": 0.0}, {"rental_uris": {"ios": "https://dc.lft.to/lastmile_qr_scan", "android": "https://dc.lft.to/lastmile_qr_scan"}, "type": "electric_scooter", "name": "a7595c65be3c8778f44a4624c4d01229", "is_reserved": 0, "lon": -77.02432433333334, "is_disabled": 0, "fusion_lat": 0.0, "lat": 38.90707283333333, "bike_id": "a7595c65be3c8778f44a4624c4d01229", "fusion_lon": 0.0}, {"rental_uris": {"ios": "https://dc.lft.to/lastmile_qr_scan", "android": "https://dc.lft.to/lastmile_qr_scan"}, "type": "electric_scooter", "name": "0387c409d03bda1ef1553e0986e85de8", "is_reserved": 0, "lon": -77.07854183333333, "is_disabled": 0, "fusion_lat": 0.0, "lat": 38.93133433333333, "bike_id": "0387c409d03bda1ef1553e0986e85de8", "fusion_lon": 0.0}, {"rental_uris": {"ios": "https://dc.lft.to/lastmile_qr_scan", "android": "https://dc.lft.to/lastmile_qr_scan"}, "type": "electric_scooter", "name": "3cdc6f785be189211a910819f5046964", "is_reserved": 0, "lon": -77.02967266666667, "is_disabled": 0, "fusion_lat": 0.0, "lat": 38.91685183333333, "bike_id": "3cdc6f785be189211a910819f5046964", "fusion_lon": 0.0}, {"rental_uris": {"ios": "https://dc.lft.to/lastmile_qr_scan", "android": "https://dc.lft.to/lastmile_qr_scan"}, "type": "electric_scooter", "name": "225dc226c20738659098b7212319e612", "is_reserved": 0, "lon": -77.046327, "is_disabled": 0, "fusion_lat": 0.0, "lat": 38.900631, "bike_id": "225dc226c20738659098b7212319e612", "fusion_lon": 0.0}, {"rental_uris": {"ios": "https://dc.lft.to/lastmile_qr_scan", "android": "https://dc.lft.to/lastmile_qr_scan"}, "type": "electric_bike", "name": "d2d06ed0f0a08e3e944d4ca73f07fdf0", "is_reserved": 0, "lon": -77.08144233333333, "is_disabled": 0, "fusion_lat": 0.0, "lat": 38.8228685, "bike_id": "d2d06ed0f0a08e3e944d4ca73f07fdf0", "fusion_lon": 0.0}, {"rental_uris": {"ios": "https://dc.lft.to/lastmile_qr_scan", "android": "https://dc.lft.to/lastmile_qr_scan"}, "type": "electric_scooter", "name": "dc8f9bf0082f559fb8a0c871d54d41f6", "is_reserved": 0, "lon": -77.02573, "is_disabled": 0, "fusion_lat": 0.0, "lat": 38.880746, "bike_id": "dc8f9bf0082f559fb8a0c871d54d41f6", "fusion_lon": 0.0}, {"rental_uris": {"ios": "https://dc.lft.to/lastmile_qr_scan", "android": "https://dc.lft.to/lastmile_qr_scan"}, "type": "electric_scooter", "name": "a4c7cfa6c3a8c54587bb717fd29fb148", "is_reserved": 0, "lon": -76.99870516666667, "is_disabled": 0, "fusion_lat": 0.0, "lat": 38.900254833333335, "bike_id": "a4c7cfa6c3a8c54587bb717fd29fb148", "fusion_lon": 0.0}, {"rental_uris": {"ios": "https://dc.lft.to/lastmile_qr_scan", "android": "https://dc.lft.to/lastmile_qr_scan"}, "type": "electric_scooter", "name": "569335a26cf0bd817113b43673e8fadf", "is_reserved": 0, "lon": -77.00576516666666, "is_disabled": 0, "fusion_lat": 0.0, "lat": 38.9023785, "bike_id": "569335a26cf0bd817113b43673e8fadf", "fusion_lon": 0.0}, {"rental_uris": {"ios": "https://dc.lft.to/lastmile_qr_scan", "android": "https://dc.lft.to/lastmile_qr_scan"}, "type": "electric_scooter", "name": "7bdb77092d124d2a4f6fc76fd8f6daf5", "is_reserved": 0, "lon": -77.03144016666667, "is_disabled": 0, "fusion_lat": 0.0, "lat": 38.91265383333333, "bike_id": "7bdb77092d124d2a4f6fc76fd8f6daf5", "fusion_lon": 0.0}, {"rental_uris": {"ios": "https://dc.lft.to/lastmile_qr_scan", "android": "https://dc.lft.to/lastmile_qr_scan"}, "type": "electric_scooter", "name": "6b948f3bedd6bb863f56ae9de6cf7a37", "is_reserved": 0, "lon": -77.0303545, "is_disabled": 0, "fusion_lat": 0.0, "lat": 38.931058, "bike_id": "6b948f3bedd6bb863f56ae9de6cf7a37", "fusion_lon": 0.0}, {"rental_uris": {"ios": "https://dc.lft.to/lastmile_qr_scan", "android": "https://dc.lft.to/lastmile_qr_scan"}, "type": "electric_scooter", "name": "e485c0874c12d4eaf7e5c75f8cf8b272", "is_reserved": 0, "lon": -77.00065816666667, "is_disabled": 0, "fusion_lat": 0.0, "lat": 38.87366083333333, "bike_id": "e485c0874c12d4eaf7e5c75f8cf8b272", "fusion_lon": 0.0}, {"rental_uris": {"ios": "https://dc.lft.to/lastmile_qr_scan", "android": "https://dc.lft.to/lastmile_qr_scan"}, "type": "electric_scooter", "name": "ef2535c74c6dd0d46a9c8d32e9e8eeb9", "is_reserved": 0, "lon": -77.02412583333333, "is_disabled": 0, "fusion_lat": 0.0, "lat": 38.9381355, "bike_id": "ef2535c74c6dd0d46a9c8d32e9e8eeb9", "fusion_lon": 0.0}, {"rental_uris": {"ios": "https://dc.lft.to/lastmile_qr_scan", "android": "https://dc.lft.to/lastmile_qr_scan"}, "type": "electric_scooter", "name": "5343df568e65b78923413baf6188b3f4", "is_reserved": 0, "lon": -76.98356033333333, "is_disabled": 0, "fusion_lat": 0.0, "lat": 38.887395833333336, "bike_id": "5343df568e65b78923413baf6188b3f4", "fusion_lon": 0.0}, {"rental_uris": {"ios": "https://dc.lft.to/lastmile_qr_scan", "android": "https://dc.lft.to/lastmile_qr_scan"}, "type": "electric_bike", "name": "b3562889a8cd1a5c02d62779a628ad96", "is_reserved": 0, "lon": -76.94165983333333, "is_disabled": 0, "fusion_lat": 0.0, "lat": 38.8655135, "bike_id": "b3562889a8cd1a5c02d62779a628ad96", "fusion_lon": 0.0}, {"rental_uris": {"ios": "https://dc.lft.to/lastmile_qr_scan", "android": "https://dc.lft.to/lastmile_qr_scan"}, "type": "electric_scooter", "name": "c39a556afb93d3fdda36199834bd7ed9", "is_reserved": 0, "lon": -76.98033666666667, "is_disabled": 0, "fusion_lat": 0.0, "lat": 38.916835666666664, "bike_id": "c39a556afb93d3fdda36199834bd7ed9", "fusion_lon": 0.0}, {"rental_uris": {"ios": "https://dc.lft.to/lastmile_qr_scan", "android": "https://dc.lft.to/lastmile_qr_scan"}, "type": "electric_scooter", "name": "5bc699d412850dfefc4e88330c37af3d", "is_reserved": 0, "lon": -77.01737416666667, "is_disabled": 0, "fusion_lat": 0.0, "lat": 38.912409, "bike_id": "5bc699d412850dfefc4e88330c37af3d", "fusion_lon": 0.0}, {"rental_uris": {"ios": "https://dc.lft.to/lastmile_qr_scan", "android": "https://dc.lft.to/lastmile_qr_scan"}, "type": "electric_scooter", "name": "56259b8ca7d00c0c75d261b46473047e", "is_reserved": 0, "lon": -77.02441016666667, "is_disabled": 0, "fusion_lat": 0.0, "lat": 38.90305866666667, "bike_id": "56259b8ca7d00c0c75d261b46473047e", "fusion_lon": 0.0}, {"rental_uris": {"ios": "https://dc.lft.to/lastmile_qr_scan", "android": "https://dc.lft.to/lastmile_qr_scan"}, "type": "electric_scooter", "name": "c0c892d6c99ddbd8b2b3beaab79f07ae", "is_reserved": 0, "lon": -77.03204916666667, "is_disabled": 0, "fusion_lat": 0.0, "lat": 38.91321883333333, "bike_id": "c0c892d6c99ddbd8b2b3beaab79f07ae", "fusion_lon": 0.0}, {"rental_uris": {"ios": "https://dc.lft.to/lastmile_qr_scan", "android": "https://dc.lft.to/lastmile_qr_scan"}, "type": "electric_scooter", "name": "5ba4ed045073801578038db180f32187", "is_reserved": 0, "lon": -77.033636, "is_disabled": 0, "fusion_lat": 0.0, "lat": 38.9287095, "bike_id": "5ba4ed045073801578038db180f32187", "fusion_lon": 0.0}, {"rental_uris": {"ios": "https://dc.lft.to/lastmile_qr_scan", "android": "https://dc.lft.to/lastmile_qr_scan"}, "type": "electric_scooter", "name": "8ad4b09ddf5179e30d51bf7f6e181133", "is_reserved": 0, "lon": -77.018529, "is_disabled": 0, "fusion_lat": 0.0, "lat": 38.92126, "bike_id": "8ad4b09ddf5179e30d51bf7f6e181133", "fusion_lon": 0.0}, {"rental_uris": {"ios": "https://dc.lft.to/lastmile_qr_scan", "android": "https://dc.lft.to/lastmile_qr_scan"}, "type": "electric_scooter", "name": "174e8461a4b89469c06919ee95acc622", "is_reserved": 0, "lon": -77.04040566666667, "is_disabled": 0, "fusion_lat": 0.0, "lat": 38.906042166666666, "bike_id": "174e8461a4b89469c06919ee95acc622", "fusion_lon": 0.0}, {"rental_uris": {"ios": "https://dc.lft.to/lastmile_qr_scan", "android": "https://dc.lft.to/lastmile_qr_scan"}, "type": "electric_scooter", "name": "7c8d47a9543d9a84f242ac2f3eba61e9", "is_reserved": 0, "lon": -77.03866666666667, "is_disabled": 0, "fusion_lat": 0.0, "lat": 38.903783, "bike_id": "7c8d47a9543d9a84f242ac2f3eba61e9", "fusion_lon": 0.0}, {"rental_uris": {"ios": "https://dc.lft.to/lastmile_qr_scan", "android": "https://dc.lft.to/lastmile_qr_scan"}, "type": "electric_scooter", "name": "03913a320d6d2efefc379dfa1c1e0710", "is_reserved": 0, "lon": -77.0496285, "is_disabled": 0, "fusion_lat": 0.0, "lat": 38.91338066666667, "bike_id": "03913a320d6d2efefc379dfa1c1e0710", "fusion_lon": 0.0}, {"rental_uris": {"ios": "https://dc.lft.to/lastmile_qr_scan", "android": "https://dc.lft.to/lastmile_qr_scan"}, "type": "electric_scooter", "name": "4845f5bf158c222ff461b9997a829751", "is_reserved": 0, "lon": -77.04198866666667, "is_disabled": 0, "fusion_lat": 0.0, "lat": 38.92198483333333, "bike_id": "4845f5bf158c222ff461b9997a829751", "fusion_lon": 0.0}, {"rental_uris": {"ios": "https://dc.lft.to/lastmile_qr_scan", "android": "https://dc.lft.to/lastmile_qr_scan"}, "type": "electric_scooter", "name": "0705e4e06c1dac885f02f3db8743ede0", "is_reserved": 0, "lon": -76.98731283333333, "is_disabled": 0, "fusion_lat": 0.0, "lat": 38.842242, "bike_id": "0705e4e06c1dac885f02f3db8743ede0", "fusion_lon": 0.0}, {"rental_uris": {"ios": "https://dc.lft.to/lastmile_qr_scan", "android": "https://dc.lft.to/lastmile_qr_scan"}, "type": "electric_scooter", "name": "23ee37c0766346f78815063798a7cd49", "is_reserved": 0, "lon": -76.92920966666667, "is_disabled": 0, "fusion_lat": 0.0, "lat": 38.88653816666667, "bike_id": "23ee37c0766346f78815063798a7cd49", "fusion_lon": 0.0}, {"rental_uris": {"ios": "https://dc.lft.to/lastmile_qr_scan", "android": "https://dc.lft.to/lastmile_qr_scan"}, "type": "electric_scooter", "name": "112fd675c1bbb7f4070ef642e4ead6d3", "is_reserved": 0, "lon": -77.0552, "is_disabled": 0, "fusion_lat": 0.0, "lat": 38.9076645, "bike_id": "112fd675c1bbb7f4070ef642e4ead6d3", "fusion_lon": 0.0}, {"rental_uris": {"ios": "https://dc.lft.to/lastmile_qr_scan", "android": "https://dc.lft.to/lastmile_qr_scan"}, "type": "electric_scooter", "name": "9cf9e9f6a2ef6fa23338928e1558e881", "is_reserved": 0, "lon": -77.04410666666666, "is_disabled": 0, "fusion_lat": 0.0, "lat": 38.9089055, "bike_id": "9cf9e9f6a2ef6fa23338928e1558e881", "fusion_lon": 0.0}, {"rental_uris": {"ios": "https://dc.lft.to/lastmile_qr_scan", "android": "https://dc.lft.to/lastmile_qr_scan"}, "type": "electric_scooter", "name": "6fa71bf24235d8cfe4358b57a41965e9", "is_reserved": 0, "lon": -77.03153, "is_disabled": 0, "fusion_lat": 0.0, "lat": 38.916990166666665, "bike_id": "6fa71bf24235d8cfe4358b57a41965e9", "fusion_lon": 0.0}, {"rental_uris": {"ios": "https://dc.lft.to/lastmile_qr_scan", "android": "https://dc.lft.to/lastmile_qr_scan"}, "type": "electric_scooter", "name": "a14c898f797cc5088e7677d4a7519d65", "is_reserved": 0, "lon": -77.0365095, "is_disabled": 0, "fusion_lat": 0.0, "lat": 38.954617666666664, "bike_id": "a14c898f797cc5088e7677d4a7519d65", "fusion_lon": 0.0}, {"rental_uris": {"ios": "https://dc.lft.to/lastmile_qr_scan", "android": "https://dc.lft.to/lastmile_qr_scan"}, "type": "electric_scooter", "name": "27aee3391fb8787c14efb6535d6df6eb", "is_reserved": 0, "lon": -77.02877166666667, "is_disabled": 0, "fusion_lat": 0.0, "lat": 38.9140525, "bike_id": "27aee3391fb8787c14efb6535d6df6eb", "fusion_lon": 0.0}, {"rental_uris": {"ios": "https://dc.lft.to/lastmile_qr_scan", "android": "https://dc.lft.to/lastmile_qr_scan"}, "type": "electric_scooter", "name": "cd24f5169765e2d870ab71388e1ecb11", "is_reserved": 0, "lon": -77.02213883333333, "is_disabled": 0, "fusion_lat": 0.0, "lat": 38.92472033333333, "bike_id": "cd24f5169765e2d870ab71388e1ecb11", "fusion_lon": 0.0}, {"rental_uris": {"ios": "https://dc.lft.to/lastmile_qr_scan", "android": "https://dc.lft.to/lastmile_qr_scan"}, "type": "electric_scooter", "name": "88a5755e04d902d37c8daef3d2faff51", "is_reserved": 0, "lon": -77.02488733333334, "is_disabled": 0, "fusion_lat": 0.0, "lat": 38.918131833333334, "bike_id": "88a5755e04d902d37c8daef3d2faff51", "fusion_lon": 0.0}, {"rental_uris": {"ios": "https://dc.lft.to/lastmile_qr_scan", "android": "https://dc.lft.to/lastmile_qr_scan"}, "type": "electric_scooter", "name": "4f76c80c8f784431fadae45efd24a6d7", "is_reserved": 0, "lon": -77.05869233333334, "is_disabled": 0, "fusion_lat": 0.0, "lat": 38.9423605, "bike_id": "4f76c80c8f784431fadae45efd24a6d7", "fusion_lon": 0.0}, {"rental_uris": {"ios": "https://dc.lft.to/lastmile_qr_scan", "android": "https://dc.lft.to/lastmile_qr_scan"}, "type": "electric_scooter", "name": "372db2ed1a83f6268083b38f7aad3f2d", "is_reserved": 0, "lon": -77.0198935, "is_disabled": 0, "fusion_lat": 0.0, "lat": 38.876058666666665, "bike_id": "372db2ed1a83f6268083b38f7aad3f2d", "fusion_lon": 0.0}, {"rental_uris": {"ios": "https://dc.lft.to/lastmile_qr_scan", "android": "https://dc.lft.to/lastmile_qr_scan"}, "type": "electric_scooter", "name": "1d504b399a587d5deb7f8b8bdda5dd13", "is_reserved": 0, "lon": -76.995563, "is_disabled": 0, "fusion_lat": 0.0, "lat": 38.92674383333333, "bike_id": "1d504b399a587d5deb7f8b8bdda5dd13", "fusion_lon": 0.0}, {"rental_uris": {"ios": "https://dc.lft.to/lastmile_qr_scan", "android": "https://dc.lft.to/lastmile_qr_scan"}, "type": "electric_scooter", "name": "1c859f651603e1d2a75bf5d96bc209cd", "is_reserved": 0, "lon": -76.971325, "is_disabled": 0, "fusion_lat": 0.0, "lat": 38.87861133333333, "bike_id": "1c859f651603e1d2a75bf5d96bc209cd", "fusion_lon": 0.0}, {"rental_uris": {"ios": "https://dc.lft.to/lastmile_qr_scan", "android": "https://dc.lft.to/lastmile_qr_scan"}, "type": "electric_scooter", "name": "463379b0d21bff1d7955362f89e230fd", "is_reserved": 0, "lon": -76.946527, "is_disabled": 0, "fusion_lat": 0.0, "lat": 38.898240333333334, "bike_id": "463379b0d21bff1d7955362f89e230fd", "fusion_lon": 0.0}, {"rental_uris": {"ios": "https://dc.lft.to/lastmile_qr_scan", "android": "https://dc.lft.to/lastmile_qr_scan"}, "type": "electric_bike", "name": "fa7f7f540f075149caf1a1454f1c8f7b", "is_reserved": 0, "lon": -76.96915316666667, "is_disabled": 0, "fusion_lat": 0.0, "lat": 38.84615, "bike_id": "fa7f7f540f075149caf1a1454f1c8f7b", "fusion_lon": 0.0}, {"rental_uris": {"ios": "https://dc.lft.to/lastmile_qr_scan", "android": "https://dc.lft.to/lastmile_qr_scan"}, "type": "electric_scooter", "name": "1654c3ddd521e80403c895ae61accb07", "is_reserved": 0, "lon": -77.0260115, "is_disabled": 0, "fusion_lat": 0.0, "lat": 38.914332, "bike_id": "1654c3ddd521e80403c895ae61accb07", "fusion_lon": 0.0}, {"rental_uris": {"ios": "https://dc.lft.to/lastmile_qr_scan", "android": "https://dc.lft.to/lastmile_qr_scan"}, "type": "electric_scooter", "name": "34be911dcb029a71aba73ce95222023d", "is_reserved": 0, "lon": -77.03520433333334, "is_disabled": 0, "fusion_lat": 0.0, "lat": 38.90951166666667, "bike_id": "34be911dcb029a71aba73ce95222023d", "fusion_lon": 0.0}, {"rental_uris": {"ios": "https://dc.lft.to/lastmile_qr_scan", "android": "https://dc.lft.to/lastmile_qr_scan"}, "type": "electric_scooter", "name": "c1bb8807e915b7599f70ba54452f5f85", "is_reserved": 0, "lon": -77.00910933333333, "is_disabled": 0, "fusion_lat": 0.0, "lat": 38.89873083333333, "bike_id": "c1bb8807e915b7599f70ba54452f5f85", "fusion_lon": 0.0}, {"rental_uris": {"ios": "https://dc.lft.to/lastmile_qr_scan", "android": "https://dc.lft.to/lastmile_qr_scan"}, "type": "electric_scooter", "name": "9c47caad8e58969bed60bc3891847ab0", "is_reserved": 0, "lon": -76.99636366666667, "is_disabled": 0, "fusion_lat": 0.0, "lat": 38.88767266666667, "bike_id": "9c47caad8e58969bed60bc3891847ab0", "fusion_lon": 0.0}, {"rental_uris": {"ios": "https://dc.lft.to/lastmile_qr_scan", "android": "https://dc.lft.to/lastmile_qr_scan"}, "type": "electric_scooter", "name": "5e739568840f205021295649102fa1b0", "is_reserved": 0, "lon": -77.02159833333333, "is_disabled": 0, "fusion_lat": 0.0, "lat": 38.887345, "bike_id": "5e739568840f205021295649102fa1b0", "fusion_lon": 0.0}, {"rental_uris": {"ios": "https://dc.lft.to/lastmile_qr_scan", "android": "https://dc.lft.to/lastmile_qr_scan"}, "type": "electric_scooter", "name": "b1ec70030a97b411864e671b2b91432e", "is_reserved": 0, "lon": -77.02150683333333, "is_disabled": 0, "fusion_lat": 0.0, "lat": 38.937045499999996, "bike_id": "b1ec70030a97b411864e671b2b91432e", "fusion_lon": 0.0}, {"rental_uris": {"ios": "https://dc.lft.to/lastmile_qr_scan", "android": "https://dc.lft.to/lastmile_qr_scan"}, "type": "electric_scooter", "name": "33b16ec04ad98a168dfc7c89f5951f95", "is_reserved": 0, "lon": -77.0243955, "is_disabled": 0, "fusion_lat": 0.0, "lat": 38.90213, "bike_id": "33b16ec04ad98a168dfc7c89f5951f95", "fusion_lon": 0.0}, {"rental_uris": {"ios": "https://dc.lft.to/lastmile_qr_scan", "android": "https://dc.lft.to/lastmile_qr_scan"}, "type": "electric_scooter", "name": "e2b9108cb4735db5cd8bed37629a0448", "is_reserved": 0, "lon": -77.032652, "is_disabled": 0, "fusion_lat": 0.0, "lat": 38.93523166666667, "bike_id": "e2b9108cb4735db5cd8bed37629a0448", "fusion_lon": 0.0}, {"rental_uris": {"ios": "https://dc.lft.to/lastmile_qr_scan", "android": "https://dc.lft.to/lastmile_qr_scan"}, "type": "electric_scooter", "name": "0fa5b2ffd4a53c118bf00441e4fa3220", "is_reserved": 0, "lon": -77.0579075, "is_disabled": 0, "fusion_lat": 0.0, "lat": 38.90508533333333, "bike_id": "0fa5b2ffd4a53c118bf00441e4fa3220", "fusion_lon": 0.0}, {"rental_uris": {"ios": "https://dc.lft.to/lastmile_qr_scan", "android": "https://dc.lft.to/lastmile_qr_scan"}, "type": "electric_scooter", "name": "1a857006ad33cdbe5e327c65a8f0cb6f", "is_reserved": 0, "lon": -76.9793765, "is_disabled": 0, "fusion_lat": 0.0, "lat": 38.90661333333333, "bike_id": "1a857006ad33cdbe5e327c65a8f0cb6f", "fusion_lon": 0.0}, {"rental_uris": {"ios": "https://dc.lft.to/lastmile_qr_scan", "android": "https://dc.lft.to/lastmile_qr_scan"}, "type": "electric_scooter", "name": "351ed18330a1557ad71df2f49f3779a8", "is_reserved": 0, "lon": -77.03866366666666, "is_disabled": 0, "fusion_lat": 0.0, "lat": 38.90808083333334, "bike_id": "351ed18330a1557ad71df2f49f3779a8", "fusion_lon": 0.0}, {"rental_uris": {"ios": "https://dc.lft.to/lastmile_qr_scan", "android": "https://dc.lft.to/lastmile_qr_scan"}, "type": "electric_scooter", "name": "2bc28d8822a8af0406f89aea8b671bc2", "is_reserved": 0, "lon": -77.03074433333333, "is_disabled": 0, "fusion_lat": 0.0, "lat": 38.922484, "bike_id": "2bc28d8822a8af0406f89aea8b671bc2", "fusion_lon": 0.0}, {"rental_uris": {"ios": "https://dc.lft.to/lastmile_qr_scan", "android": "https://dc.lft.to/lastmile_qr_scan"}, "type": "electric_scooter", "name": "fe2c0a326ac2792d6e7bc3ada1c14418", "is_reserved": 0, "lon": -77.034379, "is_disabled": 0, "fusion_lat": 0.0, "lat": 38.909721833333336, "bike_id": "fe2c0a326ac2792d6e7bc3ada1c14418", "fusion_lon": 0.0}, {"rental_uris": {"ios": "https://dc.lft.to/lastmile_qr_scan", "android": "https://dc.lft.to/lastmile_qr_scan"}, "type": "electric_scooter", "name": "81de71bbed002941a5d7b0a48ec1bcc7", "is_reserved": 0, "lon": -76.99705633333333, "is_disabled": 0, "fusion_lat": 0.0, "lat": 38.88757566666666, "bike_id": "81de71bbed002941a5d7b0a48ec1bcc7", "fusion_lon": 0.0}, {"rental_uris": {"ios": "https://dc.lft.to/lastmile_qr_scan", "android": "https://dc.lft.to/lastmile_qr_scan"}, "type": "electric_scooter", "name": "cf0412830b7af5c4ee496a49e227dece", "is_reserved": 0, "lon": -77.03351966666666, "is_disabled": 0, "fusion_lat": 0.0, "lat": 38.95473633333334, "bike_id": "cf0412830b7af5c4ee496a49e227dece", "fusion_lon": 0.0}, {"rental_uris": {"ios": "https://dc.lft.to/lastmile_qr_scan", "android": "https://dc.lft.to/lastmile_qr_scan"}, "type": "electric_scooter", "name": "ee355e26d01e3dcaf6794b213ae41380", "is_reserved": 0, "lon": -77.023153, "is_disabled": 0, "fusion_lat": 0.0, "lat": 38.878842666666664, "bike_id": "ee355e26d01e3dcaf6794b213ae41380", "fusion_lon": 0.0}, {"rental_uris": {"ios": "https://dc.lft.to/lastmile_qr_scan", "android": "https://dc.lft.to/lastmile_qr_scan"}, "type": "electric_scooter", "name": "4b95aba40192d02ffe09943367cbba70", "is_reserved": 0, "lon": -77.07453516666666, "is_disabled": 0, "fusion_lat": 0.0, "lat": 38.93778233333333, "bike_id": "4b95aba40192d02ffe09943367cbba70", "fusion_lon": 0.0}, {"rental_uris": {"ios": "https://dc.lft.to/lastmile_qr_scan", "android": "https://dc.lft.to/lastmile_qr_scan"}, "type": "electric_scooter", "name": "f9b41598fe704fff850596405b62d2cc", "is_reserved": 0, "lon": -77.02680583333333, "is_disabled": 0, "fusion_lat": 0.0, "lat": 38.897466, "bike_id": "f9b41598fe704fff850596405b62d2cc", "fusion_lon": 0.0}, {"rental_uris": {"ios": "https://dc.lft.to/lastmile_qr_scan", "android": "https://dc.lft.to/lastmile_qr_scan"}, "type": "electric_scooter", "name": "699f356a708f2213374d9161aa2e0339", "is_reserved": 0, "lon": -77.0217115, "is_disabled": 0, "fusion_lat": 0.0, "lat": 38.89481333333333, "bike_id": "699f356a708f2213374d9161aa2e0339", "fusion_lon": 0.0}, {"rental_uris": {"ios": "https://dc.lft.to/lastmile_qr_scan", "android": "https://dc.lft.to/lastmile_qr_scan"}, "type": "electric_scooter", "name": "2e9931cffbd47e7e1049926bc152f075", "is_reserved": 0, "lon": -77.03278616666667, "is_disabled": 0, "fusion_lat": 0.0, "lat": 38.92887566666667, "bike_id": "2e9931cffbd47e7e1049926bc152f075", "fusion_lon": 0.0}, {"rental_uris": {"ios": "https://dc.lft.to/lastmile_qr_scan", "android": "https://dc.lft.to/lastmile_qr_scan"}, "type": "electric_scooter", "name": "7d1be96597178e9691c3d62985f59871", "is_reserved": 0, "lon": -77.04196066666667, "is_disabled": 0, "fusion_lat": 0.0, "lat": 38.90556483333334, "bike_id": "7d1be96597178e9691c3d62985f59871", "fusion_lon": 0.0}, {"rental_uris": {"ios": "https://dc.lft.to/lastmile_qr_scan", "android": "https://dc.lft.to/lastmile_qr_scan"}, "type": "electric_scooter", "name": "1cf3afc13d8937aabaf0a5d4ea65bb83", "is_reserved": 0, "lon": -76.92629983333333, "is_disabled": 0, "fusion_lat": 0.0, "lat": 38.8836395, "bike_id": "1cf3afc13d8937aabaf0a5d4ea65bb83", "fusion_lon": 0.0}, {"rental_uris": {"ios": "https://dc.lft.to/lastmile_qr_scan", "android": "https://dc.lft.to/lastmile_qr_scan"}, "type": "electric_scooter", "name": "75f5854ddcd7b437ba0849c066489c80", "is_reserved": 0, "lon": -77.02763, "is_disabled": 0, "fusion_lat": 0.0, "lat": 38.957799333333334, "bike_id": "75f5854ddcd7b437ba0849c066489c80", "fusion_lon": 0.0}, {"rental_uris": {"ios": "https://dc.lft.to/lastmile_qr_scan", "android": "https://dc.lft.to/lastmile_qr_scan"}, "type": "electric_scooter", "name": "46e6e0c631ae93fd547869115df13ca3", "is_reserved": 0, "lon": -77.03324816666667, "is_disabled": 0, "fusion_lat": 0.0, "lat": 38.88766583333334, "bike_id": "46e6e0c631ae93fd547869115df13ca3", "fusion_lon": 0.0}, {"rental_uris": {"ios": "https://dc.lft.to/lastmile_qr_scan", "android": "https://dc.lft.to/lastmile_qr_scan"}, "type": "electric_scooter", "name": "b267ea4a984ba9ab1f438187e14c615f", "is_reserved": 0, "lon": -76.94875933333333, "is_disabled": 0, "fusion_lat": 0.0, "lat": 38.89483633333333, "bike_id": "b267ea4a984ba9ab1f438187e14c615f", "fusion_lon": 0.0}, {"rental_uris": {"ios": "https://dc.lft.to/lastmile_qr_scan", "android": "https://dc.lft.to/lastmile_qr_scan"}, "type": "electric_scooter", "name": "4d54523d45675583446cd0c78364d081", "is_reserved": 0, "lon": -77.0454065, "is_disabled": 0, "fusion_lat": 0.0, "lat": 38.9132195, "bike_id": "4d54523d45675583446cd0c78364d081", "fusion_lon": 0.0}, {"rental_uris": {"ios": "https://dc.lft.to/lastmile_qr_scan", "android": "https://dc.lft.to/lastmile_qr_scan"}, "type": "electric_scooter", "name": "ac21e0a0afd1131632b38afc395d3d78", "is_reserved": 0, "lon": -77.0412225, "is_disabled": 0, "fusion_lat": 0.0, "lat": 38.92544766666666, "bike_id": "ac21e0a0afd1131632b38afc395d3d78", "fusion_lon": 0.0}, {"rental_uris": {"ios": "https://dc.lft.to/lastmile_qr_scan", "android": "https://dc.lft.to/lastmile_qr_scan"}, "type": "electric_scooter", "name": "0bab29933512868fac259ed44a10a8dc", "is_reserved": 0, "lon": -77.00557916666666, "is_disabled": 0, "fusion_lat": 0.0, "lat": 38.87571833333333, "bike_id": "0bab29933512868fac259ed44a10a8dc", "fusion_lon": 0.0}, {"rental_uris": {"ios": "https://dc.lft.to/lastmile_qr_scan", "android": "https://dc.lft.to/lastmile_qr_scan"}, "type": "electric_scooter", "name": "dedfde243dd664832c4584bff5ca2fd4", "is_reserved": 0, "lon": -77.01671333333333, "is_disabled": 0, "fusion_lat": 0.0, "lat": 38.881284, "bike_id": "dedfde243dd664832c4584bff5ca2fd4", "fusion_lon": 0.0}, {"rental_uris": {"ios": "https://dc.lft.to/lastmile_qr_scan", "android": "https://dc.lft.to/lastmile_qr_scan"}, "type": "electric_scooter", "name": "f086a287f99ae2685b75e2f2055ee96f", "is_reserved": 0, "lon": -77.0325315, "is_disabled": 0, "fusion_lat": 0.0, "lat": 38.91185616666667, "bike_id": "f086a287f99ae2685b75e2f2055ee96f", "fusion_lon": 0.0}, {"rental_uris": {"ios": "https://dc.lft.to/lastmile_qr_scan", "android": "https://dc.lft.to/lastmile_qr_scan"}, "type": "electric_scooter", "name": "b3e6b1b4062372bbf0a3835434c4ba36", "is_reserved": 0, "lon": -77.02404616666666, "is_disabled": 0, "fusion_lat": 0.0, "lat": 38.910732, "bike_id": "b3e6b1b4062372bbf0a3835434c4ba36", "fusion_lon": 0.0}, {"rental_uris": {"ios": "https://dc.lft.to/lastmile_qr_scan", "android": "https://dc.lft.to/lastmile_qr_scan"}, "type": "electric_scooter", "name": "bbf7ab15acaf29f4afc525f6f3cf2fa4", "is_reserved": 0, "lon": -77.022801, "is_disabled": 0, "fusion_lat": 0.0, "lat": 38.9271795, "bike_id": "bbf7ab15acaf29f4afc525f6f3cf2fa4", "fusion_lon": 0.0}, {"rental_uris": {"ios": "https://dc.lft.to/lastmile_qr_scan", "android": "https://dc.lft.to/lastmile_qr_scan"}, "type": "electric_scooter", "name": "7ff5ceec3783276931dfa0e4f52eae07", "is_reserved": 0, "lon": -76.982611, "is_disabled": 0, "fusion_lat": 0.0, "lat": 38.866256166666666, "bike_id": "7ff5ceec3783276931dfa0e4f52eae07", "fusion_lon": 0.0}, {"rental_uris": {"ios": "https://dc.lft.to/lastmile_qr_scan", "android": "https://dc.lft.to/lastmile_qr_scan"}, "type": "electric_scooter", "name": "362bf30ebcd22502cea588da4d2b380d", "is_reserved": 0, "lon": -76.98356516666666, "is_disabled": 0, "fusion_lat": 0.0, "lat": 38.887372, "bike_id": "362bf30ebcd22502cea588da4d2b380d", "fusion_lon": 0.0}, {"rental_uris": {"ios": "https://dc.lft.to/lastmile_qr_scan", "android": "https://dc.lft.to/lastmile_qr_scan"}, "type": "electric_scooter", "name": "c7a5e1f1b64e8d11d0a6803b59f5f02c", "is_reserved": 0, "lon": -77.02335033333334, "is_disabled": 0, "fusion_lat": 0.0, "lat": 38.922966333333335, "bike_id": "c7a5e1f1b64e8d11d0a6803b59f5f02c", "fusion_lon": 0.0}, {"rental_uris": {"ios": "https://dc.lft.to/lastmile_qr_scan", "android": "https://dc.lft.to/lastmile_qr_scan"}, "type": "electric_scooter", "name": "fc5b1850ddfd70a5b14e4d4e167f5b0c", "is_reserved": 0, "lon": -77.05267483333333, "is_disabled": 0, "fusion_lat": 0.0, "lat": 38.924209833333336, "bike_id": "fc5b1850ddfd70a5b14e4d4e167f5b0c", "fusion_lon": 0.0}, {"rental_uris": {"ios": "https://dc.lft.to/lastmile_qr_scan", "android": "https://dc.lft.to/lastmile_qr_scan"}, "type": "electric_bike", "name": "5951944ae513cb75bcd402be2fd39f61", "is_reserved": 0, "lon": -77.02009366666667, "is_disabled": 0, "fusion_lat": 0.0, "lat": 38.9643585, "bike_id": "5951944ae513cb75bcd402be2fd39f61", "fusion_lon": 0.0}, {"rental_uris": {"ios": "https://dc.lft.to/lastmile_qr_scan", "android": "https://dc.lft.to/lastmile_qr_scan"}, "type": "electric_bike", "name": "b6f9eaa7c56bf031575650308a4fa0af", "is_reserved": 0, "lon": -76.917225, "is_disabled": 0, "fusion_lat": 0.0, "lat": 38.88025233333333, "bike_id": "b6f9eaa7c56bf031575650308a4fa0af", "fusion_lon": 0.0}, {"rental_uris": {"ios": "https://dc.lft.to/lastmile_qr_scan", "android": "https://dc.lft.to/lastmile_qr_scan"}, "type": "electric_scooter", "name": "90ff683d0c0ecd07c6765b936ecc0547", "is_reserved": 0, "lon": -77.05043733333333, "is_disabled": 0, "fusion_lat": 0.0, "lat": 38.892792, "bike_id": "90ff683d0c0ecd07c6765b936ecc0547", "fusion_lon": 0.0}, {"rental_uris": {"ios": "https://dc.lft.to/lastmile_qr_scan", "android": "https://dc.lft.to/lastmile_qr_scan"}, "type": "electric_scooter", "name": "b4b43c3aadafd3bfdb62a19b9e9f3087", "is_reserved": 0, "lon": -77.04131133333334, "is_disabled": 0, "fusion_lat": 0.0, "lat": 38.933579333333334, "bike_id": "b4b43c3aadafd3bfdb62a19b9e9f3087", "fusion_lon": 0.0}, {"rental_uris": {"ios": "https://dc.lft.to/lastmile_qr_scan", "android": "https://dc.lft.to/lastmile_qr_scan"}, "type": "electric_scooter", "name": "4b57aab970c83e3f95f5bb16c0d4b722", "is_reserved": 0, "lon": -77.0319295, "is_disabled": 0, "fusion_lat": 0.0, "lat": 38.92100933333333, "bike_id": "4b57aab970c83e3f95f5bb16c0d4b722", "fusion_lon": 0.0}, {"rental_uris": {"ios": "https://dc.lft.to/lastmile_qr_scan", "android": "https://dc.lft.to/lastmile_qr_scan"}, "type": "electric_scooter", "name": "95691bdb9720028402b0941b79884ad9", "is_reserved": 0, "lon": -77.0271235, "is_disabled": 0, "fusion_lat": 0.0, "lat": 38.91830433333333, "bike_id": "95691bdb9720028402b0941b79884ad9", "fusion_lon": 0.0}, {"rental_uris": {"ios": "https://dc.lft.to/lastmile_qr_scan", "android": "https://dc.lft.to/lastmile_qr_scan"}, "type": "electric_scooter", "name": "31d1946ee091d61940a1107edfcde2b0", "is_reserved": 0, "lon": -77.03854316666667, "is_disabled": 0, "fusion_lat": 0.0, "lat": 38.93200483333333, "bike_id": "31d1946ee091d61940a1107edfcde2b0", "fusion_lon": 0.0}, {"rental_uris": {"ios": "https://dc.lft.to/lastmile_qr_scan", "android": "https://dc.lft.to/lastmile_qr_scan"}, "type": "electric_scooter", "name": "406fec6b0792d29c4c7bdf20ecdd9644", "is_reserved": 0, "lon": -76.99035283333333, "is_disabled": 0, "fusion_lat": 0.0, "lat": 38.888779166666666, "bike_id": "406fec6b0792d29c4c7bdf20ecdd9644", "fusion_lon": 0.0}, {"rental_uris": {"ios": "https://dc.lft.to/lastmile_qr_scan", "android": "https://dc.lft.to/lastmile_qr_scan"}, "type": "electric_scooter", "name": "5a78f4d4b8d1044267b00e4441a7fa8c", "is_reserved": 0, "lon": -77.01217583333333, "is_disabled": 0, "fusion_lat": 0.0, "lat": 38.9134175, "bike_id": "5a78f4d4b8d1044267b00e4441a7fa8c", "fusion_lon": 0.0}, {"rental_uris": {"ios": "https://dc.lft.to/lastmile_qr_scan", "android": "https://dc.lft.to/lastmile_qr_scan"}, "type": "electric_scooter", "name": "9cbd95aab407ca2675f74adafc7c20a4", "is_reserved": 0, "lon": -76.9831975, "is_disabled": 0, "fusion_lat": 0.0, "lat": 38.9259005, "bike_id": "9cbd95aab407ca2675f74adafc7c20a4", "fusion_lon": 0.0}, {"rental_uris": {"ios": "https://dc.lft.to/lastmile_qr_scan", "android": "https://dc.lft.to/lastmile_qr_scan"}, "type": "electric_bike", "name": "852963335e10d5d2ebf62f1b0c1b46f0", "is_reserved": 0, "lon": -77.07643216666666, "is_disabled": 0, "fusion_lat": 0.0, "lat": 38.888565666666665, "bike_id": "852963335e10d5d2ebf62f1b0c1b46f0", "fusion_lon": 0.0}, {"rental_uris": {"ios": "https://dc.lft.to/lastmile_qr_scan", "android": "https://dc.lft.to/lastmile_qr_scan"}, "type": "electric_scooter", "name": "e2c6f0f7149aa2506ee9debcfa9e6d3b", "is_reserved": 0, "lon": -77.03098633333333, "is_disabled": 0, "fusion_lat": 0.0, "lat": 38.94677333333333, "bike_id": "e2c6f0f7149aa2506ee9debcfa9e6d3b", "fusion_lon": 0.0}, {"rental_uris": {"ios": "https://dc.lft.to/lastmile_qr_scan", "android": "https://dc.lft.to/lastmile_qr_scan"}, "type": "electric_scooter", "name": "23a12bc7226a4644694c12c9c2405acd", "is_reserved": 0, "lon": -77.018712, "is_disabled": 0, "fusion_lat": 0.0, "lat": 38.95150816666667, "bike_id": "23a12bc7226a4644694c12c9c2405acd", "fusion_lon": 0.0}, {"rental_uris": {"ios": "https://dc.lft.to/lastmile_qr_scan", "android": "https://dc.lft.to/lastmile_qr_scan"}, "type": "electric_scooter", "name": "1ad24e3034eec4051e919aa86b12488a", "is_reserved": 0, "lon": -77.043478, "is_disabled": 0, "fusion_lat": 0.0, "lat": 38.92179083333333, "bike_id": "1ad24e3034eec4051e919aa86b12488a", "fusion_lon": 0.0}, {"rental_uris": {"ios": "https://dc.lft.to/lastmile_qr_scan", "android": "https://dc.lft.to/lastmile_qr_scan"}, "type": "electric_scooter", "name": "45d8907244f59ba38119d411086804e2", "is_reserved": 0, "lon": -77.06285216666667, "is_disabled": 0, "fusion_lat": 0.0, "lat": 38.904949, "bike_id": "45d8907244f59ba38119d411086804e2", "fusion_lon": 0.0}, {"rental_uris": {"ios": "https://dc.lft.to/lastmile_qr_scan", "android": "https://dc.lft.to/lastmile_qr_scan"}, "type": "electric_scooter", "name": "b609d3e96e22c65b809c55d638ddb91d", "is_reserved": 0, "lon": -77.02363316666667, "is_disabled": 0, "fusion_lat": 0.0, "lat": 38.902169, "bike_id": "b609d3e96e22c65b809c55d638ddb91d", "fusion_lon": 0.0}, {"rental_uris": {"ios": "https://dc.lft.to/lastmile_qr_scan", "android": "https://dc.lft.to/lastmile_qr_scan"}, "type": "electric_scooter", "name": "160422cf11971c4a6430be8cdd840285", "is_reserved": 0, "lon": -76.9487125, "is_disabled": 0, "fusion_lat": 0.0, "lat": 38.89482066666667, "bike_id": "160422cf11971c4a6430be8cdd840285", "fusion_lon": 0.0}, {"rental_uris": {"ios": "https://dc.lft.to/lastmile_qr_scan", "android": "https://dc.lft.to/lastmile_qr_scan"}, "type": "electric_scooter", "name": "736615a170b45ea47bc60cceea4689bd", "is_reserved": 0, "lon": -77.04177016666667, "is_disabled": 0, "fusion_lat": 0.0, "lat": 38.90730416666667, "bike_id": "736615a170b45ea47bc60cceea4689bd", "fusion_lon": 0.0}, {"rental_uris": {"ios": "https://dc.lft.to/lastmile_qr_scan", "android": "https://dc.lft.to/lastmile_qr_scan"}, "type": "electric_scooter", "name": "065a0b8c9412e54174d33665d22b212f", "is_reserved": 0, "lon": -77.03943916666667, "is_disabled": 0, "fusion_lat": 0.0, "lat": 38.9248955, "bike_id": "065a0b8c9412e54174d33665d22b212f", "fusion_lon": 0.0}, {"rental_uris": {"ios": "https://dc.lft.to/lastmile_qr_scan", "android": "https://dc.lft.to/lastmile_qr_scan"}, "type": "electric_scooter", "name": "e896e0f2b2785376475e2fec4d7d85e3", "is_reserved": 0, "lon": -77.0424445, "is_disabled": 0, "fusion_lat": 0.0, "lat": 38.92221833333333, "bike_id": "e896e0f2b2785376475e2fec4d7d85e3", "fusion_lon": 0.0}, {"rental_uris": {"ios": "https://dc.lft.to/lastmile_qr_scan", "android": "https://dc.lft.to/lastmile_qr_scan"}, "type": "electric_scooter", "name": "83361b25ea8dfac988cf0e57f55c403f", "is_reserved": 0, "lon": -77.042934, "is_disabled": 0, "fusion_lat": 0.0, "lat": 38.92236716666667, "bike_id": "83361b25ea8dfac988cf0e57f55c403f", "fusion_lon": 0.0}, {"rental_uris": {"ios": "https://dc.lft.to/lastmile_qr_scan", "android": "https://dc.lft.to/lastmile_qr_scan"}, "type": "electric_scooter", "name": "c34f3105b61d74e520f0f37a8630ca16", "is_reserved": 0, "lon": -77.05148916666667, "is_disabled": 0, "fusion_lat": 0.0, "lat": 38.90207133333333, "bike_id": "c34f3105b61d74e520f0f37a8630ca16", "fusion_lon": 0.0}, {"rental_uris": {"ios": "https://dc.lft.to/lastmile_qr_scan", "android": "https://dc.lft.to/lastmile_qr_scan"}, "type": "electric_scooter", "name": "c0be2868ef8d4800139f572a88f27d8f", "is_reserved": 0, "lon": -77.005309, "is_disabled": 0, "fusion_lat": 0.0, "lat": 38.880180333333335, "bike_id": "c0be2868ef8d4800139f572a88f27d8f", "fusion_lon": 0.0}, {"rental_uris": {"ios": "https://dc.lft.to/lastmile_qr_scan", "android": "https://dc.lft.to/lastmile_qr_scan"}, "type": "electric_scooter", "name": "1f8ec4d4c832ae2af93068cf9a197577", "is_reserved": 0, "lon": -76.9756525, "is_disabled": 0, "fusion_lat": 0.0, "lat": 38.944218, "bike_id": "1f8ec4d4c832ae2af93068cf9a197577", "fusion_lon": 0.0}, {"rental_uris": {"ios": "https://dc.lft.to/lastmile_qr_scan", "android": "https://dc.lft.to/lastmile_qr_scan"}, "type": "electric_bike", "name": "a132db4663719c420add9e0f029847db", "is_reserved": 0, "lon": -76.9579255, "is_disabled": 0, "fusion_lat": 0.0, "lat": 38.980431333333335, "bike_id": "a132db4663719c420add9e0f029847db", "fusion_lon": 0.0}, {"rental_uris": {"ios": "https://dc.lft.to/lastmile_qr_scan", "android": "https://dc.lft.to/lastmile_qr_scan"}, "type": "electric_scooter", "name": "5cec7d17a1335d080aee08ecb7798b00", "is_reserved": 0, "lon": -77.05512816666666, "is_disabled": 0, "fusion_lat": 0.0, "lat": 38.928286166666666, "bike_id": "5cec7d17a1335d080aee08ecb7798b00", "fusion_lon": 0.0}, {"rental_uris": {"ios": "https://dc.lft.to/lastmile_qr_scan", "android": "https://dc.lft.to/lastmile_qr_scan"}, "type": "electric_bike", "name": "faf22a058f3a8ba8f7d2d3fae3192d07", "is_reserved": 0, "lon": -77.0013735, "is_disabled": 0, "fusion_lat": 0.0, "lat": 38.994951, "bike_id": "faf22a058f3a8ba8f7d2d3fae3192d07", "fusion_lon": 0.0}, {"rental_uris": {"ios": "https://dc.lft.to/lastmile_qr_scan", "android": "https://dc.lft.to/lastmile_qr_scan"}, "type": "electric_bike", "name": "849703363a6d512e726c3029b001d3f0", "is_reserved": 0, "lon": -77.040637, "is_disabled": 0, "fusion_lat": 0.0, "lat": 38.90120983333333, "bike_id": "849703363a6d512e726c3029b001d3f0", "fusion_lon": 0.0}, {"rental_uris": {"ios": "https://dc.lft.to/lastmile_qr_scan", "android": "https://dc.lft.to/lastmile_qr_scan"}, "type": "electric_scooter", "name": "458459afad1d8ac05b1c1d0b2a935038", "is_reserved": 0, "lon": -76.9979305, "is_disabled": 0, "fusion_lat": 0.0, "lat": 38.876324, "bike_id": "458459afad1d8ac05b1c1d0b2a935038", "fusion_lon": 0.0}, {"rental_uris": {"ios": "https://dc.lft.to/lastmile_qr_scan", "android": "https://dc.lft.to/lastmile_qr_scan"}, "type": "electric_bike", "name": "4a90f9e1d514cd0ab8854a2c329f0024", "is_reserved": 0, "lon": -77.02627866666667, "is_disabled": 0, "fusion_lat": 0.0, "lat": 38.96218783333333, "bike_id": "4a90f9e1d514cd0ab8854a2c329f0024", "fusion_lon": 0.0}, {"rental_uris": {"ios": "https://dc.lft.to/lastmile_qr_scan", "android": "https://dc.lft.to/lastmile_qr_scan"}, "type": "electric_scooter", "name": "9331853af15e4be5696254a7b203f58c", "is_reserved": 0, "lon": -77.02351, "is_disabled": 0, "fusion_lat": 0.0, "lat": 38.9309615, "bike_id": "9331853af15e4be5696254a7b203f58c", "fusion_lon": 0.0}, {"rental_uris": {"ios": "https://dc.lft.to/lastmile_qr_scan", "android": "https://dc.lft.to/lastmile_qr_scan"}, "type": "electric_scooter", "name": "3b35706d694451066fffbd0c4f3db24a", "is_reserved": 0, "lon": -76.99520233333334, "is_disabled": 0, "fusion_lat": 0.0, "lat": 38.92062516666667, "bike_id": "3b35706d694451066fffbd0c4f3db24a", "fusion_lon": 0.0}, {"rental_uris": {"ios": "https://dc.lft.to/lastmile_qr_scan", "android": "https://dc.lft.to/lastmile_qr_scan"}, "type": "electric_scooter", "name": "528f1e74c84a85b2def7adb1ae7dc39d", "is_reserved": 0, "lon": -77.02935416666666, "is_disabled": 0, "fusion_lat": 0.0, "lat": 38.91708916666666, "bike_id": "528f1e74c84a85b2def7adb1ae7dc39d", "fusion_lon": 0.0}, {"rental_uris": {"ios": "https://dc.lft.to/lastmile_qr_scan", "android": "https://dc.lft.to/lastmile_qr_scan"}, "type": "electric_bike", "name": "02c6cfe6aa8276d11ee0c5084dffa357", "is_reserved": 0, "lon": -77.09620966666667, "is_disabled": 0, "fusion_lat": 0.0, "lat": 38.952432333333334, "bike_id": "02c6cfe6aa8276d11ee0c5084dffa357", "fusion_lon": 0.0}, {"rental_uris": {"ios": "https://dc.lft.to/lastmile_qr_scan", "android": "https://dc.lft.to/lastmile_qr_scan"}, "type": "electric_bike", "name": "d7b31ddfaf8c11f690263aa3474f8be1", "is_reserved": 0, "lon": -77.03881116666666, "is_disabled": 0, "fusion_lat": 0.0, "lat": 39.02635083333333, "bike_id": "d7b31ddfaf8c11f690263aa3474f8be1", "fusion_lon": 0.0}, {"rental_uris": {"ios": "https://dc.lft.to/lastmile_qr_scan", "android": "https://dc.lft.to/lastmile_qr_scan"}, "type": "electric_scooter", "name": "f7627ce28c4022f2d50f805e55c36b18", "is_reserved": 0, "lon": -77.02473966666666, "is_disabled": 0, "fusion_lat": 0.0, "lat": 38.897152166666665, "bike_id": "f7627ce28c4022f2d50f805e55c36b18", "fusion_lon": 0.0}, {"rental_uris": {"ios": "https://dc.lft.to/lastmile_qr_scan", "android": "https://dc.lft.to/lastmile_qr_scan"}, "type": "electric_scooter", "name": "0615cc22fcdd157c1f96fff02ac2aab4", "is_reserved": 0, "lon": -77.05841, "is_disabled": 0, "fusion_lat": 0.0, "lat": 38.8861425, "bike_id": "0615cc22fcdd157c1f96fff02ac2aab4", "fusion_lon": 0.0}, {"rental_uris": {"ios": "https://dc.lft.to/lastmile_qr_scan", "android": "https://dc.lft.to/lastmile_qr_scan"}, "type": "electric_scooter", "name": "ca90db94ffb93aacf90d6bafc9313658", "is_reserved": 0, "lon": -76.9859035, "is_disabled": 0, "fusion_lat": 0.0, "lat": 38.9143265, "bike_id": "ca90db94ffb93aacf90d6bafc9313658", "fusion_lon": 0.0}, {"rental_uris": {"ios": "https://dc.lft.to/lastmile_qr_scan", "android": "https://dc.lft.to/lastmile_qr_scan"}, "type": "electric_bike", "name": "53d40836f1b04ea3560ba6b58235b6a5", "is_reserved": 0, "lon": -77.16237433333333, "is_disabled": 0, "fusion_lat": 0.0, "lat": 38.88656233333333, "bike_id": "53d40836f1b04ea3560ba6b58235b6a5", "fusion_lon": 0.0}, {"rental_uris": {"ios": "https://dc.lft.to/lastmile_qr_scan", "android": "https://dc.lft.to/lastmile_qr_scan"}, "type": "electric_scooter", "name": "3275b5346da17279c2287cc57c05c5df", "is_reserved": 0, "lon": -77.04884016666666, "is_disabled": 0, "fusion_lat": 0.0, "lat": 38.90529333333333, "bike_id": "3275b5346da17279c2287cc57c05c5df", "fusion_lon": 0.0}, {"rental_uris": {"ios": "https://dc.lft.to/lastmile_qr_scan", "android": "https://dc.lft.to/lastmile_qr_scan"}, "type": "electric_scooter", "name": "6de90a7c6093b83821dc268b7a62b9e2", "is_reserved": 0, "lon": -77.04269266666667, "is_disabled": 0, "fusion_lat": 0.0, "lat": 38.90655016666667, "bike_id": "6de90a7c6093b83821dc268b7a62b9e2", "fusion_lon": 0.0}, {"rental_uris": {"ios": "https://dc.lft.to/lastmile_qr_scan", "android": "https://dc.lft.to/lastmile_qr_scan"}, "type": "electric_scooter", "name": "06461bd29b29cf9e391e58a0b7bcc7fc", "is_reserved": 0, "lon": -77.0318145, "is_disabled": 0, "fusion_lat": 0.0, "lat": 38.911679, "bike_id": "06461bd29b29cf9e391e58a0b7bcc7fc", "fusion_lon": 0.0}, {"rental_uris": {"ios": "https://dc.lft.to/lastmile_qr_scan", "android": "https://dc.lft.to/lastmile_qr_scan"}, "type": "electric_scooter", "name": "0952d675ce6125f03870fda88d8bb763", "is_reserved": 0, "lon": -77.034685, "is_disabled": 0, "fusion_lat": 0.0, "lat": 38.90274466666666, "bike_id": "0952d675ce6125f03870fda88d8bb763", "fusion_lon": 0.0}, {"rental_uris": {"ios": "https://dc.lft.to/lastmile_qr_scan", "android": "https://dc.lft.to/lastmile_qr_scan"}, "type": "electric_scooter", "name": "475fa7a72525ec0793221df5c6e0f47f", "is_reserved": 0, "lon": -77.04132, "is_disabled": 0, "fusion_lat": 0.0, "lat": 38.91685866666667, "bike_id": "475fa7a72525ec0793221df5c6e0f47f", "fusion_lon": 0.0}, {"rental_uris": {"ios": "https://dc.lft.to/lastmile_qr_scan", "android": "https://dc.lft.to/lastmile_qr_scan"}, "type": "electric_bike", "name": "c50e786fa540e49848524b6e98a1f95c", "is_reserved": 0, "lon": -76.96152316666667, "is_disabled": 0, "fusion_lat": 0.0, "lat": 38.85617, "bike_id": "c50e786fa540e49848524b6e98a1f95c", "fusion_lon": 0.0}, {"rental_uris": {"ios": "https://dc.lft.to/lastmile_qr_scan", "android": "https://dc.lft.to/lastmile_qr_scan"}, "type": "electric_scooter", "name": "accdc266c593c9db418a43b6ddbd9880", "is_reserved": 0, "lon": -76.99758433333334, "is_disabled": 0, "fusion_lat": 0.0, "lat": 38.88505983333334, "bike_id": "accdc266c593c9db418a43b6ddbd9880", "fusion_lon": 0.0}, {"rental_uris": {"ios": "https://dc.lft.to/lastmile_qr_scan", "android": "https://dc.lft.to/lastmile_qr_scan"}, "type": "electric_scooter", "name": "75d98bc1e6c2c840dcd897967b3cfc1a", "is_reserved": 0, "lon": -77.02203683333333, "is_disabled": 0, "fusion_lat": 0.0, "lat": 38.90987, "bike_id": "75d98bc1e6c2c840dcd897967b3cfc1a", "fusion_lon": 0.0}, {"rental_uris": {"ios": "https://dc.lft.to/lastmile_qr_scan", "android": "https://dc.lft.to/lastmile_qr_scan"}, "type": "electric_scooter", "name": "df7b702a2f9d13a064c46b80d439a196", "is_reserved": 0, "lon": -77.04337483333333, "is_disabled": 0, "fusion_lat": 0.0, "lat": 38.9222605, "bike_id": "df7b702a2f9d13a064c46b80d439a196", "fusion_lon": 0.0}, {"rental_uris": {"ios": "https://dc.lft.to/lastmile_qr_scan", "android": "https://dc.lft.to/lastmile_qr_scan"}, "type": "electric_scooter", "name": "032e745b8cc1e634affb54f951386b7b", "is_reserved": 0, "lon": -77.06522283333334, "is_disabled": 0, "fusion_lat": 0.0, "lat": 38.9110725, "bike_id": "032e745b8cc1e634affb54f951386b7b", "fusion_lon": 0.0}, {"rental_uris": {"ios": "https://dc.lft.to/lastmile_qr_scan", "android": "https://dc.lft.to/lastmile_qr_scan"}, "type": "electric_scooter", "name": "998608b6adba4a58e5c68ab1f8efaaff", "is_reserved": 0, "lon": -77.02377116666666, "is_disabled": 0, "fusion_lat": 0.0, "lat": 38.879558, "bike_id": "998608b6adba4a58e5c68ab1f8efaaff", "fusion_lon": 0.0}, {"rental_uris": {"ios": "https://dc.lft.to/lastmile_qr_scan", "android": "https://dc.lft.to/lastmile_qr_scan"}, "type": "electric_scooter", "name": "fbc1a6df3d5c5d69dc7314d60db8eacf", "is_reserved": 0, "lon": -77.00118966666666, "is_disabled": 0, "fusion_lat": 0.0, "lat": 38.87792616666667, "bike_id": "fbc1a6df3d5c5d69dc7314d60db8eacf", "fusion_lon": 0.0}, {"rental_uris": {"ios": "https://dc.lft.to/lastmile_qr_scan", "android": "https://dc.lft.to/lastmile_qr_scan"}, "type": "electric_scooter", "name": "2e96dedcd763122ce8509f22fa2b2719", "is_reserved": 0, "lon": -77.003759, "is_disabled": 0, "fusion_lat": 0.0, "lat": 38.9156275, "bike_id": "2e96dedcd763122ce8509f22fa2b2719", "fusion_lon": 0.0}, {"rental_uris": {"ios": "https://dc.lft.to/lastmile_qr_scan", "android": "https://dc.lft.to/lastmile_qr_scan"}, "type": "electric_scooter", "name": "d7597751fa238f970fe1eb1e2ab4db45", "is_reserved": 0, "lon": -77.02822783333333, "is_disabled": 0, "fusion_lat": 0.0, "lat": 38.887248166666666, "bike_id": "d7597751fa238f970fe1eb1e2ab4db45", "fusion_lon": 0.0}, {"rental_uris": {"ios": "https://dc.lft.to/lastmile_qr_scan", "android": "https://dc.lft.to/lastmile_qr_scan"}, "type": "electric_scooter", "name": "bb88cb2f6d13c7649dcebad2889f48e3", "is_reserved": 0, "lon": -77.0121335, "is_disabled": 0, "fusion_lat": 0.0, "lat": 38.901629, "bike_id": "bb88cb2f6d13c7649dcebad2889f48e3", "fusion_lon": 0.0}, {"rental_uris": {"ios": "https://dc.lft.to/lastmile_qr_scan", "android": "https://dc.lft.to/lastmile_qr_scan"}, "type": "electric_scooter", "name": "6ec827ef39971e4775d50069a969cdae", "is_reserved": 0, "lon": -76.98912316666667, "is_disabled": 0, "fusion_lat": 0.0, "lat": 38.90010516666667, "bike_id": "6ec827ef39971e4775d50069a969cdae", "fusion_lon": 0.0}, {"rental_uris": {"ios": "https://dc.lft.to/lastmile_qr_scan", "android": "https://dc.lft.to/lastmile_qr_scan"}, "type": "electric_scooter", "name": "03a0e2c30744260da825216c9f77ae93", "is_reserved": 0, "lon": -76.98700783333334, "is_disabled": 0, "fusion_lat": 0.0, "lat": 38.859655333333336, "bike_id": "03a0e2c30744260da825216c9f77ae93", "fusion_lon": 0.0}, {"rental_uris": {"ios": "https://dc.lft.to/lastmile_qr_scan", "android": "https://dc.lft.to/lastmile_qr_scan"}, "type": "electric_scooter", "name": "e576ad0981be014d3c013990b4758421", "is_reserved": 0, "lon": -77.02717283333334, "is_disabled": 0, "fusion_lat": 0.0, "lat": 38.91017033333333, "bike_id": "e576ad0981be014d3c013990b4758421", "fusion_lon": 0.0}, {"rental_uris": {"ios": "https://dc.lft.to/lastmile_qr_scan", "android": "https://dc.lft.to/lastmile_qr_scan"}, "type": "electric_scooter", "name": "c843bdff59540996b0917279b7ce1098", "is_reserved": 0, "lon": -77.01427366666667, "is_disabled": 0, "fusion_lat": 0.0, "lat": 38.92022933333333, "bike_id": "c843bdff59540996b0917279b7ce1098", "fusion_lon": 0.0}, {"rental_uris": {"ios": "https://dc.lft.to/lastmile_qr_scan", "android": "https://dc.lft.to/lastmile_qr_scan"}, "type": "electric_scooter", "name": "9d339a8404c12e07c5e9bde4618b8890", "is_reserved": 0, "lon": -77.04463916666667, "is_disabled": 0, "fusion_lat": 0.0, "lat": 38.91118016666667, "bike_id": "9d339a8404c12e07c5e9bde4618b8890", "fusion_lon": 0.0}, {"rental_uris": {"ios": "https://dc.lft.to/lastmile_qr_scan", "android": "https://dc.lft.to/lastmile_qr_scan"}, "type": "electric_scooter", "name": "2fb63aa42fd3be67b94028460973755b", "is_reserved": 0, "lon": -77.02497216666667, "is_disabled": 0, "fusion_lat": 0.0, "lat": 38.9194255, "bike_id": "2fb63aa42fd3be67b94028460973755b", "fusion_lon": 0.0}, {"rental_uris": {"ios": "https://dc.lft.to/lastmile_qr_scan", "android": "https://dc.lft.to/lastmile_qr_scan"}, "type": "electric_scooter", "name": "a62e89d88d5860d95cb58cfdb9d840fd", "is_reserved": 0, "lon": -76.98559933333334, "is_disabled": 0, "fusion_lat": 0.0, "lat": 38.8834955, "bike_id": "a62e89d88d5860d95cb58cfdb9d840fd", "fusion_lon": 0.0}, {"rental_uris": {"ios": "https://dc.lft.to/lastmile_qr_scan", "android": "https://dc.lft.to/lastmile_qr_scan"}, "type": "electric_scooter", "name": "d3e3c9f24ae8782eb7ec0e5b29336921", "is_reserved": 0, "lon": -77.02223383333333, "is_disabled": 0, "fusion_lat": 0.0, "lat": 38.914149, "bike_id": "d3e3c9f24ae8782eb7ec0e5b29336921", "fusion_lon": 0.0}, {"rental_uris": {"ios": "https://dc.lft.to/lastmile_qr_scan", "android": "https://dc.lft.to/lastmile_qr_scan"}, "type": "electric_scooter", "name": "358ee62b63f86c106188f8177a09a90a", "is_reserved": 0, "lon": -77.03216933333333, "is_disabled": 0, "fusion_lat": 0.0, "lat": 38.8922665, "bike_id": "358ee62b63f86c106188f8177a09a90a", "fusion_lon": 0.0}, {"rental_uris": {"ios": "https://dc.lft.to/lastmile_qr_scan", "android": "https://dc.lft.to/lastmile_qr_scan"}, "type": "electric_bike", "name": "89bdd7a2c156ff9d8fa49fc5be853fe7", "is_reserved": 0, "lon": -77.0945235, "is_disabled": 0, "fusion_lat": 0.0, "lat": 38.807533, "bike_id": "89bdd7a2c156ff9d8fa49fc5be853fe7", "fusion_lon": 0.0}, {"rental_uris": {"ios": "https://dc.lft.to/lastmile_qr_scan", "android": "https://dc.lft.to/lastmile_qr_scan"}, "type": "electric_scooter", "name": "307b9606699f1a8218d62ee204436d8b", "is_reserved": 0, "lon": -77.02631433333333, "is_disabled": 0, "fusion_lat": 0.0, "lat": 38.9027045, "bike_id": "307b9606699f1a8218d62ee204436d8b", "fusion_lon": 0.0}, {"rental_uris": {"ios": "https://dc.lft.to/lastmile_qr_scan", "android": "https://dc.lft.to/lastmile_qr_scan"}, "type": "electric_scooter", "name": "1459125ff60ddb9ec09dab34b1dcecb9", "is_reserved": 0, "lon": -76.94871283333333, "is_disabled": 0, "fusion_lat": 0.0, "lat": 38.89485116666667, "bike_id": "1459125ff60ddb9ec09dab34b1dcecb9", "fusion_lon": 0.0}, {"rental_uris": {"ios": "https://dc.lft.to/lastmile_qr_scan", "android": "https://dc.lft.to/lastmile_qr_scan"}, "type": "electric_scooter", "name": "3ed6fd7fdaccc806d6b9bf9353c13cc8", "is_reserved": 0, "lon": -77.02203916666667, "is_disabled": 0, "fusion_lat": 0.0, "lat": 38.9515355, "bike_id": "3ed6fd7fdaccc806d6b9bf9353c13cc8", "fusion_lon": 0.0}, {"rental_uris": {"ios": "https://dc.lft.to/lastmile_qr_scan", "android": "https://dc.lft.to/lastmile_qr_scan"}, "type": "electric_scooter", "name": "bc7e94cbc2e95f373c1c0c2f9ef78df3", "is_reserved": 0, "lon": -77.078764, "is_disabled": 0, "fusion_lat": 0.0, "lat": 38.94608766666666, "bike_id": "bc7e94cbc2e95f373c1c0c2f9ef78df3", "fusion_lon": 0.0}, {"rental_uris": {"ios": "https://dc.lft.to/lastmile_qr_scan", "android": "https://dc.lft.to/lastmile_qr_scan"}, "type": "electric_scooter", "name": "d789298e4494be87fd3eb9e6810280cd", "is_reserved": 0, "lon": -77.021599, "is_disabled": 0, "fusion_lat": 0.0, "lat": 38.92603416666667, "bike_id": "d789298e4494be87fd3eb9e6810280cd", "fusion_lon": 0.0}, {"rental_uris": {"ios": "https://dc.lft.to/lastmile_qr_scan", "android": "https://dc.lft.to/lastmile_qr_scan"}, "type": "electric_scooter", "name": "2a74815b29e6e7750f1553d48cd12e66", "is_reserved": 0, "lon": -77.02112383333333, "is_disabled": 0, "fusion_lat": 0.0, "lat": 38.909395333333336, "bike_id": "2a74815b29e6e7750f1553d48cd12e66", "fusion_lon": 0.0}, {"rental_uris": {"ios": "https://dc.lft.to/lastmile_qr_scan", "android": "https://dc.lft.to/lastmile_qr_scan"}, "type": "electric_scooter", "name": "4a977ec66867ee5cb826e6c867883a7c", "is_reserved": 0, "lon": -77.02147583333333, "is_disabled": 0, "fusion_lat": 0.0, "lat": 38.915505833333334, "bike_id": "4a977ec66867ee5cb826e6c867883a7c", "fusion_lon": 0.0}, {"rental_uris": {"ios": "https://dc.lft.to/lastmile_qr_scan", "android": "https://dc.lft.to/lastmile_qr_scan"}, "type": "electric_scooter", "name": "488dbac4825d7ec135aa47fbbd5bc277", "is_reserved": 0, "lon": -77.00702666666666, "is_disabled": 0, "fusion_lat": 0.0, "lat": 38.871495333333336, "bike_id": "488dbac4825d7ec135aa47fbbd5bc277", "fusion_lon": 0.0}, {"rental_uris": {"ios": "https://dc.lft.to/lastmile_qr_scan", "android": "https://dc.lft.to/lastmile_qr_scan"}, "type": "electric_scooter", "name": "e739bfc377fb2250e58acdc645a5a7b0", "is_reserved": 0, "lon": -77.03238966666666, "is_disabled": 0, "fusion_lat": 0.0, "lat": 38.92745933333333, "bike_id": "e739bfc377fb2250e58acdc645a5a7b0", "fusion_lon": 0.0}, {"rental_uris": {"ios": "https://dc.lft.to/lastmile_qr_scan", "android": "https://dc.lft.to/lastmile_qr_scan"}, "type": "electric_scooter", "name": "373445e2a1a735625e1d129165d85ce1", "is_reserved": 0, "lon": -77.0286945, "is_disabled": 0, "fusion_lat": 0.0, "lat": 38.9126575, "bike_id": "373445e2a1a735625e1d129165d85ce1", "fusion_lon": 0.0}, {"rental_uris": {"ios": "https://dc.lft.to/lastmile_qr_scan", "android": "https://dc.lft.to/lastmile_qr_scan"}, "type": "electric_scooter", "name": "173425f9ebdb22238ee20a8020f0433c", "is_reserved": 0, "lon": -76.98438816666666, "is_disabled": 0, "fusion_lat": 0.0, "lat": 38.91466633333334, "bike_id": "173425f9ebdb22238ee20a8020f0433c", "fusion_lon": 0.0}, {"rental_uris": {"ios": "https://dc.lft.to/lastmile_qr_scan", "android": "https://dc.lft.to/lastmile_qr_scan"}, "type": "electric_scooter", "name": "608903acfc5d247be28c1cbab4f324cb", "is_reserved": 0, "lon": -77.0633445, "is_disabled": 0, "fusion_lat": 0.0, "lat": 38.90692333333333, "bike_id": "608903acfc5d247be28c1cbab4f324cb", "fusion_lon": 0.0}, {"rental_uris": {"ios": "https://dc.lft.to/lastmile_qr_scan", "android": "https://dc.lft.to/lastmile_qr_scan"}, "type": "electric_scooter", "name": "c0bbd17fa6fbc9209d0f73bbb55c1ca3", "is_reserved": 0, "lon": -77.03298466666666, "is_disabled": 0, "fusion_lat": 0.0, "lat": 38.904117666666664, "bike_id": "c0bbd17fa6fbc9209d0f73bbb55c1ca3", "fusion_lon": 0.0}, {"rental_uris": {"ios": "https://dc.lft.to/lastmile_qr_scan", "android": "https://dc.lft.to/lastmile_qr_scan"}, "type": "electric_scooter", "name": "de6d753ffc43bf72672c98c1b64871d5", "is_reserved": 0, "lon": -77.07653216666667, "is_disabled": 0, "fusion_lat": 0.0, "lat": 38.9108325, "bike_id": "de6d753ffc43bf72672c98c1b64871d5", "fusion_lon": 0.0}, {"rental_uris": {"ios": "https://dc.lft.to/lastmile_qr_scan", "android": "https://dc.lft.to/lastmile_qr_scan"}, "type": "electric_scooter", "name": "ff9120de1d2ff9ef85e375dd0a4e2554", "is_reserved": 0, "lon": -77.032593, "is_disabled": 0, "fusion_lat": 0.0, "lat": 38.93764616666667, "bike_id": "ff9120de1d2ff9ef85e375dd0a4e2554", "fusion_lon": 0.0}, {"rental_uris": {"ios": "https://dc.lft.to/lastmile_qr_scan", "android": "https://dc.lft.to/lastmile_qr_scan"}, "type": "electric_scooter", "name": "2d3b19b91fd7d5c8906331d534e18496", "is_reserved": 0, "lon": -77.04322383333333, "is_disabled": 0, "fusion_lat": 0.0, "lat": 38.934007666666666, "bike_id": "2d3b19b91fd7d5c8906331d534e18496", "fusion_lon": 0.0}, {"rental_uris": {"ios": "https://dc.lft.to/lastmile_qr_scan", "android": "https://dc.lft.to/lastmile_qr_scan"}, "type": "electric_scooter", "name": "94ec936fee9413a2c22600a5449d5a95", "is_reserved": 0, "lon": -77.04870383333333, "is_disabled": 0, "fusion_lat": 0.0, "lat": 38.91264066666667, "bike_id": "94ec936fee9413a2c22600a5449d5a95", "fusion_lon": 0.0}, {"rental_uris": {"ios": "https://dc.lft.to/lastmile_qr_scan", "android": "https://dc.lft.to/lastmile_qr_scan"}, "type": "electric_bike", "name": "8ec829ba692043f16bafafad4e131744", "is_reserved": 0, "lon": -77.114151, "is_disabled": 0, "fusion_lat": 0.0, "lat": 38.873241166666666, "bike_id": "8ec829ba692043f16bafafad4e131744", "fusion_lon": 0.0}, {"rental_uris": {"ios": "https://dc.lft.to/lastmile_qr_scan", "android": "https://dc.lft.to/lastmile_qr_scan"}, "type": "electric_scooter", "name": "94c1863b9f62b919c06a152ec29f173f", "is_reserved": 0, "lon": -77.04163216666667, "is_disabled": 0, "fusion_lat": 0.0, "lat": 38.911808666666666, "bike_id": "94c1863b9f62b919c06a152ec29f173f", "fusion_lon": 0.0}, {"rental_uris": {"ios": "https://dc.lft.to/lastmile_qr_scan", "android": "https://dc.lft.to/lastmile_qr_scan"}, "type": "electric_scooter", "name": "5dcec3da4bf7e467cd908b4d40040868", "is_reserved": 0, "lon": -77.04479, "is_disabled": 0, "fusion_lat": 0.0, "lat": 38.91087566666667, "bike_id": "5dcec3da4bf7e467cd908b4d40040868", "fusion_lon": 0.0}, {"rental_uris": {"ios": "https://dc.lft.to/lastmile_qr_scan", "android": "https://dc.lft.to/lastmile_qr_scan"}, "type": "electric_scooter", "name": "c5aa53c5bd8a7e7482df955cc4ccf723", "is_reserved": 0, "lon": -76.983736, "is_disabled": 0, "fusion_lat": 0.0, "lat": 38.891360166666665, "bike_id": "c5aa53c5bd8a7e7482df955cc4ccf723", "fusion_lon": 0.0}, {"rental_uris": {"ios": "https://dc.lft.to/lastmile_qr_scan", "android": "https://dc.lft.to/lastmile_qr_scan"}, "type": "electric_scooter", "name": "98c699b03a5cc2fe9e63fa595427c2a0", "is_reserved": 0, "lon": -77.062405, "is_disabled": 0, "fusion_lat": 0.0, "lat": 38.905200666666666, "bike_id": "98c699b03a5cc2fe9e63fa595427c2a0", "fusion_lon": 0.0}, {"rental_uris": {"ios": "https://dc.lft.to/lastmile_qr_scan", "android": "https://dc.lft.to/lastmile_qr_scan"}, "type": "electric_bike", "name": "7314b073ca414e531c0204a9507d92aa", "is_reserved": 0, "lon": -76.90735433333333, "is_disabled": 0, "fusion_lat": 0.0, "lat": 38.89614066666667, "bike_id": "7314b073ca414e531c0204a9507d92aa", "fusion_lon": 0.0}, {"rental_uris": {"ios": "https://dc.lft.to/lastmile_qr_scan", "android": "https://dc.lft.to/lastmile_qr_scan"}, "type": "electric_scooter", "name": "b2a5ce0fd51ca14beca4e0185331ea82", "is_reserved": 0, "lon": -77.00820366666666, "is_disabled": 0, "fusion_lat": 0.0, "lat": 38.91369566666667, "bike_id": "b2a5ce0fd51ca14beca4e0185331ea82", "fusion_lon": 0.0}, {"rental_uris": {"ios": "https://dc.lft.to/lastmile_qr_scan", "android": "https://dc.lft.to/lastmile_qr_scan"},