{"data": {"bikes": [{"rental_uris": {"ios": "https://dc.lft.to/lastmile_qr_scan", "android": "https://dc.lft.to/lastmile_qr_scan"}, "lon": -77.05372466666667, "type": "electric_scooter", "fusion_lat": 0.0, "lat": 38.890741, "name": "b6d680b10ff9f4b4681424536c108e74", "fusion_lon": 0.0, "bike_id": "b6d680b10ff9f4b4681424536c108e74", "is_disabled": 0, "is_reserved": 0}, {"rental_uris": {"ios": "https://dc.lft.to/lastmile_qr_scan", "android": "https://dc.lft.to/lastmile_qr_scan"}, "lon": -76.99180483333333, "type": "electric_scooter", "fusion_lat": 0.0, "lat": 38.904560333333336, "name": "d316a880d869d4570c511c917fb4d1dd", "fusion_lon": 0.0, "bike_id": "d316a880d869d4570c511c917fb4d1dd", "is_disabled": 0, "is_reserved": 0}, {"rental_uris": {"ios": "https://dc.lft.to/lastmile_qr_scan", "android": "https://dc.lft.to/lastmile_qr_scan"}, "lon": -76.87492716666667, "type": "electric_bike", "fusion_lat": 0.0, "lat": 38.99091383333333, "name": "a32afabfa8f823dc19c9dffd8da33ac6", "fusion_lon": 0.0, "bike_id": "a32afabfa8f823dc19c9dffd8da33ac6", "is_disabled": 0, "is_reserved": 0}, {"rental_uris": {"ios": "https://dc.lft.to/lastmile_qr_scan", "android": "https://dc.lft.to/lastmile_qr_scan"}, "lon": -77.11219216666667, "type": "electric_bike", "fusion_lat": 0.0, "lat": 38.828754, "name": "da7beee69e26681acb012ba1ac6ae4ec", "fusion_lon": 0.0, "bike_id": "da7beee69e26681acb012ba1ac6ae4ec", "is_disabled": 0, "is_reserved": 0}, {"rental_uris": {"ios": "https://dc.lft.to/lastmile_qr_scan", "android": "https://dc.lft.to/lastmile_qr_scan"}, "lon": -77.073007, "type": "electric_scooter", "fusion_lat": 0.0, "lat": 38.936346, "name": "7b2466a19b53aea958dfaa0b0538c81a", "fusion_lon": 0.0, "bike_id": "7b2466a19b53aea958dfaa0b0538c81a", "is_disabled": 0, "is_reserved": 0}, {"rental_uris": {"ios": "https://dc.lft.to/lastmile_qr_scan", "android": "https://dc.lft.to/lastmile_qr_scan"}, "lon": -77.00806833333333, "type": "electric_scooter", "fusion_lat": 0.0, "lat": 38.876643, "name": "b353b065dfea2b13a3f47f266c045551", "fusion_lon": 0.0, "bike_id": "b353b065dfea2b13a3f47f266c045551", "is_disabled": 0, "is_reserved": 0}, {"rental_uris": {"ios": "https://dc.lft.to/lastmile_qr_scan", "android": "https://dc.lft.to/lastmile_qr_scan"}, "lon": -77.03380016666667, "type": "electric_scooter", "fusion_lat": 0.0, "lat": 38.892344333333334, "name": "dd179926b4fd9a048df80e95ed80a4c9", "fusion_lon": 0.0, "bike_id": "dd179926b4fd9a048df80e95ed80a4c9", "is_disabled": 0, "is_reserved": 0}, {"rental_uris": {"ios": "https://dc.lft.to/lastmile_qr_scan", "android": "https://dc.lft.to/lastmile_qr_scan"}, "lon": -77.02148333333334, "type": "electric_scooter", "fusion_lat": 0.0, "lat": 38.926074, "name": "b51f860f4f6e88cddd95867bc35910c9", "fusion_lon": 0.0, "bike_id": "b51f860f4f6e88cddd95867bc35910c9", "is_disabled": 0, "is_reserved": 0}, {"rental_uris": {"ios": "https://dc.lft.to/lastmile_qr_scan", "android": "https://dc.lft.to/lastmile_qr_scan"}, "lon": -77.0273635, "type": "electric_scooter", "fusion_lat": 0.0, "lat": 38.8814875, "name": "4c4ebfa4886ec13c611208580643b1a6", "fusion_lon": 0.0, "bike_id": "4c4ebfa4886ec13c611208580643b1a6", "is_disabled": 0, "is_reserved": 0}, {"rental_uris": {"ios": "https://dc.lft.to/lastmile_qr_scan", "android": "https://dc.lft.to/lastmile_qr_scan"}, "lon": -77.063307, "type": "electric_bike", "fusion_lat": 0.0, "lat": 38.92108733333333, "name": "1baa4dd22c6109b2b630db0a0ca1d7f7", "fusion_lon": 0.0, "bike_id": "1baa4dd22c6109b2b630db0a0ca1d7f7", "is_disabled": 0, "is_reserved": 0}, {"rental_uris": {"ios": "https://dc.lft.to/lastmile_qr_scan", "android": "https://dc.lft.to/lastmile_qr_scan"}, "lon": -77.06168833333334, "type": "electric_scooter", "fusion_lat": 0.0, "lat": 38.948074, "name": "9dcabb69729ab628d0b50f8f70d00ab1", "fusion_lon": 0.0, "bike_id": "9dcabb69729ab628d0b50f8f70d00ab1", "is_disabled": 0, "is_reserved": 0}, {"rental_uris": {"ios": "https://dc.lft.to/lastmile_qr_scan", "android": "https://dc.lft.to/lastmile_qr_scan"}, "lon": -77.04348183333333, "type": "electric_scooter", "fusion_lat": 0.0, "lat": 38.911822666666666, "name": "2d652ec8ba74670d0741506527686a79", "fusion_lon": 0.0, "bike_id": "2d652ec8ba74670d0741506527686a79", "is_disabled": 0, "is_reserved": 0}, {"rental_uris": {"ios": "https://dc.lft.to/lastmile_qr_scan", "android": "https://dc.lft.to/lastmile_qr_scan"}, "lon": -77.0358525, "type": "electric_scooter", "fusion_lat": 0.0, "lat": 38.932356, "name": "01fbad6b1244b2c1c4773daf15a96ab5", "fusion_lon": 0.0, "bike_id": "01fbad6b1244b2c1c4773daf15a96ab5", "is_disabled": 0, "is_reserved": 0}, {"rental_uris": {"ios": "https://dc.lft.to/lastmile_qr_scan", "android": "https://dc.lft.to/lastmile_qr_scan"}, "lon": -77.04815216666667, "type": "electric_scooter", "fusion_lat": 0.0, "lat": 38.907921333333334, "name": "1c4ea2c1eec518da4f564a1db32bf154", "fusion_lon": 0.0, "bike_id": "1c4ea2c1eec518da4f564a1db32bf154", "is_disabled": 0, "is_reserved": 0}, {"rental_uris": {"ios": "https://dc.lft.to/lastmile_qr_scan", "android": "https://dc.lft.to/lastmile_qr_scan"}, "lon": -76.94631033333333, "type": "electric_scooter", "fusion_lat": 0.0, "lat": 38.898426666666666, "name": "fe8769ac47f07dfcc1069623c1f7bedf", "fusion_lon": 0.0, "bike_id": "fe8769ac47f07dfcc1069623c1f7bedf", "is_disabled": 0, "is_reserved": 0}, {"rental_uris": {"ios": "https://dc.lft.to/lastmile_qr_scan", "android": "https://dc.lft.to/lastmile_qr_scan"}, "lon": -77.02169416666666, "type": "electric_scooter", "fusion_lat": 0.0, "lat": 38.942926166666666, "name": "13a8801dc50f46d62292a1f3308ae9a5", "fusion_lon": 0.0, "bike_id": "13a8801dc50f46d62292a1f3308ae9a5", "is_disabled": 0, "is_reserved": 0}, {"rental_uris": {"ios": "https://dc.lft.to/lastmile_qr_scan", "android": "https://dc.lft.to/lastmile_qr_scan"}, "lon": -77.03346783333333, "type": "electric_scooter", "fusion_lat": 0.0, "lat": 38.892488, "name": "ac9ff5d71b6a266893ca5ceee16d7378", "fusion_lon": 0.0, "bike_id": "ac9ff5d71b6a266893ca5ceee16d7378", "is_disabled": 0, "is_reserved": 0}, {"rental_uris": {"ios": "https://dc.lft.to/lastmile_qr_scan", "android": "https://dc.lft.to/lastmile_qr_scan"}, "lon": -77.0316905, "type": "electric_scooter", "fusion_lat": 0.0, "lat": 38.91338866666667, "name": "53c2951366c11d599a8b41ac8c45d45a", "fusion_lon": 0.0, "bike_id": "53c2951366c11d599a8b41ac8c45d45a", "is_disabled": 0, "is_reserved": 0}, {"rental_uris": {"ios": "https://dc.lft.to/lastmile_qr_scan", "android": "https://dc.lft.to/lastmile_qr_scan"}, "lon": -77.05009116666666, "type": "electric_scooter", "fusion_lat": 0.0, "lat": 38.90067116666667, "name": "aee9bb99f5436db89a6cf13dd5943b36", "fusion_lon": 0.0, "bike_id": "aee9bb99f5436db89a6cf13dd5943b36", "is_disabled": 0, "is_reserved": 0}, {"rental_uris": {"ios": "https://dc.lft.to/lastmile_qr_scan", "android": "https://dc.lft.to/lastmile_qr_scan"}, "lon": -77.023658, "type": "electric_scooter", "fusion_lat": 0.0, "lat": 38.936942333333334, "name": "b5a3ddb3072355ba39e88827caf207d4", "fusion_lon": 0.0, "bike_id": "b5a3ddb3072355ba39e88827caf207d4", "is_disabled": 0, "is_reserved": 0}, {"rental_uris": {"ios": "https://dc.lft.to/lastmile_qr_scan", "android": "https://dc.lft.to/lastmile_qr_scan"}, "lon": -77.02190583333334, "type": "electric_scooter", "fusion_lat": 0.0, "lat": 38.898422833333335, "name": "c73ed1c6f00e879ebc0b8ffea8c2e625", "fusion_lon": 0.0, "bike_id": "c73ed1c6f00e879ebc0b8ffea8c2e625", "is_disabled": 0, "is_reserved": 0}, {"rental_uris": {"ios": "https://dc.lft.to/lastmile_qr_scan", "android": "https://dc.lft.to/lastmile_qr_scan"}, "lon": -77.03185216666667, "type": "electric_scooter", "fusion_lat": 0.0, "lat": 38.929542166666664, "name": "4c850957cf6e01759fdc27d0eb678a8d", "fusion_lon": 0.0, "bike_id": "4c850957cf6e01759fdc27d0eb678a8d", "is_disabled": 0, "is_reserved": 0}, {"rental_uris": {"ios": "https://dc.lft.to/lastmile_qr_scan", "android": "https://dc.lft.to/lastmile_qr_scan"}, "lon": -77.04048416666667, "type": "electric_scooter", "fusion_lat": 0.0, "lat": 38.92464866666667, "name": "d3c7ca04de94825cd8b3dffe5574c741", "fusion_lon": 0.0, "bike_id": "d3c7ca04de94825cd8b3dffe5574c741", "is_disabled": 0, "is_reserved": 0}, {"rental_uris": {"ios": "https://dc.lft.to/lastmile_qr_scan", "android": "https://dc.lft.to/lastmile_qr_scan"}, "lon": -77.02967466666666, "type": "electric_scooter", "fusion_lat": 0.0, "lat": 38.9106085, "name": "894777f6dc808dbd7a4122f019652010", "fusion_lon": 0.0, "bike_id": "894777f6dc808dbd7a4122f019652010", "is_disabled": 0, "is_reserved": 0}, {"rental_uris": {"ios": "https://dc.lft.to/lastmile_qr_scan", "android": "https://dc.lft.to/lastmile_qr_scan"}, "lon": -77.033158, "type": "electric_scooter", "fusion_lat": 0.0, "lat": 38.926483, "name": "3bf829e0e7cb1bae709dc3eb92edd932", "fusion_lon": 0.0, "bike_id": "3bf829e0e7cb1bae709dc3eb92edd932", "is_disabled": 0, "is_reserved": 0}, {"rental_uris": {"ios": "https://dc.lft.to/lastmile_qr_scan", "android": "https://dc.lft.to/lastmile_qr_scan"}, "lon": -76.9802055, "type": "electric_scooter", "fusion_lat": 0.0, "lat": 38.887661666666666, "name": "669bfe647ef30867f014478fe50734d5", "fusion_lon": 0.0, "bike_id": "669bfe647ef30867f014478fe50734d5", "is_disabled": 0, "is_reserved": 0}, {"rental_uris": {"ios": "https://dc.lft.to/lastmile_qr_scan", "android": "https://dc.lft.to/lastmile_qr_scan"}, "lon": -77.10787766666667, "type": "electric_bike", "fusion_lat": 0.0, "lat": 38.87988033333333, "name": "f29315e732857e9651cf51caaa5d58bf", "fusion_lon": 0.0, "bike_id": "f29315e732857e9651cf51caaa5d58bf", "is_disabled": 0, "is_reserved": 0}, {"rental_uris": {"ios": "https://dc.lft.to/lastmile_qr_scan", "android": "https://dc.lft.to/lastmile_qr_scan"}, "lon": -76.99831733333333, "type": "electric_scooter", "fusion_lat": 0.0, "lat": 38.92343533333333, "name": "c52c71d737177081acbb98c3a50bfa51", "fusion_lon": 0.0, "bike_id": "c52c71d737177081acbb98c3a50bfa51", "is_disabled": 0, "is_reserved": 0}, {"rental_uris": {"ios": "https://dc.lft.to/lastmile_qr_scan", "android": "https://dc.lft.to/lastmile_qr_scan"}, "lon": -77.00514066666666, "type": "electric_scooter", "fusion_lat": 0.0, "lat": 38.896766666666664, "name": "8dbf55ca4c2a51ddd3829354a775a345", "fusion_lon": 0.0, "bike_id": "8dbf55ca4c2a51ddd3829354a775a345", "is_disabled": 0, "is_reserved": 0}, {"rental_uris": {"ios": "https://dc.lft.to/lastmile_qr_scan", "android": "https://dc.lft.to/lastmile_qr_scan"}, "lon": -77.03736116666667, "type": "electric_scooter", "fusion_lat": 0.0, "lat": 38.917072166666664, "name": "002ea0315860d6db5ba71fe603528d7b", "fusion_lon": 0.0, "bike_id": "002ea0315860d6db5ba71fe603528d7b", "is_disabled": 0, "is_reserved": 0}, {"rental_uris": {"ios": "https://dc.lft.to/lastmile_qr_scan", "android": "https://dc.lft.to/lastmile_qr_scan"}, "lon": -76.97270816666666, "type": "electric_bike", "fusion_lat": 0.0, "lat": 38.91973333333333, "name": "121411e301d0455f001548839c303432", "fusion_lon": 0.0, "bike_id": "121411e301d0455f001548839c303432", "is_disabled": 0, "is_reserved": 0}, {"rental_uris": {"ios": "https://dc.lft.to/lastmile_qr_scan", "android": "https://dc.lft.to/lastmile_qr_scan"}, "lon": -77.01741366666667, "type": "electric_scooter", "fusion_lat": 0.0, "lat": 38.87717816666667, "name": "75ff12ac8e7da3fdd5e2df1c293f4f95", "fusion_lon": 0.0, "bike_id": "75ff12ac8e7da3fdd5e2df1c293f4f95", "is_disabled": 0, "is_reserved": 0}, {"rental_uris": {"ios": "https://dc.lft.to/lastmile_qr_scan", "android": "https://dc.lft.to/lastmile_qr_scan"}, "lon": -77.02971233333334, "type": "electric_scooter", "fusion_lat": 0.0, "lat": 38.936089833333334, "name": "a6e670d1972d70077d58d732e90d12bb", "fusion_lon": 0.0, "bike_id": "a6e670d1972d70077d58d732e90d12bb", "is_disabled": 0, "is_reserved": 0}, {"rental_uris": {"ios": "https://dc.lft.to/lastmile_qr_scan", "android": "https://dc.lft.to/lastmile_qr_scan"}, "lon": -77.03212083333334, "type": "electric_scooter", "fusion_lat": 0.0, "lat": 38.918194166666666, "name": "7d618f2581967e886b2df62dd4f09e00", "fusion_lon": 0.0, "bike_id": "7d618f2581967e886b2df62dd4f09e00", "is_disabled": 0, "is_reserved": 0}, {"rental_uris": {"ios": "https://dc.lft.to/lastmile_qr_scan", "android": "https://dc.lft.to/lastmile_qr_scan"}, "lon": -77.0559405, "type": "electric_scooter", "fusion_lat": 0.0, "lat": 38.937012, "name": "c5efe7b426998a8d1cc45fd6c571450a", "fusion_lon": 0.0, "bike_id": "c5efe7b426998a8d1cc45fd6c571450a", "is_disabled": 0, "is_reserved": 0}, {"rental_uris": {"ios": "https://dc.lft.to/lastmile_qr_scan", "android": "https://dc.lft.to/lastmile_qr_scan"}, "lon": -77.03167583333334, "type": "electric_scooter", "fusion_lat": 0.0, "lat": 38.92120716666667, "name": "351a349c19e1b5d1e82e3a7593b8f8d2", "fusion_lon": 0.0, "bike_id": "351a349c19e1b5d1e82e3a7593b8f8d2", "is_disabled": 0, "is_reserved": 0}, {"rental_uris": {"ios": "https://dc.lft.to/lastmile_qr_scan", "android": "https://dc.lft.to/lastmile_qr_scan"}, "lon": -77.00302766666667, "type": "electric_scooter", "fusion_lat": 0.0, "lat": 38.90906733333333, "name": "87559e980860a6d5bc83e59b737d2d17", "fusion_lon": 0.0, "bike_id": "87559e980860a6d5bc83e59b737d2d17", "is_disabled": 0, "is_reserved": 0}, {"rental_uris": {"ios": "https://dc.lft.to/lastmile_qr_scan", "android": "https://dc.lft.to/lastmile_qr_scan"}, "lon": -77.04996166666666, "type": "electric_scooter", "fusion_lat": 0.0, "lat": 38.89232633333334, "name": "67631d465d6b60ca82804577fa5fdda7", "fusion_lon": 0.0, "bike_id": "67631d465d6b60ca82804577fa5fdda7", "is_disabled": 0, "is_reserved": 0}, {"rental_uris": {"ios": "https://dc.lft.to/lastmile_qr_scan", "android": "https://dc.lft.to/lastmile_qr_scan"}, "lon": -76.99515783333334, "type": "electric_scooter", "fusion_lat": 0.0, "lat": 38.8626475, "name": "1e5350477b909d008d0113a6cf7aa5f0", "fusion_lon": 0.0, "bike_id": "1e5350477b909d008d0113a6cf7aa5f0", "is_disabled": 0, "is_reserved": 0}, {"rental_uris": {"ios": "https://dc.lft.to/lastmile_qr_scan", "android": "https://dc.lft.to/lastmile_qr_scan"}, "lon": -77.02353266666667, "type": "electric_scooter", "fusion_lat": 0.0, "lat": 38.945221333333336, "name": "67e09600f518f31a87d5c08ea737400a", "fusion_lon": 0.0, "bike_id": "67e09600f518f31a87d5c08ea737400a", "is_disabled": 0, "is_reserved": 0}, {"rental_uris": {"ios": "https://dc.lft.to/lastmile_qr_scan", "android": "https://dc.lft.to/lastmile_qr_scan"}, "lon": -76.948876, "type": "electric_scooter", "fusion_lat": 0.0, "lat": 38.89535716666666, "name": "f93ea28e70028636c170976fec43004c", "fusion_lon": 0.0, "bike_id": "f93ea28e70028636c170976fec43004c", "is_disabled": 0, "is_reserved": 0}, {"rental_uris": {"ios": "https://dc.lft.to/lastmile_qr_scan", "android": "https://dc.lft.to/lastmile_qr_scan"}, "lon": -77.023897, "type": "electric_scooter", "fusion_lat": 0.0, "lat": 38.89920866666667, "name": "b8644f9aeb4c257b2e8d5671c9d040c6", "fusion_lon": 0.0, "bike_id": "b8644f9aeb4c257b2e8d5671c9d040c6", "is_disabled": 0, "is_reserved": 0}, {"rental_uris": {"ios": "https://dc.lft.to/lastmile_qr_scan", "android": "https://dc.lft.to/lastmile_qr_scan"}, "lon": -77.071593, "type": "electric_scooter", "fusion_lat": 0.0, "lat": 38.91453116666667, "name": "a82141e0815790106a0c0dd88c024d4b", "fusion_lon": 0.0, "bike_id": "a82141e0815790106a0c0dd88c024d4b", "is_disabled": 0, "is_reserved": 0}, {"rental_uris": {"ios": "https://dc.lft.to/lastmile_qr_scan", "android": "https://dc.lft.to/lastmile_qr_scan"}, "lon": -77.03637033333334, "type": "electric_scooter", "fusion_lat": 0.0, "lat": 38.9037685, "name": "9946beea79269f9f01da000a3f3a1848", "fusion_lon": 0.0, "bike_id": "9946beea79269f9f01da000a3f3a1848", "is_disabled": 0, "is_reserved": 0}, {"rental_uris": {"ios": "https://dc.lft.to/lastmile_qr_scan", "android": "https://dc.lft.to/lastmile_qr_scan"}, "lon": -77.04264983333333, "type": "electric_scooter", "fusion_lat": 0.0, "lat": 38.92237816666667, "name": "84ab993f0e763775a7999366aa1273f0", "fusion_lon": 0.0, "bike_id": "84ab993f0e763775a7999366aa1273f0", "is_disabled": 0, "is_reserved": 0}, {"rental_uris": {"ios": "https://dc.lft.to/lastmile_qr_scan", "android": "https://dc.lft.to/lastmile_qr_scan"}, "lon": -77.06945016666667, "type": "electric_scooter", "fusion_lat": 0.0, "lat": 38.90511866666667, "name": "838adef4823eb8f6941fc3bd3b6f71e1", "fusion_lon": 0.0, "bike_id": "838adef4823eb8f6941fc3bd3b6f71e1", "is_disabled": 0, "is_reserved": 0}, {"rental_uris": {"ios": "https://dc.lft.to/lastmile_qr_scan", "android": "https://dc.lft.to/lastmile_qr_scan"}, "lon": -77.02477933333333, "type": "electric_scooter", "fusion_lat": 0.0, "lat": 38.93821633333334, "name": "15e5efa5dbbbf00363e962c3fd8b7f34", "fusion_lon": 0.0, "bike_id": "15e5efa5dbbbf00363e962c3fd8b7f34", "is_disabled": 0, "is_reserved": 0}, {"rental_uris": {"ios": "https://dc.lft.to/lastmile_qr_scan", "android": "https://dc.lft.to/lastmile_qr_scan"}, "lon": -77.02413516666667, "type": "electric_scooter", "fusion_lat": 0.0, "lat": 38.89221233333333, "name": "dce3ac91a079ca3e84deb22a54748cec", "fusion_lon": 0.0, "bike_id": "dce3ac91a079ca3e84deb22a54748cec", "is_disabled": 0, "is_reserved": 0}, {"rental_uris": {"ios": "https://dc.lft.to/lastmile_qr_scan", "android": "https://dc.lft.to/lastmile_qr_scan"}, "lon": -77.03241266666667, "type": "electric_scooter", "fusion_lat": 0.0, "lat": 38.927647666666665, "name": "1b0e85de3e1934f0dd1ffc07ffa62b12", "fusion_lon": 0.0, "bike_id": "1b0e85de3e1934f0dd1ffc07ffa62b12", "is_disabled": 0, "is_reserved": 0}, {"rental_uris": {"ios": "https://dc.lft.to/lastmile_qr_scan", "android": "https://dc.lft.to/lastmile_qr_scan"}, "lon": -77.01189116666667, "type": "electric_scooter", "fusion_lat": 0.0, "lat": 38.900259166666665, "name": "298c90cc915bdfc796021f2e14e81868", "fusion_lon": 0.0, "bike_id": "298c90cc915bdfc796021f2e14e81868", "is_disabled": 0, "is_reserved": 0}, {"rental_uris": {"ios": "https://dc.lft.to/lastmile_qr_scan", "android": "https://dc.lft.to/lastmile_qr_scan"}, "lon": -77.0077635, "type": "electric_scooter", "fusion_lat": 0.0, "lat": 38.9065385, "name": "4417f19a9ac30da75baa1a5c26d0d1d9", "fusion_lon": 0.0, "bike_id": "4417f19a9ac30da75baa1a5c26d0d1d9", "is_disabled": 0, "is_reserved": 0}, {"rental_uris": {"ios": "https://dc.lft.to/lastmile_qr_scan", "android": "https://dc.lft.to/lastmile_qr_scan"}, "lon": -77.04170366666666, "type": "electric_scooter", "fusion_lat": 0.0, "lat": 38.9179315, "name": "a7aaacbca37f3a14871d975d8504e354", "fusion_lon": 0.0, "bike_id": "a7aaacbca37f3a14871d975d8504e354", "is_disabled": 0, "is_reserved": 0}, {"rental_uris": {"ios": "https://dc.lft.to/lastmile_qr_scan", "android": "https://dc.lft.to/lastmile_qr_scan"}, "lon": -77.01429666666667, "type": "electric_scooter", "fusion_lat": 0.0, "lat": 38.906497, "name": "115f9161ba52ad8e84e1410e0e099c68", "fusion_lon": 0.0, "bike_id": "115f9161ba52ad8e84e1410e0e099c68", "is_disabled": 0, "is_reserved": 0}, {"rental_uris": {"ios": "https://dc.lft.to/lastmile_qr_scan", "android": "https://dc.lft.to/lastmile_qr_scan"}, "lon": -77.01366916666667, "type": "electric_scooter", "fusion_lat": 0.0, "lat": 38.863717333333334, "name": "c531f1ffb95b4f3ef1fbec7ee6fe46cb", "fusion_lon": 0.0, "bike_id": "c531f1ffb95b4f3ef1fbec7ee6fe46cb", "is_disabled": 0, "is_reserved": 0}, {"rental_uris": {"ios": "https://dc.lft.to/lastmile_qr_scan", "android": "https://dc.lft.to/lastmile_qr_scan"}, "lon": -77.035572, "type": "electric_scooter", "fusion_lat": 0.0, "lat": 38.91809033333333, "name": "081850b71c841d1c3dd3e8efc0e36293", "fusion_lon": 0.0, "bike_id": "081850b71c841d1c3dd3e8efc0e36293", "is_disabled": 0, "is_reserved": 0}, {"rental_uris": {"ios": "https://dc.lft.to/lastmile_qr_scan", "android": "https://dc.lft.to/lastmile_qr_scan"}, "lon": -76.98997883333334, "type": "electric_scooter", "fusion_lat": 0.0, "lat": 38.865059333333335, "name": "623168bd357cc349d2993794faa0b1bd", "fusion_lon": 0.0, "bike_id": "623168bd357cc349d2993794faa0b1bd", "is_disabled": 0, "is_reserved": 0}, {"rental_uris": {"ios": "https://dc.lft.to/lastmile_qr_scan", "android": "https://dc.lft.to/lastmile_qr_scan"}, "lon": -77.034783, "type": "electric_scooter", "fusion_lat": 0.0, "lat": 38.9082825, "name": "dcaadbdc14b56af48e917e67da6a3a9e", "fusion_lon": 0.0, "bike_id": "dcaadbdc14b56af48e917e67da6a3a9e", "is_disabled": 0, "is_reserved": 0}, {"rental_uris": {"ios": "https://dc.lft.to/lastmile_qr_scan", "android": "https://dc.lft.to/lastmile_qr_scan"}, "lon": -76.97302133333334, "type": "electric_scooter", "fusion_lat": 0.0, "lat": 38.9198905, "name": "999329767553a19ca2b87b7435a0c729", "fusion_lon": 0.0, "bike_id": "999329767553a19ca2b87b7435a0c729", "is_disabled": 0, "is_reserved": 0}, {"rental_uris": {"ios": "https://dc.lft.to/lastmile_qr_scan", "android": "https://dc.lft.to/lastmile_qr_scan"}, "lon": -76.98580733333333, "type": "electric_scooter", "fusion_lat": 0.0, "lat": 38.88395233333333, "name": "bd3ea4bb241c39c2f9fa11b86620cb7c", "fusion_lon": 0.0, "bike_id": "bd3ea4bb241c39c2f9fa11b86620cb7c", "is_disabled": 0, "is_reserved": 0}, {"rental_uris": {"ios": "https://dc.lft.to/lastmile_qr_scan", "android": "https://dc.lft.to/lastmile_qr_scan"}, "lon": -77.04130916666666, "type": "electric_scooter", "fusion_lat": 0.0, "lat": 38.94253466666667, "name": "93c003e23da49aed4e4476b4e09fa914", "fusion_lon": 0.0, "bike_id": "93c003e23da49aed4e4476b4e09fa914", "is_disabled": 0, "is_reserved": 0}, {"rental_uris": {"ios": "https://dc.lft.to/lastmile_qr_scan", "android": "https://dc.lft.to/lastmile_qr_scan"}, "lon": -77.03261833333333, "type": "electric_scooter", "fusion_lat": 0.0, "lat": 38.937381333333335, "name": "25aab079904550c82d3772164d18682a", "fusion_lon": 0.0, "bike_id": "25aab079904550c82d3772164d18682a", "is_disabled": 0, "is_reserved": 0}, {"rental_uris": {"ios": "https://dc.lft.to/lastmile_qr_scan", "android": "https://dc.lft.to/lastmile_qr_scan"}, "lon": -77.03518833333334, "type": "electric_bike", "fusion_lat": 0.0, "lat": 38.96538183333333, "name": "de5bd68a7c7f891b8041d5b8b175f3f1", "fusion_lon": 0.0, "bike_id": "de5bd68a7c7f891b8041d5b8b175f3f1", "is_disabled": 0, "is_reserved": 0}, {"rental_uris": {"ios": "https://dc.lft.to/lastmile_qr_scan", "android": "https://dc.lft.to/lastmile_qr_scan"}, "lon": -77.06507833333333, "type": "electric_bike", "fusion_lat": 0.0, "lat": 38.90451616666667, "name": "db1af1dec15d9cc8fab59f76e4a1f53e", "fusion_lon": 0.0, "bike_id": "db1af1dec15d9cc8fab59f76e4a1f53e", "is_disabled": 0, "is_reserved": 0}, {"rental_uris": {"ios": "https://dc.lft.to/lastmile_qr_scan", "android": "https://dc.lft.to/lastmile_qr_scan"}, "lon": -77.03262216666667, "type": "electric_scooter", "fusion_lat": 0.0, "lat": 38.93901433333333, "name": "da82ec222001f22577a860eed89dfbcb", "fusion_lon": 0.0, "bike_id": "da82ec222001f22577a860eed89dfbcb", "is_disabled": 0, "is_reserved": 0}, {"rental_uris": {"ios": "https://dc.lft.to/lastmile_qr_scan", "android": "https://dc.lft.to/lastmile_qr_scan"}, "lon": -76.97875416666666, "type": "electric_scooter", "fusion_lat": 0.0, "lat": 38.8850905, "name": "cd5587cb3dae5d986cc79aa1517eacdf", "fusion_lon": 0.0, "bike_id": "cd5587cb3dae5d986cc79aa1517eacdf", "is_disabled": 0, "is_reserved": 0}, {"rental_uris": {"ios": "https://dc.lft.to/lastmile_qr_scan", "android": "https://dc.lft.to/lastmile_qr_scan"}, "lon": -77.01084616666667, "type": "electric_scooter", "fusion_lat": 0.0, "lat": 38.89448866666667, "name": "f172fc1e5783e50108349a5116f0ded6", "fusion_lon": 0.0, "bike_id": "f172fc1e5783e50108349a5116f0ded6", "is_disabled": 0, "is_reserved": 0}, {"rental_uris": {"ios": "https://dc.lft.to/lastmile_qr_scan", "android": "https://dc.lft.to/lastmile_qr_scan"}, "lon": -76.9869775, "type": "electric_scooter", "fusion_lat": 0.0, "lat": 38.90705083333334, "name": "dcee391493ae5901de5226c527c8cd7a", "fusion_lon": 0.0, "bike_id": "dcee391493ae5901de5226c527c8cd7a", "is_disabled": 0, "is_reserved": 0}, {"rental_uris": {"ios": "https://dc.lft.to/lastmile_qr_scan", "android": "https://dc.lft.to/lastmile_qr_scan"}, "lon": -77.05271883333333, "type": "electric_scooter", "fusion_lat": 0.0, "lat": 38.92542866666667, "name": "9f7c57a31e1f5293c90372e13d2aafcb", "fusion_lon": 0.0, "bike_id": "9f7c57a31e1f5293c90372e13d2aafcb", "is_disabled": 0, "is_reserved": 0}, {"rental_uris": {"ios": "https://dc.lft.to/lastmile_qr_scan", "android": "https://dc.lft.to/lastmile_qr_scan"}, "lon": -77.02810783333334, "type": "electric_scooter", "fusion_lat": 0.0, "lat": 38.9104535, "name": "4c3750d39b135324f60b30bec3964da9", "fusion_lon": 0.0, "bike_id": "4c3750d39b135324f60b30bec3964da9", "is_disabled": 0, "is_reserved": 0}, {"rental_uris": {"ios": "https://dc.lft.to/lastmile_qr_scan", "android": "https://dc.lft.to/lastmile_qr_scan"}, "lon": -77.00204666666667, "type": "electric_bike", "fusion_lat": 0.0, "lat": 38.819399833333335, "name": "78a9772a39e130df40b4be977b7eaf1b", "fusion_lon": 0.0, "bike_id": "78a9772a39e130df40b4be977b7eaf1b", "is_disabled": 0, "is_reserved": 0}, {"rental_uris": {"ios": "https://dc.lft.to/lastmile_qr_scan", "android": "https://dc.lft.to/lastmile_qr_scan"}, "lon": -77.028267, "type": "electric_scooter", "fusion_lat": 0.0, "lat": 38.931931666666664, "name": "51b095ec7167ac511741e782c5bdf1d4", "fusion_lon": 0.0, "bike_id": "51b095ec7167ac511741e782c5bdf1d4", "is_disabled": 0, "is_reserved": 0}, {"rental_uris": {"ios": "https://dc.lft.to/lastmile_qr_scan", "android": "https://dc.lft.to/lastmile_qr_scan"}, "lon": -77.0474825, "type": "electric_scooter", "fusion_lat": 0.0, "lat": 38.901542666666664, "name": "f438a7cce0f708dbbeaae995048721cc", "fusion_lon": 0.0, "bike_id": "f438a7cce0f708dbbeaae995048721cc", "is_disabled": 0, "is_reserved": 0}, {"rental_uris": {"ios": "https://dc.lft.to/lastmile_qr_scan", "android": "https://dc.lft.to/lastmile_qr_scan"}, "lon": -77.0101185, "type": "electric_scooter", "fusion_lat": 0.0, "lat": 38.89481416666667, "name": "05d97316cf143b4232a9626b308bbb60", "fusion_lon": 0.0, "bike_id": "05d97316cf143b4232a9626b308bbb60", "is_disabled": 0, "is_reserved": 0}, {"rental_uris": {"ios": "https://dc.lft.to/lastmile_qr_scan", "android": "https://dc.lft.to/lastmile_qr_scan"}, "lon": -77.040552, "type": "electric_scooter", "fusion_lat": 0.0, "lat": 38.9025355, "name": "551b954f720658258b1e1c32a1f51db5", "fusion_lon": 0.0, "bike_id": "551b954f720658258b1e1c32a1f51db5", "is_disabled": 0, "is_reserved": 0}, {"rental_uris": {"ios": "https://dc.lft.to/lastmile_qr_scan", "android": "https://dc.lft.to/lastmile_qr_scan"}, "lon": -76.9885525, "type": "electric_scooter", "fusion_lat": 0.0, "lat": 38.832106, "name": "7bc606d48eb57cdf45d03055c87926ea", "fusion_lon": 0.0, "bike_id": "7bc606d48eb57cdf45d03055c87926ea", "is_disabled": 0, "is_reserved": 0}, {"rental_uris": {"ios": "https://dc.lft.to/lastmile_qr_scan", "android": "https://dc.lft.to/lastmile_qr_scan"}, "lon": -76.99275333333334, "type": "electric_scooter", "fusion_lat": 0.0, "lat": 38.921345, "name": "e54abc28c3b8b240c681d9a5a365b937", "fusion_lon": 0.0, "bike_id": "e54abc28c3b8b240c681d9a5a365b937", "is_disabled": 0, "is_reserved": 0}, {"rental_uris": {"ios": "https://dc.lft.to/lastmile_qr_scan", "android": "https://dc.lft.to/lastmile_qr_scan"}, "lon": -77.01684166666666, "type": "electric_bike", "fusion_lat": 0.0, "lat": 38.975244833333335, "name": "617bac10a1ef633524cef6e8128d97f4", "fusion_lon": 0.0, "bike_id": "617bac10a1ef633524cef6e8128d97f4", "is_disabled": 0, "is_reserved": 0}, {"rental_uris": {"ios": "https://dc.lft.to/lastmile_qr_scan", "android": "https://dc.lft.to/lastmile_qr_scan"}, "lon": -77.03184766666666, "type": "electric_scooter", "fusion_lat": 0.0, "lat": 38.899620666666664, "name": "7f21b371b5a33c718361ed2eea30190c", "fusion_lon": 0.0, "bike_id": "7f21b371b5a33c718361ed2eea30190c", "is_disabled": 0, "is_reserved": 0}, {"rental_uris": {"ios": "https://dc.lft.to/lastmile_qr_scan", "android": "https://dc.lft.to/lastmile_qr_scan"}, "lon": -77.0426315, "type": "electric_scooter", "fusion_lat": 0.0, "lat": 38.895904333333334, "name": "d56ba4cd8bc7c68ab0f38e5ca8f1fe53", "fusion_lon": 0.0, "bike_id": "d56ba4cd8bc7c68ab0f38e5ca8f1fe53", "is_disabled": 0, "is_reserved": 0}, {"rental_uris": {"ios": "https://dc.lft.to/lastmile_qr_scan", "android": "https://dc.lft.to/lastmile_qr_scan"}, "lon": -77.02416216666667, "type": "electric_scooter", "fusion_lat": 0.0, "lat": 38.92660433333333, "name": "63c811125b48f57f0b095b5bc707ef77", "fusion_lon": 0.0, "bike_id": "63c811125b48f57f0b095b5bc707ef77", "is_disabled": 0, "is_reserved": 0}, {"rental_uris": {"ios": "https://dc.lft.to/lastmile_qr_scan", "android": "https://dc.lft.to/lastmile_qr_scan"}, "lon": -77.06400833333333, "type": "electric_bike", "fusion_lat": 0.0, "lat": 38.843478166666664, "name": "f670a654beeff66901da9ac96665e9c0", "fusion_lon": 0.0, "bike_id": "f670a654beeff66901da9ac96665e9c0", "is_disabled": 0, "is_reserved": 0}, {"rental_uris": {"ios": "https://dc.lft.to/lastmile_qr_scan", "android": "https://dc.lft.to/lastmile_qr_scan"}, "lon": -77.053842, "type": "electric_scooter", "fusion_lat": 0.0, "lat": 38.902486833333334, "name": "94ab8bc84de0070b3bce633d75fdbbc4", "fusion_lon": 0.0, "bike_id": "94ab8bc84de0070b3bce633d75fdbbc4", "is_disabled": 0, "is_reserved": 0}, {"rental_uris": {"ios": "https://dc.lft.to/lastmile_qr_scan", "android": "https://dc.lft.to/lastmile_qr_scan"}, "lon": -77.12959566666666, "type": "electric_bike", "fusion_lat": 0.0, "lat": 38.852197, "name": "6d6698d1e2e4f00d0fc7f00568253b46", "fusion_lon": 0.0, "bike_id": "6d6698d1e2e4f00d0fc7f00568253b46", "is_disabled": 0, "is_reserved": 0}, {"rental_uris": {"ios": "https://dc.lft.to/lastmile_qr_scan", "android": "https://dc.lft.to/lastmile_qr_scan"}, "lon": -77.01972716666667, "type": "electric_scooter", "fusion_lat": 0.0, "lat": 38.87845433333333, "name": "e5e075ad6dd93af9a3792fcded16e174", "fusion_lon": 0.0, "bike_id": "e5e075ad6dd93af9a3792fcded16e174", "is_disabled": 0, "is_reserved": 0}, {"rental_uris": {"ios": "https://dc.lft.to/lastmile_qr_scan", "android": "https://dc.lft.to/lastmile_qr_scan"}, "lon": -77.05874566666667, "type": "electric_scooter", "fusion_lat": 0.0, "lat": 38.905298, "name": "3d1172178c69663c53548987ca78b123", "fusion_lon": 0.0, "bike_id": "3d1172178c69663c53548987ca78b123", "is_disabled": 0, "is_reserved": 0}, {"rental_uris": {"ios": "https://dc.lft.to/lastmile_qr_scan", "android": "https://dc.lft.to/lastmile_qr_scan"}, "lon": -76.97289666666667, "type": "electric_scooter", "fusion_lat": 0.0, "lat": 38.903393, "name": "81770d9fd7508ac3783919aa7c8e664e", "fusion_lon": 0.0, "bike_id": "81770d9fd7508ac3783919aa7c8e664e", "is_disabled": 0, "is_reserved": 0}, {"rental_uris": {"ios": "https://dc.lft.to/lastmile_qr_scan", "android": "https://dc.lft.to/lastmile_qr_scan"}, "lon": -76.99692966666667, "type": "electric_scooter", "fusion_lat": 0.0, "lat": 38.90072333333333, "name": "2c77cc33d3d5380a766e275a6397519c", "fusion_lon": 0.0, "bike_id": "2c77cc33d3d5380a766e275a6397519c", "is_disabled": 0, "is_reserved": 0}, {"rental_uris": {"ios": "https://dc.lft.to/lastmile_qr_scan", "android": "https://dc.lft.to/lastmile_qr_scan"}, "lon": -76.94736366666666, "type": "electric_scooter", "fusion_lat": 0.0, "lat": 38.9006845, "name": "29e464d4f63043e96abee9023f6312b0", "fusion_lon": 0.0, "bike_id": "29e464d4f63043e96abee9023f6312b0", "is_disabled": 0, "is_reserved": 0}, {"rental_uris": {"ios": "https://dc.lft.to/lastmile_qr_scan", "android": "https://dc.lft.to/lastmile_qr_scan"}, "lon": -77.00198516666667, "type": "electric_scooter", "fusion_lat": 0.0, "lat": 38.90026533333333, "name": "def4f40ac5fdeab7cc9dd9d628fd3b14", "fusion_lon": 0.0, "bike_id": "def4f40ac5fdeab7cc9dd9d628fd3b14", "is_disabled": 0, "is_reserved": 0}, {"rental_uris": {"ios": "https://dc.lft.to/lastmile_qr_scan", "android": "https://dc.lft.to/lastmile_qr_scan"}, "lon": -76.95984183333333, "type": "electric_scooter", "fusion_lat": 0.0, "lat": 38.8804385, "name": "5b2cf1fb55b532f2cd760341c99a92e7", "fusion_lon": 0.0, "bike_id": "5b2cf1fb55b532f2cd760341c99a92e7", "is_disabled": 0, "is_reserved": 0}, {"rental_uris": {"ios": "https://dc.lft.to/lastmile_qr_scan", "android": "https://dc.lft.to/lastmile_qr_scan"}, "lon": -77.04805166666667, "type": "electric_bike", "fusion_lat": 0.0, "lat": 38.88814266666667, "name": "ad1a52f6a88b913e6548e672aa46a9e2", "fusion_lon": 0.0, "bike_id": "ad1a52f6a88b913e6548e672aa46a9e2", "is_disabled": 0, "is_reserved": 0}, {"rental_uris": {"ios": "https://dc.lft.to/lastmile_qr_scan", "android": "https://dc.lft.to/lastmile_qr_scan"}, "lon": -76.98373466666666, "type": "electric_scooter", "fusion_lat": 0.0, "lat": 38.8955215, "name": "f56c882da84d699519b38ccca755f0b9", "fusion_lon": 0.0, "bike_id": "f56c882da84d699519b38ccca755f0b9", "is_disabled": 0, "is_reserved": 0}, {"rental_uris": {"ios": "https://dc.lft.to/lastmile_qr_scan", "android": "https://dc.lft.to/lastmile_qr_scan"}, "lon": -77.05472633333333, "type": "electric_scooter", "fusion_lat": 0.0, "lat": 38.893906666666666, "name": "cdb94e3bfbca09e8f58ee3612d7cbf64", "fusion_lon": 0.0, "bike_id": "cdb94e3bfbca09e8f58ee3612d7cbf64", "is_disabled": 0, "is_reserved": 0}, {"rental_uris": {"ios": "https://dc.lft.to/lastmile_qr_scan", "android": "https://dc.lft.to/lastmile_qr_scan"}, "lon": -76.9589685, "type": "electric_bike", "fusion_lat": 0.0, "lat": 38.985067666666666, "name": "dec1b5c59f2b57115f9b9a55008c23ed", "fusion_lon": 0.0, "bike_id": "dec1b5c59f2b57115f9b9a55008c23ed", "is_disabled": 0, "is_reserved": 0}, {"rental_uris": {"ios": "https://dc.lft.to/lastmile_qr_scan", "android": "https://dc.lft.to/lastmile_qr_scan"}, "lon": -77.02207883333334, "type": "electric_scooter", "fusion_lat": 0.0, "lat": 38.896057, "name": "2d8f321dee16bf8a217c6e2807753fae", "fusion_lon": 0.0, "bike_id": "2d8f321dee16bf8a217c6e2807753fae", "is_disabled": 0, "is_reserved": 0}, {"rental_uris": {"ios": "https://dc.lft.to/lastmile_qr_scan", "android": "https://dc.lft.to/lastmile_qr_scan"}, "lon": -76.93228666666667, "type": "electric_bike", "fusion_lat": 0.0, "lat": 38.865950833333336, "name": "37daa1fcdf596aaf24020ee9ea2f478d", "fusion_lon": 0.0, "bike_id": "37daa1fcdf596aaf24020ee9ea2f478d", "is_disabled": 0, "is_reserved": 0}, {"rental_uris": {"ios": "https://dc.lft.to/lastmile_qr_scan", "android": "https://dc.lft.to/lastmile_qr_scan"}, "lon": -77.02983683333333, "type": "electric_scooter", "fusion_lat": 0.0, "lat": 38.900402166666666, "name": "7e75372944030a2c18d57ea7682da7a3", "fusion_lon": 0.0, "bike_id": "7e75372944030a2c18d57ea7682da7a3", "is_disabled": 0, "is_reserved": 0}, {"rental_uris": {"ios": "https://dc.lft.to/lastmile_qr_scan", "android": "https://dc.lft.to/lastmile_qr_scan"}, "lon": -77.0140855, "type": "electric_scooter", "fusion_lat": 0.0, "lat": 38.920197333333334, "name": "bd9385f3975e42686a218f4cb8f9c27f", "fusion_lon": 0.0, "bike_id": "bd9385f3975e42686a218f4cb8f9c27f", "is_disabled": 0, "is_reserved": 0}, {"rental_uris": {"ios": "https://dc.lft.to/lastmile_qr_scan", "android": "https://dc.lft.to/lastmile_qr_scan"}, "lon": -77.02709316666666, "type": "electric_scooter", "fusion_lat": 0.0, "lat": 38.89928666666667, "name": "debdc3141ff41c4327688cdc27b6bbf6", "fusion_lon": 0.0, "bike_id": "debdc3141ff41c4327688cdc27b6bbf6", "is_disabled": 0, "is_reserved": 0}, {"rental_uris": {"ios": "https://dc.lft.to/lastmile_qr_scan", "android": "https://dc.lft.to/lastmile_qr_scan"}, "lon": -77.0395725, "type": "electric_scooter", "fusion_lat": 0.0, "lat": 38.919836833333335, "name": "71fc7c86ce65b8e237bf2d9b96162941", "fusion_lon": 0.0, "bike_id": "71fc7c86ce65b8e237bf2d9b96162941", "is_disabled": 0, "is_reserved": 0}, {"rental_uris": {"ios": "https://dc.lft.to/lastmile_qr_scan", "android": "https://dc.lft.to/lastmile_qr_scan"}, "lon": -76.94649916666667, "type": "electric_scooter", "fusion_lat": 0.0, "lat": 38.89825233333333, "name": "8162152ed362e144a531231d90271903", "fusion_lon": 0.0, "bike_id": "8162152ed362e144a531231d90271903", "is_disabled": 0, "is_reserved": 0}, {"rental_uris": {"ios": "https://dc.lft.to/lastmile_qr_scan", "android": "https://dc.lft.to/lastmile_qr_scan"}, "lon": -77.03216466666667, "type": "electric_scooter", "fusion_lat": 0.0, "lat": 38.9003955, "name": "5bca6a6280c6d76ba22412a8c48eab34", "fusion_lon": 0.0, "bike_id": "5bca6a6280c6d76ba22412a8c48eab34", "is_disabled": 0, "is_reserved": 0}, {"rental_uris": {"ios": "https://dc.lft.to/lastmile_qr_scan", "android": "https://dc.lft.to/lastmile_qr_scan"}, "lon": -77.0286925, "type": "electric_scooter", "fusion_lat": 0.0, "lat": 38.88290933333333, "name": "58888ab398c16b4e3a9bddc77eb94a30", "fusion_lon": 0.0, "bike_id": "58888ab398c16b4e3a9bddc77eb94a30", "is_disabled": 0, "is_reserved": 0}, {"rental_uris": {"ios": "https://dc.lft.to/lastmile_qr_scan", "android": "https://dc.lft.to/lastmile_qr_scan"}, "lon": -77.020721, "type": "electric_scooter", "fusion_lat": 0.0, "lat": 38.89971283333333, "name": "5436f02754e529d4fb7af167e385510d", "fusion_lon": 0.0, "bike_id": "5436f02754e529d4fb7af167e385510d", "is_disabled": 0, "is_reserved": 0}, {"rental_uris": {"ios": "https://dc.lft.to/lastmile_qr_scan", "android": "https://dc.lft.to/lastmile_qr_scan"}, "lon": -76.97662833333334, "type": "electric_bike", "fusion_lat": 0.0, "lat": 38.96624416666667, "name": "29f6a8904f383a3bb3072c05b04e5c11", "fusion_lon": 0.0, "bike_id": "29f6a8904f383a3bb3072c05b04e5c11", "is_disabled": 0, "is_reserved": 0}, {"rental_uris": {"ios": "https://dc.lft.to/lastmile_qr_scan", "android": "https://dc.lft.to/lastmile_qr_scan"}, "lon": -77.02714433333334, "type": "electric_scooter", "fusion_lat": 0.0, "lat": 38.91804166666667, "name": "cf87daea39fef2a47f04596822fdab56", "fusion_lon": 0.0, "bike_id": "cf87daea39fef2a47f04596822fdab56", "is_disabled": 0, "is_reserved": 0}, {"rental_uris": {"ios": "https://dc.lft.to/lastmile_qr_scan", "android": "https://dc.lft.to/lastmile_qr_scan"}, "lon": -76.98491016666667, "type": "electric_scooter", "fusion_lat": 0.0, "lat": 38.860461, "name": "7b5b44d1dd4293067eef00d15384395c", "fusion_lon": 0.0, "bike_id": "7b5b44d1dd4293067eef00d15384395c", "is_disabled": 0, "is_reserved": 0}, {"rental_uris": {"ios": "https://dc.lft.to/lastmile_qr_scan", "android": "https://dc.lft.to/lastmile_qr_scan"}, "lon": -77.10088716666667, "type": "electric_bike", "fusion_lat": 0.0, "lat": 38.959579833333336, "name": "329aece80fb2c1c5feca4f5ea3a06b20", "fusion_lon": 0.0, "bike_id": "329aece80fb2c1c5feca4f5ea3a06b20", "is_disabled": 0, "is_reserved": 0}, {"rental_uris": {"ios": "https://dc.lft.to/lastmile_qr_scan", "android": "https://dc.lft.to/lastmile_qr_scan"}, "lon": -77.02706366666666, "type": "electric_scooter", "fusion_lat": 0.0, "lat": 38.918194666666665, "name": "9df3e37284f0bd856fb0e7bf515dbdea", "fusion_lon": 0.0, "bike_id": "9df3e37284f0bd856fb0e7bf515dbdea", "is_disabled": 0, "is_reserved": 0}, {"rental_uris": {"ios": "https://dc.lft.to/lastmile_qr_scan", "android": "https://dc.lft.to/lastmile_qr_scan"}, "lon": -76.97885816666667, "type": "electric_scooter", "fusion_lat": 0.0, "lat": 38.904224166666665, "name": "ce30331ad41d94f8e0538aa7142b201a", "fusion_lon": 0.0, "bike_id": "ce30331ad41d94f8e0538aa7142b201a", "is_disabled": 0, "is_reserved": 0}, {"rental_uris": {"ios": "https://dc.lft.to/lastmile_qr_scan", "android": "https://dc.lft.to/lastmile_qr_scan"}, "lon": -77.03713183333333, "type": "electric_scooter", "fusion_lat": 0.0, "lat": 38.928274333333334, "name": "7586b40f4c9f2de73ed53a37c017daa8", "fusion_lon": 0.0, "bike_id": "7586b40f4c9f2de73ed53a37c017daa8", "is_disabled": 0, "is_reserved": 0}, {"rental_uris": {"ios": "https://dc.lft.to/lastmile_qr_scan", "android": "https://dc.lft.to/lastmile_qr_scan"}, "lon": -76.9959545, "type": "electric_scooter", "fusion_lat": 0.0, "lat": 38.8454215, "name": "a0f444ed19ce1d07d9bca0cf09151ae8", "fusion_lon": 0.0, "bike_id": "a0f444ed19ce1d07d9bca0cf09151ae8", "is_disabled": 0, "is_reserved": 0}, {"rental_uris": {"ios": "https://dc.lft.to/lastmile_qr_scan", "android": "https://dc.lft.to/lastmile_qr_scan"}, "lon": -77.0152505, "type": "electric_scooter", "fusion_lat": 0.0, "lat": 38.901986, "name": "cea6f2e4d48c138b75210fabd14113dd", "fusion_lon": 0.0, "bike_id": "cea6f2e4d48c138b75210fabd14113dd", "is_disabled": 0, "is_reserved": 0}, {"rental_uris": {"ios": "https://dc.lft.to/lastmile_qr_scan", "android": "https://dc.lft.to/lastmile_qr_scan"}, "lon": -76.987424, "type": "electric_bike", "fusion_lat": 0.0, "lat": 38.8579075, "name": "56519bfae38ae3679eacb9512bd490a4", "fusion_lon": 0.0, "bike_id": "56519bfae38ae3679eacb9512bd490a4", "is_disabled": 0, "is_reserved": 0}, {"rental_uris": {"ios": "https://dc.lft.to/lastmile_qr_scan", "android": "https://dc.lft.to/lastmile_qr_scan"}, "lon": -77.03837883333334, "type": "electric_scooter", "fusion_lat": 0.0, "lat": 38.931147333333335, "name": "7d10480975c46ce19077a8b283ae59b6", "fusion_lon": 0.0, "bike_id": "7d10480975c46ce19077a8b283ae59b6", "is_disabled": 0, "is_reserved": 0}, {"rental_uris": {"ios": "https://dc.lft.to/lastmile_qr_scan", "android": "https://dc.lft.to/lastmile_qr_scan"}, "lon": -77.01385766666667, "type": "electric_scooter", "fusion_lat": 0.0, "lat": 38.970162, "name": "c8d9201fbda013e854a8e949a46af250", "fusion_lon": 0.0, "bike_id": "c8d9201fbda013e854a8e949a46af250", "is_disabled": 0, "is_reserved": 0}, {"rental_uris": {"ios": "https://dc.lft.to/lastmile_qr_scan", "android": "https://dc.lft.to/lastmile_qr_scan"}, "lon": -77.0387165, "type": "electric_scooter", "fusion_lat": 0.0, "lat": 38.9051795, "name": "73bc3027bfb633e868d0110080d183b7", "fusion_lon": 0.0, "bike_id": "73bc3027bfb633e868d0110080d183b7", "is_disabled": 0, "is_reserved": 0}, {"rental_uris": {"ios": "https://dc.lft.to/lastmile_qr_scan", "android": "https://dc.lft.to/lastmile_qr_scan"}, "lon": -77.02042283333333, "type": "electric_scooter", "fusion_lat": 0.0, "lat": 38.915571166666666, "name": "2c39cf66e3d6608352d46a034d88b771", "fusion_lon": 0.0, "bike_id": "2c39cf66e3d6608352d46a034d88b771", "is_disabled": 0, "is_reserved": 0}, {"rental_uris": {"ios": "https://dc.lft.to/lastmile_qr_scan", "android": "https://dc.lft.to/lastmile_qr_scan"}, "lon": -77.031683, "type": "electric_scooter", "fusion_lat": 0.0, "lat": 38.9133895, "name": "9b5a292c67a3ccecf9f3b070e715b5a3", "fusion_lon": 0.0, "bike_id": "9b5a292c67a3ccecf9f3b070e715b5a3", "is_disabled": 0, "is_reserved": 0}, {"rental_uris": {"ios": "https://dc.lft.to/lastmile_qr_scan", "android": "https://dc.lft.to/lastmile_qr_scan"}, "lon": -77.045391, "type": "electric_scooter", "fusion_lat": 0.0, "lat": 38.91323366666667, "name": "40f143c83f38d036bdd21b6d86de3f47", "fusion_lon": 0.0, "bike_id": "40f143c83f38d036bdd21b6d86de3f47", "is_disabled": 0, "is_reserved": 0}, {"rental_uris": {"ios": "https://dc.lft.to/lastmile_qr_scan", "android": "https://dc.lft.to/lastmile_qr_scan"}, "lon": -77.0425615, "type": "electric_scooter", "fusion_lat": 0.0, "lat": 38.915912666666664, "name": "01b3f23c5c8abd22cd5f8856c3301364", "fusion_lon": 0.0, "bike_id": "01b3f23c5c8abd22cd5f8856c3301364", "is_disabled": 0, "is_reserved": 0}, {"rental_uris": {"ios": "https://dc.lft.to/lastmile_qr_scan", "android": "https://dc.lft.to/lastmile_qr_scan"}, "lon": -76.986104, "type": "electric_scooter", "fusion_lat": 0.0, "lat": 38.868350666666664, "name": "776f726857d50e94fae513b90b42e656", "fusion_lon": 0.0, "bike_id": "776f726857d50e94fae513b90b42e656", "is_disabled": 0, "is_reserved": 0}, {"rental_uris": {"ios": "https://dc.lft.to/lastmile_qr_scan", "android": "https://dc.lft.to/lastmile_qr_scan"}, "lon": -77.0371115, "type": "electric_scooter", "fusion_lat": 0.0, "lat": 38.90559966666667, "name": "152f8fdd6ef97cbc0ff9a5a57cb62838", "fusion_lon": 0.0, "bike_id": "152f8fdd6ef97cbc0ff9a5a57cb62838", "is_disabled": 0, "is_reserved": 0}, {"rental_uris": {"ios": "https://dc.lft.to/lastmile_qr_scan", "android": "https://dc.lft.to/lastmile_qr_scan"}, "lon": -77.05885316666667, "type": "electric_scooter", "fusion_lat": 0.0, "lat": 38.93639566666667, "name": "81e2adc563f750f346cb1fcd84b0acff", "fusion_lon": 0.0, "bike_id": "81e2adc563f750f346cb1fcd84b0acff", "is_disabled": 0, "is_reserved": 0}, {"rental_uris": {"ios": "https://dc.lft.to/lastmile_qr_scan", "android": "https://dc.lft.to/lastmile_qr_scan"}, "lon": -77.02215183333334, "type": "electric_scooter", "fusion_lat": 0.0, "lat": 38.938687333333334, "name": "8e69e841c9bfc599b2d99f7e5aef0fc9", "fusion_lon": 0.0, "bike_id": "8e69e841c9bfc599b2d99f7e5aef0fc9", "is_disabled": 0, "is_reserved": 0}, {"rental_uris": {"ios": "https://dc.lft.to/lastmile_qr_scan", "android": "https://dc.lft.to/lastmile_qr_scan"}, "lon": -77.02158483333334, "type": "electric_scooter", "fusion_lat": 0.0, "lat": 38.9261415, "name": "19cc53cc612689cc7e329e0570d0e363", "fusion_lon": 0.0, "bike_id": "19cc53cc612689cc7e329e0570d0e363", "is_disabled": 0, "is_reserved": 0}, {"rental_uris": {"ios": "https://dc.lft.to/lastmile_qr_scan", "android": "https://dc.lft.to/lastmile_qr_scan"}, "lon": -77.02084483333333, "type": "electric_scooter", "fusion_lat": 0.0, "lat": 38.89219816666667, "name": "8ba4c64fc753b4474b14e8f669ed3bae", "fusion_lon": 0.0, "bike_id": "8ba4c64fc753b4474b14e8f669ed3bae", "is_disabled": 0, "is_reserved": 0}, {"rental_uris": {"ios": "https://dc.lft.to/lastmile_qr_scan", "android": "https://dc.lft.to/lastmile_qr_scan"}, "lon": -77.02870633333333, "type": "electric_scooter", "fusion_lat": 0.0, "lat": 38.91696233333333, "name": "01e515e7b5c40583bd08d5cc3f08e294", "fusion_lon": 0.0, "bike_id": "01e515e7b5c40583bd08d5cc3f08e294", "is_disabled": 0, "is_reserved": 0}, {"rental_uris": {"ios": "https://dc.lft.to/lastmile_qr_scan", "android": "https://dc.lft.to/lastmile_qr_scan"}, "lon": -76.995203, "type": "electric_scooter", "fusion_lat": 0.0, "lat": 38.9212135, "name": "97746bed2e658c228e2ae77e99dc8cb2", "fusion_lon": 0.0, "bike_id": "97746bed2e658c228e2ae77e99dc8cb2", "is_disabled": 0, "is_reserved": 0}, {"rental_uris": {"ios": "https://dc.lft.to/lastmile_qr_scan", "android": "https://dc.lft.to/lastmile_qr_scan"}, "lon": -77.04496266666666, "type": "electric_scooter", "fusion_lat": 0.0, "lat": 38.91190866666667, "name": "cf8f2769096e61ce41157cbb961eb04a", "fusion_lon": 0.0, "bike_id": "cf8f2769096e61ce41157cbb961eb04a", "is_disabled": 0, "is_reserved": 0}, {"rental_uris": {"ios": "https://dc.lft.to/lastmile_qr_scan", "android": "https://dc.lft.to/lastmile_qr_scan"}, "lon": -77.03102266666667, "type": "electric_scooter", "fusion_lat": 0.0, "lat": 38.914191333333335, "name": "0d092314e782215d1c215be29e6e850f", "fusion_lon": 0.0, "bike_id": "0d092314e782215d1c215be29e6e850f", "is_disabled": 0, "is_reserved": 0}, {"rental_uris": {"ios": "https://dc.lft.to/lastmile_qr_scan", "android": "https://dc.lft.to/lastmile_qr_scan"}, "lon": -77.024843, "type": "electric_scooter", "fusion_lat": 0.0, "lat": 38.917016333333336, "name": "08489c3d79f5aa318051f2cfac9f02a5", "fusion_lon": 0.0, "bike_id": "08489c3d79f5aa318051f2cfac9f02a5", "is_disabled": 0, "is_reserved": 0}, {"rental_uris": {"ios": "https://dc.lft.to/lastmile_qr_scan", "android": "https://dc.lft.to/lastmile_qr_scan"}, "lon": -77.04864366666666, "type": "electric_scooter", "fusion_lat": 0.0, "lat": 38.908529, "name": "8376715765478a068b4a72bcc1407607", "fusion_lon": 0.0, "bike_id": "8376715765478a068b4a72bcc1407607", "is_disabled": 0, "is_reserved": 0}, {"rental_uris": {"ios": "https://dc.lft.to/lastmile_qr_scan", "android": "https://dc.lft.to/lastmile_qr_scan"}, "lon": -77.06087416666666, "type": "electric_scooter", "fusion_lat": 0.0, "lat": 38.9127135, "name": "213e7243d9d4ebce269fcc3d6e4789ea", "fusion_lon": 0.0, "bike_id": "213e7243d9d4ebce269fcc3d6e4789ea", "is_disabled": 0, "is_reserved": 0}, {"rental_uris": {"ios": "https://dc.lft.to/lastmile_qr_scan", "android": "https://dc.lft.to/lastmile_qr_scan"}, "lon": -77.0322265, "type": "electric_scooter", "fusion_lat": 0.0, "lat": 38.926723, "name": "a72f6b558eeadd4fcadac1a0d396d955", "fusion_lon": 0.0, "bike_id": "a72f6b558eeadd4fcadac1a0d396d955", "is_disabled": 0, "is_reserved": 0}, {"rental_uris": {"ios": "https://dc.lft.to/lastmile_qr_scan", "android": "https://dc.lft.to/lastmile_qr_scan"}, "lon": -77.00522033333333, "type": "electric_scooter", "fusion_lat": 0.0, "lat": 38.90271466666667, "name": "65236d27019bbc4dfbec516e3227cbb7", "fusion_lon": 0.0, "bike_id": "65236d27019bbc4dfbec516e3227cbb7", "is_disabled": 0, "is_reserved": 0}, {"rental_uris": {"ios": "https://dc.lft.to/lastmile_qr_scan", "android": "https://dc.lft.to/lastmile_qr_scan"}, "lon": -77.058105, "type": "electric_scooter", "fusion_lat": 0.0, "lat": 38.934521833333335, "name": "0cad2dd83fef1301110c25d6c84fbe78", "fusion_lon": 0.0, "bike_id": "0cad2dd83fef1301110c25d6c84fbe78", "is_disabled": 0, "is_reserved": 0}, {"rental_uris": {"ios": "https://dc.lft.to/lastmile_qr_scan", "android": "https://dc.lft.to/lastmile_qr_scan"}, "lon": -77.02336233333334, "type": "electric_scooter", "fusion_lat": 0.0, "lat": 38.925137666666664, "name": "5eb36156f80f7f8f5bd396b234324c28", "fusion_lon": 0.0, "bike_id": "5eb36156f80f7f8f5bd396b234324c28", "is_disabled": 0, "is_reserved": 0}, {"rental_uris": {"ios": "https://dc.lft.to/lastmile_qr_scan", "android": "https://dc.lft.to/lastmile_qr_scan"}, "lon": -77.00891033333333, "type": "electric_scooter", "fusion_lat": 0.0, "lat": 38.91420033333333, "name": "55b1c8e2eb74c2cad16a98c9b5a4695e", "fusion_lon": 0.0, "bike_id": "55b1c8e2eb74c2cad16a98c9b5a4695e", "is_disabled": 0, "is_reserved": 0}, {"rental_uris": {"ios": "https://dc.lft.to/lastmile_qr_scan", "android": "https://dc.lft.to/lastmile_qr_scan"}, "lon": -77.0351905, "type": "electric_scooter", "fusion_lat": 0.0, "lat": 38.936021833333335, "name": "81e0b045dfe669b2c8a98bf30b425e16", "fusion_lon": 0.0, "bike_id": "81e0b045dfe669b2c8a98bf30b425e16", "is_disabled": 0, "is_reserved": 0}, {"rental_uris": {"ios": "https://dc.lft.to/lastmile_qr_scan", "android": "https://dc.lft.to/lastmile_qr_scan"}, "lon": -76.9740055, "type": "electric_scooter", "fusion_lat": 0.0, "lat": 38.90161033333333, "name": "6ed68ecae31206610fb27fda64a58ff9", "fusion_lon": 0.0, "bike_id": "6ed68ecae31206610fb27fda64a58ff9", "is_disabled": 0, "is_reserved": 0}, {"rental_uris": {"ios": "https://dc.lft.to/lastmile_qr_scan", "android": "https://dc.lft.to/lastmile_qr_scan"}, "lon": -76.93713983333333, "type": "electric_scooter", "fusion_lat": 0.0, "lat": 38.895866166666664, "name": "ef7a2b4055513684953c4d40864abbe7", "fusion_lon": 0.0, "bike_id": "ef7a2b4055513684953c4d40864abbe7", "is_disabled": 0, "is_reserved": 0}, {"rental_uris": {"ios": "https://dc.lft.to/lastmile_qr_scan", "android": "https://dc.lft.to/lastmile_qr_scan"}, "lon": -77.04110866666667, "type": "electric_scooter", "fusion_lat": 0.0, "lat": 38.924422166666666, "name": "6491d2832ea64b465e3c5ab5b3048982", "fusion_lon": 0.0, "bike_id": "6491d2832ea64b465e3c5ab5b3048982", "is_disabled": 0, "is_reserved": 0}, {"rental_uris": {"ios": "https://dc.lft.to/lastmile_qr_scan", "android": "https://dc.lft.to/lastmile_qr_scan"}, "lon": -76.97490433333333, "type": "electric_bike", "fusion_lat": 0.0, "lat": 38.92009433333333, "name": "06c60dbbacff1ce6cb5f29b23e400024", "fusion_lon": 0.0, "bike_id": "06c60dbbacff1ce6cb5f29b23e400024", "is_disabled": 0, "is_reserved": 0}, {"rental_uris": {"ios": "https://dc.lft.to/lastmile_qr_scan", "android": "https://dc.lft.to/lastmile_qr_scan"}, "lon": -77.02594433333333, "type": "electric_scooter", "fusion_lat": 0.0, "lat": 38.892654, "name": "948591a847076e49c5ab9355509df218", "fusion_lon": 0.0, "bike_id": "948591a847076e49c5ab9355509df218", "is_disabled": 0, "is_reserved": 0}, {"rental_uris": {"ios": "https://dc.lft.to/lastmile_qr_scan", "android": "https://dc.lft.to/lastmile_qr_scan"}, "lon": -77.00347283333333, "type": "electric_scooter", "fusion_lat": 0.0, "lat": 38.908169666666666, "name": "3a42468f5a83c9a7d3139911300a2908", "fusion_lon": 0.0, "bike_id": "3a42468f5a83c9a7d3139911300a2908", "is_disabled": 0, "is_reserved": 0}, {"rental_uris": {"ios": "https://dc.lft.to/lastmile_qr_scan", "android": "https://dc.lft.to/lastmile_qr_scan"}, "lon": -77.011188, "type": "electric_scooter", "fusion_lat": 0.0, "lat": 38.894982, "name": "e0076d65ab93755853ec53f5f897a786", "fusion_lon": 0.0, "bike_id": "e0076d65ab93755853ec53f5f897a786", "is_disabled": 0, "is_reserved": 0}, {"rental_uris": {"ios": "https://dc.lft.to/lastmile_qr_scan", "android": "https://dc.lft.to/lastmile_qr_scan"}, "lon": -76.97554383333333, "type": "electric_scooter", "fusion_lat": 0.0, "lat": 38.90442, "name": "1164bd148b023906bdf8d41ba566252a", "fusion_lon": 0.0, "bike_id": "1164bd148b023906bdf8d41ba566252a", "is_disabled": 0, "is_reserved": 0}, {"rental_uris": {"ios": "https://dc.lft.to/lastmile_qr_scan", "android": "https://dc.lft.to/lastmile_qr_scan"}, "lon": -76.97799499999999, "type": "electric_scooter", "fusion_lat": 0.0, "lat": 38.903153833333334, "name": "89eea098a55fe7dd62a3d10af208112e", "fusion_lon": 0.0, "bike_id": "89eea098a55fe7dd62a3d10af208112e", "is_disabled": 0, "is_reserved": 0}, {"rental_uris": {"ios": "https://dc.lft.to/lastmile_qr_scan", "android": "https://dc.lft.to/lastmile_qr_scan"}, "lon": -76.98890066666667, "type": "electric_scooter", "fusion_lat": 0.0, "lat": 38.8665765, "name": "c933d01ef7c36f0829e35ea25a440a2c", "fusion_lon": 0.0, "bike_id": "c933d01ef7c36f0829e35ea25a440a2c", "is_disabled": 0, "is_reserved": 0}, {"rental_uris": {"ios": "https://dc.lft.to/lastmile_qr_scan", "android": "https://dc.lft.to/lastmile_qr_scan"}, "lon": -76.98578783333333, "type": "electric_scooter", "fusion_lat": 0.0, "lat": 38.8616135, "name": "e8f376874e706d9f09c58abf6ef8ade4", "fusion_lon": 0.0, "bike_id": "e8f376874e706d9f09c58abf6ef8ade4", "is_disabled": 0, "is_reserved": 0}, {"rental_uris": {"ios": "https://dc.lft.to/lastmile_qr_scan", "android": "https://dc.lft.to/lastmile_qr_scan"}, "lon": -76.99765733333334, "type": "electric_bike", "fusion_lat": 0.0, "lat": 38.909299, "name": "a112fb4ad128c96f196548a63fc0df7d", "fusion_lon": 0.0, "bike_id": "a112fb4ad128c96f196548a63fc0df7d", "is_disabled": 0, "is_reserved": 0}, {"rental_uris": {"ios": "https://dc.lft.to/lastmile_qr_scan", "android": "https://dc.lft.to/lastmile_qr_scan"}, "lon": -77.023218, "type": "electric_scooter", "fusion_lat": 0.0, "lat": 38.8788335, "name": "d76a94e1611e3cc58d8f2c61608516ca", "fusion_lon": 0.0, "bike_id": "d76a94e1611e3cc58d8f2c61608516ca", "is_disabled": 0, "is_reserved": 0}, {"rental_uris": {"ios": "https://dc.lft.to/lastmile_qr_scan", "android": "https://dc.lft.to/lastmile_qr_scan"}, "lon": -77.04473633333333, "type": "electric_scooter", "fusion_lat": 0.0, "lat": 38.89672616666667, "name": "1200b1e39d6de6520e9daf45074ba30f", "fusion_lon": 0.0, "bike_id": "1200b1e39d6de6520e9daf45074ba30f", "is_disabled": 0, "is_reserved": 0}, {"rental_uris": {"ios": "https://dc.lft.to/lastmile_qr_scan", "android": "https://dc.lft.to/lastmile_qr_scan"}, "lon": -77.00515583333333, "type": "electric_scooter", "fusion_lat": 0.0, "lat": 38.87472233333333, "name": "88d074e5c6b4949b3118441f5f973bce", "fusion_lon": 0.0, "bike_id": "88d074e5c6b4949b3118441f5f973bce", "is_disabled": 0, "is_reserved": 0}, {"rental_uris": {"ios": "https://dc.lft.to/lastmile_qr_scan", "android": "https://dc.lft.to/lastmile_qr_scan"}, "lon": -77.0818325, "type": "electric_scooter", "fusion_lat": 0.0, "lat": 38.92006666666666, "name": "92b384294da5c63b66be70c387379879", "fusion_lon": 0.0, "bike_id": "92b384294da5c63b66be70c387379879", "is_disabled": 0, "is_reserved": 0}, {"rental_uris": {"ios": "https://dc.lft.to/lastmile_qr_scan", "android": "https://dc.lft.to/lastmile_qr_scan"}, "lon": -76.97820566666667, "type": "electric_scooter", "fusion_lat": 0.0, "lat": 38.89518783333333, "name": "21206517f899b2e0b37ab5842fe301de", "fusion_lon": 0.0, "bike_id": "21206517f899b2e0b37ab5842fe301de", "is_disabled": 0, "is_reserved": 0}, {"rental_uris": {"ios": "https://dc.lft.to/lastmile_qr_scan", "android": "https://dc.lft.to/lastmile_qr_scan"}, "lon": -77.025053, "type": "electric_scooter", "fusion_lat": 0.0, "lat": 38.90720433333333, "name": "c17f482f101471d2673b78b97698d7c1", "fusion_lon": 0.0, "bike_id": "c17f482f101471d2673b78b97698d7c1", "is_disabled": 0, "is_reserved": 0}, {"rental_uris": {"ios": "https://dc.lft.to/lastmile_qr_scan", "android": "https://dc.lft.to/lastmile_qr_scan"}, "lon": -77.03322516666667, "type": "electric_scooter", "fusion_lat": 0.0, "lat": 38.901505, "name": "77e2951ea7395137b68d5baf893772cf", "fusion_lon": 0.0, "bike_id": "77e2951ea7395137b68d5baf893772cf", "is_disabled": 0, "is_reserved": 0}, {"rental_uris": {"ios": "https://dc.lft.to/lastmile_qr_scan", "android": "https://dc.lft.to/lastmile_qr_scan"}, "lon": -76.97426666666667, "type": "electric_bike", "fusion_lat": 0.0, "lat": 38.93209233333333, "name": "064edf597ae6121b3053670fbd7f2b42", "fusion_lon": 0.0, "bike_id": "064edf597ae6121b3053670fbd7f2b42", "is_disabled": 0, "is_reserved": 0}, {"rental_uris": {"ios": "https://dc.lft.to/lastmile_qr_scan", "android": "https://dc.lft.to/lastmile_qr_scan"}, "lon": -77.02394833333334, "type": "electric_scooter", "fusion_lat": 0.0, "lat": 38.8991685, "name": "be33b81daf755663425a8d2efd47d113", "fusion_lon": 0.0, "bike_id": "be33b81daf755663425a8d2efd47d113", "is_disabled": 0, "is_reserved": 0}, {"rental_uris": {"ios": "https://dc.lft.to/lastmile_qr_scan", "android": "https://dc.lft.to/lastmile_qr_scan"}, "lon": -77.01675566666667, "type": "electric_scooter", "fusion_lat": 0.0, "lat": 38.904885166666666, "name": "5462c5ef3d16387b5589eab917473553", "fusion_lon": 0.0, "bike_id": "5462c5ef3d16387b5589eab917473553", "is_disabled": 0, "is_reserved": 0}, {"rental_uris": {"ios": "https://dc.lft.to/lastmile_qr_scan", "android": "https://dc.lft.to/lastmile_qr_scan"}, "lon": -77.04239083333333, "type": "electric_scooter", "fusion_lat": 0.0, "lat": 38.92207833333333, "name": "fd57ca58db456323415ea34f21d7b3b0", "fusion_lon": 0.0, "bike_id": "fd57ca58db456323415ea34f21d7b3b0", "is_disabled": 0, "is_reserved": 0}, {"rental_uris": {"ios": "https://dc.lft.to/lastmile_qr_scan", "android": "https://dc.lft.to/lastmile_qr_scan"}, "lon": -76.94999583333333, "type": "electric_scooter", "fusion_lat": 0.0, "lat": 38.89374633333333, "name": "fa8b1a2bd81c86c0f684ffdd28f57fb3", "fusion_lon": 0.0, "bike_id": "fa8b1a2bd81c86c0f684ffdd28f57fb3", "is_disabled": 0, "is_reserved": 0}, {"rental_uris": {"ios": "https://dc.lft.to/lastmile_qr_scan", "android": "https://dc.lft.to/lastmile_qr_scan"}, "lon": -77.18289766666666, "type": "electric_bike", "fusion_lat": 0.0, "lat": 38.883487833333334, "name": "c793d240c8b260f9807806f14bf519eb", "fusion_lon": 0.0, "bike_id": "c793d240c8b260f9807806f14bf519eb", "is_disabled": 0, "is_reserved": 0}, {"rental_uris": {"ios": "https://dc.lft.to/lastmile_qr_scan", "android": "https://dc.lft.to/lastmile_qr_scan"}, "lon": -77.07133166666667, "type": "electric_scooter", "fusion_lat": 0.0, "lat": 38.92728366666667, "name": "de649cee0e1102e1c98667ab6009bec0", "fusion_lon": 0.0, "bike_id": "de649cee0e1102e1c98667ab6009bec0", "is_disabled": 0, "is_reserved": 0}, {"rental_uris": {"ios": "https://dc.lft.to/lastmile_qr_scan", "android": "https://dc.lft.to/lastmile_qr_scan"}, "lon": -77.03206083333333, "type": "electric_scooter", "fusion_lat": 0.0, "lat": 38.911861333333334, "name": "5f089a5d1fa6f15c99b61859c73616db", "fusion_lon": 0.0, "bike_id": "5f089a5d1fa6f15c99b61859c73616db", "is_disabled": 0, "is_reserved": 0}, {"rental_uris": {"ios": "https://dc.lft.to/lastmile_qr_scan", "android": "https://dc.lft.to/lastmile_qr_scan"}, "lon": -77.010201, "type": "electric_scooter", "fusion_lat": 0.0, "lat": 38.8950305, "name": "c7029f9cc553cee34dc63f2453181eba", "fusion_lon": 0.0, "bike_id": "c7029f9cc553cee34dc63f2453181eba", "is_disabled": 0, "is_reserved": 0}, {"rental_uris": {"ios": "https://dc.lft.to/lastmile_qr_scan", "android": "https://dc.lft.to/lastmile_qr_scan"}, "lon": -76.99142883333333, "type": "electric_scooter", "fusion_lat": 0.0, "lat": 38.90040966666667, "name": "457525b1771219cb9e76933541246858", "fusion_lon": 0.0, "bike_id": "457525b1771219cb9e76933541246858", "is_disabled": 0, "is_reserved": 0}, {"rental_uris": {"ios": "https://dc.lft.to/lastmile_qr_scan", "android": "https://dc.lft.to/lastmile_qr_scan"}, "lon": -77.13593516666667, "type": "electric_bike", "fusion_lat": 0.0, "lat": 39.05347583333333, "name": "6526348f7882c8cddeaf93c4123b9531", "fusion_lon": 0.0, "bike_id": "6526348f7882c8cddeaf93c4123b9531", "is_disabled": 0, "is_reserved": 0}, {"rental_uris": {"ios": "https://dc.lft.to/lastmile_qr_scan", "android": "https://dc.lft.to/lastmile_qr_scan"}, "lon": -77.02203766666666, "type": "electric_scooter", "fusion_lat": 0.0, "lat": 38.8873375, "name": "4731612b6247d40ee473dca0ce528c41", "fusion_lon": 0.0, "bike_id": "4731612b6247d40ee473dca0ce528c41", "is_disabled": 0, "is_reserved": 0}, {"rental_uris": {"ios": "https://dc.lft.to/lastmile_qr_scan", "android": "https://dc.lft.to/lastmile_qr_scan"}, "lon": -76.987169, "type": "electric_scooter", "fusion_lat": 0.0, "lat": 38.862628666666666, "name": "6f7e0331057a3b3d0e76d939d014e998", "fusion_lon": 0.0, "bike_id": "6f7e0331057a3b3d0e76d939d014e998", "is_disabled": 0, "is_reserved": 0}, {"rental_uris": {"ios": "https://dc.lft.to/lastmile_qr_scan", "android": "https://dc.lft.to/lastmile_qr_scan"}, "lon": -77.07883433333333, "type": "electric_scooter", "fusion_lat": 0.0, "lat": 38.931534, "name": "d14341c0eed7916123006f7f682c1fe4", "fusion_lon": 0.0, "bike_id": "d14341c0eed7916123006f7f682c1fe4", "is_disabled": 0, "is_reserved": 0}, {"rental_uris": {"ios": "https://dc.lft.to/lastmile_qr_scan", "android": "https://dc.lft.to/lastmile_qr_scan"}, "lon": -77.04173316666666, "type": "electric_scooter", "fusion_lat": 0.0, "lat": 38.90054816666667, "name": "9774bd6d2a6843fd41f51576156748bc", "fusion_lon": 0.0, "bike_id": "9774bd6d2a6843fd41f51576156748bc", "is_disabled": 0, "is_reserved": 0}, {"rental_uris": {"ios": "https://dc.lft.to/lastmile_qr_scan", "android": "https://dc.lft.to/lastmile_qr_scan"}, "lon": -77.01248516666666, "type": "electric_scooter", "fusion_lat": 0.0, "lat": 38.899642166666666, "name": "cfccfc9a26047f58f19fe0bf385532fe", "fusion_lon": 0.0, "bike_id": "cfccfc9a26047f58f19fe0bf385532fe", "is_disabled": 0, "is_reserved": 0}, {"rental_uris": {"ios": "https://dc.lft.to/lastmile_qr_scan", "android": "https://dc.lft.to/lastmile_qr_scan"}, "lon": -77.03931666666666, "type": "electric_scooter", "fusion_lat": 0.0, "lat": 38.92496716666667, "name": "330e51b5f7877c458f5f2629ccb03684", "fusion_lon": 0.0, "bike_id": "330e51b5f7877c458f5f2629ccb03684", "is_disabled": 0, "is_reserved": 0}, {"rental_uris": {"ios": "https://dc.lft.to/lastmile_qr_scan", "android": "https://dc.lft.to/lastmile_qr_scan"}, "lon": -77.05530533333334, "type": "electric_scooter", "fusion_lat": 0.0, "lat": 38.927995833333334, "name": "c24d04ffde984611fda37949581072ac", "fusion_lon": 0.0, "bike_id": "c24d04ffde984611fda37949581072ac", "is_disabled": 0, "is_reserved": 0}, {"rental_uris": {"ios": "https://dc.lft.to/lastmile_qr_scan", "android": "https://dc.lft.to/lastmile_qr_scan"}, "lon": -77.033883, "type": "electric_scooter", "fusion_lat": 0.0, "lat": 38.886606666666665, "name": "3604c7c6061a5d2f6be88a11f98ac604", "fusion_lon": 0.0, "bike_id": "3604c7c6061a5d2f6be88a11f98ac604", "is_disabled": 0, "is_reserved": 0}, {"rental_uris": {"ios": "https://dc.lft.to/lastmile_qr_scan", "android": "https://dc.lft.to/lastmile_qr_scan"}, "lon": -77.04657683333333, "type": "electric_scooter", "fusion_lat": 0.0, "lat": 38.93296466666666, "name": "a2b77b0d397cf8dfb5dac3c77ac08b24", "fusion_lon": 0.0, "bike_id": "a2b77b0d397cf8dfb5dac3c77ac08b24", "is_disabled": 0, "is_reserved": 0}, {"rental_uris": {"ios": "https://dc.lft.to/lastmile_qr_scan", "android": "https://dc.lft.to/lastmile_qr_scan"}, "lon": -77.02458933333334, "type": "electric_scooter", "fusion_lat": 0.0, "lat": 38.93859783333333, "name": "9d41ef877ea4248ec3c224211df52525", "fusion_lon": 0.0, "bike_id": "9d41ef877ea4248ec3c224211df52525", "is_disabled": 0, "is_reserved": 0}, {"rental_uris": {"ios": "https://dc.lft.to/lastmile_qr_scan", "android": "https://dc.lft.to/lastmile_qr_scan"}, "lon": -77.12961733333333, "type": "electric_bike", "fusion_lat": 0.0, "lat": 38.807883, "name": "256159db2e393ebd101b4fea000f8900", "fusion_lon": 0.0, "bike_id": "256159db2e393ebd101b4fea000f8900", "is_disabled": 0, "is_reserved": 0}, {"rental_uris": {"ios": "https://dc.lft.to/lastmile_qr_scan", "android": "https://dc.lft.to/lastmile_qr_scan"}, "lon": -77.0128365, "type": "electric_bike", "fusion_lat": 0.0, "lat": 39.00379366666667, "name": "1414e15f9978fa6cd4f482a51cbdd326", "fusion_lon": 0.0, "bike_id": "1414e15f9978fa6cd4f482a51cbdd326", "is_disabled": 0, "is_reserved": 0}, {"rental_uris": {"ios": "https://dc.lft.to/lastmile_qr_scan", "android": "https://dc.lft.to/lastmile_qr_scan"}, "lon": -77.0159305, "type": "electric_scooter", "fusion_lat": 0.0, "lat": 38.9018935, "name": "29b11c943edff60911423d3e7d75ca2f", "fusion_lon": 0.0, "bike_id": "29b11c943edff60911423d3e7d75ca2f", "is_disabled": 0, "is_reserved": 0}, {"rental_uris": {"ios": "https://dc.lft.to/lastmile_qr_scan", "android": "https://dc.lft.to/lastmile_qr_scan"}, "lon": -77.0275025, "type": "electric_scooter", "fusion_lat": 0.0, "lat": 38.88149283333333, "name": "dff4a807707e984b61e264ccd5ffbdc1", "fusion_lon": 0.0, "bike_id": "dff4a807707e984b61e264ccd5ffbdc1", "is_disabled": 0, "is_reserved": 0}, {"rental_uris": {"ios": "https://dc.lft.to/lastmile_qr_scan", "android": "https://dc.lft.to/lastmile_qr_scan"}, "lon": -77.03169016666666, "type": "electric_scooter", "fusion_lat": 0.0, "lat": 38.887382833333334, "name": "d280e69edef15a6f5fa45bda61b841ef", "fusion_lon": 0.0, "bike_id": "d280e69edef15a6f5fa45bda61b841ef", "is_disabled": 0, "is_reserved": 0}, {"rental_uris": {"ios": "https://dc.lft.to/lastmile_qr_scan", "android": "https://dc.lft.to/lastmile_qr_scan"}, "lon": -77.05434483333333, "type": "electric_scooter", "fusion_lat": 0.0, "lat": 38.923499, "name": "64aaa6c12fb4d160f1defb9b67334f6c", "fusion_lon": 0.0, "bike_id": "64aaa6c12fb4d160f1defb9b67334f6c", "is_disabled": 0, "is_reserved": 0}, {"rental_uris": {"ios": "https://dc.lft.to/lastmile_qr_scan", "android": "https://dc.lft.to/lastmile_qr_scan"}, "lon": -77.02968433333334, "type": "electric_scooter", "fusion_lat": 0.0, "lat": 38.90835933333334, "name": "759e13a9ed3c842031b181a4ddaec5f9", "fusion_lon": 0.0, "bike_id": "759e13a9ed3c842031b181a4ddaec5f9", "is_disabled": 0, "is_reserved": 0}, {"rental_uris": {"ios": "https://dc.lft.to/lastmile_qr_scan", "android": "https://dc.lft.to/lastmile_qr_scan"}, "lon": -76.990353, "type": "electric_scooter", "fusion_lat": 0.0, "lat": 38.856620666666664, "name": "eb8e304528c4ea0cbcc4f3db41ff8c50", "fusion_lon": 0.0, "bike_id": "eb8e304528c4ea0cbcc4f3db41ff8c50", "is_disabled": 0, "is_reserved": 0}, {"rental_uris": {"ios": "https://dc.lft.to/lastmile_qr_scan", "android": "https://dc.lft.to/lastmile_qr_scan"}, "lon": -76.93243966666667, "type": "electric_scooter", "fusion_lat": 0.0, "lat": 38.89409116666667, "name": "58365b83194a26c149e63edb29c9c875", "fusion_lon": 0.0, "bike_id": "58365b83194a26c149e63edb29c9c875", "is_disabled": 0, "is_reserved": 0}, {"rental_uris": {"ios": "https://dc.lft.to/lastmile_qr_scan", "android": "https://dc.lft.to/lastmile_qr_scan"}, "lon": -77.046447, "type": "electric_bike", "fusion_lat": 0.0, "lat": 38.85212466666667, "name": "8e2cb28b3a910bd3d8295579d3fd54fe", "fusion_lon": 0.0, "bike_id": "8e2cb28b3a910bd3d8295579d3fd54fe", "is_disabled": 0, "is_reserved": 0}, {"rental_uris": {"ios": "https://dc.lft.to/lastmile_qr_scan", "android": "https://dc.lft.to/lastmile_qr_scan"}, "lon": -77.07376716666667, "type": "electric_scooter", "fusion_lat": 0.0, "lat": 38.961814, "name": "7d4fe85223dfc153769bf4c90f57307b", "fusion_lon": 0.0, "bike_id": "7d4fe85223dfc153769bf4c90f57307b", "is_disabled": 0, "is_reserved": 0}, {"rental_uris": {"ios": "https://dc.lft.to/lastmile_qr_scan", "android": "https://dc.lft.to/lastmile_qr_scan"}, "lon": -77.01094416666666, "type": "electric_bike", "fusion_lat": 0.0, "lat": 38.8730635, "name": "a4667957202ae08c2df7a6cbab76737f", "fusion_lon": 0.0, "bike_id": "a4667957202ae08c2df7a6cbab76737f", "is_disabled": 0, "is_reserved": 0}, {"rental_uris": {"ios": "https://dc.lft.to/lastmile_qr_scan", "android": "https://dc.lft.to/lastmile_qr_scan"}, "lon": -77.02791683333334, "type": "electric_scooter", "fusion_lat": 0.0, "lat": 38.93079433333333, "name": "202e4ff2fd4f78526b10bc13f0609c7e", "fusion_lon": 0.0, "bike_id": "202e4ff2fd4f78526b10bc13f0609c7e", "is_disabled": 0, "is_reserved": 0}, {"rental_uris": {"ios": "https://dc.lft.to/lastmile_qr_scan", "android": "https://dc.lft.to/lastmile_qr_scan"}, "lon": -77.02266266666666, "type": "electric_scooter", "fusion_lat": 0.0, "lat": 38.9241325, "name": "a77f0ef73ec4b70bab8666bebbe7c876", "fusion_lon": 0.0, "bike_id": "a77f0ef73ec4b70bab8666bebbe7c876", "is_disabled": 0, "is_reserved": 0}, {"rental_uris": {"ios": "https://dc.lft.to/lastmile_qr_scan", "android": "https://dc.lft.to/lastmile_qr_scan"}, "lon": -77.02200983333333, "type": "electric_scooter", "fusion_lat": 0.0, "lat": 38.913535, "name": "b91dca9b8d5bfaca2075443a52bea4c8", "fusion_lon": 0.0, "bike_id": "b91dca9b8d5bfaca2075443a52bea4c8", "is_disabled": 0, "is_reserved": 0}, {"rental_uris": {"ios": "https://dc.lft.to/lastmile_qr_scan", "android": "https://dc.lft.to/lastmile_qr_scan"}, "lon": -77.0417515, "type": "electric_scooter", "fusion_lat": 0.0, "lat": 38.91964633333333, "name": "e635fa2d50046314364bc991c53e4299", "fusion_lon": 0.0, "bike_id": "e635fa2d50046314364bc991c53e4299", "is_disabled": 0, "is_reserved": 0}, {"rental_uris": {"ios": "https://dc.lft.to/lastmile_qr_scan", "android": "https://dc.lft.to/lastmile_qr_scan"}, "lon": -76.90813583333333, "type": "electric_bike", "fusion_lat": 0.0, "lat": 38.99453533333333, "name": "e1b7704603a3ad1a5b711cc2d91381c3", "fusion_lon": 0.0, "bike_id": "e1b7704603a3ad1a5b711cc2d91381c3", "is_disabled": 0, "is_reserved": 0}, {"rental_uris": {"ios": "https://dc.lft.to/lastmile_qr_scan", "android": "https://dc.lft.to/lastmile_qr_scan"}, "lon": -77.04814316666666, "type": "electric_scooter", "fusion_lat": 0.0, "lat": 38.913332833333335, "name": "02bd668e26ab0b65817510d3041abfc6", "fusion_lon": 0.0, "bike_id": "02bd668e26ab0b65817510d3041abfc6", "is_disabled": 0, "is_reserved": 0}, {"rental_uris": {"ios": "https://dc.lft.to/lastmile_qr_scan", "android": "https://dc.lft.to/lastmile_qr_scan"}, "lon": -77.08193983333334, "type": "electric_scooter", "fusion_lat": 0.0, "lat": 38.9492785, "name": "74326f4e7d9033cc93f0b1a944c839d4", "fusion_lon": 0.0, "bike_id": "74326f4e7d9033cc93f0b1a944c839d4", "is_disabled": 0, "is_reserved": 0}, {"rental_uris": {"ios": "https://dc.lft.to/lastmile_qr_scan", "android": "https://dc.lft.to/lastmile_qr_scan"}, "lon": -77.015799, "type": "electric_scooter", "fusion_lat": 0.0, "lat": 38.87668866666667, "name": "696ea1ec6d9ab38c9180685e81738916", "fusion_lon": 0.0, "bike_id": "696ea1ec6d9ab38c9180685e81738916", "is_disabled": 0, "is_reserved": 0}, {"rental_uris": {"ios": "https://dc.lft.to/lastmile_qr_scan", "android": "https://dc.lft.to/lastmile_qr_scan"}, "lon": -77.077763, "type": "electric_scooter", "fusion_lat": 0.0, "lat": 38.945619, "name": "d716c250f48472843418f24a7b84693a", "fusion_lon": 0.0, "bike_id": "d716c250f48472843418f24a7b84693a", "is_disabled": 0, "is_reserved": 0}, {"rental_uris": {"ios": "https://dc.lft.to/lastmile_qr_scan", "android": "https://dc.lft.to/lastmile_qr_scan"}, "lon": -77.024126, "type": "electric_scooter", "fusion_lat": 0.0, "lat": 38.921819666666664, "name": "30f74d93bb4b6aced81d37160ade3905", "fusion_lon": 0.0, "bike_id": "30f74d93bb4b6aced81d37160ade3905", "is_disabled": 0, "is_reserved": 0}, {"rental_uris": {"ios": "https://dc.lft.to/lastmile_qr_scan", "android": "https://dc.lft.to/lastmile_qr_scan"}, "lon": -77.038522, "type": "electric_scooter", "fusion_lat": 0.0, "lat": 38.90473216666667, "name": "7e99d081a1df3289654d0e594fe7de0b", "fusion_lon": 0.0, "bike_id": "7e99d081a1df3289654d0e594fe7de0b", "is_disabled": 0, "is_reserved": 0}, {"rental_uris": {"ios": "https://dc.lft.to/lastmile_qr_scan", "android": "https://dc.lft.to/lastmile_qr_scan"}, "lon": -77.04901066666666, "type": "electric_scooter", "fusion_lat": 0.0, "lat": 38.90383666666666, "name": "23eab516c16614974a81723d66f9170c", "fusion_lon": 0.0, "bike_id": "23eab516c16614974a81723d66f9170c", "is_disabled": 0, "is_reserved": 0}, {"rental_uris": {"ios": "https://dc.lft.to/lastmile_qr_scan", "android": "https://dc.lft.to/lastmile_qr_scan"}, "lon": -77.03783566666667, "type": "electric_scooter", "fusion_lat": 0.0, "lat": 38.926227, "name": "7176671cb2454e33f1697b95cc09db46", "fusion_lon": 0.0, "bike_id": "7176671cb2454e33f1697b95cc09db46", "is_disabled": 0, "is_reserved": 0}, {"rental_uris": {"ios": "https://dc.lft.to/lastmile_qr_scan", "android": "https://dc.lft.to/lastmile_qr_scan"}, "lon": -76.9895305, "type": "electric_scooter", "fusion_lat": 0.0, "lat": 38.9013455, "name": "a2898a717902b0779baa1dc318969fb3", "fusion_lon": 0.0, "bike_id": "a2898a717902b0779baa1dc318969fb3", "is_disabled": 0, "is_reserved": 0}, {"rental_uris": {"ios": "https://dc.lft.to/lastmile_qr_scan", "android": "https://dc.lft.to/lastmile_qr_scan"}, "lon": -76.98836666666666, "type": "electric_bike", "fusion_lat": 0.0, "lat": 38.84273833333334, "name": "ac002437eba2726cba72b824bff3e734", "fusion_lon": 0.0, "bike_id": "ac002437eba2726cba72b824bff3e734", "is_disabled": 0, "is_reserved": 0}, {"rental_uris": {"ios": "https://dc.lft.to/lastmile_qr_scan", "android": "https://dc.lft.to/lastmile_qr_scan"}, "lon": -77.03469066666666, "type": "electric_scooter", "fusion_lat": 0.0, "lat": 38.906381833333334, "name": "b775a4cfd276aec116179be3d8ad8725", "fusion_lon": 0.0, "bike_id": "b775a4cfd276aec116179be3d8ad8725", "is_disabled": 0, "is_reserved": 0}, {"rental_uris": {"ios": "https://dc.lft.to/lastmile_qr_scan", "android": "https://dc.lft.to/lastmile_qr_scan"}, "lon": -77.01227916666667, "type": "electric_scooter", "fusion_lat": 0.0, "lat": 38.900334, "name": "7d108e7e04b7bb985bcf6c38a52a9e22", "fusion_lon": 0.0, "bike_id": "7d108e7e04b7bb985bcf6c38a52a9e22", "is_disabled": 0, "is_reserved": 0}, {"rental_uris": {"ios": "https://dc.lft.to/lastmile_qr_scan", "android": "https://dc.lft.to/lastmile_qr_scan"}, "lon": -77.043582, "type": "electric_scooter", "fusion_lat": 0.0, "lat": 38.892332833333334, "name": "f19f4ff4fbd6c9b2a51589060ee904db", "fusion_lon": 0.0, "bike_id": "f19f4ff4fbd6c9b2a51589060ee904db", "is_disabled": 0, "is_reserved": 0}, {"rental_uris": {"ios": "https://dc.lft.to/lastmile_qr_scan", "android": "https://dc.lft.to/lastmile_qr_scan"}, "lon": -77.02133783333333, "type": "electric_scooter", "fusion_lat": 0.0, "lat": 38.89503166666667, "name": "893b502286052a5e99fc38cc53b6bbcf", "fusion_lon": 0.0, "bike_id": "893b502286052a5e99fc38cc53b6bbcf", "is_disabled": 0, "is_reserved": 0}, {"rental_uris": {"ios": "https://dc.lft.to/lastmile_qr_scan", "android": "https://dc.lft.to/lastmile_qr_scan"}, "lon": -77.00059833333333, "type": "electric_scooter", "fusion_lat": 0.0, "lat": 38.90736733333333, "name": "9c888df7ed3f25780ceac950e876a975", "fusion_lon": 0.0, "bike_id": "9c888df7ed3f25780ceac950e876a975", "is_disabled": 0, "is_reserved": 0}, {"rental_uris": {"ios": "https://dc.lft.to/lastmile_qr_scan", "android": "https://dc.lft.to/lastmile_qr_scan"}, "lon": -77.0173895, "type": "electric_bike", "fusion_lat": 0.0, "lat": 39.0001515, "name": "e4e29e9e9e1e8f8fa246be009ff64058", "fusion_lon": 0.0, "bike_id": "e4e29e9e9e1e8f8fa246be009ff64058", "is_disabled": 0, "is_reserved": 0}, {"rental_uris": {"ios": "https://dc.lft.to/lastmile_qr_scan", "android": "https://dc.lft.to/lastmile_qr_scan"}, "lon": -77.034626, "type": "electric_scooter", "fusion_lat": 0.0, "lat": 38.921552, "name": "34c537f636bafbd68370fe95c6f6a0db", "fusion_lon": 0.0, "bike_id": "34c537f636bafbd68370fe95c6f6a0db", "is_disabled": 0, "is_reserved": 0}, {"rental_uris": {"ios": "https://dc.lft.to/lastmile_qr_scan", "android": "https://dc.lft.to/lastmile_qr_scan"}, "lon": -77.05696033333334, "type": "electric_scooter", "fusion_lat": 0.0, "lat": 38.905543333333334, "name": "7c71176f0e8fd643ef4aa7a3ff445c8b", "fusion_lon": 0.0, "bike_id": "7c71176f0e8fd643ef4aa7a3ff445c8b", "is_disabled": 0, "is_reserved": 0}, {"rental_uris": {"ios": "https://dc.lft.to/lastmile_qr_scan", "android": "https://dc.lft.to/lastmile_qr_scan"}, "lon": -77.061193, "type": "electric_bike", "fusion_lat": 0.0, "lat": 38.902026, "name": "3438e27f17cbfd46dae1aeaac37480ea", "fusion_lon": 0.0, "bike_id": "3438e27f17cbfd46dae1aeaac37480ea", "is_disabled": 0, "is_reserved": 0}, {"rental_uris": {"ios": "https://dc.lft.to/lastmile_qr_scan", "android": "https://dc.lft.to/lastmile_qr_scan"}, "lon": -77.02751516666666, "type": "electric_scooter", "fusion_lat": 0.0, "lat": 38.939645666666664, "name": "a4e9d5f1abd791afbe652ff14da88a27", "fusion_lon": 0.0, "bike_id": "a4e9d5f1abd791afbe652ff14da88a27", "is_disabled": 0, "is_reserved": 0}, {"rental_uris": {"ios": "https://dc.lft.to/lastmile_qr_scan", "android": "https://dc.lft.to/lastmile_qr_scan"}, "lon": -77.05533716666666, "type": "electric_scooter", "fusion_lat": 0.0, "lat": 38.92790516666667, "name": "e49056ee1c6b1385f6af753eb88c314b", "fusion_lon": 0.0, "bike_id": "e49056ee1c6b1385f6af753eb88c314b", "is_disabled": 0, "is_reserved": 0}, {"rental_uris": {"ios": "https://dc.lft.to/lastmile_qr_scan", "android": "https://dc.lft.to/lastmile_qr_scan"}, "lon": -77.0115295, "type": "electric_scooter", "fusion_lat": 0.0, "lat": 38.900274333333336, "name": "649c02acbc88b5f05beaba2c4cadd32f", "fusion_lon": 0.0, "bike_id": "649c02acbc88b5f05beaba2c4cadd32f", "is_disabled": 0, "is_reserved": 0}, {"rental_uris": {"ios": "https://dc.lft.to/lastmile_qr_scan", "android": "https://dc.lft.to/lastmile_qr_scan"}, "lon": -77.0580575, "type": "electric_scooter", "fusion_lat": 0.0, "lat": 38.900977, "name": "9c500e808ad41c9d248795aea7827e7f", "fusion_lon": 0.0, "bike_id": "9c500e808ad41c9d248795aea7827e7f", "is_disabled": 0, "is_reserved": 0}, {"rental_uris": {"ios": "https://dc.lft.to/lastmile_qr_scan", "android": "https://dc.lft.to/lastmile_qr_scan"}, "lon": -77.08543633333333, "type": "electric_bike", "fusion_lat": 0.0, "lat": 38.856261, "name": "a8874a9990944430089c9935e1ef824b", "fusion_lon": 0.0, "bike_id": "a8874a9990944430089c9935e1ef824b", "is_disabled": 0, "is_reserved": 0}, {"rental_uris": {"ios": "https://dc.lft.to/lastmile_qr_scan", "android": "https://dc.lft.to/lastmile_qr_scan"}, "lon": -77.026564, "type": "electric_scooter", "fusion_lat": 0.0, "lat": 38.91698016666667, "name": "6521364dd6c20ea4a088394f4ed388fb", "fusion_lon": 0.0, "bike_id": "6521364dd6c20ea4a088394f4ed388fb", "is_disabled": 0, "is_reserved": 0}, {"rental_uris": {"ios": "https://dc.lft.to/lastmile_qr_scan", "android": "https://dc.lft.to/lastmile_qr_scan"}, "lon": -77.02071866666667, "type": "electric_scooter", "fusion_lat": 0.0, "lat": 38.89982333333333, "name": "f56c8aa3696adb6adc3c36c543371f53", "fusion_lon": 0.0, "bike_id": "f56c8aa3696adb6adc3c36c543371f53", "is_disabled": 0, "is_reserved": 0}, {"rental_uris": {"ios": "https://dc.lft.to/lastmile_qr_scan", "android": "https://dc.lft.to/lastmile_qr_scan"}, "lon": -76.98886683333333, "type": "electric_scooter", "fusion_lat": 0.0, "lat": 38.86655716666667, "name": "a91f255011585344a8ad098c4a3e616b", "fusion_lon": 0.0, "bike_id": "a91f255011585344a8ad098c4a3e616b", "is_disabled": 0, "is_reserved": 0}, {"rental_uris": {"ios": "https://dc.lft.to/lastmile_qr_scan", "android": "https://dc.lft.to/lastmile_qr_scan"}, "lon": -77.00088233333334, "type": "electric_scooter", "fusion_lat": 0.0, "lat": 38.9001815, "name": "999cc51f5426e9b6aa72268cf25db8c3", "fusion_lon": 0.0, "bike_id": "999cc51f5426e9b6aa72268cf25db8c3", "is_disabled": 0, "is_reserved": 0}, {"rental_uris": {"ios": "https://dc.lft.to/lastmile_qr_scan", "android": "https://dc.lft.to/lastmile_qr_scan"}, "lon": -77.04446266666666, "type": "electric_scooter", "fusion_lat": 0.0, "lat": 38.91018433333333, "name": "bf7aab1da0c840487030be0de2072166", "fusion_lon": 0.0, "bike_id": "bf7aab1da0c840487030be0de2072166", "is_disabled": 0, "is_reserved": 0}, {"rental_uris": {"ios": "https://dc.lft.to/lastmile_qr_scan", "android": "https://dc.lft.to/lastmile_qr_scan"}, "lon": -77.03212466666666, "type": "electric_scooter", "fusion_lat": 0.0, "lat": 38.8923975, "name": "6bd8abe072c9b4806c2a0a13127b9340", "fusion_lon": 0.0, "bike_id": "6bd8abe072c9b4806c2a0a13127b9340", "is_disabled": 0, "is_reserved": 0}, {"rental_uris": {"ios": "https://dc.lft.to/lastmile_qr_scan", "android": "https://dc.lft.to/lastmile_qr_scan"}, "lon": -77.03674016666666, "type": "electric_scooter", "fusion_lat": 0.0, "lat": 38.918178, "name": "9c8eae5bf47ae1d1c11fcb86370cfa47", "fusion_lon": 0.0, "bike_id": "9c8eae5bf47ae1d1c11fcb86370cfa47", "is_disabled": 0, "is_reserved": 0}, {"rental_uris": {"ios": "https://dc.lft.to/lastmile_qr_scan", "android": "https://dc.lft.to/lastmile_qr_scan"}, "lon": -77.0247785, "type": "electric_scooter", "fusion_lat": 0.0, "lat": 38.9382855, "name": "8ae14d7b8b57ddeba38ea5ed95fb37f0", "fusion_lon": 0.0, "bike_id": "8ae14d7b8b57ddeba38ea5ed95fb37f0", "is_disabled": 0, "is_reserved": 0}, {"rental_uris": {"ios": "https://dc.lft.to/lastmile_qr_scan", "android": "https://dc.lft.to/lastmile_qr_scan"}, "lon": -77.09865933333333, "type": "electric_bike", "fusion_lat": 0.0, "lat": 38.85375066666667, "name": "54f5c127a472b2c92328d4e412d2c762", "fusion_lon": 0.0, "bike_id": "54f5c127a472b2c92328d4e412d2c762", "is_disabled": 0, "is_reserved": 0}, {"rental_uris": {"ios": "https://dc.lft.to/lastmile_qr_scan", "android": "https://dc.lft.to/lastmile_qr_scan"}, "lon": -77.03373733333333, "type": "electric_scooter", "fusion_lat": 0.0, "lat": 38.9384105, "name": "588b5d8d1110131b2fc0e172765cb0ca", "fusion_lon": 0.0, "bike_id": "588b5d8d1110131b2fc0e172765cb0ca", "is_disabled": 0, "is_reserved": 0}, {"rental_uris": {"ios": "https://dc.lft.to/lastmile_qr_scan", "android": "https://dc.lft.to/lastmile_qr_scan"}, "lon": -77.04735883333333, "type": "electric_scooter", "fusion_lat": 0.0, "lat": 38.917663166666664, "name": "6f56f70a1ba2ad03f73d9ec26941e3b0", "fusion_lon": 0.0, "bike_id": "6f56f70a1ba2ad03f73d9ec26941e3b0", "is_disabled": 0, "is_reserved": 0}, {"rental_uris": {"ios": "https://dc.lft.to/lastmile_qr_scan", "android": "https://dc.lft.to/lastmile_qr_scan"}, "lon": -77.01082266666667, "type": "electric_scooter", "fusion_lat": 0.0, "lat": 38.894052, "name": "5548369d94e64aaddf36aae2eff4e659", "fusion_lon": 0.0, "bike_id": "5548369d94e64aaddf36aae2eff4e659", "is_disabled": 0, "is_reserved": 0}, {"rental_uris": {"ios": "https://dc.lft.to/lastmile_qr_scan", "android": "https://dc.lft.to/lastmile_qr_scan"}, "lon": -77.00188966666667, "type": "electric_scooter", "fusion_lat": 0.0, "lat": 38.87384933333333, "name": "589a91a73dbc7e38fb699e936ddcafef", "fusion_lon": 0.0, "bike_id": "589a91a73dbc7e38fb699e936ddcafef", "is_disabled": 0, "is_reserved": 0}, {"rental_uris": {"ios": "https://dc.lft.to/lastmile_qr_scan", "android": "https://dc.lft.to/lastmile_qr_scan"}, "lon": -77.031905, "type": "electric_scooter", "fusion_lat": 0.0, "lat": 38.91961333333333, "name": "5dcd3da225ff24c202f8bcb1f090512c", "fusion_lon": 0.0, "bike_id": "5dcd3da225ff24c202f8bcb1f090512c", "is_disabled": 0, "is_reserved": 0}, {"rental_uris": {"ios": "https://dc.lft.to/lastmile_qr_scan", "android": "https://dc.lft.to/lastmile_qr_scan"}, "lon": -77.06944833333333, "type": "electric_scooter", "fusion_lat": 0.0, "lat": 38.90514983333333, "name": "220869437b70c242d698038f60558b91", "fusion_lon": 0.0, "bike_id": "220869437b70c242d698038f60558b91", "is_disabled": 0, "is_reserved": 0}, {"rental_uris": {"ios": "https://dc.lft.to/lastmile_qr_scan", "android": "https://dc.lft.to/lastmile_qr_scan"}, "lon": -77.10122883333334, "type": "electric_bike", "fusion_lat": 0.0, "lat": 38.852075166666665, "name": "e850ed322ec69f26e10d198409976b90", "fusion_lon": 0.0, "bike_id": "e850ed322ec69f26e10d198409976b90", "is_disabled": 0, "is_reserved": 0}, {"rental_uris": {"ios": "https://dc.lft.to/lastmile_qr_scan", "android": "https://dc.lft.to/lastmile_qr_scan"}, "lon": -77.032639, "type": "electric_scooter", "fusion_lat": 0.0, "lat": 38.936646833333334, "name": "419e533e96268693700d3fcd4f68a80d", "fusion_lon": 0.0, "bike_id": "419e533e96268693700d3fcd4f68a80d", "is_disabled": 0, "is_reserved": 0}, {"rental_uris": {"ios": "https://dc.lft.to/lastmile_qr_scan", "android": "https://dc.lft.to/lastmile_qr_scan"}, "lon": -77.02652066666667, "type": "electric_scooter", "fusion_lat": 0.0, "lat": 38.905694833333335, "name": "9ea94020a55a811fc37d01aa4a141d26", "fusion_lon": 0.0, "bike_id": "9ea94020a55a811fc37d01aa4a141d26", "is_disabled": 0, "is_reserved": 0}, {"rental_uris": {"ios": "https://dc.lft.to/lastmile_qr_scan", "android": "https://dc.lft.to/lastmile_qr_scan"}, "lon": -77.02393716666667, "type": "electric_scooter", "fusion_lat": 0.0, "lat": 38.9369735, "name": "7faaa704c71462c8bcea3194a5d92892", "fusion_lon": 0.0, "bike_id": "7faaa704c71462c8bcea3194a5d92892", "is_disabled": 0, "is_reserved": 0}, {"rental_uris": {"ios": "https://dc.lft.to/lastmile_qr_scan", "android": "https://dc.lft.to/lastmile_qr_scan"}, "lon": -77.02758133333333, "type": "electric_scooter", "fusion_lat": 0.0, "lat": 38.9155365, "name": "8a4f1e318536618f15030b13da48c325", "fusion_lon": 0.0, "bike_id": "8a4f1e318536618f15030b13da48c325", "is_disabled": 0, "is_reserved": 0}, {"rental_uris": {"ios": "https://dc.lft.to/lastmile_qr_scan", "android": "https://dc.lft.to/lastmile_qr_scan"}, "lon": -77.00199683333334, "type": "electric_scooter", "fusion_lat": 0.0, "lat": 38.90033433333333, "name": "3470ee600da2c6e5324d953dc8c61f94", "fusion_lon": 0.0, "bike_id": "3470ee600da2c6e5324d953dc8c61f94", "is_disabled": 0, "is_reserved": 0}, {"rental_uris": {"ios": "https://dc.lft.to/lastmile_qr_scan", "android": "https://dc.lft.to/lastmile_qr_scan"}, "lon": -77.1250085, "type": "electric_bike", "fusion_lat": 0.0, "lat": 39.0241945, "name": "928de1803014821692c0a2fbb566b29f", "fusion_lon": 0.0, "bike_id": "928de1803014821692c0a2fbb566b29f", "is_disabled": 0, "is_reserved": 0}, {"rental_uris": {"ios": "https://dc.lft.to/lastmile_qr_scan", "android": "https://dc.lft.to/lastmile_qr_scan"}, "lon": -77.00586583333333, "type": "electric_scooter", "fusion_lat": 0.0, "lat": 38.91565883333333, "name": "485c1184e65404e15309f26a3a9a1577", "fusion_lon": 0.0, "bike_id": "485c1184e65404e15309f26a3a9a1577", "is_disabled": 0, "is_reserved": 0}, {"rental_uris": {"ios": "https://dc.lft.to/lastmile_qr_scan", "android": "https://dc.lft.to/lastmile_qr_scan"}, "lon": -77.04010266666667, "type": "electric_scooter", "fusion_lat": 0.0, "lat": 38.89632616666667, "name": "0f97404ee7ac726c29c654ed6e8599c1", "fusion_lon": 0.0, "bike_id": "0f97404ee7ac726c29c654ed6e8599c1", "is_disabled": 0, "is_reserved": 0}, {"rental_uris": {"ios": "https://dc.lft.to/lastmile_qr_scan", "android": "https://dc.lft.to/lastmile_qr_scan"}, "lon": -77.00093083333333, "type": "electric_scooter", "fusion_lat": 0.0, "lat": 38.90753483333334, "name": "3f17bb46c8ebb4c67a51aa58973cf48e", "fusion_lon": 0.0, "bike_id": "3f17bb46c8ebb4c67a51aa58973cf48e", "is_disabled": 0, "is_reserved": 0}, {"rental_uris": {"ios": "https://dc.lft.to/lastmile_qr_scan", "android": "https://dc.lft.to/lastmile_qr_scan"}, "lon": -77.029653, "type": "electric_scooter", "fusion_lat": 0.0, "lat": 38.94644066666667, "name": "ee48726d3966bc307f106684540fcb47", "fusion_lon": 0.0, "bike_id": "ee48726d3966bc307f106684540fcb47", "is_disabled": 0, "is_reserved": 0}, {"rental_uris": {"ios": "https://dc.lft.to/lastmile_qr_scan", "android": "https://dc.lft.to/lastmile_qr_scan"}, "lon": -77.03848933333333, "type": "electric_scooter", "fusion_lat": 0.0, "lat": 38.902806, "name": "37e768e5c0e3c4fef381045a74446d6e", "fusion_lon": 0.0, "bike_id": "37e768e5c0e3c4fef381045a74446d6e", "is_disabled": 0, "is_reserved": 0}, {"rental_uris": {"ios": "https://dc.lft.to/lastmile_qr_scan", "android": "https://dc.lft.to/lastmile_qr_scan"}, "lon": -77.0135035, "type": "electric_scooter", "fusion_lat": 0.0, "lat": 38.8957005, "name": "7f739f1a5eeaa6f49cf1a76d1bd3b3e0", "fusion_lon": 0.0, "bike_id": "7f739f1a5eeaa6f49cf1a76d1bd3b3e0", "is_disabled": 0, "is_reserved": 0}, {"rental_uris": {"ios": "https://dc.lft.to/lastmile_qr_scan", "android": "https://dc.lft.to/lastmile_qr_scan"}, "lon": -77.03172866666667, "type": "electric_scooter", "fusion_lat": 0.0, "lat": 38.887357333333334, "name": "ae291354d087bc13144c7a5e8cad260a", "fusion_lon": 0.0, "bike_id": "ae291354d087bc13144c7a5e8cad260a", "is_disabled": 0, "is_reserved": 0}, {"rental_uris": {"ios": "https://dc.lft.to/lastmile_qr_scan", "android": "https://dc.lft.to/lastmile_qr_scan"}, "lon": -77.03440716666667, "type": "electric_scooter", "fusion_lat": 0.0, "lat": 38.91817366666667, "name": "21f408d6322f28544a6fa1a1d6d2b6f6", "fusion_lon": 0.0, "bike_id": "21f408d6322f28544a6fa1a1d6d2b6f6", "is_disabled": 0, "is_reserved": 0}, {"rental_uris": {"ios": "https://dc.lft.to/lastmile_qr_scan", "android": "https://dc.lft.to/lastmile_qr_scan"}, "lon": -77.0366685, "type": "electric_scooter", "fusion_lat": 0.0, "lat": 38.92993, "name": "dc89e64e7762c0c05df7dd3959df934b", "fusion_lon": 0.0, "bike_id": "dc89e64e7762c0c05df7dd3959df934b", "is_disabled": 0, "is_reserved": 0}, {"rental_uris": {"ios": "https://dc.lft.to/lastmile_qr_scan", "android": "https://dc.lft.to/lastmile_qr_scan"}, "lon": -77.03224266666666, "type": "electric_scooter", "fusion_lat": 0.0, "lat": 38.938734333333336, "name": "8b27cbaf9e066fe8f9ab710ae7f89e73", "fusion_lon": 0.0, "bike_id": "8b27cbaf9e066fe8f9ab710ae7f89e73", "is_disabled": 0, "is_reserved": 0}, {"rental_uris": {"ios": "https://dc.lft.to/lastmile_qr_scan", "android": "https://dc.lft.to/lastmile_qr_scan"}, "lon": -77.0458445, "type": "electric_scooter", "fusion_lat": 0.0, "lat": 38.902587833333335, "name": "45a6e14ad9ce3ae8eb84804a8aee6ca3", "fusion_lon": 0.0, "bike_id": "45a6e14ad9ce3ae8eb84804a8aee6ca3", "is_disabled": 0, "is_reserved": 0}, {"rental_uris": {"ios": "https://dc.lft.to/lastmile_qr_scan", "android": "https://dc.lft.to/lastmile_qr_scan"}, "lon": -77.0503285, "type": "electric_scooter", "fusion_lat": 0.0, "lat": 38.89655666666667, "name": "54f1ff1f1f5ee8a25d56053e96d13c46", "fusion_lon": 0.0, "bike_id": "54f1ff1f1f5ee8a25d56053e96d13c46", "is_disabled": 0, "is_reserved": 0}, {"rental_uris": {"ios": "https://dc.lft.to/lastmile_qr_scan", "android": "https://dc.lft.to/lastmile_qr_scan"}, "lon": -77.046822, "type": "electric_scooter", "fusion_lat": 0.0, "lat": 38.896089333333336, "name": "0d2d2ba0d5d9e51e945e59a6582ef5fd", "fusion_lon": 0.0, "bike_id": "0d2d2ba0d5d9e51e945e59a6582ef5fd", "is_disabled": 0, "is_reserved": 0}, {"rental_uris": {"ios": "https://dc.lft.to/lastmile_qr_scan", "android": "https://dc.lft.to/lastmile_qr_scan"}, "lon": -76.97724933333333, "type": "electric_scooter", "fusion_lat": 0.0, "lat": 38.872473666666664, "name": "0c8969dec9fdb87dc9b974acfa8c7dc6", "fusion_lon": 0.0, "bike_id": "0c8969dec9fdb87dc9b974acfa8c7dc6", "is_disabled": 0, "is_reserved": 0}, {"rental_uris": {"ios": "https://dc.lft.to/lastmile_qr_scan", "android": "https://dc.lft.to/lastmile_qr_scan"}, "lon": -77.05417316666667, "type": "electric_scooter", "fusion_lat": 0.0, "lat": 38.92838783333333, "name": "14f6a81ed171b43caa9e2d621288bf2f", "fusion_lon": 0.0, "bike_id": "14f6a81ed171b43caa9e2d621288bf2f", "is_disabled": 0, "is_reserved": 0}, {"rental_uris": {"ios": "https://dc.lft.to/lastmile_qr_scan", "android": "https://dc.lft.to/lastmile_qr_scan"}, "lon": -77.026419, "type": "electric_scooter", "fusion_lat": 0.0, "lat": 38.984978, "name": "627162b6a33428a0a1f14f53d839ace3", "fusion_lon": 0.0, "bike_id": "627162b6a33428a0a1f14f53d839ace3", "is_disabled": 0, "is_reserved": 0}, {"rental_uris": {"ios": "https://dc.lft.to/lastmile_qr_scan", "android": "https://dc.lft.to/lastmile_qr_scan"}, "lon": -77.05060433333334, "type": "electric_scooter", "fusion_lat": 0.0, "lat": 38.92359733333333, "name": "fb079d40d7b489a3b09b7e502dd5960c", "fusion_lon": 0.0, "bike_id": "fb079d40d7b489a3b09b7e502dd5960c", "is_disabled": 0, "is_reserved": 0}, {"rental_uris": {"ios": "https://dc.lft.to/lastmile_qr_scan", "android": "https://dc.lft.to/lastmile_qr_scan"}, "lon": -77.05744133333333, "type": "electric_scooter", "fusion_lat": 0.0, "lat": 38.904929, "name": "8f2efc977212e12299a37d01d04b1c5d", "fusion_lon": 0.0, "bike_id": "8f2efc977212e12299a37d01d04b1c5d", "is_disabled": 0, "is_reserved": 0}, {"rental_uris": {"ios": "https://dc.lft.to/lastmile_qr_scan", "android": "https://dc.lft.to/lastmile_qr_scan"}, "lon": -76.973269, "type": "electric_bike", "fusion_lat": 0.0, "lat": 38.85065266666667, "name": "9a82d2704eb089c5e927d5429615d13f", "fusion_lon": 0.0, "bike_id": "9a82d2704eb089c5e927d5429615d13f", "is_disabled": 0, "is_reserved": 0}, {"rental_uris": {"ios": "https://dc.lft.to/lastmile_qr_scan", "android": "https://dc.lft.to/lastmile_qr_scan"}, "lon": -76.951816, "type": "electric_bike", "fusion_lat": 0.0, "lat": 38.90687366666667, "name": "920af253a78c41cecc356e1c386140fd", "fusion_lon": 0.0, "bike_id": "920af253a78c41cecc356e1c386140fd", "is_disabled": 0, "is_reserved": 0}, {"rental_uris": {"ios": "https://dc.lft.to/lastmile_qr_scan", "android": "https://dc.lft.to/lastmile_qr_scan"}, "lon": -77.04282416666666, "type": "electric_scooter", "fusion_lat": 0.0, "lat": 38.89534783333333, "name": "1ab39b89883b9574349403e50e22e723", "fusion_lon": 0.0, "bike_id": "1ab39b89883b9574349403e50e22e723", "is_disabled": 0, "is_reserved": 0}, {"rental_uris": {"ios": "https://dc.lft.to/lastmile_qr_scan", "android": "https://dc.lft.to/lastmile_qr_scan"}, "lon": -76.93176833333334, "type": "electric_scooter", "fusion_lat": 0.0, "lat": 38.89884983333334, "name": "4ff50b506624419e0aa19ec979a229ef", "fusion_lon": 0.0, "bike_id": "4ff50b506624419e0aa19ec979a229ef", "is_disabled": 0, "is_reserved": 0}, {"rental_uris": {"ios": "https://dc.lft.to/lastmile_qr_scan", "android": "https://dc.lft.to/lastmile_qr_scan"}, "lon": -77.01375866666666, "type": "electric_scooter", "fusion_lat": 0.0, "lat": 38.88656666666667, "name": "a6b7a20b304d6158d390049583220df0", "fusion_lon": 0.0, "bike_id": "a6b7a20b304d6158d390049583220df0", "is_disabled": 0, "is_reserved": 0}, {"rental_uris": {"ios": "https://dc.lft.to/lastmile_qr_scan", "android": "https://dc.lft.to/lastmile_qr_scan"}, "lon": -77.05786883333333, "type": "electric_scooter", "fusion_lat": 0.0, "lat": 38.934797333333336, "name": "8fc4284909e620f7904fc363f15221ac", "fusion_lon": 0.0, "bike_id": "8fc4284909e620f7904fc363f15221ac", "is_disabled": 0, "is_reserved": 0}, {"rental_uris": {"ios": "https://dc.lft.to/lastmile_qr_scan", "android": "https://dc.lft.to/lastmile_qr_scan"}, "lon": -77.08186633333334, "type": "electric_bike", "fusion_lat": 0.0, "lat": 38.92206316666667, "name": "8f79160ee4516b58511d97e1e0b1c81e", "fusion_lon": 0.0, "bike_id": "8f79160ee4516b58511d97e1e0b1c81e", "is_disabled": 0, "is_reserved": 0}, {"rental_uris": {"ios": "https://dc.lft.to/lastmile_qr_scan", "android": "https://dc.lft.to/lastmile_qr_scan"}, "lon": -77.00218, "type": "electric_scooter", "fusion_lat": 0.0, "lat": 38.900281666666665, "name": "5fce12bd8b057c25b4f4daabde3e0fdd", "fusion_lon": 0.0, "bike_id": "5fce12bd8b057c25b4f4daabde3e0fdd", "is_disabled": 0, "is_reserved": 0}, {"rental_uris": {"ios": "https://dc.lft.to/lastmile_qr_scan", "android": "https://dc.lft.to/lastmile_qr_scan"}, "lon": -77.01102733333333, "type": "electric_scooter", "fusion_lat": 0.0, "lat": 38.90357066666667, "name": "e39acc2f9163414ecc5cd367bfe0750e", "fusion_lon": 0.0, "bike_id": "e39acc2f9163414ecc5cd367bfe0750e", "is_disabled": 0, "is_reserved": 0}, {"rental_uris": {"ios": "https://dc.lft.to/lastmile_qr_scan", "android": "https://dc.lft.to/lastmile_qr_scan"}, "lon": -77.06314616666667, "type": "electric_scooter", "fusion_lat": 0.0, "lat": 38.94373516666667, "name": "1edb7978a464dfc441dfad7837463d21", "fusion_lon": 0.0, "bike_id": "1edb7978a464dfc441dfad7837463d21", "is_disabled": 0, "is_reserved": 0}, {"rental_uris": {"ios": "https://dc.lft.to/lastmile_qr_scan", "android": "https://dc.lft.to/lastmile_qr_scan"}, "lon": -77.03670233333334, "type": "electric_scooter", "fusion_lat": 0.0, "lat": 38.91871716666667, "name": "9b9f30742572407567993a1c359be487", "fusion_lon": 0.0, "bike_id": "9b9f30742572407567993a1c359be487", "is_disabled": 0, "is_reserved": 0}, {"rental_uris": {"ios": "https://dc.lft.to/lastmile_qr_scan", "android": "https://dc.lft.to/lastmile_qr_scan"}, "lon": -77.02965366666666, "type": "electric_scooter", "fusion_lat": 0.0, "lat": 38.9232135, "name": "7b901434354e282de02cdeee078d2f53", "fusion_lon": 0.0, "bike_id": "7b901434354e282de02cdeee078d2f53", "is_disabled": 0, "is_reserved": 0}, {"rental_uris": {"ios": "https://dc.lft.to/lastmile_qr_scan", "android": "https://dc.lft.to/lastmile_qr_scan"}, "lon": -77.06689483333334, "type": "electric_scooter", "fusion_lat": 0.0, "lat": 38.90972083333333, "name": "288ae7ce98b41fd7bfe585a9ea5033ec", "fusion_lon": 0.0, "bike_id": "288ae7ce98b41fd7bfe585a9ea5033ec", "is_disabled": 0, "is_reserved": 0}, {"rental_uris": {"ios": "https://dc.lft.to/lastmile_qr_scan", "android": "https://dc.lft.to/lastmile_qr_scan"}, "lon": -77.0325805, "type": "electric_scooter", "fusion_lat": 0.0, "lat": 38.93528233333333, "name": "eb20c5428bcb981619c411b25bce0bb8", "fusion_lon": 0.0, "bike_id": "eb20c5428bcb981619c411b25bce0bb8", "is_disabled": 0, "is_reserved": 0}, {"rental_uris": {"ios": "https://dc.lft.to/lastmile_qr_scan", "android": "https://dc.lft.to/lastmile_qr_scan"}, "lon": -76.990349, "type": "electric_scooter", "fusion_lat": 0.0, "lat": 38.85870666666667, "name": "eb1c684c970ab3d1073855e721c8d387", "fusion_lon": 0.0, "bike_id": "eb1c684c970ab3d1073855e721c8d387", "is_disabled": 0, "is_reserved": 0}, {"rental_uris": {"ios": "https://dc.lft.to/lastmile_qr_scan", "android": "https://dc.lft.to/lastmile_qr_scan"}, "lon": -76.97608583333333, "type": "electric_bike", "fusion_lat": 0.0, "lat": 38.913101833333336, "name": "687aa9137f43d81d13303409ff44b2ef", "fusion_lon": 0.0, "bike_id": "687aa9137f43d81d13303409ff44b2ef", "is_disabled": 0, "is_reserved": 0}, {"rental_uris": {"ios": "https://dc.lft.to/lastmile_qr_scan", "android": "https://dc.lft.to/lastmile_qr_scan"}, "lon": -77.027901, "type": "electric_scooter", "fusion_lat": 0.0, "lat": 38.930807, "name": "15a4cb0d72795d59660b6199a1d57146", "fusion_lon": 0.0, "bike_id": "15a4cb0d72795d59660b6199a1d57146", "is_disabled": 0, "is_reserved": 0}, {"rental_uris": {"ios": "https://dc.lft.to/lastmile_qr_scan", "android": "https://dc.lft.to/lastmile_qr_scan"}, "lon": -77.01912466666667, "type": "electric_scooter", "fusion_lat": 0.0, "lat": 38.9026775, "name": "14435bd2ab11dda6e2462c6db7171f0e", "fusion_lon": 0.0, "bike_id": "14435bd2ab11dda6e2462c6db7171f0e", "is_disabled": 0, "is_reserved": 0}, {"rental_uris": {"ios": "https://dc.lft.to/lastmile_qr_scan", "android": "https://dc.lft.to/lastmile_qr_scan"}, "lon": -77.04148816666667, "type": "electric_scooter", "fusion_lat": 0.0, "lat": 38.90744466666666, "name": "c9c87e9461eb02d7280082957e2a31ec", "fusion_lon": 0.0, "bike_id": "c9c87e9461eb02d7280082957e2a31ec", "is_disabled": 0, "is_reserved": 0}, {"rental_uris": {"ios": "https://dc.lft.to/lastmile_qr_scan", "android": "https://dc.lft.to/lastmile_qr_scan"}, "lon": -77.0197865, "type": "electric_scooter", "fusion_lat": 0.0, "lat": 38.89738916666667, "name": "cad6bb02b093bd2c7cee9a6a121fd695", "fusion_lon": 0.0, "bike_id": "cad6bb02b093bd2c7cee9a6a121fd695", "is_disabled": 0, "is_reserved": 0}, {"rental_uris": {"ios": "https://dc.lft.to/lastmile_qr_scan", "android": "https://dc.lft.to/lastmile_qr_scan"}, "lon": -77.0325455, "type": "electric_scooter", "fusion_lat": 0.0, "lat": 38.9387495, "name": "d9e847f65ca626b27a8b854645232924", "fusion_lon": 0.0, "bike_id": "d9e847f65ca626b27a8b854645232924", "is_disabled": 0, "is_reserved": 0}, {"rental_uris": {"ios": "https://dc.lft.to/lastmile_qr_scan", "android": "https://dc.lft.to/lastmile_qr_scan"},