{"data": {"bikes": [{"rental_uris": {"ios": "https://dc.lft.to/lastmile_qr_scan", "android": "https://dc.lft.to/lastmile_qr_scan"}, "lat": 38.909712666666664, "lon": -77.034023, "fusion_lat": 0.0, "name": "c602bd8253b6189ce7001f8c9c879da3", "is_disabled": 0, "is_reserved": 0, "bike_id": "c602bd8253b6189ce7001f8c9c879da3", "fusion_lon": 0.0, "type": "electric_scooter"}, {"rental_uris": {"ios": "https://dc.lft.to/lastmile_qr_scan", "android": "https://dc.lft.to/lastmile_qr_scan"}, "lat": 38.928616, "lon": -77.00552883333333, "fusion_lat": 0.0, "name": "a0e216887a19a3d8ef291840e17a5ce2", "is_disabled": 0, "is_reserved": 0, "bike_id": "a0e216887a19a3d8ef291840e17a5ce2", "fusion_lon": 0.0, "type": "electric_scooter"}, {"rental_uris": {"ios": "https://dc.lft.to/lastmile_qr_scan", "android": "https://dc.lft.to/lastmile_qr_scan"}, "lat": 38.9241585, "lon": -77.0194505, "fusion_lat": 0.0, "name": "402f4f45b075b3323d2841487f8ea10e", "is_disabled": 0, "is_reserved": 0, "bike_id": "402f4f45b075b3323d2841487f8ea10e", "fusion_lon": 0.0, "type": "electric_scooter"}, {"rental_uris": {"ios": "https://dc.lft.to/lastmile_qr_scan", "android": "https://dc.lft.to/lastmile_qr_scan"}, "lat": 38.9286005, "lon": -77.02766216666667, "fusion_lat": 0.0, "name": "2cbe4421dab5cf7b2dbebcab2492442a", "is_disabled": 0, "is_reserved": 0, "bike_id": "2cbe4421dab5cf7b2dbebcab2492442a", "fusion_lon": 0.0, "type": "electric_scooter"}, {"rental_uris": {"ios": "https://dc.lft.to/lastmile_qr_scan", "android": "https://dc.lft.to/lastmile_qr_scan"}, "lat": 38.9061095, "lon": -77.012097, "fusion_lat": 0.0, "name": "a346944a93e1d95a661e086edc33d040", "is_disabled": 0, "is_reserved": 0, "bike_id": "a346944a93e1d95a661e086edc33d040", "fusion_lon": 0.0, "type": "electric_scooter"}, {"rental_uris": {"ios": "https://dc.lft.to/lastmile_qr_scan", "android": "https://dc.lft.to/lastmile_qr_scan"}, "lat": 38.87758733333333, "lon": -76.98682966666667, "fusion_lat": 0.0, "name": "659ee0c144ec21ffcf30a180f4c6361c", "is_disabled": 0, "is_reserved": 0, "bike_id": "659ee0c144ec21ffcf30a180f4c6361c", "fusion_lon": 0.0, "type": "electric_scooter"}, {"rental_uris": {"ios": "https://dc.lft.to/lastmile_qr_scan", "android": "https://dc.lft.to/lastmile_qr_scan"}, "lat": 38.91419166666667, "lon": -77.02409033333333, "fusion_lat": 0.0, "name": "b2dae0811bcc619b13abce8185852ab6", "is_disabled": 0, "is_reserved": 0, "bike_id": "b2dae0811bcc619b13abce8185852ab6", "fusion_lon": 0.0, "type": "electric_scooter"}, {"rental_uris": {"ios": "https://dc.lft.to/lastmile_qr_scan", "android": "https://dc.lft.to/lastmile_qr_scan"}, "lat": 38.884439, "lon": -76.99621083333334, "fusion_lat": 0.0, "name": "be36e2f4f72103f6ee8a7d89253c2557", "is_disabled": 0, "is_reserved": 0, "bike_id": "be36e2f4f72103f6ee8a7d89253c2557", "fusion_lon": 0.0, "type": "electric_scooter"}, {"rental_uris": {"ios": "https://dc.lft.to/lastmile_qr_scan", "android": "https://dc.lft.to/lastmile_qr_scan"}, "lat": 38.895661833333335, "lon": -76.93026483333334, "fusion_lat": 0.0, "name": "ff44985cea801219ab3ff320244c68bc", "is_disabled": 0, "is_reserved": 0, "bike_id": "ff44985cea801219ab3ff320244c68bc", "fusion_lon": 0.0, "type": "electric_scooter"}, {"rental_uris": {"ios": "https://dc.lft.to/lastmile_qr_scan", "android": "https://dc.lft.to/lastmile_qr_scan"}, "lat": 38.923166333333334, "lon": -77.04516283333334, "fusion_lat": 0.0, "name": "0f80bcf9371ae3d09bfa6881230ccdd8", "is_disabled": 0, "is_reserved": 0, "bike_id": "0f80bcf9371ae3d09bfa6881230ccdd8", "fusion_lon": 0.0, "type": "electric_scooter"}, {"rental_uris": {"ios": "https://dc.lft.to/lastmile_qr_scan", "android": "https://dc.lft.to/lastmile_qr_scan"}, "lat": 38.89832366666667, "lon": -77.030484, "fusion_lat": 0.0, "name": "b8cecb3667d30a2a0ee27fa2d59323a9", "is_disabled": 0, "is_reserved": 0, "bike_id": "b8cecb3667d30a2a0ee27fa2d59323a9", "fusion_lon": 0.0, "type": "electric_scooter"}, {"rental_uris": {"ios": "https://dc.lft.to/lastmile_qr_scan", "android": "https://dc.lft.to/lastmile_qr_scan"}, "lat": 38.8324335, "lon": -76.94625933333333, "fusion_lat": 0.0, "name": "b0dc4880fda98ed3fe011c6307b3d958", "is_disabled": 0, "is_reserved": 0, "bike_id": "b0dc4880fda98ed3fe011c6307b3d958", "fusion_lon": 0.0, "type": "electric_bike"}, {"rental_uris": {"ios": "https://dc.lft.to/lastmile_qr_scan", "android": "https://dc.lft.to/lastmile_qr_scan"}, "lat": 38.90851133333334, "lon": -76.99801283333333, "fusion_lat": 0.0, "name": "1e7d6cae07f77dc302e93be055132a44", "is_disabled": 0, "is_reserved": 0, "bike_id": "1e7d6cae07f77dc302e93be055132a44", "fusion_lon": 0.0, "type": "electric_scooter"}, {"rental_uris": {"ios": "https://dc.lft.to/lastmile_qr_scan", "android": "https://dc.lft.to/lastmile_qr_scan"}, "lat": 38.932067, "lon": -77.02731916666667, "fusion_lat": 0.0, "name": "028453b1788607361eb3dbf1d5a75a25", "is_disabled": 0, "is_reserved": 0, "bike_id": "028453b1788607361eb3dbf1d5a75a25", "fusion_lon": 0.0, "type": "electric_scooter"}, {"rental_uris": {"ios": "https://dc.lft.to/lastmile_qr_scan", "android": "https://dc.lft.to/lastmile_qr_scan"}, "lat": 39.03422183333333, "lon": -77.04313633333334, "fusion_lat": 0.0, "name": "5fa6a4d038f40c309562b671e0676a1a", "is_disabled": 0, "is_reserved": 0, "bike_id": "5fa6a4d038f40c309562b671e0676a1a", "fusion_lon": 0.0, "type": "electric_bike"}, {"rental_uris": {"ios": "https://dc.lft.to/lastmile_qr_scan", "android": "https://dc.lft.to/lastmile_qr_scan"}, "lat": 38.88468783333333, "lon": -76.956634, "fusion_lat": 0.0, "name": "ab0454fce7ca0974011762da866f5128", "is_disabled": 0, "is_reserved": 0, "bike_id": "ab0454fce7ca0974011762da866f5128", "fusion_lon": 0.0, "type": "electric_bike"}, {"rental_uris": {"ios": "https://dc.lft.to/lastmile_qr_scan", "android": "https://dc.lft.to/lastmile_qr_scan"}, "lat": 38.90077933333333, "lon": -77.02701133333333, "fusion_lat": 0.0, "name": "71c29c800550c873a6650eb98de46de6", "is_disabled": 0, "is_reserved": 0, "bike_id": "71c29c800550c873a6650eb98de46de6", "fusion_lon": 0.0, "type": "electric_scooter"}, {"rental_uris": {"ios": "https://dc.lft.to/lastmile_qr_scan", "android": "https://dc.lft.to/lastmile_qr_scan"}, "lat": 38.90567, "lon": -76.9778165, "fusion_lat": 0.0, "name": "22d71fd87c452112721b5bfa8885cd4c", "is_disabled": 0, "is_reserved": 0, "bike_id": "22d71fd87c452112721b5bfa8885cd4c", "fusion_lon": 0.0, "type": "electric_scooter"}, {"rental_uris": {"ios": "https://dc.lft.to/lastmile_qr_scan", "android": "https://dc.lft.to/lastmile_qr_scan"}, "lat": 38.90944133333333, "lon": -77.04419416666667, "fusion_lat": 0.0, "name": "4646d0e122a1e32c9edb9104eabb7bde", "is_disabled": 0, "is_reserved": 0, "bike_id": "4646d0e122a1e32c9edb9104eabb7bde", "fusion_lon": 0.0, "type": "electric_scooter"}, {"rental_uris": {"ios": "https://dc.lft.to/lastmile_qr_scan", "android": "https://dc.lft.to/lastmile_qr_scan"}, "lat": 38.91991933333333, "lon": -77.01789816666667, "fusion_lat": 0.0, "name": "9fc7abe8dcef767ca3c9ff5d87ed4a10", "is_disabled": 0, "is_reserved": 0, "bike_id": "9fc7abe8dcef767ca3c9ff5d87ed4a10", "fusion_lon": 0.0, "type": "electric_scooter"}, {"rental_uris": {"ios": "https://dc.lft.to/lastmile_qr_scan", "android": "https://dc.lft.to/lastmile_qr_scan"}, "lat": 38.914697333333336, "lon": -77.04348533333334, "fusion_lat": 0.0, "name": "b79cea561b7f450b6c98e411b069b272", "is_disabled": 0, "is_reserved": 0, "bike_id": "b79cea561b7f450b6c98e411b069b272", "fusion_lon": 0.0, "type": "electric_scooter"}, {"rental_uris": {"ios": "https://dc.lft.to/lastmile_qr_scan", "android": "https://dc.lft.to/lastmile_qr_scan"}, "lat": 38.894079833333336, "lon": -77.01080566666667, "fusion_lat": 0.0, "name": "ef1e15da8e520c442838ffeca18e1ea4", "is_disabled": 0, "is_reserved": 0, "bike_id": "ef1e15da8e520c442838ffeca18e1ea4", "fusion_lon": 0.0, "type": "electric_scooter"}, {"rental_uris": {"ios": "https://dc.lft.to/lastmile_qr_scan", "android": "https://dc.lft.to/lastmile_qr_scan"}, "lat": 38.909716, "lon": -77.021835, "fusion_lat": 0.0, "name": "4a904d81c54081279da5d757ecd0b4b6", "is_disabled": 0, "is_reserved": 0, "bike_id": "4a904d81c54081279da5d757ecd0b4b6", "fusion_lon": 0.0, "type": "electric_scooter"}, {"rental_uris": {"ios": "https://dc.lft.to/lastmile_qr_scan", "android": "https://dc.lft.to/lastmile_qr_scan"}, "lat": 38.92247533333333, "lon": -77.01945733333334, "fusion_lat": 0.0, "name": "e68e4a7e1f984073300169a52e341d7e", "is_disabled": 0, "is_reserved": 0, "bike_id": "e68e4a7e1f984073300169a52e341d7e", "fusion_lon": 0.0, "type": "electric_scooter"}, {"rental_uris": {"ios": "https://dc.lft.to/lastmile_qr_scan", "android": "https://dc.lft.to/lastmile_qr_scan"}, "lat": 38.90654033333333, "lon": -77.04863016666667, "fusion_lat": 0.0, "name": "cf7ddbc8e3c176a3bf37992476cd7341", "is_disabled": 0, "is_reserved": 0, "bike_id": "cf7ddbc8e3c176a3bf37992476cd7341", "fusion_lon": 0.0, "type": "electric_scooter"}, {"rental_uris": {"ios": "https://dc.lft.to/lastmile_qr_scan", "android": "https://dc.lft.to/lastmile_qr_scan"}, "lat": 38.88057666666667, "lon": -77.00552483333334, "fusion_lat": 0.0, "name": "7a5bbd7c62aad7b3ffa57885279a4d7b", "is_disabled": 0, "is_reserved": 0, "bike_id": "7a5bbd7c62aad7b3ffa57885279a4d7b", "fusion_lon": 0.0, "type": "electric_scooter"}, {"rental_uris": {"ios": "https://dc.lft.to/lastmile_qr_scan", "android": "https://dc.lft.to/lastmile_qr_scan"}, "lat": 38.877257, "lon": -77.00543883333333, "fusion_lat": 0.0, "name": "7e7c09d5a40e970f30d324afe8c64cf5", "is_disabled": 0, "is_reserved": 0, "bike_id": "7e7c09d5a40e970f30d324afe8c64cf5", "fusion_lon": 0.0, "type": "electric_scooter"}, {"rental_uris": {"ios": "https://dc.lft.to/lastmile_qr_scan", "android": "https://dc.lft.to/lastmile_qr_scan"}, "lat": 38.92522133333333, "lon": -77.0771635, "fusion_lat": 0.0, "name": "b838b88e5d4f12c87e290ff3040cb283", "is_disabled": 0, "is_reserved": 0, "bike_id": "b838b88e5d4f12c87e290ff3040cb283", "fusion_lon": 0.0, "type": "electric_scooter"}, {"rental_uris": {"ios": "https://dc.lft.to/lastmile_qr_scan", "android": "https://dc.lft.to/lastmile_qr_scan"}, "lat": 38.89478716666667, "lon": -76.94859333333333, "fusion_lat": 0.0, "name": "dd3758c72d9e622bd6dbb2a9fc862ee3", "is_disabled": 0, "is_reserved": 0, "bike_id": "dd3758c72d9e622bd6dbb2a9fc862ee3", "fusion_lon": 0.0, "type": "electric_scooter"}, {"rental_uris": {"ios": "https://dc.lft.to/lastmile_qr_scan", "android": "https://dc.lft.to/lastmile_qr_scan"}, "lat": 38.91728233333333, "lon": -77.03658166666666, "fusion_lat": 0.0, "name": "92764fb88252ec4d4348247de13f472a", "is_disabled": 0, "is_reserved": 0, "bike_id": "92764fb88252ec4d4348247de13f472a", "fusion_lon": 0.0, "type": "electric_scooter"}, {"rental_uris": {"ios": "https://dc.lft.to/lastmile_qr_scan", "android": "https://dc.lft.to/lastmile_qr_scan"}, "lat": 38.9401845, "lon": -76.9760635, "fusion_lat": 0.0, "name": "12efaa97f4a38bd92da253b8d0f63e79", "is_disabled": 0, "is_reserved": 0, "bike_id": "12efaa97f4a38bd92da253b8d0f63e79", "fusion_lon": 0.0, "type": "electric_scooter"}, {"rental_uris": {"ios": "https://dc.lft.to/lastmile_qr_scan", "android": "https://dc.lft.to/lastmile_qr_scan"}, "lat": 38.892363833333334, "lon": -77.03353783333333, "fusion_lat": 0.0, "name": "e12ac5cb88533312ea42cabe8b7d22b2", "is_disabled": 0, "is_reserved": 0, "bike_id": "e12ac5cb88533312ea42cabe8b7d22b2", "fusion_lon": 0.0, "type": "electric_scooter"}, {"rental_uris": {"ios": "https://dc.lft.to/lastmile_qr_scan", "android": "https://dc.lft.to/lastmile_qr_scan"}, "lat": 38.896701666666665, "lon": -77.033502, "fusion_lat": 0.0, "name": "cab0c26adf07a8be286d08e97eeaa3fe", "is_disabled": 0, "is_reserved": 0, "bike_id": "cab0c26adf07a8be286d08e97eeaa3fe", "fusion_lon": 0.0, "type": "electric_scooter"}, {"rental_uris": {"ios": "https://dc.lft.to/lastmile_qr_scan", "android": "https://dc.lft.to/lastmile_qr_scan"}, "lat": 38.9170625, "lon": -77.04122233333334, "fusion_lat": 0.0, "name": "1369a165844fe67fe4ee56aadecf1b13", "is_disabled": 0, "is_reserved": 0, "bike_id": "1369a165844fe67fe4ee56aadecf1b13", "fusion_lon": 0.0, "type": "electric_scooter"}, {"rental_uris": {"ios": "https://dc.lft.to/lastmile_qr_scan", "android": "https://dc.lft.to/lastmile_qr_scan"}, "lat": 38.92248883333333, "lon": -77.02696366666666, "fusion_lat": 0.0, "name": "499d0c731d1cc7b9f354bfaef1282a16", "is_disabled": 0, "is_reserved": 0, "bike_id": "499d0c731d1cc7b9f354bfaef1282a16", "fusion_lon": 0.0, "type": "electric_scooter"}, {"rental_uris": {"ios": "https://dc.lft.to/lastmile_qr_scan", "android": "https://dc.lft.to/lastmile_qr_scan"}, "lat": 38.87173716666667, "lon": -77.00625183333334, "fusion_lat": 0.0, "name": "89dbf407936d02d0384da56160788700", "is_disabled": 0, "is_reserved": 0, "bike_id": "89dbf407936d02d0384da56160788700", "fusion_lon": 0.0, "type": "electric_scooter"}, {"rental_uris": {"ios": "https://dc.lft.to/lastmile_qr_scan", "android": "https://dc.lft.to/lastmile_qr_scan"}, "lat": 38.91535833333333, "lon": -77.01842916666666, "fusion_lat": 0.0, "name": "dcbf9f574023121d2e77f7ab189a9983", "is_disabled": 0, "is_reserved": 0, "bike_id": "dcbf9f574023121d2e77f7ab189a9983", "fusion_lon": 0.0, "type": "electric_scooter"}, {"rental_uris": {"ios": "https://dc.lft.to/lastmile_qr_scan", "android": "https://dc.lft.to/lastmile_qr_scan"}, "lat": 38.950909333333335, "lon": -77.08088733333334, "fusion_lat": 0.0, "name": "953088ed70816a16c679a81835b88217", "is_disabled": 0, "is_reserved": 0, "bike_id": "953088ed70816a16c679a81835b88217", "fusion_lon": 0.0, "type": "electric_bike"}, {"rental_uris": {"ios": "https://dc.lft.to/lastmile_qr_scan", "android": "https://dc.lft.to/lastmile_qr_scan"}, "lat": 38.910331, "lon": -77.02195, "fusion_lat": 0.0, "name": "b8e41ba98bda466c0c0d431567049fac", "is_disabled": 0, "is_reserved": 0, "bike_id": "b8e41ba98bda466c0c0d431567049fac", "fusion_lon": 0.0, "type": "electric_scooter"}, {"rental_uris": {"ios": "https://dc.lft.to/lastmile_qr_scan", "android": "https://dc.lft.to/lastmile_qr_scan"}, "lat": 38.87564233333333, "lon": -76.958643, "fusion_lat": 0.0, "name": "1f7d5387b22e68aadcbce419706f496d", "is_disabled": 0, "is_reserved": 0, "bike_id": "1f7d5387b22e68aadcbce419706f496d", "fusion_lon": 0.0, "type": "electric_scooter"}, {"rental_uris": {"ios": "https://dc.lft.to/lastmile_qr_scan", "android": "https://dc.lft.to/lastmile_qr_scan"}, "lat": 39.03698716666667, "lon": -77.02851433333333, "fusion_lat": 0.0, "name": "4cf9058cc0af6ccdbcec5ad90c18110b", "is_disabled": 0, "is_reserved": 0, "bike_id": "4cf9058cc0af6ccdbcec5ad90c18110b", "fusion_lon": 0.0, "type": "electric_bike"}, {"rental_uris": {"ios": "https://dc.lft.to/lastmile_qr_scan", "android": "https://dc.lft.to/lastmile_qr_scan"}, "lat": 38.89721, "lon": -76.98357366666667, "fusion_lat": 0.0, "name": "db6b22bf469f6883fa94cf5617a44c4e", "is_disabled": 0, "is_reserved": 0, "bike_id": "db6b22bf469f6883fa94cf5617a44c4e", "fusion_lon": 0.0, "type": "electric_scooter"}, {"rental_uris": {"ios": "https://dc.lft.to/lastmile_qr_scan", "android": "https://dc.lft.to/lastmile_qr_scan"}, "lat": 38.939149666666665, "lon": -77.06046466666666, "fusion_lat": 0.0, "name": "004516a9b4c89e21427dd39f758c528e", "is_disabled": 0, "is_reserved": 0, "bike_id": "004516a9b4c89e21427dd39f758c528e", "fusion_lon": 0.0, "type": "electric_scooter"}, {"rental_uris": {"ios": "https://dc.lft.to/lastmile_qr_scan", "android": "https://dc.lft.to/lastmile_qr_scan"}, "lat": 38.915866666666666, "lon": -77.02301283333334, "fusion_lat": 0.0, "name": "f6ef6f3d1139c9b3c5c4274ea9f4e180", "is_disabled": 0, "is_reserved": 0, "bike_id": "f6ef6f3d1139c9b3c5c4274ea9f4e180", "fusion_lon": 0.0, "type": "electric_scooter"}, {"rental_uris": {"ios": "https://dc.lft.to/lastmile_qr_scan", "android": "https://dc.lft.to/lastmile_qr_scan"}, "lat": 38.914809, "lon": -77.02578133333333, "fusion_lat": 0.0, "name": "75886357e9f95def62106ee13fe1730d", "is_disabled": 0, "is_reserved": 0, "bike_id": "75886357e9f95def62106ee13fe1730d", "fusion_lon": 0.0, "type": "electric_scooter"}, {"rental_uris": {"ios": "https://dc.lft.to/lastmile_qr_scan", "android": "https://dc.lft.to/lastmile_qr_scan"}, "lat": 38.9141095, "lon": -77.02613216666667, "fusion_lat": 0.0, "name": "b988b2df14bf5b3336bb4094a595c598", "is_disabled": 0, "is_reserved": 0, "bike_id": "b988b2df14bf5b3336bb4094a595c598", "fusion_lon": 0.0, "type": "electric_scooter"}, {"rental_uris": {"ios": "https://dc.lft.to/lastmile_qr_scan", "android": "https://dc.lft.to/lastmile_qr_scan"}, "lat": 38.89825233333333, "lon": -77.01749, "fusion_lat": 0.0, "name": "ccf03ededd95225405e6fd453f42f845", "is_disabled": 0, "is_reserved": 0, "bike_id": "ccf03ededd95225405e6fd453f42f845", "fusion_lon": 0.0, "type": "electric_scooter"}, {"rental_uris": {"ios": "https://dc.lft.to/lastmile_qr_scan", "android": "https://dc.lft.to/lastmile_qr_scan"}, "lat": 38.94893233333333, "lon": -76.9637515, "fusion_lat": 0.0, "name": "61baa82b53c9d4072b4e2d8a4d402b56", "is_disabled": 0, "is_reserved": 0, "bike_id": "61baa82b53c9d4072b4e2d8a4d402b56", "fusion_lon": 0.0, "type": "electric_bike"}, {"rental_uris": {"ios": "https://dc.lft.to/lastmile_qr_scan", "android": "https://dc.lft.to/lastmile_qr_scan"}, "lat": 38.89839, "lon": -77.04831883333334, "fusion_lat": 0.0, "name": "3b3b7e37317ed060e4d0c8d10fbb8bcc", "is_disabled": 0, "is_reserved": 0, "bike_id": "3b3b7e37317ed060e4d0c8d10fbb8bcc", "fusion_lon": 0.0, "type": "electric_scooter"}, {"rental_uris": {"ios": "https://dc.lft.to/lastmile_qr_scan", "android": "https://dc.lft.to/lastmile_qr_scan"}, "lat": 38.919473833333335, "lon": -77.0138405, "fusion_lat": 0.0, "name": "a765cc3badd4c3807f53e419cb1af447", "is_disabled": 0, "is_reserved": 0, "bike_id": "a765cc3badd4c3807f53e419cb1af447", "fusion_lon": 0.0, "type": "electric_scooter"}, {"rental_uris": {"ios": "https://dc.lft.to/lastmile_qr_scan", "android": "https://dc.lft.to/lastmile_qr_scan"}, "lat": 38.918511333333335, "lon": -77.0320545, "fusion_lat": 0.0, "name": "07115a97f604157e6a2ecf09d67ed723", "is_disabled": 0, "is_reserved": 0, "bike_id": "07115a97f604157e6a2ecf09d67ed723", "fusion_lon": 0.0, "type": "electric_bike"}, {"rental_uris": {"ios": "https://dc.lft.to/lastmile_qr_scan", "android": "https://dc.lft.to/lastmile_qr_scan"}, "lat": 38.88006466666667, "lon": -77.00550966666667, "fusion_lat": 0.0, "name": "c033022273ac79a60b90cddc8e993fcc", "is_disabled": 0, "is_reserved": 0, "bike_id": "c033022273ac79a60b90cddc8e993fcc", "fusion_lon": 0.0, "type": "electric_scooter"}, {"rental_uris": {"ios": "https://dc.lft.to/lastmile_qr_scan", "android": "https://dc.lft.to/lastmile_qr_scan"}, "lat": 38.9210865, "lon": -77.02042666666667, "fusion_lat": 0.0, "name": "6a6f42a2fea72e413e19f273efea1b25", "is_disabled": 0, "is_reserved": 0, "bike_id": "6a6f42a2fea72e413e19f273efea1b25", "fusion_lon": 0.0, "type": "electric_scooter"}, {"rental_uris": {"ios": "https://dc.lft.to/lastmile_qr_scan", "android": "https://dc.lft.to/lastmile_qr_scan"}, "lat": 38.892395, "lon": -77.03351533333333, "fusion_lat": 0.0, "name": "a981c9bd0f3864a621d5c3e72df13e8a", "is_disabled": 0, "is_reserved": 0, "bike_id": "a981c9bd0f3864a621d5c3e72df13e8a", "fusion_lon": 0.0, "type": "electric_scooter"}, {"rental_uris": {"ios": "https://dc.lft.to/lastmile_qr_scan", "android": "https://dc.lft.to/lastmile_qr_scan"}, "lat": 38.8991765, "lon": -77.04492666666667, "fusion_lat": 0.0, "name": "ad91f6e304a6bc5b629fe3770c8e1f53", "is_disabled": 0, "is_reserved": 0, "bike_id": "ad91f6e304a6bc5b629fe3770c8e1f53", "fusion_lon": 0.0, "type": "electric_scooter"}, {"rental_uris": {"ios": "https://dc.lft.to/lastmile_qr_scan", "android": "https://dc.lft.to/lastmile_qr_scan"}, "lat": 38.917877, "lon": -77.023069, "fusion_lat": 0.0, "name": "092a520d5f8b0e6d70ab4d354f8ffbd7", "is_disabled": 0, "is_reserved": 0, "bike_id": "092a520d5f8b0e6d70ab4d354f8ffbd7", "fusion_lon": 0.0, "type": "electric_scooter"}, {"rental_uris": {"ios": "https://dc.lft.to/lastmile_qr_scan", "android": "https://dc.lft.to/lastmile_qr_scan"}, "lat": 38.91059, "lon": -77.0410335, "fusion_lat": 0.0, "name": "4f0c5125c4e6cd75c5923334b6477fde", "is_disabled": 0, "is_reserved": 0, "bike_id": "4f0c5125c4e6cd75c5923334b6477fde", "fusion_lon": 0.0, "type": "electric_scooter"}, {"rental_uris": {"ios": "https://dc.lft.to/lastmile_qr_scan", "android": "https://dc.lft.to/lastmile_qr_scan"}, "lat": 38.883911166666664, "lon": -77.099824, "fusion_lat": 0.0, "name": "1d2ca2a96b4f2502aba4b44e8336d56a", "is_disabled": 0, "is_reserved": 0, "bike_id": "1d2ca2a96b4f2502aba4b44e8336d56a", "fusion_lon": 0.0, "type": "electric_bike"}, {"rental_uris": {"ios": "https://dc.lft.to/lastmile_qr_scan", "android": "https://dc.lft.to/lastmile_qr_scan"}, "lat": 38.90114916666667, "lon": -77.03004316666667, "fusion_lat": 0.0, "name": "c6fa1f363d88b3e1b7ebe9059b354134", "is_disabled": 0, "is_reserved": 0, "bike_id": "c6fa1f363d88b3e1b7ebe9059b354134", "fusion_lon": 0.0, "type": "electric_scooter"}, {"rental_uris": {"ios": "https://dc.lft.to/lastmile_qr_scan", "android": "https://dc.lft.to/lastmile_qr_scan"}, "lat": 38.91716266666667, "lon": -77.031846, "fusion_lat": 0.0, "name": "66e9f4f389dac48a6b592dfa4c6dbcbb", "is_disabled": 0, "is_reserved": 0, "bike_id": "66e9f4f389dac48a6b592dfa4c6dbcbb", "fusion_lon": 0.0, "type": "electric_scooter"}, {"rental_uris": {"ios": "https://dc.lft.to/lastmile_qr_scan", "android": "https://dc.lft.to/lastmile_qr_scan"}, "lat": 38.9221585, "lon": -77.043321, "fusion_lat": 0.0, "name": "11aac92af20935ae892eaade754cfab4", "is_disabled": 0, "is_reserved": 0, "bike_id": "11aac92af20935ae892eaade754cfab4", "fusion_lon": 0.0, "type": "electric_scooter"}, {"rental_uris": {"ios": "https://dc.lft.to/lastmile_qr_scan", "android": "https://dc.lft.to/lastmile_qr_scan"}, "lat": 38.94195216666667, "lon": -77.024323, "fusion_lat": 0.0, "name": "fc8b7b4b9ef1841b58533eea15d06a60", "is_disabled": 0, "is_reserved": 0, "bike_id": "fc8b7b4b9ef1841b58533eea15d06a60", "fusion_lon": 0.0, "type": "electric_scooter"}, {"rental_uris": {"ios": "https://dc.lft.to/lastmile_qr_scan", "android": "https://dc.lft.to/lastmile_qr_scan"}, "lat": 38.905286333333336, "lon": -77.0417745, "fusion_lat": 0.0, "name": "d5846b2c1dfb493add0e263bcb9a7320", "is_disabled": 0, "is_reserved": 0, "bike_id": "d5846b2c1dfb493add0e263bcb9a7320", "fusion_lon": 0.0, "type": "electric_scooter"}, {"rental_uris": {"ios": "https://dc.lft.to/lastmile_qr_scan", "android": "https://dc.lft.to/lastmile_qr_scan"}, "lat": 38.92727933333333, "lon": -77.005632, "fusion_lat": 0.0, "name": "00d57409ca2ee862431f1f72ed557f6c", "is_disabled": 0, "is_reserved": 0, "bike_id": "00d57409ca2ee862431f1f72ed557f6c", "fusion_lon": 0.0, "type": "electric_scooter"}, {"rental_uris": {"ios": "https://dc.lft.to/lastmile_qr_scan", "android": "https://dc.lft.to/lastmile_qr_scan"}, "lat": 38.9951035, "lon": -77.0287265, "fusion_lat": 0.0, "name": "5b287e39efd033ea18aaf8e71b17e35c", "is_disabled": 0, "is_reserved": 0, "bike_id": "5b287e39efd033ea18aaf8e71b17e35c", "fusion_lon": 0.0, "type": "electric_bike"}, {"rental_uris": {"ios": "https://dc.lft.to/lastmile_qr_scan", "android": "https://dc.lft.to/lastmile_qr_scan"}, "lat": 38.9844885, "lon": -77.02644833333333, "fusion_lat": 0.0, "name": "e687bab63f01242c58afa7e8ad49a179", "is_disabled": 0, "is_reserved": 0, "bike_id": "e687bab63f01242c58afa7e8ad49a179", "fusion_lon": 0.0, "type": "electric_scooter"}, {"rental_uris": {"ios": "https://dc.lft.to/lastmile_qr_scan", "android": "https://dc.lft.to/lastmile_qr_scan"}, "lat": 38.9264095, "lon": -76.9842365, "fusion_lat": 0.0, "name": "2005fe14f2b660161c8565bac911f10c", "is_disabled": 0, "is_reserved": 0, "bike_id": "2005fe14f2b660161c8565bac911f10c", "fusion_lon": 0.0, "type": "electric_bike"}, {"rental_uris": {"ios": "https://dc.lft.to/lastmile_qr_scan", "android": "https://dc.lft.to/lastmile_qr_scan"}, "lat": 38.8708705, "lon": -77.01213316666667, "fusion_lat": 0.0, "name": "37e0d27118f39de5a2d89976a892c038", "is_disabled": 0, "is_reserved": 0, "bike_id": "37e0d27118f39de5a2d89976a892c038", "fusion_lon": 0.0, "type": "electric_bike"}, {"rental_uris": {"ios": "https://dc.lft.to/lastmile_qr_scan", "android": "https://dc.lft.to/lastmile_qr_scan"}, "lat": 38.905187, "lon": -77.03186533333333, "fusion_lat": 0.0, "name": "7162aac1f853c290516302148cf23cb4", "is_disabled": 0, "is_reserved": 0, "bike_id": "7162aac1f853c290516302148cf23cb4", "fusion_lon": 0.0, "type": "electric_scooter"}, {"rental_uris": {"ios": "https://dc.lft.to/lastmile_qr_scan", "android": "https://dc.lft.to/lastmile_qr_scan"}, "lat": 38.901909333333336, "lon": -77.01297333333333, "fusion_lat": 0.0, "name": "8012ced9a60e9fad19771561cfff22aa", "is_disabled": 0, "is_reserved": 0, "bike_id": "8012ced9a60e9fad19771561cfff22aa", "fusion_lon": 0.0, "type": "electric_scooter"}, {"rental_uris": {"ios": "https://dc.lft.to/lastmile_qr_scan", "android": "https://dc.lft.to/lastmile_qr_scan"}, "lat": 38.906857, "lon": -77.02368516666667, "fusion_lat": 0.0, "name": "b5c0fa069943471b73b2b8dd876d0627", "is_disabled": 0, "is_reserved": 0, "bike_id": "b5c0fa069943471b73b2b8dd876d0627", "fusion_lon": 0.0, "type": "electric_scooter"}, {"rental_uris": {"ios": "https://dc.lft.to/lastmile_qr_scan", "android": "https://dc.lft.to/lastmile_qr_scan"}, "lat": 38.9366935, "lon": -76.9520195, "fusion_lat": 0.0, "name": "2c0e3f44c6d9479d93a94e84b100bd8b", "is_disabled": 0, "is_reserved": 0, "bike_id": "2c0e3f44c6d9479d93a94e84b100bd8b", "fusion_lon": 0.0, "type": "electric_bike"}, {"rental_uris": {"ios": "https://dc.lft.to/lastmile_qr_scan", "android": "https://dc.lft.to/lastmile_qr_scan"}, "lat": 38.924477, "lon": -77.22547283333333, "fusion_lat": 0.0, "name": "89fa31759f66f9709a772c7215527cbe", "is_disabled": 0, "is_reserved": 0, "bike_id": "89fa31759f66f9709a772c7215527cbe", "fusion_lon": 0.0, "type": "electric_bike"}, {"rental_uris": {"ios": "https://dc.lft.to/lastmile_qr_scan", "android": "https://dc.lft.to/lastmile_qr_scan"}, "lat": 38.9020895, "lon": -76.9740085, "fusion_lat": 0.0, "name": "94d695b6a414d711b37ae61e8439e987", "is_disabled": 0, "is_reserved": 0, "bike_id": "94d695b6a414d711b37ae61e8439e987", "fusion_lon": 0.0, "type": "electric_bike"}, {"rental_uris": {"ios": "https://dc.lft.to/lastmile_qr_scan", "android": "https://dc.lft.to/lastmile_qr_scan"}, "lat": 38.9147225, "lon": -77.04344066666667, "fusion_lat": 0.0, "name": "6aeef939d1d7c26e13a9d2583b284a1d", "is_disabled": 0, "is_reserved": 0, "bike_id": "6aeef939d1d7c26e13a9d2583b284a1d", "fusion_lon": 0.0, "type": "electric_scooter"}, {"rental_uris": {"ios": "https://dc.lft.to/lastmile_qr_scan", "android": "https://dc.lft.to/lastmile_qr_scan"}, "lat": 38.916861833333336, "lon": -77.02953283333333, "fusion_lat": 0.0, "name": "3171205381e659372a0497ee81d40fdc", "is_disabled": 0, "is_reserved": 0, "bike_id": "3171205381e659372a0497ee81d40fdc", "fusion_lon": 0.0, "type": "electric_scooter"}, {"rental_uris": {"ios": "https://dc.lft.to/lastmile_qr_scan", "android": "https://dc.lft.to/lastmile_qr_scan"}, "lat": 38.89661733333333, "lon": -76.9883915, "fusion_lat": 0.0, "name": "c06545e96b84835bd3990d24dfd49fe7", "is_disabled": 0, "is_reserved": 0, "bike_id": "c06545e96b84835bd3990d24dfd49fe7", "fusion_lon": 0.0, "type": "electric_scooter"}, {"rental_uris": {"ios": "https://dc.lft.to/lastmile_qr_scan", "android": "https://dc.lft.to/lastmile_qr_scan"}, "lat": 38.90726266666667, "lon": -77.04078866666667, "fusion_lat": 0.0, "name": "4037710af1838602f0d64724c6deb83c", "is_disabled": 0, "is_reserved": 0, "bike_id": "4037710af1838602f0d64724c6deb83c", "fusion_lon": 0.0, "type": "electric_scooter"}, {"rental_uris": {"ios": "https://dc.lft.to/lastmile_qr_scan", "android": "https://dc.lft.to/lastmile_qr_scan"}, "lat": 38.88713516666667, "lon": -76.99627583333333, "fusion_lat": 0.0, "name": "87e90a7e44512b21c65e42cdfcacf666", "is_disabled": 0, "is_reserved": 0, "bike_id": "87e90a7e44512b21c65e42cdfcacf666", "fusion_lon": 0.0, "type": "electric_scooter"}, {"rental_uris": {"ios": "https://dc.lft.to/lastmile_qr_scan", "android": "https://dc.lft.to/lastmile_qr_scan"}, "lat": 38.89837766666667, "lon": -77.04446883333334, "fusion_lat": 0.0, "name": "1c2453ebce4687717e13c56db8721fd0", "is_disabled": 0, "is_reserved": 0, "bike_id": "1c2453ebce4687717e13c56db8721fd0", "fusion_lon": 0.0, "type": "electric_scooter"}, {"rental_uris": {"ios": "https://dc.lft.to/lastmile_qr_scan", "android": "https://dc.lft.to/lastmile_qr_scan"}, "lat": 38.942899, "lon": -77.02169566666667, "fusion_lat": 0.0, "name": "eb5c1d6d42444838a5bfe3d94d9d3887", "is_disabled": 0, "is_reserved": 0, "bike_id": "eb5c1d6d42444838a5bfe3d94d9d3887", "fusion_lon": 0.0, "type": "electric_scooter"}, {"rental_uris": {"ios": "https://dc.lft.to/lastmile_qr_scan", "android": "https://dc.lft.to/lastmile_qr_scan"}, "lat": 38.912662, "lon": -77.03145883333333, "fusion_lat": 0.0, "name": "1e376898ed9bdc5145606596e7936979", "is_disabled": 0, "is_reserved": 0, "bike_id": "1e376898ed9bdc5145606596e7936979", "fusion_lon": 0.0, "type": "electric_scooter"}, {"rental_uris": {"ios": "https://dc.lft.to/lastmile_qr_scan", "android": "https://dc.lft.to/lastmile_qr_scan"}, "lat": 38.92623566666666, "lon": -77.04213483333334, "fusion_lat": 0.0, "name": "36f040f7f175ed2835932f60b009b578", "is_disabled": 0, "is_reserved": 0, "bike_id": "36f040f7f175ed2835932f60b009b578", "fusion_lon": 0.0, "type": "electric_scooter"}, {"rental_uris": {"ios": "https://dc.lft.to/lastmile_qr_scan", "android": "https://dc.lft.to/lastmile_qr_scan"}, "lat": 38.914021, "lon": -77.0237665, "fusion_lat": 0.0, "name": "5d172d60d1eb88abdf834cf4da69b54b", "is_disabled": 0, "is_reserved": 0, "bike_id": "5d172d60d1eb88abdf834cf4da69b54b", "fusion_lon": 0.0, "type": "electric_scooter"}, {"rental_uris": {"ios": "https://dc.lft.to/lastmile_qr_scan", "android": "https://dc.lft.to/lastmile_qr_scan"}, "lat": 38.87416233333333, "lon": -77.0004095, "fusion_lat": 0.0, "name": "7bb591d6ccddabfcc7241d4b35dfa50c", "is_disabled": 0, "is_reserved": 0, "bike_id": "7bb591d6ccddabfcc7241d4b35dfa50c", "fusion_lon": 0.0, "type": "electric_scooter"}, {"rental_uris": {"ios": "https://dc.lft.to/lastmile_qr_scan", "android": "https://dc.lft.to/lastmile_qr_scan"}, "lat": 38.9111175, "lon": -77.04360733333333, "fusion_lat": 0.0, "name": "aafc38996d16e3940e30de7b30751103", "is_disabled": 0, "is_reserved": 0, "bike_id": "aafc38996d16e3940e30de7b30751103", "fusion_lon": 0.0, "type": "electric_scooter"}, {"rental_uris": {"ios": "https://dc.lft.to/lastmile_qr_scan", "android": "https://dc.lft.to/lastmile_qr_scan"}, "lat": 38.94022116666667, "lon": -76.9921655, "fusion_lat": 0.0, "name": "915d9782d4ec300ae62bd5c805689dea", "is_disabled": 0, "is_reserved": 0, "bike_id": "915d9782d4ec300ae62bd5c805689dea", "fusion_lon": 0.0, "type": "electric_bike"}, {"rental_uris": {"ios": "https://dc.lft.to/lastmile_qr_scan", "android": "https://dc.lft.to/lastmile_qr_scan"}, "lat": 38.92303916666667, "lon": -77.0445835, "fusion_lat": 0.0, "name": "5502e64cf64bd1361a5a428076f186b3", "is_disabled": 0, "is_reserved": 0, "bike_id": "5502e64cf64bd1361a5a428076f186b3", "fusion_lon": 0.0, "type": "electric_scooter"}, {"rental_uris": {"ios": "https://dc.lft.to/lastmile_qr_scan", "android": "https://dc.lft.to/lastmile_qr_scan"}, "lat": 38.89611033333333, "lon": -77.026246, "fusion_lat": 0.0, "name": "5e4f0690c6c818fdab70ae0158def7ed", "is_disabled": 0, "is_reserved": 0, "bike_id": "5e4f0690c6c818fdab70ae0158def7ed", "fusion_lon": 0.0, "type": "electric_scooter"}, {"rental_uris": {"ios": "https://dc.lft.to/lastmile_qr_scan", "android": "https://dc.lft.to/lastmile_qr_scan"}, "lat": 38.874213, "lon": -77.085732, "fusion_lat": 0.0, "name": "d50bd7c267cf7cb2f1cc1d47f6c1f16a", "is_disabled": 0, "is_reserved": 0, "bike_id": "d50bd7c267cf7cb2f1cc1d47f6c1f16a", "fusion_lon": 0.0, "type": "electric_bike"}, {"rental_uris": {"ios": "https://dc.lft.to/lastmile_qr_scan", "android": "https://dc.lft.to/lastmile_qr_scan"}, "lat": 38.89495616666667, "lon": -77.01080566666667, "fusion_lat": 0.0, "name": "d58660655e16252e895da81c41899c7e", "is_disabled": 0, "is_reserved": 0, "bike_id": "d58660655e16252e895da81c41899c7e", "fusion_lon": 0.0, "type": "electric_scooter"}, {"rental_uris": {"ios": "https://dc.lft.to/lastmile_qr_scan", "android": "https://dc.lft.to/lastmile_qr_scan"}, "lat": 38.929299666666665, "lon": -77.02975866666667, "fusion_lat": 0.0, "name": "cfb944d08adecc5654f696f335561c94", "is_disabled": 0, "is_reserved": 0, "bike_id": "cfb944d08adecc5654f696f335561c94", "fusion_lon": 0.0, "type": "electric_scooter"}, {"rental_uris": {"ios": "https://dc.lft.to/lastmile_qr_scan", "android": "https://dc.lft.to/lastmile_qr_scan"}, "lat": 38.88028633333333, "lon": -77.02506516666666, "fusion_lat": 0.0, "name": "e251cf940fe9828072329f2db41e78d5", "is_disabled": 0, "is_reserved": 0, "bike_id": "e251cf940fe9828072329f2db41e78d5", "fusion_lon": 0.0, "type": "electric_scooter"}, {"rental_uris": {"ios": "https://dc.lft.to/lastmile_qr_scan", "android": "https://dc.lft.to/lastmile_qr_scan"}, "lat": 38.904087, "lon": -76.97328683333333, "fusion_lat": 0.0, "name": "34e8e36eb42f4ce871417841e12019dc", "is_disabled": 0, "is_reserved": 0, "bike_id": "34e8e36eb42f4ce871417841e12019dc", "fusion_lon": 0.0, "type": "electric_scooter"}, {"rental_uris": {"ios": "https://dc.lft.to/lastmile_qr_scan", "android": "https://dc.lft.to/lastmile_qr_scan"}, "lat": 38.886699666666665, "lon": -77.01978, "fusion_lat": 0.0, "name": "5fc1afcefbd8558021f196d012bf9b60", "is_disabled": 0, "is_reserved": 0, "bike_id": "5fc1afcefbd8558021f196d012bf9b60", "fusion_lon": 0.0, "type": "electric_scooter"}, {"rental_uris": {"ios": "https://dc.lft.to/lastmile_qr_scan", "android": "https://dc.lft.to/lastmile_qr_scan"}, "lat": 38.91868383333333, "lon": -77.04020883333334, "fusion_lat": 0.0, "name": "09038c526040b77a25aa8fd89fa836da", "is_disabled": 0, "is_reserved": 0, "bike_id": "09038c526040b77a25aa8fd89fa836da", "fusion_lon": 0.0, "type": "electric_scooter"}, {"rental_uris": {"ios": "https://dc.lft.to/lastmile_qr_scan", "android": "https://dc.lft.to/lastmile_qr_scan"}, "lat": 38.91733633333333, "lon": -77.03192316666667, "fusion_lat": 0.0, "name": "9456bb97366a52e770c42dc77b960b6e", "is_disabled": 0, "is_reserved": 0, "bike_id": "9456bb97366a52e770c42dc77b960b6e", "fusion_lon": 0.0, "type": "electric_scooter"}, {"rental_uris": {"ios": "https://dc.lft.to/lastmile_qr_scan", "android": "https://dc.lft.to/lastmile_qr_scan"}, "lat": 38.85891183333333, "lon": -77.11862933333333, "fusion_lat": 0.0, "name": "ea1634ccae2b0d0eb87552cba3180ef4", "is_disabled": 0, "is_reserved": 0, "bike_id": "ea1634ccae2b0d0eb87552cba3180ef4", "fusion_lon": 0.0, "type": "electric_bike"}, {"rental_uris": {"ios": "https://dc.lft.to/lastmile_qr_scan", "android": "https://dc.lft.to/lastmile_qr_scan"}, "lat": 38.900011, "lon": -77.04035316666666, "fusion_lat": 0.0, "name": "4d234045c292a15fc6a4f97e15d499f2", "is_disabled": 0, "is_reserved": 0, "bike_id": "4d234045c292a15fc6a4f97e15d499f2", "fusion_lon": 0.0, "type": "electric_scooter"}, {"rental_uris": {"ios": "https://dc.lft.to/lastmile_qr_scan", "android": "https://dc.lft.to/lastmile_qr_scan"}, "lat": 38.874601, "lon": -77.00486983333333, "fusion_lat": 0.0, "name": "f050020f0c1e02098f932406f74be789", "is_disabled": 0, "is_reserved": 0, "bike_id": "f050020f0c1e02098f932406f74be789", "fusion_lon": 0.0, "type": "electric_scooter"}, {"rental_uris": {"ios": "https://dc.lft.to/lastmile_qr_scan", "android": "https://dc.lft.to/lastmile_qr_scan"}, "lat": 38.9117545, "lon": -77.02825416666667, "fusion_lat": 0.0, "name": "93f5af6812731ed456a3a5356b3bcaa8", "is_disabled": 0, "is_reserved": 0, "bike_id": "93f5af6812731ed456a3a5356b3bcaa8", "fusion_lon": 0.0, "type": "electric_scooter"}, {"rental_uris": {"ios": "https://dc.lft.to/lastmile_qr_scan", "android": "https://dc.lft.to/lastmile_qr_scan"}, "lat": 38.896811666666665, "lon": -77.0322775, "fusion_lat": 0.0, "name": "b9c3de12585202add4bdee380b8d72c6", "is_disabled": 0, "is_reserved": 0, "bike_id": "b9c3de12585202add4bdee380b8d72c6", "fusion_lon": 0.0, "type": "electric_scooter"}, {"rental_uris": {"ios": "https://dc.lft.to/lastmile_qr_scan", "android": "https://dc.lft.to/lastmile_qr_scan"}, "lat": 38.89604833333333, "lon": -76.98863166666666, "fusion_lat": 0.0, "name": "cc09159c2f88de30af61c763f7081915", "is_disabled": 0, "is_reserved": 0, "bike_id": "cc09159c2f88de30af61c763f7081915", "fusion_lon": 0.0, "type": "electric_scooter"}, {"rental_uris": {"ios": "https://dc.lft.to/lastmile_qr_scan", "android": "https://dc.lft.to/lastmile_qr_scan"}, "lat": 38.96405583333333, "lon": -76.99991566666667, "fusion_lat": 0.0, "name": "2eca741502a2c4ff95601aa4de4fac8c", "is_disabled": 0, "is_reserved": 0, "bike_id": "2eca741502a2c4ff95601aa4de4fac8c", "fusion_lon": 0.0, "type": "electric_bike"}, {"rental_uris": {"ios": "https://dc.lft.to/lastmile_qr_scan", "android": "https://dc.lft.to/lastmile_qr_scan"}, "lat": 38.8992105, "lon": -77.02821416666667, "fusion_lat": 0.0, "name": "3efeb3e53a2d9c399c5523b5e78d7dde", "is_disabled": 0, "is_reserved": 0, "bike_id": "3efeb3e53a2d9c399c5523b5e78d7dde", "fusion_lon": 0.0, "type": "electric_scooter"}, {"rental_uris": {"ios": "https://dc.lft.to/lastmile_qr_scan", "android": "https://dc.lft.to/lastmile_qr_scan"}, "lat": 38.895514166666665, "lon": -77.04684516666667, "fusion_lat": 0.0, "name": "ea1b3f67f110ad088f8bb3fe37a14457", "is_disabled": 0, "is_reserved": 0, "bike_id": "ea1b3f67f110ad088f8bb3fe37a14457", "fusion_lon": 0.0, "type": "electric_scooter"}, {"rental_uris": {"ios": "https://dc.lft.to/lastmile_qr_scan", "android": "https://dc.lft.to/lastmile_qr_scan"}, "lat": 38.904939, "lon": -77.04344166666667, "fusion_lat": 0.0, "name": "617dc8e2009da073daa0c08a4d7f40ee", "is_disabled": 0, "is_reserved": 0, "bike_id": "617dc8e2009da073daa0c08a4d7f40ee", "fusion_lon": 0.0, "type": "electric_scooter"}, {"rental_uris": {"ios": "https://dc.lft.to/lastmile_qr_scan", "android": "https://dc.lft.to/lastmile_qr_scan"}, "lat": 38.903952, "lon": -77.06297266666667, "fusion_lat": 0.0, "name": "1aa778d43c5d50b83e2327cb91f7c14d", "is_disabled": 0, "is_reserved": 0, "bike_id": "1aa778d43c5d50b83e2327cb91f7c14d", "fusion_lon": 0.0, "type": "electric_scooter"}, {"rental_uris": {"ios": "https://dc.lft.to/lastmile_qr_scan", "android": "https://dc.lft.to/lastmile_qr_scan"}, "lat": 38.918164166666664, "lon": -77.040043, "fusion_lat": 0.0, "name": "72cbdaacd5c221283d2fbc91aa2ecab0", "is_disabled": 0, "is_reserved": 0, "bike_id": "72cbdaacd5c221283d2fbc91aa2ecab0", "fusion_lon": 0.0, "type": "electric_scooter"}, {"rental_uris": {"ios": "https://dc.lft.to/lastmile_qr_scan", "android": "https://dc.lft.to/lastmile_qr_scan"}, "lat": 38.91117283333333, "lon": -77.044011, "fusion_lat": 0.0, "name": "7f3c5be0a63fd3946cb084c050d00741", "is_disabled": 0, "is_reserved": 0, "bike_id": "7f3c5be0a63fd3946cb084c050d00741", "fusion_lon": 0.0, "type": "electric_scooter"}, {"rental_uris": {"ios": "https://dc.lft.to/lastmile_qr_scan", "android": "https://dc.lft.to/lastmile_qr_scan"}, "lat": 38.91709016666667, "lon": -77.03919316666666, "fusion_lat": 0.0, "name": "b560614389d2c7217d5d1b153459e5aa", "is_disabled": 0, "is_reserved": 0, "bike_id": "b560614389d2c7217d5d1b153459e5aa", "fusion_lon": 0.0, "type": "electric_scooter"}, {"rental_uris": {"ios": "https://dc.lft.to/lastmile_qr_scan", "android": "https://dc.lft.to/lastmile_qr_scan"}, "lat": 38.90737083333333, "lon": -77.00241633333333, "fusion_lat": 0.0, "name": "abbc411602d9213ad9981eb6215a07f2", "is_disabled": 0, "is_reserved": 0, "bike_id": "abbc411602d9213ad9981eb6215a07f2", "fusion_lon": 0.0, "type": "electric_scooter"}, {"rental_uris": {"ios": "https://dc.lft.to/lastmile_qr_scan", "android": "https://dc.lft.to/lastmile_qr_scan"}, "lat": 38.903999, "lon": -77.04865783333334, "fusion_lat": 0.0, "name": "1767872a00ea7da6bcdefa40e3f0684c", "is_disabled": 0, "is_reserved": 0, "bike_id": "1767872a00ea7da6bcdefa40e3f0684c", "fusion_lon": 0.0, "type": "electric_scooter"}, {"rental_uris": {"ios": "https://dc.lft.to/lastmile_qr_scan", "android": "https://dc.lft.to/lastmile_qr_scan"}, "lat": 38.90815766666667, "lon": -77.03439566666667, "fusion_lat": 0.0, "name": "1787793e77b2e76b15d3df9c18e33123", "is_disabled": 0, "is_reserved": 0, "bike_id": "1787793e77b2e76b15d3df9c18e33123", "fusion_lon": 0.0, "type": "electric_scooter"}, {"rental_uris": {"ios": "https://dc.lft.to/lastmile_qr_scan", "android": "https://dc.lft.to/lastmile_qr_scan"}, "lat": 38.92488216666667, "lon": -77.03182066666666, "fusion_lat": 0.0, "name": "08c99bc7aa60024f0d14bd2b006dd2c6", "is_disabled": 0, "is_reserved": 0, "bike_id": "08c99bc7aa60024f0d14bd2b006dd2c6", "fusion_lon": 0.0, "type": "electric_scooter"}, {"rental_uris": {"ios": "https://dc.lft.to/lastmile_qr_scan", "android": "https://dc.lft.to/lastmile_qr_scan"}, "lat": 38.911238833333336, "lon": -77.04343416666667, "fusion_lat": 0.0, "name": "22d3c00af812d66a1335a4afeec43e67", "is_disabled": 0, "is_reserved": 0, "bike_id": "22d3c00af812d66a1335a4afeec43e67", "fusion_lon": 0.0, "type": "electric_scooter"}, {"rental_uris": {"ios": "https://dc.lft.to/lastmile_qr_scan", "android": "https://dc.lft.to/lastmile_qr_scan"}, "lat": 38.88852516666667, "lon": -77.000476, "fusion_lat": 0.0, "name": "9fe93d51fc2dcc5f15a18172b31de541", "is_disabled": 0, "is_reserved": 0, "bike_id": "9fe93d51fc2dcc5f15a18172b31de541", "fusion_lon": 0.0, "type": "electric_scooter"}, {"rental_uris": {"ios": "https://dc.lft.to/lastmile_qr_scan", "android": "https://dc.lft.to/lastmile_qr_scan"}, "lat": 38.908614666666665, "lon": -77.05486233333333, "fusion_lat": 0.0, "name": "87a8dbd7bcbaee4db9c29507b008191f", "is_disabled": 0, "is_reserved": 0, "bike_id": "87a8dbd7bcbaee4db9c29507b008191f", "fusion_lon": 0.0, "type": "electric_scooter"}, {"rental_uris": {"ios": "https://dc.lft.to/lastmile_qr_scan", "android": "https://dc.lft.to/lastmile_qr_scan"}, "lat": 38.89603783333333, "lon": -77.02246716666667, "fusion_lat": 0.0, "name": "90975c5dcf4bf9b82183789b8e48402a", "is_disabled": 0, "is_reserved": 0, "bike_id": "90975c5dcf4bf9b82183789b8e48402a", "fusion_lon": 0.0, "type": "electric_scooter"}, {"rental_uris": {"ios": "https://dc.lft.to/lastmile_qr_scan", "android": "https://dc.lft.to/lastmile_qr_scan"}, "lat": 38.904193166666666, "lon": -77.043495, "fusion_lat": 0.0, "name": "6139cd4f8f09df87370df319c6cb5b1f", "is_disabled": 0, "is_reserved": 0, "bike_id": "6139cd4f8f09df87370df319c6cb5b1f", "fusion_lon": 0.0, "type": "electric_scooter"}, {"rental_uris": {"ios": "https://dc.lft.to/lastmile_qr_scan", "android": "https://dc.lft.to/lastmile_qr_scan"}, "lat": 38.90853216666667, "lon": -76.99798866666667, "fusion_lat": 0.0, "name": "fbe8d107473fae800c7eee1e42be0729", "is_disabled": 0, "is_reserved": 0, "bike_id": "fbe8d107473fae800c7eee1e42be0729", "fusion_lon": 0.0, "type": "electric_scooter"}, {"rental_uris": {"ios": "https://dc.lft.to/lastmile_qr_scan", "android": "https://dc.lft.to/lastmile_qr_scan"}, "lat": 38.916757, "lon": -77.02318683333333, "fusion_lat": 0.0, "name": "7d3297e9e7f05df192e4a96c25dce3d8", "is_disabled": 0, "is_reserved": 0, "bike_id": "7d3297e9e7f05df192e4a96c25dce3d8", "fusion_lon": 0.0, "type": "electric_scooter"}, {"rental_uris": {"ios": "https://dc.lft.to/lastmile_qr_scan", "android": "https://dc.lft.to/lastmile_qr_scan"}, "lat": 38.950754333333336, "lon": -77.02983033333334, "fusion_lat": 0.0, "name": "225711f2e17cd10fdfe7aace6eb6524c", "is_disabled": 0, "is_reserved": 0, "bike_id": "225711f2e17cd10fdfe7aace6eb6524c", "fusion_lon": 0.0, "type": "electric_scooter"}, {"rental_uris": {"ios": "https://dc.lft.to/lastmile_qr_scan", "android": "https://dc.lft.to/lastmile_qr_scan"}, "lat": 38.876532166666664, "lon": -76.9313045, "fusion_lat": 0.0, "name": "b191252cf39f2e6e7cd9ece0e0168c17", "is_disabled": 0, "is_reserved": 0, "bike_id": "b191252cf39f2e6e7cd9ece0e0168c17", "fusion_lon": 0.0, "type": "electric_scooter"}, {"rental_uris": {"ios": "https://dc.lft.to/lastmile_qr_scan", "android": "https://dc.lft.to/lastmile_qr_scan"}, "lat": 38.9073455, "lon": -77.02375016666667, "fusion_lat": 0.0, "name": "ce5cd932e6123726bb3ffe10b4530972", "is_disabled": 0, "is_reserved": 0, "bike_id": "ce5cd932e6123726bb3ffe10b4530972", "fusion_lon": 0.0, "type": "electric_scooter"}, {"rental_uris": {"ios": "https://dc.lft.to/lastmile_qr_scan", "android": "https://dc.lft.to/lastmile_qr_scan"}, "lat": 38.87660066666667, "lon": -77.004366, "fusion_lat": 0.0, "name": "6b9f034b32d1964585ed56882fd9ce43", "is_disabled": 0, "is_reserved": 0, "bike_id": "6b9f034b32d1964585ed56882fd9ce43", "fusion_lon": 0.0, "type": "electric_scooter"}, {"rental_uris": {"ios": "https://dc.lft.to/lastmile_qr_scan", "android": "https://dc.lft.to/lastmile_qr_scan"}, "lat": 38.90766716666667, "lon": -77.034641, "fusion_lat": 0.0, "name": "023874ff263e8eaae4ad99585fb22f05", "is_disabled": 0, "is_reserved": 0, "bike_id": "023874ff263e8eaae4ad99585fb22f05", "fusion_lon": 0.0, "type": "electric_scooter"}, {"rental_uris": {"ios": "https://dc.lft.to/lastmile_qr_scan", "android": "https://dc.lft.to/lastmile_qr_scan"}, "lat": 38.938736666666664, "lon": -77.03397083333333, "fusion_lat": 0.0, "name": "40e35c251fcffff297f74b58fff415ea", "is_disabled": 0, "is_reserved": 0, "bike_id": "40e35c251fcffff297f74b58fff415ea", "fusion_lon": 0.0, "type": "electric_scooter"}, {"rental_uris": {"ios": "https://dc.lft.to/lastmile_qr_scan", "android": "https://dc.lft.to/lastmile_qr_scan"}, "lat": 38.86020933333333, "lon": -76.9968075, "fusion_lat": 0.0, "name": "82c6ff4bba07bde414be67014fe6a26d", "is_disabled": 0, "is_reserved": 0, "bike_id": "82c6ff4bba07bde414be67014fe6a26d", "fusion_lon": 0.0, "type": "electric_scooter"}, {"rental_uris": {"ios": "https://dc.lft.to/lastmile_qr_scan", "android": "https://dc.lft.to/lastmile_qr_scan"}, "lat": 38.92249, "lon": -77.04206466666666, "fusion_lat": 0.0, "name": "31162de74fceb61588ea3a73d6028974", "is_disabled": 0, "is_reserved": 0, "bike_id": "31162de74fceb61588ea3a73d6028974", "fusion_lon": 0.0, "type": "electric_scooter"}, {"rental_uris": {"ios": "https://dc.lft.to/lastmile_qr_scan", "android": "https://dc.lft.to/lastmile_qr_scan"}, "lat": 38.87876216666667, "lon": -77.01754716666666, "fusion_lat": 0.0, "name": "d08b9d3dcf2060253dbb220ecf576484", "is_disabled": 0, "is_reserved": 0, "bike_id": "d08b9d3dcf2060253dbb220ecf576484", "fusion_lon": 0.0, "type": "electric_scooter"}, {"rental_uris": {"ios": "https://dc.lft.to/lastmile_qr_scan", "android": "https://dc.lft.to/lastmile_qr_scan"}, "lat": 38.92265016666666, "lon": -77.02242033333333, "fusion_lat": 0.0, "name": "20919613b2173d246480f42014b2696f", "is_disabled": 0, "is_reserved": 0, "bike_id": "20919613b2173d246480f42014b2696f", "fusion_lon": 0.0, "type": "electric_scooter"}, {"rental_uris": {"ios": "https://dc.lft.to/lastmile_qr_scan", "android": "https://dc.lft.to/lastmile_qr_scan"}, "lat": 38.92141066666667, "lon": -77.04351316666667, "fusion_lat": 0.0, "name": "4bd7a75a1b7ef31956a0b9786dff762c", "is_disabled": 0, "is_reserved": 0, "bike_id": "4bd7a75a1b7ef31956a0b9786dff762c", "fusion_lon": 0.0, "type": "electric_scooter"}, {"rental_uris": {"ios": "https://dc.lft.to/lastmile_qr_scan", "android": "https://dc.lft.to/lastmile_qr_scan"}, "lat": 38.90357266666667, "lon": -77.04198383333333, "fusion_lat": 0.0, "name": "6597943ef2d68db97abd8055bab9ee48", "is_disabled": 0, "is_reserved": 0, "bike_id": "6597943ef2d68db97abd8055bab9ee48", "fusion_lon": 0.0, "type": "electric_scooter"}, {"rental_uris": {"ios": "https://dc.lft.to/lastmile_qr_scan", "android": "https://dc.lft.to/lastmile_qr_scan"}, "lat": 38.91812316666667, "lon": -77.03172066666667, "fusion_lat": 0.0, "name": "3911c5ca4906b49a4a16dc4f4b7a298c", "is_disabled": 0, "is_reserved": 0, "bike_id": "3911c5ca4906b49a4a16dc4f4b7a298c", "fusion_lon": 0.0, "type": "electric_scooter"}, {"rental_uris": {"ios": "https://dc.lft.to/lastmile_qr_scan", "android": "https://dc.lft.to/lastmile_qr_scan"}, "lat": 38.921434166666664, "lon": -76.9955155, "fusion_lat": 0.0, "name": "c15029a5ccb258ba4c776aeff799834e", "is_disabled": 0, "is_reserved": 0, "bike_id": "c15029a5ccb258ba4c776aeff799834e", "fusion_lon": 0.0, "type": "electric_scooter"}, {"rental_uris": {"ios": "https://dc.lft.to/lastmile_qr_scan", "android": "https://dc.lft.to/lastmile_qr_scan"}, "lat": 38.9533115, "lon": -76.98253816666667, "fusion_lat": 0.0, "name": "1631f67388049460756dcfb80b8ee209", "is_disabled": 0, "is_reserved": 0, "bike_id": "1631f67388049460756dcfb80b8ee209", "fusion_lon": 0.0, "type": "electric_bike"}, {"rental_uris": {"ios": "https://dc.lft.to/lastmile_qr_scan", "android": "https://dc.lft.to/lastmile_qr_scan"}, "lat": 38.9036405, "lon": -77.0602055, "fusion_lat": 0.0, "name": "b73b67d51c4c9ba69feb51ac1261f7e6", "is_disabled": 0, "is_reserved": 0, "bike_id": "b73b67d51c4c9ba69feb51ac1261f7e6", "fusion_lon": 0.0, "type": "electric_scooter"}, {"rental_uris": {"ios": "https://dc.lft.to/lastmile_qr_scan", "android": "https://dc.lft.to/lastmile_qr_scan"}, "lat": 38.885288333333335, "lon": -76.98054166666667, "fusion_lat": 0.0, "name": "df6cfa3bbb9902c0edbbf4c2bd64502d", "is_disabled": 0, "is_reserved": 0, "bike_id": "df6cfa3bbb9902c0edbbf4c2bd64502d", "fusion_lon": 0.0, "type": "electric_scooter"}, {"rental_uris": {"ios": "https://dc.lft.to/lastmile_qr_scan", "android": "https://dc.lft.to/lastmile_qr_scan"}, "lat": 38.91968283333333, "lon": -77.03824766666666, "fusion_lat": 0.0, "name": "c771090920ec03a87e8368b7919c013f", "is_disabled": 0, "is_reserved": 0, "bike_id": "c771090920ec03a87e8368b7919c013f", "fusion_lon": 0.0, "type": "electric_scooter"}, {"rental_uris": {"ios": "https://dc.lft.to/lastmile_qr_scan", "android": "https://dc.lft.to/lastmile_qr_scan"}, "lat": 38.9111785, "lon": -77.04206716666667, "fusion_lat": 0.0, "name": "8622b3a02010ca6bdfd71fa05ceb6c04", "is_disabled": 0, "is_reserved": 0, "bike_id": "8622b3a02010ca6bdfd71fa05ceb6c04", "fusion_lon": 0.0, "type": "electric_scooter"}, {"rental_uris": {"ios": "https://dc.lft.to/lastmile_qr_scan", "android": "https://dc.lft.to/lastmile_qr_scan"}, "lat": 38.956813, "lon": -77.02230466666667, "fusion_lat": 0.0, "name": "acd77da129cd63180db3b51e54bd9460", "is_disabled": 0, "is_reserved": 0, "bike_id": "acd77da129cd63180db3b51e54bd9460", "fusion_lon": 0.0, "type": "electric_bike"}, {"rental_uris": {"ios": "https://dc.lft.to/lastmile_qr_scan", "android": "https://dc.lft.to/lastmile_qr_scan"}, "lat": 38.93455183333333, "lon": -77.04533566666667, "fusion_lat": 0.0, "name": "13510bdd6ab7889e6d9554503d5fb36f", "is_disabled": 0, "is_reserved": 0, "bike_id": "13510bdd6ab7889e6d9554503d5fb36f", "fusion_lon": 0.0, "type": "electric_scooter"}, {"rental_uris": {"ios": "https://dc.lft.to/lastmile_qr_scan", "android": "https://dc.lft.to/lastmile_qr_scan"}, "lat": 38.89918466666666, "lon": -76.93364433333333, "fusion_lat": 0.0, "name": "40c5da90fd5cd39cb7486f766a748c3f", "is_disabled": 0, "is_reserved": 0, "bike_id": "40c5da90fd5cd39cb7486f766a748c3f", "fusion_lon": 0.0, "type": "electric_scooter"}, {"rental_uris": {"ios": "https://dc.lft.to/lastmile_qr_scan", "android": "https://dc.lft.to/lastmile_qr_scan"}, "lat": 38.91563933333333, "lon": -77.02593533333334, "fusion_lat": 0.0, "name": "543a94d8dbdd1647d48b9f9f6b4caa3c", "is_disabled": 0, "is_reserved": 0, "bike_id": "543a94d8dbdd1647d48b9f9f6b4caa3c", "fusion_lon": 0.0, "type": "electric_scooter"}, {"rental_uris": {"ios": "https://dc.lft.to/lastmile_qr_scan", "android": "https://dc.lft.to/lastmile_qr_scan"}, "lat": 38.90134033333333, "lon": -77.0180405, "fusion_lat": 0.0, "name": "0c8f7af7859934678f197bb1d3ab5835", "is_disabled": 0, "is_reserved": 0, "bike_id": "0c8f7af7859934678f197bb1d3ab5835", "fusion_lon": 0.0, "type": "electric_scooter"}, {"rental_uris": {"ios": "https://dc.lft.to/lastmile_qr_scan", "android": "https://dc.lft.to/lastmile_qr_scan"}, "lat": 38.8624565, "lon": -76.99497583333333, "fusion_lat": 0.0, "name": "ef0d5d374a460f4c4df48efb1ce997ca", "is_disabled": 0, "is_reserved": 0, "bike_id": "ef0d5d374a460f4c4df48efb1ce997ca", "fusion_lon": 0.0, "type": "electric_scooter"}, {"rental_uris": {"ios": "https://dc.lft.to/lastmile_qr_scan", "android": "https://dc.lft.to/lastmile_qr_scan"}, "lat": 38.906863666666666, "lon": -77.02385883333334, "fusion_lat": 0.0, "name": "a9470c8e86d2c1c8c965d97899ddc385", "is_disabled": 0, "is_reserved": 0, "bike_id": "a9470c8e86d2c1c8c965d97899ddc385", "fusion_lon": 0.0, "type": "electric_scooter"}, {"rental_uris": {"ios": "https://dc.lft.to/lastmile_qr_scan", "android": "https://dc.lft.to/lastmile_qr_scan"}, "lat": 38.871704666666666, "lon": -77.00679716666667, "fusion_lat": 0.0, "name": "e00ad548da4ee1829d9614bf20a504b2", "is_disabled": 0, "is_reserved": 0, "bike_id": "e00ad548da4ee1829d9614bf20a504b2", "fusion_lon": 0.0, "type": "electric_scooter"}, {"rental_uris": {"ios": "https://dc.lft.to/lastmile_qr_scan", "android": "https://dc.lft.to/lastmile_qr_scan"}, "lat": 38.9064065, "lon": -77.01142, "fusion_lat": 0.0, "name": "1cc19ae27622bd656d9652ae4b77e57b", "is_disabled": 0, "is_reserved": 0, "bike_id": "1cc19ae27622bd656d9652ae4b77e57b", "fusion_lon": 0.0, "type": "electric_scooter"}, {"rental_uris": {"ios": "https://dc.lft.to/lastmile_qr_scan", "android": "https://dc.lft.to/lastmile_qr_scan"}, "lat": 38.86680233333333, "lon": -76.98575216666667, "fusion_lat": 0.0, "name": "22133cadd0f93672d2c30eff2821e7a3", "is_disabled": 0, "is_reserved": 0, "bike_id": "22133cadd0f93672d2c30eff2821e7a3", "fusion_lon": 0.0, "type": "electric_scooter"}, {"rental_uris": {"ios": "https://dc.lft.to/lastmile_qr_scan", "android": "https://dc.lft.to/lastmile_qr_scan"}, "lat": 38.91691183333333, "lon": -77.0408245, "fusion_lat": 0.0, "name": "b45c6a5bb006b9bfc0e3704eefaa9c0f", "is_disabled": 0, "is_reserved": 0, "bike_id": "b45c6a5bb006b9bfc0e3704eefaa9c0f", "fusion_lon": 0.0, "type": "electric_scooter"}, {"rental_uris": {"ios": "https://dc.lft.to/lastmile_qr_scan", "android": "https://dc.lft.to/lastmile_qr_scan"}, "lat": 38.909599166666666, "lon": -77.03940116666666, "fusion_lat": 0.0, "name": "0160fc1308c2f7f284fe9db612294045", "is_disabled": 0, "is_reserved": 0, "bike_id": "0160fc1308c2f7f284fe9db612294045", "fusion_lon": 0.0, "type": "electric_scooter"}, {"rental_uris": {"ios": "https://dc.lft.to/lastmile_qr_scan", "android": "https://dc.lft.to/lastmile_qr_scan"}, "lat": 38.922669166666665, "lon": -77.03678466666666, "fusion_lat": 0.0, "name": "15d8e79db5a2b6802eb50bf0a60d07ad", "is_disabled": 0, "is_reserved": 0, "bike_id": "15d8e79db5a2b6802eb50bf0a60d07ad", "fusion_lon": 0.0, "type": "electric_scooter"}, {"rental_uris": {"ios": "https://dc.lft.to/lastmile_qr_scan", "android": "https://dc.lft.to/lastmile_qr_scan"}, "lat": 38.926107333333334, "lon": -77.02158016666667, "fusion_lat": 0.0, "name": "e5123da5ff38625887a2550c002cb326", "is_disabled": 0, "is_reserved": 0, "bike_id": "e5123da5ff38625887a2550c002cb326", "fusion_lon": 0.0, "type": "electric_scooter"}, {"rental_uris": {"ios": "https://dc.lft.to/lastmile_qr_scan", "android": "https://dc.lft.to/lastmile_qr_scan"}, "lat": 38.9542815, "lon": -76.98143633333333, "fusion_lat": 0.0, "name": "15843ffd5586d4c829fc55ffffaeb709", "is_disabled": 0, "is_reserved": 0, "bike_id": "15843ffd5586d4c829fc55ffffaeb709", "fusion_lon": 0.0, "type": "electric_bike"}, {"rental_uris": {"ios": "https://dc.lft.to/lastmile_qr_scan", "android": "https://dc.lft.to/lastmile_qr_scan"}, "lat": 38.93343733333333, "lon": -77.06206066666667, "fusion_lat": 0.0, "name": "26198191aa9ef4c06811361cc1c68ac1", "is_disabled": 0, "is_reserved": 0, "bike_id": "26198191aa9ef4c06811361cc1c68ac1", "fusion_lon": 0.0, "type": "electric_scooter"}, {"rental_uris": {"ios": "https://dc.lft.to/lastmile_qr_scan", "android": "https://dc.lft.to/lastmile_qr_scan"}, "lat": 38.91262716666667, "lon": -77.03546366666667, "fusion_lat": 0.0, "name": "366e8b9f2d0739cfb4a1613438f56c2f", "is_disabled": 0, "is_reserved": 0, "bike_id": "366e8b9f2d0739cfb4a1613438f56c2f", "fusion_lon": 0.0, "type": "electric_scooter"}, {"rental_uris": {"ios": "https://dc.lft.to/lastmile_qr_scan", "android": "https://dc.lft.to/lastmile_qr_scan"}, "lat": 38.90631466666667, "lon": -77.005793, "fusion_lat": 0.0, "name": "c0f2c22e160bd3bf01c5a11e5633c547", "is_disabled": 0, "is_reserved": 0, "bike_id": "c0f2c22e160bd3bf01c5a11e5633c547", "fusion_lon": 0.0, "type": "electric_scooter"}, {"rental_uris": {"ios": "https://dc.lft.to/lastmile_qr_scan", "android": "https://dc.lft.to/lastmile_qr_scan"}, "lat": 38.88538233333333, "lon": -77.00577816666667, "fusion_lat": 0.0, "name": "1e251de3bd6c5d11671f1f49886c0c89", "is_disabled": 0, "is_reserved": 0, "bike_id": "1e251de3bd6c5d11671f1f49886c0c89", "fusion_lon": 0.0, "type": "electric_scooter"}, {"rental_uris": {"ios": "https://dc.lft.to/lastmile_qr_scan", "android": "https://dc.lft.to/lastmile_qr_scan"}, "lat": 39.013656, "lon": -76.92137666666666, "fusion_lat": 0.0, "name": "88ecc9599f93822c84900d7e5e0935f5", "is_disabled": 0, "is_reserved": 0, "bike_id": "88ecc9599f93822c84900d7e5e0935f5", "fusion_lon": 0.0, "type": "electric_bike"}, {"rental_uris": {"ios": "https://dc.lft.to/lastmile_qr_scan", "android": "https://dc.lft.to/lastmile_qr_scan"}, "lat": 38.917008833333334, "lon": -77.02409283333333, "fusion_lat": 0.0, "name": "1197e6b2d5b801eaf396250f344f1fc0", "is_disabled": 0, "is_reserved": 0, "bike_id": "1197e6b2d5b801eaf396250f344f1fc0", "fusion_lon": 0.0, "type": "electric_scooter"}, {"rental_uris": {"ios": "https://dc.lft.to/lastmile_qr_scan", "android": "https://dc.lft.to/lastmile_qr_scan"}, "lat": 38.9031645, "lon": -77.04900466666666, "fusion_lat": 0.0, "name": "e60f762582d0058c4dc8f9b6224d4ca9", "is_disabled": 0, "is_reserved": 0, "bike_id": "e60f762582d0058c4dc8f9b6224d4ca9", "fusion_lon": 0.0, "type": "electric_scooter"}, {"rental_uris": {"ios": "https://dc.lft.to/lastmile_qr_scan", "android": "https://dc.lft.to/lastmile_qr_scan"}, "lat": 38.92161616666667, "lon": -77.02026816666667, "fusion_lat": 0.0, "name": "a5b49af3ea25f96606d78a4e8ce699e9", "is_disabled": 0, "is_reserved": 0, "bike_id": "a5b49af3ea25f96606d78a4e8ce699e9", "fusion_lon": 0.0, "type": "electric_scooter"}, {"rental_uris": {"ios": "https://dc.lft.to/lastmile_qr_scan", "android": "https://dc.lft.to/lastmile_qr_scan"}, "lat": 38.908197333333334, "lon": -76.99708233333334, "fusion_lat": 0.0, "name": "4b33f14f01995e06e8f7abbb72aede84", "is_disabled": 0, "is_reserved": 0, "bike_id": "4b33f14f01995e06e8f7abbb72aede84", "fusion_lon": 0.0, "type": "electric_scooter"}, {"rental_uris": {"ios": "https://dc.lft.to/lastmile_qr_scan", "android": "https://dc.lft.to/lastmile_qr_scan"}, "lat": 38.904638166666665, "lon": -77.019412, "fusion_lat": 0.0, "name": "410d5f101bae3739b871f4f227ec22a8", "is_disabled": 0, "is_reserved": 0, "bike_id": "410d5f101bae3739b871f4f227ec22a8", "fusion_lon": 0.0, "type": "electric_scooter"}, {"rental_uris": {"ios": "https://dc.lft.to/lastmile_qr_scan", "android": "https://dc.lft.to/lastmile_qr_scan"}, "lat": 38.911072833333336, "lon": -77.02174233333334, "fusion_lat": 0.0, "name": "396ee1ac5d78ebb78133d74d690410a9", "is_disabled": 0, "is_reserved": 0, "bike_id": "396ee1ac5d78ebb78133d74d690410a9", "fusion_lon": 0.0, "type": "electric_scooter"}, {"rental_uris": {"ios": "https://dc.lft.to/lastmile_qr_scan", "android": "https://dc.lft.to/lastmile_qr_scan"}, "lat": 38.92871783333333, "lon": -76.99026566666667, "fusion_lat": 0.0, "name": "501f51e6bda4633539bc8a8a463d1d2e", "is_disabled": 0, "is_reserved": 0, "bike_id": "501f51e6bda4633539bc8a8a463d1d2e", "fusion_lon": 0.0, "type": "electric_scooter"}, {"rental_uris": {"ios": "https://dc.lft.to/lastmile_qr_scan", "android": "https://dc.lft.to/lastmile_qr_scan"}, "lat": 38.90526716666667, "lon": -77.04745933333334, "fusion_lat": 0.0, "name": "64e5a2565fc939911e13297304822e89", "is_disabled": 0, "is_reserved": 0, "bike_id": "64e5a2565fc939911e13297304822e89", "fusion_lon": 0.0, "type": "electric_scooter"}, {"rental_uris": {"ios": "https://dc.lft.to/lastmile_qr_scan", "android": "https://dc.lft.to/lastmile_qr_scan"}, "lat": 38.914198999999996, "lon": -77.01980516666667, "fusion_lat": 0.0, "name": "5111c555dbf9c9d349cca4c883c9677b", "is_disabled": 0, "is_reserved": 0, "bike_id": "5111c555dbf9c9d349cca4c883c9677b", "fusion_lon": 0.0, "type": "electric_scooter"}, {"rental_uris": {"ios": "https://dc.lft.to/lastmile_qr_scan", "android": "https://dc.lft.to/lastmile_qr_scan"}, "lat": 38.917668666666664, "lon": -77.02944683333334, "fusion_lat": 0.0, "name": "087173a78a0a0dd46586631d972791e7", "is_disabled": 0, "is_reserved": 0, "bike_id": "087173a78a0a0dd46586631d972791e7", "fusion_lon": 0.0, "type": "electric_scooter"}, {"rental_uris": {"ios": "https://dc.lft.to/lastmile_qr_scan", "android": "https://dc.lft.to/lastmile_qr_scan"}, "lat": 38.91706033333333, "lon": -77.02414, "fusion_lat": 0.0, "name": "ec72132fd3fa5c4b276d3c74479cfe7b", "is_disabled": 0, "is_reserved": 0, "bike_id": "ec72132fd3fa5c4b276d3c74479cfe7b", "fusion_lon": 0.0, "type": "electric_scooter"}, {"rental_uris": {"ios": "https://dc.lft.to/lastmile_qr_scan", "android": "https://dc.lft.to/lastmile_qr_scan"}, "lat": 38.930526666666665, "lon": -77.03271516666666, "fusion_lat": 0.0, "name": "33453027766e5b4c060d7c008b496509", "is_disabled": 0, "is_reserved": 0, "bike_id": "33453027766e5b4c060d7c008b496509", "fusion_lon": 0.0, "type": "electric_scooter"}, {"rental_uris": {"ios": "https://dc.lft.to/lastmile_qr_scan", "android": "https://dc.lft.to/lastmile_qr_scan"}, "lat": 38.9064365, "lon": -77.0059045, "fusion_lat": 0.0, "name": "511f525cb10dfae4c89c1537d2045751", "is_disabled": 0, "is_reserved": 0, "bike_id": "511f525cb10dfae4c89c1537d2045751", "fusion_lon": 0.0, "type": "electric_scooter"}, {"rental_uris": {"ios": "https://dc.lft.to/lastmile_qr_scan", "android": "https://dc.lft.to/lastmile_qr_scan"}, "lat": 38.916836833333335, "lon": -77.03776416666666, "fusion_lat": 0.0, "name": "716a1efe124fea2ad1fa7a63da2ea56b", "is_disabled": 0, "is_reserved": 0, "bike_id": "716a1efe124fea2ad1fa7a63da2ea56b", "fusion_lon": 0.0, "type": "electric_scooter"}, {"rental_uris": {"ios": "https://dc.lft.to/lastmile_qr_scan", "android": "https://dc.lft.to/lastmile_qr_scan"}, "lat": 38.88712966666667, "lon": -77.01781666666666, "fusion_lat": 0.0, "name": "8b82e0632f090777f8b74f590fd6c02c", "is_disabled": 0, "is_reserved": 0, "bike_id": "8b82e0632f090777f8b74f590fd6c02c", "fusion_lon": 0.0, "type": "electric_scooter"}, {"rental_uris": {"ios": "https://dc.lft.to/lastmile_qr_scan", "android": "https://dc.lft.to/lastmile_qr_scan"}, "lat": 38.874032166666666, "lon": -77.0007815, "fusion_lat": 0.0, "name": "5681a7fc99cb1ffb440709c09d57aa39", "is_disabled": 0, "is_reserved": 0, "bike_id": "5681a7fc99cb1ffb440709c09d57aa39", "fusion_lon": 0.0, "type": "electric_scooter"}, {"rental_uris": {"ios": "https://dc.lft.to/lastmile_qr_scan", "android": "https://dc.lft.to/lastmile_qr_scan"}, "lat": 38.90392, "lon": -77.01643033333333, "fusion_lat": 0.0, "name": "f63d4276aac8c3c9afdb9fff457cb2b2", "is_disabled": 0, "is_reserved": 0, "bike_id": "f63d4276aac8c3c9afdb9fff457cb2b2", "fusion_lon": 0.0, "type": "electric_scooter"}, {"rental_uris": {"ios": "https://dc.lft.to/lastmile_qr_scan", "android": "https://dc.lft.to/lastmile_qr_scan"}, "lat": 38.92948, "lon": -77.034659, "fusion_lat": 0.0, "name": "1fb7d56af7520a79096aa69d57ea9487", "is_disabled": 0, "is_reserved": 0, "bike_id": "1fb7d56af7520a79096aa69d57ea9487", "fusion_lon": 0.0, "type": "electric_scooter"}, {"rental_uris": {"ios": "https://dc.lft.to/lastmile_qr_scan", "android": "https://dc.lft.to/lastmile_qr_scan"}, "lat": 38.91401033333333, "lon": -77.03165416666667, "fusion_lat": 0.0, "name": "e2cb9d9505874abcaaff1053d5b71d75", "is_disabled": 0, "is_reserved": 0, "bike_id": "e2cb9d9505874abcaaff1053d5b71d75", "fusion_lon": 0.0, "type": "electric_scooter"}, {"rental_uris": {"ios": "https://dc.lft.to/lastmile_qr_scan", "android": "https://dc.lft.to/lastmile_qr_scan"}, "lat": 38.89704666666667, "lon": -77.02663716666666, "fusion_lat": 0.0, "name": "e36b79f6542bb5fb8e108ff15eb3b504", "is_disabled": 0, "is_reserved": 0, "bike_id": "e36b79f6542bb5fb8e108ff15eb3b504", "fusion_lon": 0.0, "type": "electric_scooter"}, {"rental_uris": {"ios": "https://dc.lft.to/lastmile_qr_scan", "android": "https://dc.lft.to/lastmile_qr_scan"}, "lat": 38.9176735, "lon": -77.0416955, "fusion_lat": 0.0, "name": "875d2e1004bfa74a66b7a6557789fab6", "is_disabled": 0, "is_reserved": 0, "bike_id": "875d2e1004bfa74a66b7a6557789fab6", "fusion_lon": 0.0, "type": "electric_scooter"}, {"rental_uris": {"ios": "https://dc.lft.to/lastmile_qr_scan", "android": "https://dc.lft.to/lastmile_qr_scan"}, "lat": 38.912547333333336, "lon": -77.04739, "fusion_lat": 0.0, "name": "76a2de79427e8258b05757a49e101bec", "is_disabled": 0, "is_reserved": 0, "bike_id": "76a2de79427e8258b05757a49e101bec", "fusion_lon": 0.0, "type": "electric_scooter"}, {"rental_uris": {"ios": "https://dc.lft.to/lastmile_qr_scan", "android": "https://dc.lft.to/lastmile_qr_scan"}, "lat": 39.04075916666667, "lon": -77.05332133333333, "fusion_lat": 0.0, "name": "b54773ee484e70e30bab6f1cf891eb5a", "is_disabled": 0, "is_reserved": 0, "bike_id": "b54773ee484e70e30bab6f1cf891eb5a", "fusion_lon": 0.0, "type": "electric_bike"}, {"rental_uris": {"ios": "https://dc.lft.to/lastmile_qr_scan", "android": "https://dc.lft.to/lastmile_qr_scan"}, "lat": 38.892417333333334, "lon": -77.03348383333334, "fusion_lat": 0.0, "name": "b161621329895610f23f217f7dedc345", "is_disabled": 0, "is_reserved": 0, "bike_id": "b161621329895610f23f217f7dedc345", "fusion_lon": 0.0, "type": "electric_scooter"}, {"rental_uris": {"ios": "https://dc.lft.to/lastmile_qr_scan", "android": "https://dc.lft.to/lastmile_qr_scan"}, "lat": 38.881163666666666, "lon": -77.01679616666667, "fusion_lat": 0.0, "name": "ecb0b147c435b9e7ef76a60841f0f521", "is_disabled": 0, "is_reserved": 0, "bike_id": "ecb0b147c435b9e7ef76a60841f0f521", "fusion_lon": 0.0, "type": "electric_scooter"}, {"rental_uris": {"ios": "https://dc.lft.to/lastmile_qr_scan", "android": "https://dc.lft.to/lastmile_qr_scan"}, "lat": 38.884448, "lon": -76.950927, "fusion_lat": 0.0, "name": "87fe8bc576e2ebf1bc71257fe117e68c", "is_disabled": 0, "is_reserved": 0, "bike_id": "87fe8bc576e2ebf1bc71257fe117e68c", "fusion_lon": 0.0, "type": "electric_scooter"}, {"rental_uris": {"ios": "https://dc.lft.to/lastmile_qr_scan", "android": "https://dc.lft.to/lastmile_qr_scan"}, "lat": 38.91906566666667, "lon": -77.03206433333334, "fusion_lat": 0.0, "name": "fcb09055d5edd25bf010cae66d413098", "is_disabled": 0, "is_reserved": 0, "bike_id": "fcb09055d5edd25bf010cae66d413098", "fusion_lon": 0.0, "type": "electric_scooter"}, {"rental_uris": {"ios": "https://dc.lft.to/lastmile_qr_scan", "android": "https://dc.lft.to/lastmile_qr_scan"}, "lat": 38.90083666666666, "lon": -76.98336883333333, "fusion_lat": 0.0, "name": "7a98de6018539818ea2d31a3a69bcfb0", "is_disabled": 0, "is_reserved": 0, "bike_id": "7a98de6018539818ea2d31a3a69bcfb0", "fusion_lon": 0.0, "type": "electric_scooter"}, {"rental_uris": {"ios": "https://dc.lft.to/lastmile_qr_scan", "android": "https://dc.lft.to/lastmile_qr_scan"}, "lat": 38.9331095, "lon": -77.07257016666667, "fusion_lat": 0.0, "name": "37701d56dba2db7202d36e28f8cc4cde", "is_disabled": 0, "is_reserved": 0, "bike_id": "37701d56dba2db7202d36e28f8cc4cde", "fusion_lon": 0.0, "type": "electric_scooter"}, {"rental_uris": {"ios": "https://dc.lft.to/lastmile_qr_scan", "android": "https://dc.lft.to/lastmile_qr_scan"}, "lat": 38.95479683333333, "lon": -77.07709116666666, "fusion_lat": 0.0, "name": "171f6def311e299b0725d316c5e4858f", "is_disabled": 0, "is_reserved": 0, "bike_id": "171f6def311e299b0725d316c5e4858f", "fusion_lon": 0.0, "type": "electric_bike"}, {"rental_uris": {"ios": "https://dc.lft.to/lastmile_qr_scan", "android": "https://dc.lft.to/lastmile_qr_scan"}, "lat": 38.944847, "lon": -77.02635016666666, "fusion_lat": 0.0, "name": "97cad1e34399947fde8d63432423dbb2", "is_disabled": 0, "is_reserved": 0, "bike_id": "97cad1e34399947fde8d63432423dbb2", "fusion_lon": 0.0, "type": "electric_bike"}, {"rental_uris": {"ios": "https://dc.lft.to/lastmile_qr_scan", "android": "https://dc.lft.to/lastmile_qr_scan"}, "lat": 38.887132333333334, "lon": -77.01776933333333, "fusion_lat": 0.0, "name": "8f8b62ce56895cbe8c976e0321876c35", "is_disabled": 0, "is_reserved": 0, "bike_id": "8f8b62ce56895cbe8c976e0321876c35", "fusion_lon": 0.0, "type": "electric_scooter"}, {"rental_uris": {"ios": "https://dc.lft.to/lastmile_qr_scan", "android": "https://dc.lft.to/lastmile_qr_scan"}, "lat": 38.897518, "lon": -77.02441766666666, "fusion_lat": 0.0, "name": "4eed41865c2c78af14af783975bee296", "is_disabled": 0, "is_reserved": 0, "bike_id": "4eed41865c2c78af14af783975bee296", "fusion_lon": 0.0, "type": "electric_scooter"}, {"rental_uris": {"ios": "https://dc.lft.to/lastmile_qr_scan", "android": "https://dc.lft.to/lastmile_qr_scan"}, "lat": 38.9050025, "lon": -77.06885283333334, "fusion_lat": 0.0, "name": "22bc9c3678116d4d39c7ecce67a6e614", "is_disabled": 0, "is_reserved": 0, "bike_id": "22bc9c3678116d4d39c7ecce67a6e614", "fusion_lon": 0.0, "type": "electric_scooter"}, {"rental_uris": {"ios": "https://dc.lft.to/lastmile_qr_scan", "android": "https://dc.lft.to/lastmile_qr_scan"}, "lat": 38.9149455, "lon": -77.03832983333334, "fusion_lat": 0.0, "name": "10f7be5aff38c685a4e96366e31164b3", "is_disabled": 0, "is_reserved": 0, "bike_id": "10f7be5aff38c685a4e96366e31164b3", "fusion_lon": 0.0, "type": "electric_scooter"}, {"rental_uris": {"ios": "https://dc.lft.to/lastmile_qr_scan", "android": "https://dc.lft.to/lastmile_qr_scan"}, "lat": 38.917807833333335, "lon": -77.0435415, "fusion_lat": 0.0, "name": "101e872749dd72c60350b609274d1457", "is_disabled": 0, "is_reserved": 0, "bike_id": "101e872749dd72c60350b609274d1457", "fusion_lon": 0.0, "type": "electric_scooter"}, {"rental_uris": {"ios": "https://dc.lft.to/lastmile_qr_scan", "android": "https://dc.lft.to/lastmile_qr_scan"}, "lat": 38.93700416666667, "lon": -77.05606016666667, "fusion_lat": 0.0, "name": "d8b520fa4838bd8bef6744927f5bb1ad", "is_disabled": 0, "is_reserved": 0, "bike_id": "d8b520fa4838bd8bef6744927f5bb1ad", "fusion_lon": 0.0, "type": "electric_bike"}, {"rental_uris": {"ios": "https://dc.lft.to/lastmile_qr_scan", "android": "https://dc.lft.to/lastmile_qr_scan"}, "lat": 38.900934, "lon": -77.02381683333333, "fusion_lat": 0.0, "name": "4bb488c1fcfb6f9b3ed66c2733c88d82", "is_disabled": 0, "is_reserved": 0, "bike_id": "4bb488c1fcfb6f9b3ed66c2733c88d82", "fusion_lon": 0.0, "type": "electric_scooter"}, {"rental_uris": {"ios": "https://dc.lft.to/lastmile_qr_scan", "android": "https://dc.lft.to/lastmile_qr_scan"}, "lat": 38.94287516666667, "lon": -77.02169016666667, "fusion_lat": 0.0, "name": "bf066683a27d53773e8c82391098651d", "is_disabled": 0, "is_reserved": 0, "bike_id": "bf066683a27d53773e8c82391098651d", "fusion_lon": 0.0, "type": "electric_scooter"}, {"rental_uris": {"ios": "https://dc.lft.to/lastmile_qr_scan", "android": "https://dc.lft.to/lastmile_qr_scan"}, "lat": 38.926342, "lon": -77.03396383333333, "fusion_lat": 0.0, "name": "c001f368a308b7fe33de23d6d60e173e", "is_disabled": 0, "is_reserved": 0, "bike_id": "c001f368a308b7fe33de23d6d60e173e", "fusion_lon": 0.0, "type": "electric_scooter"}, {"rental_uris": {"ios": "https://dc.lft.to/lastmile_qr_scan", "android": "https://dc.lft.to/lastmile_qr_scan"}, "lat": 38.8974605, "lon": -76.97967416666667, "fusion_lat": 0.0, "name": "af947027206ddc56cd717773ab305676", "is_disabled": 0, "is_reserved": 0, "bike_id": "af947027206ddc56cd717773ab305676", "fusion_lon": 0.0, "type": "electric_scooter"}, {"rental_uris": {"ios": "https://dc.lft.to/lastmile_qr_scan", "android": "https://dc.lft.to/lastmile_qr_scan"}, "lat": 38.853515333333334, "lon": -77.13467616666667, "fusion_lat": 0.0, "name": "d18f699214653dce3df9121050056280", "is_disabled": 0, "is_reserved": 0, "bike_id": "d18f699214653dce3df9121050056280", "fusion_lon": 0.0, "type": "electric_bike"}, {"rental_uris": {"ios": "https://dc.lft.to/lastmile_qr_scan", "android": "https://dc.lft.to/lastmile_qr_scan"}, "lat": 38.916401, "lon": -77.048062, "fusion_lat": 0.0, "name": "6b9a1c2f74ee3d90997e85bd01e0cb02", "is_disabled": 0, "is_reserved": 0, "bike_id": "6b9a1c2f74ee3d90997e85bd01e0cb02", "fusion_lon": 0.0, "type": "electric_scooter"}, {"rental_uris": {"ios": "https://dc.lft.to/lastmile_qr_scan", "android": "https://dc.lft.to/lastmile_qr_scan"}, "lat": 38.92490316666667, "lon": -77.05110516666667, "fusion_lat": 0.0, "name": "aead2c1120fb44d7017486726f130ac4", "is_disabled": 0, "is_reserved": 0, "bike_id": "aead2c1120fb44d7017486726f130ac4", "fusion_lon": 0.0, "type": "electric_scooter"}, {"rental_uris": {"ios": "https://dc.lft.to/lastmile_qr_scan", "android": "https://dc.lft.to/lastmile_qr_scan"}, "lat": 38.898834666666666, "lon": -77.021732, "fusion_lat": 0.0, "name": "cffa917b82d6898cb3d1f31637eb5df0", "is_disabled": 0, "is_reserved": 0, "bike_id": "cffa917b82d6898cb3d1f31637eb5df0", "fusion_lon": 0.0, "type": "electric_scooter"}, {"rental_uris": {"ios": "https://dc.lft.to/lastmile_qr_scan", "android": "https://dc.lft.to/lastmile_qr_scan"}, "lat": 38.910566833333334, "lon": -77.03089916666667, "fusion_lat": 0.0, "name": "54185070b2eff377aed12279577072a2", "is_disabled": 0, "is_reserved": 0, "bike_id": "54185070b2eff377aed12279577072a2", "fusion_lon": 0.0, "type": "electric_scooter"}, {"rental_uris": {"ios": "https://dc.lft.to/lastmile_qr_scan", "android": "https://dc.lft.to/lastmile_qr_scan"}, "lat": 38.903749833333336, "lon": -76.98595066666667, "fusion_lat": 0.0, "name": "ecbeced9c7e3a058cd95768a8a727b64", "is_disabled": 0, "is_reserved": 0, "bike_id": "ecbeced9c7e3a058cd95768a8a727b64", "fusion_lon": 0.0, "type": "electric_scooter"}, {"rental_uris": {"ios": "https://dc.lft.to/lastmile_qr_scan", "android": "https://dc.lft.to/lastmile_qr_scan"}, "lat": 38.92357766666667, "lon": -77.05275816666666, "fusion_lat": 0.0, "name": "ddaa65ad76da9dacc5e0285e7cc99e22", "is_disabled": 0, "is_reserved": 0, "bike_id": "ddaa65ad76da9dacc5e0285e7cc99e22", "fusion_lon": 0.0, "type": "electric_scooter"}, {"rental_uris": {"ios": "https://dc.lft.to/lastmile_qr_scan", "android": "https://dc.lft.to/lastmile_qr_scan"}, "lat": 38.91550766666667, "lon": -77.02131066666666, "fusion_lat": 0.0, "name": "86f01ff1d39e6a513b83efaee7fa18e6", "is_disabled": 0, "is_reserved": 0, "bike_id": "86f01ff1d39e6a513b83efaee7fa18e6", "fusion_lon": 0.0, "type": "electric_scooter"}, {"rental_uris": {"ios": "https://dc.lft.to/lastmile_qr_scan", "android": "https://dc.lft.to/lastmile_qr_scan"}, "lat": 38.906030333333334, "lon": -77.02697666666667, "fusion_lat": 0.0, "name": "2d1c71dec3b99553df1c9b4669d6c03c", "is_disabled": 0, "is_reserved": 0, "bike_id": "2d1c71dec3b99553df1c9b4669d6c03c", "fusion_lon": 0.0, "type": "electric_scooter"}, {"rental_uris": {"ios": "https://dc.lft.to/lastmile_qr_scan", "android": "https://dc.lft.to/lastmile_qr_scan"}, "lat": 38.9183875, "lon": -77.04019983333333, "fusion_lat": 0.0, "name": "425584c181487b4d14c9a56b442407b0", "is_disabled": 0, "is_reserved": 0, "bike_id": "425584c181487b4d14c9a56b442407b0", "fusion_lon": 0.0, "type": "electric_scooter"}, {"rental_uris": {"ios": "https://dc.lft.to/lastmile_qr_scan", "android": "https://dc.lft.to/lastmile_qr_scan"}, "lat": 38.958749, "lon": -77.02803183333333, "fusion_lat": 0.0, "name": "0c6f286bedc130932e1d7934a9ac295a", "is_disabled": 0, "is_reserved": 0, "bike_id": "0c6f286bedc130932e1d7934a9ac295a", "fusion_lon": 0.0, "type": "electric_scooter"}, {"rental_uris": {"ios": "https://dc.lft.to/lastmile_qr_scan", "android": "https://dc.lft.to/lastmile_qr_scan"}, "lat": 38.866802, "lon": -76.98570216666667, "fusion_lat": 0.0, "name": "47af2583f5da1cdf818c687e8ce4adcf", "is_disabled": 0, "is_reserved": 0, "bike_id": "47af2583f5da1cdf818c687e8ce4adcf", "fusion_lon": 0.0, "type": "electric_scooter"}, {"rental_uris": {"ios": "https://dc.lft.to/lastmile_qr_scan", "android": "https://dc.lft.to/lastmile_qr_scan"}, "lat": 38.936547833333336, "lon": -77.03653483333333, "fusion_lat": 0.0, "name": "4c71672881a8cf37014136e459018efd", "is_disabled": 0, "is_reserved": 0, "bike_id": "4c71672881a8cf37014136e459018efd", "fusion_lon": 0.0, "type": "electric_scooter"}, {"rental_uris": {"ios": "https://dc.lft.to/lastmile_qr_scan", "android": "https://dc.lft.to/lastmile_qr_scan"}, "lat": 38.9070615, "lon": -77.03199733333334, "fusion_lat": 0.0, "name": "af97d1ac08339b4c3a9ff4e2a3b4161a", "is_disabled": 0, "is_reserved": 0, "bike_id": "af97d1ac08339b4c3a9ff4e2a3b4161a", "fusion_lon": 0.0, "type": "electric_scooter"}, {"rental_uris": {"ios": "https://dc.lft.to/lastmile_qr_scan", "android": "https://dc.lft.to/lastmile_qr_scan"}, "lat": 38.89867316666667, "lon": -76.94636916666667, "fusion_lat": 0.0, "name": "18ec8cef191d5f5222b9f2a3e022608c", "is_disabled": 0, "is_reserved": 0, "bike_id": "18ec8cef191d5f5222b9f2a3e022608c", "fusion_lon": 0.0, "type": "electric_scooter"}, {"rental_uris": {"ios": "https://dc.lft.to/lastmile_qr_scan", "android": "https://dc.lft.to/lastmile_qr_scan"}, "lat": 38.8877025, "lon": -77.02614116666666, "fusion_lat": 0.0, "name": "f2967059f56561d29acb6ccd3adbcd2a", "is_disabled": 0, "is_reserved": 0, "bike_id": "f2967059f56561d29acb6ccd3adbcd2a", "fusion_lon": 0.0, "type": "electric_scooter"}, {"rental_uris": {"ios": "https://dc.lft.to/lastmile_qr_scan", "android": "https://dc.lft.to/lastmile_qr_scan"}, "lat": 38.8786575, "lon": -77.019103, "fusion_lat": 0.0, "name": "fc1bf45b1a03cbc915efe4fe3d0c462c", "is_disabled": 0, "is_reserved": 0, "bike_id": "fc1bf45b1a03cbc915efe4fe3d0c462c", "fusion_lon": 0.0, "type": "electric_scooter"}, {"rental_uris": {"ios": "https://dc.lft.to/lastmile_qr_scan", "android": "https://dc.lft.to/lastmile_qr_scan"}, "lat": 38.8669785, "lon": -76.98712566666667, "fusion_lat": 0.0, "name": "56e8dd1b511fb61dd758000ad814add8", "is_disabled": 0, "is_reserved": 0, "bike_id": "56e8dd1b511fb61dd758000ad814add8", "fusion_lon": 0.0, "type": "electric_scooter"}, {"rental_uris": {"ios": "https://dc.lft.to/lastmile_qr_scan", "android": "https://dc.lft.to/lastmile_qr_scan"}, "lat": 38.900635, "lon": -77.03204383333333, "fusion_lat": 0.0, "name": "bc15d2b5b43853cb786a08c047f6a1eb", "is_disabled": 0, "is_reserved": 0, "bike_id": "bc15d2b5b43853cb786a08c047f6a1eb", "fusion_lon": 0.0, "type": "electric_scooter"}, {"rental_uris": {"ios": "https://dc.lft.to/lastmile_qr_scan", "android": "https://dc.lft.to/lastmile_qr_scan"}, "lat": 38.978563, "lon": -76.94046466666667, "fusion_lat": 0.0, "name": "0e486f723e3717ff38894df255d506d9", "is_disabled": 0, "is_reserved": 0, "bike_id": "0e486f723e3717ff38894df255d506d9", "fusion_lon": 0.0, "type": "electric_bike"}, {"rental_uris": {"ios": "https://dc.lft.to/lastmile_qr_scan", "android": "https://dc.lft.to/lastmile_qr_scan"}, "lat": 38.905244833333334, "lon": -77.048537, "fusion_lat": 0.0, "name": "c6f99bf59fe1feae64601997efa01566", "is_disabled": 0, "is_reserved": 0, "bike_id": "c6f99bf59fe1feae64601997efa01566", "fusion_lon": 0.0, "type": "electric_scooter"}, {"rental_uris": {"ios": "https://dc.lft.to/lastmile_qr_scan", "android": "https://dc.lft.to/lastmile_qr_scan"}, "lat": 38.90211266666667, "lon": -77.0460765, "fusion_lat": 0.0, "name": "aaed023f3b99280d69debea03e640751", "is_disabled": 0, "is_reserved": 0, "bike_id": "aaed023f3b99280d69debea03e640751", "fusion_lon": 0.0, "type": "electric_scooter"}, {"rental_uris": {"ios": "https://dc.lft.to/lastmile_qr_scan", "android": "https://dc.lft.to/lastmile_qr_scan"}, "lat": 38.91546666666667, "lon": -77.02400533333333, "fusion_lat": 0.0, "name": "2bcd33898f824933b2edb3242ca610c3", "is_disabled": 0, "is_reserved": 0, "bike_id": "2bcd33898f824933b2edb3242ca610c3", "fusion_lon": 0.0, "type": "electric_scooter"}, {"rental_uris": {"ios": "https://dc.lft.to/lastmile_qr_scan", "android": "https://dc.lft.to/lastmile_qr_scan"}, "lat": 38.943255, "lon": -77.07656233333333, "fusion_lat": 0.0, "name": "4522b5f944749e0ffc3063b8b2f77d3a", "is_disabled": 0, "is_reserved": 0, "bike_id": "4522b5f944749e0ffc3063b8b2f77d3a", "fusion_lon": 0.0, "type": "electric_scooter"}, {"rental_uris": {"ios": "https://dc.lft.to/lastmile_qr_scan", "android": "https://dc.lft.to/lastmile_qr_scan"}, "lat": 38.907266666666665, "lon": -77.03176883333333, "fusion_lat": 0.0, "name": "701b8ae59f87d6e4673e622789152ace", "is_disabled": 0, "is_reserved": 0, "bike_id": "701b8ae59f87d6e4673e622789152ace", "fusion_lon": 0.0, "type": "electric_scooter"}, {"rental_uris": {"ios": "https://dc.lft.to/lastmile_qr_scan", "android": "https://dc.lft.to/lastmile_qr_scan"}, "lat": 38.9133905, "lon": -77.02756933333333, "fusion_lat": 0.0, "name": "ffd8d8f4187262bb9b83a032f35468a1", "is_disabled": 0, "is_reserved": 0, "bike_id": "ffd8d8f4187262bb9b83a032f35468a1", "fusion_lon": 0.0, "type": "electric_scooter"}, {"rental_uris": {"ios": "https://dc.lft.to/lastmile_qr_scan", "android": "https://dc.lft.to/lastmile_qr_scan"}, "lat": 38.93421983333333, "lon": -77.04007083333333, "fusion_lat": 0.0, "name": "f8fab4ee3d107164404b841ee14c2250", "is_disabled": 0, "is_reserved": 0, "bike_id": "f8fab4ee3d107164404b841ee14c2250", "fusion_lon": 0.0, "type": "electric_scooter"}, {"rental_uris": {"ios": "https://dc.lft.to/lastmile_qr_scan", "android": "https://dc.lft.to/lastmile_qr_scan"}, "lat": 38.915405666666665, "lon": -77.04445733333333, "fusion_lat": 0.0, "name": "d500065bd73ace987cfb54c6024fb8a5", "is_disabled": 0, "is_reserved": 0, "bike_id": "d500065bd73ace987cfb54c6024fb8a5", "fusion_lon": 0.0, "type": "electric_scooter"}, {"rental_uris": {"ios": "https://dc.lft.to/lastmile_qr_scan", "android": "https://dc.lft.to/lastmile_qr_scan"}, "lat": 38.92145083333333, "lon": -77.03506633333333, "fusion_lat": 0.0, "name": "5c6ca57b93cad2c6c8dbfd5c731dfd58", "is_disabled": 0, "is_reserved": 0, "bike_id": "5c6ca57b93cad2c6c8dbfd5c731dfd58", "fusion_lon": 0.0, "type": "electric_scooter"}, {"rental_uris": {"ios": "https://dc.lft.to/lastmile_qr_scan", "android": "https://dc.lft.to/lastmile_qr_scan"}, "lat": 38.897221333333334, "lon": -77.0273775, "fusion_lat": 0.0, "name": "cf46431605c7e4b3f3adf9f1792b093a", "is_disabled": 0, "is_reserved": 0, "bike_id": "cf46431605c7e4b3f3adf9f1792b093a", "fusion_lon": 0.0, "type": "electric_scooter"}, {"rental_uris": {"ios": "https://dc.lft.to/lastmile_qr_scan", "android": "https://dc.lft.to/lastmile_qr_scan"}, "lat": 38.87374116666667, "lon": -77.001066, "fusion_lat": 0.0, "name": "695414765f78c400f8686ca9b5a90cde", "is_disabled": 0, "is_reserved": 0, "bike_id": "695414765f78c400f8686ca9b5a90cde", "fusion_lon": 0.0, "type": "electric_scooter"}, {"rental_uris": {"ios": "https://dc.lft.to/lastmile_qr_scan", "android": "https://dc.lft.to/lastmile_qr_scan"}, "lat": 38.91401483333333, "lon": -77.03672933333333, "fusion_lat": 0.0, "name": "8d9c4b1914ef8176738f7c693815519a", "is_disabled": 0, "is_reserved": 0, "bike_id": "8d9c4b1914ef8176738f7c693815519a", "fusion_lon": 0.0, "type": "electric_scooter"}, {"rental_uris": {"ios": "https://dc.lft.to/lastmile_qr_scan", "android": "https://dc.lft.to/lastmile_qr_scan"}, "lat": 38.93886033333333, "lon": -77.02157466666667, "fusion_lat": 0.0, "name": "cfc429d25136fa87a54be8255f0b109d", "is_disabled": 0, "is_reserved": 0, "bike_id": "cfc429d25136fa87a54be8255f0b109d", "fusion_lon": 0.0, "type": "electric_scooter"}, {"rental_uris": {"ios": "https://dc.lft.to/lastmile_qr_scan", "android": "https://dc.lft.to/lastmile_qr_scan"}, "lat": 38.92216333333333, "lon": -77.04336933333333, "fusion_lat": 0.0, "name": "b3851c99a785008d941e67fba10b6f9c", "is_disabled": 0, "is_reserved": 0, "bike_id": "b3851c99a785008d941e67fba10b6f9c", "fusion_lon": 0.0, "type": "electric_scooter"}, {"rental_uris": {"ios": "https://dc.lft.to/lastmile_qr_scan", "android": "https://dc.lft.to/lastmile_qr_scan"}, "lat": 38.92711216666667, "lon": -77.02083716666667, "fusion_lat": 0.0, "name": "e4a6a66fb383948bb1cc5aa5036225de", "is_disabled": 0, "is_reserved": 0, "bike_id": "e4a6a66fb383948bb1cc5aa5036225de", "fusion_lon": 0.0, "type": "electric_scooter"}, {"rental_uris": {"ios": "https://dc.lft.to/lastmile_qr_scan", "android": "https://dc.lft.to/lastmile_qr_scan"}, "lat": 38.89287816666667, "lon": -77.04486, "fusion_lat": 0.0, "name": "4309eb4dec8ffb7d7eddca80ac2b3aae", "is_disabled": 0, "is_reserved": 0, "bike_id": "4309eb4dec8ffb7d7eddca80ac2b3aae", "fusion_lon": 0.0, "type": "electric_scooter"}, {"rental_uris": {"ios": "https://dc.lft.to/lastmile_qr_scan", "android": "https://dc.lft.to/lastmile_qr_scan"}, "lat": 39.03739816666667, "lon": -77.0548675, "fusion_lat": 0.0, "name": "bbc63f3424ec84d968b170e37cc72362", "is_disabled": 0, "is_reserved": 0, "bike_id": "bbc63f3424ec84d968b170e37cc72362", "fusion_lon": 0.0, "type": "electric_bike"}, {"rental_uris": {"ios": "https://dc.lft.to/lastmile_qr_scan", "android": "https://dc.lft.to/lastmile_qr_scan"}, "lat": 38.871793, "lon": -77.0060845, "fusion_lat": 0.0, "name": "de4a09480bd94fac5e3af30b43e1f279", "is_disabled": 0, "is_reserved": 0, "bike_id": "de4a09480bd94fac5e3af30b43e1f279", "fusion_lon": 0.0, "type": "electric_scooter"}, {"rental_uris": {"ios": "https://dc.lft.to/lastmile_qr_scan", "android": "https://dc.lft.to/lastmile_qr_scan"}, "lat": 38.876946833333335, "lon": -77.00828666666666, "fusion_lat": 0.0, "name": "ceac50e6f19a756572ac783d99d3b1f1", "is_disabled": 0, "is_reserved": 0, "bike_id": "ceac50e6f19a756572ac783d99d3b1f1", "fusion_lon": 0.0, "type": "electric_scooter"}, {"rental_uris": {"ios": "https://dc.lft.to/lastmile_qr_scan", "android": "https://dc.lft.to/lastmile_qr_scan"}, "lat": 38.906915166666664, "lon": -76.95253, "fusion_lat": 0.0, "name": "bdb706cf2f16392a67b21cd1dc21e05d", "is_disabled": 0, "is_reserved": 0, "bike_id": "bdb706cf2f16392a67b21cd1dc21e05d", "fusion_lon": 0.0, "type": "electric_bike"}, {"rental_uris": {"ios": "https://dc.lft.to/lastmile_qr_scan", "android": "https://dc.lft.to/lastmile_qr_scan"}, "lat": 38.8935535, "lon": -77.02838516666667, "fusion_lat": 0.0, "name": "4e0ae9da7f33465ef4c343370ec3d02b", "is_disabled": 0, "is_reserved": 0, "bike_id": "4e0ae9da7f33465ef4c343370ec3d02b", "fusion_lon": 0.0, "type": "electric_scooter"}, {"rental_uris": {"ios": "https://dc.lft.to/lastmile_qr_scan", "android": "https://dc.lft.to/lastmile_qr_scan"}, "lat": 39.054949, "lon": -77.11787816666667, "fusion_lat": 0.0, "name": "35dd1dd5309219e5e6231ded1bcf64ae", "is_disabled": 0, "is_reserved": 0, "bike_id": "35dd1dd5309219e5e6231ded1bcf64ae", "fusion_lon": 0.0, "type": "electric_bike"}, {"rental_uris": {"ios": "https://dc.lft.to/lastmile_qr_scan", "android": "https://dc.lft.to/lastmile_qr_scan"}, "lat": 38.90365233333333, "lon": -77.01715733333333, "fusion_lat": 0.0, "name": "0d2ebb901687d41fbd53b696fb3ff9d8", "is_disabled": 0, "is_reserved": 0, "bike_id": "0d2ebb901687d41fbd53b696fb3ff9d8", "fusion_lon": 0.0, "type": "electric_scooter"}, {"rental_uris": {"ios": "https://dc.lft.to/lastmile_qr_scan", "android": "https://dc.lft.to/lastmile_qr_scan"}, "lat": 38.910177, "lon": -77.02850016666666, "fusion_lat": 0.0, "name": "f0000b13a796c6b4933b7048d88700cb", "is_disabled": 0, "is_reserved": 0, "bike_id": "f0000b13a796c6b4933b7048d88700cb", "fusion_lon": 0.0, "type": "electric_scooter"}, {"rental_uris": {"ios": "https://dc.lft.to/lastmile_qr_scan", "android": "https://dc.lft.to/lastmile_qr_scan"}, "lat": 38.897579, "lon": -77.02566216666666, "fusion_lat": 0.0, "name": "8300e96f0185b2bd64121b529c1174e1", "is_disabled": 0, "is_reserved": 0, "bike_id": "8300e96f0185b2bd64121b529c1174e1", "fusion_lon": 0.0, "type": "electric_scooter"}, {"rental_uris": {"ios": "https://dc.lft.to/lastmile_qr_scan", "android": "https://dc.lft.to/lastmile_qr_scan"}, "lat": 38.886550666666665, "lon": -77.028203, "fusion_lat": 0.0, "name": "2de751c2fc263b0fdd07cc4b2e875d32", "is_disabled": 0, "is_reserved": 0, "bike_id": "2de751c2fc263b0fdd07cc4b2e875d32", "fusion_lon": 0.0, "type": "electric_scooter"}, {"rental_uris": {"ios": "https://dc.lft.to/lastmile_qr_scan", "android": "https://dc.lft.to/lastmile_qr_scan"}, "lat": 38.917148166666664, "lon": -77.0229815, "fusion_lat": 0.0, "name": "4d21816c4830d1e0c19db8e83d17ef3a", "is_disabled": 0, "is_reserved": 0, "bike_id": "4d21816c4830d1e0c19db8e83d17ef3a", "fusion_lon": 0.0, "type": "electric_scooter"}, {"rental_uris": {"ios": "https://dc.lft.to/lastmile_qr_scan", "android": "https://dc.lft.to/lastmile_qr_scan"}, "lat": 38.932464833333334, "lon": -76.99517533333334, "fusion_lat": 0.0, "name": "1bc749cf6c5901137d6981168e83be28", "is_disabled": 0, "is_reserved": 0, "bike_id": "1bc749cf6c5901137d6981168e83be28", "fusion_lon": 0.0, "type": "electric_scooter"}, {"rental_uris": {"ios": "https://dc.lft.to/lastmile_qr_scan", "android": "https://dc.lft.to/lastmile_qr_scan"}, "lat": 38.90656, "lon": -77.009555, "fusion_lat": 0.0, "name": "446757eb673daa896e4b6420342d2aca", "is_disabled": 0, "is_reserved": 0, "bike_id": "446757eb673daa896e4b6420342d2aca", "fusion_lon": 0.0, "type": "electric_scooter"}, {"rental_uris": {"ios": "https://dc.lft.to/lastmile_qr_scan", "android": "https://dc.lft.to/lastmile_qr_scan"}, "lat": 38.929525166666664, "lon": -77.037677, "fusion_lat": 0.0, "name": "3c8b345d0d403a01c23324607629a123", "is_disabled": 0, "is_reserved": 0, "bike_id": "3c8b345d0d403a01c23324607629a123", "fusion_lon": 0.0, "type": "electric_scooter"}, {"rental_uris": {"ios": "https://dc.lft.to/lastmile_qr_scan", "android": "https://dc.lft.to/lastmile_qr_scan"}, "lat": 38.912519333333336, "lon": -77.034008, "fusion_lat": 0.0, "name": "18c40b06d49a5cfbd1475ae3a933a78f", "is_disabled": 0, "is_reserved": 0, "bike_id": "18c40b06d49a5cfbd1475ae3a933a78f", "fusion_lon": 0.0, "type": "electric_scooter"}, {"rental_uris": {"ios": "https://dc.lft.to/lastmile_qr_scan", "android": "https://dc.lft.to/lastmile_qr_scan"}, "lat": 38.8788315, "lon": -77.02231616666667, "fusion_lat": 0.0, "name": "18cd95ccd20be274847af568cdffbef6", "is_disabled": 0, "is_reserved": 0, "bike_id": "18cd95ccd20be274847af568cdffbef6", "fusion_lon": 0.0, "type": "electric_scooter"}, {"rental_uris": {"ios": "https://dc.lft.to/lastmile_qr_scan", "android": "https://dc.lft.to/lastmile_qr_scan"}, "lat": 38.90575333333334, "lon": -77.06271583333333, "fusion_lat": 0.0, "name": "991e951b37df46df2426e332f4757fae", "is_disabled": 0, "is_reserved": 0, "bike_id": "991e951b37df46df2426e332f4757fae", "fusion_lon": 0.0, "type": "electric_scooter"}, {"rental_uris": {"ios": "https://dc.lft.to/lastmile_qr_scan", "android": "https://dc.lft.to/lastmile_qr_scan"}, "lat": 38.91705666666667, "lon": -77.0319765, "fusion_lat": 0.0, "name": "171862542dc48a83c4f0b9b8e5f1eb44", "is_disabled": 0, "is_reserved": 0, "bike_id": "171862542dc48a83c4f0b9b8e5f1eb44", "fusion_lon": 0.0, "type": "electric_scooter"}, {"rental_uris": {"ios": "https://dc.lft.to/lastmile_qr_scan", "android": "https://dc.lft.to/lastmile_qr_scan"}, "lat": 38.91962133333333, "lon": -77.032028, "fusion_lat": 0.0, "name": "9911fff8565637178d75d919a1565a50", "is_disabled": 0, "is_reserved": 0, "bike_id": "9911fff8565637178d75d919a1565a50", "fusion_lon": 0.0, "type": "electric_scooter"}, {"rental_uris": {"ios": "https://dc.lft.to/lastmile_qr_scan", "android": "https://dc.lft.to/lastmile_qr_scan"}, "lat": 38.94190733333333, "lon": -77.03839483333333, "fusion_lat": 0.0, "name": "99a92468e7a8d0fc6db267138a69b224", "is_disabled": 0, "is_reserved": 0, "bike_id": "99a92468e7a8d0fc6db267138a69b224", "fusion_lon": 0.0, "type": "electric_scooter"}, {"rental_uris": {"ios": "https://dc.lft.to/lastmile_qr_scan", "android": "https://dc.lft.to/lastmile_qr_scan"}, "lat": 38.966773, "lon": -77.0224685, "fusion_lat": 0.0, "name": "3ab40b13a03736426afd6d4f48090ce8", "is_disabled": 0, "is_reserved": 0, "bike_id": "3ab40b13a03736426afd6d4f48090ce8", "fusion_lon": 0.0, "type": "electric_bike"}, {"rental_uris": {"ios": "https://dc.lft.to/lastmile_qr_scan", "android": "https://dc.lft.to/lastmile_qr_scan"}, "lat": 38.917571333333335, "lon": -77.02713933333334, "fusion_lat": 0.0, "name": "a701c8dcafe1e07d5dc77f9ed2b160dd", "is_disabled": 0, "is_reserved": 0, "bike_id": "a701c8dcafe1e07d5dc77f9ed2b160dd", "fusion_lon": 0.0, "type": "electric_scooter"}, {"rental_uris": {"ios": "https://dc.lft.to/lastmile_qr_scan", "android": "https://dc.lft.to/lastmile_qr_scan"}, "lat": 38.904272666666664, "lon": -76.98281633333333, "fusion_lat": 0.0, "name": "9cd4a4a9b6bb6814b3019039964577e0", "is_disabled": 0, "is_reserved": 0, "bike_id": "9cd4a4a9b6bb6814b3019039964577e0", "fusion_lon": 0.0, "type": "electric_scooter"}, {"rental_uris": {"ios": "https://dc.lft.to/lastmile_qr_scan", "android": "https://dc.lft.to/lastmile_qr_scan"}, "lat": 38.90192166666667, "lon": -76.97877216666667, "fusion_lat": 0.0, "name": "860da9c646d9f22ca1052103d4202515", "is_disabled": 0, "is_reserved": 0, "bike_id": "860da9c646d9f22ca1052103d4202515", "fusion_lon": 0.0, "type": "electric_scooter"}, {"rental_uris": {"ios": "https://dc.lft.to/lastmile_qr_scan", "android": "https://dc.lft.to/lastmile_qr_scan"}, "lat": 38.932453833333334, "lon": -76.99509033333334, "fusion_lat": 0.0, "name": "012edc7c6c4084bbad792389807f6ea0", "is_disabled": 0, "is_reserved": 0, "bike_id": "012edc7c6c4084bbad792389807f6ea0", "fusion_lon": 0.0, "type": "electric_scooter"}, {"rental_uris": {"ios": "https://dc.lft.to/lastmile_qr_scan", "android": "https://dc.lft.to/lastmile_qr_scan"}, "lat": 38.883699166666666, "lon": -76.99544216666666, "fusion_lat": 0.0, "name": "176a6e74e8012f898dc002c688c55b90", "is_disabled": 0, "is_reserved": 0, "bike_id": "176a6e74e8012f898dc002c688c55b90", "fusion_lon": 0.0, "type": "electric_scooter"}, {"rental_uris": {"ios": "https://dc.lft.to/lastmile_qr_scan", "android": "https://dc.lft.to/lastmile_qr_scan"}, "lat": 38.9180485, "lon": -77.02495333333333, "fusion_lat": 0.0, "name": "18365b18c8c099dc991f95ce65dae156", "is_disabled": 0, "is_reserved": 0, "bike_id": "18365b18c8c099dc991f95ce65dae156", "fusion_lon": 0.0, "type": "electric_scooter"}, {"rental_uris": {"ios": "https://dc.lft.to/lastmile_qr_scan", "android": "https://dc.lft.to/lastmile_qr_scan"}, "lat": 38.9223245, "lon": -77.00845416666667, "fusion_lat": 0.0, "name": "f0dba74f2085a2d12e40d5f84471a2d1", "is_disabled": 0, "is_reserved": 0, "bike_id": "f0dba74f2085a2d12e40d5f84471a2d1", "fusion_lon": 0.0, "type": "electric_scooter"}, {"rental_uris": {"ios": "https://dc.lft.to/lastmile_qr_scan", "android": "https://dc.lft.to/lastmile_qr_scan"}, "lat": 38.89848716666667, "lon": -77.0121375, "fusion_lat": 0.0, "name": "f4702cb82707960185a6f9358c3d06cd", "is_disabled": 0, "is_reserved": 0, "bike_id": "f4702cb82707960185a6f9358c3d06cd", "fusion_lon": 0.0, "type": "electric_scooter"}, {"rental_uris": {"ios": "https://dc.lft.to/lastmile_qr_scan", "android": "https://dc.lft.to/lastmile_qr_scan"}, "lat": 38.90295116666667, "lon": -77.017534, "fusion_lat": 0.0, "name": "7e5c3e0fa3c629e14848d500b8bece42", "is_disabled": 0, "is_reserved": 0, "bike_id": "7e5c3e0fa3c629e14848d500b8bece42", "fusion_lon": 0.0, "type": "electric_scooter"}, {"rental_uris": {"ios": "https://dc.lft.to/lastmile_qr_scan", "android": "https://dc.lft.to/lastmile_qr_scan"}, "lat": 38.90600766666667, "lon": -77.05650716666666, "fusion_lat": 0.0, "name": "4eae247200aa3d216252759cd4c4b78f", "is_disabled": 0, "is_reserved": 0, "bike_id": "4eae247200aa3d216252759cd4c4b78f", "fusion_lon": 0.0, "type": "electric_scooter"}, {"rental_uris": {"ios": "https://dc.lft.to/lastmile_qr_scan", "android": "https://dc.lft.to/lastmile_qr_scan"}, "lat": 38.904128166666666, "lon": -77.02401666666667, "fusion_lat": 0.0, "name": "9541baf9622a944d842e6980c77fa1f5", "is_disabled": 0, "is_reserved": 0, "bike_id": "9541baf9622a944d842e6980c77fa1f5", "fusion_lon": 0.0, "type": "electric_scooter"}, {"rental_uris": {"ios": "https://dc.lft.to/lastmile_qr_scan", "android": "https://dc.lft.to/lastmile_qr_scan"}, "lat": 38.84465133333333, "lon": -76.97854533333333, "fusion_lat": 0.0, "name": "9c3f01a33bdcd0d760d03eecb28bbf28", "is_disabled": 0, "is_reserved": 0, "bike_id": "9c3f01a33bdcd0d760d03eecb28bbf28", "fusion_lon": 0.0, "type": "electric_bike"}, {"rental_uris": {"ios": "https://dc.lft.to/lastmile_qr_scan", "android": "https://dc.lft.to/lastmile_qr_scan"}, "lat": 38.872980166666665, "lon": -77.13927666666666, "fusion_lat": 0.0, "name": "8b88a2a97efc381759349509c9f529b8", "is_disabled": 0, "is_reserved": 0, "bike_id": "8b88a2a97efc381759349509c9f529b8", "fusion_lon": 0.0, "type": "electric_bike"}, {"rental_uris": {"ios": "https://dc.lft.to/lastmile_qr_scan", "android": "https://dc.lft.to/lastmile_qr_scan"}, "lat": 38.9315655, "lon": -77.00113616666667, "fusion_lat": 0.0, "name": "0783875f0af1a97e64ad0459b21197b2", "is_disabled": 0, "is_reserved": 0, "bike_id": "0783875f0af1a97e64ad0459b21197b2", "fusion_lon": 0.0, "type": "electric_bike"}, {"rental_uris": {"ios": "https://dc.lft.to/lastmile_qr_scan", "android": "https://dc.lft.to/lastmile_qr_scan"}, "lat": 38.928716, "lon": -77.03219883333334, "fusion_lat": 0.0, "name": "49b50e2c409e111d2f512b001d39a56c", "is_disabled": 0, "is_reserved": 0, "bike_id": "49b50e2c409e111d2f512b001d39a56c", "fusion_lon": 0.0, "type": "electric_scooter"}, {"rental_uris": {"ios": "https://dc.lft.to/lastmile_qr_scan", "android": "https://dc.lft.to/lastmile_qr_scan"}, "lat": 38.898353666666665, "lon": -77.04831366666667, "fusion_lat": 0.0, "name": "19f586351d1f9745053c0efdfbffabbe", "is_disabled": 0, "is_reserved": 0, "bike_id": "19f586351d1f9745053c0efdfbffabbe", "fusion_lon": 0.0, "type": "electric_scooter"}, {"rental_uris": {"ios": "https://dc.lft.to/lastmile_qr_scan", "android": "https://dc.lft.to/lastmile_qr_scan"}, "lat": 38.871722166666665, "lon": -77.00623116666667, "fusion_lat": 0.0, "name": "4b595286b1acdcdbea288af1f6403ec8", "is_disabled": 0, "is_reserved": 0, "bike_id": "4b595286b1acdcdbea288af1f6403ec8", "fusion_lon": 0.0, "type": "electric_scooter"}, {"rental_uris": {"ios": "https://dc.lft.to/lastmile_qr_scan", "android": "https://dc.lft.to/lastmile_qr_scan"}, "lat": 38.911410833333335, "lon": -76.99008166666667, "fusion_lat": 0.0, "name": "99d10d253174c708792eb74fa960e708", "is_disabled": 0, "is_reserved": 0, "bike_id": "99d10d253174c708792eb74fa960e708", "fusion_lon": 0.0, "type": "electric_scooter"}, {"rental_uris": {"ios": "https://dc.lft.to/lastmile_qr_scan", "android": "https://dc.lft.to/lastmile_qr_scan"}, "lat": 38.892213166666664, "lon": -77.025429, "fusion_lat": 0.0, "name": "00183009fb067ebd0d91150e35507d6f", "is_disabled": 0, "is_reserved": 0, "bike_id": "00183009fb067ebd0d91150e35507d6f", "fusion_lon": 0.0, "type": "electric_scooter"}, {"rental_uris": {"ios": "https://dc.lft.to/lastmile_qr_scan", "android": "https://dc.lft.to/lastmile_qr_scan"}, "lat": 38.908858333333335, "lon": -76.996322, "fusion_lat": 0.0, "name": "37351b8ab6c4934fceeae6d70ae41302", "is_disabled": 0, "is_reserved": 0, "bike_id": "37351b8ab6c4934fceeae6d70ae41302", "fusion_lon": 0.0, "type": "electric_scooter"}, {"rental_uris": {"ios": "https://dc.lft.to/lastmile_qr_scan", "android": "https://dc.lft.to/lastmile_qr_scan"}, "lat": 38.917972666666664, "lon": -77.02949333333333, "fusion_lat": 0.0, "name": "b1ee95706fb6ec73659c826881f2287b", "is_disabled": 0, "is_reserved": 0, "bike_id": "b1ee95706fb6ec73659c826881f2287b", "fusion_lon": 0.0, "type": "electric_scooter"}, {"rental_uris": {"ios": "https://dc.lft.to/lastmile_qr_scan", "android": "https://dc.lft.to/lastmile_qr_scan"}, "lat": 38.92439, "lon": -77.034051, "fusion_lat": 0.0, "name": "d9d86402a27c0ede350c014b0d15f4a7", "is_disabled": 0, "is_reserved": 0, "bike_id": "d9d86402a27c0ede350c014b0d15f4a7", "fusion_lon": 0.0, "type": "electric_scooter"}, {"rental_uris": {"ios": "https://dc.lft.to/lastmile_qr_scan", "android": "https://dc.lft.to/lastmile_qr_scan"}, "lat": 38.909567, "lon": -77.04432166666666, "fusion_lat": 0.0, "name": "acd32cdcc356e86a4bb6670ed5cb4119", "is_disabled": 0, "is_reserved": 0, "bike_id": "acd32cdcc356e86a4bb6670ed5cb4119", "fusion_lon": 0.0, "type": "electric_scooter"}, {"rental_uris": {"ios": "https://dc.lft.to/lastmile_qr_scan", "android": "https://dc.lft.to/lastmile_qr_scan"},