{"data": {"bikes": [{"name": "53ad9c97314cf0d3268ec4442212548d", "fusion_lat": 0.0, "type": "electric_scooter", "lat": 38.927256166666666, "is_reserved": 0, "is_disabled": 0, "fusion_lon": 0.0, "bike_id": "53ad9c97314cf0d3268ec4442212548d", "lon": -77.00562566666666, "rental_uris": {"ios": "https://dc.lft.to/lastmile_qr_scan", "android": "https://dc.lft.to/lastmile_qr_scan"}}, {"name": "103c7e5ae5381042e466a92e4c9b7b4e", "fusion_lat": 0.0, "type": "electric_scooter", "lat": 38.918110666666664, "is_reserved": 0, "is_disabled": 0, "fusion_lon": 0.0, "bike_id": "103c7e5ae5381042e466a92e4c9b7b4e", "lon": -77.03019216666667, "rental_uris": {"ios": "https://dc.lft.to/lastmile_qr_scan", "android": "https://dc.lft.to/lastmile_qr_scan"}}, {"name": "89b462d1d764cd4b8e90f246d6fc4436", "fusion_lat": 0.0, "type": "electric_bike", "lat": 38.8579035, "is_reserved": 0, "is_disabled": 0, "fusion_lon": 0.0, "bike_id": "89b462d1d764cd4b8e90f246d6fc4436", "lon": -77.099584, "rental_uris": {"ios": "https://dc.lft.to/lastmile_qr_scan", "android": "https://dc.lft.to/lastmile_qr_scan"}}, {"name": "77ec3fd26b3339a04545bc4cdf0e2102", "fusion_lat": 0.0, "type": "electric_scooter", "lat": 38.898415666666665, "is_reserved": 0, "is_disabled": 0, "fusion_lon": 0.0, "bike_id": "77ec3fd26b3339a04545bc4cdf0e2102", "lon": -77.0241545, "rental_uris": {"ios": "https://dc.lft.to/lastmile_qr_scan", "android": "https://dc.lft.to/lastmile_qr_scan"}}, {"name": "b69e329e34bfffaf999e0f6c848c4009", "fusion_lat": 0.0, "type": "electric_scooter", "lat": 38.862446, "is_reserved": 0, "is_disabled": 0, "fusion_lon": 0.0, "bike_id": "b69e329e34bfffaf999e0f6c848c4009", "lon": -76.9949705, "rental_uris": {"ios": "https://dc.lft.to/lastmile_qr_scan", "android": "https://dc.lft.to/lastmile_qr_scan"}}, {"name": "ee07be7614bd3147e2cce58b94069b63", "fusion_lat": 0.0, "type": "electric_scooter", "lat": 38.892175333333334, "is_reserved": 0, "is_disabled": 0, "fusion_lon": 0.0, "bike_id": "ee07be7614bd3147e2cce58b94069b63", "lon": -77.02226733333333, "rental_uris": {"ios": "https://dc.lft.to/lastmile_qr_scan", "android": "https://dc.lft.to/lastmile_qr_scan"}}, {"name": "bf483f371c2d5d050a8fad7ceed1771f", "fusion_lat": 0.0, "type": "electric_bike", "lat": 38.87527583333333, "is_reserved": 0, "is_disabled": 0, "fusion_lon": 0.0, "bike_id": "bf483f371c2d5d050a8fad7ceed1771f", "lon": -77.19910566666667, "rental_uris": {"ios": "https://dc.lft.to/lastmile_qr_scan", "android": "https://dc.lft.to/lastmile_qr_scan"}}, {"name": "c203f1775df79e1376a8da2ca48bb8b1", "fusion_lat": 0.0, "type": "electric_bike", "lat": 39.09461183333333, "is_reserved": 0, "is_disabled": 0, "fusion_lon": 0.0, "bike_id": "c203f1775df79e1376a8da2ca48bb8b1", "lon": -77.14995683333333, "rental_uris": {"ios": "https://dc.lft.to/lastmile_qr_scan", "android": "https://dc.lft.to/lastmile_qr_scan"}}, {"name": "a3acaf48e0e6c8d0276bb8c64b61c77d", "fusion_lat": 0.0, "type": "electric_scooter", "lat": 38.89499, "is_reserved": 0, "is_disabled": 0, "fusion_lon": 0.0, "bike_id": "a3acaf48e0e6c8d0276bb8c64b61c77d", "lon": -77.00212633333334, "rental_uris": {"ios": "https://dc.lft.to/lastmile_qr_scan", "android": "https://dc.lft.to/lastmile_qr_scan"}}, {"name": "e33c30b2a465d129fa49f551f3100fbc", "fusion_lat": 0.0, "type": "electric_scooter", "lat": 38.899102, "is_reserved": 0, "is_disabled": 0, "fusion_lon": 0.0, "bike_id": "e33c30b2a465d129fa49f551f3100fbc", "lon": -76.93349433333333, "rental_uris": {"ios": "https://dc.lft.to/lastmile_qr_scan", "android": "https://dc.lft.to/lastmile_qr_scan"}}, {"name": "103c929b6b61b235acadde52d2fcb052", "fusion_lat": 0.0, "type": "electric_scooter", "lat": 38.9036575, "is_reserved": 0, "is_disabled": 0, "fusion_lon": 0.0, "bike_id": "103c929b6b61b235acadde52d2fcb052", "lon": -77.0433195, "rental_uris": {"ios": "https://dc.lft.to/lastmile_qr_scan", "android": "https://dc.lft.to/lastmile_qr_scan"}}, {"name": "f57e6a15e7340883126b9e153014ca7a", "fusion_lat": 0.0, "type": "electric_scooter", "lat": 38.901254333333334, "is_reserved": 0, "is_disabled": 0, "fusion_lon": 0.0, "bike_id": "f57e6a15e7340883126b9e153014ca7a", "lon": -77.021866, "rental_uris": {"ios": "https://dc.lft.to/lastmile_qr_scan", "android": "https://dc.lft.to/lastmile_qr_scan"}}, {"name": "ec4ec48d7dee2b972c11e6f5f6a11669", "fusion_lat": 0.0, "type": "electric_scooter", "lat": 38.90150633333333, "is_reserved": 0, "is_disabled": 0, "fusion_lon": 0.0, "bike_id": "ec4ec48d7dee2b972c11e6f5f6a11669", "lon": -77.02563, "rental_uris": {"ios": "https://dc.lft.to/lastmile_qr_scan", "android": "https://dc.lft.to/lastmile_qr_scan"}}, {"name": "4aa2bcf4b60cb9ae741e8f60dab6a7f4", "fusion_lat": 0.0, "type": "electric_scooter", "lat": 38.900198833333334, "is_reserved": 0, "is_disabled": 0, "fusion_lon": 0.0, "bike_id": "4aa2bcf4b60cb9ae741e8f60dab6a7f4", "lon": -77.0330635, "rental_uris": {"ios": "https://dc.lft.to/lastmile_qr_scan", "android": "https://dc.lft.to/lastmile_qr_scan"}}, {"name": "e6313ab8b0aee040efcd5366fd57793a", "fusion_lat": 0.0, "type": "electric_bike", "lat": 38.96505583333333, "is_reserved": 0, "is_disabled": 0, "fusion_lon": 0.0, "bike_id": "e6313ab8b0aee040efcd5366fd57793a", "lon": -77.1033735, "rental_uris": {"ios": "https://dc.lft.to/lastmile_qr_scan", "android": "https://dc.lft.to/lastmile_qr_scan"}}, {"name": "32ee37a04b893f846af58860cb09abc4", "fusion_lat": 0.0, "type": "electric_scooter", "lat": 38.90798133333333, "is_reserved": 0, "is_disabled": 0, "fusion_lon": 0.0, "bike_id": "32ee37a04b893f846af58860cb09abc4", "lon": -77.04822233333333, "rental_uris": {"ios": "https://dc.lft.to/lastmile_qr_scan", "android": "https://dc.lft.to/lastmile_qr_scan"}}, {"name": "bee92b7b3bc3a0c5dad367fd4f869c27", "fusion_lat": 0.0, "type": "electric_scooter", "lat": 38.897412, "is_reserved": 0, "is_disabled": 0, "fusion_lon": 0.0, "bike_id": "bee92b7b3bc3a0c5dad367fd4f869c27", "lon": -76.94250816666667, "rental_uris": {"ios": "https://dc.lft.to/lastmile_qr_scan", "android": "https://dc.lft.to/lastmile_qr_scan"}}, {"name": "2eb6d6847850d39328bc3e4d5064e2bd", "fusion_lat": 0.0, "type": "electric_scooter", "lat": 38.901014333333336, "is_reserved": 0, "is_disabled": 0, "fusion_lon": 0.0, "bike_id": "2eb6d6847850d39328bc3e4d5064e2bd", "lon": -77.031803, "rental_uris": {"ios": "https://dc.lft.to/lastmile_qr_scan", "android": "https://dc.lft.to/lastmile_qr_scan"}}, {"name": "f5d0f30bb637a7ca8eca5ef83116f30a", "fusion_lat": 0.0, "type": "electric_scooter", "lat": 38.921505, "is_reserved": 0, "is_disabled": 0, "fusion_lon": 0.0, "bike_id": "f5d0f30bb637a7ca8eca5ef83116f30a", "lon": -77.03512516666666, "rental_uris": {"ios": "https://dc.lft.to/lastmile_qr_scan", "android": "https://dc.lft.to/lastmile_qr_scan"}}, {"name": "6bc64344fa6af939ee7c81550efcc8a4", "fusion_lat": 0.0, "type": "electric_scooter", "lat": 38.933867, "is_reserved": 0, "is_disabled": 0, "fusion_lon": 0.0, "bike_id": "6bc64344fa6af939ee7c81550efcc8a4", "lon": -77.05763416666667, "rental_uris": {"ios": "https://dc.lft.to/lastmile_qr_scan", "android": "https://dc.lft.to/lastmile_qr_scan"}}, {"name": "a96dcaa1378a4d7ae56f63d66554760f", "fusion_lat": 0.0, "type": "electric_scooter", "lat": 38.90435016666667, "is_reserved": 0, "is_disabled": 0, "fusion_lon": 0.0, "bike_id": "a96dcaa1378a4d7ae56f63d66554760f", "lon": -77.0465615, "rental_uris": {"ios": "https://dc.lft.to/lastmile_qr_scan", "android": "https://dc.lft.to/lastmile_qr_scan"}}, {"name": "3493c806284b614af1e2e9132ae3f7bc", "fusion_lat": 0.0, "type": "electric_scooter", "lat": 38.90153, "is_reserved": 0, "is_disabled": 0, "fusion_lon": 0.0, "bike_id": "3493c806284b614af1e2e9132ae3f7bc", "lon": -76.93059466666666, "rental_uris": {"ios": "https://dc.lft.to/lastmile_qr_scan", "android": "https://dc.lft.to/lastmile_qr_scan"}}, {"name": "8ef0ed3a7e75b80d6abef7f7396eabea", "fusion_lat": 0.0, "type": "electric_scooter", "lat": 38.894035, "is_reserved": 0, "is_disabled": 0, "fusion_lon": 0.0, "bike_id": "8ef0ed3a7e75b80d6abef7f7396eabea", "lon": -76.94797716666666, "rental_uris": {"ios": "https://dc.lft.to/lastmile_qr_scan", "android": "https://dc.lft.to/lastmile_qr_scan"}}, {"name": "79038ce200eda5053e65e6f338777ae9", "fusion_lat": 0.0, "type": "electric_scooter", "lat": 38.923600666666665, "is_reserved": 0, "is_disabled": 0, "fusion_lon": 0.0, "bike_id": "79038ce200eda5053e65e6f338777ae9", "lon": -77.05080983333333, "rental_uris": {"ios": "https://dc.lft.to/lastmile_qr_scan", "android": "https://dc.lft.to/lastmile_qr_scan"}}, {"name": "143cf4e4b752cc7a8b22eb9bfcc94538", "fusion_lat": 0.0, "type": "electric_scooter", "lat": 38.8570925, "is_reserved": 0, "is_disabled": 0, "fusion_lon": 0.0, "bike_id": "143cf4e4b752cc7a8b22eb9bfcc94538", "lon": -76.98129883333333, "rental_uris": {"ios": "https://dc.lft.to/lastmile_qr_scan", "android": "https://dc.lft.to/lastmile_qr_scan"}}, {"name": "f46c37e40ccd70d5fadec1e57befb9e6", "fusion_lat": 0.0, "type": "electric_scooter", "lat": 38.933288833333336, "is_reserved": 0, "is_disabled": 0, "fusion_lon": 0.0, "bike_id": "f46c37e40ccd70d5fadec1e57befb9e6", "lon": -77.03262566666666, "rental_uris": {"ios": "https://dc.lft.to/lastmile_qr_scan", "android": "https://dc.lft.to/lastmile_qr_scan"}}, {"name": "af3377bda160ff39858715d5a17db0e6", "fusion_lat": 0.0, "type": "electric_scooter", "lat": 38.88743183333333, "is_reserved": 0, "is_disabled": 0, "fusion_lon": 0.0, "bike_id": "af3377bda160ff39858715d5a17db0e6", "lon": -77.0212835, "rental_uris": {"ios": "https://dc.lft.to/lastmile_qr_scan", "android": "https://dc.lft.to/lastmile_qr_scan"}}, {"name": "4d0f3c7d72623424c16ccb4e4a8c8715", "fusion_lat": 0.0, "type": "electric_scooter", "lat": 38.922335, "is_reserved": 0, "is_disabled": 0, "fusion_lon": 0.0, "bike_id": "4d0f3c7d72623424c16ccb4e4a8c8715", "lon": -77.04248983333333, "rental_uris": {"ios": "https://dc.lft.to/lastmile_qr_scan", "android": "https://dc.lft.to/lastmile_qr_scan"}}, {"name": "98c668e75076541a89a84494acde47a8", "fusion_lat": 0.0, "type": "electric_scooter", "lat": 38.92277816666667, "is_reserved": 0, "is_disabled": 0, "fusion_lon": 0.0, "bike_id": "98c668e75076541a89a84494acde47a8", "lon": -77.04234283333334, "rental_uris": {"ios": "https://dc.lft.to/lastmile_qr_scan", "android": "https://dc.lft.to/lastmile_qr_scan"}}, {"name": "615ec436f641dedd991eb171475f6711", "fusion_lat": 0.0, "type": "electric_scooter", "lat": 38.884350833333336, "is_reserved": 0, "is_disabled": 0, "fusion_lon": 0.0, "bike_id": "615ec436f641dedd991eb171475f6711", "lon": -76.957527, "rental_uris": {"ios": "https://dc.lft.to/lastmile_qr_scan", "android": "https://dc.lft.to/lastmile_qr_scan"}}, {"name": "e4bd653b065aeb1dca11634d207a4257", "fusion_lat": 0.0, "type": "electric_scooter", "lat": 38.897300333333334, "is_reserved": 0, "is_disabled": 0, "fusion_lon": 0.0, "bike_id": "e4bd653b065aeb1dca11634d207a4257", "lon": -77.02655666666666, "rental_uris": {"ios": "https://dc.lft.to/lastmile_qr_scan", "android": "https://dc.lft.to/lastmile_qr_scan"}}, {"name": "c27b1f538cbd99669d1202fb5ba5158a", "fusion_lat": 0.0, "type": "electric_scooter", "lat": 38.915149166666666, "is_reserved": 0, "is_disabled": 0, "fusion_lon": 0.0, "bike_id": "c27b1f538cbd99669d1202fb5ba5158a", "lon": -77.0448945, "rental_uris": {"ios": "https://dc.lft.to/lastmile_qr_scan", "android": "https://dc.lft.to/lastmile_qr_scan"}}, {"name": "06e4ecbd0babf8e3965412407918ee48", "fusion_lat": 0.0, "type": "electric_scooter", "lat": 38.90474583333334, "is_reserved": 0, "is_disabled": 0, "fusion_lon": 0.0, "bike_id": "06e4ecbd0babf8e3965412407918ee48", "lon": -77.04172033333333, "rental_uris": {"ios": "https://dc.lft.to/lastmile_qr_scan", "android": "https://dc.lft.to/lastmile_qr_scan"}}, {"name": "ece09b7af52b23d015174c629fc161f3", "fusion_lat": 0.0, "type": "electric_scooter", "lat": 38.914044833333335, "is_reserved": 0, "is_disabled": 0, "fusion_lon": 0.0, "bike_id": "ece09b7af52b23d015174c629fc161f3", "lon": -77.045628, "rental_uris": {"ios": "https://dc.lft.to/lastmile_qr_scan", "android": "https://dc.lft.to/lastmile_qr_scan"}}, {"name": "b2065e1b1e5c42916cbd0ee63032a38a", "fusion_lat": 0.0, "type": "electric_scooter", "lat": 38.902436333333334, "is_reserved": 0, "is_disabled": 0, "fusion_lon": 0.0, "bike_id": "b2065e1b1e5c42916cbd0ee63032a38a", "lon": -77.002499, "rental_uris": {"ios": "https://dc.lft.to/lastmile_qr_scan", "android": "https://dc.lft.to/lastmile_qr_scan"}}, {"name": "c92fcaad291dc72a25abed3a09c0e8ef", "fusion_lat": 0.0, "type": "electric_scooter", "lat": 38.93579833333333, "is_reserved": 0, "is_disabled": 0, "fusion_lon": 0.0, "bike_id": "c92fcaad291dc72a25abed3a09c0e8ef", "lon": -76.991019, "rental_uris": {"ios": "https://dc.lft.to/lastmile_qr_scan", "android": "https://dc.lft.to/lastmile_qr_scan"}}, {"name": "ebd699054e9dc51922e70e0a16d3a681", "fusion_lat": 0.0, "type": "electric_scooter", "lat": 38.899718, "is_reserved": 0, "is_disabled": 0, "fusion_lon": 0.0, "bike_id": "ebd699054e9dc51922e70e0a16d3a681", "lon": -77.03380333333334, "rental_uris": {"ios": "https://dc.lft.to/lastmile_qr_scan", "android": "https://dc.lft.to/lastmile_qr_scan"}}, {"name": "e7ee3f4c5fd119d5e3f0334d1feb1bff", "fusion_lat": 0.0, "type": "electric_scooter", "lat": 38.922379666666664, "is_reserved": 0, "is_disabled": 0, "fusion_lon": 0.0, "bike_id": "e7ee3f4c5fd119d5e3f0334d1feb1bff", "lon": -77.03347383333333, "rental_uris": {"ios": "https://dc.lft.to/lastmile_qr_scan", "android": "https://dc.lft.to/lastmile_qr_scan"}}, {"name": "a5bfcf56cba3a6f31e69b6a98faffd6e", "fusion_lat": 0.0, "type": "electric_bike", "lat": 38.83814516666666, "is_reserved": 0, "is_disabled": 0, "fusion_lon": 0.0, "bike_id": "a5bfcf56cba3a6f31e69b6a98faffd6e", "lon": -77.09521733333334, "rental_uris": {"ios": "https://dc.lft.to/lastmile_qr_scan", "android": "https://dc.lft.to/lastmile_qr_scan"}}, {"name": "525add4020c36bfe975695eeb0bf88e3", "fusion_lat": 0.0, "type": "electric_scooter", "lat": 38.895341333333334, "is_reserved": 0, "is_disabled": 0, "fusion_lon": 0.0, "bike_id": "525add4020c36bfe975695eeb0bf88e3", "lon": -77.04640566666667, "rental_uris": {"ios": "https://dc.lft.to/lastmile_qr_scan", "android": "https://dc.lft.to/lastmile_qr_scan"}}, {"name": "b5b2399b3191d6bbdd728e1a22c25bad", "fusion_lat": 0.0, "type": "electric_scooter", "lat": 38.925262333333336, "is_reserved": 0, "is_disabled": 0, "fusion_lon": 0.0, "bike_id": "b5b2399b3191d6bbdd728e1a22c25bad", "lon": -77.05548716666667, "rental_uris": {"ios": "https://dc.lft.to/lastmile_qr_scan", "android": "https://dc.lft.to/lastmile_qr_scan"}}, {"name": "7939eda46972b35325b7799c6e2c71c2", "fusion_lat": 0.0, "type": "electric_scooter", "lat": 38.90662066666667, "is_reserved": 0, "is_disabled": 0, "fusion_lon": 0.0, "bike_id": "7939eda46972b35325b7799c6e2c71c2", "lon": -77.03868883333334, "rental_uris": {"ios": "https://dc.lft.to/lastmile_qr_scan", "android": "https://dc.lft.to/lastmile_qr_scan"}}, {"name": "164901437062718dacacccea6bf96f91", "fusion_lat": 0.0, "type": "electric_bike", "lat": 38.99092, "is_reserved": 0, "is_disabled": 0, "fusion_lon": 0.0, "bike_id": "164901437062718dacacccea6bf96f91", "lon": -76.8749615, "rental_uris": {"ios": "https://dc.lft.to/lastmile_qr_scan", "android": "https://dc.lft.to/lastmile_qr_scan"}}, {"name": "b72a9008aee2bcc193cc370f844276d7", "fusion_lat": 0.0, "type": "electric_scooter", "lat": 38.9066115, "is_reserved": 0, "is_disabled": 0, "fusion_lon": 0.0, "bike_id": "b72a9008aee2bcc193cc370f844276d7", "lon": -77.0387, "rental_uris": {"ios": "https://dc.lft.to/lastmile_qr_scan", "android": "https://dc.lft.to/lastmile_qr_scan"}}, {"name": "373cf6011f152d80b9941d5beef0612d", "fusion_lat": 0.0, "type": "electric_scooter", "lat": 38.91412566666666, "is_reserved": 0, "is_disabled": 0, "fusion_lon": 0.0, "bike_id": "373cf6011f152d80b9941d5beef0612d", "lon": -77.03993966666667, "rental_uris": {"ios": "https://dc.lft.to/lastmile_qr_scan", "android": "https://dc.lft.to/lastmile_qr_scan"}}, {"name": "99da859af5017d49d4f4821ee926119f", "fusion_lat": 0.0, "type": "electric_bike", "lat": 38.828762166666664, "is_reserved": 0, "is_disabled": 0, "fusion_lon": 0.0, "bike_id": "99da859af5017d49d4f4821ee926119f", "lon": -77.11216866666666, "rental_uris": {"ios": "https://dc.lft.to/lastmile_qr_scan", "android": "https://dc.lft.to/lastmile_qr_scan"}}, {"name": "aa11b80506fbbe125eb067333faed768", "fusion_lat": 0.0, "type": "electric_scooter", "lat": 38.89220783333333, "is_reserved": 0, "is_disabled": 0, "fusion_lon": 0.0, "bike_id": "aa11b80506fbbe125eb067333faed768", "lon": -77.0308825, "rental_uris": {"ios": "https://dc.lft.to/lastmile_qr_scan", "android": "https://dc.lft.to/lastmile_qr_scan"}}, {"name": "86037643b4a30becedb936e220022f04", "fusion_lat": 0.0, "type": "electric_scooter", "lat": 38.9562895, "is_reserved": 0, "is_disabled": 0, "fusion_lon": 0.0, "bike_id": "86037643b4a30becedb936e220022f04", "lon": -77.011558, "rental_uris": {"ios": "https://dc.lft.to/lastmile_qr_scan", "android": "https://dc.lft.to/lastmile_qr_scan"}}, {"name": "17c40e9df29e5f37f7a2e03593d62b42", "fusion_lat": 0.0, "type": "electric_scooter", "lat": 38.88409133333333, "is_reserved": 0, "is_disabled": 0, "fusion_lon": 0.0, "bike_id": "17c40e9df29e5f37f7a2e03593d62b42", "lon": -77.01528333333333, "rental_uris": {"ios": "https://dc.lft.to/lastmile_qr_scan", "android": "https://dc.lft.to/lastmile_qr_scan"}}, {"name": "a283759e1571f732d3d84e6fdb0e2d21", "fusion_lat": 0.0, "type": "electric_scooter", "lat": 38.866664666666665, "is_reserved": 0, "is_disabled": 0, "fusion_lon": 0.0, "bike_id": "a283759e1571f732d3d84e6fdb0e2d21", "lon": -76.98458683333334, "rental_uris": {"ios": "https://dc.lft.to/lastmile_qr_scan", "android": "https://dc.lft.to/lastmile_qr_scan"}}, {"name": "c2c3bb5e01f2c3d5a18bad089cc37a67", "fusion_lat": 0.0, "type": "electric_scooter", "lat": 38.876751666666664, "is_reserved": 0, "is_disabled": 0, "fusion_lon": 0.0, "bike_id": "c2c3bb5e01f2c3d5a18bad089cc37a67", "lon": -77.0177855, "rental_uris": {"ios": "https://dc.lft.to/lastmile_qr_scan", "android": "https://dc.lft.to/lastmile_qr_scan"}}, {"name": "e74b3aabb3793b6732f12f3a8707c8c1", "fusion_lat": 0.0, "type": "electric_scooter", "lat": 38.924429833333335, "is_reserved": 0, "is_disabled": 0, "fusion_lon": 0.0, "bike_id": "e74b3aabb3793b6732f12f3a8707c8c1", "lon": -77.03352316666667, "rental_uris": {"ios": "https://dc.lft.to/lastmile_qr_scan", "android": "https://dc.lft.to/lastmile_qr_scan"}}, {"name": "6bc7336f81153966fdfd85eef0a844c7", "fusion_lat": 0.0, "type": "electric_scooter", "lat": 38.899680000000004, "is_reserved": 0, "is_disabled": 0, "fusion_lon": 0.0, "bike_id": "6bc7336f81153966fdfd85eef0a844c7", "lon": -77.0569875, "rental_uris": {"ios": "https://dc.lft.to/lastmile_qr_scan", "android": "https://dc.lft.to/lastmile_qr_scan"}}, {"name": "f1db8cdf8577f9f5c94096f60e0a1e23", "fusion_lat": 0.0, "type": "electric_scooter", "lat": 38.93612483333333, "is_reserved": 0, "is_disabled": 0, "fusion_lon": 0.0, "bike_id": "f1db8cdf8577f9f5c94096f60e0a1e23", "lon": -77.05863866666667, "rental_uris": {"ios": "https://dc.lft.to/lastmile_qr_scan", "android": "https://dc.lft.to/lastmile_qr_scan"}}, {"name": "5d6026338fa5779a564a15af5ca7248c", "fusion_lat": 0.0, "type": "electric_scooter", "lat": 38.88531, "is_reserved": 0, "is_disabled": 0, "fusion_lon": 0.0, "bike_id": "5d6026338fa5779a564a15af5ca7248c", "lon": -77.005779, "rental_uris": {"ios": "https://dc.lft.to/lastmile_qr_scan", "android": "https://dc.lft.to/lastmile_qr_scan"}}, {"name": "dff84a9331bf704ec566c94f8215f205", "fusion_lat": 0.0, "type": "electric_scooter", "lat": 38.902396333333336, "is_reserved": 0, "is_disabled": 0, "fusion_lon": 0.0, "bike_id": "dff84a9331bf704ec566c94f8215f205", "lon": -77.0460855, "rental_uris": {"ios": "https://dc.lft.to/lastmile_qr_scan", "android": "https://dc.lft.to/lastmile_qr_scan"}}, {"name": "d74ecb2af3d81f7d609ab5902251587f", "fusion_lat": 0.0, "type": "electric_scooter", "lat": 38.890126, "is_reserved": 0, "is_disabled": 0, "fusion_lon": 0.0, "bike_id": "d74ecb2af3d81f7d609ab5902251587f", "lon": -76.93733666666667, "rental_uris": {"ios": "https://dc.lft.to/lastmile_qr_scan", "android": "https://dc.lft.to/lastmile_qr_scan"}}, {"name": "0f4386e4cbc5363f550e42be1a14e81e", "fusion_lat": 0.0, "type": "electric_scooter", "lat": 38.935353, "is_reserved": 0, "is_disabled": 0, "fusion_lon": 0.0, "bike_id": "0f4386e4cbc5363f550e42be1a14e81e", "lon": -77.03408933333333, "rental_uris": {"ios": "https://dc.lft.to/lastmile_qr_scan", "android": "https://dc.lft.to/lastmile_qr_scan"}}, {"name": "49cfd45d47e182589278c1f2b7568fb1", "fusion_lat": 0.0, "type": "electric_scooter", "lat": 38.900406833333335, "is_reserved": 0, "is_disabled": 0, "fusion_lon": 0.0, "bike_id": "49cfd45d47e182589278c1f2b7568fb1", "lon": -77.01125516666667, "rental_uris": {"ios": "https://dc.lft.to/lastmile_qr_scan", "android": "https://dc.lft.to/lastmile_qr_scan"}}, {"name": "c3c10da048f804a1060cd267d94ad90d", "fusion_lat": 0.0, "type": "electric_scooter", "lat": 38.87658916666667, "is_reserved": 0, "is_disabled": 0, "fusion_lon": 0.0, "bike_id": "c3c10da048f804a1060cd267d94ad90d", "lon": -77.00461, "rental_uris": {"ios": "https://dc.lft.to/lastmile_qr_scan", "android": "https://dc.lft.to/lastmile_qr_scan"}}, {"name": "6d550073d7d69e2c839102ed4ff04d21", "fusion_lat": 0.0, "type": "electric_scooter", "lat": 38.89909866666667, "is_reserved": 0, "is_disabled": 0, "fusion_lon": 0.0, "bike_id": "6d550073d7d69e2c839102ed4ff04d21", "lon": -77.03296766666666, "rental_uris": {"ios": "https://dc.lft.to/lastmile_qr_scan", "android": "https://dc.lft.to/lastmile_qr_scan"}}, {"name": "68c8506b50ed92b5a4c90129659154a7", "fusion_lat": 0.0, "type": "electric_scooter", "lat": 38.89502566666667, "is_reserved": 0, "is_disabled": 0, "fusion_lon": 0.0, "bike_id": "68c8506b50ed92b5a4c90129659154a7", "lon": -77.0111345, "rental_uris": {"ios": "https://dc.lft.to/lastmile_qr_scan", "android": "https://dc.lft.to/lastmile_qr_scan"}}, {"name": "372940e1eaf8f2ecb7caa62f711f959d", "fusion_lat": 0.0, "type": "electric_scooter", "lat": 38.905773833333335, "is_reserved": 0, "is_disabled": 0, "fusion_lon": 0.0, "bike_id": "372940e1eaf8f2ecb7caa62f711f959d", "lon": -77.002695, "rental_uris": {"ios": "https://dc.lft.to/lastmile_qr_scan", "android": "https://dc.lft.to/lastmile_qr_scan"}}, {"name": "8e1d196bda3a38015a8c2f4fb12c4fb6", "fusion_lat": 0.0, "type": "electric_scooter", "lat": 38.90994216666667, "is_reserved": 0, "is_disabled": 0, "fusion_lon": 0.0, "bike_id": "8e1d196bda3a38015a8c2f4fb12c4fb6", "lon": -77.040054, "rental_uris": {"ios": "https://dc.lft.to/lastmile_qr_scan", "android": "https://dc.lft.to/lastmile_qr_scan"}}, {"name": "215f14d7f342f3422f0ed347dad57298", "fusion_lat": 0.0, "type": "electric_scooter", "lat": 38.91330166666667, "is_reserved": 0, "is_disabled": 0, "fusion_lon": 0.0, "bike_id": "215f14d7f342f3422f0ed347dad57298", "lon": -77.048723, "rental_uris": {"ios": "https://dc.lft.to/lastmile_qr_scan", "android": "https://dc.lft.to/lastmile_qr_scan"}}, {"name": "0b622f2cc2f679cc67c1c67c0bc69582", "fusion_lat": 0.0, "type": "electric_scooter", "lat": 38.906810666666665, "is_reserved": 0, "is_disabled": 0, "fusion_lon": 0.0, "bike_id": "0b622f2cc2f679cc67c1c67c0bc69582", "lon": -77.03808066666667, "rental_uris": {"ios": "https://dc.lft.to/lastmile_qr_scan", "android": "https://dc.lft.to/lastmile_qr_scan"}}, {"name": "20a336e7382ef592a8ca909cf4bc6380", "fusion_lat": 0.0, "type": "electric_bike", "lat": 38.970901, "is_reserved": 0, "is_disabled": 0, "fusion_lon": 0.0, "bike_id": "20a336e7382ef592a8ca909cf4bc6380", "lon": -77.06968683333334, "rental_uris": {"ios": "https://dc.lft.to/lastmile_qr_scan", "android": "https://dc.lft.to/lastmile_qr_scan"}}, {"name": "4a577ca7319530ad9e44fd13136d6728", "fusion_lat": 0.0, "type": "electric_scooter", "lat": 38.90267583333333, "is_reserved": 0, "is_disabled": 0, "fusion_lon": 0.0, "bike_id": "4a577ca7319530ad9e44fd13136d6728", "lon": -77.053109, "rental_uris": {"ios": "https://dc.lft.to/lastmile_qr_scan", "android": "https://dc.lft.to/lastmile_qr_scan"}}, {"name": "3f89dad2e0659dc478e860abaec8481d", "fusion_lat": 0.0, "type": "electric_scooter", "lat": 38.92346933333334, "is_reserved": 0, "is_disabled": 0, "fusion_lon": 0.0, "bike_id": "3f89dad2e0659dc478e860abaec8481d", "lon": -77.03391616666667, "rental_uris": {"ios": "https://dc.lft.to/lastmile_qr_scan", "android": "https://dc.lft.to/lastmile_qr_scan"}}, {"name": "590b51b8b6d2eef1c12aa3cf67898fc3", "fusion_lat": 0.0, "type": "electric_scooter", "lat": 38.90947466666667, "is_reserved": 0, "is_disabled": 0, "fusion_lon": 0.0, "bike_id": "590b51b8b6d2eef1c12aa3cf67898fc3", "lon": -77.046576, "rental_uris": {"ios": "https://dc.lft.to/lastmile_qr_scan", "android": "https://dc.lft.to/lastmile_qr_scan"}}, {"name": "a9f962f0ed5307b1f0496b972598f60c", "fusion_lat": 0.0, "type": "electric_scooter", "lat": 38.9261985, "is_reserved": 0, "is_disabled": 0, "fusion_lon": 0.0, "bike_id": "a9f962f0ed5307b1f0496b972598f60c", "lon": -77.03781133333334, "rental_uris": {"ios": "https://dc.lft.to/lastmile_qr_scan", "android": "https://dc.lft.to/lastmile_qr_scan"}}, {"name": "6c86ef49aa7599628f2a4392254df0e5", "fusion_lat": 0.0, "type": "electric_scooter", "lat": 38.9052795, "is_reserved": 0, "is_disabled": 0, "fusion_lon": 0.0, "bike_id": "6c86ef49aa7599628f2a4392254df0e5", "lon": -77.03453283333333, "rental_uris": {"ios": "https://dc.lft.to/lastmile_qr_scan", "android": "https://dc.lft.to/lastmile_qr_scan"}}, {"name": "332cd3d79aea2ae941ca8cea769c84c0", "fusion_lat": 0.0, "type": "electric_scooter", "lat": 38.918973, "is_reserved": 0, "is_disabled": 0, "fusion_lon": 0.0, "bike_id": "332cd3d79aea2ae941ca8cea769c84c0", "lon": -77.01965483333333, "rental_uris": {"ios": "https://dc.lft.to/lastmile_qr_scan", "android": "https://dc.lft.to/lastmile_qr_scan"}}, {"name": "f8f07ddcd26af704c4fe4684ea8679bc", "fusion_lat": 0.0, "type": "electric_scooter", "lat": 38.8765725, "is_reserved": 0, "is_disabled": 0, "fusion_lon": 0.0, "bike_id": "f8f07ddcd26af704c4fe4684ea8679bc", "lon": -77.004578, "rental_uris": {"ios": "https://dc.lft.to/lastmile_qr_scan", "android": "https://dc.lft.to/lastmile_qr_scan"}}, {"name": "c3bca6ecd72de3515ae88798d4a9572e", "fusion_lat": 0.0, "type": "electric_scooter", "lat": 38.906337, "is_reserved": 0, "is_disabled": 0, "fusion_lon": 0.0, "bike_id": "c3bca6ecd72de3515ae88798d4a9572e", "lon": -77.0237985, "rental_uris": {"ios": "https://dc.lft.to/lastmile_qr_scan", "android": "https://dc.lft.to/lastmile_qr_scan"}}, {"name": "923f1e077fbf11f8810ab0c1287fd88d", "fusion_lat": 0.0, "type": "electric_scooter", "lat": 38.9181135, "is_reserved": 0, "is_disabled": 0, "fusion_lon": 0.0, "bike_id": "923f1e077fbf11f8810ab0c1287fd88d", "lon": -77.03330483333333, "rental_uris": {"ios": "https://dc.lft.to/lastmile_qr_scan", "android": "https://dc.lft.to/lastmile_qr_scan"}}, {"name": "a4014e1e14e1c50ebc835cf79154d490", "fusion_lat": 0.0, "type": "electric_scooter", "lat": 38.90915483333333, "is_reserved": 0, "is_disabled": 0, "fusion_lon": 0.0, "bike_id": "a4014e1e14e1c50ebc835cf79154d490", "lon": -77.03660433333333, "rental_uris": {"ios": "https://dc.lft.to/lastmile_qr_scan", "android": "https://dc.lft.to/lastmile_qr_scan"}}, {"name": "e8e8166dd353493282e350ab8c0e03f0", "fusion_lat": 0.0, "type": "electric_scooter", "lat": 38.874986166666666, "is_reserved": 0, "is_disabled": 0, "fusion_lon": 0.0, "bike_id": "e8e8166dd353493282e350ab8c0e03f0", "lon": -76.9979265, "rental_uris": {"ios": "https://dc.lft.to/lastmile_qr_scan", "android": "https://dc.lft.to/lastmile_qr_scan"}}, {"name": "e20b9c5782e864bf8751b6534884b10a", "fusion_lat": 0.0, "type": "electric_scooter", "lat": 38.9003215, "is_reserved": 0, "is_disabled": 0, "fusion_lon": 0.0, "bike_id": "e20b9c5782e864bf8751b6534884b10a", "lon": -77.000967, "rental_uris": {"ios": "https://dc.lft.to/lastmile_qr_scan", "android": "https://dc.lft.to/lastmile_qr_scan"}}, {"name": "93869db89d2c583e6227cbea04d7b9af", "fusion_lat": 0.0, "type": "electric_scooter", "lat": 38.928943333333336, "is_reserved": 0, "is_disabled": 0, "fusion_lon": 0.0, "bike_id": "93869db89d2c583e6227cbea04d7b9af", "lon": -77.05457316666667, "rental_uris": {"ios": "https://dc.lft.to/lastmile_qr_scan", "android": "https://dc.lft.to/lastmile_qr_scan"}}, {"name": "3f6769f63b42e2551754be76f693e0be", "fusion_lat": 0.0, "type": "electric_scooter", "lat": 38.907171, "is_reserved": 0, "is_disabled": 0, "fusion_lon": 0.0, "bike_id": "3f6769f63b42e2551754be76f693e0be", "lon": -77.03355683333334, "rental_uris": {"ios": "https://dc.lft.to/lastmile_qr_scan", "android": "https://dc.lft.to/lastmile_qr_scan"}}, {"name": "a42062b017c67983823a31bca55ccd69", "fusion_lat": 0.0, "type": "electric_scooter", "lat": 38.906555166666664, "is_reserved": 0, "is_disabled": 0, "fusion_lon": 0.0, "bike_id": "a42062b017c67983823a31bca55ccd69", "lon": -77.0513575, "rental_uris": {"ios": "https://dc.lft.to/lastmile_qr_scan", "android": "https://dc.lft.to/lastmile_qr_scan"}}, {"name": "38c51b8cc7701b1c7dc6a329fcd7e525", "fusion_lat": 0.0, "type": "electric_scooter", "lat": 38.9248575, "is_reserved": 0, "is_disabled": 0, "fusion_lon": 0.0, "bike_id": "38c51b8cc7701b1c7dc6a329fcd7e525", "lon": -77.027121, "rental_uris": {"ios": "https://dc.lft.to/lastmile_qr_scan", "android": "https://dc.lft.to/lastmile_qr_scan"}}, {"name": "a2a170bbd4ac3f4ec25ab987b0fe8aeb", "fusion_lat": 0.0, "type": "electric_scooter", "lat": 38.90614983333333, "is_reserved": 0, "is_disabled": 0, "fusion_lon": 0.0, "bike_id": "a2a170bbd4ac3f4ec25ab987b0fe8aeb", "lon": -77.05143216666667, "rental_uris": {"ios": "https://dc.lft.to/lastmile_qr_scan", "android": "https://dc.lft.to/lastmile_qr_scan"}}, {"name": "29d9cfb56aad34c8aa6aa2609824ad9c", "fusion_lat": 0.0, "type": "electric_scooter", "lat": 38.897251, "is_reserved": 0, "is_disabled": 0, "fusion_lon": 0.0, "bike_id": "29d9cfb56aad34c8aa6aa2609824ad9c", "lon": -77.043346, "rental_uris": {"ios": "https://dc.lft.to/lastmile_qr_scan", "android": "https://dc.lft.to/lastmile_qr_scan"}}, {"name": "4452fe94d000dbd3afadd9e6f5bd666a", "fusion_lat": 0.0, "type": "electric_scooter", "lat": 38.866638333333334, "is_reserved": 0, "is_disabled": 0, "fusion_lon": 0.0, "bike_id": "4452fe94d000dbd3afadd9e6f5bd666a", "lon": -76.98449666666667, "rental_uris": {"ios": "https://dc.lft.to/lastmile_qr_scan", "android": "https://dc.lft.to/lastmile_qr_scan"}}, {"name": "bdd5a3413cc9bd2b27c7e30c0c926bfa", "fusion_lat": 0.0, "type": "electric_scooter", "lat": 38.930119166666664, "is_reserved": 0, "is_disabled": 0, "fusion_lon": 0.0, "bike_id": "bdd5a3413cc9bd2b27c7e30c0c926bfa", "lon": -77.02325633333334, "rental_uris": {"ios": "https://dc.lft.to/lastmile_qr_scan", "android": "https://dc.lft.to/lastmile_qr_scan"}}, {"name": "2b1f6bfc4dc9979e4a215c919f1dec45", "fusion_lat": 0.0, "type": "electric_scooter", "lat": 38.902663833333335, "is_reserved": 0, "is_disabled": 0, "fusion_lon": 0.0, "bike_id": "2b1f6bfc4dc9979e4a215c919f1dec45", "lon": -77.01758183333334, "rental_uris": {"ios": "https://dc.lft.to/lastmile_qr_scan", "android": "https://dc.lft.to/lastmile_qr_scan"}}, {"name": "5587ee851ea7100751a257c50d8edcb2", "fusion_lat": 0.0, "type": "electric_scooter", "lat": 38.902685166666664, "is_reserved": 0, "is_disabled": 0, "fusion_lon": 0.0, "bike_id": "5587ee851ea7100751a257c50d8edcb2", "lon": -77.0345295, "rental_uris": {"ios": "https://dc.lft.to/lastmile_qr_scan", "android": "https://dc.lft.to/lastmile_qr_scan"}}, {"name": "961d8dd9d25ee94fcf42f3833bc1f1d7", "fusion_lat": 0.0, "type": "electric_scooter", "lat": 38.862198666666664, "is_reserved": 0, "is_disabled": 0, "fusion_lon": 0.0, "bike_id": "961d8dd9d25ee94fcf42f3833bc1f1d7", "lon": -76.9949585, "rental_uris": {"ios": "https://dc.lft.to/lastmile_qr_scan", "android": "https://dc.lft.to/lastmile_qr_scan"}}, {"name": "76f1daca58a1134442c8edfc616e0421", "fusion_lat": 0.0, "type": "electric_scooter", "lat": 38.9119675, "is_reserved": 0, "is_disabled": 0, "fusion_lon": 0.0, "bike_id": "76f1daca58a1134442c8edfc616e0421", "lon": -77.0318225, "rental_uris": {"ios": "https://dc.lft.to/lastmile_qr_scan", "android": "https://dc.lft.to/lastmile_qr_scan"}}, {"name": "c4b298a0f94da88b26270c194bf06079", "fusion_lat": 0.0, "type": "electric_scooter", "lat": 38.8910215, "is_reserved": 0, "is_disabled": 0, "fusion_lon": 0.0, "bike_id": "c4b298a0f94da88b26270c194bf06079", "lon": -76.98703616666667, "rental_uris": {"ios": "https://dc.lft.to/lastmile_qr_scan", "android": "https://dc.lft.to/lastmile_qr_scan"}}, {"name": "7b7933a3ed983dccfd8d3f32f94e1ef8", "fusion_lat": 0.0, "type": "electric_scooter", "lat": 38.93253266666667, "is_reserved": 0, "is_disabled": 0, "fusion_lon": 0.0, "bike_id": "7b7933a3ed983dccfd8d3f32f94e1ef8", "lon": -77.039985, "rental_uris": {"ios": "https://dc.lft.to/lastmile_qr_scan", "android": "https://dc.lft.to/lastmile_qr_scan"}}, {"name": "26bbf6b5c579f488b147c1f49494885e", "fusion_lat": 0.0, "type": "electric_scooter", "lat": 38.905941166666665, "is_reserved": 0, "is_disabled": 0, "fusion_lon": 0.0, "bike_id": "26bbf6b5c579f488b147c1f49494885e", "lon": -77.07002116666666, "rental_uris": {"ios": "https://dc.lft.to/lastmile_qr_scan", "android": "https://dc.lft.to/lastmile_qr_scan"}}, {"name": "d22423d186fba0bb8fd17e70f699aa69", "fusion_lat": 0.0, "type": "electric_bike", "lat": 38.87092033333333, "is_reserved": 0, "is_disabled": 0, "fusion_lon": 0.0, "bike_id": "d22423d186fba0bb8fd17e70f699aa69", "lon": -77.01204183333333, "rental_uris": {"ios": "https://dc.lft.to/lastmile_qr_scan", "android": "https://dc.lft.to/lastmile_qr_scan"}}, {"name": "139cab2ee0ed541e83d2f7adb01d8aa5", "fusion_lat": 0.0, "type": "electric_scooter", "lat": 38.901923333333336, "is_reserved": 0, "is_disabled": 0, "fusion_lon": 0.0, "bike_id": "139cab2ee0ed541e83d2f7adb01d8aa5", "lon": -76.98844616666666, "rental_uris": {"ios": "https://dc.lft.to/lastmile_qr_scan", "android": "https://dc.lft.to/lastmile_qr_scan"}}, {"name": "4ef7159cdf063c322fa1da2c930ee994", "fusion_lat": 0.0, "type": "electric_scooter", "lat": 38.9046875, "is_reserved": 0, "is_disabled": 0, "fusion_lon": 0.0, "bike_id": "4ef7159cdf063c322fa1da2c930ee994", "lon": -77.03559766666666, "rental_uris": {"ios": "https://dc.lft.to/lastmile_qr_scan", "android": "https://dc.lft.to/lastmile_qr_scan"}}, {"name": "7d96ac3500e122146a1dee55402b69cf", "fusion_lat": 0.0, "type": "electric_scooter", "lat": 38.91691016666667, "is_reserved": 0, "is_disabled": 0, "fusion_lon": 0.0, "bike_id": "7d96ac3500e122146a1dee55402b69cf", "lon": -77.02461533333333, "rental_uris": {"ios": "https://dc.lft.to/lastmile_qr_scan", "android": "https://dc.lft.to/lastmile_qr_scan"}}, {"name": "3fa6da16b8231701628f9957aebf6ed5", "fusion_lat": 0.0, "type": "electric_scooter", "lat": 38.87758616666667, "is_reserved": 0, "is_disabled": 0, "fusion_lon": 0.0, "bike_id": "3fa6da16b8231701628f9957aebf6ed5", "lon": -76.99415383333333, "rental_uris": {"ios": "https://dc.lft.to/lastmile_qr_scan", "android": "https://dc.lft.to/lastmile_qr_scan"}}, {"name": "3f06a03f92c119b27b3f820c47b5f299", "fusion_lat": 0.0, "type": "electric_scooter", "lat": 38.91253233333333, "is_reserved": 0, "is_disabled": 0, "fusion_lon": 0.0, "bike_id": "3f06a03f92c119b27b3f820c47b5f299", "lon": -77.03154733333334, "rental_uris": {"ios": "https://dc.lft.to/lastmile_qr_scan", "android": "https://dc.lft.to/lastmile_qr_scan"}}, {"name": "ccbf0b7053faac1abb208c1d9beb0aac", "fusion_lat": 0.0, "type": "electric_scooter", "lat": 38.92268133333334, "is_reserved": 0, "is_disabled": 0, "fusion_lon": 0.0, "bike_id": "ccbf0b7053faac1abb208c1d9beb0aac", "lon": -77.02244183333333, "rental_uris": {"ios": "https://dc.lft.to/lastmile_qr_scan", "android": "https://dc.lft.to/lastmile_qr_scan"}}, {"name": "078f7340f14c9e5550de60fb28021bb2", "fusion_lat": 0.0, "type": "electric_scooter", "lat": 38.946924, "is_reserved": 0, "is_disabled": 0, "fusion_lon": 0.0, "bike_id": "078f7340f14c9e5550de60fb28021bb2", "lon": -77.0698655, "rental_uris": {"ios": "https://dc.lft.to/lastmile_qr_scan", "android": "https://dc.lft.to/lastmile_qr_scan"}}, {"name": "f7aeb6db54fd277bf67d5ca93fce8653", "fusion_lat": 0.0, "type": "electric_scooter", "lat": 38.9247445, "is_reserved": 0, "is_disabled": 0, "fusion_lon": 0.0, "bike_id": "f7aeb6db54fd277bf67d5ca93fce8653", "lon": -77.05217716666667, "rental_uris": {"ios": "https://dc.lft.to/lastmile_qr_scan", "android": "https://dc.lft.to/lastmile_qr_scan"}}, {"name": "7c3e6f334f5d414ab158146ca60bea67", "fusion_lat": 0.0, "type": "electric_scooter", "lat": 38.9038425, "is_reserved": 0, "is_disabled": 0, "fusion_lon": 0.0, "bike_id": "7c3e6f334f5d414ab158146ca60bea67", "lon": -77.045055, "rental_uris": {"ios": "https://dc.lft.to/lastmile_qr_scan", "android": "https://dc.lft.to/lastmile_qr_scan"}}, {"name": "5c2ba644e7215f55dc76a814cda22976", "fusion_lat": 0.0, "type": "electric_scooter", "lat": 38.952870833333336, "is_reserved": 0, "is_disabled": 0, "fusion_lon": 0.0, "bike_id": "5c2ba644e7215f55dc76a814cda22976", "lon": -77.003597, "rental_uris": {"ios": "https://dc.lft.to/lastmile_qr_scan", "android": "https://dc.lft.to/lastmile_qr_scan"}}, {"name": "9bd8b1118decd23051d2229bbd50e781", "fusion_lat": 0.0, "type": "electric_scooter", "lat": 38.90529166666666, "is_reserved": 0, "is_disabled": 0, "fusion_lon": 0.0, "bike_id": "9bd8b1118decd23051d2229bbd50e781", "lon": -77.04166016666667, "rental_uris": {"ios": "https://dc.lft.to/lastmile_qr_scan", "android": "https://dc.lft.to/lastmile_qr_scan"}}, {"name": "68a251922cdce33a9250084f6490b338", "fusion_lat": 0.0, "type": "electric_scooter", "lat": 38.9339145, "is_reserved": 0, "is_disabled": 0, "fusion_lon": 0.0, "bike_id": "68a251922cdce33a9250084f6490b338", "lon": -77.035791, "rental_uris": {"ios": "https://dc.lft.to/lastmile_qr_scan", "android": "https://dc.lft.to/lastmile_qr_scan"}}, {"name": "19c22e4cab191e9ec932a67958dc1544", "fusion_lat": 0.0, "type": "electric_scooter", "lat": 38.9315625, "is_reserved": 0, "is_disabled": 0, "fusion_lon": 0.0, "bike_id": "19c22e4cab191e9ec932a67958dc1544", "lon": -77.038885, "rental_uris": {"ios": "https://dc.lft.to/lastmile_qr_scan", "android": "https://dc.lft.to/lastmile_qr_scan"}}, {"name": "815550296dbe3343b18652250f68ed29", "fusion_lat": 0.0, "type": "electric_scooter", "lat": 38.91116566666667, "is_reserved": 0, "is_disabled": 0, "fusion_lon": 0.0, "bike_id": "815550296dbe3343b18652250f68ed29", "lon": -77.04356933333334, "rental_uris": {"ios": "https://dc.lft.to/lastmile_qr_scan", "android": "https://dc.lft.to/lastmile_qr_scan"}}, {"name": "3a7656b9f052d74a66303598222f8477", "fusion_lat": 0.0, "type": "electric_scooter", "lat": 38.94293783333333, "is_reserved": 0, "is_disabled": 0, "fusion_lon": 0.0, "bike_id": "3a7656b9f052d74a66303598222f8477", "lon": -77.02173883333333, "rental_uris": {"ios": "https://dc.lft.to/lastmile_qr_scan", "android": "https://dc.lft.to/lastmile_qr_scan"}}, {"name": "9ab70c9967fd85c1ef03a3083090538a", "fusion_lat": 0.0, "type": "electric_scooter", "lat": 38.91101916666667, "is_reserved": 0, "is_disabled": 0, "fusion_lon": 0.0, "bike_id": "9ab70c9967fd85c1ef03a3083090538a", "lon": -77.073486, "rental_uris": {"ios": "https://dc.lft.to/lastmile_qr_scan", "android": "https://dc.lft.to/lastmile_qr_scan"}}, {"name": "eee8d031c6a593c38f18b0f9168f09b4", "fusion_lat": 0.0, "type": "electric_bike", "lat": 38.89219283333333, "is_reserved": 0, "is_disabled": 0, "fusion_lon": 0.0, "bike_id": "eee8d031c6a593c38f18b0f9168f09b4", "lon": -77.10781816666666, "rental_uris": {"ios": "https://dc.lft.to/lastmile_qr_scan", "android": "https://dc.lft.to/lastmile_qr_scan"}}, {"name": "149c08a9541ac205c5fdbf5ed1e1ac37", "fusion_lat": 0.0, "type": "electric_scooter", "lat": 38.88312766666667, "is_reserved": 0, "is_disabled": 0, "fusion_lon": 0.0, "bike_id": "149c08a9541ac205c5fdbf5ed1e1ac37", "lon": -77.0238955, "rental_uris": {"ios": "https://dc.lft.to/lastmile_qr_scan", "android": "https://dc.lft.to/lastmile_qr_scan"}}, {"name": "8453ed187fd996e92c66539babd52dae", "fusion_lat": 0.0, "type": "electric_scooter", "lat": 38.8695935, "is_reserved": 0, "is_disabled": 0, "fusion_lon": 0.0, "bike_id": "8453ed187fd996e92c66539babd52dae", "lon": -77.01374383333334, "rental_uris": {"ios": "https://dc.lft.to/lastmile_qr_scan", "android": "https://dc.lft.to/lastmile_qr_scan"}}, {"name": "1b62ad5b9af8405b8fed5d4c53879699", "fusion_lat": 0.0, "type": "electric_scooter", "lat": 38.90352883333333, "is_reserved": 0, "is_disabled": 0, "fusion_lon": 0.0, "bike_id": "1b62ad5b9af8405b8fed5d4c53879699", "lon": -77.02189583333333, "rental_uris": {"ios": "https://dc.lft.to/lastmile_qr_scan", "android": "https://dc.lft.to/lastmile_qr_scan"}}, {"name": "96861095213b4c126dcce1978c5079ed", "fusion_lat": 0.0, "type": "electric_scooter", "lat": 38.928224, "is_reserved": 0, "is_disabled": 0, "fusion_lon": 0.0, "bike_id": "96861095213b4c126dcce1978c5079ed", "lon": -77.022528, "rental_uris": {"ios": "https://dc.lft.to/lastmile_qr_scan", "android": "https://dc.lft.to/lastmile_qr_scan"}}, {"name": "1d6e664a1b52cd0f9ce502a05e80b798", "fusion_lat": 0.0, "type": "electric_scooter", "lat": 38.896405333333334, "is_reserved": 0, "is_disabled": 0, "fusion_lon": 0.0, "bike_id": "1d6e664a1b52cd0f9ce502a05e80b798", "lon": -77.00921416666667, "rental_uris": {"ios": "https://dc.lft.to/lastmile_qr_scan", "android": "https://dc.lft.to/lastmile_qr_scan"}}, {"name": "40d3149192bc390da1d923194b77308a", "fusion_lat": 0.0, "type": "electric_scooter", "lat": 38.905759333333336, "is_reserved": 0, "is_disabled": 0, "fusion_lon": 0.0, "bike_id": "40d3149192bc390da1d923194b77308a", "lon": -77.002949, "rental_uris": {"ios": "https://dc.lft.to/lastmile_qr_scan", "android": "https://dc.lft.to/lastmile_qr_scan"}}, {"name": "57c84240531a6e0af4f7bce82de4aad9", "fusion_lat": 0.0, "type": "electric_bike", "lat": 38.953585833333335, "is_reserved": 0, "is_disabled": 0, "fusion_lon": 0.0, "bike_id": "57c84240531a6e0af4f7bce82de4aad9", "lon": -76.98091616666666, "rental_uris": {"ios": "https://dc.lft.to/lastmile_qr_scan", "android": "https://dc.lft.to/lastmile_qr_scan"}}, {"name": "8fb697b995d224de00d494cf569825ac", "fusion_lat": 0.0, "type": "electric_scooter", "lat": 38.97501666666667, "is_reserved": 0, "is_disabled": 0, "fusion_lon": 0.0, "bike_id": "8fb697b995d224de00d494cf569825ac", "lon": -77.01693383333334, "rental_uris": {"ios": "https://dc.lft.to/lastmile_qr_scan", "android": "https://dc.lft.to/lastmile_qr_scan"}}, {"name": "0234ff590f2903e253743749fc907f92", "fusion_lat": 0.0, "type": "electric_scooter", "lat": 38.91234133333333, "is_reserved": 0, "is_disabled": 0, "fusion_lon": 0.0, "bike_id": "0234ff590f2903e253743749fc907f92", "lon": -77.04880483333334, "rental_uris": {"ios": "https://dc.lft.to/lastmile_qr_scan", "android": "https://dc.lft.to/lastmile_qr_scan"}}, {"name": "7cdc5c0924ef0284b94588e7552d89e1", "fusion_lat": 0.0, "type": "electric_scooter", "lat": 38.922131, "is_reserved": 0, "is_disabled": 0, "fusion_lon": 0.0, "bike_id": "7cdc5c0924ef0284b94588e7552d89e1", "lon": -77.042443, "rental_uris": {"ios": "https://dc.lft.to/lastmile_qr_scan", "android": "https://dc.lft.to/lastmile_qr_scan"}}, {"name": "d3947ef297e87fb169e0ec32aa76a0e5", "fusion_lat": 0.0, "type": "electric_scooter", "lat": 38.895407166666665, "is_reserved": 0, "is_disabled": 0, "fusion_lon": 0.0, "bike_id": "d3947ef297e87fb169e0ec32aa76a0e5", "lon": -76.948816, "rental_uris": {"ios": "https://dc.lft.to/lastmile_qr_scan", "android": "https://dc.lft.to/lastmile_qr_scan"}}, {"name": "364f32e0b97518e59786750fedf304eb", "fusion_lat": 0.0, "type": "electric_bike", "lat": 38.9395795, "is_reserved": 0, "is_disabled": 0, "fusion_lon": 0.0, "bike_id": "364f32e0b97518e59786750fedf304eb", "lon": -77.360945, "rental_uris": {"ios": "https://dc.lft.to/lastmile_qr_scan", "android": "https://dc.lft.to/lastmile_qr_scan"}}, {"name": "7dfb3eadd6756833413256473cb0c275", "fusion_lat": 0.0, "type": "electric_scooter", "lat": 38.909555, "is_reserved": 0, "is_disabled": 0, "fusion_lon": 0.0, "bike_id": "7dfb3eadd6756833413256473cb0c275", "lon": -77.03416066666666, "rental_uris": {"ios": "https://dc.lft.to/lastmile_qr_scan", "android": "https://dc.lft.to/lastmile_qr_scan"}}, {"name": "06e903baa8a078f758760ee218890db0", "fusion_lat": 0.0, "type": "electric_scooter", "lat": 38.9081315, "is_reserved": 0, "is_disabled": 0, "fusion_lon": 0.0, "bike_id": "06e903baa8a078f758760ee218890db0", "lon": -77.03939816666667, "rental_uris": {"ios": "https://dc.lft.to/lastmile_qr_scan", "android": "https://dc.lft.to/lastmile_qr_scan"}}, {"name": "d0adffba4beeb573931ec730eb502996", "fusion_lat": 0.0, "type": "electric_scooter", "lat": 38.926464833333334, "is_reserved": 0, "is_disabled": 0, "fusion_lon": 0.0, "bike_id": "d0adffba4beeb573931ec730eb502996", "lon": -77.03720866666667, "rental_uris": {"ios": "https://dc.lft.to/lastmile_qr_scan", "android": "https://dc.lft.to/lastmile_qr_scan"}}, {"name": "379ee5feeae696883c84ce8283f20005", "fusion_lat": 0.0, "type": "electric_scooter", "lat": 38.909697333333334, "is_reserved": 0, "is_disabled": 0, "fusion_lon": 0.0, "bike_id": "379ee5feeae696883c84ce8283f20005", "lon": -77.0111165, "rental_uris": {"ios": "https://dc.lft.to/lastmile_qr_scan", "android": "https://dc.lft.to/lastmile_qr_scan"}}, {"name": "66760cd1957386e756bdd3dbc2fce55f", "fusion_lat": 0.0, "type": "electric_scooter", "lat": 38.90024966666667, "is_reserved": 0, "is_disabled": 0, "fusion_lon": 0.0, "bike_id": "66760cd1957386e756bdd3dbc2fce55f", "lon": -77.03333016666667, "rental_uris": {"ios": "https://dc.lft.to/lastmile_qr_scan", "android": "https://dc.lft.to/lastmile_qr_scan"}}, {"name": "724bd5950072674ef40fc790a7754ce9", "fusion_lat": 0.0, "type": "electric_scooter", "lat": 38.90260833333333, "is_reserved": 0, "is_disabled": 0, "fusion_lon": 0.0, "bike_id": "724bd5950072674ef40fc790a7754ce9", "lon": -77.03461616666667, "rental_uris": {"ios": "https://dc.lft.to/lastmile_qr_scan", "android": "https://dc.lft.to/lastmile_qr_scan"}}, {"name": "1f355622febac09b4a7c97346ffa623a", "fusion_lat": 0.0, "type": "electric_bike", "lat": 38.959284833333335, "is_reserved": 0, "is_disabled": 0, "fusion_lon": 0.0, "bike_id": "1f355622febac09b4a7c97346ffa623a", "lon": -76.92530166666667, "rental_uris": {"ios": "https://dc.lft.to/lastmile_qr_scan", "android": "https://dc.lft.to/lastmile_qr_scan"}}, {"name": "d479a2da299a42a47e2bb196da695693", "fusion_lat": 0.0, "type": "electric_scooter", "lat": 38.900035, "is_reserved": 0, "is_disabled": 0, "fusion_lon": 0.0, "bike_id": "d479a2da299a42a47e2bb196da695693", "lon": -77.05341716666666, "rental_uris": {"ios": "https://dc.lft.to/lastmile_qr_scan", "android": "https://dc.lft.to/lastmile_qr_scan"}}, {"name": "8d70260b694996e1b6085e9696ba6bfe", "fusion_lat": 0.0, "type": "electric_scooter", "lat": 38.895545, "is_reserved": 0, "is_disabled": 0, "fusion_lon": 0.0, "bike_id": "8d70260b694996e1b6085e9696ba6bfe", "lon": -77.04671433333333, "rental_uris": {"ios": "https://dc.lft.to/lastmile_qr_scan", "android": "https://dc.lft.to/lastmile_qr_scan"}}, {"name": "d8045e84c23d2642c929fa1a20196845", "fusion_lat": 0.0, "type": "electric_bike", "lat": 38.87753466666667, "is_reserved": 0, "is_disabled": 0, "fusion_lon": 0.0, "bike_id": "d8045e84c23d2642c929fa1a20196845", "lon": -76.97983966666666, "rental_uris": {"ios": "https://dc.lft.to/lastmile_qr_scan", "android": "https://dc.lft.to/lastmile_qr_scan"}}, {"name": "0c434d0eac9bce441ad0b507c6724619", "fusion_lat": 0.0, "type": "electric_scooter", "lat": 38.93946483333333, "is_reserved": 0, "is_disabled": 0, "fusion_lon": 0.0, "bike_id": "0c434d0eac9bce441ad0b507c6724619", "lon": -77.0326165, "rental_uris": {"ios": "https://dc.lft.to/lastmile_qr_scan", "android": "https://dc.lft.to/lastmile_qr_scan"}}, {"name": "5e4faa604897adaf2d02010dfd25ee0b", "fusion_lat": 0.0, "type": "electric_scooter", "lat": 38.900048, "is_reserved": 0, "is_disabled": 0, "fusion_lon": 0.0, "bike_id": "5e4faa604897adaf2d02010dfd25ee0b", "lon": -77.02720516666666, "rental_uris": {"ios": "https://dc.lft.to/lastmile_qr_scan", "android": "https://dc.lft.to/lastmile_qr_scan"}}, {"name": "667f215957e109f8bd4d0f80f4f4dfe8", "fusion_lat": 0.0, "type": "electric_scooter", "lat": 38.87647166666667, "is_reserved": 0, "is_disabled": 0, "fusion_lon": 0.0, "bike_id": "667f215957e109f8bd4d0f80f4f4dfe8", "lon": -76.96506316666667, "rental_uris": {"ios": "https://dc.lft.to/lastmile_qr_scan", "android": "https://dc.lft.to/lastmile_qr_scan"}}, {"name": "18c4e5fb07b84622ffae4298a41304a5", "fusion_lat": 0.0, "type": "electric_scooter", "lat": 38.906791166666665, "is_reserved": 0, "is_disabled": 0, "fusion_lon": 0.0, "bike_id": "18c4e5fb07b84622ffae4298a41304a5", "lon": -77.03867433333333, "rental_uris": {"ios": "https://dc.lft.to/lastmile_qr_scan", "android": "https://dc.lft.to/lastmile_qr_scan"}}, {"name": "24c164b4be7c2542922326658a264643", "fusion_lat": 0.0, "type": "electric_scooter", "lat": 38.8765415, "is_reserved": 0, "is_disabled": 0, "fusion_lon": 0.0, "bike_id": "24c164b4be7c2542922326658a264643", "lon": -77.00587283333333, "rental_uris": {"ios": "https://dc.lft.to/lastmile_qr_scan", "android": "https://dc.lft.to/lastmile_qr_scan"}}, {"name": "b78367322f50ff6b6075a55a72d2bea0", "fusion_lat": 0.0, "type": "electric_scooter", "lat": 38.92947616666667, "is_reserved": 0, "is_disabled": 0, "fusion_lon": 0.0, "bike_id": "b78367322f50ff6b6075a55a72d2bea0", "lon": -77.03477483333333, "rental_uris": {"ios": "https://dc.lft.to/lastmile_qr_scan", "android": "https://dc.lft.to/lastmile_qr_scan"}}, {"name": "94f27fb639b7b1fc8d65948da43873b6", "fusion_lat": 0.0, "type": "electric_bike", "lat": 38.9906505, "is_reserved": 0, "is_disabled": 0, "fusion_lon": 0.0, "bike_id": "94f27fb639b7b1fc8d65948da43873b6", "lon": -77.1002605, "rental_uris": {"ios": "https://dc.lft.to/lastmile_qr_scan", "android": "https://dc.lft.to/lastmile_qr_scan"}}, {"name": "c7f5bd061e01557730d02df2c6b28e89", "fusion_lat": 0.0, "type": "electric_scooter", "lat": 38.911061, "is_reserved": 0, "is_disabled": 0, "fusion_lon": 0.0, "bike_id": "c7f5bd061e01557730d02df2c6b28e89", "lon": -77.03706383333333, "rental_uris": {"ios": "https://dc.lft.to/lastmile_qr_scan", "android": "https://dc.lft.to/lastmile_qr_scan"}}, {"name": "4a84136f029bd27995a60a9fc553e027", "fusion_lat": 0.0, "type": "electric_scooter", "lat": 38.9027035, "is_reserved": 0, "is_disabled": 0, "fusion_lon": 0.0, "bike_id": "4a84136f029bd27995a60a9fc553e027", "lon": -77.04358383333333, "rental_uris": {"ios": "https://dc.lft.to/lastmile_qr_scan", "android": "https://dc.lft.to/lastmile_qr_scan"}}, {"name": "48ab27d2522b1df5cdf8fc780a2bb830", "fusion_lat": 0.0, "type": "electric_scooter", "lat": 38.890382833333334, "is_reserved": 0, "is_disabled": 0, "fusion_lon": 0.0, "bike_id": "48ab27d2522b1df5cdf8fc780a2bb830", "lon": -77.02977716666666, "rental_uris": {"ios": "https://dc.lft.to/lastmile_qr_scan", "android": "https://dc.lft.to/lastmile_qr_scan"}}, {"name": "0a65d5814f56d054602879d418bb9b7d", "fusion_lat": 0.0, "type": "electric_scooter", "lat": 38.922096833333335, "is_reserved": 0, "is_disabled": 0, "fusion_lon": 0.0, "bike_id": "0a65d5814f56d054602879d418bb9b7d", "lon": -77.04234916666667, "rental_uris": {"ios": "https://dc.lft.to/lastmile_qr_scan", "android": "https://dc.lft.to/lastmile_qr_scan"}}, {"name": "972bc671db33608d1157a2500243630d", "fusion_lat": 0.0, "type": "electric_scooter", "lat": 38.937788166666664, "is_reserved": 0, "is_disabled": 0, "fusion_lon": 0.0, "bike_id": "972bc671db33608d1157a2500243630d", "lon": -77.05992133333334, "rental_uris": {"ios": "https://dc.lft.to/lastmile_qr_scan", "android": "https://dc.lft.to/lastmile_qr_scan"}}, {"name": "9887b5d5bcded7ccdd9b6c6de5a68e0f", "fusion_lat": 0.0, "type": "electric_scooter", "lat": 38.93832066666667, "is_reserved": 0, "is_disabled": 0, "fusion_lon": 0.0, "bike_id": "9887b5d5bcded7ccdd9b6c6de5a68e0f", "lon": -77.024868, "rental_uris": {"ios": "https://dc.lft.to/lastmile_qr_scan", "android": "https://dc.lft.to/lastmile_qr_scan"}}, {"name": "daa62ea57859fdcf3d157d1ce006e507", "fusion_lat": 0.0, "type": "electric_scooter", "lat": 38.89222016666667, "is_reserved": 0, "is_disabled": 0, "fusion_lon": 0.0, "bike_id": "daa62ea57859fdcf3d157d1ce006e507", "lon": -77.02656316666666, "rental_uris": {"ios": "https://dc.lft.to/lastmile_qr_scan", "android": "https://dc.lft.to/lastmile_qr_scan"}}, {"name": "95f87699f0aeeed07b7bab9f968ab5ca", "fusion_lat": 0.0, "type": "electric_scooter", "lat": 38.9047555, "is_reserved": 0, "is_disabled": 0, "fusion_lon": 0.0, "bike_id": "95f87699f0aeeed07b7bab9f968ab5ca", "lon": -77.043587, "rental_uris": {"ios": "https://dc.lft.to/lastmile_qr_scan", "android": "https://dc.lft.to/lastmile_qr_scan"}}, {"name": "db0672324387f1207c8e8974837730f4", "fusion_lat": 0.0, "type": "electric_scooter", "lat": 38.9301905, "is_reserved": 0, "is_disabled": 0, "fusion_lon": 0.0, "bike_id": "db0672324387f1207c8e8974837730f4", "lon": -77.023383, "rental_uris": {"ios": "https://dc.lft.to/lastmile_qr_scan", "android": "https://dc.lft.to/lastmile_qr_scan"}}, {"name": "07d9ce121b74bc7ca656aabb3bcb1354", "fusion_lat": 0.0, "type": "electric_scooter", "lat": 38.924351, "is_reserved": 0, "is_disabled": 0, "fusion_lon": 0.0, "bike_id": "07d9ce121b74bc7ca656aabb3bcb1354", "lon": -77.05202883333334, "rental_uris": {"ios": "https://dc.lft.to/lastmile_qr_scan", "android": "https://dc.lft.to/lastmile_qr_scan"}}, {"name": "38813bc41f05bacf6f8040987580e8ca", "fusion_lat": 0.0, "type": "electric_scooter", "lat": 38.91686466666667, "is_reserved": 0, "is_disabled": 0, "fusion_lon": 0.0, "bike_id": "38813bc41f05bacf6f8040987580e8ca", "lon": -77.0320385, "rental_uris": {"ios": "https://dc.lft.to/lastmile_qr_scan", "android": "https://dc.lft.to/lastmile_qr_scan"}}, {"name": "bb59f7e35f9875f1792cdfed1a8b7835", "fusion_lat": 0.0, "type": "electric_bike", "lat": 38.999112, "is_reserved": 0, "is_disabled": 0, "fusion_lon": 0.0, "bike_id": "bb59f7e35f9875f1792cdfed1a8b7835", "lon": -77.046219, "rental_uris": {"ios": "https://dc.lft.to/lastmile_qr_scan", "android": "https://dc.lft.to/lastmile_qr_scan"}}, {"name": "3da20d2a855b17e5c42a6b4bd9c7c387", "fusion_lat": 0.0, "type": "electric_scooter", "lat": 38.961141, "is_reserved": 0, "is_disabled": 0, "fusion_lon": 0.0, "bike_id": "3da20d2a855b17e5c42a6b4bd9c7c387", "lon": -77.02812766666666, "rental_uris": {"ios": "https://dc.lft.to/lastmile_qr_scan", "android": "https://dc.lft.to/lastmile_qr_scan"}}, {"name": "f8f76285afa0ddfd21ff7972acf39170", "fusion_lat": 0.0, "type": "electric_scooter", "lat": 38.87456, "is_reserved": 0, "is_disabled": 0, "fusion_lon": 0.0, "bike_id": "f8f76285afa0ddfd21ff7972acf39170", "lon": -77.0076425, "rental_uris": {"ios": "https://dc.lft.to/lastmile_qr_scan", "android": "https://dc.lft.to/lastmile_qr_scan"}}, {"name": "81e85c6771850cd741268bcf3a80a7a5", "fusion_lat": 0.0, "type": "electric_scooter", "lat": 38.907242833333335, "is_reserved": 0, "is_disabled": 0, "fusion_lon": 0.0, "bike_id": "81e85c6771850cd741268bcf3a80a7a5", "lon": -77.04148216666667, "rental_uris": {"ios": "https://dc.lft.to/lastmile_qr_scan", "android": "https://dc.lft.to/lastmile_qr_scan"}}, {"name": "f0ee41726af19f812386a646f2211bbd", "fusion_lat": 0.0, "type": "electric_scooter", "lat": 38.91108116666667, "is_reserved": 0, "is_disabled": 0, "fusion_lon": 0.0, "bike_id": "f0ee41726af19f812386a646f2211bbd", "lon": -77.04229983333333, "rental_uris": {"ios": "https://dc.lft.to/lastmile_qr_scan", "android": "https://dc.lft.to/lastmile_qr_scan"}}, {"name": "118a14712f748c59efe12dc9866668d4", "fusion_lat": 0.0, "type": "electric_scooter", "lat": 38.873999166666664, "is_reserved": 0, "is_disabled": 0, "fusion_lon": 0.0, "bike_id": "118a14712f748c59efe12dc9866668d4", "lon": -77.0003235, "rental_uris": {"ios": "https://dc.lft.to/lastmile_qr_scan", "android": "https://dc.lft.to/lastmile_qr_scan"}}, {"name": "7d6a982d13ddd64739919a4e8f849bd8", "fusion_lat": 0.0, "type": "electric_scooter", "lat": 38.892943333333335, "is_reserved": 0, "is_disabled": 0, "fusion_lon": 0.0, "bike_id": "7d6a982d13ddd64739919a4e8f849bd8", "lon": -77.02013416666667, "rental_uris": {"ios": "https://dc.lft.to/lastmile_qr_scan", "android": "https://dc.lft.to/lastmile_qr_scan"}}, {"name": "fcdda8515618f45e1ddb466293abb4ac", "fusion_lat": 0.0, "type": "electric_scooter", "lat": 38.9370145, "is_reserved": 0, "is_disabled": 0, "fusion_lon": 0.0, "bike_id": "fcdda8515618f45e1ddb466293abb4ac", "lon": -77.06096366666667, "rental_uris": {"ios": "https://dc.lft.to/lastmile_qr_scan", "android": "https://dc.lft.to/lastmile_qr_scan"}}, {"name": "02fade81d000cf7f8e47acf1b0b2f187", "fusion_lat": 0.0, "type": "electric_bike", "lat": 38.8457315, "is_reserved": 0, "is_disabled": 0, "fusion_lon": 0.0, "bike_id": "02fade81d000cf7f8e47acf1b0b2f187", "lon": -77.09622433333334, "rental_uris": {"ios": "https://dc.lft.to/lastmile_qr_scan", "android": "https://dc.lft.to/lastmile_qr_scan"}}, {"name": "a8ba0ad526572d063b97295e15c01827", "fusion_lat": 0.0, "type": "electric_bike", "lat": 38.8461595, "is_reserved": 0, "is_disabled": 0, "fusion_lon": 0.0, "bike_id": "a8ba0ad526572d063b97295e15c01827", "lon": -76.978265, "rental_uris": {"ios": "https://dc.lft.to/lastmile_qr_scan", "android": "https://dc.lft.to/lastmile_qr_scan"}}, {"name": "30b4b5cf9ba99f83f45d9128217264c6", "fusion_lat": 0.0, "type": "electric_scooter", "lat": 38.912707166666664, "is_reserved": 0, "is_disabled": 0, "fusion_lon": 0.0, "bike_id": "30b4b5cf9ba99f83f45d9128217264c6", "lon": -77.04495916666667, "rental_uris": {"ios": "https://dc.lft.to/lastmile_qr_scan", "android": "https://dc.lft.to/lastmile_qr_scan"}}, {"name": "0a5891a9cbc24e6e7d56a30a5a70b4c3", "fusion_lat": 0.0, "type": "electric_scooter", "lat": 38.932486, "is_reserved": 0, "is_disabled": 0, "fusion_lon": 0.0, "bike_id": "0a5891a9cbc24e6e7d56a30a5a70b4c3", "lon": -77.032448, "rental_uris": {"ios": "https://dc.lft.to/lastmile_qr_scan", "android": "https://dc.lft.to/lastmile_qr_scan"}}, {"name": "d57adbdc59656970c5234799f4052f04", "fusion_lat": 0.0, "type": "electric_scooter", "lat": 38.897302333333336, "is_reserved": 0, "is_disabled": 0, "fusion_lon": 0.0, "bike_id": "d57adbdc59656970c5234799f4052f04", "lon": -77.009306, "rental_uris": {"ios": "https://dc.lft.to/lastmile_qr_scan", "android": "https://dc.lft.to/lastmile_qr_scan"}}, {"name": "60de6b270a4a475afef45dd3a74b3b5d", "fusion_lat": 0.0, "type": "electric_scooter", "lat": 38.913279833333334, "is_reserved": 0, "is_disabled": 0, "fusion_lon": 0.0, "bike_id": "60de6b270a4a475afef45dd3a74b3b5d", "lon": -77.04581583333334, "rental_uris": {"ios": "https://dc.lft.to/lastmile_qr_scan", "android": "https://dc.lft.to/lastmile_qr_scan"}}, {"name": "a9911c7855cfed795c2d3040e247042d", "fusion_lat": 0.0, "type": "electric_scooter", "lat": 38.899667666666666, "is_reserved": 0, "is_disabled": 0, "fusion_lon": 0.0, "bike_id": "a9911c7855cfed795c2d3040e247042d", "lon": -76.98708816666667, "rental_uris": {"ios": "https://dc.lft.to/lastmile_qr_scan", "android": "https://dc.lft.to/lastmile_qr_scan"}}, {"name": "b18ba7e43112269b4a1cccc2e9b25b37", "fusion_lat": 0.0, "type": "electric_scooter", "lat": 38.9345685, "is_reserved": 0, "is_disabled": 0, "fusion_lon": 0.0, "bike_id": "b18ba7e43112269b4a1cccc2e9b25b37", "lon": -77.03049066666667, "rental_uris": {"ios": "https://dc.lft.to/lastmile_qr_scan", "android": "https://dc.lft.to/lastmile_qr_scan"}}, {"name": "9b501c7416e972fab4d9bfe2570fd2d1", "fusion_lat": 0.0, "type": "electric_scooter", "lat": 38.91565033333333, "is_reserved": 0, "is_disabled": 0, "fusion_lon": 0.0, "bike_id": "9b501c7416e972fab4d9bfe2570fd2d1", "lon": -77.02945066666666, "rental_uris": {"ios": "https://dc.lft.to/lastmile_qr_scan", "android": "https://dc.lft.to/lastmile_qr_scan"}}, {"name": "6a28725c2808f08c6e575238d8ecce54", "fusion_lat": 0.0, "type": "electric_scooter", "lat": 38.908984, "is_reserved": 0, "is_disabled": 0, "fusion_lon": 0.0, "bike_id": "6a28725c2808f08c6e575238d8ecce54", "lon": -77.02807283333334, "rental_uris": {"ios": "https://dc.lft.to/lastmile_qr_scan", "android": "https://dc.lft.to/lastmile_qr_scan"}}, {"name": "5ae1bdc6e586621631c9ee195603c368", "fusion_lat": 0.0, "type": "electric_scooter", "lat": 38.8990525, "is_reserved": 0, "is_disabled": 0, "fusion_lon": 0.0, "bike_id": "5ae1bdc6e586621631c9ee195603c368", "lon": -77.03284633333334, "rental_uris": {"ios": "https://dc.lft.to/lastmile_qr_scan", "android": "https://dc.lft.to/lastmile_qr_scan"}}, {"name": "55240ad90b5ed9bbecf67251b77aaa9d", "fusion_lat": 0.0, "type": "electric_bike", "lat": 39.05812733333333, "is_reserved": 0, "is_disabled": 0, "fusion_lon": 0.0, "bike_id": "55240ad90b5ed9bbecf67251b77aaa9d", "lon": -77.12626433333334, "rental_uris": {"ios": "https://dc.lft.to/lastmile_qr_scan", "android": "https://dc.lft.to/lastmile_qr_scan"}}, {"name": "2dca71f84d2a5a4f058ec3317128c48c", "fusion_lat": 0.0, "type": "electric_scooter", "lat": 38.919101166666664, "is_reserved": 0, "is_disabled": 0, "fusion_lon": 0.0, "bike_id": "2dca71f84d2a5a4f058ec3317128c48c", "lon": -77.03170483333334, "rental_uris": {"ios": "https://dc.lft.to/lastmile_qr_scan", "android": "https://dc.lft.to/lastmile_qr_scan"}}, {"name": "927d568629d120cbda128da8af30dd96", "fusion_lat": 0.0, "type": "electric_scooter", "lat": 38.903833, "is_reserved": 0, "is_disabled": 0, "fusion_lon": 0.0, "bike_id": "927d568629d120cbda128da8af30dd96", "lon": -77.0504345, "rental_uris": {"ios": "https://dc.lft.to/lastmile_qr_scan", "android": "https://dc.lft.to/lastmile_qr_scan"}}, {"name": "e6f8086ee67b1058eccc00163195fe51", "fusion_lat": 0.0, "type": "electric_scooter", "lat": 38.8935505, "is_reserved": 0, "is_disabled": 0, "fusion_lon": 0.0, "bike_id": "e6f8086ee67b1058eccc00163195fe51", "lon": -77.01984533333334, "rental_uris": {"ios": "https://dc.lft.to/lastmile_qr_scan", "android": "https://dc.lft.to/lastmile_qr_scan"}}, {"name": "708c5a1a15b02981598773d3771ed948", "fusion_lat": 0.0, "type": "electric_bike", "lat": 38.892234333333334, "is_reserved": 0, "is_disabled": 0, "fusion_lon": 0.0, "bike_id": "708c5a1a15b02981598773d3771ed948", "lon": -76.97022833333334, "rental_uris": {"ios": "https://dc.lft.to/lastmile_qr_scan", "android": "https://dc.lft.to/lastmile_qr_scan"}}, {"name": "11ceba35c7ca47adfd7d89dd90402e3d", "fusion_lat": 0.0, "type": "electric_scooter", "lat": 38.94272316666667, "is_reserved": 0, "is_disabled": 0, "fusion_lon": 0.0, "bike_id": "11ceba35c7ca47adfd7d89dd90402e3d", "lon": -77.03254333333334, "rental_uris": {"ios": "https://dc.lft.to/lastmile_qr_scan", "android": "https://dc.lft.to/lastmile_qr_scan"}}, {"name": "5591aabe4054c3bf1e366910c4ed812f", "fusion_lat": 0.0, "type": "electric_scooter", "lat": 38.89766233333334, "is_reserved": 0, "is_disabled": 0, "fusion_lon": 0.0, "bike_id": "5591aabe4054c3bf1e366910c4ed812f", "lon": -76.97721766666666, "rental_uris": {"ios": "https://dc.lft.to/lastmile_qr_scan", "android": "https://dc.lft.to/lastmile_qr_scan"}}, {"name": "504474e635a6da07400529193dabf913", "fusion_lat": 0.0, "type": "electric_bike", "lat": 38.853933, "is_reserved": 0, "is_disabled": 0, "fusion_lon": 0.0, "bike_id": "504474e635a6da07400529193dabf913", "lon": -77.11814666666666, "rental_uris": {"ios": "https://dc.lft.to/lastmile_qr_scan", "android": "https://dc.lft.to/lastmile_qr_scan"}}, {"name": "9cf5d80cb15bfec1a915ae3d9c5d5eca", "fusion_lat": 0.0, "type": "electric_scooter", "lat": 38.916523, "is_reserved": 0, "is_disabled": 0, "fusion_lon": 0.0, "bike_id": "9cf5d80cb15bfec1a915ae3d9c5d5eca", "lon": -77.0230365, "rental_uris": {"ios": "https://dc.lft.to/lastmile_qr_scan", "android": "https://dc.lft.to/lastmile_qr_scan"}}, {"name": "b0ac30bd1ffb83437c0a07f80c798e87", "fusion_lat": 0.0, "type": "electric_scooter", "lat": 38.94053133333333, "is_reserved": 0, "is_disabled": 0, "fusion_lon": 0.0, "bike_id": "b0ac30bd1ffb83437c0a07f80c798e87", "lon": -77.03287733333333, "rental_uris": {"ios": "https://dc.lft.to/lastmile_qr_scan", "android": "https://dc.lft.to/lastmile_qr_scan"}}, {"name": "e20fa838885ff390263d4574fa5a0aba", "fusion_lat": 0.0, "type": "electric_scooter", "lat": 38.91702933333333, "is_reserved": 0, "is_disabled": 0, "fusion_lon": 0.0, "bike_id": "e20fa838885ff390263d4574fa5a0aba", "lon": -77.0299565, "rental_uris": {"ios": "https://dc.lft.to/lastmile_qr_scan", "android": "https://dc.lft.to/lastmile_qr_scan"}}, {"name": "546a2b84d34c68d8d92e1aa957928596", "fusion_lat": 0.0, "type": "electric_scooter", "lat": 38.91561383333333, "is_reserved": 0, "is_disabled": 0, "fusion_lon": 0.0, "bike_id": "546a2b84d34c68d8d92e1aa957928596", "lon": -77.0294425, "rental_uris": {"ios": "https://dc.lft.to/lastmile_qr_scan", "android": "https://dc.lft.to/lastmile_qr_scan"}}, {"name": "6c86204226effc6078496574f4f3c88a", "fusion_lat": 0.0, "type": "electric_scooter", "lat": 38.914071666666665, "is_reserved": 0, "is_disabled": 0, "fusion_lon": 0.0, "bike_id": "6c86204226effc6078496574f4f3c88a", "lon": -77.03907166666667, "rental_uris": {"ios": "https://dc.lft.to/lastmile_qr_scan", "android": "https://dc.lft.to/lastmile_qr_scan"}}, {"name": "80cef894b109903616160284c9fa3866", "fusion_lat": 0.0, "type": "electric_bike", "lat": 38.841628666666665, "is_reserved": 0, "is_disabled": 0, "fusion_lon": 0.0, "bike_id": "80cef894b109903616160284c9fa3866", "lon": -77.08891633333333, "rental_uris": {"ios": "https://dc.lft.to/lastmile_qr_scan", "android": "https://dc.lft.to/lastmile_qr_scan"}}, {"name": "9a1369f8900f7fdea0d321872cebaa22", "fusion_lat": 0.0, "type": "electric_scooter", "lat": 38.8624475, "is_reserved": 0, "is_disabled": 0, "fusion_lon": 0.0, "bike_id": "9a1369f8900f7fdea0d321872cebaa22", "lon": -76.99497866666667, "rental_uris": {"ios": "https://dc.lft.to/lastmile_qr_scan", "android": "https://dc.lft.to/lastmile_qr_scan"}}, {"name": "aa814d97a22e6f5f2b3bfb61c77859aa", "fusion_lat": 0.0, "type": "electric_scooter", "lat": 38.90136283333333, "is_reserved": 0, "is_disabled": 0, "fusion_lon": 0.0, "bike_id": "aa814d97a22e6f5f2b3bfb61c77859aa", "lon": -76.991167, "rental_uris": {"ios": "https://dc.lft.to/lastmile_qr_scan", "android": "https://dc.lft.to/lastmile_qr_scan"}}, {"name": "514d1378cff328a1dd4c2f813b610247", "fusion_lat": 0.0, "type": "electric_scooter", "lat": 38.909830166666666, "is_reserved": 0, "is_disabled": 0, "fusion_lon": 0.0, "bike_id": "514d1378cff328a1dd4c2f813b610247", "lon": -77.04875633333333, "rental_uris": {"ios": "https://dc.lft.to/lastmile_qr_scan", "android": "https://dc.lft.to/lastmile_qr_scan"}}, {"name": "a74e50741875ab77c3aa3f65775e4b40", "fusion_lat": 0.0, "type": "electric_scooter", "lat": 38.923726333333335, "is_reserved": 0, "is_disabled": 0, "fusion_lon": 0.0, "bike_id": "a74e50741875ab77c3aa3f65775e4b40", "lon": -77.0190925, "rental_uris": {"ios": "https://dc.lft.to/lastmile_qr_scan", "android": "https://dc.lft.to/lastmile_qr_scan"}}, {"name": "4de3bec6fa8f47fb0d6e3fbe4870ade6", "fusion_lat": 0.0, "type": "electric_scooter", "lat": 38.898836333333335, "is_reserved": 0, "is_disabled": 0, "fusion_lon": 0.0, "bike_id": "4de3bec6fa8f47fb0d6e3fbe4870ade6", "lon": -76.93175716666667, "rental_uris": {"ios": "https://dc.lft.to/lastmile_qr_scan", "android": "https://dc.lft.to/lastmile_qr_scan"}}, {"name": "fb61d2705e315575b3fbbfc9463a2c68", "fusion_lat": 0.0, "type": "electric_bike", "lat": 39.0519585, "is_reserved": 0, "is_disabled": 0, "fusion_lon": 0.0, "bike_id": "fb61d2705e315575b3fbbfc9463a2c68", "lon": -77.109112, "rental_uris": {"ios": "https://dc.lft.to/lastmile_qr_scan", "android": "https://dc.lft.to/lastmile_qr_scan"}}, {"name": "1d3700f0ce6cb06ae0d4296e72db40be", "fusion_lat": 0.0, "type": "electric_scooter", "lat": 38.9035315, "is_reserved": 0, "is_disabled": 0, "fusion_lon": 0.0, "bike_id": "1d3700f0ce6cb06ae0d4296e72db40be", "lon": -77.02052683333334, "rental_uris": {"ios": "https://dc.lft.to/lastmile_qr_scan", "android": "https://dc.lft.to/lastmile_qr_scan"}}, {"name": "30e9d05ed95c910d99e503145bb9c626", "fusion_lat": 0.0, "type": "electric_bike", "lat": 38.96538783333333, "is_reserved": 0, "is_disabled": 0, "fusion_lon": 0.0, "bike_id": "30e9d05ed95c910d99e503145bb9c626", "lon": -77.03516466666666, "rental_uris": {"ios": "https://dc.lft.to/lastmile_qr_scan", "android": "https://dc.lft.to/lastmile_qr_scan"}}, {"name": "5fbb1c03b2883fb555c4438153d2b304", "fusion_lat": 0.0, "type": "electric_scooter", "lat": 38.903205666666665, "is_reserved": 0, "is_disabled": 0, "fusion_lon": 0.0, "bike_id": "5fbb1c03b2883fb555c4438153d2b304", "lon": -77.03850016666667, "rental_uris": {"ios": "https://dc.lft.to/lastmile_qr_scan", "android": "https://dc.lft.to/lastmile_qr_scan"}}, {"name": "d0a898863d03a091eba3819d365492d5", "fusion_lat": 0.0, "type": "electric_scooter", "lat": 38.8841345, "is_reserved": 0, "is_disabled": 0, "fusion_lon": 0.0, "bike_id": "d0a898863d03a091eba3819d365492d5", "lon": -76.9760065, "rental_uris": {"ios": "https://dc.lft.to/lastmile_qr_scan", "android": "https://dc.lft.to/lastmile_qr_scan"}}, {"name": "c975dc02fefac9f5c82aad915c0eaf96", "fusion_lat": 0.0, "type": "electric_scooter", "lat": 38.93545483333333, "is_reserved": 0, "is_disabled": 0, "fusion_lon": 0.0, "bike_id": "c975dc02fefac9f5c82aad915c0eaf96", "lon": -77.08186016666667, "rental_uris": {"ios": "https://dc.lft.to/lastmile_qr_scan", "android": "https://dc.lft.to/lastmile_qr_scan"}}, {"name": "690e33f8ee890b3b73d5e730e9845384", "fusion_lat": 0.0, "type": "electric_scooter", "lat": 38.942044833333334, "is_reserved": 0, "is_disabled": 0, "fusion_lon": 0.0, "bike_id": "690e33f8ee890b3b73d5e730e9845384", "lon": -77.02513066666667, "rental_uris": {"ios": "https://dc.lft.to/lastmile_qr_scan", "android": "https://dc.lft.to/lastmile_qr_scan"}}, {"name": "caf2490dd299aef9b341fa1a20c97bb7", "fusion_lat": 0.0, "type": "electric_scooter", "lat": 38.89692216666667, "is_reserved": 0, "is_disabled": 0, "fusion_lon": 0.0, "bike_id": "caf2490dd299aef9b341fa1a20c97bb7", "lon": -77.01222716666666, "rental_uris": {"ios": "https://dc.lft.to/lastmile_qr_scan", "android": "https://dc.lft.to/lastmile_qr_scan"}}, {"name": "5863d372408b2cca7ec5d8b75e83e2c0", "fusion_lat": 0.0, "type": "electric_scooter", "lat": 38.91793, "is_reserved": 0, "is_disabled": 0, "fusion_lon": 0.0, "bike_id": "5863d372408b2cca7ec5d8b75e83e2c0", "lon": -77.0230375, "rental_uris": {"ios": "https://dc.lft.to/lastmile_qr_scan", "android": "https://dc.lft.to/lastmile_qr_scan"}}, {"name": "8b040e81d81fb77cbe319326328044b7", "fusion_lat": 0.0, "type": "electric_scooter", "lat": 38.902357, "is_reserved": 0, "is_disabled": 0, "fusion_lon": 0.0, "bike_id": "8b040e81d81fb77cbe319326328044b7", "lon": -77.02686816666667, "rental_uris": {"ios": "https://dc.lft.to/lastmile_qr_scan", "android": "https://dc.lft.to/lastmile_qr_scan"}}, {"name": "554333fa77d046d5bf313887b573e511", "fusion_lat": 0.0, "type": "electric_scooter", "lat": 38.903220166666664, "is_reserved": 0, "is_disabled": 0, "fusion_lon": 0.0, "bike_id": "554333fa77d046d5bf313887b573e511", "lon": -77.05343433333333, "rental_uris": {"ios": "https://dc.lft.to/lastmile_qr_scan", "android": "https://dc.lft.to/lastmile_qr_scan"}}, {"name": "4b65cb7a49e081d1926b024da1f6a6f0", "fusion_lat": 0.0, "type": "electric_bike", "lat": 38.91719916666667, "is_reserved": 0, "is_disabled": 0, "fusion_lon": 0.0, "bike_id": "4b65cb7a49e081d1926b024da1f6a6f0", "lon": -76.988675, "rental_uris": {"ios": "https://dc.lft.to/lastmile_qr_scan", "android": "https://dc.lft.to/lastmile_qr_scan"}}, {"name": "4ac61fa9864e9ab92a0ff1e2fd3a82fe", "fusion_lat": 0.0, "type": "electric_scooter", "lat": 38.91533866666666, "is_reserved": 0, "is_disabled": 0, "fusion_lon": 0.0, "bike_id": "4ac61fa9864e9ab92a0ff1e2fd3a82fe", "lon": -77.044364, "rental_uris": {"ios": "https://dc.lft.to/lastmile_qr_scan", "android": "https://dc.lft.to/lastmile_qr_scan"}}, {"name": "4120b00df733b60be07c920516d71d15", "fusion_lat": 0.0, "type": "electric_scooter", "lat": 38.8767765, "is_reserved": 0, "is_disabled": 0, "fusion_lon": 0.0, "bike_id": "4120b00df733b60be07c920516d71d15", "lon": -77.0006455, "rental_uris": {"ios": "https://dc.lft.to/lastmile_qr_scan", "android": "https://dc.lft.to/lastmile_qr_scan"}}, {"name": "16878826d6c97b32e25ab76dcdf6ff64", "fusion_lat": 0.0, "type": "electric_scooter", "lat": 38.8974205, "is_reserved": 0, "is_disabled": 0, "fusion_lon": 0.0, "bike_id": "16878826d6c97b32e25ab76dcdf6ff64", "lon": -77.013073, "rental_uris": {"ios": "https://dc.lft.to/lastmile_qr_scan", "android": "https://dc.lft.to/lastmile_qr_scan"}}, {"name": "fee5b82d9978acc41bbfc5af453a70f6", "fusion_lat": 0.0, "type": "electric_scooter", "lat": 38.92026216666667, "is_reserved": 0, "is_disabled": 0, "fusion_lon": 0.0, "bike_id": "fee5b82d9978acc41bbfc5af453a70f6", "lon": -77.0260535, "rental_uris": {"ios": "https://dc.lft.to/lastmile_qr_scan", "android": "https://dc.lft.to/lastmile_qr_scan"}}, {"name": "0236a0b29c6236cebd690778db05df35", "fusion_lat": 0.0, "type": "electric_scooter", "lat": 38.91693983333333, "is_reserved": 0, "is_disabled": 0, "fusion_lon": 0.0, "bike_id": "0236a0b29c6236cebd690778db05df35", "lon": -77.00806266666666, "rental_uris": {"ios": "https://dc.lft.to/lastmile_qr_scan", "android": "https://dc.lft.to/lastmile_qr_scan"}}, {"name": "6cbfe2348b22218bcf7b274c951a5aa9", "fusion_lat": 0.0, "type": "electric_scooter", "lat": 38.906933, "is_reserved": 0, "is_disabled": 0, "fusion_lon": 0.0, "bike_id": "6cbfe2348b22218bcf7b274c951a5aa9", "lon": -77.03193683333333, "rental_uris": {"ios": "https://dc.lft.to/lastmile_qr_scan", "android": "https://dc.lft.to/lastmile_qr_scan"}}, {"name": "1904072962f6dea0af3335c6a02672b4", "fusion_lat": 0.0, "type": "electric_scooter", "lat": 38.89473516666666, "is_reserved": 0, "is_disabled": 0, "fusion_lon": 0.0, "bike_id": "1904072962f6dea0af3335c6a02672b4", "lon": -76.98590616666667, "rental_uris": {"ios": "https://dc.lft.to/lastmile_qr_scan", "android": "https://dc.lft.to/lastmile_qr_scan"}}, {"name": "69b1cfb1f0abe4383993f376b6b92dc4", "fusion_lat": 0.0, "type": "electric_scooter", "lat": 38.89992016666667, "is_reserved": 0, "is_disabled": 0, "fusion_lon": 0.0, "bike_id": "69b1cfb1f0abe4383993f376b6b92dc4", "lon": -77.02293733333333, "rental_uris": {"ios": "https://dc.lft.to/lastmile_qr_scan", "android": "https://dc.lft.to/lastmile_qr_scan"}}, {"name": "ab2c24c9c05941cdbd85351e428afe6e", "fusion_lat": 0.0, "type": "electric_scooter", "lat": 38.925226, "is_reserved": 0, "is_disabled": 0, "fusion_lon": 0.0, "bike_id": "ab2c24c9c05941cdbd85351e428afe6e", "lon": -77.03844283333333, "rental_uris": {"ios": "https://dc.lft.to/lastmile_qr_scan", "android": "https://dc.lft.to/lastmile_qr_scan"}}, {"name": "fb5deb69f043519586700978b9f9225e", "fusion_lat": 0.0, "type": "electric_scooter", "lat": 38.925405833333336, "is_reserved": 0, "is_disabled": 0, "fusion_lon": 0.0, "bike_id": "fb5deb69f043519586700978b9f9225e", "lon": -77.026356, "rental_uris": {"ios": "https://dc.lft.to/lastmile_qr_scan", "android": "https://dc.lft.to/lastmile_qr_scan"}}, {"name": "e4e3cb428c9d3b96bf9360af6675f65d", "fusion_lat": 0.0, "type": "electric_scooter", "lat": 38.903931166666666, "is_reserved": 0, "is_disabled": 0, "fusion_lon": 0.0, "bike_id": "e4e3cb428c9d3b96bf9360af6675f65d", "lon": -77.04035466666667, "rental_uris": {"ios": "https://dc.lft.to/lastmile_qr_scan", "android": "https://dc.lft.to/lastmile_qr_scan"}}, {"name": "a6a91b5b0e054404e35769e01e19b33b", "fusion_lat": 0.0, "type": "electric_scooter", "lat": 38.89632066666667, "is_reserved": 0, "is_disabled": 0, "fusion_lon": 0.0, "bike_id": "a6a91b5b0e054404e35769e01e19b33b", "lon": -77.02777116666667, "rental_uris": {"ios": "https://dc.lft.to/lastmile_qr_scan", "android": "https://dc.lft.to/lastmile_qr_scan"}}, {"name": "0558a05e428e43161e91a666c993c7dc", "fusion_lat": 0.0, "type": "electric_scooter", "lat": 38.9497915, "is_reserved": 0, "is_disabled": 0, "fusion_lon": 0.0, "bike_id": "0558a05e428e43161e91a666c993c7dc", "lon": -77.06684716666666, "rental_uris": {"ios": "https://dc.lft.to/lastmile_qr_scan", "android": "https://dc.lft.to/lastmile_qr_scan"}}, {"name": "e6c412ba9284f41661b76edd2aab3da1", "fusion_lat": 0.0, "type": "electric_scooter", "lat": 38.90318466666667, "is_reserved": 0, "is_disabled": 0, "fusion_lon": 0.0, "bike_id": "e6c412ba9284f41661b76edd2aab3da1", "lon": -77.03450483333333, "rental_uris": {"ios": "https://dc.lft.to/lastmile_qr_scan", "android": "https://dc.lft.to/lastmile_qr_scan"}}, {"name": "20529d82cf7b435160e11c1c3b17a7ea", "fusion_lat": 0.0, "type": "electric_scooter", "lat": 38.93771683333333, "is_reserved": 0, "is_disabled": 0, "fusion_lon": 0.0, "bike_id": "20529d82cf7b435160e11c1c3b17a7ea", "lon": -77.03263966666667, "rental_uris": {"ios": "https://dc.lft.to/lastmile_qr_scan", "android": "https://dc.lft.to/lastmile_qr_scan"}}, {"name": "3fce972b8589463a742200b9cec3b9a0", "fusion_lat": 0.0, "type": "electric_scooter", "lat": 38.90324733333333, "is_reserved": 0, "is_disabled": 0, "fusion_lon": 0.0, "bike_id": "3fce972b8589463a742200b9cec3b9a0", "lon": -77.036555, "rental_uris": {"ios": "https://dc.lft.to/lastmile_qr_scan", "android": "https://dc.lft.to/lastmile_qr_scan"}}, {"name": "042b929c8d296c17c9a232a1965c86cc", "fusion_lat": 0.0, "type": "electric_bike", "lat": 38.85060466666667, "is_reserved": 0, "is_disabled": 0, "fusion_lon": 0.0, "bike_id": "042b929c8d296c17c9a232a1965c86cc", "lon": -76.97324133333333, "rental_uris": {"ios": "https://dc.lft.to/lastmile_qr_scan", "android": "https://dc.lft.to/lastmile_qr_scan"}}, {"name": "c2936c1fa5248fd908696ecc285223ce", "fusion_lat": 0.0, "type": "electric_scooter", "lat": 38.9072265, "is_reserved": 0, "is_disabled": 0, "fusion_lon": 0.0, "bike_id": "c2936c1fa5248fd908696ecc285223ce", "lon": -76.98602583333333, "rental_uris": {"ios": "https://dc.lft.to/lastmile_qr_scan", "android": "https://dc.lft.to/lastmile_qr_scan"}}, {"name": "835dca28b22bba02576c4641bfc7bf5d", "fusion_lat": 0.0, "type": "electric_scooter", "lat": 38.90611066666666, "is_reserved": 0, "is_disabled": 0, "fusion_lon": 0.0, "bike_id": "835dca28b22bba02576c4641bfc7bf5d", "lon": -77.05154133333333, "rental_uris": {"ios": "https://dc.lft.to/lastmile_qr_scan", "android": "https://dc.lft.to/lastmile_qr_scan"}}, {"name": "45937508142623e978a6b3b9af73d418", "fusion_lat": 0.0, "type": "electric_scooter", "lat": 38.922143166666665, "is_reserved": 0, "is_disabled": 0, "fusion_lon": 0.0, "bike_id": "45937508142623e978a6b3b9af73d418", "lon": -77.02662066666667, "rental_uris": {"ios": "https://dc.lft.to/lastmile_qr_scan", "android": "https://dc.lft.to/lastmile_qr_scan"}}, {"name": "5797f898c8c35654c9ad90abc10d21c4", "fusion_lat": 0.0, "type": "electric_bike", "lat": 38.90297916666667, "is_reserved": 0, "is_disabled": 0, "fusion_lon": 0.0, "bike_id": "5797f898c8c35654c9ad90abc10d21c4", "lon": -76.94435733333333, "rental_uris": {"ios": "https://dc.lft.to/lastmile_qr_scan", "android": "https://dc.lft.to/lastmile_qr_scan"}}, {"name": "08810c8f2c92aa8b889e517d95be481a", "fusion_lat": 0.0, "type": "electric_scooter", "lat": 38.919637, "is_reserved": 0, "is_disabled": 0, "fusion_lon": 0.0, "bike_id": "08810c8f2c92aa8b889e517d95be481a", "lon": -77.03854133333333, "rental_uris": {"ios": "https://dc.lft.to/lastmile_qr_scan", "android": "https://dc.lft.to/lastmile_qr_scan"}}, {"name": "c5e9184d5a715818d2bce970cd067f2e", "fusion_lat": 0.0, "type": "electric_scooter", "lat": 38.91674833333333, "is_reserved": 0, "is_disabled": 0, "fusion_lon": 0.0, "bike_id": "c5e9184d5a715818d2bce970cd067f2e", "lon": -77.02981083333333, "rental_uris": {"ios": "https://dc.lft.to/lastmile_qr_scan", "android": "https://dc.lft.to/lastmile_qr_scan"}}, {"name": "57fb80a3aaddad22fd924b81dbb60412", "fusion_lat": 0.0, "type": "electric_scooter", "lat": 38.9172405, "is_reserved": 0, "is_disabled": 0, "fusion_lon": 0.0, "bike_id": "57fb80a3aaddad22fd924b81dbb60412", "lon": -77.01866433333333, "rental_uris": {"ios": "https://dc.lft.to/lastmile_qr_scan", "android": "https://dc.lft.to/lastmile_qr_scan"}}, {"name": "38293c03d028a01a920177424d160f05", "fusion_lat": 0.0, "type": "electric_scooter", "lat": 38.957825666666665, "is_reserved": 0, "is_disabled": 0, "fusion_lon": 0.0, "bike_id": "38293c03d028a01a920177424d160f05", "lon": -77.02768416666666, "rental_uris": {"ios": "https://dc.lft.to/lastmile_qr_scan", "android": "https://dc.lft.to/lastmile_qr_scan"}}, {"name": "9011548e8d5f53ea746865dd553409cd", "fusion_lat": 0.0, "type": "electric_scooter", "lat": 38.897666666666666, "is_reserved": 0, "is_disabled": 0, "fusion_lon": 0.0, "bike_id": "9011548e8d5f53ea746865dd553409cd", "lon": -77.05146683333334, "rental_uris": {"ios": "https://dc.lft.to/lastmile_qr_scan", "android": "https://dc.lft.to/lastmile_qr_scan"}}, {"name": "430fbcc82c401b609fb4671dfe4a4b6a", "fusion_lat": 0.0, "type": "electric_scooter", "lat": 38.92677483333333, "is_reserved": 0, "is_disabled": 0, "fusion_lon": 0.0, "bike_id": "430fbcc82c401b609fb4671dfe4a4b6a", "lon": -77.03664316666666, "rental_uris": {"ios": "https://dc.lft.to/lastmile_qr_scan", "android": "https://dc.lft.to/lastmile_qr_scan"}}, {"name": "85b29a64b4aa7366712b2c142e237db0", "fusion_lat": 0.0, "type": "electric_scooter", "lat": 38.90253283333333, "is_reserved": 0, "is_disabled": 0, "fusion_lon": 0.0, "bike_id": "85b29a64b4aa7366712b2c142e237db0", "lon": -77.0056165, "rental_uris": {"ios": "https://dc.lft.to/lastmile_qr_scan", "android": "https://dc.lft.to/lastmile_qr_scan"}}, {"name": "bba484dde2dff75bb536ad7fc4fa44ee", "fusion_lat": 0.0, "type": "electric_scooter", "lat": 38.8991755, "is_reserved": 0, "is_disabled": 0, "fusion_lon": 0.0, "bike_id": "bba484dde2dff75bb536ad7fc4fa44ee", "lon": -77.03296366666666, "rental_uris": {"ios": "https://dc.lft.to/lastmile_qr_scan", "android": "https://dc.lft.to/lastmile_qr_scan"}}, {"name": "eb953355625a7c48d307a2f8598fed9e", "fusion_lat": 0.0, "type": "electric_bike", "lat": 38.854241, "is_reserved": 0, "is_disabled": 0, "fusion_lon": 0.0, "bike_id": "eb953355625a7c48d307a2f8598fed9e", "lon": -76.90966766666666, "rental_uris": {"ios": "https://dc.lft.to/lastmile_qr_scan", "android": "https://dc.lft.to/lastmile_qr_scan"}}, {"name": "00e26e56a92ec14f5b0744f828d8cf80", "fusion_lat": 0.0, "type": "electric_scooter", "lat": 38.929035999999996, "is_reserved": 0, "is_disabled": 0, "fusion_lon": 0.0, "bike_id": "00e26e56a92ec14f5b0744f828d8cf80", "lon": -77.02158783333333, "rental_uris": {"ios": "https://dc.lft.to/lastmile_qr_scan", "android": "https://dc.lft.to/lastmile_qr_scan"}}, {"name": "d44d42d610f24f83f18f1ee0dbd823f2", "fusion_lat": 0.0, "type": "electric_bike", "lat": 39.02684383333333, "is_reserved": 0, "is_disabled": 0, "fusion_lon": 0.0, "bike_id": "d44d42d610f24f83f18f1ee0dbd823f2", "lon": -77.12601133333334, "rental_uris": {"ios": "https://dc.lft.to/lastmile_qr_scan", "android": "https://dc.lft.to/lastmile_qr_scan"}}, {"name": "ddf879c31a2898c94bbeb9c12cf90d55", "fusion_lat": 0.0, "type": "electric_bike", "lat": 38.81050183333333, "is_reserved": 0, "is_disabled": 0, "fusion_lon": 0.0, "bike_id": "ddf879c31a2898c94bbeb9c12cf90d55", "lon": -77.08508433333333, "rental_uris": {"ios": "https://dc.lft.to/lastmile_qr_scan", "android": "https://dc.lft.to/lastmile_qr_scan"}}, {"name": "b782e33bdd37a903794e106792fa4ba6", "fusion_lat": 0.0, "type": "electric_scooter", "lat": 38.87672216666667, "is_reserved": 0, "is_disabled": 0, "fusion_lon": 0.0, "bike_id": "b782e33bdd37a903794e106792fa4ba6", "lon": -77.017777, "rental_uris": {"ios": "https://dc.lft.to/lastmile_qr_scan", "android": "https://dc.lft.to/lastmile_qr_scan"}}, {"name": "9cc82059938672b14d58b98bdab8fb14", "fusion_lat": 0.0, "type": "electric_scooter", "lat": 38.91266366666667, "is_reserved": 0, "is_disabled": 0, "fusion_lon": 0.0, "bike_id": "9cc82059938672b14d58b98bdab8fb14", "lon": -77.0314715, "rental_uris": {"ios": "https://dc.lft.to/lastmile_qr_scan", "android": "https://dc.lft.to/lastmile_qr_scan"}}, {"name": "f770dbca3f89a46940e0dd5dfb428a7c", "fusion_lat": 0.0, "type": "electric_scooter", "lat": 38.9353425, "is_reserved": 0, "is_disabled": 0, "fusion_lon": 0.0, "bike_id": "f770dbca3f89a46940e0dd5dfb428a7c", "lon": -77.033993, "rental_uris": {"ios": "https://dc.lft.to/lastmile_qr_scan", "android": "https://dc.lft.to/lastmile_qr_scan"}}, {"name": "faa8db053ec39df081e8b0a03c584ee7", "fusion_lat": 0.0, "type": "electric_scooter", "lat": 38.904240333333334, "is_reserved": 0, "is_disabled": 0, "fusion_lon": 0.0, "bike_id": "faa8db053ec39df081e8b0a03c584ee7", "lon": -77.05349483333333, "rental_uris": {"ios": "https://dc.lft.to/lastmile_qr_scan", "android": "https://dc.lft.to/lastmile_qr_scan"}}, {"name": "cd648d2e71c784bafb27338dd6e45c26", "fusion_lat": 0.0, "type": "electric_scooter", "lat": 38.89355316666666, "is_reserved": 0, "is_disabled": 0, "fusion_lon": 0.0, "bike_id": "cd648d2e71c784bafb27338dd6e45c26", "lon": -77.0033205, "rental_uris": {"ios": "https://dc.lft.to/lastmile_qr_scan", "android": "https://dc.lft.to/lastmile_qr_scan"}}, {"name": "7de22244c458bcbd5891a78e92108086", "fusion_lat": 0.0, "type": "electric_scooter", "lat": 38.905669333333336, "is_reserved": 0, "is_disabled": 0, "fusion_lon": 0.0, "bike_id": "7de22244c458bcbd5891a78e92108086", "lon": -77.00416133333333, "rental_uris": {"ios": "https://dc.lft.to/lastmile_qr_scan", "android": "https://dc.lft.to/lastmile_qr_scan"}}, {"name": "66aeaf2e866adfb7c223b716db61135b", "fusion_lat": 0.0, "type": "electric_scooter", "lat": 38.89523716666667, "is_reserved": 0, "is_disabled": 0, "fusion_lon": 0.0, "bike_id": "66aeaf2e866adfb7c223b716db61135b", "lon": -76.94888833333333, "rental_uris": {"ios": "https://dc.lft.to/lastmile_qr_scan", "android": "https://dc.lft.to/lastmile_qr_scan"}}, {"name": "cde84f0f05dfe4302a2ede45b249d95f", "fusion_lat": 0.0, "type": "electric_scooter", "lat": 38.921650666666665, "is_reserved": 0, "is_disabled": 0, "fusion_lon": 0.0, "bike_id": "cde84f0f05dfe4302a2ede45b249d95f", "lon": -76.99398383333333, "rental_uris": {"ios": "https://dc.lft.to/lastmile_qr_scan", "android": "https://dc.lft.to/lastmile_qr_scan"}}, {"name": "3aac4597ba3ea07a11651e4ecd8d1b3a", "fusion_lat": 0.0, "type": "electric_scooter", "lat": 38.918805, "is_reserved": 0, "is_disabled": 0, "fusion_lon": 0.0, "bike_id": "3aac4597ba3ea07a11651e4ecd8d1b3a", "lon": -76.96546133333334, "rental_uris": {"ios": "https://dc.lft.to/lastmile_qr_scan", "android": "https://dc.lft.to/lastmile_qr_scan"}}, {"name": "75b3dbcdc3dd5bbafbbdf23941db879b", "fusion_lat": 0.0, "type": "electric_scooter", "lat": 38.876841666666664, "is_reserved": 0, "is_disabled": 0, "fusion_lon": 0.0, "bike_id": "75b3dbcdc3dd5bbafbbdf23941db879b", "lon": -77.0006065, "rental_uris": {"ios": "https://dc.lft.to/lastmile_qr_scan", "android": "https://dc.lft.to/lastmile_qr_scan"}}, {"name": "c28d4ef1093c4a972d584326b8ef303c", "fusion_lat": 0.0, "type": "electric_scooter", "lat": 38.8968615, "is_reserved": 0, "is_disabled": 0, "fusion_lon": 0.0, "bike_id": "c28d4ef1093c4a972d584326b8ef303c", "lon": -77.01901983333333, "rental_uris": {"ios": "https://dc.lft.to/lastmile_qr_scan", "android": "https://dc.lft.to/lastmile_qr_scan"}}, {"name": "26c5c72de278609572452680de2efc7d", "fusion_lat": 0.0, "type": "electric_scooter", "lat": 38.902398833333336, "is_reserved": 0, "is_disabled": 0, "fusion_lon": 0.0, "bike_id": "26c5c72de278609572452680de2efc7d", "lon": -77.03343116666667, "rental_uris": {"ios": "https://dc.lft.to/lastmile_qr_scan", "android": "https://dc.lft.to/lastmile_qr_scan"}}, {"name": "aeffe9c16db4db35a3a53cd73b700e15", "fusion_lat": 0.0, "type": "electric_scooter", "lat": 38.89220233333333, "is_reserved": 0, "is_disabled": 0, "fusion_lon": 0.0, "bike_id": "aeffe9c16db4db35a3a53cd73b700e15", "lon": -77.02621233333333, "rental_uris": {"ios": "https://dc.lft.to/lastmile_qr_scan", "android": "https://dc.lft.to/lastmile_qr_scan"}}, {"name": "30b1d26aea0056c4c9fd41bc0454bb62", "fusion_lat": 0.0, "type": "electric_scooter", "lat": 38.910512833333335, "is_reserved": 0, "is_disabled": 0, "fusion_lon": 0.0, "bike_id": "30b1d26aea0056c4c9fd41bc0454bb62", "lon": -77.0436795, "rental_uris": {"ios": "https://dc.lft.to/lastmile_qr_scan", "android": "https://dc.lft.to/lastmile_qr_scan"}}, {"name": "16e91c0a66f7688a127f2848405ed4bc", "fusion_lat": 0.0, "type": "electric_scooter", "lat": 38.90514066666667, "is_reserved": 0, "is_disabled": 0, "fusion_lon": 0.0, "bike_id": "16e91c0a66f7688a127f2848405ed4bc", "lon": -77.07012733333333, "rental_uris": {"ios": "https://dc.lft.to/lastmile_qr_scan", "android": "https://dc.lft.to/lastmile_qr_scan"}}, {"name": "329feddaa6f00d259969d3ad534d982c", "fusion_lat": 0.0, "type": "electric_scooter", "lat": 38.909885333333335, "is_reserved": 0, "is_disabled": 0, "fusion_lon": 0.0, "bike_id": "329feddaa6f00d259969d3ad534d982c", "lon": -77.00892483333334, "rental_uris": {"ios": "https://dc.lft.to/lastmile_qr_scan", "android": "https://dc.lft.to/lastmile_qr_scan"}}, {"name": "1a24ff62fedf563c60fd506f5e27d5b8", "fusion_lat": 0.0, "type": "electric_scooter", "lat": 38.898559166666665, "is_reserved": 0, "is_disabled": 0, "fusion_lon": 0.0, "bike_id": "1a24ff62fedf563c60fd506f5e27d5b8", "lon": -77.01614, "rental_uris": {"ios": "https://dc.lft.to/lastmile_qr_scan", "android": "https://dc.lft.to/lastmile_qr_scan"}}, {"name": "2eaeade2b9e6266ab5795850f90d36f4", "fusion_lat": 0.0, "type": "electric_scooter", "lat": 38.934899, "is_reserved": 0, "is_disabled": 0, "fusion_lon": 0.0, "bike_id": "2eaeade2b9e6266ab5795850f90d36f4", "lon": -77.0328475, "rental_uris": {"ios": "https://dc.lft.to/lastmile_qr_scan", "android": "https://dc.lft.to/lastmile_qr_scan"}}, {"name": "2a9c174473b768c3c282e0be2b428db0", "fusion_lat": 0.0, "type": "electric_scooter", "lat": 38.9427945, "is_reserved": 0, "is_disabled": 0, "fusion_lon": 0.0, "bike_id": "2a9c174473b768c3c282e0be2b428db0", "lon": -77.0250225, "rental_uris": {"ios": "https://dc.lft.to/lastmile_qr_scan", "android": "https://dc.lft.to/lastmile_qr_scan"}}, {"name": "0e87306f51c1a33f7943413b3b5ba396", "fusion_lat": 0.0, "type": "electric_scooter", "lat": 38.899710166666665, "is_reserved": 0, "is_disabled": 0, "fusion_lon": 0.0, "bike_id": "0e87306f51c1a33f7943413b3b5ba396", "lon": -76.93780183333334, "rental_uris": {"ios": "https://dc.lft.to/lastmile_qr_scan", "android": "https://dc.lft.to/lastmile_qr_scan"}}, {"name": "761e93ba651813d8a28f3f03c4ac2f66", "fusion_lat": 0.0, "type": "electric_scooter", "lat": 38.89683466666666, "is_reserved": 0, "is_disabled": 0, "fusion_lon": 0.0, "bike_id": "761e93ba651813d8a28f3f03c4ac2f66", "lon": -76.99626916666666, "rental_uris": {"ios": "https://dc.lft.to/lastmile_qr_scan", "android": "https://dc.lft.to/lastmile_qr_scan"}}, {"name": "ed16f6545d90ce352bf80b50ac950918", "fusion_lat": 0.0, "type": "electric_scooter", "lat": 38.92519033333333, "is_reserved": 0, "is_disabled": 0, "fusion_lon": 0.0, "bike_id": "ed16f6545d90ce352bf80b50ac950918", "lon": -77.0020895, "rental_uris": {"ios": "https://dc.lft.to/lastmile_qr_scan", "android": "https://dc.lft.to/lastmile_qr_scan"}}, {"name": "d6e85bcaf646010238de46f010f45fe7", "fusion_lat": 0.0, "type": "electric_scooter", "lat": 38.8961675, "is_reserved": 0, "is_disabled": 0, "fusion_lon": 0.0, "bike_id": "d6e85bcaf646010238de46f010f45fe7", "lon": -77.04657333333333, "rental_uris": {"ios": "https://dc.lft.to/lastmile_qr_scan", "android": "https://dc.lft.to/lastmile_qr_scan"}}, {"name": "8bcda59d61497bce71d959cbfb68addc", "fusion_lat": 0.0, "type": "electric_scooter", "lat": 38.9024085, "is_reserved": 0, "is_disabled": 0, "fusion_lon": 0.0, "bike_id": "8bcda59d61497bce71d959cbfb68addc", "lon": -77.04618033333334, "rental_uris": {"ios": "https://dc.lft.to/lastmile_qr_scan", "android": "https://dc.lft.to/lastmile_qr_scan"}}, {"name": "de01d9d2aa1ac60c47beea22e6338b74", "fusion_lat": 0.0, "type": "electric_scooter", "lat": 38.8742175, "is_reserved": 0, "is_disabled": 0, "fusion_lon": 0.0, "bike_id": "de01d9d2aa1ac60c47beea22e6338b74", "lon": -77.0007, "rental_uris": {"ios": "https://dc.lft.to/lastmile_qr_scan", "android": "https://dc.lft.to/lastmile_qr_scan"}}, {"name": "e97fe97434a530bee920f4495e6998db", "fusion_lat": 0.0, "type": "electric_scooter", "lat": 38.89234416666667, "is_reserved": 0, "is_disabled": 0, "fusion_lon": 0.0, "bike_id": "e97fe97434a530bee920f4495e6998db", "lon": -77.050039, "rental_uris": {"ios": "https://dc.lft.to/lastmile_qr_scan", "android": "https://dc.lft.to/lastmile_qr_scan"}}, {"name": "313247b69254a0f6cae1c86a734c1509", "fusion_lat": 0.0, "type": "electric_scooter", "lat": 38.89983633333333, "is_reserved": 0, "is_disabled": 0, "fusion_lon": 0.0, "bike_id": "313247b69254a0f6cae1c86a734c1509", "lon": -77.00913733333333, "rental_uris": {"ios": "https://dc.lft.to/lastmile_qr_scan", "android": "https://dc.lft.to/lastmile_qr_scan"}}, {"name": "0f8815bd31a575f4ab8b544a4dcdddde", "fusion_lat": 0.0, "type": "electric_scooter", "lat": 38.8835655, "is_reserved": 0, "is_disabled": 0, "fusion_lon": 0.0, "bike_id": "0f8815bd31a575f4ab8b544a4dcdddde", "lon": -77.0316725, "rental_uris": {"ios": "https://dc.lft.to/lastmile_qr_scan", "android": "https://dc.lft.to/lastmile_qr_scan"}}, {"name": "12189e4f0410f685f36a6d413671d51a", "fusion_lat": 0.0, "type": "electric_bike", "lat": 38.899099, "is_reserved": 0, "is_disabled": 0, "fusion_lon": 0.0, "bike_id": "12189e4f0410f685f36a6d413671d51a", "lon": -76.98573466666667, "rental_uris": {"ios": "https://dc.lft.to/lastmile_qr_scan", "android": "https://dc.lft.to/lastmile_qr_scan"}}, {"name": "f2e1ef64cc06b0f2bf58e88e12262bab", "fusion_lat": 0.0, "type": "electric_scooter", "lat": 38.941904, "is_reserved": 0, "is_disabled": 0, "fusion_lon": 0.0, "bike_id": "f2e1ef64cc06b0f2bf58e88e12262bab", "lon": -77.04014916666667, "rental_uris": {"ios": "https://dc.lft.to/lastmile_qr_scan", "android": "https://dc.lft.to/lastmile_qr_scan"}}, {"name": "3e040efc8b8a6e4ef9c4cd0cedfa990e", "fusion_lat": 0.0, "type": "electric_scooter", "lat": 38.9061785, "is_reserved": 0, "is_disabled": 0, "fusion_lon": 0.0, "bike_id": "3e040efc8b8a6e4ef9c4cd0cedfa990e", "lon": -77.06386583333334, "rental_uris": {"ios": "https://dc.lft.to/lastmile_qr_scan", "android": "https://dc.lft.to/lastmile_qr_scan"}}, {"name": "fb5b1d7d7a7f719c37d568f12ebda9a8", "fusion_lat": 0.0, "type": "electric_scooter", "lat": 38.91255533333333, "is_reserved": 0, "is_disabled": 0, "fusion_lon": 0.0, "bike_id": "fb5b1d7d7a7f719c37d568f12ebda9a8", "lon": -77.00951883333333, "rental_uris": {"ios": "https://dc.lft.to/lastmile_qr_scan", "android": "https://dc.lft.to/lastmile_qr_scan"}}, {"name": "24d182c40fb7aacf6a3a031aba262352", "fusion_lat": 0.0, "type": "electric_scooter", "lat": 38.936830666666665, "is_reserved": 0, "is_disabled": 0, "fusion_lon": 0.0, "bike_id": "24d182c40fb7aacf6a3a031aba262352", "lon": -77.03166166666666, "rental_uris": {"ios": "https://dc.lft.to/lastmile_qr_scan", "android": "https://dc.lft.to/lastmile_qr_scan"}}, {"name": "2654ec0d889abf58a6e9a1f171b5c081", "fusion_lat": 0.0, "type": "electric_bike", "lat": 38.96590333333333, "is_reserved": 0, "is_disabled": 0, "fusion_lon": 0.0, "bike_id": "2654ec0d889abf58a6e9a1f171b5c081", "lon": -76.9795545, "rental_uris": {"ios": "https://dc.lft.to/lastmile_qr_scan", "android": "https://dc.lft.to/lastmile_qr_scan"}}, {"name": "ed639dd9d441677de65b06108b677376", "fusion_lat": 0.0, "type": "electric_bike", "lat": 38.89350566666667, "is_reserved": 0, "is_disabled": 0, "fusion_lon": 0.0, "bike_id": "ed639dd9d441677de65b06108b677376", "lon": -77.187388, "rental_uris": {"ios": "https://dc.lft.to/lastmile_qr_scan", "android": "https://dc.lft.to/lastmile_qr_scan"}}, {"name": "c921635b604ce8450ab38a6e6333d309", "fusion_lat": 0.0, "type": "electric_scooter", "lat": 38.935257666666665, "is_reserved": 0, "is_disabled": 0, "fusion_lon": 0.0, "bike_id": "c921635b604ce8450ab38a6e6333d309", "lon": -77.028546, "rental_uris": {"ios": "https://dc.lft.to/lastmile_qr_scan", "android": "https://dc.lft.to/lastmile_qr_scan"}}, {"name": "cea4980458d23add8722451ee1ad498c", "fusion_lat": 0.0, "type": "electric_scooter", "lat": 38.90062, "is_reserved": 0, "is_disabled": 0, "fusion_lon": 0.0, "bike_id": "cea4980458d23add8722451ee1ad498c", "lon": -77.04639983333334, "rental_uris": {"ios": "https://dc.lft.to/lastmile_qr_scan", "android": "https://dc.lft.to/lastmile_qr_scan"}}, {"name": "1e9380b89c628748705a038465de36bb", "fusion_lat": 0.0, "type": "electric_bike", "lat": 38.89188583333333, "is_reserved": 0, "is_disabled": 0, "fusion_lon": 0.0, "bike_id": "1e9380b89c628748705a038465de36bb", "lon": -77.12261883333333, "rental_uris": {"ios": "https://dc.lft.to/lastmile_qr_scan", "android": "https://dc.lft.to/lastmile_qr_scan"}}, {"name": "07d11361d693947e54cd554c77363797", "fusion_lat": 0.0, "type": "electric_scooter", "lat": 38.9096935, "is_reserved": 0, "is_disabled": 0, "fusion_lon": 0.0, "bike_id": "07d11361d693947e54cd554c77363797", "lon": -77.04232933333333, "rental_uris": {"ios": "https://dc.lft.to/lastmile_qr_scan", "android": "https://dc.lft.to/lastmile_qr_scan"}}, {"name": "55e1245fd5ce6745f932e63318e09a84", "fusion_lat": 0.0, "type": "electric_scooter", "lat": 38.942715666666665, "is_reserved": 0, "is_disabled": 0, "fusion_lon": 0.0, "bike_id": "55e1245fd5ce6745f932e63318e09a84", "lon": -77.02504533333334, "rental_uris": {"ios": "https://dc.lft.to/lastmile_qr_scan", "android": "https://dc.lft.to/lastmile_qr_scan"}}, {"name": "17e6da32a9a10708932c90fd0069c389", "fusion_lat": 0.0, "type": "electric_scooter", "lat": 38.90531883333333, "is_reserved": 0, "is_disabled": 0, "fusion_lon": 0.0, "bike_id": "17e6da32a9a10708932c90fd0069c389", "lon": -77.04741, "rental_uris": {"ios": "https://dc.lft.to/lastmile_qr_scan", "android": "https://dc.lft.to/lastmile_qr_scan"}}, {"name": "3ef03130ee4115021a997f5f2a3d20d2", "fusion_lat": 0.0, "type": "electric_bike", "lat": 38.831942166666664, "is_reserved": 0, "is_disabled": 0, "fusion_lon": 0.0, "bike_id": "3ef03130ee4115021a997f5f2a3d20d2", "lon": -77.07683016666667, "rental_uris": {"ios": "https://dc.lft.to/lastmile_qr_scan", "android": "https://dc.lft.to/lastmile_qr_scan"}}, {"name": "251ac1aa37562c90f419974b48bb46fd", "fusion_lat": 0.0, "type": "electric_scooter", "lat": 38.90644866666667, "is_reserved": 0, "is_disabled": 0, "fusion_lon": 0.0, "bike_id": "251ac1aa37562c90f419974b48bb46fd", "lon": -76.99381083333333, "rental_uris": {"ios": "https://dc.lft.to/lastmile_qr_scan", "android": "https://dc.lft.to/lastmile_qr_scan"}}, {"name": "48879f27820a4aad56166c3db1198cae", "fusion_lat": 0.0, "type": "electric_scooter", "lat": 38.9067325, "is_reserved": 0, "is_disabled": 0, "fusion_lon": 0.0, "bike_id": "48879f27820a4aad56166c3db1198cae", "lon": -76.97812, "rental_uris": {"ios": "https://dc.lft.to/lastmile_qr_scan", "android": "https://dc.lft.to/lastmile_qr_scan"}}, {"name": "09034a526d27ee3c1f9a8e5d14e4a4a2", "fusion_lat": 0.0, "type": "electric_scooter", "lat": 38.915977166666664, "is_reserved": 0, "is_disabled": 0, "fusion_lon": 0.0, "bike_id": "09034a526d27ee3c1f9a8e5d14e4a4a2", "lon": -77.04155683333333, "rental_uris": {"ios": "https://dc.lft.to/lastmile_qr_scan", "android": "https://dc.lft.to/lastmile_qr_scan"}}, {"name": "ac44984db2b12513898bbaf23030dd95", "fusion_lat": 0.0, "type": "electric_bike", "lat": 38.81515, "is_reserved": 0, "is_disabled": 0, "fusion_lon": 0.0, "bike_id": "ac44984db2b12513898bbaf23030dd95", "lon": -77.12660166666667, "rental_uris": {"ios": "https://dc.lft.to/lastmile_qr_scan", "android": "https://dc.lft.to/lastmile_qr_scan"}}, {"name": "12e6f06fb5d0c6c42533e063f7996c07", "fusion_lat": 0.0, "type": "electric_scooter", "lat": 38.905213333333336, "is_reserved": 0, "is_disabled": 0, "fusion_lon": 0.0, "bike_id": "12e6f06fb5d0c6c42533e063f7996c07", "lon": -77.05039083333334, "rental_uris": {"ios": "https://dc.lft.to/lastmile_qr_scan", "android": "https://dc.lft.to/lastmile_qr_scan"}},