{"data": {"bikes": [{"rental_uris": {"android": "https://dc.lft.to/lastmile_qr_scan", "ios": "https://dc.lft.to/lastmile_qr_scan"}, "lon": -77.04661516666667, "name": "be20a86b3081a2ab09d8d89a9469ce1b", "fusion_lon": 0.0, "bike_id": "be20a86b3081a2ab09d8d89a9469ce1b", "is_reserved": 0, "type": "electric_scooter", "lat": 38.901627500000004, "fusion_lat": 0.0, "is_disabled": 0}, {"rental_uris": {"android": "https://dc.lft.to/lastmile_qr_scan", "ios": "https://dc.lft.to/lastmile_qr_scan"}, "lon": -77.03146383333333, "name": "684e9412258e189912c2b45a1d0b6fb5", "fusion_lon": 0.0, "bike_id": "684e9412258e189912c2b45a1d0b6fb5", "is_reserved": 0, "type": "electric_scooter", "lat": 38.941816, "fusion_lat": 0.0, "is_disabled": 0}, {"rental_uris": {"android": "https://dc.lft.to/lastmile_qr_scan", "ios": "https://dc.lft.to/lastmile_qr_scan"}, "lon": -77.03820683333333, "name": "53de1473bbe29c3ebe7289b6ce13b273", "fusion_lon": 0.0, "bike_id": "53de1473bbe29c3ebe7289b6ce13b273", "is_reserved": 0, "type": "electric_scooter", "lat": 38.91190566666667, "fusion_lat": 0.0, "is_disabled": 0}, {"rental_uris": {"android": "https://dc.lft.to/lastmile_qr_scan", "ios": "https://dc.lft.to/lastmile_qr_scan"}, "lon": -76.9348185, "name": "17648bfe0f18200a10d42183ca75e89e", "fusion_lon": 0.0, "bike_id": "17648bfe0f18200a10d42183ca75e89e", "is_reserved": 0, "type": "electric_scooter", "lat": 38.907392, "fusion_lat": 0.0, "is_disabled": 0}, {"rental_uris": {"android": "https://dc.lft.to/lastmile_qr_scan", "ios": "https://dc.lft.to/lastmile_qr_scan"}, "lon": -77.0383505, "name": "deb2b529f178e54407e2d34e66d313ce", "fusion_lon": 0.0, "bike_id": "deb2b529f178e54407e2d34e66d313ce", "is_reserved": 0, "type": "electric_scooter", "lat": 38.9265, "fusion_lat": 0.0, "is_disabled": 0}, {"rental_uris": {"android": "https://dc.lft.to/lastmile_qr_scan", "ios": "https://dc.lft.to/lastmile_qr_scan"}, "lon": -77.03515066666667, "name": "318fff036a4dfa00e327810b32b45fea", "fusion_lon": 0.0, "bike_id": "318fff036a4dfa00e327810b32b45fea", "is_reserved": 0, "type": "electric_scooter", "lat": 38.924066833333335, "fusion_lat": 0.0, "is_disabled": 0}, {"rental_uris": {"android": "https://dc.lft.to/lastmile_qr_scan", "ios": "https://dc.lft.to/lastmile_qr_scan"}, "lon": -77.0122475, "name": "113a1bb68d9ebfafb2a3e08a12794444", "fusion_lon": 0.0, "bike_id": "113a1bb68d9ebfafb2a3e08a12794444", "is_reserved": 0, "type": "electric_scooter", "lat": 38.903886166666666, "fusion_lat": 0.0, "is_disabled": 0}, {"rental_uris": {"android": "https://dc.lft.to/lastmile_qr_scan", "ios": "https://dc.lft.to/lastmile_qr_scan"}, "lon": -77.043762, "name": "a045309ac0375c83e3cc4078f81e0cda", "fusion_lon": 0.0, "bike_id": "a045309ac0375c83e3cc4078f81e0cda", "is_reserved": 0, "type": "electric_scooter", "lat": 38.901347333333334, "fusion_lat": 0.0, "is_disabled": 0}, {"rental_uris": {"android": "https://dc.lft.to/lastmile_qr_scan", "ios": "https://dc.lft.to/lastmile_qr_scan"}, "lon": -77.02950566666667, "name": "16b635d3247881ce09a76b103ce313b1", "fusion_lon": 0.0, "bike_id": "16b635d3247881ce09a76b103ce313b1", "is_reserved": 0, "type": "electric_scooter", "lat": 38.916860666666665, "fusion_lat": 0.0, "is_disabled": 0}, {"rental_uris": {"android": "https://dc.lft.to/lastmile_qr_scan", "ios": "https://dc.lft.to/lastmile_qr_scan"}, "lon": -77.032892, "name": "368d5a2b08baf9a712fa27fd25f86ab0", "fusion_lon": 0.0, "bike_id": "368d5a2b08baf9a712fa27fd25f86ab0", "is_reserved": 0, "type": "electric_scooter", "lat": 38.899021, "fusion_lat": 0.0, "is_disabled": 0}, {"rental_uris": {"android": "https://dc.lft.to/lastmile_qr_scan", "ios": "https://dc.lft.to/lastmile_qr_scan"}, "lon": -76.98390583333334, "name": "063272587866a7573e70db70f7210e99", "fusion_lon": 0.0, "bike_id": "063272587866a7573e70db70f7210e99", "is_reserved": 0, "type": "electric_scooter", "lat": 38.915750833333334, "fusion_lat": 0.0, "is_disabled": 0}, {"rental_uris": {"android": "https://dc.lft.to/lastmile_qr_scan", "ios": "https://dc.lft.to/lastmile_qr_scan"}, "lon": -77.1065565, "name": "b70f9310fa6ee2ec380f23fb75696fc1", "fusion_lon": 0.0, "bike_id": "b70f9310fa6ee2ec380f23fb75696fc1", "is_reserved": 0, "type": "electric_bike", "lat": 38.96462916666667, "fusion_lat": 0.0, "is_disabled": 0}, {"rental_uris": {"android": "https://dc.lft.to/lastmile_qr_scan", "ios": "https://dc.lft.to/lastmile_qr_scan"}, "lon": -77.01503016666666, "name": "d154fec789f1ec4591d94a01a162e8f6", "fusion_lon": 0.0, "bike_id": "d154fec789f1ec4591d94a01a162e8f6", "is_reserved": 0, "type": "electric_scooter", "lat": 38.92670283333333, "fusion_lat": 0.0, "is_disabled": 0}, {"rental_uris": {"android": "https://dc.lft.to/lastmile_qr_scan", "ios": "https://dc.lft.to/lastmile_qr_scan"}, "lon": -77.051681, "name": "381e140138fbc12dbe5355b58cd0660b", "fusion_lon": 0.0, "bike_id": "381e140138fbc12dbe5355b58cd0660b", "is_reserved": 0, "type": "electric_scooter", "lat": 38.923742, "fusion_lat": 0.0, "is_disabled": 0}, {"rental_uris": {"android": "https://dc.lft.to/lastmile_qr_scan", "ios": "https://dc.lft.to/lastmile_qr_scan"}, "lon": -77.02716566666666, "name": "78b875109ea2efcbc8c5bd4b12a50b76", "fusion_lon": 0.0, "bike_id": "78b875109ea2efcbc8c5bd4b12a50b76", "is_reserved": 0, "type": "electric_scooter", "lat": 38.89666233333333, "fusion_lat": 0.0, "is_disabled": 0}, {"rental_uris": {"android": "https://dc.lft.to/lastmile_qr_scan", "ios": "https://dc.lft.to/lastmile_qr_scan"}, "lon": -77.0502155, "name": "2ef1ac8c0d0e13caa4d09251634afd12", "fusion_lon": 0.0, "bike_id": "2ef1ac8c0d0e13caa4d09251634afd12", "is_reserved": 0, "type": "electric_scooter", "lat": 38.906687, "fusion_lat": 0.0, "is_disabled": 0}, {"rental_uris": {"android": "https://dc.lft.to/lastmile_qr_scan", "ios": "https://dc.lft.to/lastmile_qr_scan"}, "lon": -77.00332116666667, "name": "318bf09031c00f5d6a9704bb1732c189", "fusion_lon": 0.0, "bike_id": "318bf09031c00f5d6a9704bb1732c189", "is_reserved": 0, "type": "electric_scooter", "lat": 38.89353066666666, "fusion_lat": 0.0, "is_disabled": 0}, {"rental_uris": {"android": "https://dc.lft.to/lastmile_qr_scan", "ios": "https://dc.lft.to/lastmile_qr_scan"}, "lon": -77.000639, "name": "12f58663ead5e643809dd5389f9910ca", "fusion_lon": 0.0, "bike_id": "12f58663ead5e643809dd5389f9910ca", "is_reserved": 0, "type": "electric_scooter", "lat": 38.8796315, "fusion_lat": 0.0, "is_disabled": 0}, {"rental_uris": {"android": "https://dc.lft.to/lastmile_qr_scan", "ios": "https://dc.lft.to/lastmile_qr_scan"}, "lon": -76.97531933333333, "name": "f9962b48125c4ea3247fd2730d738109", "fusion_lon": 0.0, "bike_id": "f9962b48125c4ea3247fd2730d738109", "is_reserved": 0, "type": "electric_scooter", "lat": 38.922318833333335, "fusion_lat": 0.0, "is_disabled": 0}, {"rental_uris": {"android": "https://dc.lft.to/lastmile_qr_scan", "ios": "https://dc.lft.to/lastmile_qr_scan"}, "lon": -77.03338483333333, "name": "89c1787830adafe5c4a713aabe36a647", "fusion_lon": 0.0, "bike_id": "89c1787830adafe5c4a713aabe36a647", "is_reserved": 0, "type": "electric_scooter", "lat": 38.89223616666666, "fusion_lat": 0.0, "is_disabled": 0}, {"rental_uris": {"android": "https://dc.lft.to/lastmile_qr_scan", "ios": "https://dc.lft.to/lastmile_qr_scan"}, "lon": -76.98831383333334, "name": "91b7f3892c2bb3a08faf2a0993813e79", "fusion_lon": 0.0, "bike_id": "91b7f3892c2bb3a08faf2a0993813e79", "is_reserved": 0, "type": "electric_scooter", "lat": 38.901802833333335, "fusion_lat": 0.0, "is_disabled": 0}, {"rental_uris": {"android": "https://dc.lft.to/lastmile_qr_scan", "ios": "https://dc.lft.to/lastmile_qr_scan"}, "lon": -77.01412033333334, "name": "bafe90af7e189a9ac544972fab3de9a7", "fusion_lon": 0.0, "bike_id": "bafe90af7e189a9ac544972fab3de9a7", "is_reserved": 0, "type": "electric_scooter", "lat": 38.928328, "fusion_lat": 0.0, "is_disabled": 0}, {"rental_uris": {"android": "https://dc.lft.to/lastmile_qr_scan", "ios": "https://dc.lft.to/lastmile_qr_scan"}, "lon": -77.05035233333334, "name": "f26481ee3e9ac69824ccc763db4dfe0a", "fusion_lon": 0.0, "bike_id": "f26481ee3e9ac69824ccc763db4dfe0a", "is_reserved": 0, "type": "electric_bike", "lat": 38.99939416666667, "fusion_lat": 0.0, "is_disabled": 0}, {"rental_uris": {"android": "https://dc.lft.to/lastmile_qr_scan", "ios": "https://dc.lft.to/lastmile_qr_scan"}, "lon": -77.01893766666667, "name": "29e60bf3b6cf4be19b1137ae58b12481", "fusion_lon": 0.0, "bike_id": "29e60bf3b6cf4be19b1137ae58b12481", "is_reserved": 0, "type": "electric_scooter", "lat": 38.92338316666667, "fusion_lat": 0.0, "is_disabled": 0}, {"rental_uris": {"android": "https://dc.lft.to/lastmile_qr_scan", "ios": "https://dc.lft.to/lastmile_qr_scan"}, "lon": -76.91921916666666, "name": "c886825f553a14a6e98fe6dc2eacf1c9", "fusion_lon": 0.0, "bike_id": "c886825f553a14a6e98fe6dc2eacf1c9", "is_reserved": 0, "type": "electric_scooter", "lat": 38.89087083333333, "fusion_lat": 0.0, "is_disabled": 0}, {"rental_uris": {"android": "https://dc.lft.to/lastmile_qr_scan", "ios": "https://dc.lft.to/lastmile_qr_scan"}, "lon": -77.0637745, "name": "694b3fac39c0e6d276af05dbe89f4189", "fusion_lon": 0.0, "bike_id": "694b3fac39c0e6d276af05dbe89f4189", "is_reserved": 0, "type": "electric_scooter", "lat": 38.9052345, "fusion_lat": 0.0, "is_disabled": 0}, {"rental_uris": {"android": "https://dc.lft.to/lastmile_qr_scan", "ios": "https://dc.lft.to/lastmile_qr_scan"}, "lon": -77.00219783333333, "name": "0bfb91fde820f5003b76ef68c8f08fd5", "fusion_lon": 0.0, "bike_id": "0bfb91fde820f5003b76ef68c8f08fd5", "is_reserved": 0, "type": "electric_scooter", "lat": 38.8850165, "fusion_lat": 0.0, "is_disabled": 0}, {"rental_uris": {"android": "https://dc.lft.to/lastmile_qr_scan", "ios": "https://dc.lft.to/lastmile_qr_scan"}, "lon": -77.0297365, "name": "5db419edce333c7bd1c62d5de0a19842", "fusion_lon": 0.0, "bike_id": "5db419edce333c7bd1c62d5de0a19842", "is_reserved": 0, "type": "electric_scooter", "lat": 38.9167985, "fusion_lat": 0.0, "is_disabled": 0}, {"rental_uris": {"android": "https://dc.lft.to/lastmile_qr_scan", "ios": "https://dc.lft.to/lastmile_qr_scan"}, "lon": -77.049541, "name": "b59b1bf66cea0d5473111bc3dabc68ca", "fusion_lon": 0.0, "bike_id": "b59b1bf66cea0d5473111bc3dabc68ca", "is_reserved": 0, "type": "electric_bike", "lat": 39.01094333333333, "fusion_lat": 0.0, "is_disabled": 0}, {"rental_uris": {"android": "https://dc.lft.to/lastmile_qr_scan", "ios": "https://dc.lft.to/lastmile_qr_scan"}, "lon": -77.01957066666667, "name": "f95f07424ab1a3b49abb5dcb41e77737", "fusion_lon": 0.0, "bike_id": "f95f07424ab1a3b49abb5dcb41e77737", "is_reserved": 0, "type": "electric_scooter", "lat": 38.92329516666667, "fusion_lat": 0.0, "is_disabled": 0}, {"rental_uris": {"android": "https://dc.lft.to/lastmile_qr_scan", "ios": "https://dc.lft.to/lastmile_qr_scan"}, "lon": -77.055612, "name": "3987ca27d51303fbb07252e2564daeb7", "fusion_lon": 0.0, "bike_id": "3987ca27d51303fbb07252e2564daeb7", "is_reserved": 0, "type": "electric_scooter", "lat": 38.89967683333333, "fusion_lat": 0.0, "is_disabled": 0}, {"rental_uris": {"android": "https://dc.lft.to/lastmile_qr_scan", "ios": "https://dc.lft.to/lastmile_qr_scan"}, "lon": -76.99662266666667, "name": "f0c4c9acd269c08e4273866903eb0ec9", "fusion_lon": 0.0, "bike_id": "f0c4c9acd269c08e4273866903eb0ec9", "is_reserved": 0, "type": "electric_scooter", "lat": 38.924418, "fusion_lat": 0.0, "is_disabled": 0}, {"rental_uris": {"android": "https://dc.lft.to/lastmile_qr_scan", "ios": "https://dc.lft.to/lastmile_qr_scan"}, "lon": -76.98751483333334, "name": "1cb36b33df5034ebdde69c4345f56699", "fusion_lon": 0.0, "bike_id": "1cb36b33df5034ebdde69c4345f56699", "is_reserved": 0, "type": "electric_bike", "lat": 38.85783466666667, "fusion_lat": 0.0, "is_disabled": 0}, {"rental_uris": {"android": "https://dc.lft.to/lastmile_qr_scan", "ios": "https://dc.lft.to/lastmile_qr_scan"}, "lon": -77.0334575, "name": "f4cb02def976e3beede9e9977abbf8a4", "fusion_lon": 0.0, "bike_id": "f4cb02def976e3beede9e9977abbf8a4", "is_reserved": 0, "type": "electric_scooter", "lat": 38.91708966666667, "fusion_lat": 0.0, "is_disabled": 0}, {"rental_uris": {"android": "https://dc.lft.to/lastmile_qr_scan", "ios": "https://dc.lft.to/lastmile_qr_scan"}, "lon": -77.03241033333333, "name": "df3bcf1e8055e32246d136cfe9a1486b", "fusion_lon": 0.0, "bike_id": "df3bcf1e8055e32246d136cfe9a1486b", "is_reserved": 0, "type": "electric_scooter", "lat": 38.929994666666666, "fusion_lat": 0.0, "is_disabled": 0}, {"rental_uris": {"android": "https://dc.lft.to/lastmile_qr_scan", "ios": "https://dc.lft.to/lastmile_qr_scan"}, "lon": -76.91063733333333, "name": "8eb7a25d0d51b40fd933d38ddd9f2676", "fusion_lon": 0.0, "bike_id": "8eb7a25d0d51b40fd933d38ddd9f2676", "is_reserved": 0, "type": "electric_bike", "lat": 39.0107615, "fusion_lat": 0.0, "is_disabled": 0}, {"rental_uris": {"android": "https://dc.lft.to/lastmile_qr_scan", "ios": "https://dc.lft.to/lastmile_qr_scan"}, "lon": -77.0365835, "name": "f6f78a0083a78b6bea8d234624ebd287", "fusion_lon": 0.0, "bike_id": "f6f78a0083a78b6bea8d234624ebd287", "is_reserved": 0, "type": "electric_scooter", "lat": 38.921380166666665, "fusion_lat": 0.0, "is_disabled": 0}, {"rental_uris": {"android": "https://dc.lft.to/lastmile_qr_scan", "ios": "https://dc.lft.to/lastmile_qr_scan"}, "lon": -77.139219, "name": "8a033e6e1f9d0ec9d2534bdc30ec2c73", "fusion_lon": 0.0, "bike_id": "8a033e6e1f9d0ec9d2534bdc30ec2c73", "is_reserved": 0, "type": "electric_bike", "lat": 38.8467415, "fusion_lat": 0.0, "is_disabled": 0}, {"rental_uris": {"android": "https://dc.lft.to/lastmile_qr_scan", "ios": "https://dc.lft.to/lastmile_qr_scan"}, "lon": -77.02213283333333, "name": "7272c0bb35f3c32480ba180dd98ace6f", "fusion_lon": 0.0, "bike_id": "7272c0bb35f3c32480ba180dd98ace6f", "is_reserved": 0, "type": "electric_scooter", "lat": 38.903700666666666, "fusion_lat": 0.0, "is_disabled": 0}, {"rental_uris": {"android": "https://dc.lft.to/lastmile_qr_scan", "ios": "https://dc.lft.to/lastmile_qr_scan"}, "lon": -77.042713, "name": "c5a166410c85cbc56fdec4ff2de9401e", "fusion_lon": 0.0, "bike_id": "c5a166410c85cbc56fdec4ff2de9401e", "is_reserved": 0, "type": "electric_scooter", "lat": 38.90740683333333, "fusion_lat": 0.0, "is_disabled": 0}, {"rental_uris": {"android": "https://dc.lft.to/lastmile_qr_scan", "ios": "https://dc.lft.to/lastmile_qr_scan"}, "lon": -77.04904666666667, "name": "7bd2c241cdb0b952acffc755381205c9", "fusion_lon": 0.0, "bike_id": "7bd2c241cdb0b952acffc755381205c9", "is_reserved": 0, "type": "electric_scooter", "lat": 38.898363333333336, "fusion_lat": 0.0, "is_disabled": 0}, {"rental_uris": {"android": "https://dc.lft.to/lastmile_qr_scan", "ios": "https://dc.lft.to/lastmile_qr_scan"}, "lon": -77.03560616666667, "name": "c6e56dcad66e1715af62381fef5e5984", "fusion_lon": 0.0, "bike_id": "c6e56dcad66e1715af62381fef5e5984", "is_reserved": 0, "type": "electric_scooter", "lat": 38.92078466666667, "fusion_lat": 0.0, "is_disabled": 0}, {"rental_uris": {"android": "https://dc.lft.to/lastmile_qr_scan", "ios": "https://dc.lft.to/lastmile_qr_scan"}, "lon": -77.0447325, "name": "a11f7d6765efd596818d180d440ea609", "fusion_lon": 0.0, "bike_id": "a11f7d6765efd596818d180d440ea609", "is_reserved": 0, "type": "electric_scooter", "lat": 38.91105266666667, "fusion_lat": 0.0, "is_disabled": 0}, {"rental_uris": {"android": "https://dc.lft.to/lastmile_qr_scan", "ios": "https://dc.lft.to/lastmile_qr_scan"}, "lon": -76.99322599999999, "name": "5ae0b4730f3bca9781734f901d340415", "fusion_lon": 0.0, "bike_id": "5ae0b4730f3bca9781734f901d340415", "is_reserved": 0, "type": "electric_scooter", "lat": 38.87658733333333, "fusion_lat": 0.0, "is_disabled": 0}, {"rental_uris": {"android": "https://dc.lft.to/lastmile_qr_scan", "ios": "https://dc.lft.to/lastmile_qr_scan"}, "lon": -76.95837483333334, "name": "e91921445a643fe2125e8df1258b4467", "fusion_lon": 0.0, "bike_id": "e91921445a643fe2125e8df1258b4467", "is_reserved": 0, "type": "electric_scooter", "lat": 38.930468833333336, "fusion_lat": 0.0, "is_disabled": 0}, {"rental_uris": {"android": "https://dc.lft.to/lastmile_qr_scan", "ios": "https://dc.lft.to/lastmile_qr_scan"}, "lon": -77.00692383333333, "name": "d2680a44a24de14d8a654b8f72dc4f48", "fusion_lon": 0.0, "bike_id": "d2680a44a24de14d8a654b8f72dc4f48", "is_reserved": 0, "type": "electric_scooter", "lat": 38.905768, "fusion_lat": 0.0, "is_disabled": 0}, {"rental_uris": {"android": "https://dc.lft.to/lastmile_qr_scan", "ios": "https://dc.lft.to/lastmile_qr_scan"}, "lon": -77.0269395, "name": "0617a15fd36ab19072990074e5605abf", "fusion_lon": 0.0, "bike_id": "0617a15fd36ab19072990074e5605abf", "is_reserved": 0, "type": "electric_scooter", "lat": 38.906041, "fusion_lat": 0.0, "is_disabled": 0}, {"rental_uris": {"android": "https://dc.lft.to/lastmile_qr_scan", "ios": "https://dc.lft.to/lastmile_qr_scan"}, "lon": -77.0232135, "name": "18869e2b9a93aa62f8809d274bdcd797", "fusion_lon": 0.0, "bike_id": "18869e2b9a93aa62f8809d274bdcd797", "is_reserved": 0, "type": "electric_scooter", "lat": 38.92068183333333, "fusion_lat": 0.0, "is_disabled": 0}, {"rental_uris": {"android": "https://dc.lft.to/lastmile_qr_scan", "ios": "https://dc.lft.to/lastmile_qr_scan"}, "lon": -77.01069983333333, "name": "dbcfb4a3f944eaf096fe1dfb633fbd80", "fusion_lon": 0.0, "bike_id": "dbcfb4a3f944eaf096fe1dfb633fbd80", "is_reserved": 0, "type": "electric_scooter", "lat": 38.917073, "fusion_lat": 0.0, "is_disabled": 0}, {"rental_uris": {"android": "https://dc.lft.to/lastmile_qr_scan", "ios": "https://dc.lft.to/lastmile_qr_scan"}, "lon": -77.03241766666666, "name": "19abcc3936c4786a2c5f86622d7d0c9e", "fusion_lon": 0.0, "bike_id": "19abcc3936c4786a2c5f86622d7d0c9e", "is_reserved": 0, "type": "electric_scooter", "lat": 38.89837883333333, "fusion_lat": 0.0, "is_disabled": 0}, {"rental_uris": {"android": "https://dc.lft.to/lastmile_qr_scan", "ios": "https://dc.lft.to/lastmile_qr_scan"}, "lon": -77.07113766666667, "name": "ca7a69dbc3833e12c463d9a55a94a552", "fusion_lon": 0.0, "bike_id": "ca7a69dbc3833e12c463d9a55a94a552", "is_reserved": 0, "type": "electric_scooter", "lat": 38.9196715, "fusion_lat": 0.0, "is_disabled": 0}, {"rental_uris": {"android": "https://dc.lft.to/lastmile_qr_scan", "ios": "https://dc.lft.to/lastmile_qr_scan"}, "lon": -77.0270095, "name": "5208da21f945731b406c841068ecb1c3", "fusion_lon": 0.0, "bike_id": "5208da21f945731b406c841068ecb1c3", "is_reserved": 0, "type": "electric_scooter", "lat": 38.90678066666667, "fusion_lat": 0.0, "is_disabled": 0}, {"rental_uris": {"android": "https://dc.lft.to/lastmile_qr_scan", "ios": "https://dc.lft.to/lastmile_qr_scan"}, "lon": -77.0684005, "name": "9df67e9260c272c1173102c8bdb223fd", "fusion_lon": 0.0, "bike_id": "9df67e9260c272c1173102c8bdb223fd", "is_reserved": 0, "type": "electric_scooter", "lat": 38.90386566666667, "fusion_lat": 0.0, "is_disabled": 0}, {"rental_uris": {"android": "https://dc.lft.to/lastmile_qr_scan", "ios": "https://dc.lft.to/lastmile_qr_scan"}, "lon": -77.01113466666666, "name": "b7b377e5316a211c4cb642f10c80013b", "fusion_lon": 0.0, "bike_id": "b7b377e5316a211c4cb642f10c80013b", "is_reserved": 0, "type": "electric_scooter", "lat": 38.89560433333333, "fusion_lat": 0.0, "is_disabled": 0}, {"rental_uris": {"android": "https://dc.lft.to/lastmile_qr_scan", "ios": "https://dc.lft.to/lastmile_qr_scan"}, "lon": -77.0439925, "name": "02bbb08610cb1fb15859c3e4f47ea9c6", "fusion_lon": 0.0, "bike_id": "02bbb08610cb1fb15859c3e4f47ea9c6", "is_reserved": 0, "type": "electric_scooter", "lat": 38.9090815, "fusion_lat": 0.0, "is_disabled": 0}, {"rental_uris": {"android": "https://dc.lft.to/lastmile_qr_scan", "ios": "https://dc.lft.to/lastmile_qr_scan"}, "lon": -76.9883655, "name": "de5d040df84dc5ff005fd6e650998775", "fusion_lon": 0.0, "bike_id": "de5d040df84dc5ff005fd6e650998775", "is_reserved": 0, "type": "electric_scooter", "lat": 38.90037016666667, "fusion_lat": 0.0, "is_disabled": 0}, {"rental_uris": {"android": "https://dc.lft.to/lastmile_qr_scan", "ios": "https://dc.lft.to/lastmile_qr_scan"}, "lon": -77.04632716666667, "name": "e2ca18f7877819ff2524caa5a90e8710", "fusion_lon": 0.0, "bike_id": "e2ca18f7877819ff2524caa5a90e8710", "is_reserved": 0, "type": "electric_scooter", "lat": 38.894993, "fusion_lat": 0.0, "is_disabled": 0}, {"rental_uris": {"android": "https://dc.lft.to/lastmile_qr_scan", "ios": "https://dc.lft.to/lastmile_qr_scan"}, "lon": -77.01625766666666, "name": "03badcce165409fe9e0f9af4547233b3", "fusion_lon": 0.0, "bike_id": "03badcce165409fe9e0f9af4547233b3", "is_reserved": 0, "type": "electric_scooter", "lat": 38.92720116666667, "fusion_lat": 0.0, "is_disabled": 0}, {"rental_uris": {"android": "https://dc.lft.to/lastmile_qr_scan", "ios": "https://dc.lft.to/lastmile_qr_scan"}, "lon": -77.05024416666667, "name": "8c06bf7cb1b7cb0be78f406fcf9b50b3", "fusion_lon": 0.0, "bike_id": "8c06bf7cb1b7cb0be78f406fcf9b50b3", "is_reserved": 0, "type": "electric_scooter", "lat": 38.923644833333334, "fusion_lat": 0.0, "is_disabled": 0}, {"rental_uris": {"android": "https://dc.lft.to/lastmile_qr_scan", "ios": "https://dc.lft.to/lastmile_qr_scan"}, "lon": -77.0447885, "name": "7d61b72590c1ca7afd7e149f9abf6813", "fusion_lon": 0.0, "bike_id": "7d61b72590c1ca7afd7e149f9abf6813", "is_reserved": 0, "type": "electric_scooter", "lat": 38.908201166666665, "fusion_lat": 0.0, "is_disabled": 0}, {"rental_uris": {"android": "https://dc.lft.to/lastmile_qr_scan", "ios": "https://dc.lft.to/lastmile_qr_scan"}, "lon": -77.022069, "name": "6aebbb2a2bd381e4944eb3af32c221ed", "fusion_lon": 0.0, "bike_id": "6aebbb2a2bd381e4944eb3af32c221ed", "is_reserved": 0, "type": "electric_scooter", "lat": 38.9126805, "fusion_lat": 0.0, "is_disabled": 0}, {"rental_uris": {"android": "https://dc.lft.to/lastmile_qr_scan", "ios": "https://dc.lft.to/lastmile_qr_scan"}, "lon": -76.9956645, "name": "0285b516b9476c244d0b61714e67c90c", "fusion_lon": 0.0, "bike_id": "0285b516b9476c244d0b61714e67c90c", "is_reserved": 0, "type": "electric_scooter", "lat": 38.955416, "fusion_lat": 0.0, "is_disabled": 0}, {"rental_uris": {"android": "https://dc.lft.to/lastmile_qr_scan", "ios": "https://dc.lft.to/lastmile_qr_scan"}, "lon": -77.048592, "name": "c7e5b79cc8b3195e6314610a26ab0e8e", "fusion_lon": 0.0, "bike_id": "c7e5b79cc8b3195e6314610a26ab0e8e", "is_reserved": 0, "type": "electric_scooter", "lat": 38.90169266666667, "fusion_lat": 0.0, "is_disabled": 0}, {"rental_uris": {"android": "https://dc.lft.to/lastmile_qr_scan", "ios": "https://dc.lft.to/lastmile_qr_scan"}, "lon": -77.03433933333334, "name": "e87c24f1e482d706b0fd8a31dc7eedfc", "fusion_lon": 0.0, "bike_id": "e87c24f1e482d706b0fd8a31dc7eedfc", "is_reserved": 0, "type": "electric_scooter", "lat": 38.909747333333335, "fusion_lat": 0.0, "is_disabled": 0}, {"rental_uris": {"android": "https://dc.lft.to/lastmile_qr_scan", "ios": "https://dc.lft.to/lastmile_qr_scan"}, "lon": -77.03622533333333, "name": "5757f8d1eb5ec90b43f4993e769d5586", "fusion_lon": 0.0, "bike_id": "5757f8d1eb5ec90b43f4993e769d5586", "is_reserved": 0, "type": "electric_scooter", "lat": 38.928040833333334, "fusion_lat": 0.0, "is_disabled": 0}, {"rental_uris": {"android": "https://dc.lft.to/lastmile_qr_scan", "ios": "https://dc.lft.to/lastmile_qr_scan"}, "lon": -77.02375383333333, "name": "5f3b112373f4004b48f022ba9b238069", "fusion_lon": 0.0, "bike_id": "5f3b112373f4004b48f022ba9b238069", "is_reserved": 0, "type": "electric_scooter", "lat": 38.90207933333333, "fusion_lat": 0.0, "is_disabled": 0}, {"rental_uris": {"android": "https://dc.lft.to/lastmile_qr_scan", "ios": "https://dc.lft.to/lastmile_qr_scan"}, "lon": -77.06018266666666, "name": "1c0adecef9d00c3b398dc63456773d14", "fusion_lon": 0.0, "bike_id": "1c0adecef9d00c3b398dc63456773d14", "is_reserved": 0, "type": "electric_scooter", "lat": 38.905038, "fusion_lat": 0.0, "is_disabled": 0}, {"rental_uris": {"android": "https://dc.lft.to/lastmile_qr_scan", "ios": "https://dc.lft.to/lastmile_qr_scan"}, "lon": -77.05086616666667, "name": "e6328cb8e1d1b2dd86206d28296c69c6", "fusion_lon": 0.0, "bike_id": "e6328cb8e1d1b2dd86206d28296c69c6", "is_reserved": 0, "type": "electric_scooter", "lat": 38.92341666666667, "fusion_lat": 0.0, "is_disabled": 0}, {"rental_uris": {"android": "https://dc.lft.to/lastmile_qr_scan", "ios": "https://dc.lft.to/lastmile_qr_scan"}, "lon": -77.02732383333333, "name": "28d3126ba768eacf155ad2515a2c3565", "fusion_lon": 0.0, "bike_id": "28d3126ba768eacf155ad2515a2c3565", "is_reserved": 0, "type": "electric_scooter", "lat": 38.898516, "fusion_lat": 0.0, "is_disabled": 0}, {"rental_uris": {"android": "https://dc.lft.to/lastmile_qr_scan", "ios": "https://dc.lft.to/lastmile_qr_scan"}, "lon": -77.00206083333333, "name": "5551a2bb9cf950a247a2efe13fd651fd", "fusion_lon": 0.0, "bike_id": "5551a2bb9cf950a247a2efe13fd651fd", "is_reserved": 0, "type": "electric_scooter", "lat": 38.891065, "fusion_lat": 0.0, "is_disabled": 0}, {"rental_uris": {"android": "https://dc.lft.to/lastmile_qr_scan", "ios": "https://dc.lft.to/lastmile_qr_scan"}, "lon": -77.03356866666667, "name": "55901d22972a106445616175f1a431bf", "fusion_lon": 0.0, "bike_id": "55901d22972a106445616175f1a431bf", "is_reserved": 0, "type": "electric_scooter", "lat": 38.89538266666667, "fusion_lat": 0.0, "is_disabled": 0}, {"rental_uris": {"android": "https://dc.lft.to/lastmile_qr_scan", "ios": "https://dc.lft.to/lastmile_qr_scan"}, "lon": -77.01800533333333, "name": "ad6490b5676346d275178c6d4230a035", "fusion_lon": 0.0, "bike_id": "ad6490b5676346d275178c6d4230a035", "is_reserved": 0, "type": "electric_scooter", "lat": 38.914223, "fusion_lat": 0.0, "is_disabled": 0}, {"rental_uris": {"android": "https://dc.lft.to/lastmile_qr_scan", "ios": "https://dc.lft.to/lastmile_qr_scan"}, "lon": -76.97877783333334, "name": "95d570d1e740c8940bc58763cf4328b3", "fusion_lon": 0.0, "bike_id": "95d570d1e740c8940bc58763cf4328b3", "is_reserved": 0, "type": "electric_bike", "lat": 38.89885916666667, "fusion_lat": 0.0, "is_disabled": 0}, {"rental_uris": {"android": "https://dc.lft.to/lastmile_qr_scan", "ios": "https://dc.lft.to/lastmile_qr_scan"}, "lon": -77.021536, "name": "aa68ae0d4bbb5ac65cef80ce8c0974ac", "fusion_lon": 0.0, "bike_id": "aa68ae0d4bbb5ac65cef80ce8c0974ac", "is_reserved": 0, "type": "electric_scooter", "lat": 38.879261166666666, "fusion_lat": 0.0, "is_disabled": 0}, {"rental_uris": {"android": "https://dc.lft.to/lastmile_qr_scan", "ios": "https://dc.lft.to/lastmile_qr_scan"}, "lon": -77.00793083333333, "name": "ddbf900a159b6b94a21dbc719a107453", "fusion_lon": 0.0, "bike_id": "ddbf900a159b6b94a21dbc719a107453", "is_reserved": 0, "type": "electric_scooter", "lat": 38.89716933333333, "fusion_lat": 0.0, "is_disabled": 0}, {"rental_uris": {"android": "https://dc.lft.to/lastmile_qr_scan", "ios": "https://dc.lft.to/lastmile_qr_scan"}, "lon": -77.01028266666667, "name": "bccadeccfe1885802876e435c33a146d", "fusion_lon": 0.0, "bike_id": "bccadeccfe1885802876e435c33a146d", "is_reserved": 0, "type": "electric_scooter", "lat": 38.91651683333333, "fusion_lat": 0.0, "is_disabled": 0}, {"rental_uris": {"android": "https://dc.lft.to/lastmile_qr_scan", "ios": "https://dc.lft.to/lastmile_qr_scan"}, "lon": -77.0433885, "name": "e31e2e0c36e150a9db1c78a9ffc5a1bd", "fusion_lon": 0.0, "bike_id": "e31e2e0c36e150a9db1c78a9ffc5a1bd", "is_reserved": 0, "type": "electric_scooter", "lat": 38.90614216666667, "fusion_lat": 0.0, "is_disabled": 0}, {"rental_uris": {"android": "https://dc.lft.to/lastmile_qr_scan", "ios": "https://dc.lft.to/lastmile_qr_scan"}, "lon": -77.0215125, "name": "f9abf113e556f12913f28cd27cd33aac", "fusion_lon": 0.0, "bike_id": "f9abf113e556f12913f28cd27cd33aac", "is_reserved": 0, "type": "electric_scooter", "lat": 38.926045, "fusion_lat": 0.0, "is_disabled": 0}, {"rental_uris": {"android": "https://dc.lft.to/lastmile_qr_scan", "ios": "https://dc.lft.to/lastmile_qr_scan"}, "lon": -76.980785, "name": "788cee560e5670d13cab637a36e26783", "fusion_lon": 0.0, "bike_id": "788cee560e5670d13cab637a36e26783", "is_reserved": 0, "type": "electric_scooter", "lat": 38.901626, "fusion_lat": 0.0, "is_disabled": 0}, {"rental_uris": {"android": "https://dc.lft.to/lastmile_qr_scan", "ios": "https://dc.lft.to/lastmile_qr_scan"}, "lon": -76.99328233333334, "name": "8abcc6649681f6dab2d5480c91637d65", "fusion_lon": 0.0, "bike_id": "8abcc6649681f6dab2d5480c91637d65", "is_reserved": 0, "type": "electric_scooter", "lat": 38.906240333333336, "fusion_lat": 0.0, "is_disabled": 0}, {"rental_uris": {"android": "https://dc.lft.to/lastmile_qr_scan", "ios": "https://dc.lft.to/lastmile_qr_scan"}, "lon": -77.02180516666667, "name": "10335447bb25b00f208ca1dd6523fa15", "fusion_lon": 0.0, "bike_id": "10335447bb25b00f208ca1dd6523fa15", "is_reserved": 0, "type": "electric_scooter", "lat": 38.902085166666666, "fusion_lat": 0.0, "is_disabled": 0}, {"rental_uris": {"android": "https://dc.lft.to/lastmile_qr_scan", "ios": "https://dc.lft.to/lastmile_qr_scan"}, "lon": -77.000591, "name": "f0f690ba273f137a51af071d04833a66", "fusion_lon": 0.0, "bike_id": "f0f690ba273f137a51af071d04833a66", "is_reserved": 0, "type": "electric_scooter", "lat": 38.899922333333336, "fusion_lat": 0.0, "is_disabled": 0}, {"rental_uris": {"android": "https://dc.lft.to/lastmile_qr_scan", "ios": "https://dc.lft.to/lastmile_qr_scan"}, "lon": -77.00222583333333, "name": "dd4d35030dc6a8269f7e72ffe3185425", "fusion_lon": 0.0, "bike_id": "dd4d35030dc6a8269f7e72ffe3185425", "is_reserved": 0, "type": "electric_scooter", "lat": 38.907274666666666, "fusion_lat": 0.0, "is_disabled": 0}, {"rental_uris": {"android": "https://dc.lft.to/lastmile_qr_scan", "ios": "https://dc.lft.to/lastmile_qr_scan"}, "lon": -77.01949266666666, "name": "2653c245e9c25f889e5c4f2ecd2df019", "fusion_lon": 0.0, "bike_id": "2653c245e9c25f889e5c4f2ecd2df019", "is_reserved": 0, "type": "electric_scooter", "lat": 38.92250466666667, "fusion_lat": 0.0, "is_disabled": 0}, {"rental_uris": {"android": "https://dc.lft.to/lastmile_qr_scan", "ios": "https://dc.lft.to/lastmile_qr_scan"}, "lon": -77.031542, "name": "550a5e329b123d0e48daa88e6de7a966", "fusion_lon": 0.0, "bike_id": "550a5e329b123d0e48daa88e6de7a966", "is_reserved": 0, "type": "electric_scooter", "lat": 38.9012055, "fusion_lat": 0.0, "is_disabled": 0}, {"rental_uris": {"android": "https://dc.lft.to/lastmile_qr_scan", "ios": "https://dc.lft.to/lastmile_qr_scan"}, "lon": -77.0220105, "name": "ab1f4ac8245417c28044784fa3bea711", "fusion_lon": 0.0, "bike_id": "ab1f4ac8245417c28044784fa3bea711", "is_reserved": 0, "type": "electric_scooter", "lat": 38.91547116666667, "fusion_lat": 0.0, "is_disabled": 0}, {"rental_uris": {"android": "https://dc.lft.to/lastmile_qr_scan", "ios": "https://dc.lft.to/lastmile_qr_scan"}, "lon": -76.97681016666667, "name": "4c2aead57cea0214bc20d0cb679faac2", "fusion_lon": 0.0, "bike_id": "4c2aead57cea0214bc20d0cb679faac2", "is_reserved": 0, "type": "electric_scooter", "lat": 38.8961405, "fusion_lat": 0.0, "is_disabled": 0}, {"rental_uris": {"android": "https://dc.lft.to/lastmile_qr_scan", "ios": "https://dc.lft.to/lastmile_qr_scan"}, "lon": -76.92999183333333, "name": "4b0010e0e0856467be45b60c6f997691", "fusion_lon": 0.0, "bike_id": "4b0010e0e0856467be45b60c6f997691", "is_reserved": 0, "type": "electric_scooter", "lat": 38.89275716666667, "fusion_lat": 0.0, "is_disabled": 0}, {"rental_uris": {"android": "https://dc.lft.to/lastmile_qr_scan", "ios": "https://dc.lft.to/lastmile_qr_scan"}, "lon": -76.93055216666667, "name": "bdd82af1d621f2caf5e2143c1bbcf818", "fusion_lon": 0.0, "bike_id": "bdd82af1d621f2caf5e2143c1bbcf818", "is_reserved": 0, "type": "electric_scooter", "lat": 38.88388, "fusion_lat": 0.0, "is_disabled": 0}, {"rental_uris": {"android": "https://dc.lft.to/lastmile_qr_scan", "ios": "https://dc.lft.to/lastmile_qr_scan"}, "lon": -76.93023016666666, "name": "ab11e2a73e550a872373b940cbef3afb", "fusion_lon": 0.0, "bike_id": "ab11e2a73e550a872373b940cbef3afb", "is_reserved": 0, "type": "electric_scooter", "lat": 38.900118166666665, "fusion_lat": 0.0, "is_disabled": 0}, {"rental_uris": {"android": "https://dc.lft.to/lastmile_qr_scan", "ios": "https://dc.lft.to/lastmile_qr_scan"}, "lon": -77.00337533333334, "name": "8d9a4781521c82c526ec7c08f47a8bac", "fusion_lon": 0.0, "bike_id": "8d9a4781521c82c526ec7c08f47a8bac", "is_reserved": 0, "type": "electric_scooter", "lat": 38.89921533333333, "fusion_lat": 0.0, "is_disabled": 0}, {"rental_uris": {"android": "https://dc.lft.to/lastmile_qr_scan", "ios": "https://dc.lft.to/lastmile_qr_scan"}, "lon": -76.94571816666667, "name": "a016836f73d1a22b0676c1e384b499a5", "fusion_lon": 0.0, "bike_id": "a016836f73d1a22b0676c1e384b499a5", "is_reserved": 0, "type": "electric_bike", "lat": 38.86625266666667, "fusion_lat": 0.0, "is_disabled": 0}, {"rental_uris": {"android": "https://dc.lft.to/lastmile_qr_scan", "ios": "https://dc.lft.to/lastmile_qr_scan"}, "lon": -77.0316595, "name": "c47544b2161ded71dc83a3f20ea7b560", "fusion_lon": 0.0, "bike_id": "c47544b2161ded71dc83a3f20ea7b560", "is_reserved": 0, "type": "electric_scooter", "lat": 38.918262, "fusion_lat": 0.0, "is_disabled": 0}, {"rental_uris": {"android": "https://dc.lft.to/lastmile_qr_scan", "ios": "https://dc.lft.to/lastmile_qr_scan"}, "lon": -76.9971035, "name": "75c5e5caf580db0a82bb6c6f5aa13a9a", "fusion_lon": 0.0, "bike_id": "75c5e5caf580db0a82bb6c6f5aa13a9a", "is_reserved": 0, "type": "electric_scooter", "lat": 38.894699, "fusion_lat": 0.0, "is_disabled": 0}, {"rental_uris": {"android": "https://dc.lft.to/lastmile_qr_scan", "ios": "https://dc.lft.to/lastmile_qr_scan"}, "lon": -77.0242655, "name": "1db98987608d4aa2bca86337b7043a5b", "fusion_lon": 0.0, "bike_id": "1db98987608d4aa2bca86337b7043a5b", "is_reserved": 0, "type": "electric_scooter", "lat": 38.921547833333335, "fusion_lat": 0.0, "is_disabled": 0}, {"rental_uris": {"android": "https://dc.lft.to/lastmile_qr_scan", "ios": "https://dc.lft.to/lastmile_qr_scan"}, "lon": -77.0034525, "name": "255343fd972e66f1eae42d8692beafd0", "fusion_lon": 0.0, "bike_id": "255343fd972e66f1eae42d8692beafd0", "is_reserved": 0, "type": "electric_scooter", "lat": 38.88739783333333, "fusion_lat": 0.0, "is_disabled": 0}, {"rental_uris": {"android": "https://dc.lft.to/lastmile_qr_scan", "ios": "https://dc.lft.to/lastmile_qr_scan"}, "lon": -77.0334525, "name": "9c41b74d36dfefe0935a1342135d3f39", "fusion_lon": 0.0, "bike_id": "9c41b74d36dfefe0935a1342135d3f39", "is_reserved": 0, "type": "electric_scooter", "lat": 38.89727933333333, "fusion_lat": 0.0, "is_disabled": 0}, {"rental_uris": {"android": "https://dc.lft.to/lastmile_qr_scan", "ios": "https://dc.lft.to/lastmile_qr_scan"}, "lon": -77.02147666666667, "name": "fb28620e65ff3f18bf07123df704b54c", "fusion_lon": 0.0, "bike_id": "fb28620e65ff3f18bf07123df704b54c", "is_reserved": 0, "type": "electric_scooter", "lat": 38.89410816666667, "fusion_lat": 0.0, "is_disabled": 0}, {"rental_uris": {"android": "https://dc.lft.to/lastmile_qr_scan", "ios": "https://dc.lft.to/lastmile_qr_scan"}, "lon": -77.00017583333333, "name": "ce52d6d37acb25156a56a265e1e0c899", "fusion_lon": 0.0, "bike_id": "ce52d6d37acb25156a56a265e1e0c899", "is_reserved": 0, "type": "electric_scooter", "lat": 38.95914066666667, "fusion_lat": 0.0, "is_disabled": 0}, {"rental_uris": {"android": "https://dc.lft.to/lastmile_qr_scan", "ios": "https://dc.lft.to/lastmile_qr_scan"}, "lon": -77.0762095, "name": "2e97cc79af4f1caf084b6abc3a8f3045", "fusion_lon": 0.0, "bike_id": "2e97cc79af4f1caf084b6abc3a8f3045", "is_reserved": 0, "type": "electric_bike", "lat": 38.90609083333333, "fusion_lat": 0.0, "is_disabled": 0}, {"rental_uris": {"android": "https://dc.lft.to/lastmile_qr_scan", "ios": "https://dc.lft.to/lastmile_qr_scan"}, "lon": -77.031773, "name": "8e4b1d7a3cb47752a0ce63e24e7afcd8", "fusion_lon": 0.0, "bike_id": "8e4b1d7a3cb47752a0ce63e24e7afcd8", "is_reserved": 0, "type": "electric_scooter", "lat": 38.907297666666665, "fusion_lat": 0.0, "is_disabled": 0}, {"rental_uris": {"android": "https://dc.lft.to/lastmile_qr_scan", "ios": "https://dc.lft.to/lastmile_qr_scan"}, "lon": -76.98400733333334, "name": "d272313e115a41065038c38154d7deb3", "fusion_lon": 0.0, "bike_id": "d272313e115a41065038c38154d7deb3", "is_reserved": 0, "type": "electric_scooter", "lat": 38.879964666666666, "fusion_lat": 0.0, "is_disabled": 0}, {"rental_uris": {"android": "https://dc.lft.to/lastmile_qr_scan", "ios": "https://dc.lft.to/lastmile_qr_scan"}, "lon": -77.0039105, "name": "666216a405b63a01b7fe5847d07e581a", "fusion_lon": 0.0, "bike_id": "666216a405b63a01b7fe5847d07e581a", "is_reserved": 0, "type": "electric_bike", "lat": 38.876708, "fusion_lat": 0.0, "is_disabled": 0}, {"rental_uris": {"android": "https://dc.lft.to/lastmile_qr_scan", "ios": "https://dc.lft.to/lastmile_qr_scan"}, "lon": -77.0247725, "name": "8a5747f0353776c48557110701bc67e6", "fusion_lon": 0.0, "bike_id": "8a5747f0353776c48557110701bc67e6", "is_reserved": 0, "type": "electric_scooter", "lat": 38.90169683333333, "fusion_lat": 0.0, "is_disabled": 0}, {"rental_uris": {"android": "https://dc.lft.to/lastmile_qr_scan", "ios": "https://dc.lft.to/lastmile_qr_scan"}, "lon": -77.038329, "name": "c6deaaaddd7a1ffc2773e1f9c3cdcab8", "fusion_lon": 0.0, "bike_id": "c6deaaaddd7a1ffc2773e1f9c3cdcab8", "is_reserved": 0, "type": "electric_scooter", "lat": 38.91192383333333, "fusion_lat": 0.0, "is_disabled": 0}, {"rental_uris": {"android": "https://dc.lft.to/lastmile_qr_scan", "ios": "https://dc.lft.to/lastmile_qr_scan"}, "lon": -76.99068483333333, "name": "b9c35c880a867909e1640a0a50f3184d", "fusion_lon": 0.0, "bike_id": "b9c35c880a867909e1640a0a50f3184d", "is_reserved": 0, "type": "electric_bike", "lat": 38.942632333333336, "fusion_lat": 0.0, "is_disabled": 0}, {"rental_uris": {"android": "https://dc.lft.to/lastmile_qr_scan", "ios": "https://dc.lft.to/lastmile_qr_scan"}, "lon": -77.04619966666667, "name": "b3d1c55b86efd415505907e1a85d04df", "fusion_lon": 0.0, "bike_id": "b3d1c55b86efd415505907e1a85d04df", "is_reserved": 0, "type": "electric_scooter", "lat": 38.896117333333336, "fusion_lat": 0.0, "is_disabled": 0}, {"rental_uris": {"android": "https://dc.lft.to/lastmile_qr_scan", "ios": "https://dc.lft.to/lastmile_qr_scan"}, "lon": -76.98821166666667, "name": "a765c64956f84767864f8d63d80e40a1", "fusion_lon": 0.0, "bike_id": "a765c64956f84767864f8d63d80e40a1", "is_reserved": 0, "type": "electric_scooter", "lat": 38.90037733333333, "fusion_lat": 0.0, "is_disabled": 0}, {"rental_uris": {"android": "https://dc.lft.to/lastmile_qr_scan", "ios": "https://dc.lft.to/lastmile_qr_scan"}, "lon": -77.08377183333333, "name": "d361971329e35f83a8527e5974ab99dc", "fusion_lon": 0.0, "bike_id": "d361971329e35f83a8527e5974ab99dc", "is_reserved": 0, "type": "electric_bike", "lat": 38.8303165, "fusion_lat": 0.0, "is_disabled": 0}, {"rental_uris": {"android": "https://dc.lft.to/lastmile_qr_scan", "ios": "https://dc.lft.to/lastmile_qr_scan"}, "lon": -77.02079383333333, "name": "78cc9a4a57b9c2d74f7ae7be96129f0f", "fusion_lon": 0.0, "bike_id": "78cc9a4a57b9c2d74f7ae7be96129f0f", "is_reserved": 0, "type": "electric_scooter", "lat": 38.92109933333333, "fusion_lat": 0.0, "is_disabled": 0}, {"rental_uris": {"android": "https://dc.lft.to/lastmile_qr_scan", "ios": "https://dc.lft.to/lastmile_qr_scan"}, "lon": -77.0279985, "name": "af8f8b9b04decdbed46a7f2b527d1da8", "fusion_lon": 0.0, "bike_id": "af8f8b9b04decdbed46a7f2b527d1da8", "is_reserved": 0, "type": "electric_scooter", "lat": 38.9445165, "fusion_lat": 0.0, "is_disabled": 0}, {"rental_uris": {"android": "https://dc.lft.to/lastmile_qr_scan", "ios": "https://dc.lft.to/lastmile_qr_scan"}, "lon": -77.01058233333333, "name": "20d1994df87d3ff3a3157a8002186833", "fusion_lon": 0.0, "bike_id": "20d1994df87d3ff3a3157a8002186833", "is_reserved": 0, "type": "electric_scooter", "lat": 38.91634283333333, "fusion_lat": 0.0, "is_disabled": 0}, {"rental_uris": {"android": "https://dc.lft.to/lastmile_qr_scan", "ios": "https://dc.lft.to/lastmile_qr_scan"}, "lon": -77.0229725, "name": "862d4b257cb693fc5d684761d02cd4d4", "fusion_lon": 0.0, "bike_id": "862d4b257cb693fc5d684761d02cd4d4", "is_reserved": 0, "type": "electric_scooter", "lat": 38.92783383333333, "fusion_lat": 0.0, "is_disabled": 0}, {"rental_uris": {"android": "https://dc.lft.to/lastmile_qr_scan", "ios": "https://dc.lft.to/lastmile_qr_scan"}, "lon": -77.0033425, "name": "d641bdddf407c6ec1ac209f8cc333158", "fusion_lon": 0.0, "bike_id": "d641bdddf407c6ec1ac209f8cc333158", "is_reserved": 0, "type": "electric_scooter", "lat": 38.89727583333333, "fusion_lat": 0.0, "is_disabled": 0}, {"rental_uris": {"android": "https://dc.lft.to/lastmile_qr_scan", "ios": "https://dc.lft.to/lastmile_qr_scan"}, "lon": -77.02049916666667, "name": "6d809bb401af44f2ee9c70222069112b", "fusion_lon": 0.0, "bike_id": "6d809bb401af44f2ee9c70222069112b", "is_reserved": 0, "type": "electric_scooter", "lat": 38.92362166666667, "fusion_lat": 0.0, "is_disabled": 0}, {"rental_uris": {"android": "https://dc.lft.to/lastmile_qr_scan", "ios": "https://dc.lft.to/lastmile_qr_scan"}, "lon": -77.02693033333334, "name": "480b3bf6f783740fe994b9033e26585f", "fusion_lon": 0.0, "bike_id": "480b3bf6f783740fe994b9033e26585f", "is_reserved": 0, "type": "electric_scooter", "lat": 38.906858, "fusion_lat": 0.0, "is_disabled": 0}, {"rental_uris": {"android": "https://dc.lft.to/lastmile_qr_scan", "ios": "https://dc.lft.to/lastmile_qr_scan"}, "lon": -76.98749733333334, "name": "fad6d9b7c0b9354a176ca85b9a258b02", "fusion_lon": 0.0, "bike_id": "fad6d9b7c0b9354a176ca85b9a258b02", "is_reserved": 0, "type": "electric_bike", "lat": 38.85778966666667, "fusion_lat": 0.0, "is_disabled": 0}, {"rental_uris": {"android": "https://dc.lft.to/lastmile_qr_scan", "ios": "https://dc.lft.to/lastmile_qr_scan"}, "lon": -76.98394316666666, "name": "73da15e5cde70664e47b350df26c7870", "fusion_lon": 0.0, "bike_id": "73da15e5cde70664e47b350df26c7870", "is_reserved": 0, "type": "electric_scooter", "lat": 38.915754666666665, "fusion_lat": 0.0, "is_disabled": 0}, {"rental_uris": {"android": "https://dc.lft.to/lastmile_qr_scan", "ios": "https://dc.lft.to/lastmile_qr_scan"}, "lon": -77.021297, "name": "82af62de82114b7e0dd351e8273b2085", "fusion_lon": 0.0, "bike_id": "82af62de82114b7e0dd351e8273b2085", "is_reserved": 0, "type": "electric_scooter", "lat": 38.91910583333333, "fusion_lat": 0.0, "is_disabled": 0}, {"rental_uris": {"android": "https://dc.lft.to/lastmile_qr_scan", "ios": "https://dc.lft.to/lastmile_qr_scan"}, "lon": -77.03320083333334, "name": "5267e61888766c7806fa1c2584241158", "fusion_lon": 0.0, "bike_id": "5267e61888766c7806fa1c2584241158", "is_reserved": 0, "type": "electric_scooter", "lat": 38.9388945, "fusion_lat": 0.0, "is_disabled": 0}, {"rental_uris": {"android": "https://dc.lft.to/lastmile_qr_scan", "ios": "https://dc.lft.to/lastmile_qr_scan"}, "lon": -77.02274816666667, "name": "68ef6d000ba44ea7e36de5a50b7c4369", "fusion_lon": 0.0, "bike_id": "68ef6d000ba44ea7e36de5a50b7c4369", "is_reserved": 0, "type": "electric_scooter", "lat": 38.92665516666667, "fusion_lat": 0.0, "is_disabled": 0}, {"rental_uris": {"android": "https://dc.lft.to/lastmile_qr_scan", "ios": "https://dc.lft.to/lastmile_qr_scan"}, "lon": -76.994864, "name": "314e2615ae683ec811454e1f80323f5b", "fusion_lon": 0.0, "bike_id": "314e2615ae683ec811454e1f80323f5b", "is_reserved": 0, "type": "electric_scooter", "lat": 38.89210083333333, "fusion_lat": 0.0, "is_disabled": 0}, {"rental_uris": {"android": "https://dc.lft.to/lastmile_qr_scan", "ios": "https://dc.lft.to/lastmile_qr_scan"}, "lon": -77.11348033333333, "name": "853a1244486ed0ed3f085dc0df04e031", "fusion_lon": 0.0, "bike_id": "853a1244486ed0ed3f085dc0df04e031", "is_reserved": 0, "type": "electric_bike", "lat": 38.831390999999996, "fusion_lat": 0.0, "is_disabled": 0}, {"rental_uris": {"android": "https://dc.lft.to/lastmile_qr_scan", "ios": "https://dc.lft.to/lastmile_qr_scan"}, "lon": -77.0233675, "name": "0bd002ec62ffb75aa0148fa3a05143d4", "fusion_lon": 0.0, "bike_id": "0bd002ec62ffb75aa0148fa3a05143d4", "is_reserved": 0, "type": "electric_scooter", "lat": 38.94169466666666, "fusion_lat": 0.0, "is_disabled": 0}, {"rental_uris": {"android": "https://dc.lft.to/lastmile_qr_scan", "ios": "https://dc.lft.to/lastmile_qr_scan"}, "lon": -77.03789916666666, "name": "293e68c7a563ec0f5e1ce11280e304c5", "fusion_lon": 0.0, "bike_id": "293e68c7a563ec0f5e1ce11280e304c5", "is_reserved": 0, "type": "electric_scooter", "lat": 38.920692833333334, "fusion_lat": 0.0, "is_disabled": 0}, {"rental_uris": {"android": "https://dc.lft.to/lastmile_qr_scan", "ios": "https://dc.lft.to/lastmile_qr_scan"}, "lon": -77.0644505, "name": "47c9c6a1f2c06ffdd7939f58647b3694", "fusion_lon": 0.0, "bike_id": "47c9c6a1f2c06ffdd7939f58647b3694", "is_reserved": 0, "type": "electric_scooter", "lat": 38.90786283333333, "fusion_lat": 0.0, "is_disabled": 0}, {"rental_uris": {"android": "https://dc.lft.to/lastmile_qr_scan", "ios": "https://dc.lft.to/lastmile_qr_scan"}, "lon": -76.94996783333333, "name": "e3f6ab4f8e2ab95ec2a441b2b13e3e1d", "fusion_lon": 0.0, "bike_id": "e3f6ab4f8e2ab95ec2a441b2b13e3e1d", "is_reserved": 0, "type": "electric_scooter", "lat": 38.90620666666667, "fusion_lat": 0.0, "is_disabled": 0}, {"rental_uris": {"android": "https://dc.lft.to/lastmile_qr_scan", "ios": "https://dc.lft.to/lastmile_qr_scan"}, "lon": -77.029442, "name": "2701770fbeb6811aabd1122bb333ed17", "fusion_lon": 0.0, "bike_id": "2701770fbeb6811aabd1122bb333ed17", "is_reserved": 0, "type": "electric_scooter", "lat": 38.916850833333335, "fusion_lat": 0.0, "is_disabled": 0}, {"rental_uris": {"android": "https://dc.lft.to/lastmile_qr_scan", "ios": "https://dc.lft.to/lastmile_qr_scan"}, "lon": -77.06294783333334, "name": "d9e930864a0d19e0d27d1963922d5361", "fusion_lon": 0.0, "bike_id": "d9e930864a0d19e0d27d1963922d5361", "is_reserved": 0, "type": "electric_scooter", "lat": 38.90396333333333, "fusion_lat": 0.0, "is_disabled": 0}, {"rental_uris": {"android": "https://dc.lft.to/lastmile_qr_scan", "ios": "https://dc.lft.to/lastmile_qr_scan"}, "lon": -76.98010683333334, "name": "7ff805720cc0dbef563499748ee173ae", "fusion_lon": 0.0, "bike_id": "7ff805720cc0dbef563499748ee173ae", "is_reserved": 0, "type": "electric_scooter", "lat": 38.89488883333333, "fusion_lat": 0.0, "is_disabled": 0}, {"rental_uris": {"android": "https://dc.lft.to/lastmile_qr_scan", "ios": "https://dc.lft.to/lastmile_qr_scan"}, "lon": -77.011129, "name": "e1c2eae18b8f88166a77280535a7db07", "fusion_lon": 0.0, "bike_id": "e1c2eae18b8f88166a77280535a7db07", "is_reserved": 0, "type": "electric_scooter", "lat": 38.885111, "fusion_lat": 0.0, "is_disabled": 0}, {"rental_uris": {"android": "https://dc.lft.to/lastmile_qr_scan", "ios": "https://dc.lft.to/lastmile_qr_scan"}, "lon": -77.0320395, "name": "01e0091f72a0c44064e7f92fa471e6b9", "fusion_lon": 0.0, "bike_id": "01e0091f72a0c44064e7f92fa471e6b9", "is_reserved": 0, "type": "electric_scooter", "lat": 38.907399833333336, "fusion_lat": 0.0, "is_disabled": 0}, {"rental_uris": {"android": "https://dc.lft.to/lastmile_qr_scan", "ios": "https://dc.lft.to/lastmile_qr_scan"}, "lon": -77.03205716666666, "name": "280515c48cbd0241ef5308a3cd21eded", "fusion_lon": 0.0, "bike_id": "280515c48cbd0241ef5308a3cd21eded", "is_reserved": 0, "type": "electric_scooter", "lat": 38.9153865, "fusion_lat": 0.0, "is_disabled": 0}, {"rental_uris": {"android": "https://dc.lft.to/lastmile_qr_scan", "ios": "https://dc.lft.to/lastmile_qr_scan"}, "lon": -77.014929, "name": "6362ce1ee0c67d55fef7fb7cd3851819", "fusion_lon": 0.0, "bike_id": "6362ce1ee0c67d55fef7fb7cd3851819", "is_reserved": 0, "type": "electric_scooter", "lat": 38.9433055, "fusion_lat": 0.0, "is_disabled": 0}, {"rental_uris": {"android": "https://dc.lft.to/lastmile_qr_scan", "ios": "https://dc.lft.to/lastmile_qr_scan"}, "lon": -77.02796616666667, "name": "e5c3283322231c0412635204cf0320b3", "fusion_lon": 0.0, "bike_id": "e5c3283322231c0412635204cf0320b3", "is_reserved": 0, "type": "electric_scooter", "lat": 38.90664833333334, "fusion_lat": 0.0, "is_disabled": 0}, {"rental_uris": {"android": "https://dc.lft.to/lastmile_qr_scan", "ios": "https://dc.lft.to/lastmile_qr_scan"}, "lon": -77.02498266666667, "name": "c6979b2daf37f4f1e4d4b5965fbf758e", "fusion_lon": 0.0, "bike_id": "c6979b2daf37f4f1e4d4b5965fbf758e", "is_reserved": 0, "type": "electric_scooter", "lat": 38.91982683333333, "fusion_lat": 0.0, "is_disabled": 0}, {"rental_uris": {"android": "https://dc.lft.to/lastmile_qr_scan", "ios": "https://dc.lft.to/lastmile_qr_scan"}, "lon": -77.02440766666666, "name": "375b9a76d94d8fb718c02967cf5ce3aa", "fusion_lon": 0.0, "bike_id": "375b9a76d94d8fb718c02967cf5ce3aa", "is_reserved": 0, "type": "electric_scooter", "lat": 38.93751966666667, "fusion_lat": 0.0, "is_disabled": 0}, {"rental_uris": {"android": "https://dc.lft.to/lastmile_qr_scan", "ios": "https://dc.lft.to/lastmile_qr_scan"}, "lon": -77.03339166666666, "name": "0c07ddc93456ef833cc4ccf4b0cba9a9", "fusion_lon": 0.0, "bike_id": "0c07ddc93456ef833cc4ccf4b0cba9a9", "is_reserved": 0, "type": "electric_scooter", "lat": 38.896869, "fusion_lat": 0.0, "is_disabled": 0}, {"rental_uris": {"android": "https://dc.lft.to/lastmile_qr_scan", "ios": "https://dc.lft.to/lastmile_qr_scan"}, "lon": -77.115097, "name": "6e937200ef86b2c1936214df774d5695", "fusion_lon": 0.0, "bike_id": "6e937200ef86b2c1936214df774d5695", "is_reserved": 0, "type": "electric_bike", "lat": 39.0746835, "fusion_lat": 0.0, "is_disabled": 0}, {"rental_uris": {"android": "https://dc.lft.to/lastmile_qr_scan", "ios": "https://dc.lft.to/lastmile_qr_scan"}, "lon": -77.0179685, "name": "3dbe21ccc4aab2b2eb0e32721b1d7929", "fusion_lon": 0.0, "bike_id": "3dbe21ccc4aab2b2eb0e32721b1d7929", "is_reserved": 0, "type": "electric_scooter", "lat": 38.9214195, "fusion_lat": 0.0, "is_disabled": 0}, {"rental_uris": {"android": "https://dc.lft.to/lastmile_qr_scan", "ios": "https://dc.lft.to/lastmile_qr_scan"}, "lon": -77.01407016666667, "name": "18283239e72f64411d6103fd9271d755", "fusion_lon": 0.0, "bike_id": "18283239e72f64411d6103fd9271d755", "is_reserved": 0, "type": "electric_scooter", "lat": 38.91552266666667, "fusion_lat": 0.0, "is_disabled": 0}, {"rental_uris": {"android": "https://dc.lft.to/lastmile_qr_scan", "ios": "https://dc.lft.to/lastmile_qr_scan"}, "lon": -77.0225195, "name": "249f2fd1a3c51bb6086b36dc1cf2ea46", "fusion_lon": 0.0, "bike_id": "249f2fd1a3c51bb6086b36dc1cf2ea46", "is_reserved": 0, "type": "electric_scooter", "lat": 38.912675666666665, "fusion_lat": 0.0, "is_disabled": 0}, {"rental_uris": {"android": "https://dc.lft.to/lastmile_qr_scan", "ios": "https://dc.lft.to/lastmile_qr_scan"}, "lon": -76.99458966666667, "name": "2058eea548a1eba7fdd03c015522d188", "fusion_lon": 0.0, "bike_id": "2058eea548a1eba7fdd03c015522d188", "is_reserved": 0, "type": "electric_scooter", "lat": 38.86221783333333, "fusion_lat": 0.0, "is_disabled": 0}, {"rental_uris": {"android": "https://dc.lft.to/lastmile_qr_scan", "ios": "https://dc.lft.to/lastmile_qr_scan"}, "lon": -77.0122195, "name": "65d672d5cf9441f2a07b2e4b8c6b3d0a", "fusion_lon": 0.0, "bike_id": "65d672d5cf9441f2a07b2e4b8c6b3d0a", "is_reserved": 0, "type": "electric_bike", "lat": 38.90142133333333, "fusion_lat": 0.0, "is_disabled": 0}, {"rental_uris": {"android": "https://dc.lft.to/lastmile_qr_scan", "ios": "https://dc.lft.to/lastmile_qr_scan"}, "lon": -77.00335116666666, "name": "7807461fa7d785cf5c5700fddef5f18e", "fusion_lon": 0.0, "bike_id": "7807461fa7d785cf5c5700fddef5f18e", "is_reserved": 0, "type": "electric_scooter", "lat": 38.8898945, "fusion_lat": 0.0, "is_disabled": 0}, {"rental_uris": {"android": "https://dc.lft.to/lastmile_qr_scan", "ios": "https://dc.lft.to/lastmile_qr_scan"}, "lon": -77.04407183333333, "name": "efb9a08a5e9c05baf7132d304086111b", "fusion_lon": 0.0, "bike_id": "efb9a08a5e9c05baf7132d304086111b", "is_reserved": 0, "type": "electric_scooter", "lat": 38.89598466666666, "fusion_lat": 0.0, "is_disabled": 0}, {"rental_uris": {"android": "https://dc.lft.to/lastmile_qr_scan", "ios": "https://dc.lft.to/lastmile_qr_scan"}, "lon": -77.03805083333333, "name": "c315f895912d5e8303ff39c50c48affe", "fusion_lon": 0.0, "bike_id": "c315f895912d5e8303ff39c50c48affe", "is_reserved": 0, "type": "electric_scooter", "lat": 38.90684366666667, "fusion_lat": 0.0, "is_disabled": 0}, {"rental_uris": {"android": "https://dc.lft.to/lastmile_qr_scan", "ios": "https://dc.lft.to/lastmile_qr_scan"}, "lon": -76.9901605, "name": "3b443c496c54c0672796832ccdcb2306", "fusion_lon": 0.0, "bike_id": "3b443c496c54c0672796832ccdcb2306", "is_reserved": 0, "type": "electric_scooter", "lat": 38.88273016666667, "fusion_lat": 0.0, "is_disabled": 0}, {"rental_uris": {"android": "https://dc.lft.to/lastmile_qr_scan", "ios": "https://dc.lft.to/lastmile_qr_scan"}, "lon": -77.032764, "name": "819172c1297b476313670546a00ac5d4", "fusion_lon": 0.0, "bike_id": "819172c1297b476313670546a00ac5d4", "is_reserved": 0, "type": "electric_scooter", "lat": 38.932527, "fusion_lat": 0.0, "is_disabled": 0}, {"rental_uris": {"android": "https://dc.lft.to/lastmile_qr_scan", "ios": "https://dc.lft.to/lastmile_qr_scan"}, "lon": -77.03325933333333, "name": "c90dd9e876607b2b6414998c9324058c", "fusion_lon": 0.0, "bike_id": "c90dd9e876607b2b6414998c9324058c", "is_reserved": 0, "type": "electric_scooter", "lat": 38.90244833333333, "fusion_lat": 0.0, "is_disabled": 0}, {"rental_uris": {"android": "https://dc.lft.to/lastmile_qr_scan", "ios": "https://dc.lft.to/lastmile_qr_scan"}, "lon": -77.04129183333333, "name": "f9691af49cbada0fc650d242cd8b5948", "fusion_lon": 0.0, "bike_id": "f9691af49cbada0fc650d242cd8b5948", "is_reserved": 0, "type": "electric_scooter", "lat": 38.925276333333336, "fusion_lat": 0.0, "is_disabled": 0}, {"rental_uris": {"android": "https://dc.lft.to/lastmile_qr_scan", "ios": "https://dc.lft.to/lastmile_qr_scan"}, "lon": -76.95768516666666, "name": "20fcb3d709d30e79db06dc99f1919c8d", "fusion_lon": 0.0, "bike_id": "20fcb3d709d30e79db06dc99f1919c8d", "is_reserved": 0, "type": "electric_scooter", "lat": 38.8844, "fusion_lat": 0.0, "is_disabled": 0}, {"rental_uris": {"android": "https://dc.lft.to/lastmile_qr_scan", "ios": "https://dc.lft.to/lastmile_qr_scan"}, "lon": -77.02513833333333, "name": "1264556f74a257dc624ddb5a0dd55490", "fusion_lon": 0.0, "bike_id": "1264556f74a257dc624ddb5a0dd55490", "is_reserved": 0, "type": "electric_scooter", "lat": 38.92082166666667, "fusion_lat": 0.0, "is_disabled": 0}, {"rental_uris": {"android": "https://dc.lft.to/lastmile_qr_scan", "ios": "https://dc.lft.to/lastmile_qr_scan"}, "lon": -77.00874533333334, "name": "297bdae8bbcbafa65e55eacc505b129e", "fusion_lon": 0.0, "bike_id": "297bdae8bbcbafa65e55eacc505b129e", "is_reserved": 0, "type": "electric_scooter", "lat": 38.8837505, "fusion_lat": 0.0, "is_disabled": 0}, {"rental_uris": {"android": "https://dc.lft.to/lastmile_qr_scan", "ios": "https://dc.lft.to/lastmile_qr_scan"}, "lon": -77.030828, "name": "f7303d4ac98e42c3fafd287089c1f7b1", "fusion_lon": 0.0, "bike_id": "f7303d4ac98e42c3fafd287089c1f7b1", "is_reserved": 0, "type": "electric_scooter", "lat": 38.92251266666667, "fusion_lat": 0.0, "is_disabled": 0}, {"rental_uris": {"android": "https://dc.lft.to/lastmile_qr_scan", "ios": "https://dc.lft.to/lastmile_qr_scan"}, "lon": -77.02138233333334, "name": "b70b28d6842f95322f1b361086491308", "fusion_lon": 0.0, "bike_id": "b70b28d6842f95322f1b361086491308", "is_reserved": 0, "type": "electric_scooter", "lat": 38.924890166666664, "fusion_lat": 0.0, "is_disabled": 0}, {"rental_uris": {"android": "https://dc.lft.to/lastmile_qr_scan", "ios": "https://dc.lft.to/lastmile_qr_scan"}, "lon": -77.07152633333334, "name": "fb78f21ff11eebf90db6add678df8873", "fusion_lon": 0.0, "bike_id": "fb78f21ff11eebf90db6add678df8873", "is_reserved": 0, "type": "electric_scooter", "lat": 38.9087235, "fusion_lat": 0.0, "is_disabled": 0}, {"rental_uris": {"android": "https://dc.lft.to/lastmile_qr_scan", "ios": "https://dc.lft.to/lastmile_qr_scan"}, "lon": -77.02445966666667, "name": "b81b59947930a630deab37ffd519f25d", "fusion_lon": 0.0, "bike_id": "b81b59947930a630deab37ffd519f25d", "is_reserved": 0, "type": "electric_scooter", "lat": 38.92092783333333, "fusion_lat": 0.0, "is_disabled": 0}, {"rental_uris": {"android": "https://dc.lft.to/lastmile_qr_scan", "ios": "https://dc.lft.to/lastmile_qr_scan"}, "lon": -77.02488233333334, "name": "c6fc5966a0fff27b6f73ee2eab78d4e5", "fusion_lon": 0.0, "bike_id": "c6fc5966a0fff27b6f73ee2eab78d4e5", "is_reserved": 0, "type": "electric_scooter", "lat": 38.928457333333334, "fusion_lat": 0.0, "is_disabled": 0}, {"rental_uris": {"android": "https://dc.lft.to/lastmile_qr_scan", "ios": "https://dc.lft.to/lastmile_qr_scan"}, "lon": -77.02505666666667, "name": "f607ceedeb5ab77bfb54153938dd6501", "fusion_lon": 0.0, "bike_id": "f607ceedeb5ab77bfb54153938dd6501", "is_reserved": 0, "type": "electric_scooter", "lat": 38.926431, "fusion_lat": 0.0, "is_disabled": 0}, {"rental_uris": {"android": "https://dc.lft.to/lastmile_qr_scan", "ios": "https://dc.lft.to/lastmile_qr_scan"}, "lon": -76.99270066666666, "name": "0355c5fb8b172b096c494a6b3114c26e", "fusion_lon": 0.0, "bike_id": "0355c5fb8b172b096c494a6b3114c26e", "is_reserved": 0, "type": "electric_scooter", "lat": 38.897746, "fusion_lat": 0.0, "is_disabled": 0}, {"rental_uris": {"android": "https://dc.lft.to/lastmile_qr_scan", "ios": "https://dc.lft.to/lastmile_qr_scan"}, "lon": -77.03788883333333, "name": "79843db3e954b039095f56c2d7bf9366", "fusion_lon": 0.0, "bike_id": "79843db3e954b039095f56c2d7bf9366", "is_reserved": 0, "type": "electric_scooter", "lat": 38.933225166666666, "fusion_lat": 0.0, "is_disabled": 0}, {"rental_uris": {"android": "https://dc.lft.to/lastmile_qr_scan", "ios": "https://dc.lft.to/lastmile_qr_scan"}, "lon": -77.019459, "name": "c502f1c60f04713b06f690291e890876", "fusion_lon": 0.0, "bike_id": "c502f1c60f04713b06f690291e890876", "is_reserved": 0, "type": "electric_scooter", "lat": 38.923699166666665, "fusion_lat": 0.0, "is_disabled": 0}, {"rental_uris": {"android": "https://dc.lft.to/lastmile_qr_scan", "ios": "https://dc.lft.to/lastmile_qr_scan"}, "lon": -77.059901, "name": "b8f612041502ae4ba0618d6de4503c28", "fusion_lon": 0.0, "bike_id": "b8f612041502ae4ba0618d6de4503c28", "is_reserved": 0, "type": "electric_scooter", "lat": 38.927125833333335, "fusion_lat": 0.0, "is_disabled": 0}, {"rental_uris": {"android": "https://dc.lft.to/lastmile_qr_scan", "ios": "https://dc.lft.to/lastmile_qr_scan"}, "lon": -76.97695916666666, "name": "9b66f32bce282b7cf5b596ed683f84e3", "fusion_lon": 0.0, "bike_id": "9b66f32bce282b7cf5b596ed683f84e3", "is_reserved": 0, "type": "electric_scooter", "lat": 38.89890116666667, "fusion_lat": 0.0, "is_disabled": 0}, {"rental_uris": {"android": "https://dc.lft.to/lastmile_qr_scan", "ios": "https://dc.lft.to/lastmile_qr_scan"}, "lon": -77.01989483333334, "name": "36b0cce571842c82c50952f514fc8890", "fusion_lon": 0.0, "bike_id": "36b0cce571842c82c50952f514fc8890", "is_reserved": 0, "type": "electric_scooter", "lat": 38.904934833333336, "fusion_lat": 0.0, "is_disabled": 0}, {"rental_uris": {"android": "https://dc.lft.to/lastmile_qr_scan", "ios": "https://dc.lft.to/lastmile_qr_scan"}, "lon": -76.99680316666667, "name": "18a9ac7fd42d42bf361911c77aa228e0", "fusion_lon": 0.0, "bike_id": "18a9ac7fd42d42bf361911c77aa228e0", "is_reserved": 0, "type": "electric_scooter", "lat": 38.88720166666667, "fusion_lat": 0.0, "is_disabled": 0}, {"rental_uris": {"android": "https://dc.lft.to/lastmile_qr_scan", "ios": "https://dc.lft.to/lastmile_qr_scan"}, "lon": -77.04479016666667, "name": "709d3b1222b1239671c44737d0cbe88c", "fusion_lon": 0.0, "bike_id": "709d3b1222b1239671c44737d0cbe88c", "is_reserved": 0, "type": "electric_scooter", "lat": 38.901160833333336, "fusion_lat": 0.0, "is_disabled": 0}, {"rental_uris": {"android": "https://dc.lft.to/lastmile_qr_scan", "ios": "https://dc.lft.to/lastmile_qr_scan"}, "lon": -77.02693233333333, "name": "d85b44fca27af0c31d7aba603fbd25dc", "fusion_lon": 0.0, "bike_id": "d85b44fca27af0c31d7aba603fbd25dc", "is_reserved": 0, "type": "electric_scooter", "lat": 38.924717666666666, "fusion_lat": 0.0, "is_disabled": 0}, {"rental_uris": {"android": "https://dc.lft.to/lastmile_qr_scan", "ios": "https://dc.lft.to/lastmile_qr_scan"}, "lon": -77.04454816666667, "name": "326d88b20be20bdd6e6c81aa64cd33a6", "fusion_lon": 0.0, "bike_id": "326d88b20be20bdd6e6c81aa64cd33a6", "is_reserved": 0, "type": "electric_scooter", "lat": 38.93501333333333, "fusion_lat": 0.0, "is_disabled": 0}, {"rental_uris": {"android": "https://dc.lft.to/lastmile_qr_scan", "ios": "https://dc.lft.to/lastmile_qr_scan"}, "lon": -77.0335915, "name": "8b11d131cc472b95cf744b1769f59a31", "fusion_lon": 0.0, "bike_id": "8b11d131cc472b95cf744b1769f59a31", "is_reserved": 0, "type": "electric_scooter", "lat": 38.989904, "fusion_lat": 0.0, "is_disabled": 0}, {"rental_uris": {"android": "https://dc.lft.to/lastmile_qr_scan", "ios": "https://dc.lft.to/lastmile_qr_scan"}, "lon": -76.988363, "name": "82ebd4ba9b43f24f1d4546a846135025", "fusion_lon": 0.0, "bike_id": "82ebd4ba9b43f24f1d4546a846135025", "is_reserved": 0, "type": "electric_scooter", "lat": 38.89879633333334, "fusion_lat": 0.0, "is_disabled": 0}, {"rental_uris": {"android": "https://dc.lft.to/lastmile_qr_scan", "ios": "https://dc.lft.to/lastmile_qr_scan"}, "lon": -77.0270975, "name": "59b696604d819fd1e334932215dfc8e1", "fusion_lon": 0.0, "bike_id": "59b696604d819fd1e334932215dfc8e1", "is_reserved": 0, "type": "electric_scooter", "lat": 38.928714166666666, "fusion_lat": 0.0, "is_disabled": 0}, {"rental_uris": {"android": "https://dc.lft.to/lastmile_qr_scan", "ios": "https://dc.lft.to/lastmile_qr_scan"}, "lon": -77.03766166666666, "name": "db8e4c8c74720d3457d13b67497fbc1c", "fusion_lon": 0.0, "bike_id": "db8e4c8c74720d3457d13b67497fbc1c", "is_reserved": 0, "type": "electric_scooter", "lat": 38.931013166666666, "fusion_lat": 0.0, "is_disabled": 0}, {"rental_uris": {"android": "https://dc.lft.to/lastmile_qr_scan", "ios": "https://dc.lft.to/lastmile_qr_scan"}, "lon": -77.01229966666666, "name": "6d1d24ec380b0823dd6a7c6cd38c7f70", "fusion_lon": 0.0, "bike_id": "6d1d24ec380b0823dd6a7c6cd38c7f70", "is_reserved": 0, "type": "electric_scooter", "lat": 38.915799666666665, "fusion_lat": 0.0, "is_disabled": 0}, {"rental_uris": {"android": "https://dc.lft.to/lastmile_qr_scan", "ios": "https://dc.lft.to/lastmile_qr_scan"}, "lon": -77.0356615, "name": "8a525c1a933dee08c14698948ce5aa1e", "fusion_lon": 0.0, "bike_id": "8a525c1a933dee08c14698948ce5aa1e", "is_reserved": 0, "type": "electric_scooter", "lat": 38.918867666666664, "fusion_lat": 0.0, "is_disabled": 0}, {"rental_uris": {"android": "https://dc.lft.to/lastmile_qr_scan", "ios": "https://dc.lft.to/lastmile_qr_scan"}, "lon": -77.06254733333333, "name": "741d8bef43b7aaa9f549078a5a97b540", "fusion_lon": 0.0, "bike_id": "741d8bef43b7aaa9f549078a5a97b540", "is_reserved": 0, "type": "electric_bike", "lat": 38.806424166666666, "fusion_lat": 0.0, "is_disabled": 0}, {"rental_uris": {"android": "https://dc.lft.to/lastmile_qr_scan", "ios": "https://dc.lft.to/lastmile_qr_scan"}, "lon": -77.0260205, "name": "3a80930ebb56ddc5c8a54a7f7846ba0b", "fusion_lon": 0.0, "bike_id": "3a80930ebb56ddc5c8a54a7f7846ba0b", "is_reserved": 0, "type": "electric_scooter", "lat": 38.896125833333336, "fusion_lat": 0.0, "is_disabled": 0}, {"rental_uris": {"android": "https://dc.lft.to/lastmile_qr_scan", "ios": "https://dc.lft.to/lastmile_qr_scan"}, "lon": -77.02276383333333, "name": "d9d16ffbf51790f578d11f1d43742018", "fusion_lon": 0.0, "bike_id": "d9d16ffbf51790f578d11f1d43742018", "is_reserved": 0, "type": "electric_scooter", "lat": 38.92689433333334, "fusion_lat": 0.0, "is_disabled": 0}, {"rental_uris": {"android": "https://dc.lft.to/lastmile_qr_scan", "ios": "https://dc.lft.to/lastmile_qr_scan"}, "lon": -77.04196333333333, "name": "018626ac46ad0ec28fdbf6f6d62d84f9", "fusion_lon": 0.0, "bike_id": "018626ac46ad0ec28fdbf6f6d62d84f9", "is_reserved": 0, "type": "electric_scooter", "lat": 38.90809866666667, "fusion_lat": 0.0, "is_disabled": 0}, {"rental_uris": {"android": "https://dc.lft.to/lastmile_qr_scan", "ios": "https://dc.lft.to/lastmile_qr_scan"}, "lon": -77.02952333333333, "name": "bd709ca18926420c42531e87527f1ec3", "fusion_lon": 0.0, "bike_id": "bd709ca18926420c42531e87527f1ec3", "is_reserved": 0, "type": "electric_scooter", "lat": 38.911492333333335, "fusion_lat": 0.0, "is_disabled": 0}, {"rental_uris": {"android": "https://dc.lft.to/lastmile_qr_scan", "ios": "https://dc.lft.to/lastmile_qr_scan"}, "lon": -76.99180983333333, "name": "57fbae09b38017b14606dde6665f35d6", "fusion_lon": 0.0, "bike_id": "57fbae09b38017b14606dde6665f35d6", "is_reserved": 0, "type": "electric_scooter", "lat": 38.91953316666667, "fusion_lat": 0.0, "is_disabled": 0}, {"rental_uris": {"android": "https://dc.lft.to/lastmile_qr_scan", "ios": "https://dc.lft.to/lastmile_qr_scan"}, "lon": -77.03357183333334, "name": "a51720e5e8c2fc22b353cab45b18fbbb", "fusion_lon": 0.0, "bike_id": "a51720e5e8c2fc22b353cab45b18fbbb", "is_reserved": 0, "type": "electric_scooter", "lat": 38.8975025, "fusion_lat": 0.0, "is_disabled": 0}, {"rental_uris": {"android": "https://dc.lft.to/lastmile_qr_scan", "ios": "https://dc.lft.to/lastmile_qr_scan"}, "lon": -77.02507, "name": "86442eab577dbd5a12879d58d152be97", "fusion_lon": 0.0, "bike_id": "86442eab577dbd5a12879d58d152be97", "is_reserved": 0, "type": "electric_scooter", "lat": 38.920619, "fusion_lat": 0.0, "is_disabled": 0}, {"rental_uris": {"android": "https://dc.lft.to/lastmile_qr_scan", "ios": "https://dc.lft.to/lastmile_qr_scan"}, "lon": -77.05069166666667, "name": "06146c56b0cdbfaca0c696ca341e18a8", "fusion_lon": 0.0, "bike_id": "06146c56b0cdbfaca0c696ca341e18a8", "is_reserved": 0, "type": "electric_scooter", "lat": 38.901819333333336, "fusion_lat": 0.0, "is_disabled": 0}, {"rental_uris": {"android": "https://dc.lft.to/lastmile_qr_scan", "ios": "https://dc.lft.to/lastmile_qr_scan"}, "lon": -77.03082516666667, "name": "311ca1e0aa2dfc16ff85fd0f881d5d47", "fusion_lon": 0.0, "bike_id": "311ca1e0aa2dfc16ff85fd0f881d5d47", "is_reserved": 0, "type": "electric_scooter", "lat": 38.927912666666664, "fusion_lat": 0.0, "is_disabled": 0}, {"rental_uris": {"android": "https://dc.lft.to/lastmile_qr_scan", "ios": "https://dc.lft.to/lastmile_qr_scan"}, "lon": -77.00609, "name": "0253b53b7aa5cacd4ae62310509d672b", "fusion_lon": 0.0, "bike_id": "0253b53b7aa5cacd4ae62310509d672b", "is_reserved": 0, "type": "electric_scooter", "lat": 38.87179533333333, "fusion_lat": 0.0, "is_disabled": 0}, {"rental_uris": {"android": "https://dc.lft.to/lastmile_qr_scan", "ios": "https://dc.lft.to/lastmile_qr_scan"}, "lon": -77.00583083333333, "name": "d178bf1d64c10beea3b7a655fe7e55d7", "fusion_lon": 0.0, "bike_id": "d178bf1d64c10beea3b7a655fe7e55d7", "is_reserved": 0, "type": "electric_scooter", "lat": 38.90573533333333, "fusion_lat": 0.0, "is_disabled": 0}, {"rental_uris": {"android": "https://dc.lft.to/lastmile_qr_scan", "ios": "https://dc.lft.to/lastmile_qr_scan"}, "lon": -77.00985983333334, "name": "d9f6b3f96ebbcd654f16a06476f2bf26", "fusion_lon": 0.0, "bike_id": "d9f6b3f96ebbcd654f16a06476f2bf26", "is_reserved": 0, "type": "electric_scooter", "lat": 38.87287533333333, "fusion_lat": 0.0, "is_disabled": 0}, {"rental_uris": {"android": "https://dc.lft.to/lastmile_qr_scan", "ios": "https://dc.lft.to/lastmile_qr_scan"}, "lon": -77.00923983333334, "name": "b6e11d570142309f2c74a0805e94506c", "fusion_lon": 0.0, "bike_id": "b6e11d570142309f2c74a0805e94506c", "is_reserved": 0, "type": "electric_scooter", "lat": 38.91805433333333, "fusion_lat": 0.0, "is_disabled": 0}, {"rental_uris": {"android": "https://dc.lft.to/lastmile_qr_scan", "ios": "https://dc.lft.to/lastmile_qr_scan"}, "lon": -77.021763, "name": "24c90096b71edbe830071f4cc8c2df78", "fusion_lon": 0.0, "bike_id": "24c90096b71edbe830071f4cc8c2df78", "is_reserved": 0, "type": "electric_scooter", "lat": 38.918827666666665, "fusion_lat": 0.0, "is_disabled": 0}, {"rental_uris": {"android": "https://dc.lft.to/lastmile_qr_scan", "ios": "https://dc.lft.to/lastmile_qr_scan"}, "lon": -77.04590533333334, "name": "97e143b1bf8222b94f995503823a05eb", "fusion_lon": 0.0, "bike_id": "97e143b1bf8222b94f995503823a05eb", "is_reserved": 0, "type": "electric_scooter", "lat": 38.902857, "fusion_lat": 0.0, "is_disabled": 0}, {"rental_uris": {"android": "https://dc.lft.to/lastmile_qr_scan", "ios": "https://dc.lft.to/lastmile_qr_scan"}, "lon": -77.05297816666666, "name": "feac27e53810fe29582d251559131fbb", "fusion_lon": 0.0, "bike_id": "feac27e53810fe29582d251559131fbb", "is_reserved": 0, "type": "electric_scooter", "lat": 38.91697716666667, "fusion_lat": 0.0, "is_disabled": 0}, {"rental_uris": {"android": "https://dc.lft.to/lastmile_qr_scan", "ios": "https://dc.lft.to/lastmile_qr_scan"}, "lon": -77.04535583333333, "name": "6c1bb35d8a4d895fcd0db5d50a0fcfbb", "fusion_lon": 0.0, "bike_id": "6c1bb35d8a4d895fcd0db5d50a0fcfbb", "is_reserved": 0, "type": "electric_scooter", "lat": 38.907311166666666, "fusion_lat": 0.0, "is_disabled": 0}, {"rental_uris": {"android": "https://dc.lft.to/lastmile_qr_scan", "ios": "https://dc.lft.to/lastmile_qr_scan"}, "lon": -77.0189975, "name": "e5dd28f84aefb8fd29c75ea541cad62b", "fusion_lon": 0.0, "bike_id": "e5dd28f84aefb8fd29c75ea541cad62b", "is_reserved": 0, "type": "electric_scooter", "lat": 38.921297833333334, "fusion_lat": 0.0, "is_disabled": 0}, {"rental_uris": {"android": "https://dc.lft.to/lastmile_qr_scan", "ios": "https://dc.lft.to/lastmile_qr_scan"}, "lon": -77.02975383333333, "name": "45a0e815f69ee8444f6078134986b9d6", "fusion_lon": 0.0, "bike_id": "45a0e815f69ee8444f6078134986b9d6", "is_reserved": 0, "type": "electric_scooter", "lat": 38.9167965, "fusion_lat": 0.0, "is_disabled": 0}, {"rental_uris": {"android": "https://dc.lft.to/lastmile_qr_scan", "ios": "https://dc.lft.to/lastmile_qr_scan"}, "lon": -77.06920016666666, "name": "a8072a4b187e4d959eef2313ba1c7d10", "fusion_lon": 0.0, "bike_id": "a8072a4b187e4d959eef2313ba1c7d10", "is_reserved": 0, "type": "electric_scooter", "lat": 38.90778916666667, "fusion_lat": 0.0, "is_disabled": 0}, {"rental_uris": {"android": "https://dc.lft.to/lastmile_qr_scan", "ios": "https://dc.lft.to/lastmile_qr_scan"}, "lon": -77.0080725, "name": "352ca9c44e0dcc93f2c7a887b0d9b985", "fusion_lon": 0.0, "bike_id": "352ca9c44e0dcc93f2c7a887b0d9b985", "is_reserved": 0, "type": "electric_scooter", "lat": 38.907249666666665, "fusion_lat": 0.0, "is_disabled": 0}, {"rental_uris": {"android": "https://dc.lft.to/lastmile_qr_scan", "ios": "https://dc.lft.to/lastmile_qr_scan"}, "lon": -76.98540483333333, "name": "42951592b41b99ee94b322b534dca1cc", "fusion_lon": 0.0, "bike_id": "42951592b41b99ee94b322b534dca1cc", "is_reserved": 0, "type": "electric_scooter", "lat": 38.885278, "fusion_lat": 0.0, "is_disabled": 0}, {"rental_uris": {"android": "https://dc.lft.to/lastmile_qr_scan", "ios": "https://dc.lft.to/lastmile_qr_scan"}, "lon": -77.005787, "name": "0c631ef2ca351eed5f826c27ab433dfc", "fusion_lon": 0.0, "bike_id": "0c631ef2ca351eed5f826c27ab433dfc", "is_reserved": 0, "type": "electric_scooter", "lat": 38.90564083333334, "fusion_lat": 0.0, "is_disabled": 0}, {"rental_uris": {"android": "https://dc.lft.to/lastmile_qr_scan", "ios": "https://dc.lft.to/lastmile_qr_scan"}, "lon": -77.00282733333333, "name": "92cbe29bd845aad3fcae415e893bfbae", "fusion_lon": 0.0, "bike_id": "92cbe29bd845aad3fcae415e893bfbae", "is_reserved": 0, "type": "electric_bike", "lat": 38.960122166666665, "fusion_lat": 0.0, "is_disabled": 0}, {"rental_uris": {"android": "https://dc.lft.to/lastmile_qr_scan", "ios": "https://dc.lft.to/lastmile_qr_scan"}, "lon": -77.03357216666667, "name": "ae2c2c50764b449438c6c6148faea88c", "fusion_lon": 0.0, "bike_id": "ae2c2c50764b449438c6c6148faea88c", "is_reserved": 0, "type": "electric_scooter", "lat": 38.9005715, "fusion_lat": 0.0, "is_disabled": 0}, {"rental_uris": {"android": "https://dc.lft.to/lastmile_qr_scan", "ios": "https://dc.lft.to/lastmile_qr_scan"}, "lon": -77.032013, "name": "9b2642af72d317233a7169b76b35a0b4", "fusion_lon": 0.0, "bike_id": "9b2642af72d317233a7169b76b35a0b4", "is_reserved": 0, "type": "electric_scooter", "lat": 38.897758333333336, "fusion_lat": 0.0, "is_disabled": 0}, {"rental_uris": {"android": "https://dc.lft.to/lastmile_qr_scan", "ios": "https://dc.lft.to/lastmile_qr_scan"}, "lon": -77.047224, "name": "0e8854dc06ed67bccfcaec5e1ae61dcb", "fusion_lon": 0.0, "bike_id": "0e8854dc06ed67bccfcaec5e1ae61dcb", "is_reserved": 0, "type": "electric_scooter", "lat": 38.902214666666666, "fusion_lat": 0.0, "is_disabled": 0}, {"rental_uris": {"android": "https://dc.lft.to/lastmile_qr_scan", "ios": "https://dc.lft.to/lastmile_qr_scan"}, "lon": -77.03158633333334, "name": "9995d36e6c86e84a29f2db8609c641d5", "fusion_lon": 0.0, "bike_id": "9995d36e6c86e84a29f2db8609c641d5", "is_reserved": 0, "type": "electric_scooter", "lat": 38.893391333333334, "fusion_lat": 0.0, "is_disabled": 0}, {"rental_uris": {"android": "https://dc.lft.to/lastmile_qr_scan", "ios": "https://dc.lft.to/lastmile_qr_scan"}, "lon": -76.99844666666667, "name": "ee8e23e3c8a6291fef635d50f9d30d39", "fusion_lon": 0.0, "bike_id": "ee8e23e3c8a6291fef635d50f9d30d39", "is_reserved": 0, "type": "electric_scooter", "lat": 38.900338166666664, "fusion_lat": 0.0, "is_disabled": 0}, {"rental_uris": {"android": "https://dc.lft.to/lastmile_qr_scan", "ios": "https://dc.lft.to/lastmile_qr_scan"}, "lon": -77.03193816666666, "name": "e4ffb8ede4cae8cc23bab8f0a67ce692", "fusion_lon": 0.0, "bike_id": "e4ffb8ede4cae8cc23bab8f0a67ce692", "is_reserved": 0, "type": "electric_scooter", "lat": 38.90019616666667, "fusion_lat": 0.0, "is_disabled": 0}, {"rental_uris": {"android": "https://dc.lft.to/lastmile_qr_scan", "ios": "https://dc.lft.to/lastmile_qr_scan"}, "lon": -77.02028383333334, "name": "3a11c0dcea8a9b1c973947abd575c741", "fusion_lon": 0.0, "bike_id": "3a11c0dcea8a9b1c973947abd575c741", "is_reserved": 0, "type": "electric_scooter", "lat": 38.924158166666665, "fusion_lat": 0.0, "is_disabled": 0}, {"rental_uris": {"android": "https://dc.lft.to/lastmile_qr_scan", "ios": "https://dc.lft.to/lastmile_qr_scan"}, "lon": -77.0391455, "name": "b8fe2643264e629f41a7e022119aa403", "fusion_lon": 0.0, "bike_id": "b8fe2643264e629f41a7e022119aa403", "is_reserved": 0, "type": "electric_bike", "lat": 39.035620333333334, "fusion_lat": 0.0, "is_disabled": 0}, {"rental_uris": {"android": "https://dc.lft.to/lastmile_qr_scan", "ios": "https://dc.lft.to/lastmile_qr_scan"}, "lon": -77.0057885, "name": "db1b22ce854cb93dae473faa21d5eb56", "fusion_lon": 0.0, "bike_id": "db1b22ce854cb93dae473faa21d5eb56", "is_reserved": 0, "type": "electric_scooter", "lat": 38.87576516666667, "fusion_lat": 0.0, "is_disabled": 0}, {"rental_uris": {"android": "https://dc.lft.to/lastmile_qr_scan", "ios": "https://dc.lft.to/lastmile_qr_scan"}, "lon": -77.0284885, "name": "a71a7002025968b2f57636ef0346ab6c", "fusion_lon": 0.0, "bike_id": "a71a7002025968b2f57636ef0346ab6c", "is_reserved": 0, "type": "electric_scooter", "lat": 38.93532016666666, "fusion_lat": 0.0, "is_disabled": 0}, {"rental_uris": {"android": "https://dc.lft.to/lastmile_qr_scan", "ios": "https://dc.lft.to/lastmile_qr_scan"}, "lon": -77.024007, "name": "63c59efc7d8caeb06bf1a6f841ed8050", "fusion_lon": 0.0, "bike_id": "63c59efc7d8caeb06bf1a6f841ed8050", "is_reserved": 0, "type": "electric_scooter", "lat": 38.90989116666667, "fusion_lat": 0.0, "is_disabled": 0}, {"rental_uris": {"android": "https://dc.lft.to/lastmile_qr_scan", "ios": "https://dc.lft.to/lastmile_qr_scan"}, "lon": -76.95148433333334, "name": "60cd971c2c7731da78e0d1ed54adbe1d", "fusion_lon": 0.0, "bike_id": "60cd971c2c7731da78e0d1ed54adbe1d", "is_reserved": 0, "type": "electric_bike", "lat": 39.084338333333335, "fusion_lat": 0.0, "is_disabled": 0}, {"rental_uris": {"android": "https://dc.lft.to/lastmile_qr_scan", "ios": "https://dc.lft.to/lastmile_qr_scan"}, "lon": -77.0175465, "name": "653f7f9fd87dcc275f97895f9662f60d", "fusion_lon": 0.0, "bike_id": "653f7f9fd87dcc275f97895f9662f60d", "is_reserved": 0, "type": "electric_scooter", "lat": 38.90268666666667, "fusion_lat": 0.0, "is_disabled": 0}, {"rental_uris": {"android": "https://dc.lft.to/lastmile_qr_scan", "ios": "https://dc.lft.to/lastmile_qr_scan"}, "lon": -77.02157766666667, "name": "b65278cc0e896099899b81089464c04e", "fusion_lon": 0.0, "bike_id": "b65278cc0e896099899b81089464c04e", "is_reserved": 0, "type": "electric_scooter", "lat": 38.924529, "fusion_lat": 0.0, "is_disabled": 0}, {"rental_uris": {"android": "https://dc.lft.to/lastmile_qr_scan", "ios": "https://dc.lft.to/lastmile_qr_scan"}, "lon": -77.0403805, "name": "bb572f3bc72242bbf11047cdf70b925c", "fusion_lon": 0.0, "bike_id": "bb572f3bc72242bbf11047cdf70b925c", "is_reserved": 0, "type": "electric_scooter", "lat": 38.9051985, "fusion_lat": 0.0, "is_disabled": 0}, {"rental_uris": {"android": "https://dc.lft.to/lastmile_qr_scan", "ios": "https://dc.lft.to/lastmile_qr_scan"}, "lon": -77.02717066666666, "name": "1fdc69f08ccdf160d852f505144c3677", "fusion_lon": 0.0, "bike_id": "1fdc69f08ccdf160d852f505144c3677", "is_reserved": 0, "type": "electric_scooter", "lat": 38.92481266666667, "fusion_lat": 0.0, "is_disabled": 0}, {"rental_uris": {"android": "https://dc.lft.to/lastmile_qr_scan", "ios": "https://dc.lft.to/lastmile_qr_scan"}, "lon": -77.03197833333333, "name": "7bed6abbf160f64ee3ff13d9ceef9eb2", "fusion_lon": 0.0, "bike_id": "7bed6abbf160f64ee3ff13d9ceef9eb2", "is_reserved": 0, "type": "electric_scooter", "lat": 38.907444166666664, "fusion_lat": 0.0, "is_disabled": 0}, {"rental_uris": {"android": "https://dc.lft.to/lastmile_qr_scan", "ios": "https://dc.lft.to/lastmile_qr_scan"}, "lon": -77.34452016666667, "name": "0bf3fcc472cb3aa45a2a39cb1017402c", "fusion_lon": 0.0, "bike_id": "0bf3fcc472cb3aa45a2a39cb1017402c", "is_reserved": 0, "type": "electric_bike", "lat": 38.945380666666665, "fusion_lat": 0.0, "is_disabled": 0}, {"rental_uris": {"android": "https://dc.lft.to/lastmile_qr_scan", "ios": "https://dc.lft.to/lastmile_qr_scan"}, "lon": -77.023201, "name": "2281ac9a9bbfd0cc1b2c03d1064d9c45", "fusion_lon": 0.0, "bike_id": "2281ac9a9bbfd0cc1b2c03d1064d9c45", "is_reserved": 0, "type": "electric_scooter", "lat": 38.92067516666667, "fusion_lat": 0.0, "is_disabled": 0}, {"rental_uris": {"android": "https://dc.lft.to/lastmile_qr_scan", "ios": "https://dc.lft.to/lastmile_qr_scan"}, "lon": -77.04154616666666, "name": "47fae4a2e7c712e0d9fc58432314fd85", "fusion_lon": 0.0, "bike_id": "47fae4a2e7c712e0d9fc58432314fd85", "is_reserved": 0, "type": "electric_scooter", "lat": 38.9174865, "fusion_lat": 0.0, "is_disabled": 0}, {"rental_uris": {"android": "https://dc.lft.to/lastmile_qr_scan", "ios": "https://dc.lft.to/lastmile_qr_scan"}, "lon": -77.0716455, "name": "2ba9f8e7199d828eaaa5d98c2f6cb4cb", "fusion_lon": 0.0, "bike_id": "2ba9f8e7199d828eaaa5d98c2f6cb4cb", "is_reserved": 0, "type": "electric_bike", "lat": 38.908711833333335, "fusion_lat": 0.0, "is_disabled": 0}, {"rental_uris": {"android": "https://dc.lft.to/lastmile_qr_scan", "ios": "https://dc.lft.to/lastmile_qr_scan"}, "lon": -77.031828, "name": "74120a27fd174a96984018d71d1fcf93", "fusion_lon": 0.0, "bike_id": "74120a27fd174a96984018d71d1fcf93", "is_reserved": 0, "type": "electric_scooter", "lat": 38.887254, "fusion_lat": 0.0, "is_disabled": 0}, {"rental_uris": {"android": "https://dc.lft.to/lastmile_qr_scan", "ios": "https://dc.lft.to/lastmile_qr_scan"}, "lon": -76.980617, "name": "f12d31258491b98b9e0bcc4216a40899", "fusion_lon": 0.0, "bike_id": "f12d31258491b98b9e0bcc4216a40899", "is_reserved": 0, "type": "electric_scooter", "lat": 38.865075166666664, "fusion_lat": 0.0, "is_disabled": 0}, {"rental_uris": {"android": "https://dc.lft.to/lastmile_qr_scan", "ios": "https://dc.lft.to/lastmile_qr_scan"}, "lon": -77.00336583333333, "name": "821f28d09c8ef84c6fe94a08a6c4ca45", "fusion_lon": 0.0, "bike_id": "821f28d09c8ef84c6fe94a08a6c4ca45", "is_reserved": 0, "type": "electric_scooter", "lat": 38.8935185, "fusion_lat": 0.0, "is_disabled": 0}, {"rental_uris": {"android": "https://dc.lft.to/lastmile_qr_scan", "ios": "https://dc.lft.to/lastmile_qr_scan"}, "lon": -77.02413716666666, "name": "400c1e7f5e680721162301b8dbc5624d", "fusion_lon": 0.0, "bike_id": "400c1e7f5e680721162301b8dbc5624d", "is_reserved": 0, "type": "electric_scooter", "lat": 38.905718, "fusion_lat": 0.0, "is_disabled": 0}, {"rental_uris": {"android": "https://dc.lft.to/lastmile_qr_scan", "ios": "https://dc.lft.to/lastmile_qr_scan"}, "lon": -77.02790083333333, "name": "830c1ca97369399b1b01256c2f363e86", "fusion_lon": 0.0, "bike_id": "830c1ca97369399b1b01256c2f363e86", "is_reserved": 0, "type": "electric_scooter", "lat": 38.92976216666667, "fusion_lat": 0.0, "is_disabled": 0}, {"rental_uris": {"android": "https://dc.lft.to/lastmile_qr_scan", "ios": "https://dc.lft.to/lastmile_qr_scan"}, "lon": -76.93673183333334, "name": "ced085d5698e769ca37c61cbf19acd5e", "fusion_lon": 0.0, "bike_id": "ced085d5698e769ca37c61cbf19acd5e", "is_reserved": 0, "type": "electric_scooter", "lat": 38.88662883333333, "fusion_lat": 0.0, "is_disabled": 0}, {"rental_uris": {"android": "https://dc.lft.to/lastmile_qr_scan", "ios": "https://dc.lft.to/lastmile_qr_scan"}, "lon": -77.12887016666667, "name": "f7fd261a4c01575f93a427fce792849c", "fusion_lon": 0.0, "bike_id": "f7fd261a4c01575f93a427fce792849c", "is_reserved": 0, "type": "electric_bike", "lat": 38.90605566666667, "fusion_lat": 0.0, "is_disabled": 0}, {"rental_uris": {"android": "https://dc.lft.to/lastmile_qr_scan", "ios": "https://dc.lft.to/lastmile_qr_scan"}, "lon": -77.05180433333334, "name": "bdc5499f494dbb2b1833676fd9aac5b3", "fusion_lon": 0.0, "bike_id": "bdc5499f494dbb2b1833676fd9aac5b3", "is_reserved": 0, "type": "electric_scooter", "lat": 38.905462166666666, "fusion_lat": 0.0, "is_disabled": 0}, {"rental_uris": {"android": "https://dc.lft.to/lastmile_qr_scan", "ios": "https://dc.lft.to/lastmile_qr_scan"}, "lon": -76.99862016666667, "name": "51c793fee64f7a34861f3440a9899587", "fusion_lon": 0.0, "bike_id": "51c793fee64f7a34861f3440a9899587", "is_reserved": 0, "type": "electric_scooter", "lat": 38.86432766666667, "fusion_lat": 0.0, "is_disabled": 0}, {"rental_uris": {"android": "https://dc.lft.to/lastmile_qr_scan", "ios": "https://dc.lft.to/lastmile_qr_scan"}, "lon": -76.98686316666667, "name": "3b6b9ee2178ed4c565a94a36cdc71125", "fusion_lon": 0.0, "bike_id": "3b6b9ee2178ed4c565a94a36cdc71125", "is_reserved": 0, "type": "electric_scooter", "lat": 38.90082966666667, "fusion_lat": 0.0, "is_disabled": 0}, {"rental_uris": {"android": "https://dc.lft.to/lastmile_qr_scan", "ios": "https://dc.lft.to/lastmile_qr_scan"}, "lon": -77.01773716666666, "name": "07816498a444aa4bf7954dd7bc4f1533", "fusion_lon": 0.0, "bike_id": "07816498a444aa4bf7954dd7bc4f1533", "is_reserved": 0, "type": "electric_scooter", "lat": 38.91942433333333, "fusion_lat": 0.0, "is_disabled": 0}, {"rental_uris": {"android": "https://dc.lft.to/lastmile_qr_scan", "ios": "https://dc.lft.to/lastmile_qr_scan"}, "lon": -77.02639183333334, "name": "e8d1a65ecd31ad7024bff367acc3b8fc", "fusion_lon": 0.0, "bike_id": "e8d1a65ecd31ad7024bff367acc3b8fc", "is_reserved": 0, "type": "electric_scooter", "lat": 38.9402945, "fusion_lat": 0.0, "is_disabled": 0}, {"rental_uris": {"android": "https://dc.lft.to/lastmile_qr_scan", "ios": "https://dc.lft.to/lastmile_qr_scan"}, "lon": -77.02152466666666, "name": "54556858ed8e11387b83413fb58d4c04", "fusion_lon": 0.0, "bike_id": "54556858ed8e11387b83413fb58d4c04", "is_reserved": 0, "type": "electric_scooter", "lat": 38.92603733333333, "fusion_lat": 0.0, "is_disabled": 0}, {"rental_uris": {"android": "https://dc.lft.to/lastmile_qr_scan", "ios": "https://dc.lft.to/lastmile_qr_scan"}, "lon": -77.02690216666667, "name": "1f1471bb31a3e20e7f852c154ee37a4e", "fusion_lon": 0.0, "bike_id": "1f1471bb31a3e20e7f852c154ee37a4e", "is_reserved": 0, "type": "electric_scooter", "lat": 38.9024, "fusion_lat": 0.0, "is_disabled": 0}, {"rental_uris": {"android": "https://dc.lft.to/lastmile_qr_scan", "ios": "https://dc.lft.to/lastmile_qr_scan"}, "lon": -77.032653, "name": "30b8128a65833d5809c7618be72daf82", "fusion_lon": 0.0, "bike_id": "30b8128a65833d5809c7618be72daf82", "is_reserved": 0, "type": "electric_scooter", "lat": 38.930442666666664, "fusion_lat": 0.0, "is_disabled": 0}, {"rental_uris": {"android": "https://dc.lft.to/lastmile_qr_scan", "ios": "https://dc.lft.to/lastmile_qr_scan"}, "lon": -77.02183933333333, "name": "e134a08f24d873061091c6c0a956dcb0", "fusion_lon": 0.0, "bike_id": "e134a08f24d873061091c6c0a956dcb0", "is_reserved": 0, "type": "electric_scooter", "lat": 38.919918333333335, "fusion_lat": 0.0, "is_disabled": 0}, {"rental_uris": {"android": "https://dc.lft.to/lastmile_qr_scan", "ios": "https://dc.lft.to/lastmile_qr_scan"}, "lon": -77.028815, "name": "bf64136eb2039ca73bb29dc3e5b081cd", "fusion_lon": 0.0, "bike_id": "bf64136eb2039ca73bb29dc3e5b081cd", "is_reserved": 0, "type": "electric_scooter", "lat": 38.93601916666667, "fusion_lat": 0.0, "is_disabled": 0}, {"rental_uris": {"android": "https://dc.lft.to/lastmile_qr_scan", "ios": "https://dc.lft.to/lastmile_qr_scan"}, "lon": -77.01172516666666, "name": "f1890c10a89a7e812b99eec34cbfff4b", "fusion_lon": 0.0, "bike_id": "f1890c10a89a7e812b99eec34cbfff4b", "is_reserved": 0, "type": "electric_scooter", "lat": 38.880515, "fusion_lat": 0.0, "is_disabled": 0}, {"rental_uris": {"android": "https://dc.lft.to/lastmile_qr_scan", "ios": "https://dc.lft.to/lastmile_qr_scan"}, "lon": -77.04560216666667, "name": "b96368451cbaae6f9e96c15d40e7f040", "fusion_lon": 0.0, "bike_id": "b96368451cbaae6f9e96c15d40e7f040", "is_reserved": 0, "type": "electric_scooter", "lat": 38.91831633333334, "fusion_lat": 0.0, "is_disabled": 0}, {"rental_uris": {"android": "https://dc.lft.to/lastmile_qr_scan", "ios": "https://dc.lft.to/lastmile_qr_scan"}, "lon": -76.99912683333334, "name": "d054ee6df6b57346f96f6c34e966f39a", "fusion_lon": 0.0, "bike_id": "d054ee6df6b57346f96f6c34e966f39a", "is_reserved": 0, "type": "electric_scooter", "lat": 38.924569166666664, "fusion_lat": 0.0, "is_disabled": 0}, {"rental_uris": {"android": "https://dc.lft.to/lastmile_qr_scan", "ios": "https://dc.lft.to/lastmile_qr_scan"}, "lon": -77.025016, "name": "0c6a906592372f07a7b50839cd818b4a", "fusion_lon": 0.0, "bike_id": "0c6a906592372f07a7b50839cd818b4a", "is_reserved": 0, "type": "electric_scooter", "lat": 38.89832783333333, "fusion_lat": 0.0, "is_disabled": 0}, {"rental_uris": {"android": "https://dc.lft.to/lastmile_qr_scan", "ios": "https://dc.lft.to/lastmile_qr_scan"}, "lon": -76.99563333333333, "name": "3f18da27e3f534692671c7d0f813f69c", "fusion_lon": 0.0, "bike_id": "3f18da27e3f534692671c7d0f813f69c", "is_reserved": 0, "type": "electric_scooter", "lat": 38.92029483333334, "fusion_lat": 0.0, "is_disabled": 0}, {"rental_uris": {"android": "https://dc.lft.to/lastmile_qr_scan", "ios": "https://dc.lft.to/lastmile_qr_scan"}, "lon": -77.0162685, "name": "f25f7c05627cd61a2648d5f378562bf6", "fusion_lon": 0.0, "bike_id": "f25f7c05627cd61a2648d5f378562bf6", "is_reserved": 0, "type": "electric_scooter", "lat": 38.89622883333333, "fusion_lat": 0.0, "is_disabled": 0}, {"rental_uris": {"android": "https://dc.lft.to/lastmile_qr_scan", "ios": "https://dc.lft.to/lastmile_qr_scan"}, "lon": -77.04652416666667, "name": "d2618d08d731749c002b6f34e4121180", "fusion_lon": 0.0, "bike_id": "d2618d08d731749c002b6f34e4121180", "is_reserved": 0, "type": "electric_scooter", "lat": 38.901424, "fusion_lat": 0.0, "is_disabled": 0}, {"rental_uris": {"android": "https://dc.lft.to/lastmile_qr_scan", "ios": "https://dc.lft.to/lastmile_qr_scan"}, "lon": -76.99734166666667, "name": "1a6af558f0f59c40d37a4ba639bbec2b", "fusion_lon": 0.0, "bike_id": "1a6af558f0f59c40d37a4ba639bbec2b", "is_reserved": 0, "type": "electric_bike", "lat": 39.04234016666667, "fusion_lat": 0.0, "is_disabled": 0}, {"rental_uris": {"android": "https://dc.lft.to/lastmile_qr_scan", "ios": "https://dc.lft.to/lastmile_qr_scan"}, "lon": -76.99590616666667, "name": "e90c7de3d3f7db6be12498cd4b9c9794", "fusion_lon": 0.0, "bike_id": "e90c7de3d3f7db6be12498cd4b9c9794", "is_reserved": 0, "type": "electric_bike", "lat": 38.97338633333333, "fusion_lat": 0.0, "is_disabled": 0}, {"rental_uris": {"android": "https://dc.lft.to/lastmile_qr_scan", "ios": "https://dc.lft.to/lastmile_qr_scan"}, "lon": -77.06419833333334, "name": "c50079e3b02cc57f4107167fdcae6307", "fusion_lon": 0.0, "bike_id": "c50079e3b02cc57f4107167fdcae6307", "is_reserved": 0, "type": "electric_scooter", "lat": 38.91384433333333, "fusion_lat": 0.0, "is_disabled": 0}, {"rental_uris": {"android": "https://dc.lft.to/lastmile_qr_scan", "ios": "https://dc.lft.to/lastmile_qr_scan"}, "lon": -77.036365, "name": "365855e67239a38bec49498324c11c68", "fusion_lon": 0.0, "bike_id": "365855e67239a38bec49498324c11c68", "is_reserved": 0, "type": "electric_scooter", "lat": 38.918607, "fusion_lat": 0.0, "is_disabled": 0}, {"rental_uris": {"android": "https://dc.lft.to/lastmile_qr_scan", "ios": "https://dc.lft.to/lastmile_qr_scan"}, "lon": -77.01597183333334, "name": "11b1019bd0bc2c0d08dbd8c45c128cb4", "fusion_lon": 0.0, "bike_id": "11b1019bd0bc2c0d08dbd8c45c128cb4", "is_reserved": 0, "type": "electric_scooter", "lat": 38.952181833333334, "fusion_lat": 0.0, "is_disabled": 0}, {"rental_uris": {"android": "https://dc.lft.to/lastmile_qr_scan", "ios": "https://dc.lft.to/lastmile_qr_scan"}, "lon": -77.01864916666666, "name": "edbfd299b781c5d553635acd2143368d", "fusion_lon": 0.0, "bike_id": "edbfd299b781c5d553635acd2143368d", "is_reserved": 0, "type": "electric_scooter", "lat": 38.973678, "fusion_lat": 0.0, "is_disabled": 0}, {"rental_uris": {"android": "https://dc.lft.to/lastmile_qr_scan", "ios": "https://dc.lft.to/lastmile_qr_scan"}, "lon": -77.0521625, "name": "f9dd7ea71e7a53bb84eb27203242f8db", "fusion_lon": 0.0, "bike_id": "f9dd7ea71e7a53bb84eb27203242f8db", "is_reserved": 0, "type": "electric_scooter", "lat": 38.92448016666667, "fusion_lat": 0.0, "is_disabled": 0}, {"rental_uris": {"android": "https://dc.lft.to/lastmile_qr_scan", "ios": "https://dc.lft.to/lastmile_qr_scan"}, "lon": -77.037781, "name": "b774b296464faaf479bf6445ce3febcb", "fusion_lon": 0.0, "bike_id": "b774b296464faaf479bf6445ce3febcb", "is_reserved": 0, "type": "electric_scooter", "lat": 38.9296685, "fusion_lat": 0.0, "is_disabled": 0}, {"rental_uris": {"android": "https://dc.lft.to/lastmile_qr_scan", "ios": "https://dc.lft.to/lastmile_qr_scan"}, "lon": -77.048688, "name": "3599b936e2e6d26d6e45ef46e397a853", "fusion_lon": 0.0, "bike_id": "3599b936e2e6d26d6e45ef46e397a853", "is_reserved": 0, "type": "electric_scooter", "lat": 38.904737, "fusion_lat": 0.0, "is_disabled": 0}, {"rental_uris": {"android": "https://dc.lft.to/lastmile_qr_scan", "ios": "https://dc.lft.to/lastmile_qr_scan"}, "lon": -77.01936733333334, "name": "cb1dd391baacf35c2641338f72cb3c3e", "fusion_lon": 0.0, "bike_id": "cb1dd391baacf35c2641338f72cb3c3e", "is_reserved": 0, "type": "electric_scooter", "lat": 38.924261333333334, "fusion_lat": 0.0, "is_disabled": 0}, {"rental_uris": {"android": "https://dc.lft.to/lastmile_qr_scan", "ios": "https://dc.lft.to/lastmile_qr_scan"}, "lon": -77.04660666666666, "name": "d15a14156ae614da120dbb73f9436d24", "fusion_lon": 0.0, "bike_id": "d15a14156ae614da120dbb73f9436d24", "is_reserved": 0, "type": "electric_bike", "lat": 38.8947725, "fusion_lat": 0.0, "is_disabled": 0}, {"rental_uris": {"android": "https://dc.lft.to/lastmile_qr_scan", "ios": "https://dc.lft.to/lastmile_qr_scan"}, "lon": -77.0076275, "name": "477b983c78009a05fac7e5d097c76f98", "fusion_lon": 0.0, "bike_id": "477b983c78009a05fac7e5d097c76f98", "is_reserved": 0, "type": "electric_scooter", "lat": 38.900512166666665, "fusion_lat": 0.0, "is_disabled": 0}, {"rental_uris": {"android": "https://dc.lft.to/lastmile_qr_scan", "ios": "https://dc.lft.to/lastmile_qr_scan"}, "lon": -77.01583516666666, "name": "4ac21ce4286f4cc507fff2d51c5dbfce", "fusion_lon": 0.0, "bike_id": "4ac21ce4286f4cc507fff2d51c5dbfce", "is_reserved": 0, "type": "electric_scooter", "lat": 38.897775833333334, "fusion_lat": 0.0, "is_disabled": 0}, {"rental_uris": {"android": "https://dc.lft.to/lastmile_qr_scan", "ios": "https://dc.lft.to/lastmile_qr_scan"}, "lon": -76.98504683333333, "name": "dac6361122f2481769d727ef98633f9f", "fusion_lon": 0.0, "bike_id": "dac6361122f2481769d727ef98633f9f", "is_reserved": 0, "type": "electric_scooter", "lat": 38.88080866666667, "fusion_lat": 0.0, "is_disabled": 0}, {"rental_uris": {"android": "https://dc.lft.to/lastmile_qr_scan", "ios": "https://dc.lft.to/lastmile_qr_scan"}, "lon": -77.02938866666666, "name": "30803805ad30679486f1787fbc7db00c", "fusion_lon": 0.0, "bike_id": "30803805ad30679486f1787fbc7db00c", "is_reserved": 0, "type": "electric_scooter", "lat": 38.90504383333333, "fusion_lat": 0.0, "is_disabled": 0}, {"rental_uris": {"android": "https://dc.lft.to/lastmile_qr_scan", "ios": "https://dc.lft.to/lastmile_qr_scan"}, "lon": -76.97099983333334, "name": "308eace2d92f7c914ce73ff33161c4ad", "fusion_lon": 0.0, "bike_id": "308eace2d92f7c914ce73ff33161c4ad", "is_reserved": 0, "type": "electric_bike", "lat": 38.95031616666667, "fusion_lat": 0.0, "is_disabled": 0}, {"rental_uris": {"android": "https://dc.lft.to/lastmile_qr_scan", "ios": "https://dc.lft.to/lastmile_qr_scan"}, "lon": -77.041959, "name": "565b541d2452bc57d989f7d6b4ea4e40", "fusion_lon": 0.0, "bike_id": "565b541d2452bc57d989f7d6b4ea4e40", "is_reserved": 0, "type": "electric_scooter", "lat": 38.905128, "fusion_lat": 0.0, "is_disabled": 0}, {"rental_uris": {"android": "https://dc.lft.to/lastmile_qr_scan", "ios": "https://dc.lft.to/lastmile_qr_scan"}, "lon": -76.9761945, "name": "b3843dea24adaafb697c3545cbba09e6", "fusion_lon": 0.0, "bike_id": "b3843dea24adaafb697c3545cbba09e6", "is_reserved": 0, "type": "electric_bike", "lat": 38.8404385, "fusion_lat": 0.0, "is_disabled": 0}, {"rental_uris": {"android": "https://dc.lft.to/lastmile_qr_scan", "ios": "https://dc.lft.to/lastmile_qr_scan"}, "lon": -77.02007333333333, "name": "50d501f9549ae2e303b90a8c6e265ee9", "fusion_lon": 0.0, "bike_id": "50d501f9549ae2e303b90a8c6e265ee9", "is_reserved": 0, "type": "electric_scooter", "lat": 38.9350625, "fusion_lat": 0.0, "is_disabled": 0}, {"rental_uris": {"android": "https://dc.lft.to/lastmile_qr_scan", "ios": "https://dc.lft.to/lastmile_qr_scan"}, "lon": -77.025609, "name": "d0d9332da67e7590463cf283a6a7c26c", "fusion_lon": 0.0, "bike_id": "d0d9332da67e7590463cf283a6a7c26c", "is_reserved": 0, "type": "electric_scooter", "lat": 38.933541, "fusion_lat": 0.0, "is_disabled": 0}, {"rental_uris": {"android": "https://dc.lft.to/lastmile_qr_scan", "ios": "https://dc.lft.to/lastmile_qr_scan"}, "lon": -77.03209883333334, "name": "665364546619bb0ffd084589b36c158a", "fusion_lon": 0.0, "bike_id": "665364546619bb0ffd084589b36c158a", "is_reserved": 0, "type": "electric_scooter", "lat": 38.914740333333334, "fusion_lat": 0.0, "is_disabled": 0}, {"rental_uris": {"android": "https://dc.lft.to/lastmile_qr_scan", "ios": "https://dc.lft.to/lastmile_qr_scan"}, "lon": -77.04188733333334, "name": "d29c4623ac5902a688484f9a4345a744", "fusion_lon": 0.0, "bike_id": "d29c4623ac5902a688484f9a4345a744", "is_reserved": 0, "type": "electric_scooter", "lat": 38.92049883333333, "fusion_lat": 0.0, "is_disabled": 0}, {"rental_uris": {"android": "https://dc.lft.to/lastmile_qr_scan", "ios": "https://dc.lft.to/lastmile_qr_scan"}, "lon": -77.0321275, "name": "2d7654e14ec4ea7c4d3ad8de8c73f8ab", "fusion_lon": 0.0, "bike_id": "2d7654e14ec4ea7c4d3ad8de8c73f8ab", "is_reserved": 0, "type": "electric_scooter", "lat": 38.914716166666665, "fusion_lat": 0.0, "is_disabled": 0}, {"rental_uris": {"android": "https://dc.lft.to/lastmile_qr_scan", "ios": "https://dc.lft.to/lastmile_qr_scan"}, "lon": -77.05691283333333, "name": "5a9ce64531b6d5f939f22c20c54195c4", "fusion_lon": 0.0, "bike_id": "5a9ce64531b6d5f939f22c20c54195c4", "is_reserved": 0, "type": "electric_scooter", "lat": 38.9335435, "fusion_lat": 0.0, "is_disabled": 0}, {"rental_uris": {"android": "https://dc.lft.to/lastmile_qr_scan", "ios": "https://dc.lft.to/lastmile_qr_scan"}, "lon": -77.02431416666667, "name": "9eb025f0538ac248215764cac9c59a78", "fusion_lon": 0.0, "bike_id": "9eb025f0538ac248215764cac9c59a78", "is_reserved": 0, "type": "electric_scooter", "lat": 38.92035283333333, "fusion_lat": 0.0, "is_disabled": 0}, {"rental_uris": {"android": "https://dc.lft.to/lastmile_qr_scan", "ios": "https://dc.lft.to/lastmile_qr_scan"}, "lon": -77.04195983333334, "name": "dbbfe84c6da95701f1b6363fcc99a896", "fusion_lon": 0.0, "bike_id": "dbbfe84c6da95701f1b6363fcc99a896", "is_reserved": 0, "type": "electric_scooter", "lat": 38.90741283333333, "fusion_lat": 0.0, "is_disabled": 0}, {"rental_uris": {"android": "https://dc.lft.to/lastmile_qr_scan", "ios": "https://dc.lft.to/lastmile_qr_scan"}, "lon": -77.02787533333333, "name": "44c92cba39d0c9752948eedff239eebc", "fusion_lon": 0.0, "bike_id": "44c92cba39d0c9752948eedff239eebc", "is_reserved": 0, "type": "electric_scooter", "lat": 38.89616266666667, "fusion_lat": 0.0, "is_disabled": 0}, {"rental_uris": {"android": "https://dc.lft.to/lastmile_qr_scan", "ios": "https://dc.lft.to/lastmile_qr_scan"}, "lon": -77.03230416666666, "name": "24142fc841edabb190747680a6407b9a", "fusion_lon": 0.0, "bike_id": "24142fc841edabb190747680a6407b9a", "is_reserved": 0, "type": "electric_scooter", "lat": 38.929054, "fusion_lat": 0.0, "is_disabled": 0}, {"rental_uris": {"android": "https://dc.lft.to/lastmile_qr_scan", "ios": "https://dc.lft.to/lastmile_qr_scan"}, "lon": -77.03081866666666, "name": "40dfd7fbcb04eb4dbe08d97d8504b358", "fusion_lon": 0.0, "bike_id": "40dfd7fbcb04eb4dbe08d97d8504b358", "is_reserved": 0, "type": "electric_scooter", "lat": 38.92038616666667, "fusion_lat": 0.0, "is_disabled": 0}, {"rental_uris": {"android": "https://dc.lft.to/lastmile_qr_scan", "ios": "https://dc.lft.to/lastmile_qr_scan"}, "lon": -77.00617083333333, "name": "91243a478c30fe45a85cb7428ae72cbc", "fusion_lon": 0.0, "bike_id": "91243a478c30fe45a85cb7428ae72cbc", "is_reserved": 0, "type": "electric_scooter", "lat": 38.8786755, "fusion_lat": 0.0, "is_disabled": 0}, {"rental_uris": {"android": "https://dc.lft.to/lastmile_qr_scan", "ios": "https://dc.lft.to/lastmile_qr_scan"}, "lon": -77.0493455, "name": "c34cd333321a8fff88e4f06bd6cd6d46", "fusion_lon": 0.0, "bike_id": "c34cd333321a8fff88e4f06bd6cd6d46", "is_reserved": 0, "type": "electric_scooter", "lat": 38.91929666666667, "fusion_lat": 0.0, "is_disabled": 0}, {"rental_uris": {"android": "https://dc.lft.to/lastmile_qr_scan", "ios": "https://dc.lft.to/lastmile_qr_scan"}, "lon": -76.99425616666667, "name": "6a299bc06f51da615ba2450915bf2a02", "fusion_lon": 0.0, "bike_id": "6a299bc06f51da615ba2450915bf2a02", "is_reserved": 0, "type": "electric_scooter", "lat": 38.852234, "fusion_lat": 0.0, "is_disabled": 0}, {"rental_uris": {"android": "https://dc.lft.to/lastmile_qr_scan", "ios": "https://dc.lft.to/lastmile_qr_scan"}, "lon": -77.02692933333333, "name": "b41872aa5894470e13bb52f9bf481f9a", "fusion_lon": 0.0, "bike_id": "b41872aa5894470e13bb52f9bf481f9a", "is_reserved": 0, "type": "electric_scooter", "lat": 38.9044185, "fusion_lat": 0.0, "is_disabled": 0}, {"rental_uris": {"android": "https://dc.lft.to/lastmile_qr_scan", "ios": "https://dc.lft.to/lastmile_qr_scan"}, "lon": -76.98572016666667, "name": "1de588202bc8be5cd84304959e65ec11", "fusion_lon": 0.0, "bike_id": "1de588202bc8be5cd84304959e65ec11", "is_reserved": 0, "type": "electric_scooter", "lat": 38.89908483333333, "fusion_lat": 0.0, "is_disabled": 0}, {"rental_uris": {"android": "https://dc.lft.to/lastmile_qr_scan", "ios": "https://dc.lft.to/lastmile_qr_scan"}, "lon": -77.03992083333333, "name": "ca621e6a105e2510a32d8c9b3eefd45c", "fusion_lon": 0.0, "bike_id": "ca621e6a105e2510a32d8c9b3eefd45c", "is_reserved": 0, "type": "electric_scooter", "lat": 38.892229666666665, "fusion_lat": 0.0, "is_disabled": 0}, {"rental_uris": {"android": "https://dc.lft.to/lastmile_qr_scan", "ios": "https://dc.lft.to/lastmile_qr_scan"}, "lon": -77.01955616666666, "name": "34e758976b8d69a2a5ac3224bb879237", "fusion_lon": 0.0, "bike_id": "34e758976b8d69a2a5ac3224bb879237", "is_reserved": 0, "type": "electric_scooter", "lat": 38.924044, "fusion_lat": 0.0, "is_disabled": 0}, {"rental_uris": {"android": "https://dc.lft.to/lastmile_qr_scan", "ios": "https://dc.lft.to/lastmile_qr_scan"},