{"data": {"bikes": [{"lat": 38.90127016666667, "type": "electric_scooter", "is_disabled": 0, "rental_uris": {"android": "https://dc.lft.to/lastmile_qr_scan", "ios": "https://dc.lft.to/lastmile_qr_scan"}, "is_reserved": 0, "bike_id": "f5f13f7cd1e0e698291f88a13d32c26c", "name": "f5f13f7cd1e0e698291f88a13d32c26c", "fusion_lon": 0.0, "lon": -77.0320935, "fusion_lat": 0.0}, {"lat": 38.899201, "type": "electric_scooter", "is_disabled": 0, "rental_uris": {"android": "https://dc.lft.to/lastmile_qr_scan", "ios": "https://dc.lft.to/lastmile_qr_scan"}, "is_reserved": 0, "bike_id": "6d0db10c4c33708a8209e759743255e3", "name": "6d0db10c4c33708a8209e759743255e3", "fusion_lon": 0.0, "lon": -77.03313666666666, "fusion_lat": 0.0}, {"lat": 38.90157216666667, "type": "electric_scooter", "is_disabled": 0, "rental_uris": {"android": "https://dc.lft.to/lastmile_qr_scan", "ios": "https://dc.lft.to/lastmile_qr_scan"}, "is_reserved": 0, "bike_id": "d253a3143bcb669624eec938571a63db", "name": "d253a3143bcb669624eec938571a63db", "fusion_lon": 0.0, "lon": -77.04730933333333, "fusion_lat": 0.0}, {"lat": 38.918088833333336, "type": "electric_scooter", "is_disabled": 0, "rental_uris": {"android": "https://dc.lft.to/lastmile_qr_scan", "ios": "https://dc.lft.to/lastmile_qr_scan"}, "is_reserved": 0, "bike_id": "e06b161f3f28a9d6554bb8a63b555abf", "name": "e06b161f3f28a9d6554bb8a63b555abf", "fusion_lon": 0.0, "lon": -77.02687916666666, "fusion_lat": 0.0}, {"lat": 38.89837516666667, "type": "electric_scooter", "is_disabled": 0, "rental_uris": {"android": "https://dc.lft.to/lastmile_qr_scan", "ios": "https://dc.lft.to/lastmile_qr_scan"}, "is_reserved": 0, "bike_id": "1861931844c07f08527fa860a6eac185", "name": "1861931844c07f08527fa860a6eac185", "fusion_lon": 0.0, "lon": -77.007384, "fusion_lat": 0.0}, {"lat": 38.9181355, "type": "electric_scooter", "is_disabled": 0, "rental_uris": {"android": "https://dc.lft.to/lastmile_qr_scan", "ios": "https://dc.lft.to/lastmile_qr_scan"}, "is_reserved": 0, "bike_id": "25d66495c45f11120d0fe1f199c0252b", "name": "25d66495c45f11120d0fe1f199c0252b", "fusion_lon": 0.0, "lon": -77.040046, "fusion_lat": 0.0}, {"lat": 38.92333466666667, "type": "electric_scooter", "is_disabled": 0, "rental_uris": {"android": "https://dc.lft.to/lastmile_qr_scan", "ios": "https://dc.lft.to/lastmile_qr_scan"}, "is_reserved": 0, "bike_id": "2cb344b8b74ebc3a60a0b4967b556970", "name": "2cb344b8b74ebc3a60a0b4967b556970", "fusion_lon": 0.0, "lon": -77.03510616666667, "fusion_lat": 0.0}, {"lat": 38.92341483333333, "type": "electric_scooter", "is_disabled": 0, "rental_uris": {"android": "https://dc.lft.to/lastmile_qr_scan", "ios": "https://dc.lft.to/lastmile_qr_scan"}, "is_reserved": 0, "bike_id": "8d5481a27d78ed86234e5702518eea4c", "name": "8d5481a27d78ed86234e5702518eea4c", "fusion_lon": 0.0, "lon": -77.035136, "fusion_lat": 0.0}, {"lat": 38.90252816666667, "type": "electric_scooter", "is_disabled": 0, "rental_uris": {"android": "https://dc.lft.to/lastmile_qr_scan", "ios": "https://dc.lft.to/lastmile_qr_scan"}, "is_reserved": 0, "bike_id": "f3d2fa807e02626e494dde79da7e9ee3", "name": "f3d2fa807e02626e494dde79da7e9ee3", "fusion_lon": 0.0, "lon": -77.0191355, "fusion_lat": 0.0}, {"lat": 38.884905833333335, "type": "electric_scooter", "is_disabled": 0, "rental_uris": {"android": "https://dc.lft.to/lastmile_qr_scan", "ios": "https://dc.lft.to/lastmile_qr_scan"}, "is_reserved": 0, "bike_id": "16d4bae2e24c4e6d51eb7aec82d1228e", "name": "16d4bae2e24c4e6d51eb7aec82d1228e", "fusion_lon": 0.0, "lon": -77.00710583333333, "fusion_lat": 0.0}, {"lat": 38.894861, "type": "electric_scooter", "is_disabled": 0, "rental_uris": {"android": "https://dc.lft.to/lastmile_qr_scan", "ios": "https://dc.lft.to/lastmile_qr_scan"}, "is_reserved": 0, "bike_id": "5aa28e5bb491e516a778a7641eda09de", "name": "5aa28e5bb491e516a778a7641eda09de", "fusion_lon": 0.0, "lon": -77.00214533333333, "fusion_lat": 0.0}, {"lat": 38.8977095, "type": "electric_scooter", "is_disabled": 0, "rental_uris": {"android": "https://dc.lft.to/lastmile_qr_scan", "ios": "https://dc.lft.to/lastmile_qr_scan"}, "is_reserved": 0, "bike_id": "fa8f6e0e83d13bddfa8ae79928876f44", "name": "fa8f6e0e83d13bddfa8ae79928876f44", "fusion_lon": 0.0, "lon": -77.02488166666667, "fusion_lat": 0.0}, {"lat": 38.95647133333333, "type": "electric_scooter", "is_disabled": 0, "rental_uris": {"android": "https://dc.lft.to/lastmile_qr_scan", "ios": "https://dc.lft.to/lastmile_qr_scan"}, "is_reserved": 0, "bike_id": "869fe865bf057df1da2c528be7289f46", "name": "869fe865bf057df1da2c528be7289f46", "fusion_lon": 0.0, "lon": -77.014971, "fusion_lat": 0.0}, {"lat": 38.925703, "type": "electric_scooter", "is_disabled": 0, "rental_uris": {"android": "https://dc.lft.to/lastmile_qr_scan", "ios": "https://dc.lft.to/lastmile_qr_scan"}, "is_reserved": 0, "bike_id": "7b6ce28c187caead34d51db3c37692c9", "name": "7b6ce28c187caead34d51db3c37692c9", "fusion_lon": 0.0, "lon": -77.031021, "fusion_lat": 0.0}, {"lat": 38.924613, "type": "electric_scooter", "is_disabled": 0, "rental_uris": {"android": "https://dc.lft.to/lastmile_qr_scan", "ios": "https://dc.lft.to/lastmile_qr_scan"}, "is_reserved": 0, "bike_id": "cae19c8754a0ef1d1201a6a9ebb4efbb", "name": "cae19c8754a0ef1d1201a6a9ebb4efbb", "fusion_lon": 0.0, "lon": -77.05232166666667, "fusion_lat": 0.0}, {"lat": 38.9005095, "type": "electric_scooter", "is_disabled": 0, "rental_uris": {"android": "https://dc.lft.to/lastmile_qr_scan", "ios": "https://dc.lft.to/lastmile_qr_scan"}, "is_reserved": 0, "bike_id": "75c34dcc5080ea99e109627c5a191ed0", "name": "75c34dcc5080ea99e109627c5a191ed0", "fusion_lon": 0.0, "lon": -77.01984033333333, "fusion_lat": 0.0}, {"lat": 38.905856666666665, "type": "electric_scooter", "is_disabled": 0, "rental_uris": {"android": "https://dc.lft.to/lastmile_qr_scan", "ios": "https://dc.lft.to/lastmile_qr_scan"}, "is_reserved": 0, "bike_id": "c2ff44975665206b343b8bee6c128d80", "name": "c2ff44975665206b343b8bee6c128d80", "fusion_lon": 0.0, "lon": -77.00700466666666, "fusion_lat": 0.0}, {"lat": 38.908657, "type": "electric_scooter", "is_disabled": 0, "rental_uris": {"android": "https://dc.lft.to/lastmile_qr_scan", "ios": "https://dc.lft.to/lastmile_qr_scan"}, "is_reserved": 0, "bike_id": "4705cadd766d0bdc579bdb4671bff7f0", "name": "4705cadd766d0bdc579bdb4671bff7f0", "fusion_lon": 0.0, "lon": -77.03181883333333, "fusion_lat": 0.0}, {"lat": 38.94199416666667, "type": "electric_scooter", "is_disabled": 0, "rental_uris": {"android": "https://dc.lft.to/lastmile_qr_scan", "ios": "https://dc.lft.to/lastmile_qr_scan"}, "is_reserved": 0, "bike_id": "c8bbff9a5f7e0bf750e981e8270c75eb", "name": "c8bbff9a5f7e0bf750e981e8270c75eb", "fusion_lon": 0.0, "lon": -77.01825266666667, "fusion_lat": 0.0}, {"lat": 38.910500166666665, "type": "electric_scooter", "is_disabled": 0, "rental_uris": {"android": "https://dc.lft.to/lastmile_qr_scan", "ios": "https://dc.lft.to/lastmile_qr_scan"}, "is_reserved": 0, "bike_id": "40409bda963c42e7b982e3e4d8d6f806", "name": "40409bda963c42e7b982e3e4d8d6f806", "fusion_lon": 0.0, "lon": -77.04344866666666, "fusion_lat": 0.0}, {"lat": 38.921692666666665, "type": "electric_scooter", "is_disabled": 0, "rental_uris": {"android": "https://dc.lft.to/lastmile_qr_scan", "ios": "https://dc.lft.to/lastmile_qr_scan"}, "is_reserved": 0, "bike_id": "3149732f1e8498a18562fedec7f780fa", "name": "3149732f1e8498a18562fedec7f780fa", "fusion_lon": 0.0, "lon": -76.99396566666667, "fusion_lat": 0.0}, {"lat": 38.895104833333335, "type": "electric_scooter", "is_disabled": 0, "rental_uris": {"android": "https://dc.lft.to/lastmile_qr_scan", "ios": "https://dc.lft.to/lastmile_qr_scan"}, "is_reserved": 0, "bike_id": "9a3747430dd4084bf779aef849b0f899", "name": "9a3747430dd4084bf779aef849b0f899", "fusion_lon": 0.0, "lon": -76.94886266666667, "fusion_lat": 0.0}, {"lat": 38.931098, "type": "electric_scooter", "is_disabled": 0, "rental_uris": {"android": "https://dc.lft.to/lastmile_qr_scan", "ios": "https://dc.lft.to/lastmile_qr_scan"}, "is_reserved": 0, "bike_id": "fce7a71c3e652bc8c2dcf72d5d5ec32e", "name": "fce7a71c3e652bc8c2dcf72d5d5ec32e", "fusion_lon": 0.0, "lon": -77.030338, "fusion_lat": 0.0}, {"lat": 38.9024575, "type": "electric_scooter", "is_disabled": 0, "rental_uris": {"android": "https://dc.lft.to/lastmile_qr_scan", "ios": "https://dc.lft.to/lastmile_qr_scan"}, "is_reserved": 0, "bike_id": "6346f985337ee9eaa2e99718475b6dad", "name": "6346f985337ee9eaa2e99718475b6dad", "fusion_lon": 0.0, "lon": -77.02143516666666, "fusion_lat": 0.0}, {"lat": 38.900627166666666, "type": "electric_scooter", "is_disabled": 0, "rental_uris": {"android": "https://dc.lft.to/lastmile_qr_scan", "ios": "https://dc.lft.to/lastmile_qr_scan"}, "is_reserved": 0, "bike_id": "3b3b7695e143740bcae314794b95d443", "name": "3b3b7695e143740bcae314794b95d443", "fusion_lon": 0.0, "lon": -77.04491916666667, "fusion_lat": 0.0}, {"lat": 38.868111999999996, "type": "electric_scooter", "is_disabled": 0, "rental_uris": {"android": "https://dc.lft.to/lastmile_qr_scan", "ios": "https://dc.lft.to/lastmile_qr_scan"}, "is_reserved": 0, "bike_id": "ec6479f2fc97adfd5005809283d5b91a", "name": "ec6479f2fc97adfd5005809283d5b91a", "fusion_lon": 0.0, "lon": -77.01172866666667, "fusion_lat": 0.0}, {"lat": 38.8667105, "type": "electric_scooter", "is_disabled": 0, "rental_uris": {"android": "https://dc.lft.to/lastmile_qr_scan", "ios": "https://dc.lft.to/lastmile_qr_scan"}, "is_reserved": 0, "bike_id": "bddbfa21a93d2035303437646d60465e", "name": "bddbfa21a93d2035303437646d60465e", "fusion_lon": 0.0, "lon": -76.98883266666667, "fusion_lat": 0.0}, {"lat": 38.892238666666664, "type": "electric_scooter", "is_disabled": 0, "rental_uris": {"android": "https://dc.lft.to/lastmile_qr_scan", "ios": "https://dc.lft.to/lastmile_qr_scan"}, "is_reserved": 0, "bike_id": "912bb41b77564424bfb3f015552a22be", "name": "912bb41b77564424bfb3f015552a22be", "fusion_lon": 0.0, "lon": -77.02785866666666, "fusion_lat": 0.0}, {"lat": 38.91706816666667, "type": "electric_scooter", "is_disabled": 0, "rental_uris": {"android": "https://dc.lft.to/lastmile_qr_scan", "ios": "https://dc.lft.to/lastmile_qr_scan"}, "is_reserved": 0, "bike_id": "1ad830b9d604487b1773d4c3dd5db738", "name": "1ad830b9d604487b1773d4c3dd5db738", "fusion_lon": 0.0, "lon": -77.0347355, "fusion_lat": 0.0}, {"lat": 38.930134833333334, "type": "electric_scooter", "is_disabled": 0, "rental_uris": {"android": "https://dc.lft.to/lastmile_qr_scan", "ios": "https://dc.lft.to/lastmile_qr_scan"}, "is_reserved": 0, "bike_id": "a1a680a3162fb1b84247d9365ce0a5d8", "name": "a1a680a3162fb1b84247d9365ce0a5d8", "fusion_lon": 0.0, "lon": -77.06189416666666, "fusion_lat": 0.0}, {"lat": 38.928172333333336, "type": "electric_scooter", "is_disabled": 0, "rental_uris": {"android": "https://dc.lft.to/lastmile_qr_scan", "ios": "https://dc.lft.to/lastmile_qr_scan"}, "is_reserved": 0, "bike_id": "2941049a5297eeb318aa828bace62473", "name": "2941049a5297eeb318aa828bace62473", "fusion_lon": 0.0, "lon": -77.021436, "fusion_lat": 0.0}, {"lat": 38.89386733333333, "type": "electric_scooter", "is_disabled": 0, "rental_uris": {"android": "https://dc.lft.to/lastmile_qr_scan", "ios": "https://dc.lft.to/lastmile_qr_scan"}, "is_reserved": 0, "bike_id": "2dc3dc64d153b5411e7d4001dbc0ec72", "name": "2dc3dc64d153b5411e7d4001dbc0ec72", "fusion_lon": 0.0, "lon": -76.94994116666666, "fusion_lat": 0.0}, {"lat": 39.05457533333333, "type": "electric_bike", "is_disabled": 0, "rental_uris": {"android": "https://dc.lft.to/lastmile_qr_scan", "ios": "https://dc.lft.to/lastmile_qr_scan"}, "is_reserved": 0, "bike_id": "928f1e7c7c788fa215a87e5f5af745cc", "name": "928f1e7c7c788fa215a87e5f5af745cc", "fusion_lon": 0.0, "lon": -77.14326666666666, "fusion_lat": 0.0}, {"lat": 38.945855333333334, "type": "electric_bike", "is_disabled": 0, "rental_uris": {"android": "https://dc.lft.to/lastmile_qr_scan", "ios": "https://dc.lft.to/lastmile_qr_scan"}, "is_reserved": 0, "bike_id": "84001a0dca523f5e5fc35a66b633ca74", "name": "84001a0dca523f5e5fc35a66b633ca74", "fusion_lon": 0.0, "lon": -77.34406233333333, "fusion_lat": 0.0}, {"lat": 38.9013605, "type": "electric_scooter", "is_disabled": 0, "rental_uris": {"android": "https://dc.lft.to/lastmile_qr_scan", "ios": "https://dc.lft.to/lastmile_qr_scan"}, "is_reserved": 0, "bike_id": "df297b522f9359adf4205e29a0b4ecc1", "name": "df297b522f9359adf4205e29a0b4ecc1", "fusion_lon": 0.0, "lon": -76.95180333333333, "fusion_lat": 0.0}, {"lat": 38.90716333333334, "type": "electric_scooter", "is_disabled": 0, "rental_uris": {"android": "https://dc.lft.to/lastmile_qr_scan", "ios": "https://dc.lft.to/lastmile_qr_scan"}, "is_reserved": 0, "bike_id": "130a827077fd7e33701530767cc28a74", "name": "130a827077fd7e33701530767cc28a74", "fusion_lon": 0.0, "lon": -77.03863333333334, "fusion_lat": 0.0}, {"lat": 38.938636333333335, "type": "electric_scooter", "is_disabled": 0, "rental_uris": {"android": "https://dc.lft.to/lastmile_qr_scan", "ios": "https://dc.lft.to/lastmile_qr_scan"}, "is_reserved": 0, "bike_id": "573e0cc602e601b1fc15d0d30448f8af", "name": "573e0cc602e601b1fc15d0d30448f8af", "fusion_lon": 0.0, "lon": -77.02483316666667, "fusion_lat": 0.0}, {"lat": 38.9149435, "type": "electric_scooter", "is_disabled": 0, "rental_uris": {"android": "https://dc.lft.to/lastmile_qr_scan", "ios": "https://dc.lft.to/lastmile_qr_scan"}, "is_reserved": 0, "bike_id": "d06e270cea82b420208ca0cc8e940c58", "name": "d06e270cea82b420208ca0cc8e940c58", "fusion_lon": 0.0, "lon": -77.03443566666667, "fusion_lat": 0.0}, {"lat": 38.88008383333333, "type": "electric_bike", "is_disabled": 0, "rental_uris": {"android": "https://dc.lft.to/lastmile_qr_scan", "ios": "https://dc.lft.to/lastmile_qr_scan"}, "is_reserved": 0, "bike_id": "ebf7ca5108dda0549f491d506d9a79a3", "name": "ebf7ca5108dda0549f491d506d9a79a3", "fusion_lon": 0.0, "lon": -76.91595083333333, "fusion_lat": 0.0}, {"lat": 38.8711355, "type": "electric_scooter", "is_disabled": 0, "rental_uris": {"android": "https://dc.lft.to/lastmile_qr_scan", "ios": "https://dc.lft.to/lastmile_qr_scan"}, "is_reserved": 0, "bike_id": "32195889dd72dd30751e00fc032bb3b2", "name": "32195889dd72dd30751e00fc032bb3b2", "fusion_lon": 0.0, "lon": -77.0076725, "fusion_lat": 0.0}, {"lat": 38.99452816666667, "type": "electric_bike", "is_disabled": 0, "rental_uris": {"android": "https://dc.lft.to/lastmile_qr_scan", "ios": "https://dc.lft.to/lastmile_qr_scan"}, "is_reserved": 0, "bike_id": "16eb07f881d260579511353e6f919410", "name": "16eb07f881d260579511353e6f919410", "fusion_lon": 0.0, "lon": -76.90815666666667, "fusion_lat": 0.0}, {"lat": 38.9120335, "type": "electric_scooter", "is_disabled": 0, "rental_uris": {"android": "https://dc.lft.to/lastmile_qr_scan", "ios": "https://dc.lft.to/lastmile_qr_scan"}, "is_reserved": 0, "bike_id": "1b64777ba7a68b133ce606d39543a7ce", "name": "1b64777ba7a68b133ce606d39543a7ce", "fusion_lon": 0.0, "lon": -77.03747666666666, "fusion_lat": 0.0}, {"lat": 38.89229866666667, "type": "electric_scooter", "is_disabled": 0, "rental_uris": {"android": "https://dc.lft.to/lastmile_qr_scan", "ios": "https://dc.lft.to/lastmile_qr_scan"}, "is_reserved": 0, "bike_id": "57e33f5907289512ee90e9415e5a5a39", "name": "57e33f5907289512ee90e9415e5a5a39", "fusion_lon": 0.0, "lon": -77.05001633333333, "fusion_lat": 0.0}, {"lat": 38.88310116666667, "type": "electric_scooter", "is_disabled": 0, "rental_uris": {"android": "https://dc.lft.to/lastmile_qr_scan", "ios": "https://dc.lft.to/lastmile_qr_scan"}, "is_reserved": 0, "bike_id": "17bd8be910b0dce781b110540074b71f", "name": "17bd8be910b0dce781b110540074b71f", "fusion_lon": 0.0, "lon": -77.01639616666667, "fusion_lat": 0.0}, {"lat": 38.9037475, "type": "electric_scooter", "is_disabled": 0, "rental_uris": {"android": "https://dc.lft.to/lastmile_qr_scan", "ios": "https://dc.lft.to/lastmile_qr_scan"}, "is_reserved": 0, "bike_id": "176e6590ba2ae473baeb031ffbae7fe4", "name": "176e6590ba2ae473baeb031ffbae7fe4", "fusion_lon": 0.0, "lon": -77.00286733333333, "fusion_lat": 0.0}, {"lat": 38.870618666666665, "type": "electric_scooter", "is_disabled": 0, "rental_uris": {"android": "https://dc.lft.to/lastmile_qr_scan", "ios": "https://dc.lft.to/lastmile_qr_scan"}, "is_reserved": 0, "bike_id": "bc944b8ff1fc37c1a2f483364a9610e7", "name": "bc944b8ff1fc37c1a2f483364a9610e7", "fusion_lon": 0.0, "lon": -76.97981933333334, "fusion_lat": 0.0}, {"lat": 38.89226166666667, "type": "electric_scooter", "is_disabled": 0, "rental_uris": {"android": "https://dc.lft.to/lastmile_qr_scan", "ios": "https://dc.lft.to/lastmile_qr_scan"}, "is_reserved": 0, "bike_id": "b784122e0ffebc7bd2068ed10226bd44", "name": "b784122e0ffebc7bd2068ed10226bd44", "fusion_lon": 0.0, "lon": -77.024256, "fusion_lat": 0.0}, {"lat": 38.916888166666666, "type": "electric_scooter", "is_disabled": 0, "rental_uris": {"android": "https://dc.lft.to/lastmile_qr_scan", "ios": "https://dc.lft.to/lastmile_qr_scan"}, "is_reserved": 0, "bike_id": "697ce50e9cdd19a74fcae2c71d3700ef", "name": "697ce50e9cdd19a74fcae2c71d3700ef", "fusion_lon": 0.0, "lon": -77.029925, "fusion_lat": 0.0}, {"lat": 38.920829833333336, "type": "electric_scooter", "is_disabled": 0, "rental_uris": {"android": "https://dc.lft.to/lastmile_qr_scan", "ios": "https://dc.lft.to/lastmile_qr_scan"}, "is_reserved": 0, "bike_id": "8005935d9721ed6f066e6633ae8ab209", "name": "8005935d9721ed6f066e6633ae8ab209", "fusion_lon": 0.0, "lon": -77.000582, "fusion_lat": 0.0}, {"lat": 38.900695, "type": "electric_scooter", "is_disabled": 0, "rental_uris": {"android": "https://dc.lft.to/lastmile_qr_scan", "ios": "https://dc.lft.to/lastmile_qr_scan"}, "is_reserved": 0, "bike_id": "356768c5f5bcae2f0e053d71bf6a63ed", "name": "356768c5f5bcae2f0e053d71bf6a63ed", "fusion_lon": 0.0, "lon": -77.04918416666666, "fusion_lat": 0.0}, {"lat": 38.86972883333333, "type": "electric_bike", "is_disabled": 0, "rental_uris": {"android": "https://dc.lft.to/lastmile_qr_scan", "ios": "https://dc.lft.to/lastmile_qr_scan"}, "is_reserved": 0, "bike_id": "4953b5b364b31138a8b965d4909a8718", "name": "4953b5b364b31138a8b965d4909a8718", "fusion_lon": 0.0, "lon": -77.13230383333334, "fusion_lat": 0.0}, {"lat": 38.91626016666667, "type": "electric_scooter", "is_disabled": 0, "rental_uris": {"android": "https://dc.lft.to/lastmile_qr_scan", "ios": "https://dc.lft.to/lastmile_qr_scan"}, "is_reserved": 0, "bike_id": "69ce40b0ac7198fc8b4b31516ef9da97", "name": "69ce40b0ac7198fc8b4b31516ef9da97", "fusion_lon": 0.0, "lon": -77.03313016666667, "fusion_lat": 0.0}, {"lat": 38.9322855, "type": "electric_scooter", "is_disabled": 0, "rental_uris": {"android": "https://dc.lft.to/lastmile_qr_scan", "ios": "https://dc.lft.to/lastmile_qr_scan"}, "is_reserved": 0, "bike_id": "a78218a348cf43fb046e71e629147b8b", "name": "a78218a348cf43fb046e71e629147b8b", "fusion_lon": 0.0, "lon": -76.99934066666667, "fusion_lat": 0.0}, {"lat": 38.884838333333335, "type": "electric_scooter", "is_disabled": 0, "rental_uris": {"android": "https://dc.lft.to/lastmile_qr_scan", "ios": "https://dc.lft.to/lastmile_qr_scan"}, "is_reserved": 0, "bike_id": "84566cccdf38d38952b79a059f308b71", "name": "84566cccdf38d38952b79a059f308b71", "fusion_lon": 0.0, "lon": -77.02489283333334, "fusion_lat": 0.0}, {"lat": 38.90719133333333, "type": "electric_scooter", "is_disabled": 0, "rental_uris": {"android": "https://dc.lft.to/lastmile_qr_scan", "ios": "https://dc.lft.to/lastmile_qr_scan"}, "is_reserved": 0, "bike_id": "c7579ae0da511925da4c39a34b128d4a", "name": "c7579ae0da511925da4c39a34b128d4a", "fusion_lon": 0.0, "lon": -77.038619, "fusion_lat": 0.0}, {"lat": 38.909887833333336, "type": "electric_scooter", "is_disabled": 0, "rental_uris": {"android": "https://dc.lft.to/lastmile_qr_scan", "ios": "https://dc.lft.to/lastmile_qr_scan"}, "is_reserved": 0, "bike_id": "c1496f298f8739b756e8b14d1a7254f0", "name": "c1496f298f8739b756e8b14d1a7254f0", "fusion_lon": 0.0, "lon": -76.9849105, "fusion_lat": 0.0}, {"lat": 38.89422016666666, "type": "electric_scooter", "is_disabled": 0, "rental_uris": {"android": "https://dc.lft.to/lastmile_qr_scan", "ios": "https://dc.lft.to/lastmile_qr_scan"}, "is_reserved": 0, "bike_id": "037dfdaef709554cb279dc7e9e233489", "name": "037dfdaef709554cb279dc7e9e233489", "fusion_lon": 0.0, "lon": -76.9122185, "fusion_lat": 0.0}, {"lat": 38.8963655, "type": "electric_scooter", "is_disabled": 0, "rental_uris": {"android": "https://dc.lft.to/lastmile_qr_scan", "ios": "https://dc.lft.to/lastmile_qr_scan"}, "is_reserved": 0, "bike_id": "3d5b54f4cfd4df0f10e5027b38ff73bb", "name": "3d5b54f4cfd4df0f10e5027b38ff73bb", "fusion_lon": 0.0, "lon": -77.05021816666667, "fusion_lat": 0.0}, {"lat": 38.92101366666667, "type": "electric_scooter", "is_disabled": 0, "rental_uris": {"android": "https://dc.lft.to/lastmile_qr_scan", "ios": "https://dc.lft.to/lastmile_qr_scan"}, "is_reserved": 0, "bike_id": "f82de477adc726c28ff146e9301eb150", "name": "f82de477adc726c28ff146e9301eb150", "fusion_lon": 0.0, "lon": -77.018022, "fusion_lat": 0.0}, {"lat": 38.9050065, "type": "electric_scooter", "is_disabled": 0, "rental_uris": {"android": "https://dc.lft.to/lastmile_qr_scan", "ios": "https://dc.lft.to/lastmile_qr_scan"}, "is_reserved": 0, "bike_id": "f321ee98c67d7a77ba8a5802dc69d74a", "name": "f321ee98c67d7a77ba8a5802dc69d74a", "fusion_lon": 0.0, "lon": -77.029373, "fusion_lat": 0.0}, {"lat": 38.883093833333334, "type": "electric_scooter", "is_disabled": 0, "rental_uris": {"android": "https://dc.lft.to/lastmile_qr_scan", "ios": "https://dc.lft.to/lastmile_qr_scan"}, "is_reserved": 0, "bike_id": "2d5131a169d91af4703a564b05469e41", "name": "2d5131a169d91af4703a564b05469e41", "fusion_lon": 0.0, "lon": -77.01747583333334, "fusion_lat": 0.0}, {"lat": 38.90482333333333, "type": "electric_scooter", "is_disabled": 0, "rental_uris": {"android": "https://dc.lft.to/lastmile_qr_scan", "ios": "https://dc.lft.to/lastmile_qr_scan"}, "is_reserved": 0, "bike_id": "30a3a8ba81d808eb29bdcdc282dbb912", "name": "30a3a8ba81d808eb29bdcdc282dbb912", "fusion_lon": 0.0, "lon": -77.0281545, "fusion_lat": 0.0}, {"lat": 38.91193633333334, "type": "electric_scooter", "is_disabled": 0, "rental_uris": {"android": "https://dc.lft.to/lastmile_qr_scan", "ios": "https://dc.lft.to/lastmile_qr_scan"}, "is_reserved": 0, "bike_id": "5a71c452bd29b6ae802558bad8564050", "name": "5a71c452bd29b6ae802558bad8564050", "fusion_lon": 0.0, "lon": -77.04163116666666, "fusion_lat": 0.0}, {"lat": 38.91973733333333, "type": "electric_scooter", "is_disabled": 0, "rental_uris": {"android": "https://dc.lft.to/lastmile_qr_scan", "ios": "https://dc.lft.to/lastmile_qr_scan"}, "is_reserved": 0, "bike_id": "ac6cdbf995d0eabad0cead648c0dc48b", "name": "ac6cdbf995d0eabad0cead648c0dc48b", "fusion_lon": 0.0, "lon": -77.02199983333334, "fusion_lat": 0.0}, {"lat": 38.937031, "type": "electric_scooter", "is_disabled": 0, "rental_uris": {"android": "https://dc.lft.to/lastmile_qr_scan", "ios": "https://dc.lft.to/lastmile_qr_scan"}, "is_reserved": 0, "bike_id": "f361f0af7964d015a47aea08c6ee4a47", "name": "f361f0af7964d015a47aea08c6ee4a47", "fusion_lon": 0.0, "lon": -77.06099133333333, "fusion_lat": 0.0}, {"lat": 38.937177166666665, "type": "electric_scooter", "is_disabled": 0, "rental_uris": {"android": "https://dc.lft.to/lastmile_qr_scan", "ios": "https://dc.lft.to/lastmile_qr_scan"}, "is_reserved": 0, "bike_id": "60c1a5cfdfe6e32e707b529e6faa31bf", "name": "60c1a5cfdfe6e32e707b529e6faa31bf", "fusion_lon": 0.0, "lon": -77.02433083333334, "fusion_lat": 0.0}, {"lat": 38.8875575, "type": "electric_scooter", "is_disabled": 0, "rental_uris": {"android": "https://dc.lft.to/lastmile_qr_scan", "ios": "https://dc.lft.to/lastmile_qr_scan"}, "is_reserved": 0, "bike_id": "04194e9cfbaa4f7fbe8bf86ed3b6c029", "name": "04194e9cfbaa4f7fbe8bf86ed3b6c029", "fusion_lon": 0.0, "lon": -77.002649, "fusion_lat": 0.0}, {"lat": 38.900271333333336, "type": "electric_scooter", "is_disabled": 0, "rental_uris": {"android": "https://dc.lft.to/lastmile_qr_scan", "ios": "https://dc.lft.to/lastmile_qr_scan"}, "is_reserved": 0, "bike_id": "46b306a0897f5e70be459630f5d9c929", "name": "46b306a0897f5e70be459630f5d9c929", "fusion_lon": 0.0, "lon": -77.01164766666666, "fusion_lat": 0.0}, {"lat": 38.920987333333336, "type": "electric_scooter", "is_disabled": 0, "rental_uris": {"android": "https://dc.lft.to/lastmile_qr_scan", "ios": "https://dc.lft.to/lastmile_qr_scan"}, "is_reserved": 0, "bike_id": "56624ba99d68c0b6ca620c181fb862c2", "name": "56624ba99d68c0b6ca620c181fb862c2", "fusion_lon": 0.0, "lon": -77.04691833333334, "fusion_lat": 0.0}, {"lat": 38.910383, "type": "electric_scooter", "is_disabled": 0, "rental_uris": {"android": "https://dc.lft.to/lastmile_qr_scan", "ios": "https://dc.lft.to/lastmile_qr_scan"}, "is_reserved": 0, "bike_id": "7c7bb4f1acad1bfa451cdb5e86bba8b9", "name": "7c7bb4f1acad1bfa451cdb5e86bba8b9", "fusion_lon": 0.0, "lon": -77.040548, "fusion_lat": 0.0}, {"lat": 38.88765083333333, "type": "electric_scooter", "is_disabled": 0, "rental_uris": {"android": "https://dc.lft.to/lastmile_qr_scan", "ios": "https://dc.lft.to/lastmile_qr_scan"}, "is_reserved": 0, "bike_id": "ea0b5588919b53d646024128eb146dff", "name": "ea0b5588919b53d646024128eb146dff", "fusion_lon": 0.0, "lon": -76.95675283333334, "fusion_lat": 0.0}, {"lat": 38.904148, "type": "electric_scooter", "is_disabled": 0, "rental_uris": {"android": "https://dc.lft.to/lastmile_qr_scan", "ios": "https://dc.lft.to/lastmile_qr_scan"}, "is_reserved": 0, "bike_id": "4e90804b75c551723cbae16d36748b18", "name": "4e90804b75c551723cbae16d36748b18", "fusion_lon": 0.0, "lon": -76.9851405, "fusion_lat": 0.0}, {"lat": 38.8987405, "type": "electric_scooter", "is_disabled": 0, "rental_uris": {"android": "https://dc.lft.to/lastmile_qr_scan", "ios": "https://dc.lft.to/lastmile_qr_scan"}, "is_reserved": 0, "bike_id": "1cd1a95284c9deeeb940dc4ab77520fd", "name": "1cd1a95284c9deeeb940dc4ab77520fd", "fusion_lon": 0.0, "lon": -76.93185833333334, "fusion_lat": 0.0}, {"lat": 38.959572, "type": "electric_bike", "is_disabled": 0, "rental_uris": {"android": "https://dc.lft.to/lastmile_qr_scan", "ios": "https://dc.lft.to/lastmile_qr_scan"}, "is_reserved": 0, "bike_id": "5390cb5167636d35a708fa24c49ea2ac", "name": "5390cb5167636d35a708fa24c49ea2ac", "fusion_lon": 0.0, "lon": -76.98161433333334, "fusion_lat": 0.0}, {"lat": 38.90033716666667, "type": "electric_scooter", "is_disabled": 0, "rental_uris": {"android": "https://dc.lft.to/lastmile_qr_scan", "ios": "https://dc.lft.to/lastmile_qr_scan"}, "is_reserved": 0, "bike_id": "025686a3ab4258bf0a5e7e18028b7109", "name": "025686a3ab4258bf0a5e7e18028b7109", "fusion_lon": 0.0, "lon": -76.9882645, "fusion_lat": 0.0}, {"lat": 38.926226166666666, "type": "electric_scooter", "is_disabled": 0, "rental_uris": {"android": "https://dc.lft.to/lastmile_qr_scan", "ios": "https://dc.lft.to/lastmile_qr_scan"}, "is_reserved": 0, "bike_id": "40d5bf097d423bc48ddd9c346dd17b46", "name": "40d5bf097d423bc48ddd9c346dd17b46", "fusion_lon": 0.0, "lon": -77.05707633333333, "fusion_lat": 0.0}, {"lat": 38.952761833333334, "type": "electric_scooter", "is_disabled": 0, "rental_uris": {"android": "https://dc.lft.to/lastmile_qr_scan", "ios": "https://dc.lft.to/lastmile_qr_scan"}, "is_reserved": 0, "bike_id": "a5c7c0e09758a079459844be7150f1af", "name": "a5c7c0e09758a079459844be7150f1af", "fusion_lon": 0.0, "lon": -77.068508, "fusion_lat": 0.0}, {"lat": 38.91538666666667, "type": "electric_scooter", "is_disabled": 0, "rental_uris": {"android": "https://dc.lft.to/lastmile_qr_scan", "ios": "https://dc.lft.to/lastmile_qr_scan"}, "is_reserved": 0, "bike_id": "8127edfe6ee9871b0fdb3958a4a4cd6f", "name": "8127edfe6ee9871b0fdb3958a4a4cd6f", "fusion_lon": 0.0, "lon": -77.022043, "fusion_lat": 0.0}, {"lat": 38.91803433333333, "type": "electric_scooter", "is_disabled": 0, "rental_uris": {"android": "https://dc.lft.to/lastmile_qr_scan", "ios": "https://dc.lft.to/lastmile_qr_scan"}, "is_reserved": 0, "bike_id": "f2b24733b72f232a77f8ba8d8006f1c5", "name": "f2b24733b72f232a77f8ba8d8006f1c5", "fusion_lon": 0.0, "lon": -77.03561833333333, "fusion_lat": 0.0}, {"lat": 38.9220205, "type": "electric_scooter", "is_disabled": 0, "rental_uris": {"android": "https://dc.lft.to/lastmile_qr_scan", "ios": "https://dc.lft.to/lastmile_qr_scan"}, "is_reserved": 0, "bike_id": "4142d2ba4caa1e71fc8b7dca47857921", "name": "4142d2ba4caa1e71fc8b7dca47857921", "fusion_lon": 0.0, "lon": -77.018446, "fusion_lat": 0.0}, {"lat": 38.897318, "type": "electric_scooter", "is_disabled": 0, "rental_uris": {"android": "https://dc.lft.to/lastmile_qr_scan", "ios": "https://dc.lft.to/lastmile_qr_scan"}, "is_reserved": 0, "bike_id": "fe87a4f78b56bf22bef0d5739fbebbba", "name": "fe87a4f78b56bf22bef0d5739fbebbba", "fusion_lon": 0.0, "lon": -77.02962, "fusion_lat": 0.0}, {"lat": 38.892507, "type": "electric_scooter", "is_disabled": 0, "rental_uris": {"android": "https://dc.lft.to/lastmile_qr_scan", "ios": "https://dc.lft.to/lastmile_qr_scan"}, "is_reserved": 0, "bike_id": "1eb2974bcd97f3a7bbcf029cafe1b24d", "name": "1eb2974bcd97f3a7bbcf029cafe1b24d", "fusion_lon": 0.0, "lon": -76.99846983333333, "fusion_lat": 0.0}, {"lat": 38.882264166666666, "type": "electric_scooter", "is_disabled": 0, "rental_uris": {"android": "https://dc.lft.to/lastmile_qr_scan", "ios": "https://dc.lft.to/lastmile_qr_scan"}, "is_reserved": 0, "bike_id": "b23702b5cd362caca579b254bd873659", "name": "b23702b5cd362caca579b254bd873659", "fusion_lon": 0.0, "lon": -76.99081616666666, "fusion_lat": 0.0}, {"lat": 38.865919833333336, "type": "electric_bike", "is_disabled": 0, "rental_uris": {"android": "https://dc.lft.to/lastmile_qr_scan", "ios": "https://dc.lft.to/lastmile_qr_scan"}, "is_reserved": 0, "bike_id": "8eb08a2be68563fc8443ecc737a85b3b", "name": "8eb08a2be68563fc8443ecc737a85b3b", "fusion_lon": 0.0, "lon": -76.93226933333334, "fusion_lat": 0.0}, {"lat": 38.88370366666667, "type": "electric_scooter", "is_disabled": 0, "rental_uris": {"android": "https://dc.lft.to/lastmile_qr_scan", "ios": "https://dc.lft.to/lastmile_qr_scan"}, "is_reserved": 0, "bike_id": "7513174401a8f4c9e82eee7c067fc7d9", "name": "7513174401a8f4c9e82eee7c067fc7d9", "fusion_lon": 0.0, "lon": -76.99518683333334, "fusion_lat": 0.0}, {"lat": 38.90125066666667, "type": "electric_scooter", "is_disabled": 0, "rental_uris": {"android": "https://dc.lft.to/lastmile_qr_scan", "ios": "https://dc.lft.to/lastmile_qr_scan"}, "is_reserved": 0, "bike_id": "1e91ea340f4c641fc66ec611cd119d3c", "name": "1e91ea340f4c641fc66ec611cd119d3c", "fusion_lon": 0.0, "lon": -77.03371716666666, "fusion_lat": 0.0}, {"lat": 38.9044255, "type": "electric_scooter", "is_disabled": 0, "rental_uris": {"android": "https://dc.lft.to/lastmile_qr_scan", "ios": "https://dc.lft.to/lastmile_qr_scan"}, "is_reserved": 0, "bike_id": "8a92d7ca066a28aff99469e5891cd5d6", "name": "8a92d7ca066a28aff99469e5891cd5d6", "fusion_lon": 0.0, "lon": -77.03456266666667, "fusion_lat": 0.0}, {"lat": 38.890149666666666, "type": "electric_scooter", "is_disabled": 0, "rental_uris": {"android": "https://dc.lft.to/lastmile_qr_scan", "ios": "https://dc.lft.to/lastmile_qr_scan"}, "is_reserved": 0, "bike_id": "1c7056ee6dc54def93a720a15607672f", "name": "1c7056ee6dc54def93a720a15607672f", "fusion_lon": 0.0, "lon": -76.93743416666666, "fusion_lat": 0.0}, {"lat": 38.919938, "type": "electric_scooter", "is_disabled": 0, "rental_uris": {"android": "https://dc.lft.to/lastmile_qr_scan", "ios": "https://dc.lft.to/lastmile_qr_scan"}, "is_reserved": 0, "bike_id": "cf7aa5d8180837153d9e3b6070fea440", "name": "cf7aa5d8180837153d9e3b6070fea440", "fusion_lon": 0.0, "lon": -76.9839455, "fusion_lat": 0.0}, {"lat": 38.917754333333335, "type": "electric_scooter", "is_disabled": 0, "rental_uris": {"android": "https://dc.lft.to/lastmile_qr_scan", "ios": "https://dc.lft.to/lastmile_qr_scan"}, "is_reserved": 0, "bike_id": "f3ae886e4f21bbc0dd139ba32cf3ad2a", "name": "f3ae886e4f21bbc0dd139ba32cf3ad2a", "fusion_lon": 0.0, "lon": -77.03190716666667, "fusion_lat": 0.0}, {"lat": 38.91748283333333, "type": "electric_scooter", "is_disabled": 0, "rental_uris": {"android": "https://dc.lft.to/lastmile_qr_scan", "ios": "https://dc.lft.to/lastmile_qr_scan"}, "is_reserved": 0, "bike_id": "39ea8dc04d425c5cce6b84c74f4510d6", "name": "39ea8dc04d425c5cce6b84c74f4510d6", "fusion_lon": 0.0, "lon": -77.0416075, "fusion_lat": 0.0}, {"lat": 38.89745533333333, "type": "electric_scooter", "is_disabled": 0, "rental_uris": {"android": "https://dc.lft.to/lastmile_qr_scan", "ios": "https://dc.lft.to/lastmile_qr_scan"}, "is_reserved": 0, "bike_id": "b5c5c280da044f2883dea0068d427280", "name": "b5c5c280da044f2883dea0068d427280", "fusion_lon": 0.0, "lon": -77.05142, "fusion_lat": 0.0}, {"lat": 38.85210333333333, "type": "electric_bike", "is_disabled": 0, "rental_uris": {"android": "https://dc.lft.to/lastmile_qr_scan", "ios": "https://dc.lft.to/lastmile_qr_scan"}, "is_reserved": 0, "bike_id": "7471b4ae86d6c899ad8be4e10d774536", "name": "7471b4ae86d6c899ad8be4e10d774536", "fusion_lon": 0.0, "lon": -77.12759766666667, "fusion_lat": 0.0}, {"lat": 38.897385, "type": "electric_scooter", "is_disabled": 0, "rental_uris": {"android": "https://dc.lft.to/lastmile_qr_scan", "ios": "https://dc.lft.to/lastmile_qr_scan"}, "is_reserved": 0, "bike_id": "8aed2d5b0d6594b35fe9701fe8eef193", "name": "8aed2d5b0d6594b35fe9701fe8eef193", "fusion_lon": 0.0, "lon": -77.0472135, "fusion_lat": 0.0}, {"lat": 38.911940333333334, "type": "electric_scooter", "is_disabled": 0, "rental_uris": {"android": "https://dc.lft.to/lastmile_qr_scan", "ios": "https://dc.lft.to/lastmile_qr_scan"}, "is_reserved": 0, "bike_id": "9cd2aaef42d9f6d7946f12eac43949ec", "name": "9cd2aaef42d9f6d7946f12eac43949ec", "fusion_lon": 0.0, "lon": -77.03741333333333, "fusion_lat": 0.0}, {"lat": 38.91579083333333, "type": "electric_scooter", "is_disabled": 0, "rental_uris": {"android": "https://dc.lft.to/lastmile_qr_scan", "ios": "https://dc.lft.to/lastmile_qr_scan"}, "is_reserved": 0, "bike_id": "4999b9a295e2ab44b63db1b26566d4de", "name": "4999b9a295e2ab44b63db1b26566d4de", "fusion_lon": 0.0, "lon": -77.04679733333333, "fusion_lat": 0.0}, {"lat": 38.92458516666667, "type": "electric_scooter", "is_disabled": 0, "rental_uris": {"android": "https://dc.lft.to/lastmile_qr_scan", "ios": "https://dc.lft.to/lastmile_qr_scan"}, "is_reserved": 0, "bike_id": "83fd3f86869dad493cca11bf891eb2f1", "name": "83fd3f86869dad493cca11bf891eb2f1", "fusion_lon": 0.0, "lon": -76.99739183333334, "fusion_lat": 0.0}, {"lat": 38.898627, "type": "electric_scooter", "is_disabled": 0, "rental_uris": {"android": "https://dc.lft.to/lastmile_qr_scan", "ios": "https://dc.lft.to/lastmile_qr_scan"}, "is_reserved": 0, "bike_id": "f64b0033ccae91ab1e2a062e179450b2", "name": "f64b0033ccae91ab1e2a062e179450b2", "fusion_lon": 0.0, "lon": -77.01617283333333, "fusion_lat": 0.0}, {"lat": 38.9013705, "type": "electric_scooter", "is_disabled": 0, "rental_uris": {"android": "https://dc.lft.to/lastmile_qr_scan", "ios": "https://dc.lft.to/lastmile_qr_scan"}, "is_reserved": 0, "bike_id": "d2bc545a41f23c5295f190edeaaef9c7", "name": "d2bc545a41f23c5295f190edeaaef9c7", "fusion_lon": 0.0, "lon": -77.04399433333333, "fusion_lat": 0.0}, {"lat": 38.90808166666667, "type": "electric_scooter", "is_disabled": 0, "rental_uris": {"android": "https://dc.lft.to/lastmile_qr_scan", "ios": "https://dc.lft.to/lastmile_qr_scan"}, "is_reserved": 0, "bike_id": "ba13623e64cf4d8f7efb9b3153c966eb", "name": "ba13623e64cf4d8f7efb9b3153c966eb", "fusion_lon": 0.0, "lon": -77.03848566666667, "fusion_lat": 0.0}, {"lat": 38.93905783333334, "type": "electric_scooter", "is_disabled": 0, "rental_uris": {"android": "https://dc.lft.to/lastmile_qr_scan", "ios": "https://dc.lft.to/lastmile_qr_scan"}, "is_reserved": 0, "bike_id": "09fc217382991adff3a6cc7b1e84b5b1", "name": "09fc217382991adff3a6cc7b1e84b5b1", "fusion_lon": 0.0, "lon": -77.02473816666667, "fusion_lat": 0.0}, {"lat": 38.9499915, "type": "electric_bike", "is_disabled": 0, "rental_uris": {"android": "https://dc.lft.to/lastmile_qr_scan", "ios": "https://dc.lft.to/lastmile_qr_scan"}, "is_reserved": 0, "bike_id": "cdc6bd92582823d7ef6b28e514cd4889", "name": "cdc6bd92582823d7ef6b28e514cd4889", "fusion_lon": 0.0, "lon": -77.35304383333333, "fusion_lat": 0.0}, {"lat": 38.887452833333334, "type": "electric_scooter", "is_disabled": 0, "rental_uris": {"android": "https://dc.lft.to/lastmile_qr_scan", "ios": "https://dc.lft.to/lastmile_qr_scan"}, "is_reserved": 0, "bike_id": "5769a52635e32529d4df9144bbae30dd", "name": "5769a52635e32529d4df9144bbae30dd", "fusion_lon": 0.0, "lon": -77.022253, "fusion_lat": 0.0}, {"lat": 38.93147366666667, "type": "electric_scooter", "is_disabled": 0, "rental_uris": {"android": "https://dc.lft.to/lastmile_qr_scan", "ios": "https://dc.lft.to/lastmile_qr_scan"}, "is_reserved": 0, "bike_id": "4cff93f0fe7e45e7a6a9f08dffda62e8", "name": "4cff93f0fe7e45e7a6a9f08dffda62e8", "fusion_lon": 0.0, "lon": -77.03605783333333, "fusion_lat": 0.0}, {"lat": 38.90044016666667, "type": "electric_scooter", "is_disabled": 0, "rental_uris": {"android": "https://dc.lft.to/lastmile_qr_scan", "ios": "https://dc.lft.to/lastmile_qr_scan"}, "is_reserved": 0, "bike_id": "6bbc7d34695b7ffce6bb62a96d4df327", "name": "6bbc7d34695b7ffce6bb62a96d4df327", "fusion_lon": 0.0, "lon": -77.002065, "fusion_lat": 0.0}, {"lat": 38.850635833333335, "type": "electric_bike", "is_disabled": 0, "rental_uris": {"android": "https://dc.lft.to/lastmile_qr_scan", "ios": "https://dc.lft.to/lastmile_qr_scan"}, "is_reserved": 0, "bike_id": "0f7a97c13d11b5c2a2e9316957a3e27c", "name": "0f7a97c13d11b5c2a2e9316957a3e27c", "fusion_lon": 0.0, "lon": -76.97329983333333, "fusion_lat": 0.0}, {"lat": 38.90287383333333, "type": "electric_scooter", "is_disabled": 0, "rental_uris": {"android": "https://dc.lft.to/lastmile_qr_scan", "ios": "https://dc.lft.to/lastmile_qr_scan"}, "is_reserved": 0, "bike_id": "dfde9faaf90a687c590236449ab4473e", "name": "dfde9faaf90a687c590236449ab4473e", "fusion_lon": 0.0, "lon": -77.0385935, "fusion_lat": 0.0}, {"lat": 38.919856833333334, "type": "electric_scooter", "is_disabled": 0, "rental_uris": {"android": "https://dc.lft.to/lastmile_qr_scan", "ios": "https://dc.lft.to/lastmile_qr_scan"}, "is_reserved": 0, "bike_id": "5237d984fc4d1814d33a5ffd8b04448b", "name": "5237d984fc4d1814d33a5ffd8b04448b", "fusion_lon": 0.0, "lon": -77.0378995, "fusion_lat": 0.0}, {"lat": 38.907316333333334, "type": "electric_scooter", "is_disabled": 0, "rental_uris": {"android": "https://dc.lft.to/lastmile_qr_scan", "ios": "https://dc.lft.to/lastmile_qr_scan"}, "is_reserved": 0, "bike_id": "e6134d5282f6fcca86eac123f1d1f6bc", "name": "e6134d5282f6fcca86eac123f1d1f6bc", "fusion_lon": 0.0, "lon": -77.03958683333333, "fusion_lat": 0.0}, {"lat": 38.905860833333335, "type": "electric_scooter", "is_disabled": 0, "rental_uris": {"android": "https://dc.lft.to/lastmile_qr_scan", "ios": "https://dc.lft.to/lastmile_qr_scan"}, "is_reserved": 0, "bike_id": "c0ee38f1e5f92780010c2d93884a0504", "name": "c0ee38f1e5f92780010c2d93884a0504", "fusion_lon": 0.0, "lon": -77.0070835, "fusion_lat": 0.0}, {"lat": 38.9562865, "type": "electric_scooter", "is_disabled": 0, "rental_uris": {"android": "https://dc.lft.to/lastmile_qr_scan", "ios": "https://dc.lft.to/lastmile_qr_scan"}, "is_reserved": 0, "bike_id": "a3fdf64d852533e3941d3335ad852a62", "name": "a3fdf64d852533e3941d3335ad852a62", "fusion_lon": 0.0, "lon": -77.02984, "fusion_lat": 0.0}, {"lat": 38.907238, "type": "electric_scooter", "is_disabled": 0, "rental_uris": {"android": "https://dc.lft.to/lastmile_qr_scan", "ios": "https://dc.lft.to/lastmile_qr_scan"}, "is_reserved": 0, "bike_id": "8ee6892e41446d9fddf813c7db134049", "name": "8ee6892e41446d9fddf813c7db134049", "fusion_lon": 0.0, "lon": -77.04349666666667, "fusion_lat": 0.0}, {"lat": 38.897813, "type": "electric_scooter", "is_disabled": 0, "rental_uris": {"android": "https://dc.lft.to/lastmile_qr_scan", "ios": "https://dc.lft.to/lastmile_qr_scan"}, "is_reserved": 0, "bike_id": "381b6ac0f0a004a1b9dc1eb9b71b60ab", "name": "381b6ac0f0a004a1b9dc1eb9b71b60ab", "fusion_lon": 0.0, "lon": -77.03949033333333, "fusion_lat": 0.0}, {"lat": 38.92197383333333, "type": "electric_scooter", "is_disabled": 0, "rental_uris": {"android": "https://dc.lft.to/lastmile_qr_scan", "ios": "https://dc.lft.to/lastmile_qr_scan"}, "is_reserved": 0, "bike_id": "2814e3d68d1198e9ea0a593203afb2f9", "name": "2814e3d68d1198e9ea0a593203afb2f9", "fusion_lon": 0.0, "lon": -77.04017716666667, "fusion_lat": 0.0}, {"lat": 38.910872833333336, "type": "electric_bike", "is_disabled": 0, "rental_uris": {"android": "https://dc.lft.to/lastmile_qr_scan", "ios": "https://dc.lft.to/lastmile_qr_scan"}, "is_reserved": 0, "bike_id": "c019700806f7d85b4b5c2853b5128b0a", "name": "c019700806f7d85b4b5c2853b5128b0a", "fusion_lon": 0.0, "lon": -76.98481633333333, "fusion_lat": 0.0}, {"lat": 38.93688683333333, "type": "electric_scooter", "is_disabled": 0, "rental_uris": {"android": "https://dc.lft.to/lastmile_qr_scan", "ios": "https://dc.lft.to/lastmile_qr_scan"}, "is_reserved": 0, "bike_id": "b67a99ed6117582fa9532250257204c3", "name": "b67a99ed6117582fa9532250257204c3", "fusion_lon": 0.0, "lon": -77.03278966666667, "fusion_lat": 0.0}, {"lat": 38.896047333333335, "type": "electric_scooter", "is_disabled": 0, "rental_uris": {"android": "https://dc.lft.to/lastmile_qr_scan", "ios": "https://dc.lft.to/lastmile_qr_scan"}, "is_reserved": 0, "bike_id": "42591d2b3e53dd71941a5de2c04d32aa", "name": "42591d2b3e53dd71941a5de2c04d32aa", "fusion_lon": 0.0, "lon": -77.01114683333333, "fusion_lat": 0.0}, {"lat": 38.91620916666667, "type": "electric_scooter", "is_disabled": 0, "rental_uris": {"android": "https://dc.lft.to/lastmile_qr_scan", "ios": "https://dc.lft.to/lastmile_qr_scan"}, "is_reserved": 0, "bike_id": "ab62eec5de0efc30aad9885e5bcd9b2d", "name": "ab62eec5de0efc30aad9885e5bcd9b2d", "fusion_lon": 0.0, "lon": -77.02487933333333, "fusion_lat": 0.0}, {"lat": 38.930646333333335, "type": "electric_scooter", "is_disabled": 0, "rental_uris": {"android": "https://dc.lft.to/lastmile_qr_scan", "ios": "https://dc.lft.to/lastmile_qr_scan"}, "is_reserved": 0, "bike_id": "58f962d6182dc519e9b824e6e24d0e03", "name": "58f962d6182dc519e9b824e6e24d0e03", "fusion_lon": 0.0, "lon": -77.03817016666666, "fusion_lat": 0.0}, {"lat": 38.931446666666666, "type": "electric_scooter", "is_disabled": 0, "rental_uris": {"android": "https://dc.lft.to/lastmile_qr_scan", "ios": "https://dc.lft.to/lastmile_qr_scan"}, "is_reserved": 0, "bike_id": "b1ec526856eabbef4bf54ef2d11bd5bf", "name": "b1ec526856eabbef4bf54ef2d11bd5bf", "fusion_lon": 0.0, "lon": -77.03608783333334, "fusion_lat": 0.0}, {"lat": 38.9056905, "type": "electric_scooter", "is_disabled": 0, "rental_uris": {"android": "https://dc.lft.to/lastmile_qr_scan", "ios": "https://dc.lft.to/lastmile_qr_scan"}, "is_reserved": 0, "bike_id": "c13546a11fab22684d2ea62c23bc5ff6", "name": "c13546a11fab22684d2ea62c23bc5ff6", "fusion_lon": 0.0, "lon": -77.02534666666666, "fusion_lat": 0.0}, {"lat": 38.903677, "type": "electric_scooter", "is_disabled": 0, "rental_uris": {"android": "https://dc.lft.to/lastmile_qr_scan", "ios": "https://dc.lft.to/lastmile_qr_scan"}, "is_reserved": 0, "bike_id": "670cb80d4aae5e66b5b4be4d171ee20b", "name": "670cb80d4aae5e66b5b4be4d171ee20b", "fusion_lon": 0.0, "lon": -77.01941216666667, "fusion_lat": 0.0}, {"lat": 38.895263166666666, "type": "electric_scooter", "is_disabled": 0, "rental_uris": {"android": "https://dc.lft.to/lastmile_qr_scan", "ios": "https://dc.lft.to/lastmile_qr_scan"}, "is_reserved": 0, "bike_id": "a19de1cc70351342c88b4539003aff2d", "name": "a19de1cc70351342c88b4539003aff2d", "fusion_lon": 0.0, "lon": -77.0283465, "fusion_lat": 0.0}, {"lat": 38.900288333333336, "type": "electric_scooter", "is_disabled": 0, "rental_uris": {"android": "https://dc.lft.to/lastmile_qr_scan", "ios": "https://dc.lft.to/lastmile_qr_scan"}, "is_reserved": 0, "bike_id": "94871d52380a9a702d2a2d67dd472441", "name": "94871d52380a9a702d2a2d67dd472441", "fusion_lon": 0.0, "lon": -77.0118215, "fusion_lat": 0.0}, {"lat": 38.9390995, "type": "electric_scooter", "is_disabled": 0, "rental_uris": {"android": "https://dc.lft.to/lastmile_qr_scan", "ios": "https://dc.lft.to/lastmile_qr_scan"}, "is_reserved": 0, "bike_id": "9c0b68d9a1f5aad8090346d32ea0a39a", "name": "9c0b68d9a1f5aad8090346d32ea0a39a", "fusion_lon": 0.0, "lon": -77.02488866666667, "fusion_lat": 0.0}, {"lat": 38.8533295, "type": "electric_scooter", "is_disabled": 0, "rental_uris": {"android": "https://dc.lft.to/lastmile_qr_scan", "ios": "https://dc.lft.to/lastmile_qr_scan"}, "is_reserved": 0, "bike_id": "47377ade0902b503abd27cc29c168db9", "name": "47377ade0902b503abd27cc29c168db9", "fusion_lon": 0.0, "lon": -76.96606516666667, "fusion_lat": 0.0}, {"lat": 38.9882765, "type": "electric_bike", "is_disabled": 0, "rental_uris": {"android": "https://dc.lft.to/lastmile_qr_scan", "ios": "https://dc.lft.to/lastmile_qr_scan"}, "is_reserved": 0, "bike_id": "9f970e23376fc9541f38ba2770491834", "name": "9f970e23376fc9541f38ba2770491834", "fusion_lon": 0.0, "lon": -76.98748433333333, "fusion_lat": 0.0}, {"lat": 38.86247983333333, "type": "electric_scooter", "is_disabled": 0, "rental_uris": {"android": "https://dc.lft.to/lastmile_qr_scan", "ios": "https://dc.lft.to/lastmile_qr_scan"}, "is_reserved": 0, "bike_id": "a0cf231583028266bb778ee402354a87", "name": "a0cf231583028266bb778ee402354a87", "fusion_lon": 0.0, "lon": -76.99529666666666, "fusion_lat": 0.0}, {"lat": 38.8801515, "type": "electric_scooter", "is_disabled": 0, "rental_uris": {"android": "https://dc.lft.to/lastmile_qr_scan", "ios": "https://dc.lft.to/lastmile_qr_scan"}, "is_reserved": 0, "bike_id": "de55801f21377998f4340b5712be5255", "name": "de55801f21377998f4340b5712be5255", "fusion_lon": 0.0, "lon": -76.93114183333333, "fusion_lat": 0.0}, {"lat": 38.90509516666667, "type": "electric_scooter", "is_disabled": 0, "rental_uris": {"android": "https://dc.lft.to/lastmile_qr_scan", "ios": "https://dc.lft.to/lastmile_qr_scan"}, "is_reserved": 0, "bike_id": "9657831fe61d02288ffd7d92f08b8213", "name": "9657831fe61d02288ffd7d92f08b8213", "fusion_lon": 0.0, "lon": -77.05148416666667, "fusion_lat": 0.0}, {"lat": 38.9217935, "type": "electric_scooter", "is_disabled": 0, "rental_uris": {"android": "https://dc.lft.to/lastmile_qr_scan", "ios": "https://dc.lft.to/lastmile_qr_scan"}, "is_reserved": 0, "bike_id": "b9cef873333b02767be0e7946706ce9e", "name": "b9cef873333b02767be0e7946706ce9e", "fusion_lon": 0.0, "lon": -77.04231583333333, "fusion_lat": 0.0}, {"lat": 38.89732, "type": "electric_bike", "is_disabled": 0, "rental_uris": {"android": "https://dc.lft.to/lastmile_qr_scan", "ios": "https://dc.lft.to/lastmile_qr_scan"}, "is_reserved": 0, "bike_id": "ee13934bd9b88c3c4af591f3ecf9e301", "name": "ee13934bd9b88c3c4af591f3ecf9e301", "fusion_lon": 0.0, "lon": -76.90543283333334, "fusion_lat": 0.0}, {"lat": 38.905603, "type": "electric_scooter", "is_disabled": 0, "rental_uris": {"android": "https://dc.lft.to/lastmile_qr_scan", "ios": "https://dc.lft.to/lastmile_qr_scan"}, "is_reserved": 0, "bike_id": "1904445d6f181ffd59d99b1cb8599d73", "name": "1904445d6f181ffd59d99b1cb8599d73", "fusion_lon": 0.0, "lon": -77.00610733333333, "fusion_lat": 0.0}, {"lat": 38.90987333333333, "type": "electric_scooter", "is_disabled": 0, "rental_uris": {"android": "https://dc.lft.to/lastmile_qr_scan", "ios": "https://dc.lft.to/lastmile_qr_scan"}, "is_reserved": 0, "bike_id": "3f1dd94d670c7f4afcd099c032e504ae", "name": "3f1dd94d670c7f4afcd099c032e504ae", "fusion_lon": 0.0, "lon": -77.00913583333333, "fusion_lat": 0.0}, {"lat": 38.902776333333335, "type": "electric_scooter", "is_disabled": 0, "rental_uris": {"android": "https://dc.lft.to/lastmile_qr_scan", "ios": "https://dc.lft.to/lastmile_qr_scan"}, "is_reserved": 0, "bike_id": "63040b6df1a2eab4b5d9910ee000da83", "name": "63040b6df1a2eab4b5d9910ee000da83", "fusion_lon": 0.0, "lon": -77.03830966666666, "fusion_lat": 0.0}, {"lat": 38.91906916666667, "type": "electric_scooter", "is_disabled": 0, "rental_uris": {"android": "https://dc.lft.to/lastmile_qr_scan", "ios": "https://dc.lft.to/lastmile_qr_scan"}, "is_reserved": 0, "bike_id": "7ea55d5add5eda069f6c096fa6114201", "name": "7ea55d5add5eda069f6c096fa6114201", "fusion_lon": 0.0, "lon": -77.04172616666666, "fusion_lat": 0.0}, {"lat": 38.916576, "type": "electric_scooter", "is_disabled": 0, "rental_uris": {"android": "https://dc.lft.to/lastmile_qr_scan", "ios": "https://dc.lft.to/lastmile_qr_scan"}, "is_reserved": 0, "bike_id": "2b7da5456b6ada704ce8aa8e78a9ac04", "name": "2b7da5456b6ada704ce8aa8e78a9ac04", "fusion_lon": 0.0, "lon": -77.04648216666666, "fusion_lat": 0.0}, {"lat": 38.909565, "type": "electric_scooter", "is_disabled": 0, "rental_uris": {"android": "https://dc.lft.to/lastmile_qr_scan", "ios": "https://dc.lft.to/lastmile_qr_scan"}, "is_reserved": 0, "bike_id": "d8cae5d5e1983f74db20e133cabedffb", "name": "d8cae5d5e1983f74db20e133cabedffb", "fusion_lon": 0.0, "lon": -77.0445825, "fusion_lat": 0.0}, {"lat": 38.88738266666667, "type": "electric_scooter", "is_disabled": 0, "rental_uris": {"android": "https://dc.lft.to/lastmile_qr_scan", "ios": "https://dc.lft.to/lastmile_qr_scan"}, "is_reserved": 0, "bike_id": "a80348a2e6802f13e85cdd3fb46167f8", "name": "a80348a2e6802f13e85cdd3fb46167f8", "fusion_lon": 0.0, "lon": -77.0153255, "fusion_lat": 0.0}, {"lat": 38.913031833333335, "type": "electric_scooter", "is_disabled": 0, "rental_uris": {"android": "https://dc.lft.to/lastmile_qr_scan", "ios": "https://dc.lft.to/lastmile_qr_scan"}, "is_reserved": 0, "bike_id": "34435231244a070db91061c512dff3cd", "name": "34435231244a070db91061c512dff3cd", "fusion_lon": 0.0, "lon": -77.0202955, "fusion_lat": 0.0}, {"lat": 39.05205383333333, "type": "electric_bike", "is_disabled": 0, "rental_uris": {"android": "https://dc.lft.to/lastmile_qr_scan", "ios": "https://dc.lft.to/lastmile_qr_scan"}, "is_reserved": 0, "bike_id": "6b4100979763550e89c5550d55442305", "name": "6b4100979763550e89c5550d55442305", "fusion_lon": 0.0, "lon": -77.04408133333334, "fusion_lat": 0.0}, {"lat": 38.886711, "type": "electric_scooter", "is_disabled": 0, "rental_uris": {"android": "https://dc.lft.to/lastmile_qr_scan", "ios": "https://dc.lft.to/lastmile_qr_scan"}, "is_reserved": 0, "bike_id": "4555c5b99cf5be6529fb3de2e6ba2e90", "name": "4555c5b99cf5be6529fb3de2e6ba2e90", "fusion_lon": 0.0, "lon": -77.00339933333333, "fusion_lat": 0.0}, {"lat": 38.913624166666665, "type": "electric_scooter", "is_disabled": 0, "rental_uris": {"android": "https://dc.lft.to/lastmile_qr_scan", "ios": "https://dc.lft.to/lastmile_qr_scan"}, "is_reserved": 0, "bike_id": "103fa90c96020332d2f6ca8bcae006f1", "name": "103fa90c96020332d2f6ca8bcae006f1", "fusion_lon": 0.0, "lon": -77.04158183333334, "fusion_lat": 0.0}, {"lat": 38.886395, "type": "electric_scooter", "is_disabled": 0, "rental_uris": {"android": "https://dc.lft.to/lastmile_qr_scan", "ios": "https://dc.lft.to/lastmile_qr_scan"}, "is_reserved": 0, "bike_id": "2509f204fd6e4492980ff18306e520bc", "name": "2509f204fd6e4492980ff18306e520bc", "fusion_lon": 0.0, "lon": -77.0137105, "fusion_lat": 0.0}, {"lat": 38.93524016666667, "type": "electric_scooter", "is_disabled": 0, "rental_uris": {"android": "https://dc.lft.to/lastmile_qr_scan", "ios": "https://dc.lft.to/lastmile_qr_scan"}, "is_reserved": 0, "bike_id": "2b36171d9e8322db0ef460e272fe9ab8", "name": "2b36171d9e8322db0ef460e272fe9ab8", "fusion_lon": 0.0, "lon": -77.03253216666667, "fusion_lat": 0.0}, {"lat": 38.880778666666664, "type": "electric_scooter", "is_disabled": 0, "rental_uris": {"android": "https://dc.lft.to/lastmile_qr_scan", "ios": "https://dc.lft.to/lastmile_qr_scan"}, "is_reserved": 0, "bike_id": "990dcf2b619ffe5405db83f92c657094", "name": "990dcf2b619ffe5405db83f92c657094", "fusion_lon": 0.0, "lon": -77.02576466666666, "fusion_lat": 0.0}, {"lat": 38.87603266666667, "type": "electric_scooter", "is_disabled": 0, "rental_uris": {"android": "https://dc.lft.to/lastmile_qr_scan", "ios": "https://dc.lft.to/lastmile_qr_scan"}, "is_reserved": 0, "bike_id": "b903247220b29b1b7caa82cca4d19154", "name": "b903247220b29b1b7caa82cca4d19154", "fusion_lon": 0.0, "lon": -77.00566183333333, "fusion_lat": 0.0}, {"lat": 38.9051525, "type": "electric_scooter", "is_disabled": 0, "rental_uris": {"android": "https://dc.lft.to/lastmile_qr_scan", "ios": "https://dc.lft.to/lastmile_qr_scan"}, "is_reserved": 0, "bike_id": "5a4715e6a942dfec1d04503c097d5195", "name": "5a4715e6a942dfec1d04503c097d5195", "fusion_lon": 0.0, "lon": -77.0500305, "fusion_lat": 0.0}, {"lat": 38.928595666666666, "type": "electric_scooter", "is_disabled": 0, "rental_uris": {"android": "https://dc.lft.to/lastmile_qr_scan", "ios": "https://dc.lft.to/lastmile_qr_scan"}, "is_reserved": 0, "bike_id": "ee4bfa00b9e813b71f38269b860b387a", "name": "ee4bfa00b9e813b71f38269b860b387a", "fusion_lon": 0.0, "lon": -77.01409266666667, "fusion_lat": 0.0}, {"lat": 38.88608633333333, "type": "electric_scooter", "is_disabled": 0, "rental_uris": {"android": "https://dc.lft.to/lastmile_qr_scan", "ios": "https://dc.lft.to/lastmile_qr_scan"}, "is_reserved": 0, "bike_id": "2a5f5d4fc0c5a98a650808ca569b554c", "name": "2a5f5d4fc0c5a98a650808ca569b554c", "fusion_lon": 0.0, "lon": -76.996537, "fusion_lat": 0.0}, {"lat": 38.904784666666664, "type": "electric_scooter", "is_disabled": 0, "rental_uris": {"android": "https://dc.lft.to/lastmile_qr_scan", "ios": "https://dc.lft.to/lastmile_qr_scan"}, "is_reserved": 0, "bike_id": "04fa94ec2ed23319481172925c205ed9", "name": "04fa94ec2ed23319481172925c205ed9", "fusion_lon": 0.0, "lon": -77.028097, "fusion_lat": 0.0}, {"lat": 38.88396733333333, "type": "electric_bike", "is_disabled": 0, "rental_uris": {"android": "https://dc.lft.to/lastmile_qr_scan", "ios": "https://dc.lft.to/lastmile_qr_scan"}, "is_reserved": 0, "bike_id": "bb3298c62266685aaa4a0084ac05b693", "name": "bb3298c62266685aaa4a0084ac05b693", "fusion_lon": 0.0, "lon": -77.03080366666667, "fusion_lat": 0.0}, {"lat": 38.8767205, "type": "electric_scooter", "is_disabled": 0, "rental_uris": {"android": "https://dc.lft.to/lastmile_qr_scan", "ios": "https://dc.lft.to/lastmile_qr_scan"}, "is_reserved": 0, "bike_id": "e7ddb0aaa92a3a6ebed5d5d9d5e954f5", "name": "e7ddb0aaa92a3a6ebed5d5d9d5e954f5", "fusion_lon": 0.0, "lon": -77.00448083333333, "fusion_lat": 0.0}, {"lat": 38.8460435, "type": "electric_bike", "is_disabled": 0, "rental_uris": {"android": "https://dc.lft.to/lastmile_qr_scan", "ios": "https://dc.lft.to/lastmile_qr_scan"}, "is_reserved": 0, "bike_id": "43461c406788e34ba3f452e5d6d523a5", "name": "43461c406788e34ba3f452e5d6d523a5", "fusion_lon": 0.0, "lon": -76.968804, "fusion_lat": 0.0}, {"lat": 38.887353, "type": "electric_scooter", "is_disabled": 0, "rental_uris": {"android": "https://dc.lft.to/lastmile_qr_scan", "ios": "https://dc.lft.to/lastmile_qr_scan"}, "is_reserved": 0, "bike_id": "1b1b6d6a392f424bff14de4e5a9df5dc", "name": "1b1b6d6a392f424bff14de4e5a9df5dc", "fusion_lon": 0.0, "lon": -77.01514783333333, "fusion_lat": 0.0}, {"lat": 38.91776433333333, "type": "electric_scooter", "is_disabled": 0, "rental_uris": {"android": "https://dc.lft.to/lastmile_qr_scan", "ios": "https://dc.lft.to/lastmile_qr_scan"}, "is_reserved": 0, "bike_id": "60dd22c20a264de3459d0ff602c997bf", "name": "60dd22c20a264de3459d0ff602c997bf", "fusion_lon": 0.0, "lon": -77.02316683333333, "fusion_lat": 0.0}, {"lat": 38.89727366666666, "type": "electric_scooter", "is_disabled": 0, "rental_uris": {"android": "https://dc.lft.to/lastmile_qr_scan", "ios": "https://dc.lft.to/lastmile_qr_scan"}, "is_reserved": 0, "bike_id": "9e20f63fcfe7b4a25ffb2e05704f8a3f", "name": "9e20f63fcfe7b4a25ffb2e05704f8a3f", "fusion_lon": 0.0, "lon": -76.94701933333333, "fusion_lat": 0.0}, {"lat": 38.841883, "type": "electric_bike", "is_disabled": 0, "rental_uris": {"android": "https://dc.lft.to/lastmile_qr_scan", "ios": "https://dc.lft.to/lastmile_qr_scan"}, "is_reserved": 0, "bike_id": "691456e5387629831301a7acb7401d99", "name": "691456e5387629831301a7acb7401d99", "fusion_lon": 0.0, "lon": -77.07746283333333, "fusion_lat": 0.0}, {"lat": 38.85543116666667, "type": "electric_bike", "is_disabled": 0, "rental_uris": {"android": "https://dc.lft.to/lastmile_qr_scan", "ios": "https://dc.lft.to/lastmile_qr_scan"}, "is_reserved": 0, "bike_id": "248858d2f77296494e7ca7ba5af5d9aa", "name": "248858d2f77296494e7ca7ba5af5d9aa", "fusion_lon": 0.0, "lon": -77.107373, "fusion_lat": 0.0}, {"lat": 38.900141833333336, "type": "electric_scooter", "is_disabled": 0, "rental_uris": {"android": "https://dc.lft.to/lastmile_qr_scan", "ios": "https://dc.lft.to/lastmile_qr_scan"}, "is_reserved": 0, "bike_id": "a6581b78686ab9277773b034c2eb5066", "name": "a6581b78686ab9277773b034c2eb5066", "fusion_lon": 0.0, "lon": -76.99597316666667, "fusion_lat": 0.0}, {"lat": 38.898366333333335, "type": "electric_scooter", "is_disabled": 0, "rental_uris": {"android": "https://dc.lft.to/lastmile_qr_scan", "ios": "https://dc.lft.to/lastmile_qr_scan"}, "is_reserved": 0, "bike_id": "a88e2cae8d0a0cfaba3598f4e2d4a6a3", "name": "a88e2cae8d0a0cfaba3598f4e2d4a6a3", "fusion_lon": 0.0, "lon": -77.01943033333333, "fusion_lat": 0.0}, {"lat": 38.905585, "type": "electric_scooter", "is_disabled": 0, "rental_uris": {"android": "https://dc.lft.to/lastmile_qr_scan", "ios": "https://dc.lft.to/lastmile_qr_scan"}, "is_reserved": 0, "bike_id": "41ad4487efa836c8a8059ef59f27e7dd", "name": "41ad4487efa836c8a8059ef59f27e7dd", "fusion_lon": 0.0, "lon": -77.0056995, "fusion_lat": 0.0}, {"lat": 38.895087333333336, "type": "electric_scooter", "is_disabled": 0, "rental_uris": {"android": "https://dc.lft.to/lastmile_qr_scan", "ios": "https://dc.lft.to/lastmile_qr_scan"}, "is_reserved": 0, "bike_id": "ab0d9c583f38b3aeab500cf3587cfb03", "name": "ab0d9c583f38b3aeab500cf3587cfb03", "fusion_lon": 0.0, "lon": -76.948859, "fusion_lat": 0.0}, {"lat": 39.0958805, "type": "electric_bike", "is_disabled": 0, "rental_uris": {"android": "https://dc.lft.to/lastmile_qr_scan", "ios": "https://dc.lft.to/lastmile_qr_scan"}, "is_reserved": 0, "bike_id": "f2ef026662b168eea524b32174ea131c", "name": "f2ef026662b168eea524b32174ea131c", "fusion_lon": 0.0, "lon": -77.14778983333333, "fusion_lat": 0.0}, {"lat": 38.899577, "type": "electric_scooter", "is_disabled": 0, "rental_uris": {"android": "https://dc.lft.to/lastmile_qr_scan", "ios": "https://dc.lft.to/lastmile_qr_scan"}, "is_reserved": 0, "bike_id": "cd51994da9a93a6b506494270638ce49", "name": "cd51994da9a93a6b506494270638ce49", "fusion_lon": 0.0, "lon": -77.025759, "fusion_lat": 0.0}, {"lat": 38.860319833333335, "type": "electric_scooter", "is_disabled": 0, "rental_uris": {"android": "https://dc.lft.to/lastmile_qr_scan", "ios": "https://dc.lft.to/lastmile_qr_scan"}, "is_reserved": 0, "bike_id": "4f49e8103f40185b4dd81a47c00856d3", "name": "4f49e8103f40185b4dd81a47c00856d3", "fusion_lon": 0.0, "lon": -76.99690583333333, "fusion_lat": 0.0}, {"lat": 38.999347666666665, "type": "electric_bike", "is_disabled": 0, "rental_uris": {"android": "https://dc.lft.to/lastmile_qr_scan", "ios": "https://dc.lft.to/lastmile_qr_scan"}, "is_reserved": 0, "bike_id": "52fe4dd69facbd0a6d7db781b85348c3", "name": "52fe4dd69facbd0a6d7db781b85348c3", "fusion_lon": 0.0, "lon": -77.00120966666667, "fusion_lat": 0.0}, {"lat": 38.93143583333333, "type": "electric_scooter", "is_disabled": 0, "rental_uris": {"android": "https://dc.lft.to/lastmile_qr_scan", "ios": "https://dc.lft.to/lastmile_qr_scan"}, "is_reserved": 0, "bike_id": "59a5a92f06cd3bc08059277be81ddb71", "name": "59a5a92f06cd3bc08059277be81ddb71", "fusion_lon": 0.0, "lon": -77.036101, "fusion_lat": 0.0}, {"lat": 38.908614666666665, "type": "electric_scooter", "is_disabled": 0, "rental_uris": {"android": "https://dc.lft.to/lastmile_qr_scan", "ios": "https://dc.lft.to/lastmile_qr_scan"}, "is_reserved": 0, "bike_id": "8727a26f19a33aa6cc7fce0bd98995c6", "name": "8727a26f19a33aa6cc7fce0bd98995c6", "fusion_lon": 0.0, "lon": -77.00367916666667, "fusion_lat": 0.0}, {"lat": 38.918142333333336, "type": "electric_scooter", "is_disabled": 0, "rental_uris": {"android": "https://dc.lft.to/lastmile_qr_scan", "ios": "https://dc.lft.to/lastmile_qr_scan"}, "is_reserved": 0, "bike_id": "f95f7020c95353f1c55f34c5f31f1a60", "name": "f95f7020c95353f1c55f34c5f31f1a60", "fusion_lon": 0.0, "lon": -77.02477283333333, "fusion_lat": 0.0}, {"lat": 38.886550666666665, "type": "electric_scooter", "is_disabled": 0, "rental_uris": {"android": "https://dc.lft.to/lastmile_qr_scan", "ios": "https://dc.lft.to/lastmile_qr_scan"}, "is_reserved": 0, "bike_id": "e7991a192eb6e9d919e7adff6666463a", "name": "e7991a192eb6e9d919e7adff6666463a", "fusion_lon": 0.0, "lon": -77.03387466666666, "fusion_lat": 0.0}, {"lat": 38.90732666666667, "type": "electric_scooter", "is_disabled": 0, "rental_uris": {"android": "https://dc.lft.to/lastmile_qr_scan", "ios": "https://dc.lft.to/lastmile_qr_scan"}, "is_reserved": 0, "bike_id": "fcc7969440d7002ac3e006e89b8701e4", "name": "fcc7969440d7002ac3e006e89b8701e4", "fusion_lon": 0.0, "lon": -77.0344685, "fusion_lat": 0.0}, {"lat": 38.91975633333333, "type": "electric_scooter", "is_disabled": 0, "rental_uris": {"android": "https://dc.lft.to/lastmile_qr_scan", "ios": "https://dc.lft.to/lastmile_qr_scan"}, "is_reserved": 0, "bike_id": "b8529b0955683307c8e6a2f50e7b541f", "name": "b8529b0955683307c8e6a2f50e7b541f", "fusion_lon": 0.0, "lon": -77.04152183333333, "fusion_lat": 0.0}, {"lat": 38.90728033333333, "type": "electric_scooter", "is_disabled": 0, "rental_uris": {"android": "https://dc.lft.to/lastmile_qr_scan", "ios": "https://dc.lft.to/lastmile_qr_scan"}, "is_reserved": 0, "bike_id": "b6393f53a3e914da81cc4587fef67cb3", "name": "b6393f53a3e914da81cc4587fef67cb3", "fusion_lon": 0.0, "lon": -77.02285766666667, "fusion_lat": 0.0}, {"lat": 38.88201983333333, "type": "electric_bike", "is_disabled": 0, "rental_uris": {"android": "https://dc.lft.to/lastmile_qr_scan", "ios": "https://dc.lft.to/lastmile_qr_scan"}, "is_reserved": 0, "bike_id": "77e14ddbfbcb585e8d190975199e32a3", "name": "77e14ddbfbcb585e8d190975199e32a3", "fusion_lon": 0.0, "lon": -77.11518416666667, "fusion_lat": 0.0}, {"lat": 38.917088166666666, "type": "electric_scooter", "is_disabled": 0, "rental_uris": {"android": "https://dc.lft.to/lastmile_qr_scan", "ios": "https://dc.lft.to/lastmile_qr_scan"}, "is_reserved": 0, "bike_id": "15fd03751efb1f792db1e5321368d757", "name": "15fd03751efb1f792db1e5321368d757", "fusion_lon": 0.0, "lon": -77.02719266666666, "fusion_lat": 0.0}, {"lat": 38.90807383333333, "type": "electric_scooter", "is_disabled": 0, "rental_uris": {"android": "https://dc.lft.to/lastmile_qr_scan", "ios": "https://dc.lft.to/lastmile_qr_scan"}, "is_reserved": 0, "bike_id": "de566dabef33e56a1dd54886303e1b79", "name": "de566dabef33e56a1dd54886303e1b79", "fusion_lon": 0.0, "lon": -77.03390666666667, "fusion_lat": 0.0}, {"lat": 38.90140816666667, "type": "electric_scooter", "is_disabled": 0, "rental_uris": {"android": "https://dc.lft.to/lastmile_qr_scan", "ios": "https://dc.lft.to/lastmile_qr_scan"}, "is_reserved": 0, "bike_id": "dd83bd961ece781cbfb93f52130c649f", "name": "dd83bd961ece781cbfb93f52130c649f", "fusion_lon": 0.0, "lon": -77.03984516666667, "fusion_lat": 0.0}, {"lat": 38.893558166666665, "type": "electric_scooter", "is_disabled": 0, "rental_uris": {"android": "https://dc.lft.to/lastmile_qr_scan", "ios": "https://dc.lft.to/lastmile_qr_scan"}, "is_reserved": 0, "bike_id": "e497be50a7446b2ee023415adf8aff45", "name": "e497be50a7446b2ee023415adf8aff45", "fusion_lon": 0.0, "lon": -76.98469883333334, "fusion_lat": 0.0}, {"lat": 38.905126, "type": "electric_scooter", "is_disabled": 0, "rental_uris": {"android": "https://dc.lft.to/lastmile_qr_scan", "ios": "https://dc.lft.to/lastmile_qr_scan"}, "is_reserved": 0, "bike_id": "8b8634b288b8251265eba7cf7e7e232d", "name": "8b8634b288b8251265eba7cf7e7e232d", "fusion_lon": 0.0, "lon": -77.06530983333333, "fusion_lat": 0.0}, {"lat": 38.90119933333333, "type": "electric_scooter", "is_disabled": 0, "rental_uris": {"android": "https://dc.lft.to/lastmile_qr_scan", "ios": "https://dc.lft.to/lastmile_qr_scan"}, "is_reserved": 0, "bike_id": "2106ed36e0070e2b1229830375d2c1d5", "name": "2106ed36e0070e2b1229830375d2c1d5", "fusion_lon": 0.0, "lon": -76.99147166666667, "fusion_lat": 0.0}, {"lat": 38.9096155, "type": "electric_scooter", "is_disabled": 0, "rental_uris": {"android": "https://dc.lft.to/lastmile_qr_scan", "ios": "https://dc.lft.to/lastmile_qr_scan"}, "is_reserved": 0, "bike_id": "ff52a1330e18f4410e729e9ca38b657a", "name": "ff52a1330e18f4410e729e9ca38b657a", "fusion_lon": 0.0, "lon": -77.0337705, "fusion_lat": 0.0}, {"lat": 38.92149166666667, "type": "electric_scooter", "is_disabled": 0, "rental_uris": {"android": "https://dc.lft.to/lastmile_qr_scan", "ios": "https://dc.lft.to/lastmile_qr_scan"}, "is_reserved": 0, "bike_id": "2a906595912191bf880e6950bf0b1df0", "name": "2a906595912191bf880e6950bf0b1df0", "fusion_lon": 0.0, "lon": -77.035068, "fusion_lat": 0.0}, {"lat": 38.90285633333333, "type": "electric_scooter", "is_disabled": 0, "rental_uris": {"android": "https://dc.lft.to/lastmile_qr_scan", "ios": "https://dc.lft.to/lastmile_qr_scan"}, "is_reserved": 0, "bike_id": "730041c288aad8872f4e9086eca75a54", "name": "730041c288aad8872f4e9086eca75a54", "fusion_lon": 0.0, "lon": -77.038548, "fusion_lat": 0.0}, {"lat": 38.89335066666666, "type": "electric_scooter", "is_disabled": 0, "rental_uris": {"android": "https://dc.lft.to/lastmile_qr_scan", "ios": "https://dc.lft.to/lastmile_qr_scan"}, "is_reserved": 0, "bike_id": "a54d7c5cf5942c36dedc7bdbfe71625d", "name": "a54d7c5cf5942c36dedc7bdbfe71625d", "fusion_lon": 0.0, "lon": -77.04656683333333, "fusion_lat": 0.0}, {"lat": 38.90516516666667, "type": "electric_scooter", "is_disabled": 0, "rental_uris": {"android": "https://dc.lft.to/lastmile_qr_scan", "ios": "https://dc.lft.to/lastmile_qr_scan"}, "is_reserved": 0, "bike_id": "336dd92073ab29ba837402c92f188fbe", "name": "336dd92073ab29ba837402c92f188fbe", "fusion_lon": 0.0, "lon": -77.0652735, "fusion_lat": 0.0}, {"lat": 38.911157333333335, "type": "electric_scooter", "is_disabled": 0, "rental_uris": {"android": "https://dc.lft.to/lastmile_qr_scan", "ios": "https://dc.lft.to/lastmile_qr_scan"}, "is_reserved": 0, "bike_id": "c0a1c3264834049d23d7d7c30db5c226", "name": "c0a1c3264834049d23d7d7c30db5c226", "fusion_lon": 0.0, "lon": -77.0314935, "fusion_lat": 0.0}, {"lat": 38.91778133333333, "type": "electric_scooter", "is_disabled": 0, "rental_uris": {"android": "https://dc.lft.to/lastmile_qr_scan", "ios": "https://dc.lft.to/lastmile_qr_scan"}, "is_reserved": 0, "bike_id": "05ff6ce5a9062dae804c7e7d762abba8", "name": "05ff6ce5a9062dae804c7e7d762abba8", "fusion_lon": 0.0, "lon": -77.023081, "fusion_lat": 0.0}, {"lat": 38.904137666666664, "type": "electric_scooter", "is_disabled": 0, "rental_uris": {"android": "https://dc.lft.to/lastmile_qr_scan", "ios": "https://dc.lft.to/lastmile_qr_scan"}, "is_reserved": 0, "bike_id": "33b58068264b2f7bed576583a152e486", "name": "33b58068264b2f7bed576583a152e486", "fusion_lon": 0.0, "lon": -77.04881433333334, "fusion_lat": 0.0}, {"lat": 38.896719166666664, "type": "electric_scooter", "is_disabled": 0, "rental_uris": {"android": "https://dc.lft.to/lastmile_qr_scan", "ios": "https://dc.lft.to/lastmile_qr_scan"}, "is_reserved": 0, "bike_id": "4df612b567fe4b31a6bb44ff2b023e70", "name": "4df612b567fe4b31a6bb44ff2b023e70", "fusion_lon": 0.0, "lon": -76.9472195, "fusion_lat": 0.0}, {"lat": 38.912184, "type": "electric_scooter", "is_disabled": 0, "rental_uris": {"android": "https://dc.lft.to/lastmile_qr_scan", "ios": "https://dc.lft.to/lastmile_qr_scan"}, "is_reserved": 0, "bike_id": "b68eb7293cb3e8ecf756d36c4b96bdc4", "name": "b68eb7293cb3e8ecf756d36c4b96bdc4", "fusion_lon": 0.0, "lon": -77.03190916666667, "fusion_lat": 0.0}, {"lat": 38.914234666666665, "type": "electric_scooter", "is_disabled": 0, "rental_uris": {"android": "https://dc.lft.to/lastmile_qr_scan", "ios": "https://dc.lft.to/lastmile_qr_scan"}, "is_reserved": 0, "bike_id": "1639ddf4ecd639e9682322a2d614e393", "name": "1639ddf4ecd639e9682322a2d614e393", "fusion_lon": 0.0, "lon": -77.04155883333334, "fusion_lat": 0.0}, {"lat": 38.905998333333336, "type": "electric_scooter", "is_disabled": 0, "rental_uris": {"android": "https://dc.lft.to/lastmile_qr_scan", "ios": "https://dc.lft.to/lastmile_qr_scan"}, "is_reserved": 0, "bike_id": "c8e2fcaeb9b203b3d52a0ac1e8211140", "name": "c8e2fcaeb9b203b3d52a0ac1e8211140", "fusion_lon": 0.0, "lon": -77.04345733333334, "fusion_lat": 0.0}, {"lat": 38.90662183333333, "type": "electric_scooter", "is_disabled": 0, "rental_uris": {"android": "https://dc.lft.to/lastmile_qr_scan", "ios": "https://dc.lft.to/lastmile_qr_scan"}, "is_reserved": 0, "bike_id": "688a082c0f0a91a8c045e518dcfa9e4a", "name": "688a082c0f0a91a8c045e518dcfa9e4a", "fusion_lon": 0.0, "lon": -77.04176666666666, "fusion_lat": 0.0}, {"lat": 38.907449, "type": "electric_scooter", "is_disabled": 0, "rental_uris": {"android": "https://dc.lft.to/lastmile_qr_scan", "ios": "https://dc.lft.to/lastmile_qr_scan"}, "is_reserved": 0, "bike_id": "1cf25ec17d394a3c26f62ea37946d78f", "name": "1cf25ec17d394a3c26f62ea37946d78f", "fusion_lon": 0.0, "lon": -77.03469633333333, "fusion_lat": 0.0}, {"lat": 38.848422666666664, "type": "electric_bike", "is_disabled": 0, "rental_uris": {"android": "https://dc.lft.to/lastmile_qr_scan", "ios": "https://dc.lft.to/lastmile_qr_scan"}, "is_reserved": 0, "bike_id": "019bd43f5eb1522472d0338cd15b1e7b", "name": "019bd43f5eb1522472d0338cd15b1e7b", "fusion_lon": 0.0, "lon": -77.08050683333333, "fusion_lat": 0.0}, {"lat": 38.87573783333333, "type": "electric_scooter", "is_disabled": 0, "rental_uris": {"android": "https://dc.lft.to/lastmile_qr_scan", "ios": "https://dc.lft.to/lastmile_qr_scan"}, "is_reserved": 0, "bike_id": "1d1249d082bd72235abac0d96176e7b1", "name": "1d1249d082bd72235abac0d96176e7b1", "fusion_lon": 0.0, "lon": -77.019937, "fusion_lat": 0.0}, {"lat": 38.925429666666666, "type": "electric_scooter", "is_disabled": 0, "rental_uris": {"android": "https://dc.lft.to/lastmile_qr_scan", "ios": "https://dc.lft.to/lastmile_qr_scan"}, "is_reserved": 0, "bike_id": "7f81f7fd774acc92495e84b5fe95f1f4", "name": "7f81f7fd774acc92495e84b5fe95f1f4", "fusion_lon": 0.0, "lon": -77.0518605, "fusion_lat": 0.0}, {"lat": 38.95888583333333, "type": "electric_bike", "is_disabled": 0, "rental_uris": {"android": "https://dc.lft.to/lastmile_qr_scan", "ios": "https://dc.lft.to/lastmile_qr_scan"}, "is_reserved": 0, "bike_id": "db491a19172e69ceded3bd2c84189948", "name": "db491a19172e69ceded3bd2c84189948", "fusion_lon": 0.0, "lon": -76.966821, "fusion_lat": 0.0}, {"lat": 38.89990866666667, "type": "electric_scooter", "is_disabled": 0, "rental_uris": {"android": "https://dc.lft.to/lastmile_qr_scan", "ios": "https://dc.lft.to/lastmile_qr_scan"}, "is_reserved": 0, "bike_id": "7edf4da599013a9e21cbc6ab2720a2a3", "name": "7edf4da599013a9e21cbc6ab2720a2a3", "fusion_lon": 0.0, "lon": -76.99854483333333, "fusion_lat": 0.0}, {"lat": 38.88653083333333, "type": "electric_scooter", "is_disabled": 0, "rental_uris": {"android": "https://dc.lft.to/lastmile_qr_scan", "ios": "https://dc.lft.to/lastmile_qr_scan"}, "is_reserved": 0, "bike_id": "8b10ce3f9b009abccc30038b948b5d15", "name": "8b10ce3f9b009abccc30038b948b5d15", "fusion_lon": 0.0, "lon": -77.03388333333334, "fusion_lat": 0.0}, {"lat": 38.8954405, "type": "electric_scooter", "is_disabled": 0, "rental_uris": {"android": "https://dc.lft.to/lastmile_qr_scan", "ios": "https://dc.lft.to/lastmile_qr_scan"}, "is_reserved": 0, "bike_id": "d9fae05088c4313f5e9d1ce25581adcb", "name": "d9fae05088c4313f5e9d1ce25581adcb", "fusion_lon": 0.0, "lon": -76.9833615, "fusion_lat": 0.0}, {"lat": 38.901574333333336, "type": "electric_bike", "is_disabled": 0, "rental_uris": {"android": "https://dc.lft.to/lastmile_qr_scan", "ios": "https://dc.lft.to/lastmile_qr_scan"}, "is_reserved": 0, "bike_id": "fe58091cb40c9397d77df488fdb66de9", "name": "fe58091cb40c9397d77df488fdb66de9", "fusion_lon": 0.0, "lon": -76.97964933333333, "fusion_lat": 0.0}, {"lat": 38.9191695, "type": "electric_scooter", "is_disabled": 0, "rental_uris": {"android": "https://dc.lft.to/lastmile_qr_scan", "ios": "https://dc.lft.to/lastmile_qr_scan"}, "is_reserved": 0, "bike_id": "f60f87d8d10e67334ea68cd687260917", "name": "f60f87d8d10e67334ea68cd687260917", "fusion_lon": 0.0, "lon": -77.03169333333334, "fusion_lat": 0.0}, {"lat": 38.90610366666667, "type": "electric_scooter", "is_disabled": 0, "rental_uris": {"android": "https://dc.lft.to/lastmile_qr_scan", "ios": "https://dc.lft.to/lastmile_qr_scan"}, "is_reserved": 0, "bike_id": "0593cae373ee895738247d063d852b0c", "name": "0593cae373ee895738247d063d852b0c", "fusion_lon": 0.0, "lon": -77.03314866666666, "fusion_lat": 0.0}, {"lat": 38.901553666666665, "type": "electric_scooter", "is_disabled": 0, "rental_uris": {"android": "https://dc.lft.to/lastmile_qr_scan", "ios": "https://dc.lft.to/lastmile_qr_scan"}, "is_reserved": 0, "bike_id": "a2053aae6e3d4e7cecf6c7867fcf07e2", "name": "a2053aae6e3d4e7cecf6c7867fcf07e2", "fusion_lon": 0.0, "lon": -77.04160766666666, "fusion_lat": 0.0}, {"lat": 38.895059833333335, "type": "electric_scooter", "is_disabled": 0, "rental_uris": {"android": "https://dc.lft.to/lastmile_qr_scan", "ios": "https://dc.lft.to/lastmile_qr_scan"}, "is_reserved": 0, "bike_id": "fc5594f4a109145e782e0eba545ef756", "name": "fc5594f4a109145e782e0eba545ef756", "fusion_lon": 0.0, "lon": -77.021998, "fusion_lat": 0.0}, {"lat": 38.831215666666665, "type": "electric_bike", "is_disabled": 0, "rental_uris": {"android": "https://dc.lft.to/lastmile_qr_scan", "ios": "https://dc.lft.to/lastmile_qr_scan"}, "is_reserved": 0, "bike_id": "09fbdb485da897b8a205f15e37226c22", "name": "09fbdb485da897b8a205f15e37226c22", "fusion_lon": 0.0, "lon": -77.0432075, "fusion_lat": 0.0}, {"lat": 38.87639566666667, "type": "electric_scooter", "is_disabled": 0, "rental_uris": {"android": "https://dc.lft.to/lastmile_qr_scan", "ios": "https://dc.lft.to/lastmile_qr_scan"}, "is_reserved": 0, "bike_id": "895ce0d0f7bdc1a0171e161b479710f9", "name": "895ce0d0f7bdc1a0171e161b479710f9", "fusion_lon": 0.0, "lon": -77.00597716666667, "fusion_lat": 0.0}, {"lat": 38.90691483333333, "type": "electric_scooter", "is_disabled": 0, "rental_uris": {"android": "https://dc.lft.to/lastmile_qr_scan", "ios": "https://dc.lft.to/lastmile_qr_scan"}, "is_reserved": 0, "bike_id": "1279cf97a11ffa4b20ead5a6249cd9f5", "name": "1279cf97a11ffa4b20ead5a6249cd9f5", "fusion_lon": 0.0, "lon": -77.04333616666666, "fusion_lat": 0.0}, {"lat": 38.91704933333333, "type": "electric_scooter", "is_disabled": 0, "rental_uris": {"android": "https://dc.lft.to/lastmile_qr_scan", "ios": "https://dc.lft.to/lastmile_qr_scan"}, "is_reserved": 0, "bike_id": "b245266d2a037741ce1f86587e0a9be2", "name": "b245266d2a037741ce1f86587e0a9be2", "fusion_lon": 0.0, "lon": -77.02999383333334, "fusion_lat": 0.0}, {"lat": 38.883716666666665, "type": "electric_scooter", "is_disabled": 0, "rental_uris": {"android": "https://dc.lft.to/lastmile_qr_scan", "ios": "https://dc.lft.to/lastmile_qr_scan"}, "is_reserved": 0, "bike_id": "9438c756e35c1548db0eb45cec36f415", "name": "9438c756e35c1548db0eb45cec36f415", "fusion_lon": 0.0, "lon": -76.99519483333333, "fusion_lat": 0.0}, {"lat": 38.8931865, "type": "electric_scooter", "is_disabled": 0, "rental_uris": {"android": "https://dc.lft.to/lastmile_qr_scan", "ios": "https://dc.lft.to/lastmile_qr_scan"}, "is_reserved": 0, "bike_id": "5ff63ab6b9cbebb1de72042275324395", "name": "5ff63ab6b9cbebb1de72042275324395", "fusion_lon": 0.0, "lon": -77.01967766666667, "fusion_lat": 0.0}, {"lat": 38.897104666666664, "type": "electric_scooter", "is_disabled": 0, "rental_uris": {"android": "https://dc.lft.to/lastmile_qr_scan", "ios": "https://dc.lft.to/lastmile_qr_scan"}, "is_reserved": 0, "bike_id": "0e8fd98bc0935bee486c99cf8b2d9921", "name": "0e8fd98bc0935bee486c99cf8b2d9921", "fusion_lon": 0.0, "lon": -77.0204975, "fusion_lat": 0.0}, {"lat": 38.850646166666664, "type": "electric_scooter", "is_disabled": 0, "rental_uris": {"android": "https://dc.lft.to/lastmile_qr_scan", "ios": "https://dc.lft.to/lastmile_qr_scan"}, "is_reserved": 0, "bike_id": "bcb72ecf2dd207f28b1c329f771f70f5", "name": "bcb72ecf2dd207f28b1c329f771f70f5", "fusion_lon": 0.0, "lon": -76.96524066666667, "fusion_lat": 0.0}, {"lat": 38.91816766666667, "type": "electric_scooter", "is_disabled": 0, "rental_uris": {"android": "https://dc.lft.to/lastmile_qr_scan", "ios": "https://dc.lft.to/lastmile_qr_scan"}, "is_reserved": 0, "bike_id": "0c1900848424f7a76a9b4e1a187d6586", "name": "0c1900848424f7a76a9b4e1a187d6586", "fusion_lon": 0.0, "lon": -77.00290583333333, "fusion_lat": 0.0}, {"lat": 38.827276166666664, "type": "electric_bike", "is_disabled": 0, "rental_uris": {"android": "https://dc.lft.to/lastmile_qr_scan", "ios": "https://dc.lft.to/lastmile_qr_scan"}, "is_reserved": 0, "bike_id": "e83386b340945098bcc345614fdd5819", "name": "e83386b340945098bcc345614fdd5819", "fusion_lon": 0.0, "lon": -77.00863766666667, "fusion_lat": 0.0}, {"lat": 38.90117683333333, "type": "electric_scooter", "is_disabled": 0, "rental_uris": {"android": "https://dc.lft.to/lastmile_qr_scan", "ios": "https://dc.lft.to/lastmile_qr_scan"}, "is_reserved": 0, "bike_id": "43bc21bb0e9db73119ef577349aecd02", "name": "43bc21bb0e9db73119ef577349aecd02", "fusion_lon": 0.0, "lon": -77.03186883333333, "fusion_lat": 0.0}, {"lat": 38.898217333333335, "type": "electric_scooter", "is_disabled": 0, "rental_uris": {"android": "https://dc.lft.to/lastmile_qr_scan", "ios": "https://dc.lft.to/lastmile_qr_scan"}, "is_reserved": 0, "bike_id": "ac762f348454587a123fe96a9c601a5c", "name": "ac762f348454587a123fe96a9c601a5c", "fusion_lon": 0.0, "lon": -77.04662933333333, "fusion_lat": 0.0}, {"lat": 38.8934475, "type": "electric_scooter", "is_disabled": 0, "rental_uris": {"android": "https://dc.lft.to/lastmile_qr_scan", "ios": "https://dc.lft.to/lastmile_qr_scan"}, "is_reserved": 0, "bike_id": "926a5aaa024974f5ab02765567b8cd55", "name": "926a5aaa024974f5ab02765567b8cd55", "fusion_lon": 0.0, "lon": -77.00327816666666, "fusion_lat": 0.0}, {"lat": 38.91672716666667, "type": "electric_scooter", "is_disabled": 0, "rental_uris": {"android": "https://dc.lft.to/lastmile_qr_scan", "ios": "https://dc.lft.to/lastmile_qr_scan"}, "is_reserved": 0, "bike_id": "e7a41812a7cc96cec27912036dafb99a", "name": "e7a41812a7cc96cec27912036dafb99a", "fusion_lon": 0.0, "lon": -77.0240865, "fusion_lat": 0.0}, {"lat": 38.93015966666667, "type": "electric_scooter", "is_disabled": 0, "rental_uris": {"android": "https://dc.lft.to/lastmile_qr_scan", "ios": "https://dc.lft.to/lastmile_qr_scan"}, "is_reserved": 0, "bike_id": "5a2b605758a55d04687c47faea712c41", "name": "5a2b605758a55d04687c47faea712c41", "fusion_lon": 0.0, "lon": -77.05552516666667, "fusion_lat": 0.0}, {"lat": 38.89831, "type": "electric_scooter", "is_disabled": 0, "rental_uris": {"android": "https://dc.lft.to/lastmile_qr_scan", "ios": "https://dc.lft.to/lastmile_qr_scan"}, "is_reserved": 0, "bike_id": "19ff74185be34803d86764ccd3dab750", "name": "19ff74185be34803d86764ccd3dab750", "fusion_lon": 0.0, "lon": -77.04340966666666, "fusion_lat": 0.0}, {"lat": 38.915141, "type": "electric_scooter", "is_disabled": 0, "rental_uris": {"android": "https://dc.lft.to/lastmile_qr_scan", "ios": "https://dc.lft.to/lastmile_qr_scan"}, "is_reserved": 0, "bike_id": "8760419548e2c22f796234a7946cf9b1", "name": "8760419548e2c22f796234a7946cf9b1", "fusion_lon": 0.0, "lon": -77.012101, "fusion_lat": 0.0}, {"lat": 38.9037165, "type": "electric_scooter", "is_disabled": 0, "rental_uris": {"android": "https://dc.lft.to/lastmile_qr_scan", "ios": "https://dc.lft.to/lastmile_qr_scan"}, "is_reserved": 0, "bike_id": "e315ec1934827738e13dd0ccca3ef5ab", "name": "e315ec1934827738e13dd0ccca3ef5ab", "fusion_lon": 0.0, "lon": -77.03337666666667, "fusion_lat": 0.0}, {"lat": 38.867104499999996, "type": "electric_scooter", "is_disabled": 0, "rental_uris": {"android": "https://dc.lft.to/lastmile_qr_scan", "ios": "https://dc.lft.to/lastmile_qr_scan"}, "is_reserved": 0, "bike_id": "633ea4b6af2163ed2ff958a5ba40fe6e", "name": "633ea4b6af2163ed2ff958a5ba40fe6e", "fusion_lon": 0.0, "lon": -76.98732916666667, "fusion_lat": 0.0}, {"lat": 38.9069, "type": "electric_scooter", "is_disabled": 0, "rental_uris": {"android": "https://dc.lft.to/lastmile_qr_scan", "ios": "https://dc.lft.to/lastmile_qr_scan"}, "is_reserved": 0, "bike_id": "3e965b89669218a553dfd6d053670452", "name": "3e965b89669218a553dfd6d053670452", "fusion_lon": 0.0, "lon": -77.00995966666666, "fusion_lat": 0.0}, {"lat": 38.908482166666666, "type": "electric_scooter", "is_disabled": 0, "rental_uris": {"android": "https://dc.lft.to/lastmile_qr_scan", "ios": "https://dc.lft.to/lastmile_qr_scan"}, "is_reserved": 0, "bike_id": "e75301f035ce96dc526bd901158948e3", "name": "e75301f035ce96dc526bd901158948e3", "fusion_lon": 0.0, "lon": -77.04547133333334, "fusion_lat": 0.0}, {"lat": 38.883839, "type": "electric_scooter", "is_disabled": 0, "rental_uris": {"android": "https://dc.lft.to/lastmile_qr_scan", "ios": "https://dc.lft.to/lastmile_qr_scan"}, "is_reserved": 0, "bike_id": "e5fc1edc27d86c0d6b370b74299676cd", "name": "e5fc1edc27d86c0d6b370b74299676cd", "fusion_lon": 0.0, "lon": -76.994893, "fusion_lat": 0.0}, {"lat": 38.904761, "type": "electric_bike", "is_disabled": 0, "rental_uris": {"android": "https://dc.lft.to/lastmile_qr_scan", "ios": "https://dc.lft.to/lastmile_qr_scan"}, "is_reserved": 0, "bike_id": "2592a9cd55403c12f758d1f1afa59d95", "name": "2592a9cd55403c12f758d1f1afa59d95", "fusion_lon": 0.0, "lon": -77.00206333333334, "fusion_lat": 0.0}, {"lat": 38.89978416666667, "type": "electric_scooter", "is_disabled": 0, "rental_uris": {"android": "https://dc.lft.to/lastmile_qr_scan", "ios": "https://dc.lft.to/lastmile_qr_scan"}, "is_reserved": 0, "bike_id": "49cfcb1b664292453b03c10889ef521a", "name": "49cfcb1b664292453b03c10889ef521a", "fusion_lon": 0.0, "lon": -77.04192466666667, "fusion_lat": 0.0}, {"lat": 38.9179515, "type": "electric_scooter", "is_disabled": 0, "rental_uris": {"android": "https://dc.lft.to/lastmile_qr_scan", "ios": "https://dc.lft.to/lastmile_qr_scan"}, "is_reserved": 0, "bike_id": "9c0be3bfc32fca96c96e1b8436f9a020", "name": "9c0be3bfc32fca96c96e1b8436f9a020", "fusion_lon": 0.0, "lon": -77.031867, "fusion_lat": 0.0}, {"lat": 38.930849333333335, "type": "electric_scooter", "is_disabled": 0, "rental_uris": {"android": "https://dc.lft.to/lastmile_qr_scan", "ios": "https://dc.lft.to/lastmile_qr_scan"}, "is_reserved": 0, "bike_id": "737f04032999e109d51deb3d9c26c579", "name": "737f04032999e109d51deb3d9c26c579", "fusion_lon": 0.0, "lon": -77.0279335, "fusion_lat": 0.0}, {"lat": 38.935399, "type": "electric_scooter", "is_disabled": 0, "rental_uris": {"android": "https://dc.lft.to/lastmile_qr_scan", "ios": "https://dc.lft.to/lastmile_qr_scan"}, "is_reserved": 0, "bike_id": "a4597f3ff5daef83c082076386dbd0ad", "name": "a4597f3ff5daef83c082076386dbd0ad", "fusion_lon": 0.0, "lon": -77.058131, "fusion_lat": 0.0}, {"lat": 38.90621133333333, "type": "electric_scooter", "is_disabled": 0, "rental_uris": {"android": "https://dc.lft.to/lastmile_qr_scan", "ios": "https://dc.lft.to/lastmile_qr_scan"}, "is_reserved": 0, "bike_id": "b39fe25f8eaa3950dedaf7a89ee26eac", "name": "b39fe25f8eaa3950dedaf7a89ee26eac", "fusion_lon": 0.0, "lon": -77.04136883333334, "fusion_lat": 0.0}, {"lat": 38.90487616666667, "type": "electric_bike", "is_disabled": 0, "rental_uris": {"android": "https://dc.lft.to/lastmile_qr_scan", "ios": "https://dc.lft.to/lastmile_qr_scan"}, "is_reserved": 0, "bike_id": "4e1fe991f68627ff333a7a164024284b", "name": "4e1fe991f68627ff333a7a164024284b", "fusion_lon": 0.0, "lon": -77.00736566666667, "fusion_lat": 0.0}, {"lat": 38.92424333333334, "type": "electric_scooter", "is_disabled": 0, "rental_uris": {"android": "https://dc.lft.to/lastmile_qr_scan", "ios": "https://dc.lft.to/lastmile_qr_scan"}, "is_reserved": 0, "bike_id": "85c339c521161fec7625fbbcefb46d9c", "name": "85c339c521161fec7625fbbcefb46d9c", "fusion_lon": 0.0, "lon": -77.04483616666667, "fusion_lat": 0.0}, {"lat": 38.895815666666664, "type": "electric_scooter", "is_disabled": 0, "rental_uris": {"android": "https://dc.lft.to/lastmile_qr_scan", "ios": "https://dc.lft.to/lastmile_qr_scan"}, "is_reserved": 0, "bike_id": "4f8247c8bc0c8f4ec6a6db686d0eacf6", "name": "4f8247c8bc0c8f4ec6a6db686d0eacf6", "fusion_lon": 0.0, "lon": -77.0231895, "fusion_lat": 0.0}, {"lat": 38.916894, "type": "electric_scooter", "is_disabled": 0, "rental_uris": {"android": "https://dc.lft.to/lastmile_qr_scan", "ios": "https://dc.lft.to/lastmile_qr_scan"}, "is_reserved": 0, "bike_id": "9b25a640610d4cdba8cb2e9d063976fd", "name": "9b25a640610d4cdba8cb2e9d063976fd", "fusion_lon": 0.0, "lon": -77.03595433333334, "fusion_lat": 0.0}, {"lat": 38.9148475, "type": "electric_scooter", "is_disabled": 0, "rental_uris": {"android": "https://dc.lft.to/lastmile_qr_scan", "ios": "https://dc.lft.to/lastmile_qr_scan"}, "is_reserved": 0, "bike_id": "ffd35ee341778ed7de0cebf21853f193", "name": "ffd35ee341778ed7de0cebf21853f193", "fusion_lon": 0.0, "lon": -77.0323205, "fusion_lat": 0.0}, {"lat": 38.93527316666667, "type": "electric_scooter", "is_disabled": 0, "rental_uris": {"android": "https://dc.lft.to/lastmile_qr_scan", "ios": "https://dc.lft.to/lastmile_qr_scan"}, "is_reserved": 0, "bike_id": "7719924a3a4f0b9bed468cc9af30574b", "name": "7719924a3a4f0b9bed468cc9af30574b", "fusion_lon": 0.0, "lon": -77.03255616666667, "fusion_lat": 0.0}, {"lat": 38.884987, "type": "electric_scooter", "is_disabled": 0, "rental_uris": {"android": "https://dc.lft.to/lastmile_qr_scan", "ios": "https://dc.lft.to/lastmile_qr_scan"}, "is_reserved": 0, "bike_id": "1bfd6a191885f25519360bf36531511b", "name": "1bfd6a191885f25519360bf36531511b", "fusion_lon": 0.0, "lon": -77.00891266666666, "fusion_lat": 0.0}, {"lat": 38.9126465, "type": "electric_scooter", "is_disabled": 0, "rental_uris": {"android": "https://dc.lft.to/lastmile_qr_scan", "ios": "https://dc.lft.to/lastmile_qr_scan"}, "is_reserved": 0, "bike_id": "bc7a1b4efcddd80db207c05774c08327", "name": "bc7a1b4efcddd80db207c05774c08327", "fusion_lon": 0.0, "lon": -77.041528, "fusion_lat": 0.0}, {"lat": 38.904289, "type": "electric_scooter", "is_disabled": 0, "rental_uris": {"android": "https://dc.lft.to/lastmile_qr_scan", "ios": "https://dc.lft.to/lastmile_qr_scan"}, "is_reserved": 0, "bike_id": "05b51f1fd31f676bb98810b367e7a888", "name": "05b51f1fd31f676bb98810b367e7a888", "fusion_lon": 0.0, "lon": -77.0296495, "fusion_lat": 0.0}, {"lat": 38.8850385, "type": "electric_scooter", "is_disabled": 0, "rental_uris": {"android": "https://dc.lft.to/lastmile_qr_scan", "ios": "https://dc.lft.to/lastmile_qr_scan"}, "is_reserved": 0, "bike_id": "33daacd2f6a3f63acdc0f0001465c14a", "name": "33daacd2f6a3f63acdc0f0001465c14a", "fusion_lon": 0.0, "lon": -77.00561966666666, "fusion_lat": 0.0}, {"lat": 38.929004666666664, "type": "electric_scooter", "is_disabled": 0, "rental_uris": {"android": "https://dc.lft.to/lastmile_qr_scan", "ios": "https://dc.lft.to/lastmile_qr_scan"}, "is_reserved": 0, "bike_id": "9ed06c84f319da3b9623eb8b6e904fc9", "name": "9ed06c84f319da3b9623eb8b6e904fc9", "fusion_lon": 0.0, "lon": -77.03268933333334, "fusion_lat": 0.0}, {"lat": 38.964533, "type": "electric_scooter", "is_disabled": 0, "rental_uris": {"android": "https://dc.lft.to/lastmile_qr_scan", "ios": "https://dc.lft.to/lastmile_qr_scan"}, "is_reserved": 0, "bike_id": "88e5053ecfaa37da5255a37014f42233", "name": "88e5053ecfaa37da5255a37014f42233", "fusion_lon": 0.0, "lon": -77.036248, "fusion_lat": 0.0}, {"lat": 38.897039666666664, "type": "electric_scooter", "is_disabled": 0, "rental_uris": {"android": "https://dc.lft.to/lastmile_qr_scan", "ios": "https://dc.lft.to/lastmile_qr_scan"}, "is_reserved": 0, "bike_id": "e6606ef6f14ec4eeb419c723d9c8424a", "name": "e6606ef6f14ec4eeb419c723d9c8424a", "fusion_lon": 0.0, "lon": -76.94713716666666, "fusion_lat": 0.0}, {"lat": 38.904783333333334, "type": "electric_scooter", "is_disabled": 0, "rental_uris": {"android": "https://dc.lft.to/lastmile_qr_scan", "ios": "https://dc.lft.to/lastmile_qr_scan"}, "is_reserved": 0, "bike_id": "e4b6b5e46e565d114e9122c99cd581d3", "name": "e4b6b5e46e565d114e9122c99cd581d3", "fusion_lon": 0.0, "lon": -77.04876483333334, "fusion_lat": 0.0}, {"lat": 38.919111666666666, "type": "electric_scooter", "is_disabled": 0, "rental_uris": {"android": "https://dc.lft.to/lastmile_qr_scan", "ios": "https://dc.lft.to/lastmile_qr_scan"}, "is_reserved": 0, "bike_id": "f0cb5a588f541328f2d7ce875c8eff74", "name": "f0cb5a588f541328f2d7ce875c8eff74", "fusion_lon": 0.0, "lon": -77.03385, "fusion_lat": 0.0}, {"lat": 38.921519833333335, "type": "electric_scooter", "is_disabled": 0, "rental_uris": {"android": "https://dc.lft.to/lastmile_qr_scan", "ios": "https://dc.lft.to/lastmile_qr_scan"}, "is_reserved": 0, "bike_id": "09f1c03c719c2800b4f5701518898b11", "name": "09f1c03c719c2800b4f5701518898b11", "fusion_lon": 0.0, "lon": -77.03455116666666, "fusion_lat": 0.0}, {"lat": 38.902448, "type": "electric_scooter", "is_disabled": 0, "rental_uris": {"android": "https://dc.lft.to/lastmile_qr_scan", "ios": "https://dc.lft.to/lastmile_qr_scan"}, "is_reserved": 0, "bike_id": "7222fa7863f4d79d1207eddc668b5aaf", "name": "7222fa7863f4d79d1207eddc668b5aaf", "fusion_lon": 0.0, "lon": -76.99861966666667, "fusion_lat": 0.0}, {"lat": 38.896003, "type": "electric_scooter", "is_disabled": 0, "rental_uris": {"android": "https://dc.lft.to/lastmile_qr_scan", "ios": "https://dc.lft.to/lastmile_qr_scan"}, "is_reserved": 0, "bike_id": "a7aabc582811768602c1b16f0c28bc81", "name": "a7aabc582811768602c1b16f0c28bc81", "fusion_lon": 0.0, "lon": -77.02320416666667, "fusion_lat": 0.0}, {"lat": 38.931723833333336, "type": "electric_scooter", "is_disabled": 0, "rental_uris": {"android": "https://dc.lft.to/lastmile_qr_scan", "ios": "https://dc.lft.to/lastmile_qr_scan"}, "is_reserved": 0, "bike_id": "895a608d014ba5721b137d9df61b5841", "name": "895a608d014ba5721b137d9df61b5841", "fusion_lon": 0.0, "lon": -77.03664883333333, "fusion_lat": 0.0}, {"lat": 38.876568, "type": "electric_scooter", "is_disabled": 0, "rental_uris": {"android": "https://dc.lft.to/lastmile_qr_scan", "ios": "https://dc.lft.to/lastmile_qr_scan"}, "is_reserved": 0, "bike_id": "0a25f01736f65d6601e9bb30dbdbfd24", "name": "0a25f01736f65d6601e9bb30dbdbfd24", "fusion_lon": 0.0, "lon": -77.01734816666666, "fusion_lat": 0.0}, {"lat": 38.90985966666667, "type": "electric_scooter", "is_disabled": 0, "rental_uris": {"android": "https://dc.lft.to/lastmile_qr_scan", "ios": "https://dc.lft.to/lastmile_qr_scan"}, "is_reserved": 0, "bike_id": "c6f0da1f4e8b3b76bb9b836d08465136", "name": "c6f0da1f4e8b3b76bb9b836d08465136", "fusion_lon": 0.0, "lon": -77.04261716666667, "fusion_lat": 0.0}, {"lat": 38.89535333333333, "type": "electric_scooter", "is_disabled": 0, "rental_uris": {"android": "https://dc.lft.to/lastmile_qr_scan", "ios": "https://dc.lft.to/lastmile_qr_scan"}, "is_reserved": 0, "bike_id": "c3755722d3195e41d7da1ed4a3acf7e3", "name": "c3755722d3195e41d7da1ed4a3acf7e3", "fusion_lon": 0.0, "lon": -77.00342783333333, "fusion_lat": 0.0}, {"lat": 38.901597, "type": "electric_scooter", "is_disabled": 0, "rental_uris": {"android": "https://dc.lft.to/lastmile_qr_scan", "ios": "https://dc.lft.to/lastmile_qr_scan"}, "is_reserved": 0, "bike_id": "43647b08f2f81bc01d3d8e1c7a354bab", "name": "43647b08f2f81bc01d3d8e1c7a354bab", "fusion_lon": 0.0, "lon": -77.02490283333333, "fusion_lat": 0.0}, {"lat": 38.8671125, "type": "electric_scooter", "is_disabled": 0, "rental_uris": {"android": "https://dc.lft.to/lastmile_qr_scan", "ios": "https://dc.lft.to/lastmile_qr_scan"}, "is_reserved": 0, "bike_id": "692b7c784467ca44db4d2f66ccaa8a15", "name": "692b7c784467ca44db4d2f66ccaa8a15", "fusion_lon": 0.0, "lon": -76.98728216666666, "fusion_lat": 0.0}, {"lat": 38.9024975, "type": "electric_scooter", "is_disabled": 0, "rental_uris": {"android": "https://dc.lft.to/lastmile_qr_scan", "ios": "https://dc.lft.to/lastmile_qr_scan"}, "is_reserved": 0, "bike_id": "bc7eb742ba39cd1ff830209d8a8c0f6c", "name": "bc7eb742ba39cd1ff830209d8a8c0f6c", "fusion_lon": 0.0, "lon": -77.02150383333333, "fusion_lat": 0.0}, {"lat": 38.922942, "type": "electric_scooter", "is_disabled": 0, "rental_uris": {"android": "https://dc.lft.to/lastmile_qr_scan", "ios": "https://dc.lft.to/lastmile_qr_scan"}, "is_reserved": 0, "bike_id": "dd03d2cbb12ec954ed5252de16ec204d", "name": "dd03d2cbb12ec954ed5252de16ec204d", "fusion_lon": 0.0, "lon": -77.04203816666667, "fusion_lat": 0.0}, {"lat": 38.89889, "type": "electric_scooter", "is_disabled": 0, "rental_uris": {"android": "https://dc.lft.to/lastmile_qr_scan", "ios": "https://dc.lft.to/lastmile_qr_scan"}, "is_reserved": 0, "bike_id": "0ab317d82710feee97193410f96cdde9", "name": "0ab317d82710feee97193410f96cdde9", "fusion_lon": 0.0, "lon": -77.04178383333333, "fusion_lat": 0.0}, {"lat": 38.9058465, "type": "electric_scooter", "is_disabled": 0, "rental_uris": {"android": "https://dc.lft.to/lastmile_qr_scan", "ios": "https://dc.lft.to/lastmile_qr_scan"}, "is_reserved": 0, "bike_id": "297d63e0d9bdbf3332a68b6fe1f58331", "name": "297d63e0d9bdbf3332a68b6fe1f58331", "fusion_lon": 0.0, "lon": -77.0238945, "fusion_lat": 0.0}, {"lat": 38.910553, "type": "electric_bike", "is_disabled": 0, "rental_uris": {"android": "https://dc.lft.to/lastmile_qr_scan", "ios": "https://dc.lft.to/lastmile_qr_scan"}, "is_reserved": 0, "bike_id": "bd16155bb626a856293ca8a088349606", "name": "bd16155bb626a856293ca8a088349606", "fusion_lon": 0.0, "lon": -77.05515633333333, "fusion_lat": 0.0}, {"lat": 38.918163666666665, "type": "electric_scooter", "is_disabled": 0, "rental_uris": {"android": "https://dc.lft.to/lastmile_qr_scan", "ios": "https://dc.lft.to/lastmile_qr_scan"}, "is_reserved": 0, "bike_id": "c38f5d1e6ebb517c2f5cf8939354eddc", "name": "c38f5d1e6ebb517c2f5cf8939354eddc", "fusion_lon": 0.0, "lon": -77.03172883333333, "fusion_lat": 0.0}, {"lat": 38.91982483333334, "type": "electric_scooter", "is_disabled": 0, "rental_uris": {"android": "https://dc.lft.to/lastmile_qr_scan", "ios": "https://dc.lft.to/lastmile_qr_scan"}, "is_reserved": 0, "bike_id": "fce6b1ed7817b9462a7e7724be682299", "name": "fce6b1ed7817b9462a7e7724be682299", "fusion_lon": 0.0, "lon": -76.97318683333333, "fusion_lat": 0.0}, {"lat": 38.916783333333335, "type": "electric_scooter", "is_disabled": 0, "rental_uris": {"android": "https://dc.lft.to/lastmile_qr_scan", "ios": "https://dc.lft.to/lastmile_qr_scan"}, "is_reserved": 0, "bike_id": "2dc2e4490ab673a617757b86c6ee9892", "name": "2dc2e4490ab673a617757b86c6ee9892", "fusion_lon": 0.0, "lon": -77.03388316666667, "fusion_lat": 0.0}, {"lat": 38.896068, "type": "electric_scooter", "is_disabled": 0, "rental_uris": {"android": "https://dc.lft.to/lastmile_qr_scan", "ios": "https://dc.lft.to/lastmile_qr_scan"}, "is_reserved": 0, "bike_id": "e292feacf5d960bf73910d242359a49c", "name": "e292feacf5d960bf73910d242359a49c", "fusion_lon": 0.0, "lon": -77.0464345, "fusion_lat": 0.0}, {"lat": 38.93085933333333, "type": "electric_scooter", "is_disabled": 0, "rental_uris": {"android": "https://dc.lft.to/lastmile_qr_scan", "ios": "https://dc.lft.to/lastmile_qr_scan"}, "is_reserved": 0, "bike_id": "2cdfbee49a754e339077396ea19fa481", "name": "2cdfbee49a754e339077396ea19fa481", "fusion_lon": 0.0, "lon": -77.036214, "fusion_lat": 0.0}, {"lat": 38.90579066666667, "type": "electric_scooter", "is_disabled": 0, "rental_uris": {"android": "https://dc.lft.to/lastmile_qr_scan", "ios": "https://dc.lft.to/lastmile_qr_scan"}, "is_reserved": 0, "bike_id": "446669509026685c0ff362fce9d735db", "name": "446669509026685c0ff362fce9d735db", "fusion_lon": 0.0, "lon": -77.0487825, "fusion_lat": 0.0}, {"lat": 38.930597666666664, "type": "electric_scooter", "is_disabled": 0, "rental_uris": {"android": "https://dc.lft.to/lastmile_qr_scan", "ios": "https://dc.lft.to/lastmile_qr_scan"}, "is_reserved": 0, "bike_id": "b15c58899e371321e1bc9fb7eb0db5ff", "name": "b15c58899e371321e1bc9fb7eb0db5ff", "fusion_lon": 0.0, "lon": -77.0296525, "fusion_lat": 0.0}, {"lat": 38.897497666666666, "type": "electric_scooter", "is_disabled": 0, "rental_uris": {"android": "https://dc.lft.to/lastmile_qr_scan", "ios": "https://dc.lft.to/lastmile_qr_scan"}, "is_reserved": 0, "bike_id": "1b54e7e88ac55d1151d79d8139ff6e82", "name": "1b54e7e88ac55d1151d79d8139ff6e82", "fusion_lon": 0.0, "lon": -77.00359316666666, "fusion_lat": 0.0}, {"lat": 38.91844583333334, "type": "electric_scooter", "is_disabled": 0, "rental_uris": {"android": "https://dc.lft.to/lastmile_qr_scan", "ios": "https://dc.lft.to/lastmile_qr_scan"}, "is_reserved": 0, "bike_id": "a696cd0964bc74eafcd7c1737105b21a", "name": "a696cd0964bc74eafcd7c1737105b21a", "fusion_lon": 0.0, "lon": -77.03228883333334, "fusion_lat": 0.0}, {"lat": 38.922564, "type": "electric_scooter", "is_disabled": 0, "rental_uris": {"android": "https://dc.lft.to/lastmile_qr_scan", "ios": "https://dc.lft.to/lastmile_qr_scan"}, "is_reserved": 0, "bike_id": "b84a2c20efbe193dd631ba77544feb61", "name": "b84a2c20efbe193dd631ba77544feb61", "fusion_lon": 0.0, "lon": -77.04300066666667, "fusion_lat": 0.0}, {"lat": 38.9431285, "type": "electric_scooter", "is_disabled": 0, "rental_uris": {"android": "https://dc.lft.to/lastmile_qr_scan", "ios": "https://dc.lft.to/lastmile_qr_scan"}, "is_reserved": 0, "bike_id": "93495e21188fbea6b6c5d7476681461e", "name": "93495e21188fbea6b6c5d7476681461e", "fusion_lon": 0.0, "lon": -77.06172316666667, "fusion_lat": 0.0}, {"lat": 39.02495616666667, "type": "electric_bike", "is_disabled": 0, "rental_uris": {"android": "https://dc.lft.to/lastmile_qr_scan", "ios": "https://dc.lft.to/lastmile_qr_scan"}, "is_reserved": 0, "bike_id": "a1c96d71bc86353c3b7e599703ad6e23", "name": "a1c96d71bc86353c3b7e599703ad6e23", "fusion_lon": 0.0, "lon": -77.12567366666667, "fusion_lat": 0.0}, {"lat": 38.91692833333333, "type": "electric_scooter", "is_disabled": 0, "rental_uris": {"android": "https://dc.lft.to/lastmile_qr_scan", "ios": "https://dc.lft.to/lastmile_qr_scan"}, "is_reserved": 0, "bike_id": "6417246fb931a530d3a3a4b31352ef12", "name": "6417246fb931a530d3a3a4b31352ef12", "fusion_lon": 0.0, "lon": -77.027347, "fusion_lat": 0.0}, {"lat": 38.91610083333333, "type": "electric_scooter", "is_disabled": 0, "rental_uris": {"android": "https://dc.lft.to/lastmile_qr_scan", "ios": "https://dc.lft.to/lastmile_qr_scan"}, "is_reserved": 0, "bike_id": "056923ed7f51922ec8ce575a32762ff2", "name": "056923ed7f51922ec8ce575a32762ff2", "fusion_lon": 0.0, "lon": -77.03163666666667, "fusion_lat": 0.0}, {"lat": 38.939272833333334, "type": "electric_scooter", "is_disabled": 0, "rental_uris": {"android": "https://dc.lft.to/lastmile_qr_scan", "ios": "https://dc.lft.to/lastmile_qr_scan"}, "is_reserved": 0, "bike_id": "0d26f23e44c7ffac4a47df47799c3f53", "name": "0d26f23e44c7ffac4a47df47799c3f53", "fusion_lon": 0.0, "lon": -77.0747395, "fusion_lat": 0.0}, {"lat": 38.89009933333333, "type": "electric_scooter", "is_disabled": 0, "rental_uris": {"android": "https://dc.lft.to/lastmile_qr_scan", "ios": "https://dc.lft.to/lastmile_qr_scan"}, "is_reserved": 0, "bike_id": "fc06b28d11d2636ee6e4705b39097de8", "name": "fc06b28d11d2636ee6e4705b39097de8", "fusion_lon": 0.0, "lon": -76.93841083333334, "fusion_lat": 0.0}, {"lat": 38.95084883333333, "type": "electric_bike", "is_disabled": 0, "rental_uris": {"android": "https://dc.lft.to/lastmile_qr_scan", "ios": "https://dc.lft.to/lastmile_qr_scan"}, "is_reserved": 0, "bike_id": "a4a649f5855a2326a17cb8e4f029d895", "name": "a4a649f5855a2326a17cb8e4f029d895", "fusion_lon": 0.0, "lon": -76.96557433333334, "fusion_lat": 0.0}, {"lat": 38.9055505, "type": "electric_scooter", "is_disabled": 0, "rental_uris": {"android": "https://dc.lft.to/lastmile_qr_scan", "ios": "https://dc.lft.to/lastmile_qr_scan"}, "is_reserved": 0, "bike_id": "5b305982b646d1b446ca004e05ce193c", "name": "5b305982b646d1b446ca004e05ce193c", "fusion_lon": 0.0, "lon": -77.045092, "fusion_lat": 0.0},