{"data": {"bikes": [{"name": "a8e771a10e40a6924c00a2a2c8fa240b", "type": "electric_scooter", "lat": 38.927253666666665, "is_reserved": 0, "lon": -77.0308125, "fusion_lon": 0.0, "is_disabled": 0, "fusion_lat": 0.0, "bike_id": "a8e771a10e40a6924c00a2a2c8fa240b", "rental_uris": {"ios": "https://dc.lft.to/lastmile_qr_scan", "android": "https://dc.lft.to/lastmile_qr_scan"}}, {"name": "c12a2107944f13319499b968fc30346f", "type": "electric_scooter", "lat": 38.9064145, "is_reserved": 0, "lon": -76.9857605, "fusion_lon": 0.0, "is_disabled": 0, "fusion_lat": 0.0, "bike_id": "c12a2107944f13319499b968fc30346f", "rental_uris": {"ios": "https://dc.lft.to/lastmile_qr_scan", "android": "https://dc.lft.to/lastmile_qr_scan"}}, {"name": "6fc7b95978d54983c10ae0a5346a193d", "type": "electric_scooter", "lat": 38.92181133333333, "is_reserved": 0, "lon": -77.04025333333334, "fusion_lon": 0.0, "is_disabled": 0, "fusion_lat": 0.0, "bike_id": "6fc7b95978d54983c10ae0a5346a193d", "rental_uris": {"ios": "https://dc.lft.to/lastmile_qr_scan", "android": "https://dc.lft.to/lastmile_qr_scan"}}, {"name": "eb946d844b696c30d764bcc2f6c40933", "type": "electric_scooter", "lat": 38.918149, "is_reserved": 0, "lon": -77.03437633333333, "fusion_lon": 0.0, "is_disabled": 0, "fusion_lat": 0.0, "bike_id": "eb946d844b696c30d764bcc2f6c40933", "rental_uris": {"ios": "https://dc.lft.to/lastmile_qr_scan", "android": "https://dc.lft.to/lastmile_qr_scan"}}, {"name": "93cb8318382af69bbb0be2259193aacb", "type": "electric_scooter", "lat": 38.911060666666664, "is_reserved": 0, "lon": -77.0362165, "fusion_lon": 0.0, "is_disabled": 0, "fusion_lat": 0.0, "bike_id": "93cb8318382af69bbb0be2259193aacb", "rental_uris": {"ios": "https://dc.lft.to/lastmile_qr_scan", "android": "https://dc.lft.to/lastmile_qr_scan"}}, {"name": "6e07f6959f63ddac77c60cac212bdd93", "type": "electric_scooter", "lat": 38.93249333333333, "is_reserved": 0, "lon": -77.03275716666667, "fusion_lon": 0.0, "is_disabled": 0, "fusion_lat": 0.0, "bike_id": "6e07f6959f63ddac77c60cac212bdd93", "rental_uris": {"ios": "https://dc.lft.to/lastmile_qr_scan", "android": "https://dc.lft.to/lastmile_qr_scan"}}, {"name": "1d7fe59690b0331606a4a7120f9d94e5", "type": "electric_scooter", "lat": 38.92240916666667, "is_reserved": 0, "lon": -77.01003766666666, "fusion_lon": 0.0, "is_disabled": 0, "fusion_lat": 0.0, "bike_id": "1d7fe59690b0331606a4a7120f9d94e5", "rental_uris": {"ios": "https://dc.lft.to/lastmile_qr_scan", "android": "https://dc.lft.to/lastmile_qr_scan"}}, {"name": "09381ca95b8f99dda9522c78f3846cb1", "type": "electric_scooter", "lat": 38.915474833333334, "is_reserved": 0, "lon": -77.038532, "fusion_lon": 0.0, "is_disabled": 0, "fusion_lat": 0.0, "bike_id": "09381ca95b8f99dda9522c78f3846cb1", "rental_uris": {"ios": "https://dc.lft.to/lastmile_qr_scan", "android": "https://dc.lft.to/lastmile_qr_scan"}}, {"name": "a5bf211742faec04fa92f6f7a9e3373a", "type": "electric_scooter", "lat": 38.89617333333333, "is_reserved": 0, "lon": -77.02818133333334, "fusion_lon": 0.0, "is_disabled": 0, "fusion_lat": 0.0, "bike_id": "a5bf211742faec04fa92f6f7a9e3373a", "rental_uris": {"ios": "https://dc.lft.to/lastmile_qr_scan", "android": "https://dc.lft.to/lastmile_qr_scan"}}, {"name": "475c43b669d8d22713bec9b70f92a686", "type": "electric_scooter", "lat": 38.912388, "is_reserved": 0, "lon": -77.00095083333333, "fusion_lon": 0.0, "is_disabled": 0, "fusion_lat": 0.0, "bike_id": "475c43b669d8d22713bec9b70f92a686", "rental_uris": {"ios": "https://dc.lft.to/lastmile_qr_scan", "android": "https://dc.lft.to/lastmile_qr_scan"}}, {"name": "0db30f29b9ec560152e8181e84236823", "type": "electric_scooter", "lat": 38.90275666666667, "is_reserved": 0, "lon": -77.05919616666667, "fusion_lon": 0.0, "is_disabled": 0, "fusion_lat": 0.0, "bike_id": "0db30f29b9ec560152e8181e84236823", "rental_uris": {"ios": "https://dc.lft.to/lastmile_qr_scan", "android": "https://dc.lft.to/lastmile_qr_scan"}}, {"name": "e2763705f3770bb7a26397a03699bcc3", "type": "electric_bike", "lat": 38.86370383333333, "is_reserved": 0, "lon": -76.97009233333333, "fusion_lon": 0.0, "is_disabled": 0, "fusion_lat": 0.0, "bike_id": "e2763705f3770bb7a26397a03699bcc3", "rental_uris": {"ios": "https://dc.lft.to/lastmile_qr_scan", "android": "https://dc.lft.to/lastmile_qr_scan"}}, {"name": "e1ade2a934feb833adcb6858f8d42c55", "type": "electric_scooter", "lat": 38.90275483333333, "is_reserved": 0, "lon": -77.031663, "fusion_lon": 0.0, "is_disabled": 0, "fusion_lat": 0.0, "bike_id": "e1ade2a934feb833adcb6858f8d42c55", "rental_uris": {"ios": "https://dc.lft.to/lastmile_qr_scan", "android": "https://dc.lft.to/lastmile_qr_scan"}}, {"name": "7cc1aa7c496290823b9b6021d56974e0", "type": "electric_scooter", "lat": 38.90661816666667, "is_reserved": 0, "lon": -77.03855566666667, "fusion_lon": 0.0, "is_disabled": 0, "fusion_lat": 0.0, "bike_id": "7cc1aa7c496290823b9b6021d56974e0", "rental_uris": {"ios": "https://dc.lft.to/lastmile_qr_scan", "android": "https://dc.lft.to/lastmile_qr_scan"}}, {"name": "4ab02536254db5be33eefcf80a0a161e", "type": "electric_scooter", "lat": 38.90645266666667, "is_reserved": 0, "lon": -77.01143383333333, "fusion_lon": 0.0, "is_disabled": 0, "fusion_lat": 0.0, "bike_id": "4ab02536254db5be33eefcf80a0a161e", "rental_uris": {"ios": "https://dc.lft.to/lastmile_qr_scan", "android": "https://dc.lft.to/lastmile_qr_scan"}}, {"name": "427cd7d96ab2ddbd59343946b6209ba0", "type": "electric_scooter", "lat": 38.90854683333333, "is_reserved": 0, "lon": -77.0441305, "fusion_lon": 0.0, "is_disabled": 0, "fusion_lat": 0.0, "bike_id": "427cd7d96ab2ddbd59343946b6209ba0", "rental_uris": {"ios": "https://dc.lft.to/lastmile_qr_scan", "android": "https://dc.lft.to/lastmile_qr_scan"}}, {"name": "5d54e014e01dbf27f349ab7da8cf3733", "type": "electric_scooter", "lat": 38.89225233333333, "is_reserved": 0, "lon": -77.04263083333333, "fusion_lon": 0.0, "is_disabled": 0, "fusion_lat": 0.0, "bike_id": "5d54e014e01dbf27f349ab7da8cf3733", "rental_uris": {"ios": "https://dc.lft.to/lastmile_qr_scan", "android": "https://dc.lft.to/lastmile_qr_scan"}}, {"name": "3fc3fd2e53bbc412c3e920a19ee09edd", "type": "electric_scooter", "lat": 38.90729266666666, "is_reserved": 0, "lon": -77.0434575, "fusion_lon": 0.0, "is_disabled": 0, "fusion_lat": 0.0, "bike_id": "3fc3fd2e53bbc412c3e920a19ee09edd", "rental_uris": {"ios": "https://dc.lft.to/lastmile_qr_scan", "android": "https://dc.lft.to/lastmile_qr_scan"}}, {"name": "40dbaa8cac4c94acbd702cab517ea435", "type": "electric_scooter", "lat": 38.90686783333334, "is_reserved": 0, "lon": -77.0134715, "fusion_lon": 0.0, "is_disabled": 0, "fusion_lat": 0.0, "bike_id": "40dbaa8cac4c94acbd702cab517ea435", "rental_uris": {"ios": "https://dc.lft.to/lastmile_qr_scan", "android": "https://dc.lft.to/lastmile_qr_scan"}}, {"name": "e97cbaffc1248e699cd5f46405b36406", "type": "electric_bike", "lat": 38.86916083333333, "is_reserved": 0, "lon": -77.13180066666666, "fusion_lon": 0.0, "is_disabled": 0, "fusion_lat": 0.0, "bike_id": "e97cbaffc1248e699cd5f46405b36406", "rental_uris": {"ios": "https://dc.lft.to/lastmile_qr_scan", "android": "https://dc.lft.to/lastmile_qr_scan"}}, {"name": "6231e2fde67dce2c7c61b0c962487d0a", "type": "electric_scooter", "lat": 38.93252533333333, "is_reserved": 0, "lon": -77.03288266666667, "fusion_lon": 0.0, "is_disabled": 0, "fusion_lat": 0.0, "bike_id": "6231e2fde67dce2c7c61b0c962487d0a", "rental_uris": {"ios": "https://dc.lft.to/lastmile_qr_scan", "android": "https://dc.lft.to/lastmile_qr_scan"}}, {"name": "fb6cb1c9c1b2f8ed1915e05abb957673", "type": "electric_scooter", "lat": 38.900368666666665, "is_reserved": 0, "lon": -77.01124783333333, "fusion_lon": 0.0, "is_disabled": 0, "fusion_lat": 0.0, "bike_id": "fb6cb1c9c1b2f8ed1915e05abb957673", "rental_uris": {"ios": "https://dc.lft.to/lastmile_qr_scan", "android": "https://dc.lft.to/lastmile_qr_scan"}}, {"name": "9ff9412db0b0d701c6e4a58efa339c16", "type": "electric_scooter", "lat": 38.87705966666667, "is_reserved": 0, "lon": -76.99384316666666, "fusion_lon": 0.0, "is_disabled": 0, "fusion_lat": 0.0, "bike_id": "9ff9412db0b0d701c6e4a58efa339c16", "rental_uris": {"ios": "https://dc.lft.to/lastmile_qr_scan", "android": "https://dc.lft.to/lastmile_qr_scan"}}, {"name": "ba0ca80224d86114845d0d67e50ee7d5", "type": "electric_scooter", "lat": 38.90294083333333, "is_reserved": 0, "lon": -77.038341, "fusion_lon": 0.0, "is_disabled": 0, "fusion_lat": 0.0, "bike_id": "ba0ca80224d86114845d0d67e50ee7d5", "rental_uris": {"ios": "https://dc.lft.to/lastmile_qr_scan", "android": "https://dc.lft.to/lastmile_qr_scan"}}, {"name": "174f077a9b9f88bace489bad08d3ee15", "type": "electric_scooter", "lat": 38.89818733333333, "is_reserved": 0, "lon": -77.0332655, "fusion_lon": 0.0, "is_disabled": 0, "fusion_lat": 0.0, "bike_id": "174f077a9b9f88bace489bad08d3ee15", "rental_uris": {"ios": "https://dc.lft.to/lastmile_qr_scan", "android": "https://dc.lft.to/lastmile_qr_scan"}}, {"name": "6d78bb389a3b948331d77282f47c1306", "type": "electric_scooter", "lat": 38.90031666666667, "is_reserved": 0, "lon": -77.0021535, "fusion_lon": 0.0, "is_disabled": 0, "fusion_lat": 0.0, "bike_id": "6d78bb389a3b948331d77282f47c1306", "rental_uris": {"ios": "https://dc.lft.to/lastmile_qr_scan", "android": "https://dc.lft.to/lastmile_qr_scan"}}, {"name": "40210555adc722880525134085a5c7a8", "type": "electric_scooter", "lat": 38.876406333333335, "is_reserved": 0, "lon": -76.99586283333333, "fusion_lon": 0.0, "is_disabled": 0, "fusion_lat": 0.0, "bike_id": "40210555adc722880525134085a5c7a8", "rental_uris": {"ios": "https://dc.lft.to/lastmile_qr_scan", "android": "https://dc.lft.to/lastmile_qr_scan"}}, {"name": "0b33887b941905d9df1c3d88b9d7b725", "type": "electric_scooter", "lat": 38.93068733333333, "is_reserved": 0, "lon": -77.03806383333334, "fusion_lon": 0.0, "is_disabled": 0, "fusion_lat": 0.0, "bike_id": "0b33887b941905d9df1c3d88b9d7b725", "rental_uris": {"ios": "https://dc.lft.to/lastmile_qr_scan", "android": "https://dc.lft.to/lastmile_qr_scan"}}, {"name": "983e3ef260ba8d740598e4b32638219a", "type": "electric_scooter", "lat": 38.9495825, "is_reserved": 0, "lon": -77.02722283333334, "fusion_lon": 0.0, "is_disabled": 0, "fusion_lat": 0.0, "bike_id": "983e3ef260ba8d740598e4b32638219a", "rental_uris": {"ios": "https://dc.lft.to/lastmile_qr_scan", "android": "https://dc.lft.to/lastmile_qr_scan"}}, {"name": "3fe07836b7bbd0bf30171cd7a02d61f5", "type": "electric_scooter", "lat": 38.919041166666666, "is_reserved": 0, "lon": -77.019773, "fusion_lon": 0.0, "is_disabled": 0, "fusion_lat": 0.0, "bike_id": "3fe07836b7bbd0bf30171cd7a02d61f5", "rental_uris": {"ios": "https://dc.lft.to/lastmile_qr_scan", "android": "https://dc.lft.to/lastmile_qr_scan"}}, {"name": "64f2a9952c4f6102b15ea10733e44d76", "type": "electric_scooter", "lat": 38.897339, "is_reserved": 0, "lon": -76.94247683333333, "fusion_lon": 0.0, "is_disabled": 0, "fusion_lat": 0.0, "bike_id": "64f2a9952c4f6102b15ea10733e44d76", "rental_uris": {"ios": "https://dc.lft.to/lastmile_qr_scan", "android": "https://dc.lft.to/lastmile_qr_scan"}}, {"name": "338b94003df32058eea445952c609b2b", "type": "electric_scooter", "lat": 38.90006066666667, "is_reserved": 0, "lon": -77.033142, "fusion_lon": 0.0, "is_disabled": 0, "fusion_lat": 0.0, "bike_id": "338b94003df32058eea445952c609b2b", "rental_uris": {"ios": "https://dc.lft.to/lastmile_qr_scan", "android": "https://dc.lft.to/lastmile_qr_scan"}}, {"name": "0795adbe56d03577b2252182fab7fc22", "type": "electric_scooter", "lat": 38.9086825, "is_reserved": 0, "lon": -77.02482933333333, "fusion_lon": 0.0, "is_disabled": 0, "fusion_lat": 0.0, "bike_id": "0795adbe56d03577b2252182fab7fc22", "rental_uris": {"ios": "https://dc.lft.to/lastmile_qr_scan", "android": "https://dc.lft.to/lastmile_qr_scan"}}, {"name": "576cf6cab85a8c1ab40e3c57dc119234", "type": "electric_scooter", "lat": 38.9052385, "is_reserved": 0, "lon": -77.0532015, "fusion_lon": 0.0, "is_disabled": 0, "fusion_lat": 0.0, "bike_id": "576cf6cab85a8c1ab40e3c57dc119234", "rental_uris": {"ios": "https://dc.lft.to/lastmile_qr_scan", "android": "https://dc.lft.to/lastmile_qr_scan"}}, {"name": "7374e237428e678e209b6d4041347b53", "type": "electric_bike", "lat": 38.931745666666664, "is_reserved": 0, "lon": -77.03532066666666, "fusion_lon": 0.0, "is_disabled": 0, "fusion_lat": 0.0, "bike_id": "7374e237428e678e209b6d4041347b53", "rental_uris": {"ios": "https://dc.lft.to/lastmile_qr_scan", "android": "https://dc.lft.to/lastmile_qr_scan"}}, {"name": "25ad24a8d4d66e6b5eef177a5ea7fad5", "type": "electric_scooter", "lat": 38.913151, "is_reserved": 0, "lon": -77.02174916666667, "fusion_lon": 0.0, "is_disabled": 0, "fusion_lat": 0.0, "bike_id": "25ad24a8d4d66e6b5eef177a5ea7fad5", "rental_uris": {"ios": "https://dc.lft.to/lastmile_qr_scan", "android": "https://dc.lft.to/lastmile_qr_scan"}}, {"name": "520f8d090c760e6ffc61bac157787990", "type": "electric_scooter", "lat": 38.894706666666664, "is_reserved": 0, "lon": -76.97719883333333, "fusion_lon": 0.0, "is_disabled": 0, "fusion_lat": 0.0, "bike_id": "520f8d090c760e6ffc61bac157787990", "rental_uris": {"ios": "https://dc.lft.to/lastmile_qr_scan", "android": "https://dc.lft.to/lastmile_qr_scan"}}, {"name": "33cce042d5c087392a82265ab899bced", "type": "electric_scooter", "lat": 38.941806, "is_reserved": 0, "lon": -77.03653283333334, "fusion_lon": 0.0, "is_disabled": 0, "fusion_lat": 0.0, "bike_id": "33cce042d5c087392a82265ab899bced", "rental_uris": {"ios": "https://dc.lft.to/lastmile_qr_scan", "android": "https://dc.lft.to/lastmile_qr_scan"}}, {"name": "85924b4f40afdcf1cea07abbdb36f779", "type": "electric_scooter", "lat": 38.907159166666666, "is_reserved": 0, "lon": -77.04331333333333, "fusion_lon": 0.0, "is_disabled": 0, "fusion_lat": 0.0, "bike_id": "85924b4f40afdcf1cea07abbdb36f779", "rental_uris": {"ios": "https://dc.lft.to/lastmile_qr_scan", "android": "https://dc.lft.to/lastmile_qr_scan"}}, {"name": "66af613113915cd181b8d35b822a2729", "type": "electric_scooter", "lat": 38.911842666666665, "is_reserved": 0, "lon": -77.03217966666666, "fusion_lon": 0.0, "is_disabled": 0, "fusion_lat": 0.0, "bike_id": "66af613113915cd181b8d35b822a2729", "rental_uris": {"ios": "https://dc.lft.to/lastmile_qr_scan", "android": "https://dc.lft.to/lastmile_qr_scan"}}, {"name": "b3d269d2d7b424ecec208b9a0980db4b", "type": "electric_scooter", "lat": 38.92448516666666, "is_reserved": 0, "lon": -76.99330783333333, "fusion_lon": 0.0, "is_disabled": 0, "fusion_lat": 0.0, "bike_id": "b3d269d2d7b424ecec208b9a0980db4b", "rental_uris": {"ios": "https://dc.lft.to/lastmile_qr_scan", "android": "https://dc.lft.to/lastmile_qr_scan"}}, {"name": "acf425a9ec264e3f6fdb0833175f203d", "type": "electric_scooter", "lat": 38.915560166666666, "is_reserved": 0, "lon": -77.04611016666667, "fusion_lon": 0.0, "is_disabled": 0, "fusion_lat": 0.0, "bike_id": "acf425a9ec264e3f6fdb0833175f203d", "rental_uris": {"ios": "https://dc.lft.to/lastmile_qr_scan", "android": "https://dc.lft.to/lastmile_qr_scan"}}, {"name": "099624bcb5b402bd2fe5bf8b606bf795", "type": "electric_scooter", "lat": 38.908899, "is_reserved": 0, "lon": -77.0056475, "fusion_lon": 0.0, "is_disabled": 0, "fusion_lat": 0.0, "bike_id": "099624bcb5b402bd2fe5bf8b606bf795", "rental_uris": {"ios": "https://dc.lft.to/lastmile_qr_scan", "android": "https://dc.lft.to/lastmile_qr_scan"}}, {"name": "04fcb66a1cf507e52941c6792aa342a4", "type": "electric_scooter", "lat": 38.91271966666667, "is_reserved": 0, "lon": -77.03325066666666, "fusion_lon": 0.0, "is_disabled": 0, "fusion_lat": 0.0, "bike_id": "04fcb66a1cf507e52941c6792aa342a4", "rental_uris": {"ios": "https://dc.lft.to/lastmile_qr_scan", "android": "https://dc.lft.to/lastmile_qr_scan"}}, {"name": "50da413d8c008a8f42d6baa55c78118f", "type": "electric_scooter", "lat": 38.8949775, "is_reserved": 0, "lon": -77.02282566666666, "fusion_lon": 0.0, "is_disabled": 0, "fusion_lat": 0.0, "bike_id": "50da413d8c008a8f42d6baa55c78118f", "rental_uris": {"ios": "https://dc.lft.to/lastmile_qr_scan", "android": "https://dc.lft.to/lastmile_qr_scan"}}, {"name": "8fcadd58c8b62de2b5783ccec8a135c9", "type": "electric_scooter", "lat": 38.89876683333333, "is_reserved": 0, "lon": -76.93157766666667, "fusion_lon": 0.0, "is_disabled": 0, "fusion_lat": 0.0, "bike_id": "8fcadd58c8b62de2b5783ccec8a135c9", "rental_uris": {"ios": "https://dc.lft.to/lastmile_qr_scan", "android": "https://dc.lft.to/lastmile_qr_scan"}}, {"name": "714ec54457a78c2543a84c9c71be6b7a", "type": "electric_scooter", "lat": 38.943977833333335, "is_reserved": 0, "lon": -77.03889716666667, "fusion_lon": 0.0, "is_disabled": 0, "fusion_lat": 0.0, "bike_id": "714ec54457a78c2543a84c9c71be6b7a", "rental_uris": {"ios": "https://dc.lft.to/lastmile_qr_scan", "android": "https://dc.lft.to/lastmile_qr_scan"}}, {"name": "e15e7738486e2c35e5ab1f49cffe178e", "type": "electric_bike", "lat": 38.96132566666667, "is_reserved": 0, "lon": -77.0327645, "fusion_lon": 0.0, "is_disabled": 0, "fusion_lat": 0.0, "bike_id": "e15e7738486e2c35e5ab1f49cffe178e", "rental_uris": {"ios": "https://dc.lft.to/lastmile_qr_scan", "android": "https://dc.lft.to/lastmile_qr_scan"}}, {"name": "8842d2ea90260b0416fdd1d851e12d0f", "type": "electric_scooter", "lat": 38.90575466666667, "is_reserved": 0, "lon": -77.02821216666666, "fusion_lon": 0.0, "is_disabled": 0, "fusion_lat": 0.0, "bike_id": "8842d2ea90260b0416fdd1d851e12d0f", "rental_uris": {"ios": "https://dc.lft.to/lastmile_qr_scan", "android": "https://dc.lft.to/lastmile_qr_scan"}}, {"name": "a15e040cdac6954be94dd6e461de22e8", "type": "electric_scooter", "lat": 38.927517333333334, "is_reserved": 0, "lon": -77.024246, "fusion_lon": 0.0, "is_disabled": 0, "fusion_lat": 0.0, "bike_id": "a15e040cdac6954be94dd6e461de22e8", "rental_uris": {"ios": "https://dc.lft.to/lastmile_qr_scan", "android": "https://dc.lft.to/lastmile_qr_scan"}}, {"name": "e7c20c5d490aed7766f94af85de4c73f", "type": "electric_scooter", "lat": 38.919051833333334, "is_reserved": 0, "lon": -77.0418, "fusion_lon": 0.0, "is_disabled": 0, "fusion_lat": 0.0, "bike_id": "e7c20c5d490aed7766f94af85de4c73f", "rental_uris": {"ios": "https://dc.lft.to/lastmile_qr_scan", "android": "https://dc.lft.to/lastmile_qr_scan"}}, {"name": "1793d7b6549cfd0200b326670e99b053", "type": "electric_scooter", "lat": 38.91734533333333, "is_reserved": 0, "lon": -77.01023933333333, "fusion_lon": 0.0, "is_disabled": 0, "fusion_lat": 0.0, "bike_id": "1793d7b6549cfd0200b326670e99b053", "rental_uris": {"ios": "https://dc.lft.to/lastmile_qr_scan", "android": "https://dc.lft.to/lastmile_qr_scan"}}, {"name": "35fe672268cac8dd6d37f74b3ca3b8b1", "type": "electric_scooter", "lat": 38.899877333333336, "is_reserved": 0, "lon": -77.02155216666667, "fusion_lon": 0.0, "is_disabled": 0, "fusion_lat": 0.0, "bike_id": "35fe672268cac8dd6d37f74b3ca3b8b1", "rental_uris": {"ios": "https://dc.lft.to/lastmile_qr_scan", "android": "https://dc.lft.to/lastmile_qr_scan"}}, {"name": "d4cbd07ca97dfd0568d023dd3bd1adce", "type": "electric_scooter", "lat": 38.93256516666667, "is_reserved": 0, "lon": -77.03285366666667, "fusion_lon": 0.0, "is_disabled": 0, "fusion_lat": 0.0, "bike_id": "d4cbd07ca97dfd0568d023dd3bd1adce", "rental_uris": {"ios": "https://dc.lft.to/lastmile_qr_scan", "android": "https://dc.lft.to/lastmile_qr_scan"}}, {"name": "94284043375ec61527262c436d2b5f52", "type": "electric_scooter", "lat": 38.91428333333333, "is_reserved": 0, "lon": -77.03806133333333, "fusion_lon": 0.0, "is_disabled": 0, "fusion_lat": 0.0, "bike_id": "94284043375ec61527262c436d2b5f52", "rental_uris": {"ios": "https://dc.lft.to/lastmile_qr_scan", "android": "https://dc.lft.to/lastmile_qr_scan"}}, {"name": "ee42876fb3f9585bf81f2424aec17b2d", "type": "electric_scooter", "lat": 38.89562566666667, "is_reserved": 0, "lon": -76.95033916666667, "fusion_lon": 0.0, "is_disabled": 0, "fusion_lat": 0.0, "bike_id": "ee42876fb3f9585bf81f2424aec17b2d", "rental_uris": {"ios": "https://dc.lft.to/lastmile_qr_scan", "android": "https://dc.lft.to/lastmile_qr_scan"}}, {"name": "7ea7d4e2be0db205c68ed18dea9ad992", "type": "electric_scooter", "lat": 38.902614666666665, "is_reserved": 0, "lon": -77.01759783333334, "fusion_lon": 0.0, "is_disabled": 0, "fusion_lat": 0.0, "bike_id": "7ea7d4e2be0db205c68ed18dea9ad992", "rental_uris": {"ios": "https://dc.lft.to/lastmile_qr_scan", "android": "https://dc.lft.to/lastmile_qr_scan"}}, {"name": "095ea40b5c3f2421f6716412e5e03eb8", "type": "electric_scooter", "lat": 38.92170816666667, "is_reserved": 0, "lon": -77.03355233333333, "fusion_lon": 0.0, "is_disabled": 0, "fusion_lat": 0.0, "bike_id": "095ea40b5c3f2421f6716412e5e03eb8", "rental_uris": {"ios": "https://dc.lft.to/lastmile_qr_scan", "android": "https://dc.lft.to/lastmile_qr_scan"}}, {"name": "01b0404e044be09edbdb873922ad7790", "type": "electric_scooter", "lat": 38.92159633333333, "is_reserved": 0, "lon": -77.03849833333334, "fusion_lon": 0.0, "is_disabled": 0, "fusion_lat": 0.0, "bike_id": "01b0404e044be09edbdb873922ad7790", "rental_uris": {"ios": "https://dc.lft.to/lastmile_qr_scan", "android": "https://dc.lft.to/lastmile_qr_scan"}}, {"name": "a316bf41447433a58a43cbbf45ee840d", "type": "electric_scooter", "lat": 38.902738, "is_reserved": 0, "lon": -77.0336235, "fusion_lon": 0.0, "is_disabled": 0, "fusion_lat": 0.0, "bike_id": "a316bf41447433a58a43cbbf45ee840d", "rental_uris": {"ios": "https://dc.lft.to/lastmile_qr_scan", "android": "https://dc.lft.to/lastmile_qr_scan"}}, {"name": "32dbea77a99d1beee2797e8e2aece668", "type": "electric_scooter", "lat": 38.86208416666667, "is_reserved": 0, "lon": -76.99467066666666, "fusion_lon": 0.0, "is_disabled": 0, "fusion_lat": 0.0, "bike_id": "32dbea77a99d1beee2797e8e2aece668", "rental_uris": {"ios": "https://dc.lft.to/lastmile_qr_scan", "android": "https://dc.lft.to/lastmile_qr_scan"}}, {"name": "5e6a1db2d0fb17de0e91fe7c96c18563", "type": "electric_scooter", "lat": 38.92873083333333, "is_reserved": 0, "lon": -77.01391333333333, "fusion_lon": 0.0, "is_disabled": 0, "fusion_lat": 0.0, "bike_id": "5e6a1db2d0fb17de0e91fe7c96c18563", "rental_uris": {"ios": "https://dc.lft.to/lastmile_qr_scan", "android": "https://dc.lft.to/lastmile_qr_scan"}}, {"name": "bb65185bf542b8df6d04fab65f340e06", "type": "electric_bike", "lat": 38.8130905, "is_reserved": 0, "lon": -77.05098383333333, "fusion_lon": 0.0, "is_disabled": 0, "fusion_lat": 0.0, "bike_id": "bb65185bf542b8df6d04fab65f340e06", "rental_uris": {"ios": "https://dc.lft.to/lastmile_qr_scan", "android": "https://dc.lft.to/lastmile_qr_scan"}}, {"name": "c7e2c70f00522785303702b135bee67b", "type": "electric_scooter", "lat": 38.9072865, "is_reserved": 0, "lon": -77.042097, "fusion_lon": 0.0, "is_disabled": 0, "fusion_lat": 0.0, "bike_id": "c7e2c70f00522785303702b135bee67b", "rental_uris": {"ios": "https://dc.lft.to/lastmile_qr_scan", "android": "https://dc.lft.to/lastmile_qr_scan"}}, {"name": "bfd5fb657e674c8b97b40cc5df582009", "type": "electric_scooter", "lat": 38.92448616666667, "is_reserved": 0, "lon": -77.03284533333333, "fusion_lon": 0.0, "is_disabled": 0, "fusion_lat": 0.0, "bike_id": "bfd5fb657e674c8b97b40cc5df582009", "rental_uris": {"ios": "https://dc.lft.to/lastmile_qr_scan", "android": "https://dc.lft.to/lastmile_qr_scan"}}, {"name": "e3567672a516ae657186eeaaaa355a64", "type": "electric_scooter", "lat": 38.876752333333336, "is_reserved": 0, "lon": -77.01781866666667, "fusion_lon": 0.0, "is_disabled": 0, "fusion_lat": 0.0, "bike_id": "e3567672a516ae657186eeaaaa355a64", "rental_uris": {"ios": "https://dc.lft.to/lastmile_qr_scan", "android": "https://dc.lft.to/lastmile_qr_scan"}}, {"name": "98094bad20af54702d8bab1574d44a09", "type": "electric_scooter", "lat": 38.878367833333336, "is_reserved": 0, "lon": -76.990337, "fusion_lon": 0.0, "is_disabled": 0, "fusion_lat": 0.0, "bike_id": "98094bad20af54702d8bab1574d44a09", "rental_uris": {"ios": "https://dc.lft.to/lastmile_qr_scan", "android": "https://dc.lft.to/lastmile_qr_scan"}}, {"name": "d7bd84cd0f4bc180b04d5d896873a763", "type": "electric_scooter", "lat": 38.93489, "is_reserved": 0, "lon": -77.03276483333333, "fusion_lon": 0.0, "is_disabled": 0, "fusion_lat": 0.0, "bike_id": "d7bd84cd0f4bc180b04d5d896873a763", "rental_uris": {"ios": "https://dc.lft.to/lastmile_qr_scan", "android": "https://dc.lft.to/lastmile_qr_scan"}}, {"name": "96dcee4813c81f5182481ff6d4786727", "type": "electric_scooter", "lat": 38.90298533333333, "is_reserved": 0, "lon": -76.99858316666666, "fusion_lon": 0.0, "is_disabled": 0, "fusion_lat": 0.0, "bike_id": "96dcee4813c81f5182481ff6d4786727", "rental_uris": {"ios": "https://dc.lft.to/lastmile_qr_scan", "android": "https://dc.lft.to/lastmile_qr_scan"}}, {"name": "d82e314f31ad7d78fa46b01dcfe4fbc7", "type": "electric_scooter", "lat": 38.917313666666665, "is_reserved": 0, "lon": -77.06847183333333, "fusion_lon": 0.0, "is_disabled": 0, "fusion_lat": 0.0, "bike_id": "d82e314f31ad7d78fa46b01dcfe4fbc7", "rental_uris": {"ios": "https://dc.lft.to/lastmile_qr_scan", "android": "https://dc.lft.to/lastmile_qr_scan"}}, {"name": "0dd3cd1d33624c67704cb48425ed9e3d", "type": "electric_scooter", "lat": 38.876307, "is_reserved": 0, "lon": -76.96527183333333, "fusion_lon": 0.0, "is_disabled": 0, "fusion_lat": 0.0, "bike_id": "0dd3cd1d33624c67704cb48425ed9e3d", "rental_uris": {"ios": "https://dc.lft.to/lastmile_qr_scan", "android": "https://dc.lft.to/lastmile_qr_scan"}}, {"name": "f9270306b462679210dc8e189fb1525e", "type": "electric_scooter", "lat": 38.90560216666667, "is_reserved": 0, "lon": -77.00593933333333, "fusion_lon": 0.0, "is_disabled": 0, "fusion_lat": 0.0, "bike_id": "f9270306b462679210dc8e189fb1525e", "rental_uris": {"ios": "https://dc.lft.to/lastmile_qr_scan", "android": "https://dc.lft.to/lastmile_qr_scan"}}, {"name": "6c7e722229fc3562bf6d7bba62f183df", "type": "electric_scooter", "lat": 38.89583666666667, "is_reserved": 0, "lon": -76.93719716666666, "fusion_lon": 0.0, "is_disabled": 0, "fusion_lat": 0.0, "bike_id": "6c7e722229fc3562bf6d7bba62f183df", "rental_uris": {"ios": "https://dc.lft.to/lastmile_qr_scan", "android": "https://dc.lft.to/lastmile_qr_scan"}}, {"name": "5bb56ec766ca4867d670af86890073ed", "type": "electric_scooter", "lat": 38.9191535, "is_reserved": 0, "lon": -77.01341566666666, "fusion_lon": 0.0, "is_disabled": 0, "fusion_lat": 0.0, "bike_id": "5bb56ec766ca4867d670af86890073ed", "rental_uris": {"ios": "https://dc.lft.to/lastmile_qr_scan", "android": "https://dc.lft.to/lastmile_qr_scan"}}, {"name": "4f2759c34ca47d6b20409f22a15fdfd2", "type": "electric_scooter", "lat": 38.8561815, "is_reserved": 0, "lon": -76.98018566666667, "fusion_lon": 0.0, "is_disabled": 0, "fusion_lat": 0.0, "bike_id": "4f2759c34ca47d6b20409f22a15fdfd2", "rental_uris": {"ios": "https://dc.lft.to/lastmile_qr_scan", "android": "https://dc.lft.to/lastmile_qr_scan"}}, {"name": "f88232837b94d7e5e80803def7a0ba8c", "type": "electric_scooter", "lat": 38.842934, "is_reserved": 0, "lon": -76.99943433333334, "fusion_lon": 0.0, "is_disabled": 0, "fusion_lat": 0.0, "bike_id": "f88232837b94d7e5e80803def7a0ba8c", "rental_uris": {"ios": "https://dc.lft.to/lastmile_qr_scan", "android": "https://dc.lft.to/lastmile_qr_scan"}}, {"name": "81a1f747aa781ab2320a45776ea38d28", "type": "electric_scooter", "lat": 38.904467333333336, "is_reserved": 0, "lon": -76.99620816666666, "fusion_lon": 0.0, "is_disabled": 0, "fusion_lat": 0.0, "bike_id": "81a1f747aa781ab2320a45776ea38d28", "rental_uris": {"ios": "https://dc.lft.to/lastmile_qr_scan", "android": "https://dc.lft.to/lastmile_qr_scan"}}, {"name": "ee33a67f6cad32301affa96d542ca2e5", "type": "electric_scooter", "lat": 38.95733466666667, "is_reserved": 0, "lon": -77.0240295, "fusion_lon": 0.0, "is_disabled": 0, "fusion_lat": 0.0, "bike_id": "ee33a67f6cad32301affa96d542ca2e5", "rental_uris": {"ios": "https://dc.lft.to/lastmile_qr_scan", "android": "https://dc.lft.to/lastmile_qr_scan"}}, {"name": "b640719fe383b01f86295d1726ba704f", "type": "electric_scooter", "lat": 38.922368166666665, "is_reserved": 0, "lon": -77.0461675, "fusion_lon": 0.0, "is_disabled": 0, "fusion_lat": 0.0, "bike_id": "b640719fe383b01f86295d1726ba704f", "rental_uris": {"ios": "https://dc.lft.to/lastmile_qr_scan", "android": "https://dc.lft.to/lastmile_qr_scan"}}, {"name": "2f99cacdccd823787c76dd8faf09e6f6", "type": "electric_scooter", "lat": 38.9013865, "is_reserved": 0, "lon": -77.04486233333333, "fusion_lon": 0.0, "is_disabled": 0, "fusion_lat": 0.0, "bike_id": "2f99cacdccd823787c76dd8faf09e6f6", "rental_uris": {"ios": "https://dc.lft.to/lastmile_qr_scan", "android": "https://dc.lft.to/lastmile_qr_scan"}}, {"name": "7e45b28ac8828550cf91d5cfa399f72a", "type": "electric_bike", "lat": 38.85159816666667, "is_reserved": 0, "lon": -77.12875533333333, "fusion_lon": 0.0, "is_disabled": 0, "fusion_lat": 0.0, "bike_id": "7e45b28ac8828550cf91d5cfa399f72a", "rental_uris": {"ios": "https://dc.lft.to/lastmile_qr_scan", "android": "https://dc.lft.to/lastmile_qr_scan"}}, {"name": "1a9b034d8f2540958c790c6e1971f7e2", "type": "electric_scooter", "lat": 38.90239716666667, "is_reserved": 0, "lon": -76.97931016666666, "fusion_lon": 0.0, "is_disabled": 0, "fusion_lat": 0.0, "bike_id": "1a9b034d8f2540958c790c6e1971f7e2", "rental_uris": {"ios": "https://dc.lft.to/lastmile_qr_scan", "android": "https://dc.lft.to/lastmile_qr_scan"}}, {"name": "d46f2c04316a4c5b9d9e8105ce50ec9b", "type": "electric_scooter", "lat": 38.90655433333333, "is_reserved": 0, "lon": -77.04297216666667, "fusion_lon": 0.0, "is_disabled": 0, "fusion_lat": 0.0, "bike_id": "d46f2c04316a4c5b9d9e8105ce50ec9b", "rental_uris": {"ios": "https://dc.lft.to/lastmile_qr_scan", "android": "https://dc.lft.to/lastmile_qr_scan"}}, {"name": "cdc8d51aaacfb772dbb36b99f7e5936c", "type": "electric_scooter", "lat": 38.894744833333334, "is_reserved": 0, "lon": -76.98399016666667, "fusion_lon": 0.0, "is_disabled": 0, "fusion_lat": 0.0, "bike_id": "cdc8d51aaacfb772dbb36b99f7e5936c", "rental_uris": {"ios": "https://dc.lft.to/lastmile_qr_scan", "android": "https://dc.lft.to/lastmile_qr_scan"}}, {"name": "940b21d563f4efbc9d7d52a03df3f723", "type": "electric_scooter", "lat": 38.86566833333333, "is_reserved": 0, "lon": -76.98948483333334, "fusion_lon": 0.0, "is_disabled": 0, "fusion_lat": 0.0, "bike_id": "940b21d563f4efbc9d7d52a03df3f723", "rental_uris": {"ios": "https://dc.lft.to/lastmile_qr_scan", "android": "https://dc.lft.to/lastmile_qr_scan"}}, {"name": "972e59803a17d15a68df982dce6cd5a2", "type": "electric_scooter", "lat": 38.93060583333333, "is_reserved": 0, "lon": -77.03947083333334, "fusion_lon": 0.0, "is_disabled": 0, "fusion_lat": 0.0, "bike_id": "972e59803a17d15a68df982dce6cd5a2", "rental_uris": {"ios": "https://dc.lft.to/lastmile_qr_scan", "android": "https://dc.lft.to/lastmile_qr_scan"}}, {"name": "8410f720e6d0ed1b2b3f51a3f256adbd", "type": "electric_scooter", "lat": 38.943127, "is_reserved": 0, "lon": -77.0591205, "fusion_lon": 0.0, "is_disabled": 0, "fusion_lat": 0.0, "bike_id": "8410f720e6d0ed1b2b3f51a3f256adbd", "rental_uris": {"ios": "https://dc.lft.to/lastmile_qr_scan", "android": "https://dc.lft.to/lastmile_qr_scan"}}, {"name": "64a2886b67494f25786a9cc0f7a486b0", "type": "electric_bike", "lat": 38.89843833333333, "is_reserved": 0, "lon": -77.00576133333334, "fusion_lon": 0.0, "is_disabled": 0, "fusion_lat": 0.0, "bike_id": "64a2886b67494f25786a9cc0f7a486b0", "rental_uris": {"ios": "https://dc.lft.to/lastmile_qr_scan", "android": "https://dc.lft.to/lastmile_qr_scan"}}, {"name": "874737e68adb93efccfa071afa6270c3", "type": "electric_bike", "lat": 38.91166366666667, "is_reserved": 0, "lon": -77.002896, "fusion_lon": 0.0, "is_disabled": 0, "fusion_lat": 0.0, "bike_id": "874737e68adb93efccfa071afa6270c3", "rental_uris": {"ios": "https://dc.lft.to/lastmile_qr_scan", "android": "https://dc.lft.to/lastmile_qr_scan"}}, {"name": "f30e57da84db6ed4b0cefd3c6570dac0", "type": "electric_scooter", "lat": 38.92487633333333, "is_reserved": 0, "lon": -77.02713366666667, "fusion_lon": 0.0, "is_disabled": 0, "fusion_lat": 0.0, "bike_id": "f30e57da84db6ed4b0cefd3c6570dac0", "rental_uris": {"ios": "https://dc.lft.to/lastmile_qr_scan", "android": "https://dc.lft.to/lastmile_qr_scan"}}, {"name": "3b98d53b0e6e65dcdd33447ba29b6c3a", "type": "electric_scooter", "lat": 38.899168833333334, "is_reserved": 0, "lon": -76.933795, "fusion_lon": 0.0, "is_disabled": 0, "fusion_lat": 0.0, "bike_id": "3b98d53b0e6e65dcdd33447ba29b6c3a", "rental_uris": {"ios": "https://dc.lft.to/lastmile_qr_scan", "android": "https://dc.lft.to/lastmile_qr_scan"}}, {"name": "a8ab2f2bbab0383ed2109950d520c813", "type": "electric_bike", "lat": 38.884033, "is_reserved": 0, "lon": -77.046443, "fusion_lon": 0.0, "is_disabled": 0, "fusion_lat": 0.0, "bike_id": "a8ab2f2bbab0383ed2109950d520c813", "rental_uris": {"ios": "https://dc.lft.to/lastmile_qr_scan", "android": "https://dc.lft.to/lastmile_qr_scan"}}, {"name": "b8ebdb8303ea24a1c7039d9dd1282aa7", "type": "electric_scooter", "lat": 38.9289435, "is_reserved": 0, "lon": -77.03324066666667, "fusion_lon": 0.0, "is_disabled": 0, "fusion_lat": 0.0, "bike_id": "b8ebdb8303ea24a1c7039d9dd1282aa7", "rental_uris": {"ios": "https://dc.lft.to/lastmile_qr_scan", "android": "https://dc.lft.to/lastmile_qr_scan"}}, {"name": "138891cc160497d73eea1e3d335a7500", "type": "electric_scooter", "lat": 38.915722333333335, "is_reserved": 0, "lon": -77.0467755, "fusion_lon": 0.0, "is_disabled": 0, "fusion_lat": 0.0, "bike_id": "138891cc160497d73eea1e3d335a7500", "rental_uris": {"ios": "https://dc.lft.to/lastmile_qr_scan", "android": "https://dc.lft.to/lastmile_qr_scan"}}, {"name": "8097fcb34cdbfdba5452d767ae592254", "type": "electric_scooter", "lat": 38.92793416666667, "is_reserved": 0, "lon": -77.043524, "fusion_lon": 0.0, "is_disabled": 0, "fusion_lat": 0.0, "bike_id": "8097fcb34cdbfdba5452d767ae592254", "rental_uris": {"ios": "https://dc.lft.to/lastmile_qr_scan", "android": "https://dc.lft.to/lastmile_qr_scan"}}, {"name": "60df610c57e7212133d66f7b5d626881", "type": "electric_scooter", "lat": 38.90065633333333, "is_reserved": 0, "lon": -77.0257985, "fusion_lon": 0.0, "is_disabled": 0, "fusion_lat": 0.0, "bike_id": "60df610c57e7212133d66f7b5d626881", "rental_uris": {"ios": "https://dc.lft.to/lastmile_qr_scan", "android": "https://dc.lft.to/lastmile_qr_scan"}}, {"name": "c450ac5bd6762af78bc4967c270c4eb8", "type": "electric_scooter", "lat": 38.9110385, "is_reserved": 0, "lon": -77.0466725, "fusion_lon": 0.0, "is_disabled": 0, "fusion_lat": 0.0, "bike_id": "c450ac5bd6762af78bc4967c270c4eb8", "rental_uris": {"ios": "https://dc.lft.to/lastmile_qr_scan", "android": "https://dc.lft.to/lastmile_qr_scan"}}, {"name": "f4d8fbc82b56ca265b13913a983581db", "type": "electric_scooter", "lat": 38.90343566666667, "is_reserved": 0, "lon": -77.03831366666667, "fusion_lon": 0.0, "is_disabled": 0, "fusion_lat": 0.0, "bike_id": "f4d8fbc82b56ca265b13913a983581db", "rental_uris": {"ios": "https://dc.lft.to/lastmile_qr_scan", "android": "https://dc.lft.to/lastmile_qr_scan"}}, {"name": "ec00115060bd9b4341b68a5e2f5a11cb", "type": "electric_scooter", "lat": 38.908426166666665, "is_reserved": 0, "lon": -77.02691583333333, "fusion_lon": 0.0, "is_disabled": 0, "fusion_lat": 0.0, "bike_id": "ec00115060bd9b4341b68a5e2f5a11cb", "rental_uris": {"ios": "https://dc.lft.to/lastmile_qr_scan", "android": "https://dc.lft.to/lastmile_qr_scan"}}, {"name": "5a05f0d55ae1bf7db692a3a7bb77c108", "type": "electric_scooter", "lat": 38.865150166666666, "is_reserved": 0, "lon": -76.99037466666667, "fusion_lon": 0.0, "is_disabled": 0, "fusion_lat": 0.0, "bike_id": "5a05f0d55ae1bf7db692a3a7bb77c108", "rental_uris": {"ios": "https://dc.lft.to/lastmile_qr_scan", "android": "https://dc.lft.to/lastmile_qr_scan"}}, {"name": "ab11e84e4894e227ce424fcb299c45b3", "type": "electric_scooter", "lat": 38.88688283333333, "is_reserved": 0, "lon": -76.95764116666666, "fusion_lon": 0.0, "is_disabled": 0, "fusion_lat": 0.0, "bike_id": "ab11e84e4894e227ce424fcb299c45b3", "rental_uris": {"ios": "https://dc.lft.to/lastmile_qr_scan", "android": "https://dc.lft.to/lastmile_qr_scan"}}, {"name": "6d83d30e55c09e031f9879d84cc9c5cb", "type": "electric_scooter", "lat": 38.8973995, "is_reserved": 0, "lon": -76.93843566666666, "fusion_lon": 0.0, "is_disabled": 0, "fusion_lat": 0.0, "bike_id": "6d83d30e55c09e031f9879d84cc9c5cb", "rental_uris": {"ios": "https://dc.lft.to/lastmile_qr_scan", "android": "https://dc.lft.to/lastmile_qr_scan"}}, {"name": "1824e130d6431728fe1154c1fb8f380d", "type": "electric_scooter", "lat": 38.90660916666667, "is_reserved": 0, "lon": -77.0382475, "fusion_lon": 0.0, "is_disabled": 0, "fusion_lat": 0.0, "bike_id": "1824e130d6431728fe1154c1fb8f380d", "rental_uris": {"ios": "https://dc.lft.to/lastmile_qr_scan", "android": "https://dc.lft.to/lastmile_qr_scan"}}, {"name": "2f6c76e360601ccee15a64550d9cb4f0", "type": "electric_scooter", "lat": 38.894591, "is_reserved": 0, "lon": -77.019225, "fusion_lon": 0.0, "is_disabled": 0, "fusion_lat": 0.0, "bike_id": "2f6c76e360601ccee15a64550d9cb4f0", "rental_uris": {"ios": "https://dc.lft.to/lastmile_qr_scan", "android": "https://dc.lft.to/lastmile_qr_scan"}}, {"name": "aa8329652120c49fa0d129af88f570ac", "type": "electric_scooter", "lat": 38.87628816666667, "is_reserved": 0, "lon": -76.96525033333333, "fusion_lon": 0.0, "is_disabled": 0, "fusion_lat": 0.0, "bike_id": "aa8329652120c49fa0d129af88f570ac", "rental_uris": {"ios": "https://dc.lft.to/lastmile_qr_scan", "android": "https://dc.lft.to/lastmile_qr_scan"}}, {"name": "2e3379e9f8e92deb7b628bfb8cc14900", "type": "electric_scooter", "lat": 38.93091966666667, "is_reserved": 0, "lon": -77.02538316666667, "fusion_lon": 0.0, "is_disabled": 0, "fusion_lat": 0.0, "bike_id": "2e3379e9f8e92deb7b628bfb8cc14900", "rental_uris": {"ios": "https://dc.lft.to/lastmile_qr_scan", "android": "https://dc.lft.to/lastmile_qr_scan"}}, {"name": "7dc6269781c8725e26b932aceedf75c3", "type": "electric_bike", "lat": 38.838249833333336, "is_reserved": 0, "lon": -76.996822, "fusion_lon": 0.0, "is_disabled": 0, "fusion_lat": 0.0, "bike_id": "7dc6269781c8725e26b932aceedf75c3", "rental_uris": {"ios": "https://dc.lft.to/lastmile_qr_scan", "android": "https://dc.lft.to/lastmile_qr_scan"}}, {"name": "6658e2f5a03432a92db122fa1f18a5fa", "type": "electric_scooter", "lat": 38.92354733333333, "is_reserved": 0, "lon": -77.05312316666667, "fusion_lon": 0.0, "is_disabled": 0, "fusion_lat": 0.0, "bike_id": "6658e2f5a03432a92db122fa1f18a5fa", "rental_uris": {"ios": "https://dc.lft.to/lastmile_qr_scan", "android": "https://dc.lft.to/lastmile_qr_scan"}}, {"name": "07db0a09e3b6d5de770c0dc76ff86314", "type": "electric_scooter", "lat": 38.89239766666667, "is_reserved": 0, "lon": -77.01536933333334, "fusion_lon": 0.0, "is_disabled": 0, "fusion_lat": 0.0, "bike_id": "07db0a09e3b6d5de770c0dc76ff86314", "rental_uris": {"ios": "https://dc.lft.to/lastmile_qr_scan", "android": "https://dc.lft.to/lastmile_qr_scan"}}, {"name": "d417c17c7f1bff3dca9894fed5a69659", "type": "electric_scooter", "lat": 38.93289333333333, "is_reserved": 0, "lon": -77.03979333333334, "fusion_lon": 0.0, "is_disabled": 0, "fusion_lat": 0.0, "bike_id": "d417c17c7f1bff3dca9894fed5a69659", "rental_uris": {"ios": "https://dc.lft.to/lastmile_qr_scan", "android": "https://dc.lft.to/lastmile_qr_scan"}}, {"name": "1e70e78a836e5adf5a4056fc37bc1a8b", "type": "electric_scooter", "lat": 38.90403466666667, "is_reserved": 0, "lon": -77.02931233333334, "fusion_lon": 0.0, "is_disabled": 0, "fusion_lat": 0.0, "bike_id": "1e70e78a836e5adf5a4056fc37bc1a8b", "rental_uris": {"ios": "https://dc.lft.to/lastmile_qr_scan", "android": "https://dc.lft.to/lastmile_qr_scan"}}, {"name": "d3498ff208edf126e44d5d49d9f4fe60", "type": "electric_bike", "lat": 38.83860983333334, "is_reserved": 0, "lon": -77.08863816666667, "fusion_lon": 0.0, "is_disabled": 0, "fusion_lat": 0.0, "bike_id": "d3498ff208edf126e44d5d49d9f4fe60", "rental_uris": {"ios": "https://dc.lft.to/lastmile_qr_scan", "android": "https://dc.lft.to/lastmile_qr_scan"}}, {"name": "a25924a6641a22a8d7aed16e2411d489", "type": "electric_scooter", "lat": 38.93228833333333, "is_reserved": 0, "lon": -77.03543633333334, "fusion_lon": 0.0, "is_disabled": 0, "fusion_lat": 0.0, "bike_id": "a25924a6641a22a8d7aed16e2411d489", "rental_uris": {"ios": "https://dc.lft.to/lastmile_qr_scan", "android": "https://dc.lft.to/lastmile_qr_scan"}}, {"name": "829fb57e1a0c460969615e529cf388ff", "type": "electric_scooter", "lat": 38.889388833333335, "is_reserved": 0, "lon": -76.94812483333334, "fusion_lon": 0.0, "is_disabled": 0, "fusion_lat": 0.0, "bike_id": "829fb57e1a0c460969615e529cf388ff", "rental_uris": {"ios": "https://dc.lft.to/lastmile_qr_scan", "android": "https://dc.lft.to/lastmile_qr_scan"}}, {"name": "cd3ccffa2ccffe13b7da19747ef531fe", "type": "electric_bike", "lat": 38.90176733333333, "is_reserved": 0, "lon": -76.98035283333333, "fusion_lon": 0.0, "is_disabled": 0, "fusion_lat": 0.0, "bike_id": "cd3ccffa2ccffe13b7da19747ef531fe", "rental_uris": {"ios": "https://dc.lft.to/lastmile_qr_scan", "android": "https://dc.lft.to/lastmile_qr_scan"}}, {"name": "db49830e726eb1f7c19ef333d5b83b77", "type": "electric_scooter", "lat": 38.92917033333333, "is_reserved": 0, "lon": -77.02193033333333, "fusion_lon": 0.0, "is_disabled": 0, "fusion_lat": 0.0, "bike_id": "db49830e726eb1f7c19ef333d5b83b77", "rental_uris": {"ios": "https://dc.lft.to/lastmile_qr_scan", "android": "https://dc.lft.to/lastmile_qr_scan"}}, {"name": "1dd9def286a7bb34d9b205a3d2be2caa", "type": "electric_bike", "lat": 38.97326916666667, "is_reserved": 0, "lon": -77.021482, "fusion_lon": 0.0, "is_disabled": 0, "fusion_lat": 0.0, "bike_id": "1dd9def286a7bb34d9b205a3d2be2caa", "rental_uris": {"ios": "https://dc.lft.to/lastmile_qr_scan", "android": "https://dc.lft.to/lastmile_qr_scan"}}, {"name": "d4a392b9530524fc8de00c8471f8052e", "type": "electric_scooter", "lat": 38.9002025, "is_reserved": 0, "lon": -77.00212433333333, "fusion_lon": 0.0, "is_disabled": 0, "fusion_lat": 0.0, "bike_id": "d4a392b9530524fc8de00c8471f8052e", "rental_uris": {"ios": "https://dc.lft.to/lastmile_qr_scan", "android": "https://dc.lft.to/lastmile_qr_scan"}}, {"name": "c8d8c88aa382693b2d6f4b6c9a0b7528", "type": "electric_scooter", "lat": 38.90026433333333, "is_reserved": 0, "lon": -76.9945165, "fusion_lon": 0.0, "is_disabled": 0, "fusion_lat": 0.0, "bike_id": "c8d8c88aa382693b2d6f4b6c9a0b7528", "rental_uris": {"ios": "https://dc.lft.to/lastmile_qr_scan", "android": "https://dc.lft.to/lastmile_qr_scan"}}, {"name": "5fdbf7563244ce7d4943d8292fdb9014", "type": "electric_bike", "lat": 38.958871, "is_reserved": 0, "lon": -76.92499083333334, "fusion_lon": 0.0, "is_disabled": 0, "fusion_lat": 0.0, "bike_id": "5fdbf7563244ce7d4943d8292fdb9014", "rental_uris": {"ios": "https://dc.lft.to/lastmile_qr_scan", "android": "https://dc.lft.to/lastmile_qr_scan"}}, {"name": "a9adc9c33bc4e84d67963e73d2d765e6", "type": "electric_scooter", "lat": 38.9032355, "is_reserved": 0, "lon": -77.0381305, "fusion_lon": 0.0, "is_disabled": 0, "fusion_lat": 0.0, "bike_id": "a9adc9c33bc4e84d67963e73d2d765e6", "rental_uris": {"ios": "https://dc.lft.to/lastmile_qr_scan", "android": "https://dc.lft.to/lastmile_qr_scan"}}, {"name": "eb79d9c4528a9d87013bef59315c7173", "type": "electric_scooter", "lat": 38.9100715, "is_reserved": 0, "lon": -77.04004266666666, "fusion_lon": 0.0, "is_disabled": 0, "fusion_lat": 0.0, "bike_id": "eb79d9c4528a9d87013bef59315c7173", "rental_uris": {"ios": "https://dc.lft.to/lastmile_qr_scan", "android": "https://dc.lft.to/lastmile_qr_scan"}}, {"name": "213c59075c134d3589d78e7cdcf187c0", "type": "electric_scooter", "lat": 38.87627666666667, "is_reserved": 0, "lon": -76.96523933333333, "fusion_lon": 0.0, "is_disabled": 0, "fusion_lat": 0.0, "bike_id": "213c59075c134d3589d78e7cdcf187c0", "rental_uris": {"ios": "https://dc.lft.to/lastmile_qr_scan", "android": "https://dc.lft.to/lastmile_qr_scan"}}, {"name": "2c3784d76decf94771c59aa88e29349b", "type": "electric_scooter", "lat": 38.8998005, "is_reserved": 0, "lon": -76.9914715, "fusion_lon": 0.0, "is_disabled": 0, "fusion_lat": 0.0, "bike_id": "2c3784d76decf94771c59aa88e29349b", "rental_uris": {"ios": "https://dc.lft.to/lastmile_qr_scan", "android": "https://dc.lft.to/lastmile_qr_scan"}}, {"name": "f44371ab23f23e4ff619d8e3c25661d7", "type": "electric_scooter", "lat": 38.893303333333336, "is_reserved": 0, "lon": -76.92988383333334, "fusion_lon": 0.0, "is_disabled": 0, "fusion_lat": 0.0, "bike_id": "f44371ab23f23e4ff619d8e3c25661d7", "rental_uris": {"ios": "https://dc.lft.to/lastmile_qr_scan", "android": "https://dc.lft.to/lastmile_qr_scan"}}, {"name": "78a6067b854fa891d60c22ca1fb441c9", "type": "electric_scooter", "lat": 38.93627033333333, "is_reserved": 0, "lon": -77.03696083333334, "fusion_lon": 0.0, "is_disabled": 0, "fusion_lat": 0.0, "bike_id": "78a6067b854fa891d60c22ca1fb441c9", "rental_uris": {"ios": "https://dc.lft.to/lastmile_qr_scan", "android": "https://dc.lft.to/lastmile_qr_scan"}}, {"name": "8fcdbb690342215ba04d486967a2b0c0", "type": "electric_scooter", "lat": 38.906670166666665, "is_reserved": 0, "lon": -77.038629, "fusion_lon": 0.0, "is_disabled": 0, "fusion_lat": 0.0, "bike_id": "8fcdbb690342215ba04d486967a2b0c0", "rental_uris": {"ios": "https://dc.lft.to/lastmile_qr_scan", "android": "https://dc.lft.to/lastmile_qr_scan"}}, {"name": "476388ca8e613ba4d04d83cd490054aa", "type": "electric_scooter", "lat": 38.92283533333333, "is_reserved": 0, "lon": -77.03660733333334, "fusion_lon": 0.0, "is_disabled": 0, "fusion_lat": 0.0, "bike_id": "476388ca8e613ba4d04d83cd490054aa", "rental_uris": {"ios": "https://dc.lft.to/lastmile_qr_scan", "android": "https://dc.lft.to/lastmile_qr_scan"}}, {"name": "e3ff16949dcae4da872f317490ca145b", "type": "electric_scooter", "lat": 38.886053, "is_reserved": 0, "lon": -76.9950735, "fusion_lon": 0.0, "is_disabled": 0, "fusion_lat": 0.0, "bike_id": "e3ff16949dcae4da872f317490ca145b", "rental_uris": {"ios": "https://dc.lft.to/lastmile_qr_scan", "android": "https://dc.lft.to/lastmile_qr_scan"}}, {"name": "484326a567780feed291d6edadf38d87", "type": "electric_scooter", "lat": 38.907559, "is_reserved": 0, "lon": -77.030657, "fusion_lon": 0.0, "is_disabled": 0, "fusion_lat": 0.0, "bike_id": "484326a567780feed291d6edadf38d87", "rental_uris": {"ios": "https://dc.lft.to/lastmile_qr_scan", "android": "https://dc.lft.to/lastmile_qr_scan"}}, {"name": "593263c9dbbed8d90ebd1ddf0cb1effc", "type": "electric_bike", "lat": 38.94152316666667, "is_reserved": 0, "lon": -77.001972, "fusion_lon": 0.0, "is_disabled": 0, "fusion_lat": 0.0, "bike_id": "593263c9dbbed8d90ebd1ddf0cb1effc", "rental_uris": {"ios": "https://dc.lft.to/lastmile_qr_scan", "android": "https://dc.lft.to/lastmile_qr_scan"}}, {"name": "923b8e5c696a55717bce7cb33131ffa8", "type": "electric_scooter", "lat": 38.92161, "is_reserved": 0, "lon": -77.03859633333333, "fusion_lon": 0.0, "is_disabled": 0, "fusion_lat": 0.0, "bike_id": "923b8e5c696a55717bce7cb33131ffa8", "rental_uris": {"ios": "https://dc.lft.to/lastmile_qr_scan", "android": "https://dc.lft.to/lastmile_qr_scan"}}, {"name": "af771d3011a4c41586768c2770b71cb6", "type": "electric_scooter", "lat": 38.90540816666667, "is_reserved": 0, "lon": -77.050233, "fusion_lon": 0.0, "is_disabled": 0, "fusion_lat": 0.0, "bike_id": "af771d3011a4c41586768c2770b71cb6", "rental_uris": {"ios": "https://dc.lft.to/lastmile_qr_scan", "android": "https://dc.lft.to/lastmile_qr_scan"}}, {"name": "4bc6e5d828f4471062cbc68225e02e91", "type": "electric_scooter", "lat": 38.90277483333333, "is_reserved": 0, "lon": -77.03817, "fusion_lon": 0.0, "is_disabled": 0, "fusion_lat": 0.0, "bike_id": "4bc6e5d828f4471062cbc68225e02e91", "rental_uris": {"ios": "https://dc.lft.to/lastmile_qr_scan", "android": "https://dc.lft.to/lastmile_qr_scan"}}, {"name": "6186830d897e516d2d62ffe5153042eb", "type": "electric_scooter", "lat": 38.887770833333335, "is_reserved": 0, "lon": -76.9553035, "fusion_lon": 0.0, "is_disabled": 0, "fusion_lat": 0.0, "bike_id": "6186830d897e516d2d62ffe5153042eb", "rental_uris": {"ios": "https://dc.lft.to/lastmile_qr_scan", "android": "https://dc.lft.to/lastmile_qr_scan"}}, {"name": "181c1b8695e84f545a59151bce65a48a", "type": "electric_scooter", "lat": 38.9199175, "is_reserved": 0, "lon": -77.034707, "fusion_lon": 0.0, "is_disabled": 0, "fusion_lat": 0.0, "bike_id": "181c1b8695e84f545a59151bce65a48a", "rental_uris": {"ios": "https://dc.lft.to/lastmile_qr_scan", "android": "https://dc.lft.to/lastmile_qr_scan"}}, {"name": "77dd673e14256dd8575766ef2bea859b", "type": "electric_scooter", "lat": 38.911997, "is_reserved": 0, "lon": -77.04541983333333, "fusion_lon": 0.0, "is_disabled": 0, "fusion_lat": 0.0, "bike_id": "77dd673e14256dd8575766ef2bea859b", "rental_uris": {"ios": "https://dc.lft.to/lastmile_qr_scan", "android": "https://dc.lft.to/lastmile_qr_scan"}}, {"name": "91108d170e317550266d9610347a850a", "type": "electric_scooter", "lat": 38.899089833333335, "is_reserved": 0, "lon": -77.039338, "fusion_lon": 0.0, "is_disabled": 0, "fusion_lat": 0.0, "bike_id": "91108d170e317550266d9610347a850a", "rental_uris": {"ios": "https://dc.lft.to/lastmile_qr_scan", "android": "https://dc.lft.to/lastmile_qr_scan"}}, {"name": "7e335f82216300cd0844cf0bc384986b", "type": "electric_scooter", "lat": 38.8920655, "is_reserved": 0, "lon": -77.00238683333333, "fusion_lon": 0.0, "is_disabled": 0, "fusion_lat": 0.0, "bike_id": "7e335f82216300cd0844cf0bc384986b", "rental_uris": {"ios": "https://dc.lft.to/lastmile_qr_scan", "android": "https://dc.lft.to/lastmile_qr_scan"}}, {"name": "4b212534764fed202d04fa93d7c23ce1", "type": "electric_scooter", "lat": 38.9095875, "is_reserved": 0, "lon": -77.04856316666667, "fusion_lon": 0.0, "is_disabled": 0, "fusion_lat": 0.0, "bike_id": "4b212534764fed202d04fa93d7c23ce1", "rental_uris": {"ios": "https://dc.lft.to/lastmile_qr_scan", "android": "https://dc.lft.to/lastmile_qr_scan"}}, {"name": "0e2ad7da35364f43cfb20c16b08fe1af", "type": "electric_scooter", "lat": 38.93351833333333, "is_reserved": 0, "lon": -77.069409, "fusion_lon": 0.0, "is_disabled": 0, "fusion_lat": 0.0, "bike_id": "0e2ad7da35364f43cfb20c16b08fe1af", "rental_uris": {"ios": "https://dc.lft.to/lastmile_qr_scan", "android": "https://dc.lft.to/lastmile_qr_scan"}}, {"name": "b47c7c951ed6ef8f3e31046de9ae0477", "type": "electric_scooter", "lat": 38.9349205, "is_reserved": 0, "lon": -77.03282116666666, "fusion_lon": 0.0, "is_disabled": 0, "fusion_lat": 0.0, "bike_id": "b47c7c951ed6ef8f3e31046de9ae0477", "rental_uris": {"ios": "https://dc.lft.to/lastmile_qr_scan", "android": "https://dc.lft.to/lastmile_qr_scan"}}, {"name": "9749dd4e7ef4a824af5c45ebbe8b554f", "type": "electric_scooter", "lat": 38.939036, "is_reserved": 0, "lon": -77.07728416666667, "fusion_lon": 0.0, "is_disabled": 0, "fusion_lat": 0.0, "bike_id": "9749dd4e7ef4a824af5c45ebbe8b554f", "rental_uris": {"ios": "https://dc.lft.to/lastmile_qr_scan", "android": "https://dc.lft.to/lastmile_qr_scan"}}, {"name": "0bde86007fe6fb208212a5485f4d31b7", "type": "electric_scooter", "lat": 38.9338305, "is_reserved": 0, "lon": -77.03464983333333, "fusion_lon": 0.0, "is_disabled": 0, "fusion_lat": 0.0, "bike_id": "0bde86007fe6fb208212a5485f4d31b7", "rental_uris": {"ios": "https://dc.lft.to/lastmile_qr_scan", "android": "https://dc.lft.to/lastmile_qr_scan"}}, {"name": "57135d9502a61e6e780371b39d44b463", "type": "electric_scooter", "lat": 38.91214316666667, "is_reserved": 0, "lon": -77.07590066666667, "fusion_lon": 0.0, "is_disabled": 0, "fusion_lat": 0.0, "bike_id": "57135d9502a61e6e780371b39d44b463", "rental_uris": {"ios": "https://dc.lft.to/lastmile_qr_scan", "android": "https://dc.lft.to/lastmile_qr_scan"}}, {"name": "74556cddbbf80619de950afadee61459", "type": "electric_scooter", "lat": 38.88105683333333, "is_reserved": 0, "lon": -77.01657683333333, "fusion_lon": 0.0, "is_disabled": 0, "fusion_lat": 0.0, "bike_id": "74556cddbbf80619de950afadee61459", "rental_uris": {"ios": "https://dc.lft.to/lastmile_qr_scan", "android": "https://dc.lft.to/lastmile_qr_scan"}}, {"name": "8469a0e85119095ea14bed5218748749", "type": "electric_bike", "lat": 38.94834616666667, "is_reserved": 0, "lon": -77.03899416666667, "fusion_lon": 0.0, "is_disabled": 0, "fusion_lat": 0.0, "bike_id": "8469a0e85119095ea14bed5218748749", "rental_uris": {"ios": "https://dc.lft.to/lastmile_qr_scan", "android": "https://dc.lft.to/lastmile_qr_scan"}}, {"name": "040183a989aad34cb48a6cc3771d59ed", "type": "electric_scooter", "lat": 38.91219366666667, "is_reserved": 0, "lon": -77.04456283333333, "fusion_lon": 0.0, "is_disabled": 0, "fusion_lat": 0.0, "bike_id": "040183a989aad34cb48a6cc3771d59ed", "rental_uris": {"ios": "https://dc.lft.to/lastmile_qr_scan", "android": "https://dc.lft.to/lastmile_qr_scan"}}, {"name": "33446457f32b5c1cd8651942883a4e64", "type": "electric_scooter", "lat": 38.92728966666667, "is_reserved": 0, "lon": -77.02979083333334, "fusion_lon": 0.0, "is_disabled": 0, "fusion_lat": 0.0, "bike_id": "33446457f32b5c1cd8651942883a4e64", "rental_uris": {"ios": "https://dc.lft.to/lastmile_qr_scan", "android": "https://dc.lft.to/lastmile_qr_scan"}}, {"name": "43e5181d4ee9d8e5e5a8548b46f92c96", "type": "electric_scooter", "lat": 38.89459816666667, "is_reserved": 0, "lon": -77.03047933333333, "fusion_lon": 0.0, "is_disabled": 0, "fusion_lat": 0.0, "bike_id": "43e5181d4ee9d8e5e5a8548b46f92c96", "rental_uris": {"ios": "https://dc.lft.to/lastmile_qr_scan", "android": "https://dc.lft.to/lastmile_qr_scan"}}, {"name": "8d847c91e310702724399300c2478c47", "type": "electric_scooter", "lat": 38.8669945, "is_reserved": 0, "lon": -76.98711583333333, "fusion_lon": 0.0, "is_disabled": 0, "fusion_lat": 0.0, "bike_id": "8d847c91e310702724399300c2478c47", "rental_uris": {"ios": "https://dc.lft.to/lastmile_qr_scan", "android": "https://dc.lft.to/lastmile_qr_scan"}}, {"name": "c45b95a373209979348996b0686059bb", "type": "electric_scooter", "lat": 38.932336166666666, "is_reserved": 0, "lon": -77.029685, "fusion_lon": 0.0, "is_disabled": 0, "fusion_lat": 0.0, "bike_id": "c45b95a373209979348996b0686059bb", "rental_uris": {"ios": "https://dc.lft.to/lastmile_qr_scan", "android": "https://dc.lft.to/lastmile_qr_scan"}}, {"name": "9ecae1ea279e1aa5617becac16cd310d", "type": "electric_scooter", "lat": 38.9312395, "is_reserved": 0, "lon": -77.03602683333334, "fusion_lon": 0.0, "is_disabled": 0, "fusion_lat": 0.0, "bike_id": "9ecae1ea279e1aa5617becac16cd310d", "rental_uris": {"ios": "https://dc.lft.to/lastmile_qr_scan", "android": "https://dc.lft.to/lastmile_qr_scan"}}, {"name": "ec06db1f5bea936c970592bd0162b710", "type": "electric_scooter", "lat": 38.90636383333333, "is_reserved": 0, "lon": -77.02961416666666, "fusion_lon": 0.0, "is_disabled": 0, "fusion_lat": 0.0, "bike_id": "ec06db1f5bea936c970592bd0162b710", "rental_uris": {"ios": "https://dc.lft.to/lastmile_qr_scan", "android": "https://dc.lft.to/lastmile_qr_scan"}}, {"name": "f524aa3c45488496f7b62a44a0d4eccb", "type": "electric_scooter", "lat": 38.9309345, "is_reserved": 0, "lon": -77.03447716666666, "fusion_lon": 0.0, "is_disabled": 0, "fusion_lat": 0.0, "bike_id": "f524aa3c45488496f7b62a44a0d4eccb", "rental_uris": {"ios": "https://dc.lft.to/lastmile_qr_scan", "android": "https://dc.lft.to/lastmile_qr_scan"}}, {"name": "a8f081f88ac0e3e037022f61283d97db", "type": "electric_scooter", "lat": 38.89662333333333, "is_reserved": 0, "lon": -77.011986, "fusion_lon": 0.0, "is_disabled": 0, "fusion_lat": 0.0, "bike_id": "a8f081f88ac0e3e037022f61283d97db", "rental_uris": {"ios": "https://dc.lft.to/lastmile_qr_scan", "android": "https://dc.lft.to/lastmile_qr_scan"}}, {"name": "ce984065a715d87da30553af1213df00", "type": "electric_scooter", "lat": 38.89762566666667, "is_reserved": 0, "lon": -77.0267185, "fusion_lon": 0.0, "is_disabled": 0, "fusion_lat": 0.0, "bike_id": "ce984065a715d87da30553af1213df00", "rental_uris": {"ios": "https://dc.lft.to/lastmile_qr_scan", "android": "https://dc.lft.to/lastmile_qr_scan"}}, {"name": "2079b9348c3f19cf1af5bed1f94bde31", "type": "electric_scooter", "lat": 38.899405, "is_reserved": 0, "lon": -77.03168233333334, "fusion_lon": 0.0, "is_disabled": 0, "fusion_lat": 0.0, "bike_id": "2079b9348c3f19cf1af5bed1f94bde31", "rental_uris": {"ios": "https://dc.lft.to/lastmile_qr_scan", "android": "https://dc.lft.to/lastmile_qr_scan"}}, {"name": "fed15c39aecdb406ff12f825b8c9c00d", "type": "electric_scooter", "lat": 38.897988, "is_reserved": 0, "lon": -76.99166116666666, "fusion_lon": 0.0, "is_disabled": 0, "fusion_lat": 0.0, "bike_id": "fed15c39aecdb406ff12f825b8c9c00d", "rental_uris": {"ios": "https://dc.lft.to/lastmile_qr_scan", "android": "https://dc.lft.to/lastmile_qr_scan"}}, {"name": "2a9eec6128b8299df76bbeafc2f33164", "type": "electric_scooter", "lat": 38.87085066666667, "is_reserved": 0, "lon": -77.0120645, "fusion_lon": 0.0, "is_disabled": 0, "fusion_lat": 0.0, "bike_id": "2a9eec6128b8299df76bbeafc2f33164", "rental_uris": {"ios": "https://dc.lft.to/lastmile_qr_scan", "android": "https://dc.lft.to/lastmile_qr_scan"}}, {"name": "24aa68a414fca7fadcee4e980539f73b", "type": "electric_bike", "lat": 38.897765, "is_reserved": 0, "lon": -76.904305, "fusion_lon": 0.0, "is_disabled": 0, "fusion_lat": 0.0, "bike_id": "24aa68a414fca7fadcee4e980539f73b", "rental_uris": {"ios": "https://dc.lft.to/lastmile_qr_scan", "android": "https://dc.lft.to/lastmile_qr_scan"}}, {"name": "10ab9d71a75c8905779e1827f3741c12", "type": "electric_scooter", "lat": 38.93445766666667, "is_reserved": 0, "lon": -77.02843166666666, "fusion_lon": 0.0, "is_disabled": 0, "fusion_lat": 0.0, "bike_id": "10ab9d71a75c8905779e1827f3741c12", "rental_uris": {"ios": "https://dc.lft.to/lastmile_qr_scan", "android": "https://dc.lft.to/lastmile_qr_scan"}}, {"name": "0cb4cb6e4fb8d7f004919c8d36c3cfe3", "type": "electric_scooter", "lat": 38.9079285, "is_reserved": 0, "lon": -77.00966733333334, "fusion_lon": 0.0, "is_disabled": 0, "fusion_lat": 0.0, "bike_id": "0cb4cb6e4fb8d7f004919c8d36c3cfe3", "rental_uris": {"ios": "https://dc.lft.to/lastmile_qr_scan", "android": "https://dc.lft.to/lastmile_qr_scan"}}, {"name": "47f648a0f9c502f0e4a99793ab118433", "type": "electric_bike", "lat": 38.946245166666664, "is_reserved": 0, "lon": -76.946276, "fusion_lon": 0.0, "is_disabled": 0, "fusion_lat": 0.0, "bike_id": "47f648a0f9c502f0e4a99793ab118433", "rental_uris": {"ios": "https://dc.lft.to/lastmile_qr_scan", "android": "https://dc.lft.to/lastmile_qr_scan"}}, {"name": "7bf83e0d46ed5c2f83cbdeb14785875f", "type": "electric_scooter", "lat": 38.92485116666667, "is_reserved": 0, "lon": -77.03771666666667, "fusion_lon": 0.0, "is_disabled": 0, "fusion_lat": 0.0, "bike_id": "7bf83e0d46ed5c2f83cbdeb14785875f", "rental_uris": {"ios": "https://dc.lft.to/lastmile_qr_scan", "android": "https://dc.lft.to/lastmile_qr_scan"}}, {"name": "3b84f54bf401fc7ed840a3fd636e217e", "type": "electric_scooter", "lat": 38.92226333333333, "is_reserved": 0, "lon": -77.03876516666666, "fusion_lon": 0.0, "is_disabled": 0, "fusion_lat": 0.0, "bike_id": "3b84f54bf401fc7ed840a3fd636e217e", "rental_uris": {"ios": "https://dc.lft.to/lastmile_qr_scan", "android": "https://dc.lft.to/lastmile_qr_scan"}}, {"name": "cd0133da6b8b62c8caece251432b7db1", "type": "electric_scooter", "lat": 38.905599, "is_reserved": 0, "lon": -77.00587833333333, "fusion_lon": 0.0, "is_disabled": 0, "fusion_lat": 0.0, "bike_id": "cd0133da6b8b62c8caece251432b7db1", "rental_uris": {"ios": "https://dc.lft.to/lastmile_qr_scan", "android": "https://dc.lft.to/lastmile_qr_scan"}}, {"name": "40b3f9511452bc5b6697a49f9361e566", "type": "electric_scooter", "lat": 38.900744333333336, "is_reserved": 0, "lon": -77.05068183333333, "fusion_lon": 0.0, "is_disabled": 0, "fusion_lat": 0.0, "bike_id": "40b3f9511452bc5b6697a49f9361e566", "rental_uris": {"ios": "https://dc.lft.to/lastmile_qr_scan", "android": "https://dc.lft.to/lastmile_qr_scan"}}, {"name": "cdd5a5b94b02c6cc1361dbe394749282", "type": "electric_scooter", "lat": 38.9358755, "is_reserved": 0, "lon": -77.03784866666666, "fusion_lon": 0.0, "is_disabled": 0, "fusion_lat": 0.0, "bike_id": "cdd5a5b94b02c6cc1361dbe394749282", "rental_uris": {"ios": "https://dc.lft.to/lastmile_qr_scan", "android": "https://dc.lft.to/lastmile_qr_scan"}}, {"name": "7840d0ed34df53dfbe8b9295df10ff09", "type": "electric_scooter", "lat": 38.89223666666667, "is_reserved": 0, "lon": -77.04532283333333, "fusion_lon": 0.0, "is_disabled": 0, "fusion_lat": 0.0, "bike_id": "7840d0ed34df53dfbe8b9295df10ff09", "rental_uris": {"ios": "https://dc.lft.to/lastmile_qr_scan", "android": "https://dc.lft.to/lastmile_qr_scan"}}, {"name": "c1f1617bb4940e783c030423a88dbe2f", "type": "electric_scooter", "lat": 38.9290895, "is_reserved": 0, "lon": -77.0216265, "fusion_lon": 0.0, "is_disabled": 0, "fusion_lat": 0.0, "bike_id": "c1f1617bb4940e783c030423a88dbe2f", "rental_uris": {"ios": "https://dc.lft.to/lastmile_qr_scan", "android": "https://dc.lft.to/lastmile_qr_scan"}}, {"name": "2b1ca391c7a85c82cfdf92a6ab16bce1", "type": "electric_scooter", "lat": 38.905591333333334, "is_reserved": 0, "lon": -77.05693933333333, "fusion_lon": 0.0, "is_disabled": 0, "fusion_lat": 0.0, "bike_id": "2b1ca391c7a85c82cfdf92a6ab16bce1", "rental_uris": {"ios": "https://dc.lft.to/lastmile_qr_scan", "android": "https://dc.lft.to/lastmile_qr_scan"}}, {"name": "bd04625f816bdb0df85a138cc5095e77", "type": "electric_scooter", "lat": 38.9349515, "is_reserved": 0, "lon": -77.02841683333334, "fusion_lon": 0.0, "is_disabled": 0, "fusion_lat": 0.0, "bike_id": "bd04625f816bdb0df85a138cc5095e77", "rental_uris": {"ios": "https://dc.lft.to/lastmile_qr_scan", "android": "https://dc.lft.to/lastmile_qr_scan"}}, {"name": "053d1c22bd417d7638de0e000eb4ef9f", "type": "electric_scooter", "lat": 38.900308, "is_reserved": 0, "lon": -76.98702883333333, "fusion_lon": 0.0, "is_disabled": 0, "fusion_lat": 0.0, "bike_id": "053d1c22bd417d7638de0e000eb4ef9f", "rental_uris": {"ios": "https://dc.lft.to/lastmile_qr_scan", "android": "https://dc.lft.to/lastmile_qr_scan"}}, {"name": "7d4c6b0bb5830984efd629bf1966b95c", "type": "electric_scooter", "lat": 38.935305, "is_reserved": 0, "lon": -77.03413916666666, "fusion_lon": 0.0, "is_disabled": 0, "fusion_lat": 0.0, "bike_id": "7d4c6b0bb5830984efd629bf1966b95c", "rental_uris": {"ios": "https://dc.lft.to/lastmile_qr_scan", "android": "https://dc.lft.to/lastmile_qr_scan"}}, {"name": "50bfba0d2d5f627fd5c155dca1aea32e", "type": "electric_scooter", "lat": 38.92665483333333, "is_reserved": 0, "lon": -76.99535066666667, "fusion_lon": 0.0, "is_disabled": 0, "fusion_lat": 0.0, "bike_id": "50bfba0d2d5f627fd5c155dca1aea32e", "rental_uris": {"ios": "https://dc.lft.to/lastmile_qr_scan", "android": "https://dc.lft.to/lastmile_qr_scan"}}, {"name": "1fda28d9feef0f795560ef75d76ad5f3", "type": "electric_scooter", "lat": 38.84424, "is_reserved": 0, "lon": -76.99775516666666, "fusion_lon": 0.0, "is_disabled": 0, "fusion_lat": 0.0, "bike_id": "1fda28d9feef0f795560ef75d76ad5f3", "rental_uris": {"ios": "https://dc.lft.to/lastmile_qr_scan", "android": "https://dc.lft.to/lastmile_qr_scan"}}, {"name": "275037621bb92609d5bc3ce37dfa88c0", "type": "electric_bike", "lat": 38.85412766666666, "is_reserved": 0, "lon": -76.909638, "fusion_lon": 0.0, "is_disabled": 0, "fusion_lat": 0.0, "bike_id": "275037621bb92609d5bc3ce37dfa88c0", "rental_uris": {"ios": "https://dc.lft.to/lastmile_qr_scan", "android": "https://dc.lft.to/lastmile_qr_scan"}}, {"name": "936425af980779f2b7d77ae4697e6101", "type": "electric_bike", "lat": 38.8105165, "is_reserved": 0, "lon": -77.0851035, "fusion_lon": 0.0, "is_disabled": 0, "fusion_lat": 0.0, "bike_id": "936425af980779f2b7d77ae4697e6101", "rental_uris": {"ios": "https://dc.lft.to/lastmile_qr_scan", "android": "https://dc.lft.to/lastmile_qr_scan"}}, {"name": "841231f110d5e61e9d85c62caf07d435", "type": "electric_scooter", "lat": 38.89889566666667, "is_reserved": 0, "lon": -77.03303116666666, "fusion_lon": 0.0, "is_disabled": 0, "fusion_lat": 0.0, "bike_id": "841231f110d5e61e9d85c62caf07d435", "rental_uris": {"ios": "https://dc.lft.to/lastmile_qr_scan", "android": "https://dc.lft.to/lastmile_qr_scan"}}, {"name": "d24ab50bdc68db719462b4d4ab3dbf6b", "type": "electric_scooter", "lat": 38.883405, "is_reserved": 0, "lon": -76.9948715, "fusion_lon": 0.0, "is_disabled": 0, "fusion_lat": 0.0, "bike_id": "d24ab50bdc68db719462b4d4ab3dbf6b", "rental_uris": {"ios": "https://dc.lft.to/lastmile_qr_scan", "android": "https://dc.lft.to/lastmile_qr_scan"}}, {"name": "c622b54ab5a1bff66ef73664f62d6018", "type": "electric_scooter", "lat": 38.91679416666667, "is_reserved": 0, "lon": -77.02402066666667, "fusion_lon": 0.0, "is_disabled": 0, "fusion_lat": 0.0, "bike_id": "c622b54ab5a1bff66ef73664f62d6018", "rental_uris": {"ios": "https://dc.lft.to/lastmile_qr_scan", "android": "https://dc.lft.to/lastmile_qr_scan"}}, {"name": "0fc4d671298d2f4b8cc4bd86a2ed5b88", "type": "electric_scooter", "lat": 38.895319, "is_reserved": 0, "lon": -76.94934433333333, "fusion_lon": 0.0, "is_disabled": 0, "fusion_lat": 0.0, "bike_id": "0fc4d671298d2f4b8cc4bd86a2ed5b88", "rental_uris": {"ios": "https://dc.lft.to/lastmile_qr_scan", "android": "https://dc.lft.to/lastmile_qr_scan"}}, {"name": "439aad1b99781d95f119475478efe264", "type": "electric_scooter", "lat": 38.88508933333333, "is_reserved": 0, "lon": -77.00577166666666, "fusion_lon": 0.0, "is_disabled": 0, "fusion_lat": 0.0, "bike_id": "439aad1b99781d95f119475478efe264", "rental_uris": {"ios": "https://dc.lft.to/lastmile_qr_scan", "android": "https://dc.lft.to/lastmile_qr_scan"}}, {"name": "d9066ab002b9d5e3d41033a7fcc72912", "type": "electric_bike", "lat": 39.026481833333335, "is_reserved": 0, "lon": -77.1252925, "fusion_lon": 0.0, "is_disabled": 0, "fusion_lat": 0.0, "bike_id": "d9066ab002b9d5e3d41033a7fcc72912", "rental_uris": {"ios": "https://dc.lft.to/lastmile_qr_scan", "android": "https://dc.lft.to/lastmile_qr_scan"}}, {"name": "a15bd3b7a5170218fa17645f315ce836", "type": "electric_bike", "lat": 38.957516166666665, "is_reserved": 0, "lon": -77.02164283333333, "fusion_lon": 0.0, "is_disabled": 0, "fusion_lat": 0.0, "bike_id": "a15bd3b7a5170218fa17645f315ce836", "rental_uris": {"ios": "https://dc.lft.to/lastmile_qr_scan", "android": "https://dc.lft.to/lastmile_qr_scan"}}, {"name": "de9d87e7999f425298671f219dc2fa4a", "type": "electric_scooter", "lat": 38.90351116666667, "is_reserved": 0, "lon": -77.04472666666666, "fusion_lon": 0.0, "is_disabled": 0, "fusion_lat": 0.0, "bike_id": "de9d87e7999f425298671f219dc2fa4a", "rental_uris": {"ios": "https://dc.lft.to/lastmile_qr_scan", "android": "https://dc.lft.to/lastmile_qr_scan"}}, {"name": "84dae9fd81cf06a5e78a6b00bb1782c6", "type": "electric_scooter", "lat": 38.902761166666664, "is_reserved": 0, "lon": -77.05311133333333, "fusion_lon": 0.0, "is_disabled": 0, "fusion_lat": 0.0, "bike_id": "84dae9fd81cf06a5e78a6b00bb1782c6", "rental_uris": {"ios": "https://dc.lft.to/lastmile_qr_scan", "android": "https://dc.lft.to/lastmile_qr_scan"}}, {"name": "99bfc3c70bd13149298c90385724c1df", "type": "electric_scooter", "lat": 38.915707833333336, "is_reserved": 0, "lon": -77.04608716666667, "fusion_lon": 0.0, "is_disabled": 0, "fusion_lat": 0.0, "bike_id": "99bfc3c70bd13149298c90385724c1df", "rental_uris": {"ios": "https://dc.lft.to/lastmile_qr_scan", "android": "https://dc.lft.to/lastmile_qr_scan"}}, {"name": "94460ba0317d917e7333b4aaddfddcd6", "type": "electric_scooter", "lat": 38.926873666666665, "is_reserved": 0, "lon": -77.066476, "fusion_lon": 0.0, "is_disabled": 0, "fusion_lat": 0.0, "bike_id": "94460ba0317d917e7333b4aaddfddcd6", "rental_uris": {"ios": "https://dc.lft.to/lastmile_qr_scan", "android": "https://dc.lft.to/lastmile_qr_scan"}}, {"name": "b80960866e66d5aa27450b6a0bd69525", "type": "electric_scooter", "lat": 38.90243566666667, "is_reserved": 0, "lon": -77.00200883333333, "fusion_lon": 0.0, "is_disabled": 0, "fusion_lat": 0.0, "bike_id": "b80960866e66d5aa27450b6a0bd69525", "rental_uris": {"ios": "https://dc.lft.to/lastmile_qr_scan", "android": "https://dc.lft.to/lastmile_qr_scan"}}, {"name": "327f834dc7c292713d3fde2d8ede1105", "type": "electric_scooter", "lat": 38.917071, "is_reserved": 0, "lon": -77.0311905, "fusion_lon": 0.0, "is_disabled": 0, "fusion_lat": 0.0, "bike_id": "327f834dc7c292713d3fde2d8ede1105", "rental_uris": {"ios": "https://dc.lft.to/lastmile_qr_scan", "android": "https://dc.lft.to/lastmile_qr_scan"}}, {"name": "44f67c84eedf0872d022c5f6913b5137", "type": "electric_scooter", "lat": 38.88513616666667, "is_reserved": 0, "lon": -77.00573516666667, "fusion_lon": 0.0, "is_disabled": 0, "fusion_lat": 0.0, "bike_id": "44f67c84eedf0872d022c5f6913b5137", "rental_uris": {"ios": "https://dc.lft.to/lastmile_qr_scan", "android": "https://dc.lft.to/lastmile_qr_scan"}}, {"name": "3a1086406f0597275be5af86376f348f", "type": "electric_scooter", "lat": 38.92242316666667, "is_reserved": 0, "lon": -77.03088183333334, "fusion_lon": 0.0, "is_disabled": 0, "fusion_lat": 0.0, "bike_id": "3a1086406f0597275be5af86376f348f", "rental_uris": {"ios": "https://dc.lft.to/lastmile_qr_scan", "android": "https://dc.lft.to/lastmile_qr_scan"}}, {"name": "f9f25136293beb40410ec9129be6fede", "type": "electric_scooter", "lat": 38.8981535, "is_reserved": 0, "lon": -77.03134983333334, "fusion_lon": 0.0, "is_disabled": 0, "fusion_lat": 0.0, "bike_id": "f9f25136293beb40410ec9129be6fede", "rental_uris": {"ios": "https://dc.lft.to/lastmile_qr_scan", "android": "https://dc.lft.to/lastmile_qr_scan"}}, {"name": "56de86d130c0f7b62318b7fce753bcb6", "type": "electric_scooter", "lat": 38.914053, "is_reserved": 0, "lon": -77.00836733333334, "fusion_lon": 0.0, "is_disabled": 0, "fusion_lat": 0.0, "bike_id": "56de86d130c0f7b62318b7fce753bcb6", "rental_uris": {"ios": "https://dc.lft.to/lastmile_qr_scan", "android": "https://dc.lft.to/lastmile_qr_scan"}}, {"name": "093105dd15e0173424db85964240add7", "type": "electric_scooter", "lat": 38.89510716666667, "is_reserved": 0, "lon": -77.010952, "fusion_lon": 0.0, "is_disabled": 0, "fusion_lat": 0.0, "bike_id": "093105dd15e0173424db85964240add7", "rental_uris": {"ios": "https://dc.lft.to/lastmile_qr_scan", "android": "https://dc.lft.to/lastmile_qr_scan"}}, {"name": "cdc5b04a0955e09296e490179460e6ad", "type": "electric_scooter", "lat": 38.90413233333334, "is_reserved": 0, "lon": -77.0176595, "fusion_lon": 0.0, "is_disabled": 0, "fusion_lat": 0.0, "bike_id": "cdc5b04a0955e09296e490179460e6ad", "rental_uris": {"ios": "https://dc.lft.to/lastmile_qr_scan", "android": "https://dc.lft.to/lastmile_qr_scan"}}, {"name": "db4e9a83ebfa1388af8a80cc4d0088ee", "type": "electric_bike", "lat": 38.88089083333333, "is_reserved": 0, "lon": -76.98534316666667, "fusion_lon": 0.0, "is_disabled": 0, "fusion_lat": 0.0, "bike_id": "db4e9a83ebfa1388af8a80cc4d0088ee", "rental_uris": {"ios": "https://dc.lft.to/lastmile_qr_scan", "android": "https://dc.lft.to/lastmile_qr_scan"}}, {"name": "8954fcf191c69940f4367065960f8f77", "type": "electric_scooter", "lat": 38.917609, "is_reserved": 0, "lon": -77.0271225, "fusion_lon": 0.0, "is_disabled": 0, "fusion_lat": 0.0, "bike_id": "8954fcf191c69940f4367065960f8f77", "rental_uris": {"ios": "https://dc.lft.to/lastmile_qr_scan", "android": "https://dc.lft.to/lastmile_qr_scan"}}, {"name": "f0ccceac11d1220d0b9a46ccb6bd14eb", "type": "electric_scooter", "lat": 38.908663, "is_reserved": 0, "lon": -77.02501816666667, "fusion_lon": 0.0, "is_disabled": 0, "fusion_lat": 0.0, "bike_id": "f0ccceac11d1220d0b9a46ccb6bd14eb", "rental_uris": {"ios": "https://dc.lft.to/lastmile_qr_scan", "android": "https://dc.lft.to/lastmile_qr_scan"}}, {"name": "e9aa93becb0dd74d437bbc1352f25cbb", "type": "electric_scooter", "lat": 38.9000315, "is_reserved": 0, "lon": -76.9915185, "fusion_lon": 0.0, "is_disabled": 0, "fusion_lat": 0.0, "bike_id": "e9aa93becb0dd74d437bbc1352f25cbb", "rental_uris": {"ios": "https://dc.lft.to/lastmile_qr_scan", "android": "https://dc.lft.to/lastmile_qr_scan"}}, {"name": "05a7bd1b9acf132eb9e505b82c2ed2de", "type": "electric_scooter", "lat": 38.93381383333333, "is_reserved": 0, "lon": -77.029642, "fusion_lon": 0.0, "is_disabled": 0, "fusion_lat": 0.0, "bike_id": "05a7bd1b9acf132eb9e505b82c2ed2de", "rental_uris": {"ios": "https://dc.lft.to/lastmile_qr_scan", "android": "https://dc.lft.to/lastmile_qr_scan"}}, {"name": "e66b0e683ccde84584ff50223a68a28a", "type": "electric_scooter", "lat": 38.9397845, "is_reserved": 0, "lon": -77.02888183333333, "fusion_lon": 0.0, "is_disabled": 0, "fusion_lat": 0.0, "bike_id": "e66b0e683ccde84584ff50223a68a28a", "rental_uris": {"ios": "https://dc.lft.to/lastmile_qr_scan", "android": "https://dc.lft.to/lastmile_qr_scan"}}, {"name": "a8ba8f901d9cc305474fcad6b96e2686", "type": "electric_scooter", "lat": 38.923562, "is_reserved": 0, "lon": -77.0414275, "fusion_lon": 0.0, "is_disabled": 0, "fusion_lat": 0.0, "bike_id": "a8ba8f901d9cc305474fcad6b96e2686", "rental_uris": {"ios": "https://dc.lft.to/lastmile_qr_scan", "android": "https://dc.lft.to/lastmile_qr_scan"}}, {"name": "bf76188ed4a15bb99d8c8e33f109a9de", "type": "electric_bike", "lat": 38.999391833333334, "is_reserved": 0, "lon": -77.01767866666667, "fusion_lon": 0.0, "is_disabled": 0, "fusion_lat": 0.0, "bike_id": "bf76188ed4a15bb99d8c8e33f109a9de", "rental_uris": {"ios": "https://dc.lft.to/lastmile_qr_scan", "android": "https://dc.lft.to/lastmile_qr_scan"}}, {"name": "e3416b60e45b16f57f2d135797a4fd66", "type": "electric_scooter", "lat": 38.92053083333333, "is_reserved": 0, "lon": -77.03343383333333, "fusion_lon": 0.0, "is_disabled": 0, "fusion_lat": 0.0, "bike_id": "e3416b60e45b16f57f2d135797a4fd66", "rental_uris": {"ios": "https://dc.lft.to/lastmile_qr_scan", "android": "https://dc.lft.to/lastmile_qr_scan"}}, {"name": "7ba3796fffe2d936d8da4ade367c0c19", "type": "electric_bike", "lat": 38.966212666666664, "is_reserved": 0, "lon": -76.9766645, "fusion_lon": 0.0, "is_disabled": 0, "fusion_lat": 0.0, "bike_id": "7ba3796fffe2d936d8da4ade367c0c19", "rental_uris": {"ios": "https://dc.lft.to/lastmile_qr_scan", "android": "https://dc.lft.to/lastmile_qr_scan"}}, {"name": "e67b18e8afc12352519d20f0b56e9c89", "type": "electric_scooter", "lat": 38.920494166666664, "is_reserved": 0, "lon": -77.03481866666667, "fusion_lon": 0.0, "is_disabled": 0, "fusion_lat": 0.0, "bike_id": "e67b18e8afc12352519d20f0b56e9c89", "rental_uris": {"ios": "https://dc.lft.to/lastmile_qr_scan", "android": "https://dc.lft.to/lastmile_qr_scan"}}, {"name": "1f9cd44c12c56854b182a53e37618ea1", "type": "electric_scooter", "lat": 38.866997, "is_reserved": 0, "lon": -76.9871295, "fusion_lon": 0.0, "is_disabled": 0, "fusion_lat": 0.0, "bike_id": "1f9cd44c12c56854b182a53e37618ea1", "rental_uris": {"ios": "https://dc.lft.to/lastmile_qr_scan", "android": "https://dc.lft.to/lastmile_qr_scan"}}, {"name": "f8dc42b95aeb540ba300a72f154a053b", "type": "electric_scooter", "lat": 38.917191, "is_reserved": 0, "lon": -77.03656833333334, "fusion_lon": 0.0, "is_disabled": 0, "fusion_lat": 0.0, "bike_id": "f8dc42b95aeb540ba300a72f154a053b", "rental_uris": {"ios": "https://dc.lft.to/lastmile_qr_scan", "android": "https://dc.lft.to/lastmile_qr_scan"}}, {"name": "b8515992e1339ad5db12c8e008d2a0a7", "type": "electric_bike", "lat": 38.858524, "is_reserved": 0, "lon": -77.09759733333334, "fusion_lon": 0.0, "is_disabled": 0, "fusion_lat": 0.0, "bike_id": "b8515992e1339ad5db12c8e008d2a0a7", "rental_uris": {"ios": "https://dc.lft.to/lastmile_qr_scan", "android": "https://dc.lft.to/lastmile_qr_scan"}}, {"name": "53b56c7b6125f9113bb7af994e0ad7bb", "type": "electric_scooter", "lat": 38.89908833333333, "is_reserved": 0, "lon": -77.03932066666667, "fusion_lon": 0.0, "is_disabled": 0, "fusion_lat": 0.0, "bike_id": "53b56c7b6125f9113bb7af994e0ad7bb", "rental_uris": {"ios": "https://dc.lft.to/lastmile_qr_scan", "android": "https://dc.lft.to/lastmile_qr_scan"}}, {"name": "43698b9d838ac810e5d61b895b9858a6", "type": "electric_scooter", "lat": 38.890369166666666, "is_reserved": 0, "lon": -77.0297205, "fusion_lon": 0.0, "is_disabled": 0, "fusion_lat": 0.0, "bike_id": "43698b9d838ac810e5d61b895b9858a6", "rental_uris": {"ios": "https://dc.lft.to/lastmile_qr_scan", "android": "https://dc.lft.to/lastmile_qr_scan"}}, {"name": "22375e81e81be732608c7301a07e93e5", "type": "electric_scooter", "lat": 38.92096016666667, "is_reserved": 0, "lon": -77.02505383333333, "fusion_lon": 0.0, "is_disabled": 0, "fusion_lat": 0.0, "bike_id": "22375e81e81be732608c7301a07e93e5", "rental_uris": {"ios": "https://dc.lft.to/lastmile_qr_scan", "android": "https://dc.lft.to/lastmile_qr_scan"}}, {"name": "ef0ea2d45369300c024494f001d54ae5", "type": "electric_scooter", "lat": 38.89532883333333, "is_reserved": 0, "lon": -77.03346516666667, "fusion_lon": 0.0, "is_disabled": 0, "fusion_lat": 0.0, "bike_id": "ef0ea2d45369300c024494f001d54ae5", "rental_uris": {"ios": "https://dc.lft.to/lastmile_qr_scan", "android": "https://dc.lft.to/lastmile_qr_scan"}}, {"name": "d0300bfc76e284191327ff20b8106be3", "type": "electric_scooter", "lat": 38.92072566666667, "is_reserved": 0, "lon": -77.02206033333333, "fusion_lon": 0.0, "is_disabled": 0, "fusion_lat": 0.0, "bike_id": "d0300bfc76e284191327ff20b8106be3", "rental_uris": {"ios": "https://dc.lft.to/lastmile_qr_scan", "android": "https://dc.lft.to/lastmile_qr_scan"}}, {"name": "e8b5e7ecbd60a99a5017606da95a9376", "type": "electric_bike", "lat": 38.96493133333333, "is_reserved": 0, "lon": -77.06488116666667, "fusion_lon": 0.0, "is_disabled": 0, "fusion_lat": 0.0, "bike_id": "e8b5e7ecbd60a99a5017606da95a9376", "rental_uris": {"ios": "https://dc.lft.to/lastmile_qr_scan", "android": "https://dc.lft.to/lastmile_qr_scan"}}, {"name": "95f00138539a22dfd048e8e257a4e904", "type": "electric_scooter", "lat": 38.92334016666667, "is_reserved": 0, "lon": -77.0506925, "fusion_lon": 0.0, "is_disabled": 0, "fusion_lat": 0.0, "bike_id": "95f00138539a22dfd048e8e257a4e904", "rental_uris": {"ios": "https://dc.lft.to/lastmile_qr_scan", "android": "https://dc.lft.to/lastmile_qr_scan"}}, {"name": "917db661deb3792fd4ae96331934934b", "type": "electric_scooter", "lat": 38.895082333333335, "is_reserved": 0, "lon": -77.00340666666666, "fusion_lon": 0.0, "is_disabled": 0, "fusion_lat": 0.0, "bike_id": "917db661deb3792fd4ae96331934934b", "rental_uris": {"ios": "https://dc.lft.to/lastmile_qr_scan", "android": "https://dc.lft.to/lastmile_qr_scan"}}, {"name": "e95a8295c3f9f21304e6c3018b54f3a0", "type": "electric_scooter", "lat": 38.89474216666667, "is_reserved": 0, "lon": -77.00134566666667, "fusion_lon": 0.0, "is_disabled": 0, "fusion_lat": 0.0, "bike_id": "e95a8295c3f9f21304e6c3018b54f3a0", "rental_uris": {"ios": "https://dc.lft.to/lastmile_qr_scan", "android": "https://dc.lft.to/lastmile_qr_scan"}}, {"name": "53a1dc10496e08bcf43c38c7c0c027ab", "type": "electric_scooter", "lat": 38.906792333333335, "is_reserved": 0, "lon": -77.03824466666667, "fusion_lon": 0.0, "is_disabled": 0, "fusion_lat": 0.0, "bike_id": "53a1dc10496e08bcf43c38c7c0c027ab", "rental_uris": {"ios": "https://dc.lft.to/lastmile_qr_scan", "android": "https://dc.lft.to/lastmile_qr_scan"}}, {"name": "febc300aec5f5243b153477eabd92ea9", "type": "electric_scooter", "lat": 38.9371925, "is_reserved": 0, "lon": -77.03651633333334, "fusion_lon": 0.0, "is_disabled": 0, "fusion_lat": 0.0, "bike_id": "febc300aec5f5243b153477eabd92ea9", "rental_uris": {"ios": "https://dc.lft.to/lastmile_qr_scan", "android": "https://dc.lft.to/lastmile_qr_scan"}}, {"name": "497c021929bf7f59961701c5466d8152", "type": "electric_scooter", "lat": 38.922881833333335, "is_reserved": 0, "lon": -77.0207265, "fusion_lon": 0.0, "is_disabled": 0, "fusion_lat": 0.0, "bike_id": "497c021929bf7f59961701c5466d8152", "rental_uris": {"ios": "https://dc.lft.to/lastmile_qr_scan", "android": "https://dc.lft.to/lastmile_qr_scan"}}, {"name": "d95ba553c3f376f50c67e369174767fb", "type": "electric_scooter", "lat": 38.896766166666666, "is_reserved": 0, "lon": -77.05406866666667, "fusion_lon": 0.0, "is_disabled": 0, "fusion_lat": 0.0, "bike_id": "d95ba553c3f376f50c67e369174767fb", "rental_uris": {"ios": "https://dc.lft.to/lastmile_qr_scan", "android": "https://dc.lft.to/lastmile_qr_scan"}}, {"name": "176f41f2f7598dce1d6dae2b7cfa06ad", "type": "electric_scooter", "lat": 38.913363, "is_reserved": 0, "lon": -77.030381, "fusion_lon": 0.0, "is_disabled": 0, "fusion_lat": 0.0, "bike_id": "176f41f2f7598dce1d6dae2b7cfa06ad", "rental_uris": {"ios": "https://dc.lft.to/lastmile_qr_scan", "android": "https://dc.lft.to/lastmile_qr_scan"}}, {"name": "43a8023cef6d5b1975dc78396ae59cbb", "type": "electric_scooter", "lat": 38.930980166666664, "is_reserved": 0, "lon": -77.026596, "fusion_lon": 0.0, "is_disabled": 0, "fusion_lat": 0.0, "bike_id": "43a8023cef6d5b1975dc78396ae59cbb", "rental_uris": {"ios": "https://dc.lft.to/lastmile_qr_scan", "android": "https://dc.lft.to/lastmile_qr_scan"}}, {"name": "a2f480f798f2d567c4a7c5661511a99c", "type": "electric_scooter", "lat": 38.941531833333336, "is_reserved": 0, "lon": -77.03649216666666, "fusion_lon": 0.0, "is_disabled": 0, "fusion_lat": 0.0, "bike_id": "a2f480f798f2d567c4a7c5661511a99c", "rental_uris": {"ios": "https://dc.lft.to/lastmile_qr_scan", "android": "https://dc.lft.to/lastmile_qr_scan"}}, {"name": "0100768924ee3e619e461f5409a100b7", "type": "electric_scooter", "lat": 38.89826766666667, "is_reserved": 0, "lon": -76.92640983333334, "fusion_lon": 0.0, "is_disabled": 0, "fusion_lat": 0.0, "bike_id": "0100768924ee3e619e461f5409a100b7", "rental_uris": {"ios": "https://dc.lft.to/lastmile_qr_scan", "android": "https://dc.lft.to/lastmile_qr_scan"}}, {"name": "6603b231daa7eda0d35f6e62c7c822a0", "type": "electric_scooter", "lat": 38.899066166666664, "is_reserved": 0, "lon": -77.0069765, "fusion_lon": 0.0, "is_disabled": 0, "fusion_lat": 0.0, "bike_id": "6603b231daa7eda0d35f6e62c7c822a0", "rental_uris": {"ios": "https://dc.lft.to/lastmile_qr_scan", "android": "https://dc.lft.to/lastmile_qr_scan"}}, {"name": "57df48ff2dac3245b1a6126c47e4ddde", "type": "electric_bike", "lat": 38.905357, "is_reserved": 0, "lon": -76.99806933333333, "fusion_lon": 0.0, "is_disabled": 0, "fusion_lat": 0.0, "bike_id": "57df48ff2dac3245b1a6126c47e4ddde", "rental_uris": {"ios": "https://dc.lft.to/lastmile_qr_scan", "android": "https://dc.lft.to/lastmile_qr_scan"}}, {"name": "1a7edd2c9e932c597fc6350c80945d44", "type": "electric_bike", "lat": 38.99090316666667, "is_reserved": 0, "lon": -76.87496333333333, "fusion_lon": 0.0, "is_disabled": 0, "fusion_lat": 0.0, "bike_id": "1a7edd2c9e932c597fc6350c80945d44", "rental_uris": {"ios": "https://dc.lft.to/lastmile_qr_scan", "android": "https://dc.lft.to/lastmile_qr_scan"}}, {"name": "463d29da099e1fcededec0b02086b0b9", "type": "electric_scooter", "lat": 38.8669765, "is_reserved": 0, "lon": -76.98712183333333, "fusion_lon": 0.0, "is_disabled": 0, "fusion_lat": 0.0, "bike_id": "463d29da099e1fcededec0b02086b0b9", "rental_uris": {"ios": "https://dc.lft.to/lastmile_qr_scan", "android": "https://dc.lft.to/lastmile_qr_scan"}}, {"name": "3624a0666d27a5a4051149261755a9c3", "type": "electric_scooter", "lat": 38.92036316666667, "is_reserved": 0, "lon": -77.02359166666666, "fusion_lon": 0.0, "is_disabled": 0, "fusion_lat": 0.0, "bike_id": "3624a0666d27a5a4051149261755a9c3", "rental_uris": {"ios": "https://dc.lft.to/lastmile_qr_scan", "android": "https://dc.lft.to/lastmile_qr_scan"}}, {"name": "b38a86eeb7e033e678055a143452508e", "type": "electric_scooter", "lat": 38.96822083333333, "is_reserved": 0, "lon": -77.017858, "fusion_lon": 0.0, "is_disabled": 0, "fusion_lat": 0.0, "bike_id": "b38a86eeb7e033e678055a143452508e", "rental_uris": {"ios": "https://dc.lft.to/lastmile_qr_scan", "android": "https://dc.lft.to/lastmile_qr_scan"}}, {"name": "b55cc93b9c280e66a66211873a379cdc", "type": "electric_scooter", "lat": 38.908655333333336, "is_reserved": 0, "lon": -76.99954266666667, "fusion_lon": 0.0, "is_disabled": 0, "fusion_lat": 0.0, "bike_id": "b55cc93b9c280e66a66211873a379cdc", "rental_uris": {"ios": "https://dc.lft.to/lastmile_qr_scan", "android": "https://dc.lft.to/lastmile_qr_scan"}}, {"name": "da6e8287ced8c9dd074c1ae39c6d88a7", "type": "electric_scooter", "lat": 38.896059666666666, "is_reserved": 0, "lon": -77.04505516666667, "fusion_lon": 0.0, "is_disabled": 0, "fusion_lat": 0.0, "bike_id": "da6e8287ced8c9dd074c1ae39c6d88a7", "rental_uris": {"ios": "https://dc.lft.to/lastmile_qr_scan", "android": "https://dc.lft.to/lastmile_qr_scan"}}, {"name": "53fec4bfb4fbcceac30ace6d7233f1ee", "type": "electric_scooter", "lat": 38.925809666666666, "is_reserved": 0, "lon": -77.05230316666666, "fusion_lon": 0.0, "is_disabled": 0, "fusion_lat": 0.0, "bike_id": "53fec4bfb4fbcceac30ace6d7233f1ee", "rental_uris": {"ios": "https://dc.lft.to/lastmile_qr_scan", "android": "https://dc.lft.to/lastmile_qr_scan"}}, {"name": "4220844f6084352dc03f3a84d7cc39e6", "type": "electric_scooter", "lat": 38.8984485, "is_reserved": 0, "lon": -77.04283783333334, "fusion_lon": 0.0, "is_disabled": 0, "fusion_lat": 0.0, "bike_id": "4220844f6084352dc03f3a84d7cc39e6", "rental_uris": {"ios": "https://dc.lft.to/lastmile_qr_scan", "android": "https://dc.lft.to/lastmile_qr_scan"}}, {"name": "3a1f04721c36b76aa0815a798c377d67", "type": "electric_scooter", "lat": 38.9346025, "is_reserved": 0, "lon": -77.02929883333333, "fusion_lon": 0.0, "is_disabled": 0, "fusion_lat": 0.0, "bike_id": "3a1f04721c36b76aa0815a798c377d67", "rental_uris": {"ios": "https://dc.lft.to/lastmile_qr_scan", "android": "https://dc.lft.to/lastmile_qr_scan"}}, {"name": "d648f78f3a2537737cec2ee51cf796e4", "type": "electric_scooter", "lat": 38.91784666666667, "is_reserved": 0, "lon": -77.04103033333334, "fusion_lon": 0.0, "is_disabled": 0, "fusion_lat": 0.0, "bike_id": "d648f78f3a2537737cec2ee51cf796e4", "rental_uris": {"ios": "https://dc.lft.to/lastmile_qr_scan", "android": "https://dc.lft.to/lastmile_qr_scan"}}, {"name": "948d1a2862e4b7590fce916581578bc4", "type": "electric_bike", "lat": 39.0293325, "is_reserved": 0, "lon": -77.04927716666667, "fusion_lon": 0.0, "is_disabled": 0, "fusion_lat": 0.0, "bike_id": "948d1a2862e4b7590fce916581578bc4", "rental_uris": {"ios": "https://dc.lft.to/lastmile_qr_scan", "android": "https://dc.lft.to/lastmile_qr_scan"}}, {"name": "414a920ee2654433c46b88d41695b6f5", "type": "electric_scooter", "lat": 38.887215833333336, "is_reserved": 0, "lon": -77.028317, "fusion_lon": 0.0, "is_disabled": 0, "fusion_lat": 0.0, "bike_id": "414a920ee2654433c46b88d41695b6f5", "rental_uris": {"ios": "https://dc.lft.to/lastmile_qr_scan", "android": "https://dc.lft.to/lastmile_qr_scan"}}, {"name": "0ba746119781fd9ac806017d07029048", "type": "electric_scooter", "lat": 38.933103, "is_reserved": 0, "lon": -77.03770583333333, "fusion_lon": 0.0, "is_disabled": 0, "fusion_lat": 0.0, "bike_id": "0ba746119781fd9ac806017d07029048", "rental_uris": {"ios": "https://dc.lft.to/lastmile_qr_scan", "android": "https://dc.lft.to/lastmile_qr_scan"}}, {"name": "a3b0387e95865bbb9f464762cf2ad62e", "type": "electric_scooter", "lat": 38.906136833333335, "is_reserved": 0, "lon": -77.05138633333334, "fusion_lon": 0.0, "is_disabled": 0, "fusion_lat": 0.0, "bike_id": "a3b0387e95865bbb9f464762cf2ad62e", "rental_uris": {"ios": "https://dc.lft.to/lastmile_qr_scan", "android": "https://dc.lft.to/lastmile_qr_scan"}}, {"name": "09fe03b072570f3e3ce75d48c4794d74", "type": "electric_scooter", "lat": 38.933903, "is_reserved": 0, "lon": -77.03580733333334, "fusion_lon": 0.0, "is_disabled": 0, "fusion_lat": 0.0, "bike_id": "09fe03b072570f3e3ce75d48c4794d74", "rental_uris": {"ios": "https://dc.lft.to/lastmile_qr_scan", "android": "https://dc.lft.to/lastmile_qr_scan"}}, {"name": "3f614de8b277df64dc0f64c7b8a001fb", "type": "electric_scooter", "lat": 38.91865516666667, "is_reserved": 0, "lon": -77.04030283333333, "fusion_lon": 0.0, "is_disabled": 0, "fusion_lat": 0.0, "bike_id": "3f614de8b277df64dc0f64c7b8a001fb", "rental_uris": {"ios": "https://dc.lft.to/lastmile_qr_scan", "android": "https://dc.lft.to/lastmile_qr_scan"}}, {"name": "303c7f937ba532d505d4a49438733c18", "type": "electric_scooter", "lat": 38.905109333333336, "is_reserved": 0, "lon": -77.06753083333334, "fusion_lon": 0.0, "is_disabled": 0, "fusion_lat": 0.0, "bike_id": "303c7f937ba532d505d4a49438733c18", "rental_uris": {"ios": "https://dc.lft.to/lastmile_qr_scan", "android": "https://dc.lft.to/lastmile_qr_scan"}}, {"name": "e5571fe39cfaac33a7dc766865732362", "type": "electric_bike", "lat": 38.89219116666666, "is_reserved": 0, "lon": -77.107784, "fusion_lon": 0.0, "is_disabled": 0, "fusion_lat": 0.0, "bike_id": "e5571fe39cfaac33a7dc766865732362", "rental_uris": {"ios": "https://dc.lft.to/lastmile_qr_scan", "android": "https://dc.lft.to/lastmile_qr_scan"}}, {"name": "415ecfa24f7af8b53ded3f1f8b8d6758", "type": "electric_scooter", "lat": 38.9311415, "is_reserved": 0, "lon": -77.03840433333333, "fusion_lon": 0.0, "is_disabled": 0, "fusion_lat": 0.0, "bike_id": "415ecfa24f7af8b53ded3f1f8b8d6758", "rental_uris": {"ios": "https://dc.lft.to/lastmile_qr_scan", "android": "https://dc.lft.to/lastmile_qr_scan"}}, {"name": "1c362ded7851dcb66324363f68ba37d6", "type": "electric_scooter", "lat": 38.937579, "is_reserved": 0, "lon": -77.03503066666667, "fusion_lon": 0.0, "is_disabled": 0, "fusion_lat": 0.0, "bike_id": "1c362ded7851dcb66324363f68ba37d6", "rental_uris": {"ios": "https://dc.lft.to/lastmile_qr_scan", "android": "https://dc.lft.to/lastmile_qr_scan"}}, {"name": "1fed435e037c2f0a9f670752fe18d13b", "type": "electric_scooter", "lat": 38.943033166666666, "is_reserved": 0, "lon": -77.02173016666667, "fusion_lon": 0.0, "is_disabled": 0, "fusion_lat": 0.0, "bike_id": "1fed435e037c2f0a9f670752fe18d13b", "rental_uris": {"ios": "https://dc.lft.to/lastmile_qr_scan", "android": "https://dc.lft.to/lastmile_qr_scan"}}, {"name": "752022698db36dd35772ffb6b8e20b10", "type": "electric_bike", "lat": 38.8826625, "is_reserved": 0, "lon": -76.99939633333334, "fusion_lon": 0.0, "is_disabled": 0, "fusion_lat": 0.0, "bike_id": "752022698db36dd35772ffb6b8e20b10", "rental_uris": {"ios": "https://dc.lft.to/lastmile_qr_scan", "android": "https://dc.lft.to/lastmile_qr_scan"}}, {"name": "f55ea6b0bdcd4f1fba7952d9401f07c1", "type": "electric_scooter", "lat": 38.931672, "is_reserved": 0, "lon": -77.02842633333333, "fusion_lon": 0.0, "is_disabled": 0, "fusion_lat": 0.0, "bike_id": "f55ea6b0bdcd4f1fba7952d9401f07c1", "rental_uris": {"ios": "https://dc.lft.to/lastmile_qr_scan", "android": "https://dc.lft.to/lastmile_qr_scan"}}, {"name": "6b4d334cbe6e3e38dfdd38a95ed6b0cd", "type": "electric_scooter", "lat": 38.910140166666665, "is_reserved": 0, "lon": -77.0218415, "fusion_lon": 0.0, "is_disabled": 0, "fusion_lat": 0.0, "bike_id": "6b4d334cbe6e3e38dfdd38a95ed6b0cd", "rental_uris": {"ios": "https://dc.lft.to/lastmile_qr_scan", "android": "https://dc.lft.to/lastmile_qr_scan"}}, {"name": "6690a21e453c919fbb790defba43526d", "type": "electric_scooter", "lat": 38.94012983333333, "is_reserved": 0, "lon": -77.071718, "fusion_lon": 0.0, "is_disabled": 0, "fusion_lat": 0.0, "bike_id": "6690a21e453c919fbb790defba43526d", "rental_uris": {"ios": "https://dc.lft.to/lastmile_qr_scan", "android": "https://dc.lft.to/lastmile_qr_scan"}}, {"name": "d7b1f4b68ece9b4114a78d4414b1723b", "type": "electric_scooter", "lat": 38.916929, "is_reserved": 0, "lon": -77.0122705, "fusion_lon": 0.0, "is_disabled": 0, "fusion_lat": 0.0, "bike_id": "d7b1f4b68ece9b4114a78d4414b1723b", "rental_uris": {"ios": "https://dc.lft.to/lastmile_qr_scan", "android": "https://dc.lft.to/lastmile_qr_scan"}}, {"name": "434a6311671a836cddd6ba618c6c04c5", "type": "electric_scooter", "lat": 38.90439, "is_reserved": 0, "lon": -77.05155116666667, "fusion_lon": 0.0, "is_disabled": 0, "fusion_lat": 0.0, "bike_id": "434a6311671a836cddd6ba618c6c04c5", "rental_uris": {"ios": "https://dc.lft.to/lastmile_qr_scan", "android": "https://dc.lft.to/lastmile_qr_scan"}}, {"name": "ce4d1168e663ef674a6ac560b89cb98b", "type": "electric_scooter", "lat": 38.908933833333336, "is_reserved": 0, "lon": -77.0315025, "fusion_lon": 0.0, "is_disabled": 0, "fusion_lat": 0.0, "bike_id": "ce4d1168e663ef674a6ac560b89cb98b", "rental_uris": {"ios": "https://dc.lft.to/lastmile_qr_scan", "android": "https://dc.lft.to/lastmile_qr_scan"}}, {"name": "66f0d2205532bdd3dd224ae8aaa8b974", "type": "electric_scooter", "lat": 38.919198333333334, "is_reserved": 0, "lon": -77.03423583333333, "fusion_lon": 0.0, "is_disabled": 0, "fusion_lat": 0.0, "bike_id": "66f0d2205532bdd3dd224ae8aaa8b974", "rental_uris": {"ios": "https://dc.lft.to/lastmile_qr_scan", "android": "https://dc.lft.to/lastmile_qr_scan"}}, {"name": "4295f93b1ccfcc0e5996f3843cc5faf9", "type": "electric_scooter", "lat": 38.920205333333335, "is_reserved": 0, "lon": -77.038701, "fusion_lon": 0.0, "is_disabled": 0, "fusion_lat": 0.0, "bike_id": "4295f93b1ccfcc0e5996f3843cc5faf9", "rental_uris": {"ios": "https://dc.lft.to/lastmile_qr_scan", "android": "https://dc.lft.to/lastmile_qr_scan"}}, {"name": "41aef1766f5d7a615868eebfab11a427", "type": "electric_scooter", "lat": 38.90661766666667, "is_reserved": 0, "lon": -77.038613, "fusion_lon": 0.0, "is_disabled": 0, "fusion_lat": 0.0, "bike_id": "41aef1766f5d7a615868eebfab11a427", "rental_uris": {"ios": "https://dc.lft.to/lastmile_qr_scan", "android": "https://dc.lft.to/lastmile_qr_scan"}}, {"name": "2734e942a9cde99781ad55f5adb3dd76", "type": "electric_scooter", "lat": 38.922459833333335, "is_reserved": 0, "lon": -77.030878, "fusion_lon": 0.0, "is_disabled": 0, "fusion_lat": 0.0, "bike_id": "2734e942a9cde99781ad55f5adb3dd76", "rental_uris": {"ios": "https://dc.lft.to/lastmile_qr_scan", "android": "https://dc.lft.to/lastmile_qr_scan"}}, {"name": "5b8dd419331aa303b37da5a72e902a2a", "type": "electric_scooter", "lat": 38.885165, "is_reserved": 0, "lon": -77.03346866666666, "fusion_lon": 0.0, "is_disabled": 0, "fusion_lat": 0.0, "bike_id": "5b8dd419331aa303b37da5a72e902a2a", "rental_uris": {"ios": "https://dc.lft.to/lastmile_qr_scan", "android": "https://dc.lft.to/lastmile_qr_scan"}}, {"name": "286b0cc308ce263bacb12c49252929de", "type": "electric_scooter", "lat": 38.91826616666667, "is_reserved": 0, "lon": -77.02787166666667, "fusion_lon": 0.0, "is_disabled": 0, "fusion_lat": 0.0, "bike_id": "286b0cc308ce263bacb12c49252929de", "rental_uris": {"ios": "https://dc.lft.to/lastmile_qr_scan", "android": "https://dc.lft.to/lastmile_qr_scan"}}, {"name": "4810bfd77e8edef9a21abc5f29cfe0dc", "type": "electric_scooter", "lat": 38.90413566666667, "is_reserved": 0, "lon": -76.973307, "fusion_lon": 0.0, "is_disabled": 0, "fusion_lat": 0.0, "bike_id": "4810bfd77e8edef9a21abc5f29cfe0dc", "rental_uris": {"ios": "https://dc.lft.to/lastmile_qr_scan", "android": "https://dc.lft.to/lastmile_qr_scan"}}, {"name": "c565c4ed61aec9c157d6fa37c82e5755", "type": "electric_scooter", "lat": 38.88520716666667, "is_reserved": 0, "lon": -76.97708833333333, "fusion_lon": 0.0, "is_disabled": 0, "fusion_lat": 0.0, "bike_id": "c565c4ed61aec9c157d6fa37c82e5755", "rental_uris": {"ios": "https://dc.lft.to/lastmile_qr_scan", "android": "https://dc.lft.to/lastmile_qr_scan"}}, {"name": "169ff64df71347d7b50c2103d02fd2ed", "type": "electric_scooter", "lat": 38.90434366666667, "is_reserved": 0, "lon": -76.984877, "fusion_lon": 0.0, "is_disabled": 0, "fusion_lat": 0.0, "bike_id": "169ff64df71347d7b50c2103d02fd2ed", "rental_uris": {"ios": "https://dc.lft.to/lastmile_qr_scan", "android": "https://dc.lft.to/lastmile_qr_scan"}}, {"name": "9d521720d913b67f734cb84cc332cd62", "type": "electric_scooter", "lat": 38.89225016666666, "is_reserved": 0, "lon": -77.032123, "fusion_lon": 0.0, "is_disabled": 0, "fusion_lat": 0.0, "bike_id": "9d521720d913b67f734cb84cc332cd62", "rental_uris": {"ios": "https://dc.lft.to/lastmile_qr_scan", "android": "https://dc.lft.to/lastmile_qr_scan"}}, {"name": "23ffac1f4d63bbca4b52bb6e2ee79da1", "type": "electric_scooter", "lat": 38.90279066666667, "is_reserved": 0, "lon": -77.0531345, "fusion_lon": 0.0, "is_disabled": 0, "fusion_lat": 0.0, "bike_id": "23ffac1f4d63bbca4b52bb6e2ee79da1", "rental_uris": {"ios": "https://dc.lft.to/lastmile_qr_scan", "android": "https://dc.lft.to/lastmile_qr_scan"}}, {"name": "36b86831a5a39647870353695f791f47", "type": "electric_bike", "lat": 38.965065833333334, "is_reserved": 0, "lon": -77.103359, "fusion_lon": 0.0, "is_disabled": 0, "fusion_lat": 0.0, "bike_id": "36b86831a5a39647870353695f791f47", "rental_uris": {"ios": "https://dc.lft.to/lastmile_qr_scan", "android": "https://dc.lft.to/lastmile_qr_scan"}}, {"name": "70ba8fe51ee76228772a23232e188a11", "type": "electric_scooter", "lat": 38.927113, "is_reserved": 0, "lon": -77.02083983333333, "fusion_lon": 0.0, "is_disabled": 0, "fusion_lat": 0.0, "bike_id": "70ba8fe51ee76228772a23232e188a11", "rental_uris": {"ios": "https://dc.lft.to/lastmile_qr_scan", "android": "https://dc.lft.to/lastmile_qr_scan"}}, {"name": "5948ca3f3e8d9c062460346ad4202e1b", "type": "electric_scooter", "lat": 38.94276766666667, "is_reserved": 0, "lon": -77.02506666666666, "fusion_lon": 0.0, "is_disabled": 0, "fusion_lat": 0.0, "bike_id": "5948ca3f3e8d9c062460346ad4202e1b", "rental_uris": {"ios": "https://dc.lft.to/lastmile_qr_scan", "android": "https://dc.lft.to/lastmile_qr_scan"}}, {"name": "5f351dac0a61a92f1cacb902d6b1e152", "type": "electric_scooter", "lat": 38.86656716666667, "is_reserved": 0, "lon": -76.98891866666666, "fusion_lon": 0.0, "is_disabled": 0, "fusion_lat": 0.0, "bike_id": "5f351dac0a61a92f1cacb902d6b1e152", "rental_uris": {"ios": "https://dc.lft.to/lastmile_qr_scan", "android": "https://dc.lft.to/lastmile_qr_scan"}}, {"name": "a07ae40acece82263ca4b1809c18853c", "type": "electric_scooter", "lat": 38.89648566666666, "is_reserved": 0, "lon": -77.03229866666666, "fusion_lon": 0.0, "is_disabled": 0, "fusion_lat": 0.0, "bike_id": "a07ae40acece82263ca4b1809c18853c", "rental_uris": {"ios": "https://dc.lft.to/lastmile_qr_scan", "android": "https://dc.lft.to/lastmile_qr_scan"}}, {"name": "e5afad0314d2c7b47d37716c47e610e5", "type": "electric_scooter", "lat": 38.8985115, "is_reserved": 0, "lon": -76.99025783333333, "fusion_lon": 0.0, "is_disabled": 0, "fusion_lat": 0.0, "bike_id": "e5afad0314d2c7b47d37716c47e610e5", "rental_uris": {"ios": "https://dc.lft.to/lastmile_qr_scan", "android": "https://dc.lft.to/lastmile_qr_scan"}}, {"name": "384b484faea55be040d5a019308e4976", "type": "electric_scooter", "lat": 38.916269166666666, "is_reserved": 0, "lon": -77.0108075, "fusion_lon": 0.0, "is_disabled": 0, "fusion_lat": 0.0, "bike_id": "384b484faea55be040d5a019308e4976", "rental_uris": {"ios": "https://dc.lft.to/lastmile_qr_scan", "android": "https://dc.lft.to/lastmile_qr_scan"}}, {"name": "6814c942aab47c63ecb08d9334861d72", "type": "electric_scooter", "lat": 38.916345166666666, "is_reserved": 0, "lon": -77.036321, "fusion_lon": 0.0, "is_disabled": 0, "fusion_lat": 0.0, "bike_id": "6814c942aab47c63ecb08d9334861d72", "rental_uris": {"ios": "https://dc.lft.to/lastmile_qr_scan", "android": "https://dc.lft.to/lastmile_qr_scan"}}, {"name": "00345a4c8f902d6c3a9d4afaa72927af", "type": "electric_scooter", "lat": 38.8778255, "is_reserved": 0, "lon": -76.9941145, "fusion_lon": 0.0, "is_disabled": 0, "fusion_lat": 0.0, "bike_id": "00345a4c8f902d6c3a9d4afaa72927af", "rental_uris": {"ios": "https://dc.lft.to/lastmile_qr_scan", "android": "https://dc.lft.to/lastmile_qr_scan"}}, {"name": "b82b058c778d69609012ca08571f84a9", "type": "electric_scooter", "lat": 38.906656, "is_reserved": 0, "lon": -77.0269395, "fusion_lon": 0.0, "is_disabled": 0, "fusion_lat": 0.0, "bike_id": "b82b058c778d69609012ca08571f84a9", "rental_uris": {"ios": "https://dc.lft.to/lastmile_qr_scan", "android": "https://dc.lft.to/lastmile_qr_scan"}}, {"name": "1c9aa10aa2495ac9a5ecab7c7fa3804d", "type": "electric_scooter", "lat": 38.9235955, "is_reserved": 0, "lon": -77.050296, "fusion_lon": 0.0, "is_disabled": 0, "fusion_lat": 0.0, "bike_id": "1c9aa10aa2495ac9a5ecab7c7fa3804d", "rental_uris": {"ios": "https://dc.lft.to/lastmile_qr_scan", "android": "https://dc.lft.to/lastmile_qr_scan"}}, {"name": "60c83f32147a4afc0afa12bd6d74764d", "type": "electric_scooter", "lat": 38.92563466666667, "is_reserved": 0, "lon": -77.02279066666667, "fusion_lon": 0.0, "is_disabled": 0, "fusion_lat": 0.0, "bike_id": "60c83f32147a4afc0afa12bd6d74764d", "rental_uris": {"ios": "https://dc.lft.to/lastmile_qr_scan", "android": "https://dc.lft.to/lastmile_qr_scan"}},