{"data": {"bikes": [{"lat": 38.9179685, "is_disabled": 0, "type": "electric_bike", "lon": -77.22338116666667, "bike_id": "3e5f8eeb819562beeb9bb20869e5e7a0", "fusion_lat": 0.0, "name": "3e5f8eeb819562beeb9bb20869e5e7a0", "is_reserved": 0, "rental_uris": {"android": "https://dc.lft.to/lastmile_qr_scan", "ios": "https://dc.lft.to/lastmile_qr_scan"}, "fusion_lon": 0.0}, {"lat": 38.92638066666667, "is_disabled": 0, "type": "electric_scooter", "lon": -77.04301983333333, "bike_id": "a24b2e70ad007d55be17930c53e1161c", "fusion_lat": 0.0, "name": "a24b2e70ad007d55be17930c53e1161c", "is_reserved": 0, "rental_uris": {"android": "https://dc.lft.to/lastmile_qr_scan", "ios": "https://dc.lft.to/lastmile_qr_scan"}, "fusion_lon": 0.0}, {"lat": 38.9085205, "is_disabled": 0, "type": "electric_scooter", "lon": -77.006251, "bike_id": "9db2ca51b887eff8781019eaace3318d", "fusion_lat": 0.0, "name": "9db2ca51b887eff8781019eaace3318d", "is_reserved": 0, "rental_uris": {"android": "https://dc.lft.to/lastmile_qr_scan", "ios": "https://dc.lft.to/lastmile_qr_scan"}, "fusion_lon": 0.0}, {"lat": 38.93759983333333, "is_disabled": 0, "type": "electric_scooter", "lon": -77.02126766666666, "bike_id": "2037fdaba3860e7f19488fbff17f8851", "fusion_lat": 0.0, "name": "2037fdaba3860e7f19488fbff17f8851", "is_reserved": 0, "rental_uris": {"android": "https://dc.lft.to/lastmile_qr_scan", "ios": "https://dc.lft.to/lastmile_qr_scan"}, "fusion_lon": 0.0}, {"lat": 38.896774666666666, "is_disabled": 0, "type": "electric_scooter", "lon": -77.05126633333333, "bike_id": "0ab50b35d2b30d714efffb11e226da60", "fusion_lat": 0.0, "name": "0ab50b35d2b30d714efffb11e226da60", "is_reserved": 0, "rental_uris": {"android": "https://dc.lft.to/lastmile_qr_scan", "ios": "https://dc.lft.to/lastmile_qr_scan"}, "fusion_lon": 0.0}, {"lat": 38.92059066666667, "is_disabled": 0, "type": "electric_scooter", "lon": -77.02944416666666, "bike_id": "1feed0469dbad63140744756acca7fd8", "fusion_lat": 0.0, "name": "1feed0469dbad63140744756acca7fd8", "is_reserved": 0, "rental_uris": {"android": "https://dc.lft.to/lastmile_qr_scan", "ios": "https://dc.lft.to/lastmile_qr_scan"}, "fusion_lon": 0.0}, {"lat": 38.941161666666666, "is_disabled": 0, "type": "electric_scooter", "lon": -77.00071033333333, "bike_id": "f80aed7bd94a7bcf533a814b20ee0238", "fusion_lat": 0.0, "name": "f80aed7bd94a7bcf533a814b20ee0238", "is_reserved": 0, "rental_uris": {"android": "https://dc.lft.to/lastmile_qr_scan", "ios": "https://dc.lft.to/lastmile_qr_scan"}, "fusion_lon": 0.0}, {"lat": 38.9118835, "is_disabled": 0, "type": "electric_scooter", "lon": -77.0320995, "bike_id": "d9ce80cf1d8cde8bd5d522a5d648d0ff", "fusion_lat": 0.0, "name": "d9ce80cf1d8cde8bd5d522a5d648d0ff", "is_reserved": 0, "rental_uris": {"android": "https://dc.lft.to/lastmile_qr_scan", "ios": "https://dc.lft.to/lastmile_qr_scan"}, "fusion_lon": 0.0}, {"lat": 38.95891733333333, "is_disabled": 0, "type": "electric_bike", "lon": -76.9249695, "bike_id": "4ad0fc4978c2816e4a85b6d3cba51c04", "fusion_lat": 0.0, "name": "4ad0fc4978c2816e4a85b6d3cba51c04", "is_reserved": 0, "rental_uris": {"android": "https://dc.lft.to/lastmile_qr_scan", "ios": "https://dc.lft.to/lastmile_qr_scan"}, "fusion_lon": 0.0}, {"lat": 38.91676, "is_disabled": 0, "type": "electric_scooter", "lon": -77.00196, "bike_id": "14b9356cb119bfeaebbcd0f829090705", "fusion_lat": 0.0, "name": "14b9356cb119bfeaebbcd0f829090705", "is_reserved": 0, "rental_uris": {"android": "https://dc.lft.to/lastmile_qr_scan", "ios": "https://dc.lft.to/lastmile_qr_scan"}, "fusion_lon": 0.0}, {"lat": 38.92530083333333, "is_disabled": 0, "type": "electric_scooter", "lon": -77.02639183333334, "bike_id": "838dfd6c704889aad73a9d087e4982cc", "fusion_lat": 0.0, "name": "838dfd6c704889aad73a9d087e4982cc", "is_reserved": 0, "rental_uris": {"android": "https://dc.lft.to/lastmile_qr_scan", "ios": "https://dc.lft.to/lastmile_qr_scan"}, "fusion_lon": 0.0}, {"lat": 38.88363533333333, "is_disabled": 0, "type": "electric_scooter", "lon": -76.941552, "bike_id": "1f4fb99d3ca4025d007d8db84f75aac5", "fusion_lat": 0.0, "name": "1f4fb99d3ca4025d007d8db84f75aac5", "is_reserved": 0, "rental_uris": {"android": "https://dc.lft.to/lastmile_qr_scan", "ios": "https://dc.lft.to/lastmile_qr_scan"}, "fusion_lon": 0.0}, {"lat": 38.90258683333333, "is_disabled": 0, "type": "electric_scooter", "lon": -77.00346166666667, "bike_id": "d723057ae6362b7b40c32aa45cf98ca9", "fusion_lat": 0.0, "name": "d723057ae6362b7b40c32aa45cf98ca9", "is_reserved": 0, "rental_uris": {"android": "https://dc.lft.to/lastmile_qr_scan", "ios": "https://dc.lft.to/lastmile_qr_scan"}, "fusion_lon": 0.0}, {"lat": 38.970894666666666, "is_disabled": 0, "type": "electric_bike", "lon": -77.06967416666667, "bike_id": "f5b99f4eb61742ab9717d50259245d99", "fusion_lat": 0.0, "name": "f5b99f4eb61742ab9717d50259245d99", "is_reserved": 0, "rental_uris": {"android": "https://dc.lft.to/lastmile_qr_scan", "ios": "https://dc.lft.to/lastmile_qr_scan"}, "fusion_lon": 0.0}, {"lat": 38.8409195, "is_disabled": 0, "type": "electric_bike", "lon": -77.08922316666667, "bike_id": "657c4aad7cd49f901ad5770d428d769d", "fusion_lat": 0.0, "name": "657c4aad7cd49f901ad5770d428d769d", "is_reserved": 0, "rental_uris": {"android": "https://dc.lft.to/lastmile_qr_scan", "ios": "https://dc.lft.to/lastmile_qr_scan"}, "fusion_lon": 0.0}, {"lat": 38.926115833333334, "is_disabled": 0, "type": "electric_scooter", "lon": -77.02157816666667, "bike_id": "388ab51c64ec979a8a3c611481c47f03", "fusion_lat": 0.0, "name": "388ab51c64ec979a8a3c611481c47f03", "is_reserved": 0, "rental_uris": {"android": "https://dc.lft.to/lastmile_qr_scan", "ios": "https://dc.lft.to/lastmile_qr_scan"}, "fusion_lon": 0.0}, {"lat": 38.914461333333335, "is_disabled": 0, "type": "electric_scooter", "lon": -77.04159133333333, "bike_id": "a3ed2a29c03926a2d66ef2bd95736414", "fusion_lat": 0.0, "name": "a3ed2a29c03926a2d66ef2bd95736414", "is_reserved": 0, "rental_uris": {"android": "https://dc.lft.to/lastmile_qr_scan", "ios": "https://dc.lft.to/lastmile_qr_scan"}, "fusion_lon": 0.0}, {"lat": 38.902801333333336, "is_disabled": 0, "type": "electric_scooter", "lon": -77.03865116666667, "bike_id": "756c393ff9f3718528b901c76e8d1a6e", "fusion_lat": 0.0, "name": "756c393ff9f3718528b901c76e8d1a6e", "is_reserved": 0, "rental_uris": {"android": "https://dc.lft.to/lastmile_qr_scan", "ios": "https://dc.lft.to/lastmile_qr_scan"}, "fusion_lon": 0.0}, {"lat": 38.879180166666664, "is_disabled": 0, "type": "electric_scooter", "lon": -77.03096283333333, "bike_id": "68b202ad11a072579eb62f220f0c5390", "fusion_lat": 0.0, "name": "68b202ad11a072579eb62f220f0c5390", "is_reserved": 0, "rental_uris": {"android": "https://dc.lft.to/lastmile_qr_scan", "ios": "https://dc.lft.to/lastmile_qr_scan"}, "fusion_lon": 0.0}, {"lat": 38.874284, "is_disabled": 0, "type": "electric_scooter", "lon": -77.00054166666666, "bike_id": "3729a56ef5e15b950ba0fb2f82fcdf65", "fusion_lat": 0.0, "name": "3729a56ef5e15b950ba0fb2f82fcdf65", "is_reserved": 0, "rental_uris": {"android": "https://dc.lft.to/lastmile_qr_scan", "ios": "https://dc.lft.to/lastmile_qr_scan"}, "fusion_lon": 0.0}, {"lat": 38.892885, "is_disabled": 0, "type": "electric_scooter", "lon": -76.95851383333333, "bike_id": "c0be412b2cca191db15d91c86ecef032", "fusion_lat": 0.0, "name": "c0be412b2cca191db15d91c86ecef032", "is_reserved": 0, "rental_uris": {"android": "https://dc.lft.to/lastmile_qr_scan", "ios": "https://dc.lft.to/lastmile_qr_scan"}, "fusion_lon": 0.0}, {"lat": 38.89989716666667, "is_disabled": 0, "type": "electric_scooter", "lon": -76.9995435, "bike_id": "90811441521c307998610f62261fca7f", "fusion_lat": 0.0, "name": "90811441521c307998610f62261fca7f", "is_reserved": 0, "rental_uris": {"android": "https://dc.lft.to/lastmile_qr_scan", "ios": "https://dc.lft.to/lastmile_qr_scan"}, "fusion_lon": 0.0}, {"lat": 38.89730933333333, "is_disabled": 0, "type": "electric_scooter", "lon": -77.05471616666667, "bike_id": "4f2e4fca519731e9dceb5d0d849bd9db", "fusion_lat": 0.0, "name": "4f2e4fca519731e9dceb5d0d849bd9db", "is_reserved": 0, "rental_uris": {"android": "https://dc.lft.to/lastmile_qr_scan", "ios": "https://dc.lft.to/lastmile_qr_scan"}, "fusion_lon": 0.0}, {"lat": 38.9295365, "is_disabled": 0, "type": "electric_scooter", "lon": -76.99086283333334, "bike_id": "3552e19cddb15a4503b8b442bab48612", "fusion_lat": 0.0, "name": "3552e19cddb15a4503b8b442bab48612", "is_reserved": 0, "rental_uris": {"android": "https://dc.lft.to/lastmile_qr_scan", "ios": "https://dc.lft.to/lastmile_qr_scan"}, "fusion_lon": 0.0}, {"lat": 38.915413666666666, "is_disabled": 0, "type": "electric_scooter", "lon": -77.0741325, "bike_id": "61879ce0e4ccbd8cf5db811b4e8c7b13", "fusion_lat": 0.0, "name": "61879ce0e4ccbd8cf5db811b4e8c7b13", "is_reserved": 0, "rental_uris": {"android": "https://dc.lft.to/lastmile_qr_scan", "ios": "https://dc.lft.to/lastmile_qr_scan"}, "fusion_lon": 0.0}, {"lat": 38.972277166666665, "is_disabled": 0, "type": "electric_bike", "lon": -77.03602066666667, "bike_id": "1a5ce22ffbc956121ba39f936c460152", "fusion_lat": 0.0, "name": "1a5ce22ffbc956121ba39f936c460152", "is_reserved": 0, "rental_uris": {"android": "https://dc.lft.to/lastmile_qr_scan", "ios": "https://dc.lft.to/lastmile_qr_scan"}, "fusion_lon": 0.0}, {"lat": 38.909658666666665, "is_disabled": 0, "type": "electric_scooter", "lon": -76.99604866666667, "bike_id": "398dab008cb3e48ee1d69b52e230fe34", "fusion_lat": 0.0, "name": "398dab008cb3e48ee1d69b52e230fe34", "is_reserved": 0, "rental_uris": {"android": "https://dc.lft.to/lastmile_qr_scan", "ios": "https://dc.lft.to/lastmile_qr_scan"}, "fusion_lon": 0.0}, {"lat": 38.9285215, "is_disabled": 0, "type": "electric_bike", "lon": -77.1067675, "bike_id": "f200e09aeb2bf5afd47c35015da5f864", "fusion_lat": 0.0, "name": "f200e09aeb2bf5afd47c35015da5f864", "is_reserved": 0, "rental_uris": {"android": "https://dc.lft.to/lastmile_qr_scan", "ios": "https://dc.lft.to/lastmile_qr_scan"}, "fusion_lon": 0.0}, {"lat": 38.900382, "is_disabled": 0, "type": "electric_scooter", "lon": -76.99377016666666, "bike_id": "79421609691189ea495e16ea28da576a", "fusion_lat": 0.0, "name": "79421609691189ea495e16ea28da576a", "is_reserved": 0, "rental_uris": {"android": "https://dc.lft.to/lastmile_qr_scan", "ios": "https://dc.lft.to/lastmile_qr_scan"}, "fusion_lon": 0.0}, {"lat": 38.922549833333335, "is_disabled": 0, "type": "electric_scooter", "lon": -77.04296716666667, "bike_id": "2e6f78c048388c3f57d1bc5bf324727e", "fusion_lat": 0.0, "name": "2e6f78c048388c3f57d1bc5bf324727e", "is_reserved": 0, "rental_uris": {"android": "https://dc.lft.to/lastmile_qr_scan", "ios": "https://dc.lft.to/lastmile_qr_scan"}, "fusion_lon": 0.0}, {"lat": 38.936361833333336, "is_disabled": 0, "type": "electric_scooter", "lon": -77.02483916666667, "bike_id": "0cace740af40a69b27c9192966ffd2dc", "fusion_lat": 0.0, "name": "0cace740af40a69b27c9192966ffd2dc", "is_reserved": 0, "rental_uris": {"android": "https://dc.lft.to/lastmile_qr_scan", "ios": "https://dc.lft.to/lastmile_qr_scan"}, "fusion_lon": 0.0}, {"lat": 38.89356083333333, "is_disabled": 0, "type": "electric_scooter", "lon": -77.04137883333334, "bike_id": "68e51eb43ccba9a1e10cd57f73640f30", "fusion_lat": 0.0, "name": "68e51eb43ccba9a1e10cd57f73640f30", "is_reserved": 0, "rental_uris": {"android": "https://dc.lft.to/lastmile_qr_scan", "ios": "https://dc.lft.to/lastmile_qr_scan"}, "fusion_lon": 0.0}, {"lat": 38.91484633333334, "is_disabled": 0, "type": "electric_scooter", "lon": -77.03258966666667, "bike_id": "5f80935ef477f19afdbd92ecd1521d16", "fusion_lat": 0.0, "name": "5f80935ef477f19afdbd92ecd1521d16", "is_reserved": 0, "rental_uris": {"android": "https://dc.lft.to/lastmile_qr_scan", "ios": "https://dc.lft.to/lastmile_qr_scan"}, "fusion_lon": 0.0}, {"lat": 38.899266833333336, "is_disabled": 0, "type": "electric_scooter", "lon": -77.00365033333334, "bike_id": "3996fe2e9b72d19a7434b16467d9d5be", "fusion_lat": 0.0, "name": "3996fe2e9b72d19a7434b16467d9d5be", "is_reserved": 0, "rental_uris": {"android": "https://dc.lft.to/lastmile_qr_scan", "ios": "https://dc.lft.to/lastmile_qr_scan"}, "fusion_lon": 0.0}, {"lat": 38.91880483333333, "is_disabled": 0, "type": "electric_scooter", "lon": -77.0346275, "bike_id": "dbe9f4cb14dcf2e6fcbc9d0f83e54329", "fusion_lat": 0.0, "name": "dbe9f4cb14dcf2e6fcbc9d0f83e54329", "is_reserved": 0, "rental_uris": {"android": "https://dc.lft.to/lastmile_qr_scan", "ios": "https://dc.lft.to/lastmile_qr_scan"}, "fusion_lon": 0.0}, {"lat": 38.925328, "is_disabled": 0, "type": "electric_scooter", "lon": -77.04427016666666, "bike_id": "2e3cd81ff7fe9aeb2d25ba8f41530ad3", "fusion_lat": 0.0, "name": "2e3cd81ff7fe9aeb2d25ba8f41530ad3", "is_reserved": 0, "rental_uris": {"android": "https://dc.lft.to/lastmile_qr_scan", "ios": "https://dc.lft.to/lastmile_qr_scan"}, "fusion_lon": 0.0}, {"lat": 38.9169365, "is_disabled": 0, "type": "electric_scooter", "lon": -77.03718666666667, "bike_id": "4cd7ca8f12505af702a654c8f4be8b46", "fusion_lat": 0.0, "name": "4cd7ca8f12505af702a654c8f4be8b46", "is_reserved": 0, "rental_uris": {"android": "https://dc.lft.to/lastmile_qr_scan", "ios": "https://dc.lft.to/lastmile_qr_scan"}, "fusion_lon": 0.0}, {"lat": 38.92066616666666, "is_disabled": 0, "type": "electric_scooter", "lon": -77.0433665, "bike_id": "efc27ea783dde94a6e57510ca0082213", "fusion_lat": 0.0, "name": "efc27ea783dde94a6e57510ca0082213", "is_reserved": 0, "rental_uris": {"android": "https://dc.lft.to/lastmile_qr_scan", "ios": "https://dc.lft.to/lastmile_qr_scan"}, "fusion_lon": 0.0}, {"lat": 38.90881316666667, "is_disabled": 0, "type": "electric_scooter", "lon": -77.04385966666666, "bike_id": "c5d04c1db9637608084498171b2d70ba", "fusion_lat": 0.0, "name": "c5d04c1db9637608084498171b2d70ba", "is_reserved": 0, "rental_uris": {"android": "https://dc.lft.to/lastmile_qr_scan", "ios": "https://dc.lft.to/lastmile_qr_scan"}, "fusion_lon": 0.0}, {"lat": 38.95612666666667, "is_disabled": 0, "type": "electric_scooter", "lon": -77.027562, "bike_id": "00f336511c35a8bd72e08a89440d7119", "fusion_lat": 0.0, "name": "00f336511c35a8bd72e08a89440d7119", "is_reserved": 0, "rental_uris": {"android": "https://dc.lft.to/lastmile_qr_scan", "ios": "https://dc.lft.to/lastmile_qr_scan"}, "fusion_lon": 0.0}, {"lat": 38.871024, "is_disabled": 0, "type": "electric_bike", "lon": -77.01203733333334, "bike_id": "8a684d1f8ef383e3405b1481f2236f70", "fusion_lat": 0.0, "name": "8a684d1f8ef383e3405b1481f2236f70", "is_reserved": 0, "rental_uris": {"android": "https://dc.lft.to/lastmile_qr_scan", "ios": "https://dc.lft.to/lastmile_qr_scan"}, "fusion_lon": 0.0}, {"lat": 38.9217365, "is_disabled": 0, "type": "electric_scooter", "lon": -77.03510116666666, "bike_id": "3f69b649613349abd84c9e3ab6a1f587", "fusion_lat": 0.0, "name": "3f69b649613349abd84c9e3ab6a1f587", "is_reserved": 0, "rental_uris": {"android": "https://dc.lft.to/lastmile_qr_scan", "ios": "https://dc.lft.to/lastmile_qr_scan"}, "fusion_lon": 0.0}, {"lat": 38.91659166666667, "is_disabled": 0, "type": "electric_scooter", "lon": -77.03339483333333, "bike_id": "5d889b2e95c01d73a35dbb1649082f4b", "fusion_lat": 0.0, "name": "5d889b2e95c01d73a35dbb1649082f4b", "is_reserved": 0, "rental_uris": {"android": "https://dc.lft.to/lastmile_qr_scan", "ios": "https://dc.lft.to/lastmile_qr_scan"}, "fusion_lon": 0.0}, {"lat": 38.919189, "is_disabled": 0, "type": "electric_scooter", "lon": -77.04805533333334, "bike_id": "f8cad04a29d39acf0cf30a307ea02a1e", "fusion_lat": 0.0, "name": "f8cad04a29d39acf0cf30a307ea02a1e", "is_reserved": 0, "rental_uris": {"android": "https://dc.lft.to/lastmile_qr_scan", "ios": "https://dc.lft.to/lastmile_qr_scan"}, "fusion_lon": 0.0}, {"lat": 38.91330266666667, "is_disabled": 0, "type": "electric_scooter", "lon": -77.032661, "bike_id": "3e20826972f461d7cfca029e7d4ede6f", "fusion_lat": 0.0, "name": "3e20826972f461d7cfca029e7d4ede6f", "is_reserved": 0, "rental_uris": {"android": "https://dc.lft.to/lastmile_qr_scan", "ios": "https://dc.lft.to/lastmile_qr_scan"}, "fusion_lon": 0.0}, {"lat": 38.905469833333335, "is_disabled": 0, "type": "electric_scooter", "lon": -77.05700683333333, "bike_id": "430c2b8fc627484c8099f5df7926fc86", "fusion_lat": 0.0, "name": "430c2b8fc627484c8099f5df7926fc86", "is_reserved": 0, "rental_uris": {"android": "https://dc.lft.to/lastmile_qr_scan", "ios": "https://dc.lft.to/lastmile_qr_scan"}, "fusion_lon": 0.0}, {"lat": 38.92599666666667, "is_disabled": 0, "type": "electric_scooter", "lon": -77.02151783333333, "bike_id": "ddbfabcce9b933559c4e948734d92706", "fusion_lat": 0.0, "name": "ddbfabcce9b933559c4e948734d92706", "is_reserved": 0, "rental_uris": {"android": "https://dc.lft.to/lastmile_qr_scan", "ios": "https://dc.lft.to/lastmile_qr_scan"}, "fusion_lon": 0.0}, {"lat": 38.892324, "is_disabled": 0, "type": "electric_scooter", "lon": -77.03351033333334, "bike_id": "a9d5112a7c7ea39c83aecca379872e3a", "fusion_lat": 0.0, "name": "a9d5112a7c7ea39c83aecca379872e3a", "is_reserved": 0, "rental_uris": {"android": "https://dc.lft.to/lastmile_qr_scan", "ios": "https://dc.lft.to/lastmile_qr_scan"}, "fusion_lon": 0.0}, {"lat": 38.959566833333334, "is_disabled": 0, "type": "electric_scooter", "lon": -77.03306966666666, "bike_id": "b648a1d29ca9eaa47ab45456ea4371f2", "fusion_lat": 0.0, "name": "b648a1d29ca9eaa47ab45456ea4371f2", "is_reserved": 0, "rental_uris": {"android": "https://dc.lft.to/lastmile_qr_scan", "ios": "https://dc.lft.to/lastmile_qr_scan"}, "fusion_lon": 0.0}, {"lat": 38.95952666666667, "is_disabled": 0, "type": "electric_bike", "lon": -77.1008795, "bike_id": "50fd152fad2851276eceb1a3720f7c69", "fusion_lat": 0.0, "name": "50fd152fad2851276eceb1a3720f7c69", "is_reserved": 0, "rental_uris": {"android": "https://dc.lft.to/lastmile_qr_scan", "ios": "https://dc.lft.to/lastmile_qr_scan"}, "fusion_lon": 0.0}, {"lat": 38.8985925, "is_disabled": 0, "type": "electric_scooter", "lon": -77.0232035, "bike_id": "f586cb04b859a2af9f9b5b6349486f68", "fusion_lat": 0.0, "name": "f586cb04b859a2af9f9b5b6349486f68", "is_reserved": 0, "rental_uris": {"android": "https://dc.lft.to/lastmile_qr_scan", "ios": "https://dc.lft.to/lastmile_qr_scan"}, "fusion_lon": 0.0}, {"lat": 38.91988116666667, "is_disabled": 0, "type": "electric_scooter", "lon": -77.03244466666666, "bike_id": "16452514bc2d25ba01f61caf38255625", "fusion_lat": 0.0, "name": "16452514bc2d25ba01f61caf38255625", "is_reserved": 0, "rental_uris": {"android": "https://dc.lft.to/lastmile_qr_scan", "ios": "https://dc.lft.to/lastmile_qr_scan"}, "fusion_lon": 0.0}, {"lat": 38.863772, "is_disabled": 0, "type": "electric_scooter", "lon": -76.9925235, "bike_id": "7da5120c2b967b79eba33c4bbc452b3d", "fusion_lat": 0.0, "name": "7da5120c2b967b79eba33c4bbc452b3d", "is_reserved": 0, "rental_uris": {"android": "https://dc.lft.to/lastmile_qr_scan", "ios": "https://dc.lft.to/lastmile_qr_scan"}, "fusion_lon": 0.0}, {"lat": 38.9430485, "is_disabled": 0, "type": "electric_scooter", "lon": -77.05927583333333, "bike_id": "6ecf69f598ef97d35cc4fdf9f4fee0da", "fusion_lat": 0.0, "name": "6ecf69f598ef97d35cc4fdf9f4fee0da", "is_reserved": 0, "rental_uris": {"android": "https://dc.lft.to/lastmile_qr_scan", "ios": "https://dc.lft.to/lastmile_qr_scan"}, "fusion_lon": 0.0}, {"lat": 38.916901, "is_disabled": 0, "type": "electric_scooter", "lon": -77.02597316666666, "bike_id": "bd472fd18d5879ad1ccd5b921bf4e7c6", "fusion_lat": 0.0, "name": "bd472fd18d5879ad1ccd5b921bf4e7c6", "is_reserved": 0, "rental_uris": {"android": "https://dc.lft.to/lastmile_qr_scan", "ios": "https://dc.lft.to/lastmile_qr_scan"}, "fusion_lon": 0.0}, {"lat": 38.9783265, "is_disabled": 0, "type": "electric_bike", "lon": -77.0263705, "bike_id": "62258c66071ae5562a689225cd3772d4", "fusion_lat": 0.0, "name": "62258c66071ae5562a689225cd3772d4", "is_reserved": 0, "rental_uris": {"android": "https://dc.lft.to/lastmile_qr_scan", "ios": "https://dc.lft.to/lastmile_qr_scan"}, "fusion_lon": 0.0}, {"lat": 38.854521166666665, "is_disabled": 0, "type": "electric_scooter", "lon": -76.97229166666666, "bike_id": "efc180c84558ec96744be55459faf2e4", "fusion_lat": 0.0, "name": "efc180c84558ec96744be55459faf2e4", "is_reserved": 0, "rental_uris": {"android": "https://dc.lft.to/lastmile_qr_scan", "ios": "https://dc.lft.to/lastmile_qr_scan"}, "fusion_lon": 0.0}, {"lat": 38.9235615, "is_disabled": 0, "type": "electric_scooter", "lon": -77.04380033333334, "bike_id": "b1946935b571d76966916b32ad5eac9a", "fusion_lat": 0.0, "name": "b1946935b571d76966916b32ad5eac9a", "is_reserved": 0, "rental_uris": {"android": "https://dc.lft.to/lastmile_qr_scan", "ios": "https://dc.lft.to/lastmile_qr_scan"}, "fusion_lon": 0.0}, {"lat": 38.90963833333333, "is_disabled": 0, "type": "electric_scooter", "lon": -77.03569, "bike_id": "c46d5b96ef21086fc6a72e6702bace32", "fusion_lat": 0.0, "name": "c46d5b96ef21086fc6a72e6702bace32", "is_reserved": 0, "rental_uris": {"android": "https://dc.lft.to/lastmile_qr_scan", "ios": "https://dc.lft.to/lastmile_qr_scan"}, "fusion_lon": 0.0}, {"lat": 38.906973, "is_disabled": 0, "type": "electric_bike", "lon": -77.06370483333333, "bike_id": "ae0cb2a11c5f762596b902ddb7d1d677", "fusion_lat": 0.0, "name": "ae0cb2a11c5f762596b902ddb7d1d677", "is_reserved": 0, "rental_uris": {"android": "https://dc.lft.to/lastmile_qr_scan", "ios": "https://dc.lft.to/lastmile_qr_scan"}, "fusion_lon": 0.0}, {"lat": 38.919653833333335, "is_disabled": 0, "type": "electric_scooter", "lon": -77.02353716666667, "bike_id": "c4c86851c090c029d010940ff0735fdb", "fusion_lat": 0.0, "name": "c4c86851c090c029d010940ff0735fdb", "is_reserved": 0, "rental_uris": {"android": "https://dc.lft.to/lastmile_qr_scan", "ios": "https://dc.lft.to/lastmile_qr_scan"}, "fusion_lon": 0.0}, {"lat": 38.93320933333333, "is_disabled": 0, "type": "electric_scooter", "lon": -77.04525783333334, "bike_id": "791fa3573dd97cb20f1158a1051232ee", "fusion_lat": 0.0, "name": "791fa3573dd97cb20f1158a1051232ee", "is_reserved": 0, "rental_uris": {"android": "https://dc.lft.to/lastmile_qr_scan", "ios": "https://dc.lft.to/lastmile_qr_scan"}, "fusion_lon": 0.0}, {"lat": 38.94895733333333, "is_disabled": 0, "type": "electric_scooter", "lon": -77.03046566666667, "bike_id": "e57560286f4e17d349215b0c155ffc23", "fusion_lat": 0.0, "name": "e57560286f4e17d349215b0c155ffc23", "is_reserved": 0, "rental_uris": {"android": "https://dc.lft.to/lastmile_qr_scan", "ios": "https://dc.lft.to/lastmile_qr_scan"}, "fusion_lon": 0.0}, {"lat": 38.972224, "is_disabled": 0, "type": "electric_bike", "lon": -76.99346333333334, "bike_id": "168ce3e16b0047b8d425584687a8e906", "fusion_lat": 0.0, "name": "168ce3e16b0047b8d425584687a8e906", "is_reserved": 0, "rental_uris": {"android": "https://dc.lft.to/lastmile_qr_scan", "ios": "https://dc.lft.to/lastmile_qr_scan"}, "fusion_lon": 0.0}, {"lat": 38.90832316666667, "is_disabled": 0, "type": "electric_scooter", "lon": -76.9969495, "bike_id": "fad39b041e0fe268ee45f2be20930787", "fusion_lat": 0.0, "name": "fad39b041e0fe268ee45f2be20930787", "is_reserved": 0, "rental_uris": {"android": "https://dc.lft.to/lastmile_qr_scan", "ios": "https://dc.lft.to/lastmile_qr_scan"}, "fusion_lon": 0.0}, {"lat": 38.903430666666665, "is_disabled": 0, "type": "electric_scooter", "lon": -77.03782566666666, "bike_id": "1ecefa988c420969f982816fd013c48f", "fusion_lat": 0.0, "name": "1ecefa988c420969f982816fd013c48f", "is_reserved": 0, "rental_uris": {"android": "https://dc.lft.to/lastmile_qr_scan", "ios": "https://dc.lft.to/lastmile_qr_scan"}, "fusion_lon": 0.0}, {"lat": 38.92237433333333, "is_disabled": 0, "type": "electric_scooter", "lon": -77.04570866666667, "bike_id": "d59514634984cd8c2ce0ebff39ed4806", "fusion_lat": 0.0, "name": "d59514634984cd8c2ce0ebff39ed4806", "is_reserved": 0, "rental_uris": {"android": "https://dc.lft.to/lastmile_qr_scan", "ios": "https://dc.lft.to/lastmile_qr_scan"}, "fusion_lon": 0.0}, {"lat": 38.921155166666665, "is_disabled": 0, "type": "electric_scooter", "lon": -77.04194333333334, "bike_id": "dd75c063e54fedcb74f0ee8d7e7b27d7", "fusion_lat": 0.0, "name": "dd75c063e54fedcb74f0ee8d7e7b27d7", "is_reserved": 0, "rental_uris": {"android": "https://dc.lft.to/lastmile_qr_scan", "ios": "https://dc.lft.to/lastmile_qr_scan"}, "fusion_lon": 0.0}, {"lat": 38.926837, "is_disabled": 0, "type": "electric_scooter", "lon": -77.01512783333334, "bike_id": "de84b646bf338ed4d939627bf5224d5d", "fusion_lat": 0.0, "name": "de84b646bf338ed4d939627bf5224d5d", "is_reserved": 0, "rental_uris": {"android": "https://dc.lft.to/lastmile_qr_scan", "ios": "https://dc.lft.to/lastmile_qr_scan"}, "fusion_lon": 0.0}, {"lat": 38.91562166666667, "is_disabled": 0, "type": "electric_scooter", "lon": -77.05020683333333, "bike_id": "9bb5892bdc50352eb8f8f38d5b75c200", "fusion_lat": 0.0, "name": "9bb5892bdc50352eb8f8f38d5b75c200", "is_reserved": 0, "rental_uris": {"android": "https://dc.lft.to/lastmile_qr_scan", "ios": "https://dc.lft.to/lastmile_qr_scan"}, "fusion_lon": 0.0}, {"lat": 38.943524833333335, "is_disabled": 0, "type": "electric_scooter", "lon": -77.06149183333333, "bike_id": "04fa0a62f01631a12a8a9d7e54ca3aaa", "fusion_lat": 0.0, "name": "04fa0a62f01631a12a8a9d7e54ca3aaa", "is_reserved": 0, "rental_uris": {"android": "https://dc.lft.to/lastmile_qr_scan", "ios": "https://dc.lft.to/lastmile_qr_scan"}, "fusion_lon": 0.0}, {"lat": 38.9823045, "is_disabled": 0, "type": "electric_scooter", "lon": -77.0264305, "bike_id": "48f4a7514d143b6a5757d131e6f6e40d", "fusion_lat": 0.0, "name": "48f4a7514d143b6a5757d131e6f6e40d", "is_reserved": 0, "rental_uris": {"android": "https://dc.lft.to/lastmile_qr_scan", "ios": "https://dc.lft.to/lastmile_qr_scan"}, "fusion_lon": 0.0}, {"lat": 38.921679833333336, "is_disabled": 0, "type": "electric_scooter", "lon": -77.04014183333334, "bike_id": "61634ad95eea3e76ea176d35c5c97ac8", "fusion_lat": 0.0, "name": "61634ad95eea3e76ea176d35c5c97ac8", "is_reserved": 0, "rental_uris": {"android": "https://dc.lft.to/lastmile_qr_scan", "ios": "https://dc.lft.to/lastmile_qr_scan"}, "fusion_lon": 0.0}, {"lat": 38.902851166666665, "is_disabled": 0, "type": "electric_scooter", "lon": -77.03633233333333, "bike_id": "7885d11d2e75487c0f8bca95056b6dd7", "fusion_lat": 0.0, "name": "7885d11d2e75487c0f8bca95056b6dd7", "is_reserved": 0, "rental_uris": {"android": "https://dc.lft.to/lastmile_qr_scan", "ios": "https://dc.lft.to/lastmile_qr_scan"}, "fusion_lon": 0.0}, {"lat": 38.88623116666667, "is_disabled": 0, "type": "electric_scooter", "lon": -76.95521583333333, "bike_id": "861a4245a8c39e4b6eb20452a76a3dba", "fusion_lat": 0.0, "name": "861a4245a8c39e4b6eb20452a76a3dba", "is_reserved": 0, "rental_uris": {"android": "https://dc.lft.to/lastmile_qr_scan", "ios": "https://dc.lft.to/lastmile_qr_scan"}, "fusion_lon": 0.0}, {"lat": 38.92479466666666, "is_disabled": 0, "type": "electric_scooter", "lon": -77.03478883333334, "bike_id": "bb39be6a6d3d317fe14ffdce001b4e6a", "fusion_lat": 0.0, "name": "bb39be6a6d3d317fe14ffdce001b4e6a", "is_reserved": 0, "rental_uris": {"android": "https://dc.lft.to/lastmile_qr_scan", "ios": "https://dc.lft.to/lastmile_qr_scan"}, "fusion_lon": 0.0}, {"lat": 38.894851833333334, "is_disabled": 0, "type": "electric_scooter", "lon": -77.00226816666667, "bike_id": "3b87b7a80b78914b39b78ea5c30bdb9b", "fusion_lat": 0.0, "name": "3b87b7a80b78914b39b78ea5c30bdb9b", "is_reserved": 0, "rental_uris": {"android": "https://dc.lft.to/lastmile_qr_scan", "ios": "https://dc.lft.to/lastmile_qr_scan"}, "fusion_lon": 0.0}, {"lat": 38.896089, "is_disabled": 0, "type": "electric_scooter", "lon": -77.0218625, "bike_id": "b1f9508c3add2c1dc7bac640f8953128", "fusion_lat": 0.0, "name": "b1f9508c3add2c1dc7bac640f8953128", "is_reserved": 0, "rental_uris": {"android": "https://dc.lft.to/lastmile_qr_scan", "ios": "https://dc.lft.to/lastmile_qr_scan"}, "fusion_lon": 0.0}, {"lat": 38.90144933333333, "is_disabled": 0, "type": "electric_bike", "lon": -77.02271416666666, "bike_id": "271d772cdc5d5c5ffa85b119446b67b6", "fusion_lat": 0.0, "name": "271d772cdc5d5c5ffa85b119446b67b6", "is_reserved": 0, "rental_uris": {"android": "https://dc.lft.to/lastmile_qr_scan", "ios": "https://dc.lft.to/lastmile_qr_scan"}, "fusion_lon": 0.0}, {"lat": 38.89359483333333, "is_disabled": 0, "type": "electric_scooter", "lon": -76.9480215, "bike_id": "2ab4ec177488410a486c6b46cd31dbee", "fusion_lat": 0.0, "name": "2ab4ec177488410a486c6b46cd31dbee", "is_reserved": 0, "rental_uris": {"android": "https://dc.lft.to/lastmile_qr_scan", "ios": "https://dc.lft.to/lastmile_qr_scan"}, "fusion_lon": 0.0}, {"lat": 38.916383833333335, "is_disabled": 0, "type": "electric_scooter", "lon": -77.02076616666666, "bike_id": "91d73ad0a3a2c38a30c188b6dbc0dea2", "fusion_lat": 0.0, "name": "91d73ad0a3a2c38a30c188b6dbc0dea2", "is_reserved": 0, "rental_uris": {"android": "https://dc.lft.to/lastmile_qr_scan", "ios": "https://dc.lft.to/lastmile_qr_scan"}, "fusion_lon": 0.0}, {"lat": 38.88487833333333, "is_disabled": 0, "type": "electric_scooter", "lon": -77.00710733333334, "bike_id": "0aaa91ad182b48a9dab864f05d89b5a1", "fusion_lat": 0.0, "name": "0aaa91ad182b48a9dab864f05d89b5a1", "is_reserved": 0, "rental_uris": {"android": "https://dc.lft.to/lastmile_qr_scan", "ios": "https://dc.lft.to/lastmile_qr_scan"}, "fusion_lon": 0.0}, {"lat": 38.94286483333333, "is_disabled": 0, "type": "electric_scooter", "lon": -77.0217085, "bike_id": "2c7967307e3bd8fffda8db85475aeea2", "fusion_lat": 0.0, "name": "2c7967307e3bd8fffda8db85475aeea2", "is_reserved": 0, "rental_uris": {"android": "https://dc.lft.to/lastmile_qr_scan", "ios": "https://dc.lft.to/lastmile_qr_scan"}, "fusion_lon": 0.0}, {"lat": 38.90729916666667, "is_disabled": 0, "type": "electric_scooter", "lon": -77.0371465, "bike_id": "a8270b908f339243897aed90e815e8c0", "fusion_lat": 0.0, "name": "a8270b908f339243897aed90e815e8c0", "is_reserved": 0, "rental_uris": {"android": "https://dc.lft.to/lastmile_qr_scan", "ios": "https://dc.lft.to/lastmile_qr_scan"}, "fusion_lon": 0.0}, {"lat": 38.89522983333333, "is_disabled": 0, "type": "electric_scooter", "lon": -77.00206083333333, "bike_id": "0b3c1cba029029954600263de456f676", "fusion_lat": 0.0, "name": "0b3c1cba029029954600263de456f676", "is_reserved": 0, "rental_uris": {"android": "https://dc.lft.to/lastmile_qr_scan", "ios": "https://dc.lft.to/lastmile_qr_scan"}, "fusion_lon": 0.0}, {"lat": 38.924987333333334, "is_disabled": 0, "type": "electric_scooter", "lon": -77.02153016666666, "bike_id": "20024a746795dd4559c6739fe5561a25", "fusion_lat": 0.0, "name": "20024a746795dd4559c6739fe5561a25", "is_reserved": 0, "rental_uris": {"android": "https://dc.lft.to/lastmile_qr_scan", "ios": "https://dc.lft.to/lastmile_qr_scan"}, "fusion_lon": 0.0}, {"lat": 38.86625816666667, "is_disabled": 0, "type": "electric_scooter", "lon": -76.98695983333333, "bike_id": "70d53c161eb378dff43e182b190ec509", "fusion_lat": 0.0, "name": "70d53c161eb378dff43e182b190ec509", "is_reserved": 0, "rental_uris": {"android": "https://dc.lft.to/lastmile_qr_scan", "ios": "https://dc.lft.to/lastmile_qr_scan"}, "fusion_lon": 0.0}, {"lat": 38.932286833333336, "is_disabled": 0, "type": "electric_scooter", "lon": -76.9959885, "bike_id": "a147e32c5e0c5a1f188f08cbc743518f", "fusion_lat": 0.0, "name": "a147e32c5e0c5a1f188f08cbc743518f", "is_reserved": 0, "rental_uris": {"android": "https://dc.lft.to/lastmile_qr_scan", "ios": "https://dc.lft.to/lastmile_qr_scan"}, "fusion_lon": 0.0}, {"lat": 38.875786, "is_disabled": 0, "type": "electric_bike", "lon": -77.10560116666667, "bike_id": "164f6f1d84eb5fa230fe1f946a44b1f2", "fusion_lat": 0.0, "name": "164f6f1d84eb5fa230fe1f946a44b1f2", "is_reserved": 0, "rental_uris": {"android": "https://dc.lft.to/lastmile_qr_scan", "ios": "https://dc.lft.to/lastmile_qr_scan"}, "fusion_lon": 0.0}, {"lat": 38.9261025, "is_disabled": 0, "type": "electric_scooter", "lon": -77.02158283333333, "bike_id": "ab3451bd8b62891c9375e44dea104140", "fusion_lat": 0.0, "name": "ab3451bd8b62891c9375e44dea104140", "is_reserved": 0, "rental_uris": {"android": "https://dc.lft.to/lastmile_qr_scan", "ios": "https://dc.lft.to/lastmile_qr_scan"}, "fusion_lon": 0.0}, {"lat": 38.87961833333333, "is_disabled": 0, "type": "electric_scooter", "lon": -76.9874, "bike_id": "b285e3fdffe1a18e9fe637a06fee1c24", "fusion_lat": 0.0, "name": "b285e3fdffe1a18e9fe637a06fee1c24", "is_reserved": 0, "rental_uris": {"android": "https://dc.lft.to/lastmile_qr_scan", "ios": "https://dc.lft.to/lastmile_qr_scan"}, "fusion_lon": 0.0}, {"lat": 38.884892, "is_disabled": 0, "type": "electric_scooter", "lon": -77.00707516666667, "bike_id": "cdcba00806fdff4f0dec207732dc50e5", "fusion_lat": 0.0, "name": "cdcba00806fdff4f0dec207732dc50e5", "is_reserved": 0, "rental_uris": {"android": "https://dc.lft.to/lastmile_qr_scan", "ios": "https://dc.lft.to/lastmile_qr_scan"}, "fusion_lon": 0.0}, {"lat": 38.9001455, "is_disabled": 0, "type": "electric_scooter", "lon": -77.01196066666667, "bike_id": "75f03eb50e075037aabbc5e4421e1f8f", "fusion_lat": 0.0, "name": "75f03eb50e075037aabbc5e4421e1f8f", "is_reserved": 0, "rental_uris": {"android": "https://dc.lft.to/lastmile_qr_scan", "ios": "https://dc.lft.to/lastmile_qr_scan"}, "fusion_lon": 0.0}, {"lat": 38.925752833333334, "is_disabled": 0, "type": "electric_scooter", "lon": -76.9860785, "bike_id": "933d109a8eded9ef3e497a956546fe64", "fusion_lat": 0.0, "name": "933d109a8eded9ef3e497a956546fe64", "is_reserved": 0, "rental_uris": {"android": "https://dc.lft.to/lastmile_qr_scan", "ios": "https://dc.lft.to/lastmile_qr_scan"}, "fusion_lon": 0.0}, {"lat": 38.90264066666667, "is_disabled": 0, "type": "electric_scooter", "lon": -77.05399266666667, "bike_id": "90d8b20f3359d24cf736168b164c14bc", "fusion_lat": 0.0, "name": "90d8b20f3359d24cf736168b164c14bc", "is_reserved": 0, "rental_uris": {"android": "https://dc.lft.to/lastmile_qr_scan", "ios": "https://dc.lft.to/lastmile_qr_scan"}, "fusion_lon": 0.0}, {"lat": 38.9167125, "is_disabled": 0, "type": "electric_scooter", "lon": -77.02590333333333, "bike_id": "7dd795ab422322c694b3144feeed1308", "fusion_lat": 0.0, "name": "7dd795ab422322c694b3144feeed1308", "is_reserved": 0, "rental_uris": {"android": "https://dc.lft.to/lastmile_qr_scan", "ios": "https://dc.lft.to/lastmile_qr_scan"}, "fusion_lon": 0.0}, {"lat": 38.92372233333333, "is_disabled": 0, "type": "electric_scooter", "lon": -77.02922716666667, "bike_id": "60c7aff7ae221ba770cc27d8a2b47622", "fusion_lat": 0.0, "name": "60c7aff7ae221ba770cc27d8a2b47622", "is_reserved": 0, "rental_uris": {"android": "https://dc.lft.to/lastmile_qr_scan", "ios": "https://dc.lft.to/lastmile_qr_scan"}, "fusion_lon": 0.0}, {"lat": 38.8429205, "is_disabled": 0, "type": "electric_scooter", "lon": -76.9994285, "bike_id": "5239db5c781e86a76566e651e336dcc3", "fusion_lat": 0.0, "name": "5239db5c781e86a76566e651e336dcc3", "is_reserved": 0, "rental_uris": {"android": "https://dc.lft.to/lastmile_qr_scan", "ios": "https://dc.lft.to/lastmile_qr_scan"}, "fusion_lon": 0.0}, {"lat": 38.92144716666667, "is_disabled": 0, "type": "electric_scooter", "lon": -77.03502566666667, "bike_id": "dcd431ac416b4b79826637be0408e89f", "fusion_lat": 0.0, "name": "dcd431ac416b4b79826637be0408e89f", "is_reserved": 0, "rental_uris": {"android": "https://dc.lft.to/lastmile_qr_scan", "ios": "https://dc.lft.to/lastmile_qr_scan"}, "fusion_lon": 0.0}, {"lat": 38.88449033333333, "is_disabled": 0, "type": "electric_scooter", "lon": -76.9509565, "bike_id": "7d66153fd52f8369ec005e10934645b3", "fusion_lat": 0.0, "name": "7d66153fd52f8369ec005e10934645b3", "is_reserved": 0, "rental_uris": {"android": "https://dc.lft.to/lastmile_qr_scan", "ios": "https://dc.lft.to/lastmile_qr_scan"}, "fusion_lon": 0.0}, {"lat": 38.921191, "is_disabled": 0, "type": "electric_scooter", "lon": -77.041614, "bike_id": "e38c86a0c473a2138ba7643db7efc699", "fusion_lat": 0.0, "name": "e38c86a0c473a2138ba7643db7efc699", "is_reserved": 0, "rental_uris": {"android": "https://dc.lft.to/lastmile_qr_scan", "ios": "https://dc.lft.to/lastmile_qr_scan"}, "fusion_lon": 0.0}, {"lat": 38.9482155, "is_disabled": 0, "type": "electric_scooter", "lon": -76.99901333333334, "bike_id": "52b3453f62e5494755b1188fa18a6b56", "fusion_lat": 0.0, "name": "52b3453f62e5494755b1188fa18a6b56", "is_reserved": 0, "rental_uris": {"android": "https://dc.lft.to/lastmile_qr_scan", "ios": "https://dc.lft.to/lastmile_qr_scan"}, "fusion_lon": 0.0}, {"lat": 38.91737916666666, "is_disabled": 0, "type": "electric_scooter", "lon": -77.03188933333334, "bike_id": "ee34b9d07180c1fd28376063d752d0e4", "fusion_lat": 0.0, "name": "ee34b9d07180c1fd28376063d752d0e4", "is_reserved": 0, "rental_uris": {"android": "https://dc.lft.to/lastmile_qr_scan", "ios": "https://dc.lft.to/lastmile_qr_scan"}, "fusion_lon": 0.0}, {"lat": 38.9026725, "is_disabled": 0, "type": "electric_scooter", "lon": -77.03949383333334, "bike_id": "2eaf5c52016acc75a14b87660390b61c", "fusion_lat": 0.0, "name": "2eaf5c52016acc75a14b87660390b61c", "is_reserved": 0, "rental_uris": {"android": "https://dc.lft.to/lastmile_qr_scan", "ios": "https://dc.lft.to/lastmile_qr_scan"}, "fusion_lon": 0.0}, {"lat": 38.94468666666667, "is_disabled": 0, "type": "electric_scooter", "lon": -77.06036, "bike_id": "b554b3f8c6072b6f158e6ea0624319d4", "fusion_lat": 0.0, "name": "b554b3f8c6072b6f158e6ea0624319d4", "is_reserved": 0, "rental_uris": {"android": "https://dc.lft.to/lastmile_qr_scan", "ios": "https://dc.lft.to/lastmile_qr_scan"}, "fusion_lon": 0.0}, {"lat": 38.924487666666664, "is_disabled": 0, "type": "electric_scooter", "lon": -77.04199016666666, "bike_id": "24020f0b02ba36ac07ee59a497f795e0", "fusion_lat": 0.0, "name": "24020f0b02ba36ac07ee59a497f795e0", "is_reserved": 0, "rental_uris": {"android": "https://dc.lft.to/lastmile_qr_scan", "ios": "https://dc.lft.to/lastmile_qr_scan"}, "fusion_lon": 0.0}, {"lat": 38.89683566666667, "is_disabled": 0, "type": "electric_scooter", "lon": -76.936063, "bike_id": "0a7d3948cf69ef18189331cc123dbb7b", "fusion_lat": 0.0, "name": "0a7d3948cf69ef18189331cc123dbb7b", "is_reserved": 0, "rental_uris": {"android": "https://dc.lft.to/lastmile_qr_scan", "ios": "https://dc.lft.to/lastmile_qr_scan"}, "fusion_lon": 0.0}, {"lat": 38.9307755, "is_disabled": 0, "type": "electric_scooter", "lon": -77.03399116666667, "bike_id": "bc383622629c2a9d671def76e755b633", "fusion_lat": 0.0, "name": "bc383622629c2a9d671def76e755b633", "is_reserved": 0, "rental_uris": {"android": "https://dc.lft.to/lastmile_qr_scan", "ios": "https://dc.lft.to/lastmile_qr_scan"}, "fusion_lon": 0.0}, {"lat": 38.930390833333334, "is_disabled": 0, "type": "electric_bike", "lon": -77.07296733333334, "bike_id": "d4b62c237d7fcf6cd5f3cdfc83082897", "fusion_lat": 0.0, "name": "d4b62c237d7fcf6cd5f3cdfc83082897", "is_reserved": 0, "rental_uris": {"android": "https://dc.lft.to/lastmile_qr_scan", "ios": "https://dc.lft.to/lastmile_qr_scan"}, "fusion_lon": 0.0}, {"lat": 38.9881645, "is_disabled": 0, "type": "electric_bike", "lon": -77.02643833333333, "bike_id": "3ac0ee60c494a58c44ce6599488ab18e", "fusion_lat": 0.0, "name": "3ac0ee60c494a58c44ce6599488ab18e", "is_reserved": 0, "rental_uris": {"android": "https://dc.lft.to/lastmile_qr_scan", "ios": "https://dc.lft.to/lastmile_qr_scan"}, "fusion_lon": 0.0}, {"lat": 38.908729, "is_disabled": 0, "type": "electric_scooter", "lon": -77.03668633333334, "bike_id": "619488743a17029a20456819ebde0db7", "fusion_lat": 0.0, "name": "619488743a17029a20456819ebde0db7", "is_reserved": 0, "rental_uris": {"android": "https://dc.lft.to/lastmile_qr_scan", "ios": "https://dc.lft.to/lastmile_qr_scan"}, "fusion_lon": 0.0}, {"lat": 38.9259205, "is_disabled": 0, "type": "electric_scooter", "lon": -77.022546, "bike_id": "74e9f60436ce6b7169e37e25ed907ee8", "fusion_lat": 0.0, "name": "74e9f60436ce6b7169e37e25ed907ee8", "is_reserved": 0, "rental_uris": {"android": "https://dc.lft.to/lastmile_qr_scan", "ios": "https://dc.lft.to/lastmile_qr_scan"}, "fusion_lon": 0.0}, {"lat": 38.9008545, "is_disabled": 0, "type": "electric_scooter", "lon": -77.04931, "bike_id": "bb43cb0a73d8c84170e0e61cb344695c", "fusion_lat": 0.0, "name": "bb43cb0a73d8c84170e0e61cb344695c", "is_reserved": 0, "rental_uris": {"android": "https://dc.lft.to/lastmile_qr_scan", "ios": "https://dc.lft.to/lastmile_qr_scan"}, "fusion_lon": 0.0}, {"lat": 38.95649216666666, "is_disabled": 0, "type": "electric_scooter", "lon": -77.02396733333333, "bike_id": "85c511edb934cf08c284698fbe4d4494", "fusion_lat": 0.0, "name": "85c511edb934cf08c284698fbe4d4494", "is_reserved": 0, "rental_uris": {"android": "https://dc.lft.to/lastmile_qr_scan", "ios": "https://dc.lft.to/lastmile_qr_scan"}, "fusion_lon": 0.0}, {"lat": 38.919659333333335, "is_disabled": 0, "type": "electric_scooter", "lon": -77.02364416666667, "bike_id": "eec0202cb6ff610da5d9218415c96d57", "fusion_lat": 0.0, "name": "eec0202cb6ff610da5d9218415c96d57", "is_reserved": 0, "rental_uris": {"android": "https://dc.lft.to/lastmile_qr_scan", "ios": "https://dc.lft.to/lastmile_qr_scan"}, "fusion_lon": 0.0}, {"lat": 38.91779066666667, "is_disabled": 0, "type": "electric_scooter", "lon": -77.04336166666667, "bike_id": "d528cd8750f56b039768fe6be7379c72", "fusion_lat": 0.0, "name": "d528cd8750f56b039768fe6be7379c72", "is_reserved": 0, "rental_uris": {"android": "https://dc.lft.to/lastmile_qr_scan", "ios": "https://dc.lft.to/lastmile_qr_scan"}, "fusion_lon": 0.0}, {"lat": 38.957793833333334, "is_disabled": 0, "type": "electric_scooter", "lon": -77.02753533333333, "bike_id": "4bf2d96e20d2a781dad81cc9e252eba6", "fusion_lat": 0.0, "name": "4bf2d96e20d2a781dad81cc9e252eba6", "is_reserved": 0, "rental_uris": {"android": "https://dc.lft.to/lastmile_qr_scan", "ios": "https://dc.lft.to/lastmile_qr_scan"}, "fusion_lon": 0.0}, {"lat": 38.90344, "is_disabled": 0, "type": "electric_scooter", "lon": -77.05324433333334, "bike_id": "be34ce68a63a047cdf3199bc534d37da", "fusion_lat": 0.0, "name": "be34ce68a63a047cdf3199bc534d37da", "is_reserved": 0, "rental_uris": {"android": "https://dc.lft.to/lastmile_qr_scan", "ios": "https://dc.lft.to/lastmile_qr_scan"}, "fusion_lon": 0.0}, {"lat": 38.930667166666666, "is_disabled": 0, "type": "electric_scooter", "lon": -76.99076916666667, "bike_id": "a7d05c7ccd12eb8f3bb403bfc25c59c1", "fusion_lat": 0.0, "name": "a7d05c7ccd12eb8f3bb403bfc25c59c1", "is_reserved": 0, "rental_uris": {"android": "https://dc.lft.to/lastmile_qr_scan", "ios": "https://dc.lft.to/lastmile_qr_scan"}, "fusion_lon": 0.0}, {"lat": 38.8904805, "is_disabled": 0, "type": "electric_scooter", "lon": -76.93751516666667, "bike_id": "c263d21aea4bcaabc6d0cce98fafdfc7", "fusion_lat": 0.0, "name": "c263d21aea4bcaabc6d0cce98fafdfc7", "is_reserved": 0, "rental_uris": {"android": "https://dc.lft.to/lastmile_qr_scan", "ios": "https://dc.lft.to/lastmile_qr_scan"}, "fusion_lon": 0.0}, {"lat": 38.85049816666667, "is_disabled": 0, "type": "electric_bike", "lon": -76.9731785, "bike_id": "16f352a32be850a49d3a76977533ef7d", "fusion_lat": 0.0, "name": "16f352a32be850a49d3a76977533ef7d", "is_reserved": 0, "rental_uris": {"android": "https://dc.lft.to/lastmile_qr_scan", "ios": "https://dc.lft.to/lastmile_qr_scan"}, "fusion_lon": 0.0}, {"lat": 38.90686383333333, "is_disabled": 0, "type": "electric_scooter", "lon": -77.0375855, "bike_id": "e8c317fc0e49642459c078ddd6331e28", "fusion_lat": 0.0, "name": "e8c317fc0e49642459c078ddd6331e28", "is_reserved": 0, "rental_uris": {"android": "https://dc.lft.to/lastmile_qr_scan", "ios": "https://dc.lft.to/lastmile_qr_scan"}, "fusion_lon": 0.0}, {"lat": 38.89738933333334, "is_disabled": 0, "type": "electric_scooter", "lon": -77.04762, "bike_id": "35ca5f1041ab1cfc65901fb859cc5217", "fusion_lat": 0.0, "name": "35ca5f1041ab1cfc65901fb859cc5217", "is_reserved": 0, "rental_uris": {"android": "https://dc.lft.to/lastmile_qr_scan", "ios": "https://dc.lft.to/lastmile_qr_scan"}, "fusion_lon": 0.0}, {"lat": 38.887468, "is_disabled": 0, "type": "electric_scooter", "lon": -77.02573283333334, "bike_id": "8752777c65c894c1eeb3c62549a0f84f", "fusion_lat": 0.0, "name": "8752777c65c894c1eeb3c62549a0f84f", "is_reserved": 0, "rental_uris": {"android": "https://dc.lft.to/lastmile_qr_scan", "ios": "https://dc.lft.to/lastmile_qr_scan"}, "fusion_lon": 0.0}, {"lat": 38.89716, "is_disabled": 0, "type": "electric_scooter", "lon": -77.00795283333333, "bike_id": "65961ccca5752dc9067bb199d8914eb5", "fusion_lat": 0.0, "name": "65961ccca5752dc9067bb199d8914eb5", "is_reserved": 0, "rental_uris": {"android": "https://dc.lft.to/lastmile_qr_scan", "ios": "https://dc.lft.to/lastmile_qr_scan"}, "fusion_lon": 0.0}, {"lat": 38.9193005, "is_disabled": 0, "type": "electric_scooter", "lon": -77.02298433333333, "bike_id": "fb23a95594e7052c1d8668a8f6bd6b10", "fusion_lat": 0.0, "name": "fb23a95594e7052c1d8668a8f6bd6b10", "is_reserved": 0, "rental_uris": {"android": "https://dc.lft.to/lastmile_qr_scan", "ios": "https://dc.lft.to/lastmile_qr_scan"}, "fusion_lon": 0.0}, {"lat": 38.902631166666666, "is_disabled": 0, "type": "electric_scooter", "lon": -77.05254116666667, "bike_id": "41806f59feb17d6fe638b07d793795e8", "fusion_lat": 0.0, "name": "41806f59feb17d6fe638b07d793795e8", "is_reserved": 0, "rental_uris": {"android": "https://dc.lft.to/lastmile_qr_scan", "ios": "https://dc.lft.to/lastmile_qr_scan"}, "fusion_lon": 0.0}, {"lat": 38.92246466666667, "is_disabled": 0, "type": "electric_scooter", "lon": -77.04573716666667, "bike_id": "7dd30156256940db380d8795ff310998", "fusion_lat": 0.0, "name": "7dd30156256940db380d8795ff310998", "is_reserved": 0, "rental_uris": {"android": "https://dc.lft.to/lastmile_qr_scan", "ios": "https://dc.lft.to/lastmile_qr_scan"}, "fusion_lon": 0.0}, {"lat": 38.908265, "is_disabled": 0, "type": "electric_scooter", "lon": -77.06382816666667, "bike_id": "b57bc2c33e196366dc15e300d9dac30f", "fusion_lat": 0.0, "name": "b57bc2c33e196366dc15e300d9dac30f", "is_reserved": 0, "rental_uris": {"android": "https://dc.lft.to/lastmile_qr_scan", "ios": "https://dc.lft.to/lastmile_qr_scan"}, "fusion_lon": 0.0}, {"lat": 38.892448, "is_disabled": 0, "type": "electric_scooter", "lon": -77.03955766666667, "bike_id": "3141fcc1c38cb530999651356bf18915", "fusion_lat": 0.0, "name": "3141fcc1c38cb530999651356bf18915", "is_reserved": 0, "rental_uris": {"android": "https://dc.lft.to/lastmile_qr_scan", "ios": "https://dc.lft.to/lastmile_qr_scan"}, "fusion_lon": 0.0}, {"lat": 38.855047666666664, "is_disabled": 0, "type": "electric_bike", "lon": -77.12025516666667, "bike_id": "14f0e67e1f710d955569fd38e67e9edf", "fusion_lat": 0.0, "name": "14f0e67e1f710d955569fd38e67e9edf", "is_reserved": 0, "rental_uris": {"android": "https://dc.lft.to/lastmile_qr_scan", "ios": "https://dc.lft.to/lastmile_qr_scan"}, "fusion_lon": 0.0}, {"lat": 38.91716233333333, "is_disabled": 0, "type": "electric_scooter", "lon": -77.04152883333333, "bike_id": "9dee117bc78496d442e2024cb4b25d99", "fusion_lat": 0.0, "name": "9dee117bc78496d442e2024cb4b25d99", "is_reserved": 0, "rental_uris": {"android": "https://dc.lft.to/lastmile_qr_scan", "ios": "https://dc.lft.to/lastmile_qr_scan"}, "fusion_lon": 0.0}, {"lat": 38.9306835, "is_disabled": 0, "type": "electric_scooter", "lon": -77.03189566666667, "bike_id": "f02fcbd0152ca6af6b49d75fddc91bd7", "fusion_lat": 0.0, "name": "f02fcbd0152ca6af6b49d75fddc91bd7", "is_reserved": 0, "rental_uris": {"android": "https://dc.lft.to/lastmile_qr_scan", "ios": "https://dc.lft.to/lastmile_qr_scan"}, "fusion_lon": 0.0}, {"lat": 38.911117833333336, "is_disabled": 0, "type": "electric_scooter", "lon": -77.03827633333333, "bike_id": "5a9e1b64da9bb4d1aea8d14cd78a6af7", "fusion_lat": 0.0, "name": "5a9e1b64da9bb4d1aea8d14cd78a6af7", "is_reserved": 0, "rental_uris": {"android": "https://dc.lft.to/lastmile_qr_scan", "ios": "https://dc.lft.to/lastmile_qr_scan"}, "fusion_lon": 0.0}, {"lat": 38.90199833333333, "is_disabled": 0, "type": "electric_scooter", "lon": -77.02673583333333, "bike_id": "56ac088738e077bf0e0293232172cf39", "fusion_lat": 0.0, "name": "56ac088738e077bf0e0293232172cf39", "is_reserved": 0, "rental_uris": {"android": "https://dc.lft.to/lastmile_qr_scan", "ios": "https://dc.lft.to/lastmile_qr_scan"}, "fusion_lon": 0.0}, {"lat": 38.8519025, "is_disabled": 0, "type": "electric_bike", "lon": -76.9610785, "bike_id": "d3379d9c63cadf1b3a6ed473cbc7ff38", "fusion_lat": 0.0, "name": "d3379d9c63cadf1b3a6ed473cbc7ff38", "is_reserved": 0, "rental_uris": {"android": "https://dc.lft.to/lastmile_qr_scan", "ios": "https://dc.lft.to/lastmile_qr_scan"}, "fusion_lon": 0.0}, {"lat": 38.900768666666664, "is_disabled": 0, "type": "electric_scooter", "lon": -77.00210383333334, "bike_id": "914c26e88e9256a965b5ff3cf8e40420", "fusion_lat": 0.0, "name": "914c26e88e9256a965b5ff3cf8e40420", "is_reserved": 0, "rental_uris": {"android": "https://dc.lft.to/lastmile_qr_scan", "ios": "https://dc.lft.to/lastmile_qr_scan"}, "fusion_lon": 0.0}, {"lat": 38.922510333333335, "is_disabled": 0, "type": "electric_scooter", "lon": -77.0338475, "bike_id": "c3af85a83d3465f4dffdb476bfcd3f35", "fusion_lat": 0.0, "name": "c3af85a83d3465f4dffdb476bfcd3f35", "is_reserved": 0, "rental_uris": {"android": "https://dc.lft.to/lastmile_qr_scan", "ios": "https://dc.lft.to/lastmile_qr_scan"}, "fusion_lon": 0.0}, {"lat": 38.905574666666666, "is_disabled": 0, "type": "electric_scooter", "lon": -77.01953483333334, "bike_id": "b3e19ff85ebb519435f26fe2ac0887d5", "fusion_lat": 0.0, "name": "b3e19ff85ebb519435f26fe2ac0887d5", "is_reserved": 0, "rental_uris": {"android": "https://dc.lft.to/lastmile_qr_scan", "ios": "https://dc.lft.to/lastmile_qr_scan"}, "fusion_lon": 0.0}, {"lat": 38.94437033333333, "is_disabled": 0, "type": "electric_scooter", "lon": -77.0150715, "bike_id": "e884a6348a2a0496861b698059660daf", "fusion_lat": 0.0, "name": "e884a6348a2a0496861b698059660daf", "is_reserved": 0, "rental_uris": {"android": "https://dc.lft.to/lastmile_qr_scan", "ios": "https://dc.lft.to/lastmile_qr_scan"}, "fusion_lon": 0.0}, {"lat": 38.943909833333336, "is_disabled": 0, "type": "electric_scooter", "lon": -77.01983616666666, "bike_id": "bd1e9eb0f71600f0ecc9fff33d9a4f2b", "fusion_lat": 0.0, "name": "bd1e9eb0f71600f0ecc9fff33d9a4f2b", "is_reserved": 0, "rental_uris": {"android": "https://dc.lft.to/lastmile_qr_scan", "ios": "https://dc.lft.to/lastmile_qr_scan"}, "fusion_lon": 0.0}, {"lat": 38.83727316666667, "is_disabled": 0, "type": "electric_bike", "lon": -76.99763033333333, "bike_id": "a23be335cc98ad1533c1365b9814c8b6", "fusion_lat": 0.0, "name": "a23be335cc98ad1533c1365b9814c8b6", "is_reserved": 0, "rental_uris": {"android": "https://dc.lft.to/lastmile_qr_scan", "ios": "https://dc.lft.to/lastmile_qr_scan"}, "fusion_lon": 0.0}, {"lat": 38.9732245, "is_disabled": 0, "type": "electric_bike", "lon": -77.02287983333333, "bike_id": "aa7ec6cb732a0b76aa984386686f854e", "fusion_lat": 0.0, "name": "aa7ec6cb732a0b76aa984386686f854e", "is_reserved": 0, "rental_uris": {"android": "https://dc.lft.to/lastmile_qr_scan", "ios": "https://dc.lft.to/lastmile_qr_scan"}, "fusion_lon": 0.0}, {"lat": 38.85676483333334, "is_disabled": 0, "type": "electric_scooter", "lon": -76.9817515, "bike_id": "f0964baa24b2e2ebf0a840c466b91a46", "fusion_lat": 0.0, "name": "f0964baa24b2e2ebf0a840c466b91a46", "is_reserved": 0, "rental_uris": {"android": "https://dc.lft.to/lastmile_qr_scan", "ios": "https://dc.lft.to/lastmile_qr_scan"}, "fusion_lon": 0.0}, {"lat": 38.895469, "is_disabled": 0, "type": "electric_scooter", "lon": -77.00435333333333, "bike_id": "e6d9f30f7b7c2c1d186d5f90f97c25f3", "fusion_lat": 0.0, "name": "e6d9f30f7b7c2c1d186d5f90f97c25f3", "is_reserved": 0, "rental_uris": {"android": "https://dc.lft.to/lastmile_qr_scan", "ios": "https://dc.lft.to/lastmile_qr_scan"}, "fusion_lon": 0.0}, {"lat": 38.934112166666665, "is_disabled": 0, "type": "electric_scooter", "lon": -77.02462383333334, "bike_id": "de18160e249c7720ca95c68c131fbcfb", "fusion_lat": 0.0, "name": "de18160e249c7720ca95c68c131fbcfb", "is_reserved": 0, "rental_uris": {"android": "https://dc.lft.to/lastmile_qr_scan", "ios": "https://dc.lft.to/lastmile_qr_scan"}, "fusion_lon": 0.0}, {"lat": 38.91663366666667, "is_disabled": 0, "type": "electric_scooter", "lon": -77.047189, "bike_id": "24555679f6c2605525efb0fc208e289e", "fusion_lat": 0.0, "name": "24555679f6c2605525efb0fc208e289e", "is_reserved": 0, "rental_uris": {"android": "https://dc.lft.to/lastmile_qr_scan", "ios": "https://dc.lft.to/lastmile_qr_scan"}, "fusion_lon": 0.0}, {"lat": 38.901296333333335, "is_disabled": 0, "type": "electric_scooter", "lon": -77.02928966666667, "bike_id": "c03c4433d01ae996797f71d91e350f16", "fusion_lat": 0.0, "name": "c03c4433d01ae996797f71d91e350f16", "is_reserved": 0, "rental_uris": {"android": "https://dc.lft.to/lastmile_qr_scan", "ios": "https://dc.lft.to/lastmile_qr_scan"}, "fusion_lon": 0.0}, {"lat": 38.92037583333333, "is_disabled": 0, "type": "electric_scooter", "lon": -76.99340866666667, "bike_id": "8ea5aad4e2d833a1892b7f2dee771275", "fusion_lat": 0.0, "name": "8ea5aad4e2d833a1892b7f2dee771275", "is_reserved": 0, "rental_uris": {"android": "https://dc.lft.to/lastmile_qr_scan", "ios": "https://dc.lft.to/lastmile_qr_scan"}, "fusion_lon": 0.0}, {"lat": 38.917789666666664, "is_disabled": 0, "type": "electric_scooter", "lon": -77.0230665, "bike_id": "55b0267a30144ccd4918214989571cc1", "fusion_lat": 0.0, "name": "55b0267a30144ccd4918214989571cc1", "is_reserved": 0, "rental_uris": {"android": "https://dc.lft.to/lastmile_qr_scan", "ios": "https://dc.lft.to/lastmile_qr_scan"}, "fusion_lon": 0.0}, {"lat": 38.865066666666664, "is_disabled": 0, "type": "electric_scooter", "lon": -76.99005, "bike_id": "c948a0c304ca1a8b2bfffc90f41ba5a0", "fusion_lat": 0.0, "name": "c948a0c304ca1a8b2bfffc90f41ba5a0", "is_reserved": 0, "rental_uris": {"android": "https://dc.lft.to/lastmile_qr_scan", "ios": "https://dc.lft.to/lastmile_qr_scan"}, "fusion_lon": 0.0}, {"lat": 38.91930166666667, "is_disabled": 0, "type": "electric_scooter", "lon": -77.02508733333333, "bike_id": "55954b09d6bb906a674b7ad1ab76b5c4", "fusion_lat": 0.0, "name": "55954b09d6bb906a674b7ad1ab76b5c4", "is_reserved": 0, "rental_uris": {"android": "https://dc.lft.to/lastmile_qr_scan", "ios": "https://dc.lft.to/lastmile_qr_scan"}, "fusion_lon": 0.0}, {"lat": 38.88033266666667, "is_disabled": 0, "type": "electric_scooter", "lon": -77.02517783333333, "bike_id": "0b986efce843111698b419c3bfd800ba", "fusion_lat": 0.0, "name": "0b986efce843111698b419c3bfd800ba", "is_reserved": 0, "rental_uris": {"android": "https://dc.lft.to/lastmile_qr_scan", "ios": "https://dc.lft.to/lastmile_qr_scan"}, "fusion_lon": 0.0}, {"lat": 38.893401833333336, "is_disabled": 0, "type": "electric_scooter", "lon": -77.01231733333333, "bike_id": "877a217c618283f13c4f10fd5980688f", "fusion_lat": 0.0, "name": "877a217c618283f13c4f10fd5980688f", "is_reserved": 0, "rental_uris": {"android": "https://dc.lft.to/lastmile_qr_scan", "ios": "https://dc.lft.to/lastmile_qr_scan"}, "fusion_lon": 0.0}, {"lat": 38.90319366666667, "is_disabled": 0, "type": "electric_scooter", "lon": -77.0288475, "bike_id": "ec393413845d1c9a367053b8d510938b", "fusion_lat": 0.0, "name": "ec393413845d1c9a367053b8d510938b", "is_reserved": 0, "rental_uris": {"android": "https://dc.lft.to/lastmile_qr_scan", "ios": "https://dc.lft.to/lastmile_qr_scan"}, "fusion_lon": 0.0}, {"lat": 38.84270933333333, "is_disabled": 0, "type": "electric_bike", "lon": -76.98849433333334, "bike_id": "750e3de381bef8ddb8c3fcb8e285728d", "fusion_lat": 0.0, "name": "750e3de381bef8ddb8c3fcb8e285728d", "is_reserved": 0, "rental_uris": {"android": "https://dc.lft.to/lastmile_qr_scan", "ios": "https://dc.lft.to/lastmile_qr_scan"}, "fusion_lon": 0.0}, {"lat": 38.914737, "is_disabled": 0, "type": "electric_scooter", "lon": -77.00350333333333, "bike_id": "5193890f5b1fbb9e46149d976c941fdf", "fusion_lat": 0.0, "name": "5193890f5b1fbb9e46149d976c941fdf", "is_reserved": 0, "rental_uris": {"android": "https://dc.lft.to/lastmile_qr_scan", "ios": "https://dc.lft.to/lastmile_qr_scan"}, "fusion_lon": 0.0}, {"lat": 38.91448366666667, "is_disabled": 0, "type": "electric_scooter", "lon": -77.03197416666667, "bike_id": "9e4d651d06f4b0227ba3d28cf8e54c49", "fusion_lat": 0.0, "name": "9e4d651d06f4b0227ba3d28cf8e54c49", "is_reserved": 0, "rental_uris": {"android": "https://dc.lft.to/lastmile_qr_scan", "ios": "https://dc.lft.to/lastmile_qr_scan"}, "fusion_lon": 0.0}, {"lat": 38.9865045, "is_disabled": 0, "type": "electric_bike", "lon": -77.05629433333333, "bike_id": "781b969705b6a6108318b14eaf1a5cb1", "fusion_lat": 0.0, "name": "781b969705b6a6108318b14eaf1a5cb1", "is_reserved": 0, "rental_uris": {"android": "https://dc.lft.to/lastmile_qr_scan", "ios": "https://dc.lft.to/lastmile_qr_scan"}, "fusion_lon": 0.0}, {"lat": 38.91027316666667, "is_disabled": 0, "type": "electric_scooter", "lon": -77.034476, "bike_id": "6476535e4734a84b31526f01d51cd6aa", "fusion_lat": 0.0, "name": "6476535e4734a84b31526f01d51cd6aa", "is_reserved": 0, "rental_uris": {"android": "https://dc.lft.to/lastmile_qr_scan", "ios": "https://dc.lft.to/lastmile_qr_scan"}, "fusion_lon": 0.0}, {"lat": 38.92191433333333, "is_disabled": 0, "type": "electric_scooter", "lon": -77.03978516666666, "bike_id": "25ed6e4191f2a5aba5875a9d2e72d0cb", "fusion_lat": 0.0, "name": "25ed6e4191f2a5aba5875a9d2e72d0cb", "is_reserved": 0, "rental_uris": {"android": "https://dc.lft.to/lastmile_qr_scan", "ios": "https://dc.lft.to/lastmile_qr_scan"}, "fusion_lon": 0.0}, {"lat": 38.9248095, "is_disabled": 0, "type": "electric_scooter", "lon": -77.02830883333333, "bike_id": "31afa2f821fcba473dd09da17c2bec3b", "fusion_lat": 0.0, "name": "31afa2f821fcba473dd09da17c2bec3b", "is_reserved": 0, "rental_uris": {"android": "https://dc.lft.to/lastmile_qr_scan", "ios": "https://dc.lft.to/lastmile_qr_scan"}, "fusion_lon": 0.0}, {"lat": 38.8442825, "is_disabled": 0, "type": "electric_scooter", "lon": -76.99775366666667, "bike_id": "e5be796b02d275ec9bcd7afc4f7bff2c", "fusion_lat": 0.0, "name": "e5be796b02d275ec9bcd7afc4f7bff2c", "is_reserved": 0, "rental_uris": {"android": "https://dc.lft.to/lastmile_qr_scan", "ios": "https://dc.lft.to/lastmile_qr_scan"}, "fusion_lon": 0.0}, {"lat": 38.87689866666667, "is_disabled": 0, "type": "electric_scooter", "lon": -77.0067135, "bike_id": "80d68ae56a5fe3134fc3a0dfd33cdb4e", "fusion_lat": 0.0, "name": "80d68ae56a5fe3134fc3a0dfd33cdb4e", "is_reserved": 0, "rental_uris": {"android": "https://dc.lft.to/lastmile_qr_scan", "ios": "https://dc.lft.to/lastmile_qr_scan"}, "fusion_lon": 0.0}, {"lat": 38.90770083333334, "is_disabled": 0, "type": "electric_scooter", "lon": -77.038601, "bike_id": "6f9526a2a9624b6135412ede3737dacb", "fusion_lat": 0.0, "name": "6f9526a2a9624b6135412ede3737dacb", "is_reserved": 0, "rental_uris": {"android": "https://dc.lft.to/lastmile_qr_scan", "ios": "https://dc.lft.to/lastmile_qr_scan"}, "fusion_lon": 0.0}, {"lat": 38.92014283333334, "is_disabled": 0, "type": "electric_scooter", "lon": -77.04186383333334, "bike_id": "1986050a14b3a3a5eb90192d2222983c", "fusion_lat": 0.0, "name": "1986050a14b3a3a5eb90192d2222983c", "is_reserved": 0, "rental_uris": {"android": "https://dc.lft.to/lastmile_qr_scan", "ios": "https://dc.lft.to/lastmile_qr_scan"}, "fusion_lon": 0.0}, {"lat": 38.91690583333333, "is_disabled": 0, "type": "electric_scooter", "lon": -77.025949, "bike_id": "b86ff2bb4f3c2736d8801ccce10f0de0", "fusion_lat": 0.0, "name": "b86ff2bb4f3c2736d8801ccce10f0de0", "is_reserved": 0, "rental_uris": {"android": "https://dc.lft.to/lastmile_qr_scan", "ios": "https://dc.lft.to/lastmile_qr_scan"}, "fusion_lon": 0.0}, {"lat": 38.9322765, "is_disabled": 0, "type": "electric_scooter", "lon": -77.044136, "bike_id": "463561e3c1be27abd086670886733302", "fusion_lat": 0.0, "name": "463561e3c1be27abd086670886733302", "is_reserved": 0, "rental_uris": {"android": "https://dc.lft.to/lastmile_qr_scan", "ios": "https://dc.lft.to/lastmile_qr_scan"}, "fusion_lon": 0.0}, {"lat": 38.8659495, "is_disabled": 0, "type": "electric_bike", "lon": -76.93226983333334, "bike_id": "877ddd32f768585d4d1dcd089afd4e9c", "fusion_lat": 0.0, "name": "877ddd32f768585d4d1dcd089afd4e9c", "is_reserved": 0, "rental_uris": {"android": "https://dc.lft.to/lastmile_qr_scan", "ios": "https://dc.lft.to/lastmile_qr_scan"}, "fusion_lon": 0.0}, {"lat": 38.82004, "is_disabled": 0, "type": "electric_bike", "lon": -77.05764916666666, "bike_id": "4952a57d73c400a85323e9c527cfc271", "fusion_lat": 0.0, "name": "4952a57d73c400a85323e9c527cfc271", "is_reserved": 0, "rental_uris": {"android": "https://dc.lft.to/lastmile_qr_scan", "ios": "https://dc.lft.to/lastmile_qr_scan"}, "fusion_lon": 0.0}, {"lat": 38.95740983333334, "is_disabled": 0, "type": "electric_bike", "lon": -77.02161533333333, "bike_id": "bf2940ab8acda81291d74dd3d4b2f26b", "fusion_lat": 0.0, "name": "bf2940ab8acda81291d74dd3d4b2f26b", "is_reserved": 0, "rental_uris": {"android": "https://dc.lft.to/lastmile_qr_scan", "ios": "https://dc.lft.to/lastmile_qr_scan"}, "fusion_lon": 0.0}, {"lat": 38.885249, "is_disabled": 0, "type": "electric_scooter", "lon": -77.01497183333333, "bike_id": "280caee37fa6382353a037d1b8ce5afd", "fusion_lat": 0.0, "name": "280caee37fa6382353a037d1b8ce5afd", "is_reserved": 0, "rental_uris": {"android": "https://dc.lft.to/lastmile_qr_scan", "ios": "https://dc.lft.to/lastmile_qr_scan"}, "fusion_lon": 0.0}, {"lat": 38.92168316666667, "is_disabled": 0, "type": "electric_scooter", "lon": -77.05135616666666, "bike_id": "8294a5d5c6d499105d8444fc7d44a58f", "fusion_lat": 0.0, "name": "8294a5d5c6d499105d8444fc7d44a58f", "is_reserved": 0, "rental_uris": {"android": "https://dc.lft.to/lastmile_qr_scan", "ios": "https://dc.lft.to/lastmile_qr_scan"}, "fusion_lon": 0.0}, {"lat": 38.8521775, "is_disabled": 0, "type": "electric_bike", "lon": -77.12950216666667, "bike_id": "38f2079467fc7bb5fc3ebbb81fb28bd1", "fusion_lat": 0.0, "name": "38f2079467fc7bb5fc3ebbb81fb28bd1", "is_reserved": 0, "rental_uris": {"android": "https://dc.lft.to/lastmile_qr_scan", "ios": "https://dc.lft.to/lastmile_qr_scan"}, "fusion_lon": 0.0}, {"lat": 38.934503, "is_disabled": 0, "type": "electric_scooter", "lon": -77.03238866666666, "bike_id": "7a156a525149d697feddc376386605f1", "fusion_lat": 0.0, "name": "7a156a525149d697feddc376386605f1", "is_reserved": 0, "rental_uris": {"android": "https://dc.lft.to/lastmile_qr_scan", "ios": "https://dc.lft.to/lastmile_qr_scan"}, "fusion_lon": 0.0}, {"lat": 38.91761433333333, "is_disabled": 0, "type": "electric_scooter", "lon": -77.00450216666667, "bike_id": "00589e3c925a12163b0b2dbc255b3c9e", "fusion_lat": 0.0, "name": "00589e3c925a12163b0b2dbc255b3c9e", "is_reserved": 0, "rental_uris": {"android": "https://dc.lft.to/lastmile_qr_scan", "ios": "https://dc.lft.to/lastmile_qr_scan"}, "fusion_lon": 0.0}, {"lat": 38.8921975, "is_disabled": 0, "type": "electric_scooter", "lon": -77.04864533333334, "bike_id": "6aaeb4aea7d0c6b46e2a48c4f2b38188", "fusion_lat": 0.0, "name": "6aaeb4aea7d0c6b46e2a48c4f2b38188", "is_reserved": 0, "rental_uris": {"android": "https://dc.lft.to/lastmile_qr_scan", "ios": "https://dc.lft.to/lastmile_qr_scan"}, "fusion_lon": 0.0}, {"lat": 38.865205833333334, "is_disabled": 0, "type": "electric_scooter", "lon": -76.990308, "bike_id": "f58d00b002f0f4a0af8b403330891246", "fusion_lat": 0.0, "name": "f58d00b002f0f4a0af8b403330891246", "is_reserved": 0, "rental_uris": {"android": "https://dc.lft.to/lastmile_qr_scan", "ios": "https://dc.lft.to/lastmile_qr_scan"}, "fusion_lon": 0.0}, {"lat": 38.897337666666665, "is_disabled": 0, "type": "electric_scooter", "lon": -77.02458316666667, "bike_id": "825653447d14bef28ca432fcfb5fecf3", "fusion_lat": 0.0, "name": "825653447d14bef28ca432fcfb5fecf3", "is_reserved": 0, "rental_uris": {"android": "https://dc.lft.to/lastmile_qr_scan", "ios": "https://dc.lft.to/lastmile_qr_scan"}, "fusion_lon": 0.0}, {"lat": 38.9216035, "is_disabled": 0, "type": "electric_scooter", "lon": -77.04016583333333, "bike_id": "1d06a8be46aecc5a924ec4d2eba3ebe9", "fusion_lat": 0.0, "name": "1d06a8be46aecc5a924ec4d2eba3ebe9", "is_reserved": 0, "rental_uris": {"android": "https://dc.lft.to/lastmile_qr_scan", "ios": "https://dc.lft.to/lastmile_qr_scan"}, "fusion_lon": 0.0}, {"lat": 38.910007, "is_disabled": 0, "type": "electric_scooter", "lon": -77.0400615, "bike_id": "66e4c03ac36aa42448387f24c912c03f", "fusion_lat": 0.0, "name": "66e4c03ac36aa42448387f24c912c03f", "is_reserved": 0, "rental_uris": {"android": "https://dc.lft.to/lastmile_qr_scan", "ios": "https://dc.lft.to/lastmile_qr_scan"}, "fusion_lon": 0.0}, {"lat": 38.900614, "is_disabled": 0, "type": "electric_scooter", "lon": -77.00746466666666, "bike_id": "f44498513331f2f0e68990852097bc82", "fusion_lat": 0.0, "name": "f44498513331f2f0e68990852097bc82", "is_reserved": 0, "rental_uris": {"android": "https://dc.lft.to/lastmile_qr_scan", "ios": "https://dc.lft.to/lastmile_qr_scan"}, "fusion_lon": 0.0}, {"lat": 38.95558183333333, "is_disabled": 0, "type": "electric_scooter", "lon": -77.02227566666667, "bike_id": "e795507fe7d6b15520092504d75b4108", "fusion_lat": 0.0, "name": "e795507fe7d6b15520092504d75b4108", "is_reserved": 0, "rental_uris": {"android": "https://dc.lft.to/lastmile_qr_scan", "ios": "https://dc.lft.to/lastmile_qr_scan"}, "fusion_lon": 0.0}, {"lat": 38.909177, "is_disabled": 0, "type": "electric_scooter", "lon": -77.0364385, "bike_id": "114ddc41ebf06828c3df0ded6bbcc8ed", "fusion_lat": 0.0, "name": "114ddc41ebf06828c3df0ded6bbcc8ed", "is_reserved": 0, "rental_uris": {"android": "https://dc.lft.to/lastmile_qr_scan", "ios": "https://dc.lft.to/lastmile_qr_scan"}, "fusion_lon": 0.0}, {"lat": 38.86563233333333, "is_disabled": 0, "type": "electric_scooter", "lon": -76.9895045, "bike_id": "b85003109d429711caae657aa3c06c62", "fusion_lat": 0.0, "name": "b85003109d429711caae657aa3c06c62", "is_reserved": 0, "rental_uris": {"android": "https://dc.lft.to/lastmile_qr_scan", "ios": "https://dc.lft.to/lastmile_qr_scan"}, "fusion_lon": 0.0}, {"lat": 38.907659333333335, "is_disabled": 0, "type": "electric_scooter", "lon": -76.98304233333333, "bike_id": "26560e2a8042b37e7622781d90aa496e", "fusion_lat": 0.0, "name": "26560e2a8042b37e7622781d90aa496e", "is_reserved": 0, "rental_uris": {"android": "https://dc.lft.to/lastmile_qr_scan", "ios": "https://dc.lft.to/lastmile_qr_scan"}, "fusion_lon": 0.0}, {"lat": 38.8714955, "is_disabled": 0, "type": "electric_bike", "lon": -76.9370475, "bike_id": "d745b0d094fa49296f1e58099771dc3c", "fusion_lat": 0.0, "name": "d745b0d094fa49296f1e58099771dc3c", "is_reserved": 0, "rental_uris": {"android": "https://dc.lft.to/lastmile_qr_scan", "ios": "https://dc.lft.to/lastmile_qr_scan"}, "fusion_lon": 0.0}, {"lat": 38.961350333333336, "is_disabled": 0, "type": "electric_scooter", "lon": -77.02229416666667, "bike_id": "d0454fdd5639b0470e7c7272438a194e", "fusion_lat": 0.0, "name": "d0454fdd5639b0470e7c7272438a194e", "is_reserved": 0, "rental_uris": {"android": "https://dc.lft.to/lastmile_qr_scan", "ios": "https://dc.lft.to/lastmile_qr_scan"}, "fusion_lon": 0.0}, {"lat": 38.916189833333334, "is_disabled": 0, "type": "electric_scooter", "lon": -77.023022, "bike_id": "0a49f68e8a97c1945783d13fa563a480", "fusion_lat": 0.0, "name": "0a49f68e8a97c1945783d13fa563a480", "is_reserved": 0, "rental_uris": {"android": "https://dc.lft.to/lastmile_qr_scan", "ios": "https://dc.lft.to/lastmile_qr_scan"}, "fusion_lon": 0.0}, {"lat": 38.922716666666666, "is_disabled": 0, "type": "electric_scooter", "lon": -77.0223555, "bike_id": "6fd29666322ca23f02d145a9e39edaac", "fusion_lat": 0.0, "name": "6fd29666322ca23f02d145a9e39edaac", "is_reserved": 0, "rental_uris": {"android": "https://dc.lft.to/lastmile_qr_scan", "ios": "https://dc.lft.to/lastmile_qr_scan"}, "fusion_lon": 0.0}, {"lat": 38.887693, "is_disabled": 0, "type": "electric_scooter", "lon": -77.03321616666666, "bike_id": "c4be0f8ce892c46a921c8e702b4eeec2", "fusion_lat": 0.0, "name": "c4be0f8ce892c46a921c8e702b4eeec2", "is_reserved": 0, "rental_uris": {"android": "https://dc.lft.to/lastmile_qr_scan", "ios": "https://dc.lft.to/lastmile_qr_scan"}, "fusion_lon": 0.0}, {"lat": 38.929784833333336, "is_disabled": 0, "type": "electric_scooter", "lon": -77.01299333333333, "bike_id": "7dc7d579e71dd79fa11097e4a08606c3", "fusion_lat": 0.0, "name": "7dc7d579e71dd79fa11097e4a08606c3", "is_reserved": 0, "rental_uris": {"android": "https://dc.lft.to/lastmile_qr_scan", "ios": "https://dc.lft.to/lastmile_qr_scan"}, "fusion_lon": 0.0}, {"lat": 38.90672633333333, "is_disabled": 0, "type": "electric_scooter", "lon": -77.03854716666666, "bike_id": "4063afe3179f0f5a12d2ed92f1eb1719", "fusion_lat": 0.0, "name": "4063afe3179f0f5a12d2ed92f1eb1719", "is_reserved": 0, "rental_uris": {"android": "https://dc.lft.to/lastmile_qr_scan", "ios": "https://dc.lft.to/lastmile_qr_scan"}, "fusion_lon": 0.0}, {"lat": 38.91766366666667, "is_disabled": 0, "type": "electric_scooter", "lon": -77.0149235, "bike_id": "5ad1bb552bf133172ecb4f3b519190ea", "fusion_lat": 0.0, "name": "5ad1bb552bf133172ecb4f3b519190ea", "is_reserved": 0, "rental_uris": {"android": "https://dc.lft.to/lastmile_qr_scan", "ios": "https://dc.lft.to/lastmile_qr_scan"}, "fusion_lon": 0.0}, {"lat": 38.85715283333333, "is_disabled": 0, "type": "electric_bike", "lon": -76.97110533333333, "bike_id": "f0f3f0c7c8fed68ebcb9065c70359ab0", "fusion_lat": 0.0, "name": "f0f3f0c7c8fed68ebcb9065c70359ab0", "is_reserved": 0, "rental_uris": {"android": "https://dc.lft.to/lastmile_qr_scan", "ios": "https://dc.lft.to/lastmile_qr_scan"}, "fusion_lon": 0.0}, {"lat": 38.917036, "is_disabled": 0, "type": "electric_scooter", "lon": -77.03217633333334, "bike_id": "3635823ca060ff33b7909c47ce852fba", "fusion_lat": 0.0, "name": "3635823ca060ff33b7909c47ce852fba", "is_reserved": 0, "rental_uris": {"android": "https://dc.lft.to/lastmile_qr_scan", "ios": "https://dc.lft.to/lastmile_qr_scan"}, "fusion_lon": 0.0}, {"lat": 38.866979666666666, "is_disabled": 0, "type": "electric_scooter", "lon": -76.9870605, "bike_id": "85dbfbc0237506f96a7faab01c93ca71", "fusion_lat": 0.0, "name": "85dbfbc0237506f96a7faab01c93ca71", "is_reserved": 0, "rental_uris": {"android": "https://dc.lft.to/lastmile_qr_scan", "ios": "https://dc.lft.to/lastmile_qr_scan"}, "fusion_lon": 0.0}, {"lat": 38.905588, "is_disabled": 0, "type": "electric_scooter", "lon": -77.01772283333334, "bike_id": "6061fb18c8fdff45a84d3dea441606dd", "fusion_lat": 0.0, "name": "6061fb18c8fdff45a84d3dea441606dd", "is_reserved": 0, "rental_uris": {"android": "https://dc.lft.to/lastmile_qr_scan", "ios": "https://dc.lft.to/lastmile_qr_scan"}, "fusion_lon": 0.0}, {"lat": 38.878484, "is_disabled": 0, "type": "electric_scooter", "lon": -77.02280966666666, "bike_id": "12e0eb127e546ff8a0cf6f00b08d477a", "fusion_lat": 0.0, "name": "12e0eb127e546ff8a0cf6f00b08d477a", "is_reserved": 0, "rental_uris": {"android": "https://dc.lft.to/lastmile_qr_scan", "ios": "https://dc.lft.to/lastmile_qr_scan"}, "fusion_lon": 0.0}, {"lat": 38.861692, "is_disabled": 0, "type": "electric_bike", "lon": -77.131448, "bike_id": "bfa6c784f7cdb3a0257fd6987e267cfc", "fusion_lat": 0.0, "name": "bfa6c784f7cdb3a0257fd6987e267cfc", "is_reserved": 0, "rental_uris": {"android": "https://dc.lft.to/lastmile_qr_scan", "ios": "https://dc.lft.to/lastmile_qr_scan"}, "fusion_lon": 0.0}, {"lat": 38.917967166666664, "is_disabled": 0, "type": "electric_bike", "lon": -76.97190833333333, "bike_id": "c301c3b4f54629ee1c7001e72b12f7a5", "fusion_lat": 0.0, "name": "c301c3b4f54629ee1c7001e72b12f7a5", "is_reserved": 0, "rental_uris": {"android": "https://dc.lft.to/lastmile_qr_scan", "ios": "https://dc.lft.to/lastmile_qr_scan"}, "fusion_lon": 0.0}, {"lat": 38.917424833333335, "is_disabled": 0, "type": "electric_scooter", "lon": -77.03184566666667, "bike_id": "468013420a302db8af671d837573ad4d", "fusion_lat": 0.0, "name": "468013420a302db8af671d837573ad4d", "is_reserved": 0, "rental_uris": {"android": "https://dc.lft.to/lastmile_qr_scan", "ios": "https://dc.lft.to/lastmile_qr_scan"}, "fusion_lon": 0.0}, {"lat": 38.956061, "is_disabled": 0, "type": "electric_scooter", "lon": -77.01008233333333, "bike_id": "d3900eafd8dea47c51b04ad5ab5b6e53", "fusion_lat": 0.0, "name": "d3900eafd8dea47c51b04ad5ab5b6e53", "is_reserved": 0, "rental_uris": {"android": "https://dc.lft.to/lastmile_qr_scan", "ios": "https://dc.lft.to/lastmile_qr_scan"}, "fusion_lon": 0.0}, {"lat": 38.84428233333333, "is_disabled": 0, "type": "electric_scooter", "lon": -76.99780266666667, "bike_id": "3e1608b0c5faab2adacdd22e256be228", "fusion_lat": 0.0, "name": "3e1608b0c5faab2adacdd22e256be228", "is_reserved": 0, "rental_uris": {"android": "https://dc.lft.to/lastmile_qr_scan", "ios": "https://dc.lft.to/lastmile_qr_scan"}, "fusion_lon": 0.0}, {"lat": 38.80497066666667, "is_disabled": 0, "type": "electric_bike", "lon": -77.04128133333333, "bike_id": "a8067ffc7fda185040864c9e9531b48f", "fusion_lat": 0.0, "name": "a8067ffc7fda185040864c9e9531b48f", "is_reserved": 0, "rental_uris": {"android": "https://dc.lft.to/lastmile_qr_scan", "ios": "https://dc.lft.to/lastmile_qr_scan"}, "fusion_lon": 0.0}, {"lat": 38.907676, "is_disabled": 0, "type": "electric_scooter", "lon": -77.00223983333333, "bike_id": "05376c07561f8368190336747a96598d", "fusion_lat": 0.0, "name": "05376c07561f8368190336747a96598d", "is_reserved": 0, "rental_uris": {"android": "https://dc.lft.to/lastmile_qr_scan", "ios": "https://dc.lft.to/lastmile_qr_scan"}, "fusion_lon": 0.0}, {"lat": 38.9381345, "is_disabled": 0, "type": "electric_bike", "lon": -76.99034, "bike_id": "d7aec8066656d735874c814007b0ff46", "fusion_lat": 0.0, "name": "d7aec8066656d735874c814007b0ff46", "is_reserved": 0, "rental_uris": {"android": "https://dc.lft.to/lastmile_qr_scan", "ios": "https://dc.lft.to/lastmile_qr_scan"}, "fusion_lon": 0.0}, {"lat": 38.84546683333333, "is_disabled": 0, "type": "electric_bike", "lon": -76.99062016666667, "bike_id": "42624fde2f8bd0f4c1696e4d50b016e6", "fusion_lat": 0.0, "name": "42624fde2f8bd0f4c1696e4d50b016e6", "is_reserved": 0, "rental_uris": {"android": "https://dc.lft.to/lastmile_qr_scan", "ios": "https://dc.lft.to/lastmile_qr_scan"}, "fusion_lon": 0.0}, {"lat": 38.93337183333333, "is_disabled": 0, "type": "electric_scooter", "lon": -76.9930755, "bike_id": "77888421090920a9a6d1dd15415ce4de", "fusion_lat": 0.0, "name": "77888421090920a9a6d1dd15415ce4de", "is_reserved": 0, "rental_uris": {"android": "https://dc.lft.to/lastmile_qr_scan", "ios": "https://dc.lft.to/lastmile_qr_scan"}, "fusion_lon": 0.0}, {"lat": 38.866187333333336, "is_disabled": 0, "type": "electric_scooter", "lon": -76.98642083333333, "bike_id": "764293a06942feeb26d54bf8d2294ee4", "fusion_lat": 0.0, "name": "764293a06942feeb26d54bf8d2294ee4", "is_reserved": 0, "rental_uris": {"android": "https://dc.lft.to/lastmile_qr_scan", "ios": "https://dc.lft.to/lastmile_qr_scan"}, "fusion_lon": 0.0}, {"lat": 38.9129095, "is_disabled": 0, "type": "electric_scooter", "lon": -77.03850383333334, "bike_id": "ff20b6073902683b8bc5fae2eabf6db3", "fusion_lat": 0.0, "name": "ff20b6073902683b8bc5fae2eabf6db3", "is_reserved": 0, "rental_uris": {"android": "https://dc.lft.to/lastmile_qr_scan", "ios": "https://dc.lft.to/lastmile_qr_scan"}, "fusion_lon": 0.0}, {"lat": 38.91833466666667, "is_disabled": 0, "type": "electric_scooter", "lon": -77.02303516666667, "bike_id": "6db9db4a56df204ab5b13ed0f00de26d", "fusion_lat": 0.0, "name": "6db9db4a56df204ab5b13ed0f00de26d", "is_reserved": 0, "rental_uris": {"android": "https://dc.lft.to/lastmile_qr_scan", "ios": "https://dc.lft.to/lastmile_qr_scan"}, "fusion_lon": 0.0}, {"lat": 38.92125633333333, "is_disabled": 0, "type": "electric_scooter", "lon": -77.04117883333333, "bike_id": "8a77449b7ae6177859d8102141255732", "fusion_lat": 0.0, "name": "8a77449b7ae6177859d8102141255732", "is_reserved": 0, "rental_uris": {"android": "https://dc.lft.to/lastmile_qr_scan", "ios": "https://dc.lft.to/lastmile_qr_scan"}, "fusion_lon": 0.0}, {"lat": 38.89751116666667, "is_disabled": 0, "type": "electric_scooter", "lon": -77.05497666666666, "bike_id": "cd915d3a515d3f37a6ab92f40fcafd61", "fusion_lat": 0.0, "name": "cd915d3a515d3f37a6ab92f40fcafd61", "is_reserved": 0, "rental_uris": {"android": "https://dc.lft.to/lastmile_qr_scan", "ios": "https://dc.lft.to/lastmile_qr_scan"}, "fusion_lon": 0.0}, {"lat": 38.93747883333333, "is_disabled": 0, "type": "electric_scooter", "lon": -77.03452466666667, "bike_id": "cbafcf37f2c94cdfd97e86e5b5263f1e", "fusion_lat": 0.0, "name": "cbafcf37f2c94cdfd97e86e5b5263f1e", "is_reserved": 0, "rental_uris": {"android": "https://dc.lft.to/lastmile_qr_scan", "ios": "https://dc.lft.to/lastmile_qr_scan"}, "fusion_lon": 0.0}, {"lat": 38.913295166666664, "is_disabled": 0, "type": "electric_scooter", "lon": -77.03182516666666, "bike_id": "a5a0d323d7076554b4ad0cdae9ae9a86", "fusion_lat": 0.0, "name": "a5a0d323d7076554b4ad0cdae9ae9a86", "is_reserved": 0, "rental_uris": {"android": "https://dc.lft.to/lastmile_qr_scan", "ios": "https://dc.lft.to/lastmile_qr_scan"}, "fusion_lon": 0.0}, {"lat": 38.914204166666664, "is_disabled": 0, "type": "electric_scooter", "lon": -77.03179533333333, "bike_id": "6b6586e925cc432e00702715de73e973", "fusion_lat": 0.0, "name": "6b6586e925cc432e00702715de73e973", "is_reserved": 0, "rental_uris": {"android": "https://dc.lft.to/lastmile_qr_scan", "ios": "https://dc.lft.to/lastmile_qr_scan"}, "fusion_lon": 0.0}, {"lat": 38.90642866666666, "is_disabled": 0, "type": "electric_scooter", "lon": -76.99021116666667, "bike_id": "f6aa9ee192163d0d8d9e0e8781b7cffc", "fusion_lat": 0.0, "name": "f6aa9ee192163d0d8d9e0e8781b7cffc", "is_reserved": 0, "rental_uris": {"android": "https://dc.lft.to/lastmile_qr_scan", "ios": "https://dc.lft.to/lastmile_qr_scan"}, "fusion_lon": 0.0}, {"lat": 38.915376, "is_disabled": 0, "type": "electric_scooter", "lon": -77.032062, "bike_id": "0460eeaa5fecc2dccebc7fd7c811f401", "fusion_lat": 0.0, "name": "0460eeaa5fecc2dccebc7fd7c811f401", "is_reserved": 0, "rental_uris": {"android": "https://dc.lft.to/lastmile_qr_scan", "ios": "https://dc.lft.to/lastmile_qr_scan"}, "fusion_lon": 0.0}, {"lat": 38.858055, "is_disabled": 0, "type": "electric_scooter", "lon": -76.98648866666667, "bike_id": "5e70323d810a1cf999c05d715709913b", "fusion_lat": 0.0, "name": "5e70323d810a1cf999c05d715709913b", "is_reserved": 0, "rental_uris": {"android": "https://dc.lft.to/lastmile_qr_scan", "ios": "https://dc.lft.to/lastmile_qr_scan"}, "fusion_lon": 0.0}, {"lat": 38.901382, "is_disabled": 0, "type": "electric_scooter", "lon": -77.0327525, "bike_id": "28a3290ac97255f39d0c4430e2e962c1", "fusion_lat": 0.0, "name": "28a3290ac97255f39d0c4430e2e962c1", "is_reserved": 0, "rental_uris": {"android": "https://dc.lft.to/lastmile_qr_scan", "ios": "https://dc.lft.to/lastmile_qr_scan"}, "fusion_lon": 0.0}, {"lat": 38.907308666666665, "is_disabled": 0, "type": "electric_bike", "lon": -77.01069583333333, "bike_id": "378419e48edf64b8e77b3b3a14110d7c", "fusion_lat": 0.0, "name": "378419e48edf64b8e77b3b3a14110d7c", "is_reserved": 0, "rental_uris": {"android": "https://dc.lft.to/lastmile_qr_scan", "ios": "https://dc.lft.to/lastmile_qr_scan"}, "fusion_lon": 0.0}, {"lat": 38.96605566666667, "is_disabled": 0, "type": "electric_scooter", "lon": -77.02050916666667, "bike_id": "58cbeed3aefca769247c01b579c23da5", "fusion_lat": 0.0, "name": "58cbeed3aefca769247c01b579c23da5", "is_reserved": 0, "rental_uris": {"android": "https://dc.lft.to/lastmile_qr_scan", "ios": "https://dc.lft.to/lastmile_qr_scan"}, "fusion_lon": 0.0}, {"lat": 38.911745333333336, "is_disabled": 0, "type": "electric_scooter", "lon": -77.03186883333333, "bike_id": "f6ba98fcdcc66accf2ea7a689e8d1b4d", "fusion_lat": 0.0, "name": "f6ba98fcdcc66accf2ea7a689e8d1b4d", "is_reserved": 0, "rental_uris": {"android": "https://dc.lft.to/lastmile_qr_scan", "ios": "https://dc.lft.to/lastmile_qr_scan"}, "fusion_lon": 0.0}, {"lat": 38.93382616666667, "is_disabled": 0, "type": "electric_scooter", "lon": -77.032535, "bike_id": "8a0f0cac50aa03b3a90204fcb6b6972d", "fusion_lat": 0.0, "name": "8a0f0cac50aa03b3a90204fcb6b6972d", "is_reserved": 0, "rental_uris": {"android": "https://dc.lft.to/lastmile_qr_scan", "ios": "https://dc.lft.to/lastmile_qr_scan"}, "fusion_lon": 0.0}, {"lat": 38.92254116666667, "is_disabled": 0, "type": "electric_scooter", "lon": -77.02344716666667, "bike_id": "3acbba6cb43cdf7c819a30e497037130", "fusion_lat": 0.0, "name": "3acbba6cb43cdf7c819a30e497037130", "is_reserved": 0, "rental_uris": {"android": "https://dc.lft.to/lastmile_qr_scan", "ios": "https://dc.lft.to/lastmile_qr_scan"}, "fusion_lon": 0.0}, {"lat": 38.9273105, "is_disabled": 0, "type": "electric_scooter", "lon": -77.02244216666666, "bike_id": "8ae0f434d924117d66959b313edc13de", "fusion_lat": 0.0, "name": "8ae0f434d924117d66959b313edc13de", "is_reserved": 0, "rental_uris": {"android": "https://dc.lft.to/lastmile_qr_scan", "ios": "https://dc.lft.to/lastmile_qr_scan"}, "fusion_lon": 0.0}, {"lat": 38.91314, "is_disabled": 0, "type": "electric_scooter", "lon": -77.04476983333333, "bike_id": "654fb8c1e7c6c664d3922abc31b95bea", "fusion_lat": 0.0, "name": "654fb8c1e7c6c664d3922abc31b95bea", "is_reserved": 0, "rental_uris": {"android": "https://dc.lft.to/lastmile_qr_scan", "ios": "https://dc.lft.to/lastmile_qr_scan"}, "fusion_lon": 0.0}, {"lat": 38.8859185, "is_disabled": 0, "type": "electric_scooter", "lon": -77.02204183333333, "bike_id": "a241b1d232d94a30a41956977fb6da78", "fusion_lat": 0.0, "name": "a241b1d232d94a30a41956977fb6da78", "is_reserved": 0, "rental_uris": {"android": "https://dc.lft.to/lastmile_qr_scan", "ios": "https://dc.lft.to/lastmile_qr_scan"}, "fusion_lon": 0.0}, {"lat": 38.90423033333333, "is_disabled": 0, "type": "electric_scooter", "lon": -77.0531365, "bike_id": "dd2cdb8aecfe783994dc358e8ca3dc60", "fusion_lat": 0.0, "name": "dd2cdb8aecfe783994dc358e8ca3dc60", "is_reserved": 0, "rental_uris": {"android": "https://dc.lft.to/lastmile_qr_scan", "ios": "https://dc.lft.to/lastmile_qr_scan"}, "fusion_lon": 0.0}, {"lat": 38.926735, "is_disabled": 0, "type": "electric_scooter", "lon": -77.01528516666667, "bike_id": "1547f7b8aac38f13dd90dafea1b9589d", "fusion_lat": 0.0, "name": "1547f7b8aac38f13dd90dafea1b9589d", "is_reserved": 0, "rental_uris": {"android": "https://dc.lft.to/lastmile_qr_scan", "ios": "https://dc.lft.to/lastmile_qr_scan"}, "fusion_lon": 0.0}, {"lat": 38.914127, "is_disabled": 0, "type": "electric_scooter", "lon": -77.0294425, "bike_id": "d83c288a1386eaad1d30d0ead925b65a", "fusion_lat": 0.0, "name": "d83c288a1386eaad1d30d0ead925b65a", "is_reserved": 0, "rental_uris": {"android": "https://dc.lft.to/lastmile_qr_scan", "ios": "https://dc.lft.to/lastmile_qr_scan"}, "fusion_lon": 0.0}, {"lat": 38.90269116666666, "is_disabled": 0, "type": "electric_scooter", "lon": -77.0363145, "bike_id": "3d959b33abe98103e0bd283ab4bcb302", "fusion_lat": 0.0, "name": "3d959b33abe98103e0bd283ab4bcb302", "is_reserved": 0, "rental_uris": {"android": "https://dc.lft.to/lastmile_qr_scan", "ios": "https://dc.lft.to/lastmile_qr_scan"}, "fusion_lon": 0.0}, {"lat": 38.9231925, "is_disabled": 0, "type": "electric_scooter", "lon": -77.03636366666667, "bike_id": "dd0832ab7c88efca638bde99e3d33a12", "fusion_lat": 0.0, "name": "dd0832ab7c88efca638bde99e3d33a12", "is_reserved": 0, "rental_uris": {"android": "https://dc.lft.to/lastmile_qr_scan", "ios": "https://dc.lft.to/lastmile_qr_scan"}, "fusion_lon": 0.0}, {"lat": 38.902869333333335, "is_disabled": 0, "type": "electric_scooter", "lon": -77.043895, "bike_id": "5b71697664be36950f0db79c6216141f", "fusion_lat": 0.0, "name": "5b71697664be36950f0db79c6216141f", "is_reserved": 0, "rental_uris": {"android": "https://dc.lft.to/lastmile_qr_scan", "ios": "https://dc.lft.to/lastmile_qr_scan"}, "fusion_lon": 0.0}, {"lat": 38.95217383333333, "is_disabled": 0, "type": "electric_scooter", "lon": -77.0860005, "bike_id": "aed08169f0e7624d9e37d35227a59817", "fusion_lat": 0.0, "name": "aed08169f0e7624d9e37d35227a59817", "is_reserved": 0, "rental_uris": {"android": "https://dc.lft.to/lastmile_qr_scan", "ios": "https://dc.lft.to/lastmile_qr_scan"}, "fusion_lon": 0.0}, {"lat": 38.915391666666665, "is_disabled": 0, "type": "electric_scooter", "lon": -77.03196416666667, "bike_id": "5f11f39355a3dd7a450f42e46187878d", "fusion_lat": 0.0, "name": "5f11f39355a3dd7a450f42e46187878d", "is_reserved": 0, "rental_uris": {"android": "https://dc.lft.to/lastmile_qr_scan", "ios": "https://dc.lft.to/lastmile_qr_scan"}, "fusion_lon": 0.0}, {"lat": 38.99995166666667, "is_disabled": 0, "type": "electric_bike", "lon": -76.92496766666666, "bike_id": "6c97b1af35592298054a57ae20c93ae4", "fusion_lat": 0.0, "name": "6c97b1af35592298054a57ae20c93ae4", "is_reserved": 0, "rental_uris": {"android": "https://dc.lft.to/lastmile_qr_scan", "ios": "https://dc.lft.to/lastmile_qr_scan"}, "fusion_lon": 0.0}, {"lat": 38.913112166666664, "is_disabled": 0, "type": "electric_scooter", "lon": -77.03211966666667, "bike_id": "49fca55fbd8efe00471c861587389b5c", "fusion_lat": 0.0, "name": "49fca55fbd8efe00471c861587389b5c", "is_reserved": 0, "rental_uris": {"android": "https://dc.lft.to/lastmile_qr_scan", "ios": "https://dc.lft.to/lastmile_qr_scan"}, "fusion_lon": 0.0}, {"lat": 38.916487833333335, "is_disabled": 0, "type": "electric_scooter", "lon": -77.0223365, "bike_id": "d8f2cc6a8e7d0511041d5bfd38c33b0c", "fusion_lat": 0.0, "name": "d8f2cc6a8e7d0511041d5bfd38c33b0c", "is_reserved": 0, "rental_uris": {"android": "https://dc.lft.to/lastmile_qr_scan", "ios": "https://dc.lft.to/lastmile_qr_scan"}, "fusion_lon": 0.0}, {"lat": 38.91404883333333, "is_disabled": 0, "type": "electric_scooter", "lon": -77.0449815, "bike_id": "c6910b6e2f0ad932f87678bcdd8cfeb7", "fusion_lat": 0.0, "name": "c6910b6e2f0ad932f87678bcdd8cfeb7", "is_reserved": 0, "rental_uris": {"android": "https://dc.lft.to/lastmile_qr_scan", "ios": "https://dc.lft.to/lastmile_qr_scan"}, "fusion_lon": 0.0}, {"lat": 38.89089716666667, "is_disabled": 0, "type": "electric_scooter", "lon": -76.95267916666667, "bike_id": "a9123865f4155ddf86f1c01bb2eec1e7", "fusion_lat": 0.0, "name": "a9123865f4155ddf86f1c01bb2eec1e7", "is_reserved": 0, "rental_uris": {"android": "https://dc.lft.to/lastmile_qr_scan", "ios": "https://dc.lft.to/lastmile_qr_scan"}, "fusion_lon": 0.0}, {"lat": 38.920979833333334, "is_disabled": 0, "type": "electric_scooter", "lon": -77.031662, "bike_id": "a6ddd80e076fd6fdd357055152efa6fe", "fusion_lat": 0.0, "name": "a6ddd80e076fd6fdd357055152efa6fe", "is_reserved": 0, "rental_uris": {"android": "https://dc.lft.to/lastmile_qr_scan", "ios": "https://dc.lft.to/lastmile_qr_scan"}, "fusion_lon": 0.0}, {"lat": 38.9266075, "is_disabled": 0, "type": "electric_scooter", "lon": -77.05592233333333, "bike_id": "203a4ffee6461d4be2874b910f75b472", "fusion_lat": 0.0, "name": "203a4ffee6461d4be2874b910f75b472", "is_reserved": 0, "rental_uris": {"android": "https://dc.lft.to/lastmile_qr_scan", "ios": "https://dc.lft.to/lastmile_qr_scan"}, "fusion_lon": 0.0}, {"lat": 38.89552783333333, "is_disabled": 0, "type": "electric_scooter", "lon": -76.93364383333333, "bike_id": "c77f8b5862b41828a2bc9f44e975326f", "fusion_lat": 0.0, "name": "c77f8b5862b41828a2bc9f44e975326f", "is_reserved": 0, "rental_uris": {"android": "https://dc.lft.to/lastmile_qr_scan", "ios": "https://dc.lft.to/lastmile_qr_scan"}, "fusion_lon": 0.0}, {"lat": 38.9178455, "is_disabled": 0, "type": "electric_scooter", "lon": -77.02607416666666, "bike_id": "793f0c24dc4a0f7e545a917ca1432e3c", "fusion_lat": 0.0, "name": "793f0c24dc4a0f7e545a917ca1432e3c", "is_reserved": 0, "rental_uris": {"android": "https://dc.lft.to/lastmile_qr_scan", "ios": "https://dc.lft.to/lastmile_qr_scan"}, "fusion_lon": 0.0}, {"lat": 38.91818333333333, "is_disabled": 0, "type": "electric_scooter", "lon": -77.034491, "bike_id": "6d0bc044fbf8cd95ca1bf30944717d33", "fusion_lat": 0.0, "name": "6d0bc044fbf8cd95ca1bf30944717d33", "is_reserved": 0, "rental_uris": {"android": "https://dc.lft.to/lastmile_qr_scan", "ios": "https://dc.lft.to/lastmile_qr_scan"}, "fusion_lon": 0.0}, {"lat": 38.892216833333336, "is_disabled": 0, "type": "electric_scooter", "lon": -77.02825783333333, "bike_id": "66f49c1a960a6f882856187b6e603ec4", "fusion_lat": 0.0, "name": "66f49c1a960a6f882856187b6e603ec4", "is_reserved": 0, "rental_uris": {"android": "https://dc.lft.to/lastmile_qr_scan", "ios": "https://dc.lft.to/lastmile_qr_scan"}, "fusion_lon": 0.0}, {"lat": 38.96067683333333, "is_disabled": 0, "type": "electric_scooter", "lon": -77.07295983333333, "bike_id": "a591cb60ae6d52b496eb49083fca2d53", "fusion_lat": 0.0, "name": "a591cb60ae6d52b496eb49083fca2d53", "is_reserved": 0, "rental_uris": {"android": "https://dc.lft.to/lastmile_qr_scan", "ios": "https://dc.lft.to/lastmile_qr_scan"}, "fusion_lon": 0.0}, {"lat": 38.903673833333336, "is_disabled": 0, "type": "electric_scooter", "lon": -76.976508, "bike_id": "af9e67bcce685b082e0003a0a0c0be14", "fusion_lat": 0.0, "name": "af9e67bcce685b082e0003a0a0c0be14", "is_reserved": 0, "rental_uris": {"android": "https://dc.lft.to/lastmile_qr_scan", "ios": "https://dc.lft.to/lastmile_qr_scan"}, "fusion_lon": 0.0}, {"lat": 38.921219, "is_disabled": 0, "type": "electric_scooter", "lon": -77.04348483333334, "bike_id": "1aa0efc98e99271bf03ce39c5c655706", "fusion_lat": 0.0, "name": "1aa0efc98e99271bf03ce39c5c655706", "is_reserved": 0, "rental_uris": {"android": "https://dc.lft.to/lastmile_qr_scan", "ios": "https://dc.lft.to/lastmile_qr_scan"}, "fusion_lon": 0.0}, {"lat": 38.9260105, "is_disabled": 0, "type": "electric_scooter", "lon": -77.024951, "bike_id": "86875309918095213124d07215486f7a", "fusion_lat": 0.0, "name": "86875309918095213124d07215486f7a", "is_reserved": 0, "rental_uris": {"android": "https://dc.lft.to/lastmile_qr_scan", "ios": "https://dc.lft.to/lastmile_qr_scan"}, "fusion_lon": 0.0}, {"lat": 38.87468116666667, "is_disabled": 0, "type": "electric_scooter", "lon": -77.00518166666667, "bike_id": "2dff87613d8bed6bbfd0f41fe491fcc8", "fusion_lat": 0.0, "name": "2dff87613d8bed6bbfd0f41fe491fcc8", "is_reserved": 0, "rental_uris": {"android": "https://dc.lft.to/lastmile_qr_scan", "ios": "https://dc.lft.to/lastmile_qr_scan"}, "fusion_lon": 0.0}, {"lat": 38.91481483333333, "is_disabled": 0, "type": "electric_scooter", "lon": -77.03209083333333, "bike_id": "419de1d637321089130e805f2532e6a5", "fusion_lat": 0.0, "name": "419de1d637321089130e805f2532e6a5", "is_reserved": 0, "rental_uris": {"android": "https://dc.lft.to/lastmile_qr_scan", "ios": "https://dc.lft.to/lastmile_qr_scan"}, "fusion_lon": 0.0}, {"lat": 38.90063216666667, "is_disabled": 0, "type": "electric_scooter", "lon": -77.04533466666666, "bike_id": "c0f52d82edec209659aa5a64e60a356d", "fusion_lat": 0.0, "name": "c0f52d82edec209659aa5a64e60a356d", "is_reserved": 0, "rental_uris": {"android": "https://dc.lft.to/lastmile_qr_scan", "ios": "https://dc.lft.to/lastmile_qr_scan"}, "fusion_lon": 0.0}, {"lat": 38.88660483333334, "is_disabled": 0, "type": "electric_bike", "lon": -77.033863, "bike_id": "ecb6cef71eb5c14b1ad2f1d99ff2bd94", "fusion_lat": 0.0, "name": "ecb6cef71eb5c14b1ad2f1d99ff2bd94", "is_reserved": 0, "rental_uris": {"android": "https://dc.lft.to/lastmile_qr_scan", "ios": "https://dc.lft.to/lastmile_qr_scan"}, "fusion_lon": 0.0}, {"lat": 38.92856466666667, "is_disabled": 0, "type": "electric_scooter", "lon": -77.02998883333333, "bike_id": "4961c3462d27cca5c9582ed4cdaad984", "fusion_lat": 0.0, "name": "4961c3462d27cca5c9582ed4cdaad984", "is_reserved": 0, "rental_uris": {"android": "https://dc.lft.to/lastmile_qr_scan", "ios": "https://dc.lft.to/lastmile_qr_scan"}, "fusion_lon": 0.0}, {"lat": 38.884304166666666, "is_disabled": 0, "type": "electric_bike", "lon": -77.0007675, "bike_id": "640505afb96707a68aba4737cc0f694c", "fusion_lat": 0.0, "name": "640505afb96707a68aba4737cc0f694c", "is_reserved": 0, "rental_uris": {"android": "https://dc.lft.to/lastmile_qr_scan", "ios": "https://dc.lft.to/lastmile_qr_scan"}, "fusion_lon": 0.0}, {"lat": 38.92251, "is_disabled": 0, "type": "electric_scooter", "lon": -77.0297595, "bike_id": "4f95f4819e63666a94b24b27266dc27c", "fusion_lat": 0.0, "name": "4f95f4819e63666a94b24b27266dc27c", "is_reserved": 0, "rental_uris": {"android": "https://dc.lft.to/lastmile_qr_scan", "ios": "https://dc.lft.to/lastmile_qr_scan"}, "fusion_lon": 0.0}, {"lat": 38.90108266666667, "is_disabled": 0, "type": "electric_scooter", "lon": -76.99619766666666, "bike_id": "eba32f29dc2746afba17e06b676ccba1", "fusion_lat": 0.0, "name": "eba32f29dc2746afba17e06b676ccba1", "is_reserved": 0, "rental_uris": {"android": "https://dc.lft.to/lastmile_qr_scan", "ios": "https://dc.lft.to/lastmile_qr_scan"}, "fusion_lon": 0.0}, {"lat": 38.885764333333334, "is_disabled": 0, "type": "electric_scooter", "lon": -76.919087, "bike_id": "977c58ef937b1be15832066f0a6356ee", "fusion_lat": 0.0, "name": "977c58ef937b1be15832066f0a6356ee", "is_reserved": 0, "rental_uris": {"android": "https://dc.lft.to/lastmile_qr_scan", "ios": "https://dc.lft.to/lastmile_qr_scan"}, "fusion_lon": 0.0}, {"lat": 38.9274685, "is_disabled": 0, "type": "electric_scooter", "lon": -77.02416883333333, "bike_id": "974e3d5c68878ff3978abf5209b8b20a", "fusion_lat": 0.0, "name": "974e3d5c68878ff3978abf5209b8b20a", "is_reserved": 0, "rental_uris": {"android": "https://dc.lft.to/lastmile_qr_scan", "ios": "https://dc.lft.to/lastmile_qr_scan"}, "fusion_lon": 0.0}, {"lat": 38.91322816666667, "is_disabled": 0, "type": "electric_scooter", "lon": -77.04526983333334, "bike_id": "a0d5983aff2787b31aec9b84154e1ae2", "fusion_lat": 0.0, "name": "a0d5983aff2787b31aec9b84154e1ae2", "is_reserved": 0, "rental_uris": {"android": "https://dc.lft.to/lastmile_qr_scan", "ios": "https://dc.lft.to/lastmile_qr_scan"}, "fusion_lon": 0.0}, {"lat": 38.95399, "is_disabled": 0, "type": "electric_scooter", "lon": -77.02739966666667, "bike_id": "ae9c65a9d662152cc1a76dbc737a152b", "fusion_lat": 0.0, "name": "ae9c65a9d662152cc1a76dbc737a152b", "is_reserved": 0, "rental_uris": {"android": "https://dc.lft.to/lastmile_qr_scan", "ios": "https://dc.lft.to/lastmile_qr_scan"}, "fusion_lon": 0.0}, {"lat": 38.92179733333333, "is_disabled": 0, "type": "electric_scooter", "lon": -77.047056, "bike_id": "f66ecc515098d2f3105e53cae08f96e5", "fusion_lat": 0.0, "name": "f66ecc515098d2f3105e53cae08f96e5", "is_reserved": 0, "rental_uris": {"android": "https://dc.lft.to/lastmile_qr_scan", "ios": "https://dc.lft.to/lastmile_qr_scan"}, "fusion_lon": 0.0}, {"lat": 38.9140745, "is_disabled": 0, "type": "electric_scooter", "lon": -77.01326933333333, "bike_id": "b31249dc7c06c35b9f864fa54d85cb1d", "fusion_lat": 0.0, "name": "b31249dc7c06c35b9f864fa54d85cb1d", "is_reserved": 0, "rental_uris": {"android": "https://dc.lft.to/lastmile_qr_scan", "ios": "https://dc.lft.to/lastmile_qr_scan"}, "fusion_lon": 0.0}, {"lat": 38.926012666666665, "is_disabled": 0, "type": "electric_scooter", "lon": -77.05694983333333, "bike_id": "3b39ae33b835b2cfa54c432dc4b5922f", "fusion_lat": 0.0, "name": "3b39ae33b835b2cfa54c432dc4b5922f", "is_reserved": 0, "rental_uris": {"android": "https://dc.lft.to/lastmile_qr_scan", "ios": "https://dc.lft.to/lastmile_qr_scan"}, "fusion_lon": 0.0}, {"lat": 38.93749016666666, "is_disabled": 0, "type": "electric_scooter", "lon": -77.03469633333333, "bike_id": "d84c2d815eb803be96a2b4212093cfe1", "fusion_lat": 0.0, "name": "d84c2d815eb803be96a2b4212093cfe1", "is_reserved": 0, "rental_uris": {"android": "https://dc.lft.to/lastmile_qr_scan", "ios": "https://dc.lft.to/lastmile_qr_scan"}, "fusion_lon": 0.0}, {"lat": 38.949087, "is_disabled": 0, "type": "electric_scooter", "lon": -77.06615316666667, "bike_id": "0167c414115b01b03bccb9eefa1e7a69", "fusion_lat": 0.0, "name": "0167c414115b01b03bccb9eefa1e7a69", "is_reserved": 0, "rental_uris": {"android": "https://dc.lft.to/lastmile_qr_scan", "ios": "https://dc.lft.to/lastmile_qr_scan"}, "fusion_lon": 0.0}, {"lat": 38.911207833333336, "is_disabled": 0, "type": "electric_scooter", "lon": -77.03816183333333, "bike_id": "e06ad00e3f74041163ee2e52e38ffb5e", "fusion_lat": 0.0, "name": "e06ad00e3f74041163ee2e52e38ffb5e", "is_reserved": 0, "rental_uris": {"android": "https://dc.lft.to/lastmile_qr_scan", "ios": "https://dc.lft.to/lastmile_qr_scan"}, "fusion_lon": 0.0}, {"lat": 38.904361333333334, "is_disabled": 0, "type": "electric_scooter", "lon": -77.002156, "bike_id": "b0d3b9fbc5f9adcda4282bb4e9dcc2f1", "fusion_lat": 0.0, "name": "b0d3b9fbc5f9adcda4282bb4e9dcc2f1", "is_reserved": 0, "rental_uris": {"android": "https://dc.lft.to/lastmile_qr_scan", "ios": "https://dc.lft.to/lastmile_qr_scan"}, "fusion_lon": 0.0}, {"lat": 38.925125333333334, "is_disabled": 0, "type": "electric_scooter", "lon": -77.02357116666667, "bike_id": "1bc2c9923ae8a5bb17304d5699b271fb", "fusion_lat": 0.0, "name": "1bc2c9923ae8a5bb17304d5699b271fb", "is_reserved": 0, "rental_uris": {"android": "https://dc.lft.to/lastmile_qr_scan", "ios": "https://dc.lft.to/lastmile_qr_scan"}, "fusion_lon": 0.0}, {"lat": 38.96203166666667, "is_disabled": 0, "type": "electric_bike", "lon": -77.035096, "bike_id": "c21fc8a635c9f9b8f5599e81426ef505", "fusion_lat": 0.0, "name": "c21fc8a635c9f9b8f5599e81426ef505", "is_reserved": 0, "rental_uris": {"android": "https://dc.lft.to/lastmile_qr_scan", "ios": "https://dc.lft.to/lastmile_qr_scan"}, "fusion_lon": 0.0}, {"lat": 38.912875, "is_disabled": 0, "type": "electric_scooter", "lon": -77.03850416666667, "bike_id": "6a83e16a886cc8560aabf54e4be30314", "fusion_lat": 0.0, "name": "6a83e16a886cc8560aabf54e4be30314", "is_reserved": 0, "rental_uris": {"android": "https://dc.lft.to/lastmile_qr_scan", "ios": "https://dc.lft.to/lastmile_qr_scan"}, "fusion_lon": 0.0}, {"lat": 38.895518, "is_disabled": 0, "type": "electric_scooter", "lon": -77.003624, "bike_id": "1d1a5f619b13e812f540361344e90fd3", "fusion_lat": 0.0, "name": "1d1a5f619b13e812f540361344e90fd3", "is_reserved": 0, "rental_uris": {"android": "https://dc.lft.to/lastmile_qr_scan", "ios": "https://dc.lft.to/lastmile_qr_scan"}, "fusion_lon": 0.0}, {"lat": 38.81347816666667, "is_disabled": 0, "type": "electric_bike", "lon": -77.0492295, "bike_id": "6ee67afa50438cdd163d43a00cea3fb1", "fusion_lat": 0.0, "name": "6ee67afa50438cdd163d43a00cea3fb1", "is_reserved": 0, "rental_uris": {"android": "https://dc.lft.to/lastmile_qr_scan", "ios": "https://dc.lft.to/lastmile_qr_scan"}, "fusion_lon": 0.0}, {"lat": 38.907862333333334, "is_disabled": 0, "type": "electric_scooter", "lon": -77.01103533333334, "bike_id": "c323780a738434a06a50ff60cd9a150e", "fusion_lat": 0.0, "name": "c323780a738434a06a50ff60cd9a150e", "is_reserved": 0, "rental_uris": {"android": "https://dc.lft.to/lastmile_qr_scan", "ios": "https://dc.lft.to/lastmile_qr_scan"}, "fusion_lon": 0.0}, {"lat": 38.90018416666667, "is_disabled": 0, "type": "electric_scooter", "lon": -77.0332205, "bike_id": "f703b8289a9fbea63e5a5240607f642b", "fusion_lat": 0.0, "name": "f703b8289a9fbea63e5a5240607f642b", "is_reserved": 0, "rental_uris": {"android": "https://dc.lft.to/lastmile_qr_scan", "ios": "https://dc.lft.to/lastmile_qr_scan"}, "fusion_lon": 0.0}, {"lat": 38.94110383333334, "is_disabled": 0, "type": "electric_scooter", "lon": -77.00046333333333, "bike_id": "bde0f026bc0e2ff726f711185877488c", "fusion_lat": 0.0, "name": "bde0f026bc0e2ff726f711185877488c", "is_reserved": 0, "rental_uris": {"android": "https://dc.lft.to/lastmile_qr_scan", "ios": "https://dc.lft.to/lastmile_qr_scan"}, "fusion_lon": 0.0}, {"lat": 38.907339666666665, "is_disabled": 0, "type": "electric_scooter", "lon": -77.02984983333333, "bike_id": "b8136362e858a30f769e9c8269bf1a3b", "fusion_lat": 0.0, "name": "b8136362e858a30f769e9c8269bf1a3b", "is_reserved": 0, "rental_uris": {"android": "https://dc.lft.to/lastmile_qr_scan", "ios": "https://dc.lft.to/lastmile_qr_scan"}, "fusion_lon": 0.0}, {"lat": 38.87165733333333, "is_disabled": 0, "type": "electric_scooter", "lon": -77.0134965, "bike_id": "686cdb514f79dd374076d450ea74d0cc", "fusion_lat": 0.0, "name": "686cdb514f79dd374076d450ea74d0cc", "is_reserved": 0, "rental_uris": {"android": "https://dc.lft.to/lastmile_qr_scan", "ios": "https://dc.lft.to/lastmile_qr_scan"}, "fusion_lon": 0.0}, {"lat": 38.853222833333334, "is_disabled": 0, "type": "electric_scooter", "lon": -76.98017833333333, "bike_id": "f0eb1f330cc7103484aaf71b178db3fa", "fusion_lat": 0.0, "name": "f0eb1f330cc7103484aaf71b178db3fa", "is_reserved": 0, "rental_uris": {"android": "https://dc.lft.to/lastmile_qr_scan", "ios": "https://dc.lft.to/lastmile_qr_scan"}, "fusion_lon": 0.0},