{"data": {"bikes": [{"is_disabled": 0, "fusion_lon": 0.0, "fusion_lat": 0.0, "lat": 38.9419725, "type": "electric_scooter", "lon": -77.025795, "bike_id": "caeb80e28c86630925e4d18eed282b91", "rental_uris": {"android": "https://dc.lft.to/lastmile_qr_scan", "ios": "https://dc.lft.to/lastmile_qr_scan"}, "name": "caeb80e28c86630925e4d18eed282b91", "is_reserved": 0}, {"is_disabled": 0, "fusion_lon": 0.0, "fusion_lat": 0.0, "lat": 38.8443005, "type": "electric_scooter", "lon": -76.99783116666667, "bike_id": "60ac87063ee92f027779fd385c6b372c", "rental_uris": {"android": "https://dc.lft.to/lastmile_qr_scan", "ios": "https://dc.lft.to/lastmile_qr_scan"}, "name": "60ac87063ee92f027779fd385c6b372c", "is_reserved": 0}, {"is_disabled": 0, "fusion_lon": 0.0, "fusion_lat": 0.0, "lat": 38.89502683333333, "type": "electric_scooter", "lon": -76.94878183333333, "bike_id": "775771046419bbdaebdbf81b5d8835a9", "rental_uris": {"android": "https://dc.lft.to/lastmile_qr_scan", "ios": "https://dc.lft.to/lastmile_qr_scan"}, "name": "775771046419bbdaebdbf81b5d8835a9", "is_reserved": 0}, {"is_disabled": 0, "fusion_lon": 0.0, "fusion_lat": 0.0, "lat": 38.897240833333335, "type": "electric_scooter", "lon": -77.02710033333334, "bike_id": "03342d70aa60640a1916a8be86b7205f", "rental_uris": {"android": "https://dc.lft.to/lastmile_qr_scan", "ios": "https://dc.lft.to/lastmile_qr_scan"}, "name": "03342d70aa60640a1916a8be86b7205f", "is_reserved": 0}, {"is_disabled": 0, "fusion_lon": 0.0, "fusion_lat": 0.0, "lat": 38.874336666666665, "type": "electric_scooter", "lon": -77.00047733333334, "bike_id": "04aea71e6c2e620da393ca42937529b9", "rental_uris": {"android": "https://dc.lft.to/lastmile_qr_scan", "ios": "https://dc.lft.to/lastmile_qr_scan"}, "name": "04aea71e6c2e620da393ca42937529b9", "is_reserved": 0}, {"is_disabled": 0, "fusion_lon": 0.0, "fusion_lat": 0.0, "lat": 38.934122, "type": "electric_scooter", "lon": -77.03263966666667, "bike_id": "083a2b7d07a02e277f030c3496f45519", "rental_uris": {"android": "https://dc.lft.to/lastmile_qr_scan", "ios": "https://dc.lft.to/lastmile_qr_scan"}, "name": "083a2b7d07a02e277f030c3496f45519", "is_reserved": 0}, {"is_disabled": 0, "fusion_lon": 0.0, "fusion_lat": 0.0, "lat": 38.85838616666667, "type": "electric_scooter", "lon": -76.99069383333334, "bike_id": "e4e8526046de00fd5a2dc0f90fc2b0e9", "rental_uris": {"android": "https://dc.lft.to/lastmile_qr_scan", "ios": "https://dc.lft.to/lastmile_qr_scan"}, "name": "e4e8526046de00fd5a2dc0f90fc2b0e9", "is_reserved": 0}, {"is_disabled": 0, "fusion_lon": 0.0, "fusion_lat": 0.0, "lat": 38.86039383333333, "type": "electric_scooter", "lon": -76.98378066666666, "bike_id": "6728878bfb89419741dd8522a3ec189e", "rental_uris": {"android": "https://dc.lft.to/lastmile_qr_scan", "ios": "https://dc.lft.to/lastmile_qr_scan"}, "name": "6728878bfb89419741dd8522a3ec189e", "is_reserved": 0}, {"is_disabled": 0, "fusion_lon": 0.0, "fusion_lat": 0.0, "lat": 38.94983666666667, "type": "electric_scooter", "lon": -77.02702333333333, "bike_id": "82f88c65c44c90f7a6309e4f48a7fb22", "rental_uris": {"android": "https://dc.lft.to/lastmile_qr_scan", "ios": "https://dc.lft.to/lastmile_qr_scan"}, "name": "82f88c65c44c90f7a6309e4f48a7fb22", "is_reserved": 0}, {"is_disabled": 0, "fusion_lon": 0.0, "fusion_lat": 0.0, "lat": 38.865155666666666, "type": "electric_scooter", "lon": -76.97327866666667, "bike_id": "e1c73a97b1d85b28955df3841e0dcd6e", "rental_uris": {"android": "https://dc.lft.to/lastmile_qr_scan", "ios": "https://dc.lft.to/lastmile_qr_scan"}, "name": "e1c73a97b1d85b28955df3841e0dcd6e", "is_reserved": 0}, {"is_disabled": 0, "fusion_lon": 0.0, "fusion_lat": 0.0, "lat": 38.962184666666666, "type": "electric_scooter", "lon": -77.028025, "bike_id": "9605e50391226076230c540d1341c06f", "rental_uris": {"android": "https://dc.lft.to/lastmile_qr_scan", "ios": "https://dc.lft.to/lastmile_qr_scan"}, "name": "9605e50391226076230c540d1341c06f", "is_reserved": 0}, {"is_disabled": 0, "fusion_lon": 0.0, "fusion_lat": 0.0, "lat": 38.92051033333333, "type": "electric_scooter", "lon": -77.02437, "bike_id": "570324f8c8bc07ef5c051549b3e177e2", "rental_uris": {"android": "https://dc.lft.to/lastmile_qr_scan", "ios": "https://dc.lft.to/lastmile_qr_scan"}, "name": "570324f8c8bc07ef5c051549b3e177e2", "is_reserved": 0}, {"is_disabled": 0, "fusion_lon": 0.0, "fusion_lat": 0.0, "lat": 38.909060833333335, "type": "electric_scooter", "lon": -77.0259325, "bike_id": "484c065460677c7ee93fd1eca6e538c6", "rental_uris": {"android": "https://dc.lft.to/lastmile_qr_scan", "ios": "https://dc.lft.to/lastmile_qr_scan"}, "name": "484c065460677c7ee93fd1eca6e538c6", "is_reserved": 0}, {"is_disabled": 0, "fusion_lon": 0.0, "fusion_lat": 0.0, "lat": 38.894970666666666, "type": "electric_scooter", "lon": -77.02297783333333, "bike_id": "5160afc1b0745fd38393ba4b31cb1422", "rental_uris": {"android": "https://dc.lft.to/lastmile_qr_scan", "ios": "https://dc.lft.to/lastmile_qr_scan"}, "name": "5160afc1b0745fd38393ba4b31cb1422", "is_reserved": 0}, {"is_disabled": 0, "fusion_lon": 0.0, "fusion_lat": 0.0, "lat": 38.96155566666667, "type": "electric_scooter", "lon": -77.0277925, "bike_id": "aa7f018f2305f146a32bd20ef24c76c9", "rental_uris": {"android": "https://dc.lft.to/lastmile_qr_scan", "ios": "https://dc.lft.to/lastmile_qr_scan"}, "name": "aa7f018f2305f146a32bd20ef24c76c9", "is_reserved": 0}, {"is_disabled": 0, "fusion_lon": 0.0, "fusion_lat": 0.0, "lat": 38.852056833333336, "type": "electric_bike", "lon": -77.1013235, "bike_id": "9163e9fa2972b794347e782327bf6378", "rental_uris": {"android": "https://dc.lft.to/lastmile_qr_scan", "ios": "https://dc.lft.to/lastmile_qr_scan"}, "name": "9163e9fa2972b794347e782327bf6378", "is_reserved": 0}, {"is_disabled": 0, "fusion_lon": 0.0, "fusion_lat": 0.0, "lat": 38.914160333333335, "type": "electric_scooter", "lon": -77.04668333333333, "bike_id": "82097147ed5f08e97d9c12df7173de7c", "rental_uris": {"android": "https://dc.lft.to/lastmile_qr_scan", "ios": "https://dc.lft.to/lastmile_qr_scan"}, "name": "82097147ed5f08e97d9c12df7173de7c", "is_reserved": 0}, {"is_disabled": 0, "fusion_lon": 0.0, "fusion_lat": 0.0, "lat": 38.87619216666667, "type": "electric_scooter", "lon": -76.96541666666667, "bike_id": "a4a51e1a2ba7c838e801b0fb56a520b3", "rental_uris": {"android": "https://dc.lft.to/lastmile_qr_scan", "ios": "https://dc.lft.to/lastmile_qr_scan"}, "name": "a4a51e1a2ba7c838e801b0fb56a520b3", "is_reserved": 0}, {"is_disabled": 0, "fusion_lon": 0.0, "fusion_lat": 0.0, "lat": 38.93738416666667, "type": "electric_scooter", "lon": -77.03280433333333, "bike_id": "8b7f4618f3ba8d265a90f8807734813a", "rental_uris": {"android": "https://dc.lft.to/lastmile_qr_scan", "ios": "https://dc.lft.to/lastmile_qr_scan"}, "name": "8b7f4618f3ba8d265a90f8807734813a", "is_reserved": 0}, {"is_disabled": 0, "fusion_lon": 0.0, "fusion_lat": 0.0, "lat": 38.90120966666667, "type": "electric_scooter", "lon": -77.03950966666666, "bike_id": "68e4178bac3c57e92d0a97e082b3379e", "rental_uris": {"android": "https://dc.lft.to/lastmile_qr_scan", "ios": "https://dc.lft.to/lastmile_qr_scan"}, "name": "68e4178bac3c57e92d0a97e082b3379e", "is_reserved": 0}, {"is_disabled": 0, "fusion_lon": 0.0, "fusion_lat": 0.0, "lat": 38.8874505, "type": "electric_scooter", "lon": -77.0160135, "bike_id": "23ce5d55c92f44fd7387d54d3a1b02b9", "rental_uris": {"android": "https://dc.lft.to/lastmile_qr_scan", "ios": "https://dc.lft.to/lastmile_qr_scan"}, "name": "23ce5d55c92f44fd7387d54d3a1b02b9", "is_reserved": 0}, {"is_disabled": 0, "fusion_lon": 0.0, "fusion_lat": 0.0, "lat": 38.865741666666665, "type": "electric_scooter", "lon": -76.98949516666667, "bike_id": "c900e660c51571cdbad3d5bc871ca3ed", "rental_uris": {"android": "https://dc.lft.to/lastmile_qr_scan", "ios": "https://dc.lft.to/lastmile_qr_scan"}, "name": "c900e660c51571cdbad3d5bc871ca3ed", "is_reserved": 0}, {"is_disabled": 0, "fusion_lon": 0.0, "fusion_lat": 0.0, "lat": 38.90866116666667, "type": "electric_scooter", "lon": -77.0355195, "bike_id": "5eb9db6b32df7e598fb6647640109711", "rental_uris": {"android": "https://dc.lft.to/lastmile_qr_scan", "ios": "https://dc.lft.to/lastmile_qr_scan"}, "name": "5eb9db6b32df7e598fb6647640109711", "is_reserved": 0}, {"is_disabled": 0, "fusion_lon": 0.0, "fusion_lat": 0.0, "lat": 38.900611166666664, "type": "electric_scooter", "lon": -76.93473133333333, "bike_id": "e17f7e2253cde5c4dcdab93586763fc3", "rental_uris": {"android": "https://dc.lft.to/lastmile_qr_scan", "ios": "https://dc.lft.to/lastmile_qr_scan"}, "name": "e17f7e2253cde5c4dcdab93586763fc3", "is_reserved": 0}, {"is_disabled": 0, "fusion_lon": 0.0, "fusion_lat": 0.0, "lat": 38.917030833333335, "type": "electric_scooter", "lon": -77.02481666666667, "bike_id": "2a2e07d691ebe9450c7f8ee731348156", "rental_uris": {"android": "https://dc.lft.to/lastmile_qr_scan", "ios": "https://dc.lft.to/lastmile_qr_scan"}, "name": "2a2e07d691ebe9450c7f8ee731348156", "is_reserved": 0}, {"is_disabled": 0, "fusion_lon": 0.0, "fusion_lat": 0.0, "lat": 38.92964883333333, "type": "electric_scooter", "lon": -77.0550395, "bike_id": "3298f76c171236396ae7877cf633fb8b", "rental_uris": {"android": "https://dc.lft.to/lastmile_qr_scan", "ios": "https://dc.lft.to/lastmile_qr_scan"}, "name": "3298f76c171236396ae7877cf633fb8b", "is_reserved": 0}, {"is_disabled": 0, "fusion_lon": 0.0, "fusion_lat": 0.0, "lat": 38.92262383333333, "type": "electric_scooter", "lon": -77.04141216666666, "bike_id": "e5a5f5ab919a8712e075d1f6f56779a1", "rental_uris": {"android": "https://dc.lft.to/lastmile_qr_scan", "ios": "https://dc.lft.to/lastmile_qr_scan"}, "name": "e5a5f5ab919a8712e075d1f6f56779a1", "is_reserved": 0}, {"is_disabled": 0, "fusion_lon": 0.0, "fusion_lat": 0.0, "lat": 38.91008733333334, "type": "electric_scooter", "lon": -77.04365666666666, "bike_id": "8e171556b5704dd1218eac0f3edc70d4", "rental_uris": {"android": "https://dc.lft.to/lastmile_qr_scan", "ios": "https://dc.lft.to/lastmile_qr_scan"}, "name": "8e171556b5704dd1218eac0f3edc70d4", "is_reserved": 0}, {"is_disabled": 0, "fusion_lon": 0.0, "fusion_lat": 0.0, "lat": 38.91036283333333, "type": "electric_scooter", "lon": -77.03079266666667, "bike_id": "3218553ed47bc6e99a524285a23ac95e", "rental_uris": {"android": "https://dc.lft.to/lastmile_qr_scan", "ios": "https://dc.lft.to/lastmile_qr_scan"}, "name": "3218553ed47bc6e99a524285a23ac95e", "is_reserved": 0}, {"is_disabled": 0, "fusion_lon": 0.0, "fusion_lat": 0.0, "lat": 38.90542283333333, "type": "electric_scooter", "lon": -77.04669333333334, "bike_id": "e9094c18a8a60a302854090537c52515", "rental_uris": {"android": "https://dc.lft.to/lastmile_qr_scan", "ios": "https://dc.lft.to/lastmile_qr_scan"}, "name": "e9094c18a8a60a302854090537c52515", "is_reserved": 0}, {"is_disabled": 0, "fusion_lon": 0.0, "fusion_lat": 0.0, "lat": 38.8633505, "type": "electric_bike", "lon": -76.98714316666667, "bike_id": "9722fc8772846b100dc95c675a6601c8", "rental_uris": {"android": "https://dc.lft.to/lastmile_qr_scan", "ios": "https://dc.lft.to/lastmile_qr_scan"}, "name": "9722fc8772846b100dc95c675a6601c8", "is_reserved": 0}, {"is_disabled": 0, "fusion_lon": 0.0, "fusion_lat": 0.0, "lat": 38.90760616666667, "type": "electric_scooter", "lon": -76.99646416666667, "bike_id": "6ba80fb4a7763c1724c8fcf823677bb4", "rental_uris": {"android": "https://dc.lft.to/lastmile_qr_scan", "ios": "https://dc.lft.to/lastmile_qr_scan"}, "name": "6ba80fb4a7763c1724c8fcf823677bb4", "is_reserved": 0}, {"is_disabled": 0, "fusion_lon": 0.0, "fusion_lat": 0.0, "lat": 38.93641816666667, "type": "electric_scooter", "lon": -77.02087266666666, "bike_id": "67fd8b2e6287ee4abfb3790d090858e9", "rental_uris": {"android": "https://dc.lft.to/lastmile_qr_scan", "ios": "https://dc.lft.to/lastmile_qr_scan"}, "name": "67fd8b2e6287ee4abfb3790d090858e9", "is_reserved": 0}, {"is_disabled": 0, "fusion_lon": 0.0, "fusion_lat": 0.0, "lat": 38.90941566666667, "type": "electric_scooter", "lon": -77.05533883333334, "bike_id": "4ab9ab0f5cb5fa282cf9ca447ba353e3", "rental_uris": {"android": "https://dc.lft.to/lastmile_qr_scan", "ios": "https://dc.lft.to/lastmile_qr_scan"}, "name": "4ab9ab0f5cb5fa282cf9ca447ba353e3", "is_reserved": 0}, {"is_disabled": 0, "fusion_lon": 0.0, "fusion_lat": 0.0, "lat": 38.91480816666667, "type": "electric_scooter", "lon": -76.983591, "bike_id": "dad3056ecaa214db700d37e76aa99720", "rental_uris": {"android": "https://dc.lft.to/lastmile_qr_scan", "ios": "https://dc.lft.to/lastmile_qr_scan"}, "name": "dad3056ecaa214db700d37e76aa99720", "is_reserved": 0}, {"is_disabled": 0, "fusion_lon": 0.0, "fusion_lat": 0.0, "lat": 38.92975716666667, "type": "electric_scooter", "lon": -77.0317975, "bike_id": "cbd6512a5efa68b4679ed84894b8bed5", "rental_uris": {"android": "https://dc.lft.to/lastmile_qr_scan", "ios": "https://dc.lft.to/lastmile_qr_scan"}, "name": "cbd6512a5efa68b4679ed84894b8bed5", "is_reserved": 0}, {"is_disabled": 0, "fusion_lon": 0.0, "fusion_lat": 0.0, "lat": 38.921041833333334, "type": "electric_scooter", "lon": -77.07189233333334, "bike_id": "7f4ee95cb1c684a7d38f90a24b6c2206", "rental_uris": {"android": "https://dc.lft.to/lastmile_qr_scan", "ios": "https://dc.lft.to/lastmile_qr_scan"}, "name": "7f4ee95cb1c684a7d38f90a24b6c2206", "is_reserved": 0}, {"is_disabled": 0, "fusion_lon": 0.0, "fusion_lat": 0.0, "lat": 38.9415325, "type": "electric_bike", "lon": -77.00196533333333, "bike_id": "cc3a5b0e36f1515a87e653dd6bdcb8f7", "rental_uris": {"android": "https://dc.lft.to/lastmile_qr_scan", "ios": "https://dc.lft.to/lastmile_qr_scan"}, "name": "cc3a5b0e36f1515a87e653dd6bdcb8f7", "is_reserved": 0}, {"is_disabled": 0, "fusion_lon": 0.0, "fusion_lat": 0.0, "lat": 38.90574183333333, "type": "electric_bike", "lon": -77.04728416666667, "bike_id": "7a235878660de6c7b4ccdbdad82f7bfc", "rental_uris": {"android": "https://dc.lft.to/lastmile_qr_scan", "ios": "https://dc.lft.to/lastmile_qr_scan"}, "name": "7a235878660de6c7b4ccdbdad82f7bfc", "is_reserved": 0}, {"is_disabled": 0, "fusion_lon": 0.0, "fusion_lat": 0.0, "lat": 38.9353385, "type": "electric_scooter", "lon": -77.02354133333333, "bike_id": "da4cb0435efbb08f9b030503525178a7", "rental_uris": {"android": "https://dc.lft.to/lastmile_qr_scan", "ios": "https://dc.lft.to/lastmile_qr_scan"}, "name": "da4cb0435efbb08f9b030503525178a7", "is_reserved": 0}, {"is_disabled": 0, "fusion_lon": 0.0, "fusion_lat": 0.0, "lat": 38.90566166666667, "type": "electric_scooter", "lon": -77.006389, "bike_id": "15fa238af393a89caa909b7f6d2958ec", "rental_uris": {"android": "https://dc.lft.to/lastmile_qr_scan", "ios": "https://dc.lft.to/lastmile_qr_scan"}, "name": "15fa238af393a89caa909b7f6d2958ec", "is_reserved": 0}, {"is_disabled": 0, "fusion_lon": 0.0, "fusion_lat": 0.0, "lat": 38.93412, "type": "electric_scooter", "lon": -77.04265716666667, "bike_id": "f1b30b0c53a1f3833c4a23eb79a63d2d", "rental_uris": {"android": "https://dc.lft.to/lastmile_qr_scan", "ios": "https://dc.lft.to/lastmile_qr_scan"}, "name": "f1b30b0c53a1f3833c4a23eb79a63d2d", "is_reserved": 0}, {"is_disabled": 0, "fusion_lon": 0.0, "fusion_lat": 0.0, "lat": 38.91547633333333, "type": "electric_scooter", "lon": -77.0307835, "bike_id": "7c633cc736e3d6160200d35fa27828ed", "rental_uris": {"android": "https://dc.lft.to/lastmile_qr_scan", "ios": "https://dc.lft.to/lastmile_qr_scan"}, "name": "7c633cc736e3d6160200d35fa27828ed", "is_reserved": 0}, {"is_disabled": 0, "fusion_lon": 0.0, "fusion_lat": 0.0, "lat": 38.900431, "type": "electric_bike", "lon": -77.01217083333333, "bike_id": "d307aeb30f047c8ef27bec9371156792", "rental_uris": {"android": "https://dc.lft.to/lastmile_qr_scan", "ios": "https://dc.lft.to/lastmile_qr_scan"}, "name": "d307aeb30f047c8ef27bec9371156792", "is_reserved": 0}, {"is_disabled": 0, "fusion_lon": 0.0, "fusion_lat": 0.0, "lat": 38.844309, "type": "electric_scooter", "lon": -76.99816466666667, "bike_id": "12a2ae30adb7825cda93313cb54b47d9", "rental_uris": {"android": "https://dc.lft.to/lastmile_qr_scan", "ios": "https://dc.lft.to/lastmile_qr_scan"}, "name": "12a2ae30adb7825cda93313cb54b47d9", "is_reserved": 0}, {"is_disabled": 0, "fusion_lon": 0.0, "fusion_lat": 0.0, "lat": 38.9115005, "type": "electric_scooter", "lon": -77.010879, "bike_id": "892a765a59c96605e6b5758b47e70622", "rental_uris": {"android": "https://dc.lft.to/lastmile_qr_scan", "ios": "https://dc.lft.to/lastmile_qr_scan"}, "name": "892a765a59c96605e6b5758b47e70622", "is_reserved": 0}, {"is_disabled": 0, "fusion_lon": 0.0, "fusion_lat": 0.0, "lat": 38.8988025, "type": "electric_scooter", "lon": -77.00915166666667, "bike_id": "ed0cd00aa679118fea3220ae60795124", "rental_uris": {"android": "https://dc.lft.to/lastmile_qr_scan", "ios": "https://dc.lft.to/lastmile_qr_scan"}, "name": "ed0cd00aa679118fea3220ae60795124", "is_reserved": 0}, {"is_disabled": 0, "fusion_lon": 0.0, "fusion_lat": 0.0, "lat": 38.92092433333333, "type": "electric_scooter", "lon": -77.02589183333333, "bike_id": "6fc318ee256b2af3fa170b3ddd41196f", "rental_uris": {"android": "https://dc.lft.to/lastmile_qr_scan", "ios": "https://dc.lft.to/lastmile_qr_scan"}, "name": "6fc318ee256b2af3fa170b3ddd41196f", "is_reserved": 0}, {"is_disabled": 0, "fusion_lon": 0.0, "fusion_lat": 0.0, "lat": 38.905679166666665, "type": "electric_scooter", "lon": -77.018867, "bike_id": "c59308b2eed87ca4b6dcf4c5282020b8", "rental_uris": {"android": "https://dc.lft.to/lastmile_qr_scan", "ios": "https://dc.lft.to/lastmile_qr_scan"}, "name": "c59308b2eed87ca4b6dcf4c5282020b8", "is_reserved": 0}, {"is_disabled": 0, "fusion_lon": 0.0, "fusion_lat": 0.0, "lat": 38.921244, "type": "electric_scooter", "lon": -77.044261, "bike_id": "bfb928036c34dd13a169574f65136fb1", "rental_uris": {"android": "https://dc.lft.to/lastmile_qr_scan", "ios": "https://dc.lft.to/lastmile_qr_scan"}, "name": "bfb928036c34dd13a169574f65136fb1", "is_reserved": 0}, {"is_disabled": 0, "fusion_lon": 0.0, "fusion_lat": 0.0, "lat": 38.88730183333333, "type": "electric_scooter", "lon": -77.032092, "bike_id": "45a152c73c42bd7eb93b9b036568f42a", "rental_uris": {"android": "https://dc.lft.to/lastmile_qr_scan", "ios": "https://dc.lft.to/lastmile_qr_scan"}, "name": "45a152c73c42bd7eb93b9b036568f42a", "is_reserved": 0}, {"is_disabled": 0, "fusion_lon": 0.0, "fusion_lat": 0.0, "lat": 38.88366233333333, "type": "electric_scooter", "lon": -76.99486516666667, "bike_id": "83a9dda5e8c2e9213e7bbd7b99085cc9", "rental_uris": {"android": "https://dc.lft.to/lastmile_qr_scan", "ios": "https://dc.lft.to/lastmile_qr_scan"}, "name": "83a9dda5e8c2e9213e7bbd7b99085cc9", "is_reserved": 0}, {"is_disabled": 0, "fusion_lon": 0.0, "fusion_lat": 0.0, "lat": 38.914951, "type": "electric_scooter", "lon": -77.03458333333333, "bike_id": "f7dd5882b5fa4e7143d111d211c0931e", "rental_uris": {"android": "https://dc.lft.to/lastmile_qr_scan", "ios": "https://dc.lft.to/lastmile_qr_scan"}, "name": "f7dd5882b5fa4e7143d111d211c0931e", "is_reserved": 0}, {"is_disabled": 0, "fusion_lon": 0.0, "fusion_lat": 0.0, "lat": 38.8974105, "type": "electric_scooter", "lon": -77.004413, "bike_id": "30af3eeb6f81796b0b089526287527b4", "rental_uris": {"android": "https://dc.lft.to/lastmile_qr_scan", "ios": "https://dc.lft.to/lastmile_qr_scan"}, "name": "30af3eeb6f81796b0b089526287527b4", "is_reserved": 0}, {"is_disabled": 0, "fusion_lon": 0.0, "fusion_lat": 0.0, "lat": 38.906554, "type": "electric_scooter", "lon": -77.0489775, "bike_id": "7b1dde71c873c49f04e13b354e0b8118", "rental_uris": {"android": "https://dc.lft.to/lastmile_qr_scan", "ios": "https://dc.lft.to/lastmile_qr_scan"}, "name": "7b1dde71c873c49f04e13b354e0b8118", "is_reserved": 0}, {"is_disabled": 0, "fusion_lon": 0.0, "fusion_lat": 0.0, "lat": 38.882021, "type": "electric_scooter", "lon": -76.92705583333333, "bike_id": "48380e2ddf2018252b65a9e732c9579c", "rental_uris": {"android": "https://dc.lft.to/lastmile_qr_scan", "ios": "https://dc.lft.to/lastmile_qr_scan"}, "name": "48380e2ddf2018252b65a9e732c9579c", "is_reserved": 0}, {"is_disabled": 0, "fusion_lon": 0.0, "fusion_lat": 0.0, "lat": 38.9241565, "type": "electric_scooter", "lon": -77.03547266666666, "bike_id": "9da5fc08715c45583ccb773658703bc3", "rental_uris": {"android": "https://dc.lft.to/lastmile_qr_scan", "ios": "https://dc.lft.to/lastmile_qr_scan"}, "name": "9da5fc08715c45583ccb773658703bc3", "is_reserved": 0}, {"is_disabled": 0, "fusion_lon": 0.0, "fusion_lat": 0.0, "lat": 38.903407333333334, "type": "electric_scooter", "lon": -76.9757435, "bike_id": "15add46d450b328c17c919c3a5f0580d", "rental_uris": {"android": "https://dc.lft.to/lastmile_qr_scan", "ios": "https://dc.lft.to/lastmile_qr_scan"}, "name": "15add46d450b328c17c919c3a5f0580d", "is_reserved": 0}, {"is_disabled": 0, "fusion_lon": 0.0, "fusion_lat": 0.0, "lat": 39.08846316666666, "type": "electric_bike", "lon": -77.17794383333333, "bike_id": "1627a429fb4261de251dd548b7bc0d95", "rental_uris": {"android": "https://dc.lft.to/lastmile_qr_scan", "ios": "https://dc.lft.to/lastmile_qr_scan"}, "name": "1627a429fb4261de251dd548b7bc0d95", "is_reserved": 0}, {"is_disabled": 0, "fusion_lon": 0.0, "fusion_lat": 0.0, "lat": 38.88418133333333, "type": "electric_scooter", "lon": -76.95414783333334, "bike_id": "8ba26581b82f5a9b306ffda38446e811", "rental_uris": {"android": "https://dc.lft.to/lastmile_qr_scan", "ios": "https://dc.lft.to/lastmile_qr_scan"}, "name": "8ba26581b82f5a9b306ffda38446e811", "is_reserved": 0}, {"is_disabled": 0, "fusion_lon": 0.0, "fusion_lat": 0.0, "lat": 38.955579666666665, "type": "electric_scooter", "lon": -77.06985183333333, "bike_id": "9c873c7a500d7725a57877d8e080f982", "rental_uris": {"android": "https://dc.lft.to/lastmile_qr_scan", "ios": "https://dc.lft.to/lastmile_qr_scan"}, "name": "9c873c7a500d7725a57877d8e080f982", "is_reserved": 0}, {"is_disabled": 0, "fusion_lon": 0.0, "fusion_lat": 0.0, "lat": 38.90098783333333, "type": "electric_scooter", "lon": -77.0199935, "bike_id": "cff895bb5da7b65c43daa5ecc438bde5", "rental_uris": {"android": "https://dc.lft.to/lastmile_qr_scan", "ios": "https://dc.lft.to/lastmile_qr_scan"}, "name": "cff895bb5da7b65c43daa5ecc438bde5", "is_reserved": 0}, {"is_disabled": 0, "fusion_lon": 0.0, "fusion_lat": 0.0, "lat": 38.87659133333333, "type": "electric_scooter", "lon": -77.009043, "bike_id": "ab5d0876e7d2ecc1d5b1444ea44bbcf8", "rental_uris": {"android": "https://dc.lft.to/lastmile_qr_scan", "ios": "https://dc.lft.to/lastmile_qr_scan"}, "name": "ab5d0876e7d2ecc1d5b1444ea44bbcf8", "is_reserved": 0}, {"is_disabled": 0, "fusion_lon": 0.0, "fusion_lat": 0.0, "lat": 38.913268333333335, "type": "electric_scooter", "lon": -77.03189716666667, "bike_id": "ed1af8eb1e698c95c3ccc3f875253dca", "rental_uris": {"android": "https://dc.lft.to/lastmile_qr_scan", "ios": "https://dc.lft.to/lastmile_qr_scan"}, "name": "ed1af8eb1e698c95c3ccc3f875253dca", "is_reserved": 0}, {"is_disabled": 0, "fusion_lon": 0.0, "fusion_lat": 0.0, "lat": 38.91266016666667, "type": "electric_scooter", "lon": -77.033649, "bike_id": "1a103ab877689fe231b85c4476cea0eb", "rental_uris": {"android": "https://dc.lft.to/lastmile_qr_scan", "ios": "https://dc.lft.to/lastmile_qr_scan"}, "name": "1a103ab877689fe231b85c4476cea0eb", "is_reserved": 0}, {"is_disabled": 0, "fusion_lon": 0.0, "fusion_lat": 0.0, "lat": 38.925661166666664, "type": "electric_scooter", "lon": -77.037679, "bike_id": "4fb6c23ac07b5b00990d878fbfb08ef6", "rental_uris": {"android": "https://dc.lft.to/lastmile_qr_scan", "ios": "https://dc.lft.to/lastmile_qr_scan"}, "name": "4fb6c23ac07b5b00990d878fbfb08ef6", "is_reserved": 0}, {"is_disabled": 0, "fusion_lon": 0.0, "fusion_lat": 0.0, "lat": 38.913076833333335, "type": "electric_scooter", "lon": -77.00844033333334, "bike_id": "b9f8cbad5d542579b16ec60fbcb361d3", "rental_uris": {"android": "https://dc.lft.to/lastmile_qr_scan", "ios": "https://dc.lft.to/lastmile_qr_scan"}, "name": "b9f8cbad5d542579b16ec60fbcb361d3", "is_reserved": 0}, {"is_disabled": 0, "fusion_lon": 0.0, "fusion_lat": 0.0, "lat": 38.946044, "type": "electric_scooter", "lon": -77.029791, "bike_id": "7d2b83b47a1407e5f047c3c7d7021587", "rental_uris": {"android": "https://dc.lft.to/lastmile_qr_scan", "ios": "https://dc.lft.to/lastmile_qr_scan"}, "name": "7d2b83b47a1407e5f047c3c7d7021587", "is_reserved": 0}, {"is_disabled": 0, "fusion_lon": 0.0, "fusion_lat": 0.0, "lat": 38.91802283333333, "type": "electric_scooter", "lon": -77.034393, "bike_id": "10b789af0682794cb76c794ec6d2ff16", "rental_uris": {"android": "https://dc.lft.to/lastmile_qr_scan", "ios": "https://dc.lft.to/lastmile_qr_scan"}, "name": "10b789af0682794cb76c794ec6d2ff16", "is_reserved": 0}, {"is_disabled": 0, "fusion_lon": 0.0, "fusion_lat": 0.0, "lat": 38.922377166666664, "type": "electric_scooter", "lon": -77.03350166666667, "bike_id": "f4ed1a566029b6261647f97f4e8349e9", "rental_uris": {"android": "https://dc.lft.to/lastmile_qr_scan", "ios": "https://dc.lft.to/lastmile_qr_scan"}, "name": "f4ed1a566029b6261647f97f4e8349e9", "is_reserved": 0}, {"is_disabled": 0, "fusion_lon": 0.0, "fusion_lat": 0.0, "lat": 38.98992166666667, "type": "electric_scooter", "lon": -77.03360133333334, "bike_id": "6011d853456bf9f34359a2081ad0d8ce", "rental_uris": {"android": "https://dc.lft.to/lastmile_qr_scan", "ios": "https://dc.lft.to/lastmile_qr_scan"}, "name": "6011d853456bf9f34359a2081ad0d8ce", "is_reserved": 0}, {"is_disabled": 0, "fusion_lon": 0.0, "fusion_lat": 0.0, "lat": 38.884783, "type": "electric_scooter", "lon": -77.0236755, "bike_id": "808b3171d667265a5a99e26522d90744", "rental_uris": {"android": "https://dc.lft.to/lastmile_qr_scan", "ios": "https://dc.lft.to/lastmile_qr_scan"}, "name": "808b3171d667265a5a99e26522d90744", "is_reserved": 0}, {"is_disabled": 0, "fusion_lon": 0.0, "fusion_lat": 0.0, "lat": 38.88159116666667, "type": "electric_scooter", "lon": -77.02696366666666, "bike_id": "9e961aa6565feeee2b24f743ba0d33d3", "rental_uris": {"android": "https://dc.lft.to/lastmile_qr_scan", "ios": "https://dc.lft.to/lastmile_qr_scan"}, "name": "9e961aa6565feeee2b24f743ba0d33d3", "is_reserved": 0}, {"is_disabled": 0, "fusion_lon": 0.0, "fusion_lat": 0.0, "lat": 38.90553333333333, "type": "electric_scooter", "lon": -76.98142383333334, "bike_id": "2810263231d0c7534eb6e2639b72cec6", "rental_uris": {"android": "https://dc.lft.to/lastmile_qr_scan", "ios": "https://dc.lft.to/lastmile_qr_scan"}, "name": "2810263231d0c7534eb6e2639b72cec6", "is_reserved": 0}, {"is_disabled": 0, "fusion_lon": 0.0, "fusion_lat": 0.0, "lat": 38.881909666666665, "type": "electric_scooter", "lon": -76.99502433333333, "bike_id": "917dde9950f45b0a883f667459c318d3", "rental_uris": {"android": "https://dc.lft.to/lastmile_qr_scan", "ios": "https://dc.lft.to/lastmile_qr_scan"}, "name": "917dde9950f45b0a883f667459c318d3", "is_reserved": 0}, {"is_disabled": 0, "fusion_lon": 0.0, "fusion_lat": 0.0, "lat": 38.893929166666666, "type": "electric_scooter", "lon": -76.9499755, "bike_id": "27dbbfbe39f88b817cff6bf7cadaddbf", "rental_uris": {"android": "https://dc.lft.to/lastmile_qr_scan", "ios": "https://dc.lft.to/lastmile_qr_scan"}, "name": "27dbbfbe39f88b817cff6bf7cadaddbf", "is_reserved": 0}, {"is_disabled": 0, "fusion_lon": 0.0, "fusion_lat": 0.0, "lat": 38.900180666666664, "type": "electric_scooter", "lon": -77.05254183333334, "bike_id": "c67e1f10a26100efd221d071c068d553", "rental_uris": {"android": "https://dc.lft.to/lastmile_qr_scan", "ios": "https://dc.lft.to/lastmile_qr_scan"}, "name": "c67e1f10a26100efd221d071c068d553", "is_reserved": 0}, {"is_disabled": 0, "fusion_lon": 0.0, "fusion_lat": 0.0, "lat": 38.94589066666666, "type": "electric_bike", "lon": -77.3440735, "bike_id": "b577e5b41f96676a1a7311582b09ccca", "rental_uris": {"android": "https://dc.lft.to/lastmile_qr_scan", "ios": "https://dc.lft.to/lastmile_qr_scan"}, "name": "b577e5b41f96676a1a7311582b09ccca", "is_reserved": 0}, {"is_disabled": 0, "fusion_lon": 0.0, "fusion_lat": 0.0, "lat": 38.934569333333336, "type": "electric_scooter", "lon": -77.03056933333333, "bike_id": "6ac32afd613367564571a84b947cabc9", "rental_uris": {"android": "https://dc.lft.to/lastmile_qr_scan", "ios": "https://dc.lft.to/lastmile_qr_scan"}, "name": "6ac32afd613367564571a84b947cabc9", "is_reserved": 0}, {"is_disabled": 0, "fusion_lon": 0.0, "fusion_lat": 0.0, "lat": 38.90510883333334, "type": "electric_scooter", "lon": -77.01707783333333, "bike_id": "9b408af80739e45ad2c62443f174cd4f", "rental_uris": {"android": "https://dc.lft.to/lastmile_qr_scan", "ios": "https://dc.lft.to/lastmile_qr_scan"}, "name": "9b408af80739e45ad2c62443f174cd4f", "is_reserved": 0}, {"is_disabled": 0, "fusion_lon": 0.0, "fusion_lat": 0.0, "lat": 38.912367, "type": "electric_scooter", "lon": -77.04873883333333, "bike_id": "132bbd309e618009c3d8f677c5e7c449", "rental_uris": {"android": "https://dc.lft.to/lastmile_qr_scan", "ios": "https://dc.lft.to/lastmile_qr_scan"}, "name": "132bbd309e618009c3d8f677c5e7c449", "is_reserved": 0}, {"is_disabled": 0, "fusion_lon": 0.0, "fusion_lat": 0.0, "lat": 38.77617816666667, "type": "electric_bike", "lon": -77.0835035, "bike_id": "794ac97bf0db7a238f44747ba324368d", "rental_uris": {"android": "https://dc.lft.to/lastmile_qr_scan", "ios": "https://dc.lft.to/lastmile_qr_scan"}, "name": "794ac97bf0db7a238f44747ba324368d", "is_reserved": 0}, {"is_disabled": 0, "fusion_lon": 0.0, "fusion_lat": 0.0, "lat": 38.884348833333334, "type": "electric_scooter", "lon": -77.029608, "bike_id": "b76522868a4ef2bfcf88af60a418b9f2", "rental_uris": {"android": "https://dc.lft.to/lastmile_qr_scan", "ios": "https://dc.lft.to/lastmile_qr_scan"}, "name": "b76522868a4ef2bfcf88af60a418b9f2", "is_reserved": 0}, {"is_disabled": 0, "fusion_lon": 0.0, "fusion_lat": 0.0, "lat": 38.894905333333334, "type": "electric_scooter", "lon": -77.009521, "bike_id": "a7873fbf5159043395a8bb73659c57ec", "rental_uris": {"android": "https://dc.lft.to/lastmile_qr_scan", "ios": "https://dc.lft.to/lastmile_qr_scan"}, "name": "a7873fbf5159043395a8bb73659c57ec", "is_reserved": 0}, {"is_disabled": 0, "fusion_lon": 0.0, "fusion_lat": 0.0, "lat": 39.054575166666666, "type": "electric_bike", "lon": -77.143228, "bike_id": "161c793504ea65c14353bd3f29fd2d98", "rental_uris": {"android": "https://dc.lft.to/lastmile_qr_scan", "ios": "https://dc.lft.to/lastmile_qr_scan"}, "name": "161c793504ea65c14353bd3f29fd2d98", "is_reserved": 0}, {"is_disabled": 0, "fusion_lon": 0.0, "fusion_lat": 0.0, "lat": 38.91693466666667, "type": "electric_bike", "lon": -77.0917045, "bike_id": "d0d7d10d6f7ced3809560db7dbb37aaf", "rental_uris": {"android": "https://dc.lft.to/lastmile_qr_scan", "ios": "https://dc.lft.to/lastmile_qr_scan"}, "name": "d0d7d10d6f7ced3809560db7dbb37aaf", "is_reserved": 0}, {"is_disabled": 0, "fusion_lon": 0.0, "fusion_lat": 0.0, "lat": 38.873724, "type": "electric_scooter", "lon": -77.00092716666667, "bike_id": "0c3058e3057702696243df7c376da836", "rental_uris": {"android": "https://dc.lft.to/lastmile_qr_scan", "ios": "https://dc.lft.to/lastmile_qr_scan"}, "name": "0c3058e3057702696243df7c376da836", "is_reserved": 0}, {"is_disabled": 0, "fusion_lon": 0.0, "fusion_lat": 0.0, "lat": 38.80562783333333, "type": "electric_bike", "lon": -77.051569, "bike_id": "d40cf8e28a21e9e5261268a3fd20afcc", "rental_uris": {"android": "https://dc.lft.to/lastmile_qr_scan", "ios": "https://dc.lft.to/lastmile_qr_scan"}, "name": "d40cf8e28a21e9e5261268a3fd20afcc", "is_reserved": 0}, {"is_disabled": 0, "fusion_lon": 0.0, "fusion_lat": 0.0, "lat": 38.919565, "type": "electric_scooter", "lon": -77.02344916666667, "bike_id": "bc4760fed07af4b0e6c5fdab0d4efb67", "rental_uris": {"android": "https://dc.lft.to/lastmile_qr_scan", "ios": "https://dc.lft.to/lastmile_qr_scan"}, "name": "bc4760fed07af4b0e6c5fdab0d4efb67", "is_reserved": 0}, {"is_disabled": 0, "fusion_lon": 0.0, "fusion_lat": 0.0, "lat": 38.905152666666666, "type": "electric_scooter", "lon": -76.98252583333333, "bike_id": "a52002b0568cea6cb067d65ae82310bd", "rental_uris": {"android": "https://dc.lft.to/lastmile_qr_scan", "ios": "https://dc.lft.to/lastmile_qr_scan"}, "name": "a52002b0568cea6cb067d65ae82310bd", "is_reserved": 0}, {"is_disabled": 0, "fusion_lon": 0.0, "fusion_lat": 0.0, "lat": 39.007845333333336, "type": "electric_bike", "lon": -76.99567666666667, "bike_id": "4beffb5fae2ff0e6ff4e8d4577789518", "rental_uris": {"android": "https://dc.lft.to/lastmile_qr_scan", "ios": "https://dc.lft.to/lastmile_qr_scan"}, "name": "4beffb5fae2ff0e6ff4e8d4577789518", "is_reserved": 0}, {"is_disabled": 0, "fusion_lon": 0.0, "fusion_lat": 0.0, "lat": 38.882288333333335, "type": "electric_scooter", "lon": -76.995062, "bike_id": "2393f707fd7fcfe0307db8fb998087ea", "rental_uris": {"android": "https://dc.lft.to/lastmile_qr_scan", "ios": "https://dc.lft.to/lastmile_qr_scan"}, "name": "2393f707fd7fcfe0307db8fb998087ea", "is_reserved": 0}, {"is_disabled": 0, "fusion_lon": 0.0, "fusion_lat": 0.0, "lat": 38.906521166666664, "type": "electric_scooter", "lon": -77.04539333333334, "bike_id": "d63768b5d9780010c7d43bee53d1480d", "rental_uris": {"android": "https://dc.lft.to/lastmile_qr_scan", "ios": "https://dc.lft.to/lastmile_qr_scan"}, "name": "d63768b5d9780010c7d43bee53d1480d", "is_reserved": 0}, {"is_disabled": 0, "fusion_lon": 0.0, "fusion_lat": 0.0, "lat": 38.908931, "type": "electric_scooter", "lon": -77.04475883333333, "bike_id": "f9a3a884aaa88dc36cf0025703df57c5", "rental_uris": {"android": "https://dc.lft.to/lastmile_qr_scan", "ios": "https://dc.lft.to/lastmile_qr_scan"}, "name": "f9a3a884aaa88dc36cf0025703df57c5", "is_reserved": 0}, {"is_disabled": 0, "fusion_lon": 0.0, "fusion_lat": 0.0, "lat": 38.86353116666667, "type": "electric_scooter", "lon": -76.99059383333334, "bike_id": "da4675e9c13bf0333b1213e72c952a3e", "rental_uris": {"android": "https://dc.lft.to/lastmile_qr_scan", "ios": "https://dc.lft.to/lastmile_qr_scan"}, "name": "da4675e9c13bf0333b1213e72c952a3e", "is_reserved": 0}, {"is_disabled": 0, "fusion_lon": 0.0, "fusion_lat": 0.0, "lat": 39.095948, "type": "electric_bike", "lon": -77.1478, "bike_id": "d84006749efbe6a9f96d5b0f13830f37", "rental_uris": {"android": "https://dc.lft.to/lastmile_qr_scan", "ios": "https://dc.lft.to/lastmile_qr_scan"}, "name": "d84006749efbe6a9f96d5b0f13830f37", "is_reserved": 0}, {"is_disabled": 0, "fusion_lon": 0.0, "fusion_lat": 0.0, "lat": 38.91402933333333, "type": "electric_scooter", "lon": -77.02666266666667, "bike_id": "44ca2229dd11408b9d2b846129d5c323", "rental_uris": {"android": "https://dc.lft.to/lastmile_qr_scan", "ios": "https://dc.lft.to/lastmile_qr_scan"}, "name": "44ca2229dd11408b9d2b846129d5c323", "is_reserved": 0}, {"is_disabled": 0, "fusion_lon": 0.0, "fusion_lat": 0.0, "lat": 38.85559933333333, "type": "electric_bike", "lon": -77.10706883333333, "bike_id": "10360be2bfbf4167bfcaf677a18be54c", "rental_uris": {"android": "https://dc.lft.to/lastmile_qr_scan", "ios": "https://dc.lft.to/lastmile_qr_scan"}, "name": "10360be2bfbf4167bfcaf677a18be54c", "is_reserved": 0}, {"is_disabled": 0, "fusion_lon": 0.0, "fusion_lat": 0.0, "lat": 38.99934116666667, "type": "electric_bike", "lon": -77.00121083333333, "bike_id": "0a3d497c038921aa105dfa11d31daa4a", "rental_uris": {"android": "https://dc.lft.to/lastmile_qr_scan", "ios": "https://dc.lft.to/lastmile_qr_scan"}, "name": "0a3d497c038921aa105dfa11d31daa4a", "is_reserved": 0}, {"is_disabled": 0, "fusion_lon": 0.0, "fusion_lat": 0.0, "lat": 38.931127000000004, "type": "electric_scooter", "lon": -77.03507433333333, "bike_id": "cfe509974c559a58fadfbd31c339e7ba", "rental_uris": {"android": "https://dc.lft.to/lastmile_qr_scan", "ios": "https://dc.lft.to/lastmile_qr_scan"}, "name": "cfe509974c559a58fadfbd31c339e7ba", "is_reserved": 0}, {"is_disabled": 0, "fusion_lon": 0.0, "fusion_lat": 0.0, "lat": 38.919408833333335, "type": "electric_scooter", "lon": -77.08127733333333, "bike_id": "f768dbda1d19810e2a35e1eccdbac67f", "rental_uris": {"android": "https://dc.lft.to/lastmile_qr_scan", "ios": "https://dc.lft.to/lastmile_qr_scan"}, "name": "f768dbda1d19810e2a35e1eccdbac67f", "is_reserved": 0}, {"is_disabled": 0, "fusion_lon": 0.0, "fusion_lat": 0.0, "lat": 38.911788, "type": "electric_scooter", "lon": -77.00440183333333, "bike_id": "a423ae930ebe059d98efab902e9e2552", "rental_uris": {"android": "https://dc.lft.to/lastmile_qr_scan", "ios": "https://dc.lft.to/lastmile_qr_scan"}, "name": "a423ae930ebe059d98efab902e9e2552", "is_reserved": 0}, {"is_disabled": 0, "fusion_lon": 0.0, "fusion_lat": 0.0, "lat": 38.880283666666664, "type": "electric_scooter", "lon": -76.93123033333333, "bike_id": "8faab40e791cc8b36ded7ceeccee0502", "rental_uris": {"android": "https://dc.lft.to/lastmile_qr_scan", "ios": "https://dc.lft.to/lastmile_qr_scan"}, "name": "8faab40e791cc8b36ded7ceeccee0502", "is_reserved": 0}, {"is_disabled": 0, "fusion_lon": 0.0, "fusion_lat": 0.0, "lat": 38.89500016666667, "type": "electric_scooter", "lon": -76.948801, "bike_id": "7ce3a9d67815b123d615a76515653d6a", "rental_uris": {"android": "https://dc.lft.to/lastmile_qr_scan", "ios": "https://dc.lft.to/lastmile_qr_scan"}, "name": "7ce3a9d67815b123d615a76515653d6a", "is_reserved": 0}, {"is_disabled": 0, "fusion_lon": 0.0, "fusion_lat": 0.0, "lat": 38.932415666666664, "type": "electric_scooter", "lon": -77.02850283333333, "bike_id": "827a1de414ab83b454490a826b410f11", "rental_uris": {"android": "https://dc.lft.to/lastmile_qr_scan", "ios": "https://dc.lft.to/lastmile_qr_scan"}, "name": "827a1de414ab83b454490a826b410f11", "is_reserved": 0}, {"is_disabled": 0, "fusion_lon": 0.0, "fusion_lat": 0.0, "lat": 38.96759, "type": "electric_bike", "lon": -77.091599, "bike_id": "086acbf202588d0a9edaa8783e01c6db", "rental_uris": {"android": "https://dc.lft.to/lastmile_qr_scan", "ios": "https://dc.lft.to/lastmile_qr_scan"}, "name": "086acbf202588d0a9edaa8783e01c6db", "is_reserved": 0}, {"is_disabled": 0, "fusion_lon": 0.0, "fusion_lat": 0.0, "lat": 38.91481783333333, "type": "electric_scooter", "lon": -76.9836015, "bike_id": "dd6735b0572ca2c72caa5005a9d9c733", "rental_uris": {"android": "https://dc.lft.to/lastmile_qr_scan", "ios": "https://dc.lft.to/lastmile_qr_scan"}, "name": "dd6735b0572ca2c72caa5005a9d9c733", "is_reserved": 0}, {"is_disabled": 0, "fusion_lon": 0.0, "fusion_lat": 0.0, "lat": 38.916946333333335, "type": "electric_scooter", "lon": -77.0243805, "bike_id": "9cb807e20d1a7ebb4e23a51f195c6ada", "rental_uris": {"android": "https://dc.lft.to/lastmile_qr_scan", "ios": "https://dc.lft.to/lastmile_qr_scan"}, "name": "9cb807e20d1a7ebb4e23a51f195c6ada", "is_reserved": 0}, {"is_disabled": 0, "fusion_lon": 0.0, "fusion_lat": 0.0, "lat": 38.858058666666665, "type": "electric_scooter", "lon": -76.98655033333333, "bike_id": "b910df6294b608a8f0fcae530e9c5be6", "rental_uris": {"android": "https://dc.lft.to/lastmile_qr_scan", "ios": "https://dc.lft.to/lastmile_qr_scan"}, "name": "b910df6294b608a8f0fcae530e9c5be6", "is_reserved": 0}, {"is_disabled": 0, "fusion_lon": 0.0, "fusion_lat": 0.0, "lat": 38.847318666666666, "type": "electric_bike", "lon": -77.09532083333333, "bike_id": "9dd4a1895549e2476c48a57f56c6fb4e", "rental_uris": {"android": "https://dc.lft.to/lastmile_qr_scan", "ios": "https://dc.lft.to/lastmile_qr_scan"}, "name": "9dd4a1895549e2476c48a57f56c6fb4e", "is_reserved": 0}, {"is_disabled": 0, "fusion_lon": 0.0, "fusion_lat": 0.0, "lat": 38.86320966666667, "type": "electric_scooter", "lon": -76.99051383333334, "bike_id": "3d2a528e143fb57325e4b18bd8c153de", "rental_uris": {"android": "https://dc.lft.to/lastmile_qr_scan", "ios": "https://dc.lft.to/lastmile_qr_scan"}, "name": "3d2a528e143fb57325e4b18bd8c153de", "is_reserved": 0}, {"is_disabled": 0, "fusion_lon": 0.0, "fusion_lat": 0.0, "lat": 38.911097, "type": "electric_scooter", "lon": -77.04501266666666, "bike_id": "61fdbe4d87b974a7882f8e256c1ef5d7", "rental_uris": {"android": "https://dc.lft.to/lastmile_qr_scan", "ios": "https://dc.lft.to/lastmile_qr_scan"}, "name": "61fdbe4d87b974a7882f8e256c1ef5d7", "is_reserved": 0}, {"is_disabled": 0, "fusion_lon": 0.0, "fusion_lat": 0.0, "lat": 38.91276416666667, "type": "electric_scooter", "lon": -77.047331, "bike_id": "6e2c1b365aeb2665b3ceffd481108fce", "rental_uris": {"android": "https://dc.lft.to/lastmile_qr_scan", "ios": "https://dc.lft.to/lastmile_qr_scan"}, "name": "6e2c1b365aeb2665b3ceffd481108fce", "is_reserved": 0}, {"is_disabled": 0, "fusion_lon": 0.0, "fusion_lat": 0.0, "lat": 38.905451, "type": "electric_scooter", "lon": -77.0570355, "bike_id": "61ccb25d85983a7d570757c27630c3c5", "rental_uris": {"android": "https://dc.lft.to/lastmile_qr_scan", "ios": "https://dc.lft.to/lastmile_qr_scan"}, "name": "61ccb25d85983a7d570757c27630c3c5", "is_reserved": 0}, {"is_disabled": 0, "fusion_lon": 0.0, "fusion_lat": 0.0, "lat": 38.92831133333333, "type": "electric_scooter", "lon": -77.01409783333334, "bike_id": "7f0c2c0b3e3eec00301e2903322dbf21", "rental_uris": {"android": "https://dc.lft.to/lastmile_qr_scan", "ios": "https://dc.lft.to/lastmile_qr_scan"}, "name": "7f0c2c0b3e3eec00301e2903322dbf21", "is_reserved": 0}, {"is_disabled": 0, "fusion_lon": 0.0, "fusion_lat": 0.0, "lat": 38.8360145, "type": "electric_scooter", "lon": -77.003592, "bike_id": "ee64740650b20a15dde02a3bed97d4c6", "rental_uris": {"android": "https://dc.lft.to/lastmile_qr_scan", "ios": "https://dc.lft.to/lastmile_qr_scan"}, "name": "ee64740650b20a15dde02a3bed97d4c6", "is_reserved": 0}, {"is_disabled": 0, "fusion_lon": 0.0, "fusion_lat": 0.0, "lat": 38.916337666666664, "type": "electric_scooter", "lon": -77.03840933333333, "bike_id": "2a4f70d6f3b1a064f7f4d3d792f79f75", "rental_uris": {"android": "https://dc.lft.to/lastmile_qr_scan", "ios": "https://dc.lft.to/lastmile_qr_scan"}, "name": "2a4f70d6f3b1a064f7f4d3d792f79f75", "is_reserved": 0}, {"is_disabled": 0, "fusion_lon": 0.0, "fusion_lat": 0.0, "lat": 38.883765, "type": "electric_scooter", "lon": -76.923725, "bike_id": "86b4fad50cfdefd4f0df78f068e73dba", "rental_uris": {"android": "https://dc.lft.to/lastmile_qr_scan", "ios": "https://dc.lft.to/lastmile_qr_scan"}, "name": "86b4fad50cfdefd4f0df78f068e73dba", "is_reserved": 0}, {"is_disabled": 0, "fusion_lon": 0.0, "fusion_lat": 0.0, "lat": 38.93095133333333, "type": "electric_scooter", "lon": -77.0343295, "bike_id": "b7400d5787852fe06136145386861a50", "rental_uris": {"android": "https://dc.lft.to/lastmile_qr_scan", "ios": "https://dc.lft.to/lastmile_qr_scan"}, "name": "b7400d5787852fe06136145386861a50", "is_reserved": 0}, {"is_disabled": 0, "fusion_lon": 0.0, "fusion_lat": 0.0, "lat": 38.91036733333333, "type": "electric_scooter", "lon": -77.04653883333333, "bike_id": "a53cff8cb3cb2813f3f0aa1dc7faa008", "rental_uris": {"android": "https://dc.lft.to/lastmile_qr_scan", "ios": "https://dc.lft.to/lastmile_qr_scan"}, "name": "a53cff8cb3cb2813f3f0aa1dc7faa008", "is_reserved": 0}, {"is_disabled": 0, "fusion_lon": 0.0, "fusion_lat": 0.0, "lat": 38.90858033333333, "type": "electric_scooter", "lon": -77.06391533333333, "bike_id": "3552db4605d7d05349f966afec536a79", "rental_uris": {"android": "https://dc.lft.to/lastmile_qr_scan", "ios": "https://dc.lft.to/lastmile_qr_scan"}, "name": "3552db4605d7d05349f966afec536a79", "is_reserved": 0}, {"is_disabled": 0, "fusion_lon": 0.0, "fusion_lat": 0.0, "lat": 38.9397635, "type": "electric_scooter", "lon": -77.0301965, "bike_id": "07f4509f6d6f5fbc3c0b5efe1027ddda", "rental_uris": {"android": "https://dc.lft.to/lastmile_qr_scan", "ios": "https://dc.lft.to/lastmile_qr_scan"}, "name": "07f4509f6d6f5fbc3c0b5efe1027ddda", "is_reserved": 0}, {"is_disabled": 0, "fusion_lon": 0.0, "fusion_lat": 0.0, "lat": 38.911127, "type": "electric_scooter", "lon": -77.03832066666666, "bike_id": "07ac1d2e2a459c2013cb07511bfbb4e3", "rental_uris": {"android": "https://dc.lft.to/lastmile_qr_scan", "ios": "https://dc.lft.to/lastmile_qr_scan"}, "name": "07ac1d2e2a459c2013cb07511bfbb4e3", "is_reserved": 0}, {"is_disabled": 0, "fusion_lon": 0.0, "fusion_lat": 0.0, "lat": 38.92309433333333, "type": "electric_scooter", "lon": -77.03104933333333, "bike_id": "ed8d1a4fe1f2028313f7274966eeff8c", "rental_uris": {"android": "https://dc.lft.to/lastmile_qr_scan", "ios": "https://dc.lft.to/lastmile_qr_scan"}, "name": "ed8d1a4fe1f2028313f7274966eeff8c", "is_reserved": 0}, {"is_disabled": 0, "fusion_lon": 0.0, "fusion_lat": 0.0, "lat": 38.92381133333333, "type": "electric_scooter", "lon": -77.030587, "bike_id": "7f40cf23786a2909fa33472de120cc84", "rental_uris": {"android": "https://dc.lft.to/lastmile_qr_scan", "ios": "https://dc.lft.to/lastmile_qr_scan"}, "name": "7f40cf23786a2909fa33472de120cc84", "is_reserved": 0}, {"is_disabled": 0, "fusion_lon": 0.0, "fusion_lat": 0.0, "lat": 38.903557, "type": "electric_scooter", "lon": -77.02528116666667, "bike_id": "9a12271af69b23551788d347d39c783b", "rental_uris": {"android": "https://dc.lft.to/lastmile_qr_scan", "ios": "https://dc.lft.to/lastmile_qr_scan"}, "name": "9a12271af69b23551788d347d39c783b", "is_reserved": 0}, {"is_disabled": 0, "fusion_lon": 0.0, "fusion_lat": 0.0, "lat": 38.904410666666664, "type": "electric_scooter", "lon": -77.06112466666667, "bike_id": "8cbbdeef4e283e7e3a9c733226c87f9a", "rental_uris": {"android": "https://dc.lft.to/lastmile_qr_scan", "ios": "https://dc.lft.to/lastmile_qr_scan"}, "name": "8cbbdeef4e283e7e3a9c733226c87f9a", "is_reserved": 0}, {"is_disabled": 0, "fusion_lon": 0.0, "fusion_lat": 0.0, "lat": 38.90319616666667, "type": "electric_scooter", "lon": -77.02883833333334, "bike_id": "7b9aaa07956126360839ef7e989c7f55", "rental_uris": {"android": "https://dc.lft.to/lastmile_qr_scan", "ios": "https://dc.lft.to/lastmile_qr_scan"}, "name": "7b9aaa07956126360839ef7e989c7f55", "is_reserved": 0}, {"is_disabled": 0, "fusion_lon": 0.0, "fusion_lat": 0.0, "lat": 38.965574, "type": "electric_bike", "lon": -77.02297383333334, "bike_id": "8ad2b7262d6cf17ae9c7060acc8aeeca", "rental_uris": {"android": "https://dc.lft.to/lastmile_qr_scan", "ios": "https://dc.lft.to/lastmile_qr_scan"}, "name": "8ad2b7262d6cf17ae9c7060acc8aeeca", "is_reserved": 0}, {"is_disabled": 0, "fusion_lon": 0.0, "fusion_lat": 0.0, "lat": 38.92369433333333, "type": "electric_scooter", "lon": -77.05030816666667, "bike_id": "4da9481617af558791682795b4acacc1", "rental_uris": {"android": "https://dc.lft.to/lastmile_qr_scan", "ios": "https://dc.lft.to/lastmile_qr_scan"}, "name": "4da9481617af558791682795b4acacc1", "is_reserved": 0}, {"is_disabled": 0, "fusion_lon": 0.0, "fusion_lat": 0.0, "lat": 38.894043, "type": "electric_scooter", "lon": -77.02150416666667, "bike_id": "d8f1eded591a81336acbfeb92703f144", "rental_uris": {"android": "https://dc.lft.to/lastmile_qr_scan", "ios": "https://dc.lft.to/lastmile_qr_scan"}, "name": "d8f1eded591a81336acbfeb92703f144", "is_reserved": 0}, {"is_disabled": 0, "fusion_lon": 0.0, "fusion_lat": 0.0, "lat": 38.9074515, "type": "electric_scooter", "lon": -77.00290266666667, "bike_id": "9af42a45f976485430dc6b2db9392a27", "rental_uris": {"android": "https://dc.lft.to/lastmile_qr_scan", "ios": "https://dc.lft.to/lastmile_qr_scan"}, "name": "9af42a45f976485430dc6b2db9392a27", "is_reserved": 0}, {"is_disabled": 0, "fusion_lon": 0.0, "fusion_lat": 0.0, "lat": 38.90168583333333, "type": "electric_scooter", "lon": -77.059066, "bike_id": "cc766fe4000afeac2ef19f77884bb128", "rental_uris": {"android": "https://dc.lft.to/lastmile_qr_scan", "ios": "https://dc.lft.to/lastmile_qr_scan"}, "name": "cc766fe4000afeac2ef19f77884bb128", "is_reserved": 0}, {"is_disabled": 0, "fusion_lon": 0.0, "fusion_lat": 0.0, "lat": 38.918974666666664, "type": "electric_scooter", "lon": -77.0446565, "bike_id": "0a7734f3c1677da0f64f3ebfc444b4d9", "rental_uris": {"android": "https://dc.lft.to/lastmile_qr_scan", "ios": "https://dc.lft.to/lastmile_qr_scan"}, "name": "0a7734f3c1677da0f64f3ebfc444b4d9", "is_reserved": 0}, {"is_disabled": 0, "fusion_lon": 0.0, "fusion_lat": 0.0, "lat": 38.9086295, "type": "electric_scooter", "lon": -77.04840566666667, "bike_id": "2aae3ea0b3dad72c6afa91935fb0bef8", "rental_uris": {"android": "https://dc.lft.to/lastmile_qr_scan", "ios": "https://dc.lft.to/lastmile_qr_scan"}, "name": "2aae3ea0b3dad72c6afa91935fb0bef8", "is_reserved": 0}, {"is_disabled": 0, "fusion_lon": 0.0, "fusion_lat": 0.0, "lat": 38.89229233333333, "type": "electric_scooter", "lon": -77.046558, "bike_id": "2fbcaca67789dde2ebc1f8080fdf36df", "rental_uris": {"android": "https://dc.lft.to/lastmile_qr_scan", "ios": "https://dc.lft.to/lastmile_qr_scan"}, "name": "2fbcaca67789dde2ebc1f8080fdf36df", "is_reserved": 0}, {"is_disabled": 0, "fusion_lon": 0.0, "fusion_lat": 0.0, "lat": 38.90999333333333, "type": "electric_scooter", "lon": -77.03729033333333, "bike_id": "7332383bf46c73bc8263be999146cc8c", "rental_uris": {"android": "https://dc.lft.to/lastmile_qr_scan", "ios": "https://dc.lft.to/lastmile_qr_scan"}, "name": "7332383bf46c73bc8263be999146cc8c", "is_reserved": 0}, {"is_disabled": 0, "fusion_lon": 0.0, "fusion_lat": 0.0, "lat": 38.94188783333333, "type": "electric_scooter", "lon": -77.02487166666667, "bike_id": "afb984c9fe0c8d148d760b8ffeb9a15e", "rental_uris": {"android": "https://dc.lft.to/lastmile_qr_scan", "ios": "https://dc.lft.to/lastmile_qr_scan"}, "name": "afb984c9fe0c8d148d760b8ffeb9a15e", "is_reserved": 0}, {"is_disabled": 0, "fusion_lon": 0.0, "fusion_lat": 0.0, "lat": 38.943213, "type": "electric_scooter", "lon": -77.08583333333333, "bike_id": "6dcdfb10d266da09625f515253105648", "rental_uris": {"android": "https://dc.lft.to/lastmile_qr_scan", "ios": "https://dc.lft.to/lastmile_qr_scan"}, "name": "6dcdfb10d266da09625f515253105648", "is_reserved": 0}, {"is_disabled": 0, "fusion_lon": 0.0, "fusion_lat": 0.0, "lat": 38.87290866666667, "type": "electric_scooter", "lon": -77.00985366666667, "bike_id": "79c3b1add85974a348259f7621262f3b", "rental_uris": {"android": "https://dc.lft.to/lastmile_qr_scan", "ios": "https://dc.lft.to/lastmile_qr_scan"}, "name": "79c3b1add85974a348259f7621262f3b", "is_reserved": 0}, {"is_disabled": 0, "fusion_lon": 0.0, "fusion_lat": 0.0, "lat": 38.93100316666667, "type": "electric_scooter", "lon": -77.03264066666667, "bike_id": "98da963b2348e80edc8a6e7a3806f40d", "rental_uris": {"android": "https://dc.lft.to/lastmile_qr_scan", "ios": "https://dc.lft.to/lastmile_qr_scan"}, "name": "98da963b2348e80edc8a6e7a3806f40d", "is_reserved": 0}, {"is_disabled": 0, "fusion_lon": 0.0, "fusion_lat": 0.0, "lat": 38.892739, "type": "electric_scooter", "lon": -76.93722433333333, "bike_id": "aca094b734b3073f5f091e9932b999f9", "rental_uris": {"android": "https://dc.lft.to/lastmile_qr_scan", "ios": "https://dc.lft.to/lastmile_qr_scan"}, "name": "aca094b734b3073f5f091e9932b999f9", "is_reserved": 0}, {"is_disabled": 0, "fusion_lon": 0.0, "fusion_lat": 0.0, "lat": 38.82728066666667, "type": "electric_bike", "lon": -77.00863833333334, "bike_id": "1dfe0bb465c54eb7d6d1da2c3a548cc3", "rental_uris": {"android": "https://dc.lft.to/lastmile_qr_scan", "ios": "https://dc.lft.to/lastmile_qr_scan"}, "name": "1dfe0bb465c54eb7d6d1da2c3a548cc3", "is_reserved": 0}, {"is_disabled": 0, "fusion_lon": 0.0, "fusion_lat": 0.0, "lat": 38.9312605, "type": "electric_scooter", "lon": -77.05708766666666, "bike_id": "c5e94ba060c1ce7d34a5b87068c40ca9", "rental_uris": {"android": "https://dc.lft.to/lastmile_qr_scan", "ios": "https://dc.lft.to/lastmile_qr_scan"}, "name": "c5e94ba060c1ce7d34a5b87068c40ca9", "is_reserved": 0}, {"is_disabled": 0, "fusion_lon": 0.0, "fusion_lat": 0.0, "lat": 38.915154, "type": "electric_scooter", "lon": -77.022993, "bike_id": "a5358cdafda8c7d847bb7961dd90b715", "rental_uris": {"android": "https://dc.lft.to/lastmile_qr_scan", "ios": "https://dc.lft.to/lastmile_qr_scan"}, "name": "a5358cdafda8c7d847bb7961dd90b715", "is_reserved": 0}, {"is_disabled": 0, "fusion_lon": 0.0, "fusion_lat": 0.0, "lat": 38.9352995, "type": "electric_scooter", "lon": -77.02376983333333, "bike_id": "0fb5c0d36a1f4ba0725aaf97aa6371fa", "rental_uris": {"android": "https://dc.lft.to/lastmile_qr_scan", "ios": "https://dc.lft.to/lastmile_qr_scan"}, "name": "0fb5c0d36a1f4ba0725aaf97aa6371fa", "is_reserved": 0}, {"is_disabled": 0, "fusion_lon": 0.0, "fusion_lat": 0.0, "lat": 38.9441545, "type": "electric_scooter", "lon": -77.026224, "bike_id": "439c6061c06e149c224e9dd29d825e1e", "rental_uris": {"android": "https://dc.lft.to/lastmile_qr_scan", "ios": "https://dc.lft.to/lastmile_qr_scan"}, "name": "439c6061c06e149c224e9dd29d825e1e", "is_reserved": 0}, {"is_disabled": 0, "fusion_lon": 0.0, "fusion_lat": 0.0, "lat": 38.8950215, "type": "electric_scooter", "lon": -76.94876183333334, "bike_id": "dfe290d2c864d7c5536c77a56bcfab70", "rental_uris": {"android": "https://dc.lft.to/lastmile_qr_scan", "ios": "https://dc.lft.to/lastmile_qr_scan"}, "name": "dfe290d2c864d7c5536c77a56bcfab70", "is_reserved": 0}, {"is_disabled": 0, "fusion_lon": 0.0, "fusion_lat": 0.0, "lat": 38.9125835, "type": "electric_scooter", "lon": -77.03861916666666, "bike_id": "0fc57d297fd9f2acc81cee45221cbf78", "rental_uris": {"android": "https://dc.lft.to/lastmile_qr_scan", "ios": "https://dc.lft.to/lastmile_qr_scan"}, "name": "0fc57d297fd9f2acc81cee45221cbf78", "is_reserved": 0}, {"is_disabled": 0, "fusion_lon": 0.0, "fusion_lat": 0.0, "lat": 38.91816766666667, "type": "electric_scooter", "lon": -77.0271205, "bike_id": "d21eab20c8d28e856ecf80dfc192f95d", "rental_uris": {"android": "https://dc.lft.to/lastmile_qr_scan", "ios": "https://dc.lft.to/lastmile_qr_scan"}, "name": "d21eab20c8d28e856ecf80dfc192f95d", "is_reserved": 0}, {"is_disabled": 0, "fusion_lon": 0.0, "fusion_lat": 0.0, "lat": 38.90150116666667, "type": "electric_scooter", "lon": -76.986585, "bike_id": "e371fa012982377b2ab579c156deb4fd", "rental_uris": {"android": "https://dc.lft.to/lastmile_qr_scan", "ios": "https://dc.lft.to/lastmile_qr_scan"}, "name": "e371fa012982377b2ab579c156deb4fd", "is_reserved": 0}, {"is_disabled": 0, "fusion_lon": 0.0, "fusion_lat": 0.0, "lat": 38.91270866666667, "type": "electric_scooter", "lon": -77.02236533333334, "bike_id": "622173f1cf621141d1deb7d1f0b73bc8", "rental_uris": {"android": "https://dc.lft.to/lastmile_qr_scan", "ios": "https://dc.lft.to/lastmile_qr_scan"}, "name": "622173f1cf621141d1deb7d1f0b73bc8", "is_reserved": 0}, {"is_disabled": 0, "fusion_lon": 0.0, "fusion_lat": 0.0, "lat": 38.906286333333334, "type": "electric_scooter", "lon": -77.024595, "bike_id": "b48a6a4576cf6a4157cd4067f607f858", "rental_uris": {"android": "https://dc.lft.to/lastmile_qr_scan", "ios": "https://dc.lft.to/lastmile_qr_scan"}, "name": "b48a6a4576cf6a4157cd4067f607f858", "is_reserved": 0}, {"is_disabled": 0, "fusion_lon": 0.0, "fusion_lat": 0.0, "lat": 38.949728666666665, "type": "electric_scooter", "lon": -77.06691883333333, "bike_id": "49bea34f6c0207072843a1d52a6ac0a3", "rental_uris": {"android": "https://dc.lft.to/lastmile_qr_scan", "ios": "https://dc.lft.to/lastmile_qr_scan"}, "name": "49bea34f6c0207072843a1d52a6ac0a3", "is_reserved": 0}, {"is_disabled": 0, "fusion_lon": 0.0, "fusion_lat": 0.0, "lat": 38.9237185, "type": "electric_scooter", "lon": -77.0281545, "bike_id": "0196ff5318fd0ea9ad9f092b45677bf5", "rental_uris": {"android": "https://dc.lft.to/lastmile_qr_scan", "ios": "https://dc.lft.to/lastmile_qr_scan"}, "name": "0196ff5318fd0ea9ad9f092b45677bf5", "is_reserved": 0}, {"is_disabled": 0, "fusion_lon": 0.0, "fusion_lat": 0.0, "lat": 38.961177, "type": "electric_scooter", "lon": -77.08517, "bike_id": "bdfab356e88ce19403e4c12cc9fb889e", "rental_uris": {"android": "https://dc.lft.to/lastmile_qr_scan", "ios": "https://dc.lft.to/lastmile_qr_scan"}, "name": "bdfab356e88ce19403e4c12cc9fb889e", "is_reserved": 0}, {"is_disabled": 0, "fusion_lon": 0.0, "fusion_lat": 0.0, "lat": 38.92262766666666, "type": "electric_scooter", "lon": -77.04127183333334, "bike_id": "899883b8b13211a3445364887c5aba2e", "rental_uris": {"android": "https://dc.lft.to/lastmile_qr_scan", "ios": "https://dc.lft.to/lastmile_qr_scan"}, "name": "899883b8b13211a3445364887c5aba2e", "is_reserved": 0}, {"is_disabled": 0, "fusion_lon": 0.0, "fusion_lat": 0.0, "lat": 38.92604383333333, "type": "electric_scooter", "lon": -77.02310783333333, "bike_id": "df315f217c1d7ef203a953b1975188e2", "rental_uris": {"android": "https://dc.lft.to/lastmile_qr_scan", "ios": "https://dc.lft.to/lastmile_qr_scan"}, "name": "df315f217c1d7ef203a953b1975188e2", "is_reserved": 0}, {"is_disabled": 0, "fusion_lon": 0.0, "fusion_lat": 0.0, "lat": 38.96306666666667, "type": "electric_bike", "lon": -77.01105, "bike_id": "e6f7514d7847ef7f90f7c1597f8d5f68", "rental_uris": {"android": "https://dc.lft.to/lastmile_qr_scan", "ios": "https://dc.lft.to/lastmile_qr_scan"}, "name": "e6f7514d7847ef7f90f7c1597f8d5f68", "is_reserved": 0}, {"is_disabled": 0, "fusion_lon": 0.0, "fusion_lat": 0.0, "lat": 38.937862333333335, "type": "electric_scooter", "lon": -77.018781, "bike_id": "ee515e83d0da2995f21a9dc6a77266d4", "rental_uris": {"android": "https://dc.lft.to/lastmile_qr_scan", "ios": "https://dc.lft.to/lastmile_qr_scan"}, "name": "ee515e83d0da2995f21a9dc6a77266d4", "is_reserved": 0}, {"is_disabled": 0, "fusion_lon": 0.0, "fusion_lat": 0.0, "lat": 38.88746583333333, "type": "electric_scooter", "lon": -77.015338, "bike_id": "60819f284c1825853812e54942782792", "rental_uris": {"android": "https://dc.lft.to/lastmile_qr_scan", "ios": "https://dc.lft.to/lastmile_qr_scan"}, "name": "60819f284c1825853812e54942782792", "is_reserved": 0}, {"is_disabled": 0, "fusion_lon": 0.0, "fusion_lat": 0.0, "lat": 38.887428, "type": "electric_scooter", "lon": -77.0159815, "bike_id": "4685001155fd97391a90e2774b4cf445", "rental_uris": {"android": "https://dc.lft.to/lastmile_qr_scan", "ios": "https://dc.lft.to/lastmile_qr_scan"}, "name": "4685001155fd97391a90e2774b4cf445", "is_reserved": 0}, {"is_disabled": 0, "fusion_lon": 0.0, "fusion_lat": 0.0, "lat": 38.9024065, "type": "electric_scooter", "lon": -77.01912283333333, "bike_id": "15c99faa1e4c667db89edda5a3f58bd4", "rental_uris": {"android": "https://dc.lft.to/lastmile_qr_scan", "ios": "https://dc.lft.to/lastmile_qr_scan"}, "name": "15c99faa1e4c667db89edda5a3f58bd4", "is_reserved": 0}, {"is_disabled": 0, "fusion_lon": 0.0, "fusion_lat": 0.0, "lat": 38.908538, "type": "electric_scooter", "lon": -77.03257316666667, "bike_id": "5dba5cb6d29e7026fc7a1f01c930bbbf", "rental_uris": {"android": "https://dc.lft.to/lastmile_qr_scan", "ios": "https://dc.lft.to/lastmile_qr_scan"}, "name": "5dba5cb6d29e7026fc7a1f01c930bbbf", "is_reserved": 0}, {"is_disabled": 0, "fusion_lon": 0.0, "fusion_lat": 0.0, "lat": 38.9217565, "type": "electric_scooter", "lon": -77.03839333333333, "bike_id": "65833f3c6289336ae30812dd0ffd31a8", "rental_uris": {"android": "https://dc.lft.to/lastmile_qr_scan", "ios": "https://dc.lft.to/lastmile_qr_scan"}, "name": "65833f3c6289336ae30812dd0ffd31a8", "is_reserved": 0}, {"is_disabled": 0, "fusion_lon": 0.0, "fusion_lat": 0.0, "lat": 38.87975333333333, "type": "electric_scooter", "lon": -76.993689, "bike_id": "1f4506c87c7f2feb6fe2f677c023f122", "rental_uris": {"android": "https://dc.lft.to/lastmile_qr_scan", "ios": "https://dc.lft.to/lastmile_qr_scan"}, "name": "1f4506c87c7f2feb6fe2f677c023f122", "is_reserved": 0}, {"is_disabled": 0, "fusion_lon": 0.0, "fusion_lat": 0.0, "lat": 38.91086633333333, "type": "electric_scooter", "lon": -77.01506733333333, "bike_id": "2cb9a9b058bced0ab29037de0648e1ee", "rental_uris": {"android": "https://dc.lft.to/lastmile_qr_scan", "ios": "https://dc.lft.to/lastmile_qr_scan"}, "name": "2cb9a9b058bced0ab29037de0648e1ee", "is_reserved": 0}, {"is_disabled": 0, "fusion_lon": 0.0, "fusion_lat": 0.0, "lat": 38.91460683333333, "type": "electric_scooter", "lon": -77.03191683333333, "bike_id": "f48518bfe9521e690b53a9f6b8cf69c4", "rental_uris": {"android": "https://dc.lft.to/lastmile_qr_scan", "ios": "https://dc.lft.to/lastmile_qr_scan"}, "name": "f48518bfe9521e690b53a9f6b8cf69c4", "is_reserved": 0}, {"is_disabled": 0, "fusion_lon": 0.0, "fusion_lat": 0.0, "lat": 38.98500533333333, "type": "electric_bike", "lon": -76.982017, "bike_id": "9e9bf0ce8f039ca3124587c5d6e74223", "rental_uris": {"android": "https://dc.lft.to/lastmile_qr_scan", "ios": "https://dc.lft.to/lastmile_qr_scan"}, "name": "9e9bf0ce8f039ca3124587c5d6e74223", "is_reserved": 0}, {"is_disabled": 0, "fusion_lon": 0.0, "fusion_lat": 0.0, "lat": 38.92555516666667, "type": "electric_scooter", "lon": -77.03796316666667, "bike_id": "50f0089b05b6b8964852693a0fdb33f6", "rental_uris": {"android": "https://dc.lft.to/lastmile_qr_scan", "ios": "https://dc.lft.to/lastmile_qr_scan"}, "name": "50f0089b05b6b8964852693a0fdb33f6", "is_reserved": 0}, {"is_disabled": 0, "fusion_lon": 0.0, "fusion_lat": 0.0, "lat": 38.8747295, "type": "electric_scooter", "lon": -77.00514633333333, "bike_id": "c483777b498f2de9b4c6e0da0029b699", "rental_uris": {"android": "https://dc.lft.to/lastmile_qr_scan", "ios": "https://dc.lft.to/lastmile_qr_scan"}, "name": "c483777b498f2de9b4c6e0da0029b699", "is_reserved": 0}, {"is_disabled": 0, "fusion_lon": 0.0, "fusion_lat": 0.0, "lat": 38.896261833333334, "type": "electric_scooter", "lon": -77.02580916666666, "bike_id": "b5a9b0aa273e19ce869d819f22f90b6a", "rental_uris": {"android": "https://dc.lft.to/lastmile_qr_scan", "ios": "https://dc.lft.to/lastmile_qr_scan"}, "name": "b5a9b0aa273e19ce869d819f22f90b6a", "is_reserved": 0}, {"is_disabled": 0, "fusion_lon": 0.0, "fusion_lat": 0.0, "lat": 38.91709183333333, "type": "electric_scooter", "lon": -77.03763083333334, "bike_id": "1ffc5abcd4e3bbcf7f2446e5ae76a258", "rental_uris": {"android": "https://dc.lft.to/lastmile_qr_scan", "ios": "https://dc.lft.to/lastmile_qr_scan"}, "name": "1ffc5abcd4e3bbcf7f2446e5ae76a258", "is_reserved": 0}, {"is_disabled": 0, "fusion_lon": 0.0, "fusion_lat": 0.0, "lat": 38.94086316666667, "type": "electric_scooter", "lon": -77.03811333333333, "bike_id": "0197378e63cec188bcf41a183b64da9f", "rental_uris": {"android": "https://dc.lft.to/lastmile_qr_scan", "ios": "https://dc.lft.to/lastmile_qr_scan"}, "name": "0197378e63cec188bcf41a183b64da9f", "is_reserved": 0}, {"is_disabled": 0, "fusion_lon": 0.0, "fusion_lat": 0.0, "lat": 38.97167816666666, "type": "electric_bike", "lon": -76.98022133333333, "bike_id": "e8c10f0f66f81ba267d3480b3200af9c", "rental_uris": {"android": "https://dc.lft.to/lastmile_qr_scan", "ios": "https://dc.lft.to/lastmile_qr_scan"}, "name": "e8c10f0f66f81ba267d3480b3200af9c", "is_reserved": 0}, {"is_disabled": 0, "fusion_lon": 0.0, "fusion_lat": 0.0, "lat": 38.880288, "type": "electric_scooter", "lon": -76.99512483333334, "bike_id": "98a3d14aeec2ad3de83a6a6cff52f1a1", "rental_uris": {"android": "https://dc.lft.to/lastmile_qr_scan", "ios": "https://dc.lft.to/lastmile_qr_scan"}, "name": "98a3d14aeec2ad3de83a6a6cff52f1a1", "is_reserved": 0}, {"is_disabled": 0, "fusion_lon": 0.0, "fusion_lat": 0.0, "lat": 38.938746333333334, "type": "electric_scooter", "lon": -77.02843933333334, "bike_id": "6ffc6061288c125a5f016f686c4c5c97", "rental_uris": {"android": "https://dc.lft.to/lastmile_qr_scan", "ios": "https://dc.lft.to/lastmile_qr_scan"}, "name": "6ffc6061288c125a5f016f686c4c5c97", "is_reserved": 0}, {"is_disabled": 0, "fusion_lon": 0.0, "fusion_lat": 0.0, "lat": 38.9680745, "type": "electric_scooter", "lon": -77.0212085, "bike_id": "05926f87310b4459718c72209a45fac1", "rental_uris": {"android": "https://dc.lft.to/lastmile_qr_scan", "ios": "https://dc.lft.to/lastmile_qr_scan"}, "name": "05926f87310b4459718c72209a45fac1", "is_reserved": 0}, {"is_disabled": 0, "fusion_lon": 0.0, "fusion_lat": 0.0, "lat": 38.9163855, "type": "electric_scooter", "lon": -77.02689616666666, "bike_id": "bf5c81d2051a47506ae109dbe5c09f9b", "rental_uris": {"android": "https://dc.lft.to/lastmile_qr_scan", "ios": "https://dc.lft.to/lastmile_qr_scan"}, "name": "bf5c81d2051a47506ae109dbe5c09f9b", "is_reserved": 0}, {"is_disabled": 0, "fusion_lon": 0.0, "fusion_lat": 0.0, "lat": 38.954204833333336, "type": "electric_scooter", "lon": -77.02171766666666, "bike_id": "cefd8b439dcdb9f064b437acc8ebf42c", "rental_uris": {"android": "https://dc.lft.to/lastmile_qr_scan", "ios": "https://dc.lft.to/lastmile_qr_scan"}, "name": "cefd8b439dcdb9f064b437acc8ebf42c", "is_reserved": 0}, {"is_disabled": 0, "fusion_lon": 0.0, "fusion_lat": 0.0, "lat": 38.88026683333333, "type": "electric_scooter", "lon": -76.9823825, "bike_id": "009e4f7c5370be45cbaa7970d655aabe", "rental_uris": {"android": "https://dc.lft.to/lastmile_qr_scan", "ios": "https://dc.lft.to/lastmile_qr_scan"}, "name": "009e4f7c5370be45cbaa7970d655aabe", "is_reserved": 0}, {"is_disabled": 0, "fusion_lon": 0.0, "fusion_lat": 0.0, "lat": 38.91273616666667, "type": "electric_scooter", "lon": -77.0473015, "bike_id": "7c4c41c051b1a36b19981a96eff7e997", "rental_uris": {"android": "https://dc.lft.to/lastmile_qr_scan", "ios": "https://dc.lft.to/lastmile_qr_scan"}, "name": "7c4c41c051b1a36b19981a96eff7e997", "is_reserved": 0}, {"is_disabled": 0, "fusion_lon": 0.0, "fusion_lat": 0.0, "lat": 38.907228833333335, "type": "electric_scooter", "lon": -77.02538366666667, "bike_id": "4060c537bb2a120529c73bfc88c51876", "rental_uris": {"android": "https://dc.lft.to/lastmile_qr_scan", "ios": "https://dc.lft.to/lastmile_qr_scan"}, "name": "4060c537bb2a120529c73bfc88c51876", "is_reserved": 0}, {"is_disabled": 0, "fusion_lon": 0.0, "fusion_lat": 0.0, "lat": 39.0065935, "type": "electric_bike", "lon": -76.90025433333334, "bike_id": "3fbe756fdb60d9828081e15138eb1cc6", "rental_uris": {"android": "https://dc.lft.to/lastmile_qr_scan", "ios": "https://dc.lft.to/lastmile_qr_scan"}, "name": "3fbe756fdb60d9828081e15138eb1cc6", "is_reserved": 0}, {"is_disabled": 0, "fusion_lon": 0.0, "fusion_lat": 0.0, "lat": 38.896734333333335, "type": "electric_scooter", "lon": -77.02675783333333, "bike_id": "68f2b896ab69ca17d6bd7da23a216776", "rental_uris": {"android": "https://dc.lft.to/lastmile_qr_scan", "ios": "https://dc.lft.to/lastmile_qr_scan"}, "name": "68f2b896ab69ca17d6bd7da23a216776", "is_reserved": 0}, {"is_disabled": 0, "fusion_lon": 0.0, "fusion_lat": 0.0, "lat": 38.950752, "type": "electric_scooter", "lon": -77.028802, "bike_id": "327c5ae02fe05df00ed05c4b0ab72ddc", "rental_uris": {"android": "https://dc.lft.to/lastmile_qr_scan", "ios": "https://dc.lft.to/lastmile_qr_scan"}, "name": "327c5ae02fe05df00ed05c4b0ab72ddc", "is_reserved": 0}, {"is_disabled": 0, "fusion_lon": 0.0, "fusion_lat": 0.0, "lat": 38.95616583333333, "type": "electric_scooter", "lon": -77.036288, "bike_id": "ceaae034afb872c67230dbfe5501e618", "rental_uris": {"android": "https://dc.lft.to/lastmile_qr_scan", "ios": "https://dc.lft.to/lastmile_qr_scan"}, "name": "ceaae034afb872c67230dbfe5501e618", "is_reserved": 0}, {"is_disabled": 0, "fusion_lon": 0.0, "fusion_lat": 0.0, "lat": 38.9025265, "type": "electric_scooter", "lon": -77.02200133333334, "bike_id": "8598419a25fb49e89ccc15763f475956", "rental_uris": {"android": "https://dc.lft.to/lastmile_qr_scan", "ios": "https://dc.lft.to/lastmile_qr_scan"}, "name": "8598419a25fb49e89ccc15763f475956", "is_reserved": 0}, {"is_disabled": 0, "fusion_lon": 0.0, "fusion_lat": 0.0, "lat": 38.918819166666665, "type": "electric_scooter", "lon": -77.015926, "bike_id": "cce096f1cfb2d1c3371fd15e6a983841", "rental_uris": {"android": "https://dc.lft.to/lastmile_qr_scan", "ios": "https://dc.lft.to/lastmile_qr_scan"}, "name": "cce096f1cfb2d1c3371fd15e6a983841", "is_reserved": 0}, {"is_disabled": 0, "fusion_lon": 0.0, "fusion_lat": 0.0, "lat": 38.912336, "type": "electric_scooter", "lon": -77.04492966666666, "bike_id": "09e42ad0414136ca4bb29841ec6e2be1", "rental_uris": {"android": "https://dc.lft.to/lastmile_qr_scan", "ios": "https://dc.lft.to/lastmile_qr_scan"}, "name": "09e42ad0414136ca4bb29841ec6e2be1", "is_reserved": 0}, {"is_disabled": 0, "fusion_lon": 0.0, "fusion_lat": 0.0, "lat": 38.931904, "type": "electric_bike", "lon": -77.229403, "bike_id": "004cdd408ca6767cbba577343d902350", "rental_uris": {"android": "https://dc.lft.to/lastmile_qr_scan", "ios": "https://dc.lft.to/lastmile_qr_scan"}, "name": "004cdd408ca6767cbba577343d902350", "is_reserved": 0}, {"is_disabled": 0, "fusion_lon": 0.0, "fusion_lat": 0.0, "lat": 38.92150133333333, "type": "electric_scooter", "lon": -77.04274433333333, "bike_id": "90bb50b3bf3ec4f6c716ce51d57edf2b", "rental_uris": {"android": "https://dc.lft.to/lastmile_qr_scan", "ios": "https://dc.lft.to/lastmile_qr_scan"}, "name": "90bb50b3bf3ec4f6c716ce51d57edf2b", "is_reserved": 0}, {"is_disabled": 0, "fusion_lon": 0.0, "fusion_lat": 0.0, "lat": 38.99257266666667, "type": "electric_bike", "lon": -77.04997633333333, "bike_id": "5fecffb5e65a3c813259e4c51e317396", "rental_uris": {"android": "https://dc.lft.to/lastmile_qr_scan", "ios": "https://dc.lft.to/lastmile_qr_scan"}, "name": "5fecffb5e65a3c813259e4c51e317396", "is_reserved": 0}, {"is_disabled": 0, "fusion_lon": 0.0, "fusion_lat": 0.0, "lat": 38.9126265, "type": "electric_scooter", "lon": -77.04098083333334, "bike_id": "a8075e8f672bc20abb5e410d48b6db4a", "rental_uris": {"android": "https://dc.lft.to/lastmile_qr_scan", "ios": "https://dc.lft.to/lastmile_qr_scan"}, "name": "a8075e8f672bc20abb5e410d48b6db4a", "is_reserved": 0}, {"is_disabled": 0, "fusion_lon": 0.0, "fusion_lat": 0.0, "lat": 38.90538316666667, "type": "electric_scooter", "lon": -77.02216066666666, "bike_id": "b0cf7b8effba39899487aa9467b0aa7f", "rental_uris": {"android": "https://dc.lft.to/lastmile_qr_scan", "ios": "https://dc.lft.to/lastmile_qr_scan"}, "name": "b0cf7b8effba39899487aa9467b0aa7f", "is_reserved": 0}, {"is_disabled": 0, "fusion_lon": 0.0, "fusion_lat": 0.0, "lat": 38.89219816666667, "type": "electric_scooter", "lon": -76.957442, "bike_id": "0fcbb250faa7daa9691c471dd8bd60c2", "rental_uris": {"android": "https://dc.lft.to/lastmile_qr_scan", "ios": "https://dc.lft.to/lastmile_qr_scan"}, "name": "0fcbb250faa7daa9691c471dd8bd60c2", "is_reserved": 0}, {"is_disabled": 0, "fusion_lon": 0.0, "fusion_lat": 0.0, "lat": 38.8979975, "type": "electric_scooter", "lon": -77.01190833333334, "bike_id": "6c69d0244a7972d7bd96645df023b074", "rental_uris": {"android": "https://dc.lft.to/lastmile_qr_scan", "ios": "https://dc.lft.to/lastmile_qr_scan"}, "name": "6c69d0244a7972d7bd96645df023b074", "is_reserved": 0}, {"is_disabled": 0, "fusion_lon": 0.0, "fusion_lat": 0.0, "lat": 38.88054116666667, "type": "electric_scooter", "lon": -77.00363716666666, "bike_id": "b21c3ca0d44b0075e2269f93c006a6ce", "rental_uris": {"android": "https://dc.lft.to/lastmile_qr_scan", "ios": "https://dc.lft.to/lastmile_qr_scan"}, "name": "b21c3ca0d44b0075e2269f93c006a6ce", "is_reserved": 0}, {"is_disabled": 0, "fusion_lon": 0.0, "fusion_lat": 0.0, "lat": 38.911012, "type": "electric_scooter", "lon": -77.02720916666667, "bike_id": "6b2b236301fe8cdd23a3573c9d681dd6", "rental_uris": {"android": "https://dc.lft.to/lastmile_qr_scan", "ios": "https://dc.lft.to/lastmile_qr_scan"}, "name": "6b2b236301fe8cdd23a3573c9d681dd6", "is_reserved": 0}, {"is_disabled": 0, "fusion_lon": 0.0, "fusion_lat": 0.0, "lat": 38.906444666666665, "type": "electric_scooter", "lon": -77.04140816666667, "bike_id": "1dd3ae9a828a972da6ceb905024076dd", "rental_uris": {"android": "https://dc.lft.to/lastmile_qr_scan", "ios": "https://dc.lft.to/lastmile_qr_scan"}, "name": "1dd3ae9a828a972da6ceb905024076dd", "is_reserved": 0}, {"is_disabled": 0, "fusion_lon": 0.0, "fusion_lat": 0.0, "lat": 38.939645166666665, "type": "electric_scooter", "lon": -77.03281633333333, "bike_id": "b25c8f863fc006b903cec2c1c1bf870f", "rental_uris": {"android": "https://dc.lft.to/lastmile_qr_scan", "ios": "https://dc.lft.to/lastmile_qr_scan"}, "name": "b25c8f863fc006b903cec2c1c1bf870f", "is_reserved": 0}, {"is_disabled": 0, "fusion_lon": 0.0, "fusion_lat": 0.0, "lat": 38.900999, "type": "electric_scooter", "lon": -77.0199185, "bike_id": "492d068cee5872f8150ba78e39c878be", "rental_uris": {"android": "https://dc.lft.to/lastmile_qr_scan", "ios": "https://dc.lft.to/lastmile_qr_scan"}, "name": "492d068cee5872f8150ba78e39c878be", "is_reserved": 0}, {"is_disabled": 0, "fusion_lon": 0.0, "fusion_lat": 0.0, "lat": 38.93658416666667, "type": "electric_scooter", "lon": -77.03260783333333, "bike_id": "cf01001532c1370665cea83bc106629a", "rental_uris": {"android": "https://dc.lft.to/lastmile_qr_scan", "ios": "https://dc.lft.to/lastmile_qr_scan"}, "name": "cf01001532c1370665cea83bc106629a", "is_reserved": 0}, {"is_disabled": 0, "fusion_lon": 0.0, "fusion_lat": 0.0, "lat": 38.908667333333334, "type": "electric_scooter", "lon": -77.00156133333333, "bike_id": "f2f9b95f8e53d95ac9f11c61adcd35dc", "rental_uris": {"android": "https://dc.lft.to/lastmile_qr_scan", "ios": "https://dc.lft.to/lastmile_qr_scan"}, "name": "f2f9b95f8e53d95ac9f11c61adcd35dc", "is_reserved": 0}, {"is_disabled": 0, "fusion_lon": 0.0, "fusion_lat": 0.0, "lat": 38.966215166666665, "type": "electric_bike", "lon": -77.03434716666666, "bike_id": "f10c065cf4323d370e71a75c4aa30a68", "rental_uris": {"android": "https://dc.lft.to/lastmile_qr_scan", "ios": "https://dc.lft.to/lastmile_qr_scan"}, "name": "f10c065cf4323d370e71a75c4aa30a68", "is_reserved": 0}, {"is_disabled": 0, "fusion_lon": 0.0, "fusion_lat": 0.0, "lat": 38.894644666666665, "type": "electric_scooter", "lon": -76.99482983333333, "bike_id": "fea20d7246e3b21deaa2c78116738dba", "rental_uris": {"android": "https://dc.lft.to/lastmile_qr_scan", "ios": "https://dc.lft.to/lastmile_qr_scan"}, "name": "fea20d7246e3b21deaa2c78116738dba", "is_reserved": 0}, {"is_disabled": 0, "fusion_lon": 0.0, "fusion_lat": 0.0, "lat": 38.9350265, "type": "electric_bike", "lon": -76.94951416666666, "bike_id": "27063945bb7ba327d95f4425093ec4c7", "rental_uris": {"android": "https://dc.lft.to/lastmile_qr_scan", "ios": "https://dc.lft.to/lastmile_qr_scan"}, "name": "27063945bb7ba327d95f4425093ec4c7", "is_reserved": 0}, {"is_disabled": 0, "fusion_lon": 0.0, "fusion_lat": 0.0, "lat": 38.83810483333333, "type": "electric_scooter", "lon": -77.00436766666667, "bike_id": "cd466cba75586b981537fed2a9ed325f", "rental_uris": {"android": "https://dc.lft.to/lastmile_qr_scan", "ios": "https://dc.lft.to/lastmile_qr_scan"}, "name": "cd466cba75586b981537fed2a9ed325f", "is_reserved": 0}, {"is_disabled": 0, "fusion_lon": 0.0, "fusion_lat": 0.0, "lat": 38.928049666666666, "type": "electric_scooter", "lon": -77.0542865, "bike_id": "0b5317ad01c0c3229aaca1b7bdadd0b5", "rental_uris": {"android": "https://dc.lft.to/lastmile_qr_scan", "ios": "https://dc.lft.to/lastmile_qr_scan"}, "name": "0b5317ad01c0c3229aaca1b7bdadd0b5", "is_reserved": 0}, {"is_disabled": 0, "fusion_lon": 0.0, "fusion_lat": 0.0, "lat": 38.886297166666665, "type": "electric_scooter", "lon": -76.99847916666667, "bike_id": "27b208df13de7b01efaf09032ca59f0f", "rental_uris": {"android": "https://dc.lft.to/lastmile_qr_scan", "ios": "https://dc.lft.to/lastmile_qr_scan"}, "name": "27b208df13de7b01efaf09032ca59f0f", "is_reserved": 0}, {"is_disabled": 0, "fusion_lon": 0.0, "fusion_lat": 0.0, "lat": 38.90847983333333, "type": "electric_scooter", "lon": -77.04944966666666, "bike_id": "a6de5957e5fc5e735a903208bfc5bc13", "rental_uris": {"android": "https://dc.lft.to/lastmile_qr_scan", "ios": "https://dc.lft.to/lastmile_qr_scan"}, "name": "a6de5957e5fc5e735a903208bfc5bc13", "is_reserved": 0}, {"is_disabled": 0, "fusion_lon": 0.0, "fusion_lat": 0.0, "lat": 39.09944766666667, "type": "electric_bike", "lon": -77.1879005, "bike_id": "29905e6fb86504776d53fe772bdfc649", "rental_uris": {"android": "https://dc.lft.to/lastmile_qr_scan", "ios": "https://dc.lft.to/lastmile_qr_scan"}, "name": "29905e6fb86504776d53fe772bdfc649", "is_reserved": 0}, {"is_disabled": 0, "fusion_lon": 0.0, "fusion_lat": 0.0, "lat": 38.8429565, "type": "electric_scooter", "lon": -76.99950266666667, "bike_id": "b05bf375ba6957d50f9e9b01f5a9f30c", "rental_uris": {"android": "https://dc.lft.to/lastmile_qr_scan", "ios": "https://dc.lft.to/lastmile_qr_scan"}, "name": "b05bf375ba6957d50f9e9b01f5a9f30c", "is_reserved": 0}, {"is_disabled": 0, "fusion_lon": 0.0, "fusion_lat": 0.0, "lat": 38.90795383333333, "type": "electric_scooter", "lon": -77.04984116666667, "bike_id": "e55b0a6733001974873fbc15f565fdee", "rental_uris": {"android": "https://dc.lft.to/lastmile_qr_scan", "ios": "https://dc.lft.to/lastmile_qr_scan"}, "name": "e55b0a6733001974873fbc15f565fdee", "is_reserved": 0}, {"is_disabled": 0, "fusion_lon": 0.0, "fusion_lat": 0.0, "lat": 38.91699966666667, "type": "electric_scooter", "lon": -77.03623533333334, "bike_id": "0127ce2758156a33a5945c1196f02abb", "rental_uris": {"android": "https://dc.lft.to/lastmile_qr_scan", "ios": "https://dc.lft.to/lastmile_qr_scan"}, "name": "0127ce2758156a33a5945c1196f02abb", "is_reserved": 0}, {"is_disabled": 0, "fusion_lon": 0.0, "fusion_lat": 0.0, "lat": 38.844373166666664, "type": "electric_scooter", "lon": -76.9977855, "bike_id": "fda5ef2118658d627642dbda51527264", "rental_uris": {"android": "https://dc.lft.to/lastmile_qr_scan", "ios": "https://dc.lft.to/lastmile_qr_scan"}, "name": "fda5ef2118658d627642dbda51527264", "is_reserved": 0}, {"is_disabled": 0, "fusion_lon": 0.0, "fusion_lat": 0.0, "lat": 38.935122, "type": "electric_scooter", "lon": -77.082287, "bike_id": "f8fb5e8a39f7d40eb1c8f07f60335e42", "rental_uris": {"android": "https://dc.lft.to/lastmile_qr_scan", "ios": "https://dc.lft.to/lastmile_qr_scan"}, "name": "f8fb5e8a39f7d40eb1c8f07f60335e42", "is_reserved": 0}, {"is_disabled": 0, "fusion_lon": 0.0, "fusion_lat": 0.0, "lat": 38.88042766666667, "type": "electric_scooter", "lon": -77.0052595, "bike_id": "1f0926f72ab03c47e663d92d7a37bb49", "rental_uris": {"android": "https://dc.lft.to/lastmile_qr_scan", "ios": "https://dc.lft.to/lastmile_qr_scan"}, "name": "1f0926f72ab03c47e663d92d7a37bb49", "is_reserved": 0}, {"is_disabled": 0, "fusion_lon": 0.0, "fusion_lat": 0.0, "lat": 38.8816365, "type": "electric_scooter", "lon": -77.02701283333333, "bike_id": "5afffaf2e407ad0e54c43c1737f006c6", "rental_uris": {"android": "https://dc.lft.to/lastmile_qr_scan", "ios": "https://dc.lft.to/lastmile_qr_scan"}, "name": "5afffaf2e407ad0e54c43c1737f006c6", "is_reserved": 0}, {"is_disabled": 0, "fusion_lon": 0.0, "fusion_lat": 0.0, "lat": 38.92853366666667, "type": "electric_scooter", "lon": -77.01411183333333, "bike_id": "bde054ccce8137049181b4dde05c7341", "rental_uris": {"android": "https://dc.lft.to/lastmile_qr_scan", "ios": "https://dc.lft.to/lastmile_qr_scan"}, "name": "bde054ccce8137049181b4dde05c7341", "is_reserved": 0}, {"is_disabled": 0, "fusion_lon": 0.0, "fusion_lat": 0.0, "lat": 38.93535416666667, "type": "electric_scooter", "lon": -77.0236485, "bike_id": "b5a62f2ef2cfd8075f9cfe9b1f737f59", "rental_uris": {"android": "https://dc.lft.to/lastmile_qr_scan", "ios": "https://dc.lft.to/lastmile_qr_scan"}, "name": "b5a62f2ef2cfd8075f9cfe9b1f737f59", "is_reserved": 0}, {"is_disabled": 0, "fusion_lon": 0.0, "fusion_lat": 0.0, "lat": 38.92305133333333, "type": "electric_scooter", "lon": -77.0473675, "bike_id": "430c8f698789ea29af8ec5cd28934e10", "rental_uris": {"android": "https://dc.lft.to/lastmile_qr_scan", "ios": "https://dc.lft.to/lastmile_qr_scan"}, "name": "430c8f698789ea29af8ec5cd28934e10", "is_reserved": 0}, {"is_disabled": 0, "fusion_lon": 0.0, "fusion_lat": 0.0, "lat": 38.88686766666667, "type": "electric_scooter", "lon": -77.01369516666666, "bike_id": "871c60dbb0ccd5a41367ce6915548c15", "rental_uris": {"android": "https://dc.lft.to/lastmile_qr_scan", "ios": "https://dc.lft.to/lastmile_qr_scan"}, "name": "871c60dbb0ccd5a41367ce6915548c15", "is_reserved": 0}, {"is_disabled": 0, "fusion_lon": 0.0, "fusion_lat": 0.0, "lat": 38.83814533333333, "type": "electric_scooter", "lon": -77.0043185, "bike_id": "d9788f9b83ba89ae2acc43045ff0948a", "rental_uris": {"android": "https://dc.lft.to/lastmile_qr_scan", "ios": "https://dc.lft.to/lastmile_qr_scan"}, "name": "d9788f9b83ba89ae2acc43045ff0948a", "is_reserved": 0}, {"is_disabled": 0, "fusion_lon": 0.0, "fusion_lat": 0.0, "lat": 38.918605, "type": "electric_bike", "lon": -76.960905, "bike_id": "b9f459864487c7d7e68785729b220dec", "rental_uris": {"android": "https://dc.lft.to/lastmile_qr_scan", "ios": "https://dc.lft.to/lastmile_qr_scan"}, "name": "b9f459864487c7d7e68785729b220dec", "is_reserved": 0}, {"is_disabled": 0, "fusion_lon": 0.0, "fusion_lat": 0.0, "lat": 38.90485283333334, "type": "electric_scooter", "lon": -77.02909983333333, "bike_id": "5f9d72d2f586652c407098a1e91c42e4", "rental_uris": {"android": "https://dc.lft.to/lastmile_qr_scan", "ios": "https://dc.lft.to/lastmile_qr_scan"}, "name": "5f9d72d2f586652c407098a1e91c42e4", "is_reserved": 0}, {"is_disabled": 0, "fusion_lon": 0.0, "fusion_lat": 0.0, "lat": 38.93145366666667, "type": "electric_scooter", "lon": -77.02821116666667, "bike_id": "0ab314e752e563991aa8d0b7acffa954", "rental_uris": {"android": "https://dc.lft.to/lastmile_qr_scan", "ios": "https://dc.lft.to/lastmile_qr_scan"}, "name": "0ab314e752e563991aa8d0b7acffa954", "is_reserved": 0}, {"is_disabled": 0, "fusion_lon": 0.0, "fusion_lat": 0.0, "lat": 38.921722, "type": "electric_scooter", "lon": -76.99757233333334, "bike_id": "b517cea28aa65c894c666065c7012b4b", "rental_uris": {"android": "https://dc.lft.to/lastmile_qr_scan", "ios": "https://dc.lft.to/lastmile_qr_scan"}, "name": "b517cea28aa65c894c666065c7012b4b", "is_reserved": 0}, {"is_disabled": 0, "fusion_lon": 0.0, "fusion_lat": 0.0, "lat": 39.06063116666667, "type": "electric_bike", "lon": -77.0646695, "bike_id": "2fc323e69fcf8872065bee29f27fd3df", "rental_uris": {"android": "https://dc.lft.to/lastmile_qr_scan", "ios": "https://dc.lft.to/lastmile_qr_scan"}, "name": "2fc323e69fcf8872065bee29f27fd3df", "is_reserved": 0}, {"is_disabled": 0, "fusion_lon": 0.0, "fusion_lat": 0.0, "lat": 38.89540616666667, "type": "electric_scooter", "lon": -77.00894433333333, "bike_id": "7136ed6c82b418403dd9e70de7372060", "rental_uris": {"android": "https://dc.lft.to/lastmile_qr_scan", "ios": "https://dc.lft.to/lastmile_qr_scan"}, "name": "7136ed6c82b418403dd9e70de7372060", "is_reserved": 0}, {"is_disabled": 0, "fusion_lon": 0.0, "fusion_lat": 0.0, "lat": 38.904193666666664, "type": "electric_scooter", "lon": -76.98548516666666, "bike_id": "d3fb36a7ebf1a8f633e66b96df9725fb", "rental_uris": {"android": "https://dc.lft.to/lastmile_qr_scan", "ios": "https://dc.lft.to/lastmile_qr_scan"}, "name": "d3fb36a7ebf1a8f633e66b96df9725fb", "is_reserved": 0}, {"is_disabled": 0, "fusion_lon": 0.0, "fusion_lat": 0.0, "lat": 38.94638883333333, "type": "electric_scooter", "lon": -77.01927466666666, "bike_id": "81c9eb3326b6a36bef0eabc8697c4b7d", "rental_uris": {"android": "https://dc.lft.to/lastmile_qr_scan", "ios": "https://dc.lft.to/lastmile_qr_scan"}, "name": "81c9eb3326b6a36bef0eabc8697c4b7d", "is_reserved": 0}, {"is_disabled": 0, "fusion_lon": 0.0, "fusion_lat": 0.0, "lat": 38.9275555, "type": "electric_scooter", "lon": -77.005914, "bike_id": "fbd34ec568166966e8a4510fa9d25faf", "rental_uris": {"android": "https://dc.lft.to/lastmile_qr_scan", "ios": "https://dc.lft.to/lastmile_qr_scan"}, "name": "fbd34ec568166966e8a4510fa9d25faf", "is_reserved": 0}, {"is_disabled": 0, "fusion_lon": 0.0, "fusion_lat": 0.0, "lat": 38.907671666666666, "type": "electric_scooter", "lon": -77.06283083333334, "bike_id": "56ae361c03d4384770a9951125a6956e", "rental_uris": {"android": "https://dc.lft.to/lastmile_qr_scan", "ios": "https://dc.lft.to/lastmile_qr_scan"}, "name": "56ae361c03d4384770a9951125a6956e", "is_reserved": 0}, {"is_disabled": 0, "fusion_lon": 0.0, "fusion_lat": 0.0, "lat": 38.85211016666667, "type": "electric_bike", "lon": -77.10125883333333, "bike_id": "6b3cb722af0d832325bc39d4ba50ec01", "rental_uris": {"android": "https://dc.lft.to/lastmile_qr_scan", "ios": "https://dc.lft.to/lastmile_qr_scan"}, "name": "6b3cb722af0d832325bc39d4ba50ec01", "is_reserved": 0}, {"is_disabled": 0, "fusion_lon": 0.0, "fusion_lat": 0.0, "lat": 38.9260215, "type": "electric_scooter", "lon": -77.0235025, "bike_id": "e389e5db9045807e6f84f3f881012bd1", "rental_uris": {"android": "https://dc.lft.to/lastmile_qr_scan", "ios": "https://dc.lft.to/lastmile_qr_scan"}, "name": "e389e5db9045807e6f84f3f881012bd1", "is_reserved": 0}, {"is_disabled": 0, "fusion_lon": 0.0, "fusion_lat": 0.0, "lat": 38.895972666666665, "type": "electric_scooter", "lon": -77.009139, "bike_id": "dabe4ab3c31fbc4a7cd86b411d9db015", "rental_uris": {"android": "https://dc.lft.to/lastmile_qr_scan", "ios": "https://dc.lft.to/lastmile_qr_scan"}, "name": "dabe4ab3c31fbc4a7cd86b411d9db015", "is_reserved": 0}, {"is_disabled": 0, "fusion_lon": 0.0, "fusion_lat": 0.0, "lat": 38.934853333333336, "type": "electric_scooter", "lon": -77.07268816666667, "bike_id": "df805f81065cd52237e0b2bd6ac487f2", "rental_uris": {"android": "https://dc.lft.to/lastmile_qr_scan", "ios": "https://dc.lft.to/lastmile_qr_scan"}, "name": "df805f81065cd52237e0b2bd6ac487f2", "is_reserved": 0}, {"is_disabled": 0, "fusion_lon": 0.0, "fusion_lat": 0.0, "lat": 38.922875, "type": "electric_scooter", "lon": -77.0446635, "bike_id": "6757bd82b05856e2a44d9ce9a9d2fdaf", "rental_uris": {"android": "https://dc.lft.to/lastmile_qr_scan", "ios": "https://dc.lft.to/lastmile_qr_scan"}, "name": "6757bd82b05856e2a44d9ce9a9d2fdaf", "is_reserved": 0}, {"is_disabled": 0, "fusion_lon": 0.0, "fusion_lat": 0.0, "lat": 38.939723, "type": "electric_bike", "lon": -77.36092833333333, "bike_id": "c6e87c9b75fa6d79cf3e5230837c30cb", "rental_uris": {"android": "https://dc.lft.to/lastmile_qr_scan", "ios": "https://dc.lft.to/lastmile_qr_scan"}, "name": "c6e87c9b75fa6d79cf3e5230837c30cb", "is_reserved": 0}, {"is_disabled": 0, "fusion_lon": 0.0, "fusion_lat": 0.0, "lat": 38.931880666666665, "type": "electric_scooter", "lon": -77.04142916666666, "bike_id": "a17b01233fb98b8fe7e476ae73797e43", "rental_uris": {"android": "https://dc.lft.to/lastmile_qr_scan", "ios": "https://dc.lft.to/lastmile_qr_scan"}, "name": "a17b01233fb98b8fe7e476ae73797e43", "is_reserved": 0}, {"is_disabled": 0, "fusion_lon": 0.0, "fusion_lat": 0.0, "lat": 38.89535633333333, "type": "electric_scooter", "lon": -77.04845283333333, "bike_id": "168cbbdece3d67bdbe5b2458675ae6f1", "rental_uris": {"android": "https://dc.lft.to/lastmile_qr_scan", "ios": "https://dc.lft.to/lastmile_qr_scan"}, "name": "168cbbdece3d67bdbe5b2458675ae6f1", "is_reserved": 0}, {"is_disabled": 0, "fusion_lon": 0.0, "fusion_lat": 0.0, "lat": 38.92614016666667, "type": "electric_scooter", "lon": -77.021607, "bike_id": "e7162313ee9135c6ce9027265cd77eea", "rental_uris": {"android": "https://dc.lft.to/lastmile_qr_scan", "ios": "https://dc.lft.to/lastmile_qr_scan"}, "name": "e7162313ee9135c6ce9027265cd77eea", "is_reserved": 0}, {"is_disabled": 0, "fusion_lon": 0.0, "fusion_lat": 0.0, "lat": 38.875849, "type": "electric_scooter", "lon": -77.00413283333333, "bike_id": "a51e88953cfc3d9b76621f9426e7affc", "rental_uris": {"android": "https://dc.lft.to/lastmile_qr_scan", "ios": "https://dc.lft.to/lastmile_qr_scan"}, "name": "a51e88953cfc3d9b76621f9426e7affc", "is_reserved": 0}, {"is_disabled": 0, "fusion_lon": 0.0, "fusion_lat": 0.0, "lat": 38.9170825, "type": "electric_scooter", "lon": -77.03063383333334, "bike_id": "c13685acd44be36fd3250d03b5929f3f", "rental_uris": {"android": "https://dc.lft.to/lastmile_qr_scan", "ios": "https://dc.lft.to/lastmile_qr_scan"}, "name": "c13685acd44be36fd3250d03b5929f3f", "is_reserved": 0}, {"is_disabled": 0, "fusion_lon": 0.0, "fusion_lat": 0.0, "lat": 38.892321, "type": "electric_scooter", "lon": -77.04998733333333, "bike_id": "1328d76e2492e0e59fab8c8ecec44d2e", "rental_uris": {"android": "https://dc.lft.to/lastmile_qr_scan", "ios": "https://dc.lft.to/lastmile_qr_scan"}, "name": "1328d76e2492e0e59fab8c8ecec44d2e", "is_reserved": 0}, {"is_disabled": 0, "fusion_lon": 0.0, "fusion_lat": 0.0, "lat": 38.915503, "type": "electric_scooter", "lon": -77.03242733333333, "bike_id": "cc6f072e21ac053e8d294712ceb77673", "rental_uris": {"android": "https://dc.lft.to/lastmile_qr_scan", "ios": "https://dc.lft.to/lastmile_qr_scan"}, "name": "cc6f072e21ac053e8d294712ceb77673", "is_reserved": 0}, {"is_disabled": 0, "fusion_lon": 0.0, "fusion_lat": 0.0, "lat": 38.8776105, "type": "electric_bike", "lon": -76.97996033333334, "bike_id": "fd9a97e2a907d639fbf5ce882dc89931", "rental_uris": {"android": "https://dc.lft.to/lastmile_qr_scan", "ios": "https://dc.lft.to/lastmile_qr_scan"}, "name": "fd9a97e2a907d639fbf5ce882dc89931", "is_reserved": 0}, {"is_disabled": 0, "fusion_lon": 0.0, "fusion_lat": 0.0, "lat": 38.924850166666666, "type": "electric_scooter", "lon": -77.03181333333333, "bike_id": "48ae65aefcd4c14bfa193962be6c5a4d", "rental_uris": {"android": "https://dc.lft.to/lastmile_qr_scan", "ios": "https://dc.lft.to/lastmile_qr_scan"}, "name": "48ae65aefcd4c14bfa193962be6c5a4d", "is_reserved": 0}, {"is_disabled": 0, "fusion_lon": 0.0, "fusion_lat": 0.0, "lat": 38.95614033333333, "type": "electric_scooter", "lon": -77.02758883333334, "bike_id": "1920fd16fe1b7d5fd09bdedfede54f49", "rental_uris": {"android": "https://dc.lft.to/lastmile_qr_scan", "ios": "https://dc.lft.to/lastmile_qr_scan"}, "name": "1920fd16fe1b7d5fd09bdedfede54f49", "is_reserved": 0}, {"is_disabled": 0, "fusion_lon": 0.0, "fusion_lat": 0.0, "lat": 38.93481233333333, "type": "electric_scooter", "lon": -77.0579125, "bike_id": "b0a2e14032dd99bb8dd7d1b054ebf644", "rental_uris": {"android": "https://dc.lft.to/lastmile_qr_scan", "ios": "https://dc.lft.to/lastmile_qr_scan"}, "name": "b0a2e14032dd99bb8dd7d1b054ebf644", "is_reserved": 0}, {"is_disabled": 0, "fusion_lon": 0.0, "fusion_lat": 0.0, "lat": 38.82445966666667, "type": "electric_bike", "lon": -77.070441, "bike_id": "2ff60a63197d2a05d11ce0addc01ca43", "rental_uris": {"android": "https://dc.lft.to/lastmile_qr_scan", "ios": "https://dc.lft.to/lastmile_qr_scan"}, "name": "2ff60a63197d2a05d11ce0addc01ca43", "is_reserved": 0}, {"is_disabled": 0, "fusion_lon": 0.0, "fusion_lat": 0.0, "lat": 38.898334166666665, "type": "electric_scooter", "lon": -76.94633333333333, "bike_id": "a2c71a5cff3c23e2a220a2edc8c76c6a", "rental_uris": {"android": "https://dc.lft.to/lastmile_qr_scan", "ios": "https://dc.lft.to/lastmile_qr_scan"}, "name": "a2c71a5cff3c23e2a220a2edc8c76c6a", "is_reserved": 0}, {"is_disabled": 0, "fusion_lon": 0.0, "fusion_lat": 0.0, "lat": 38.827822, "type": "electric_bike", "lon": -77.11081533333333, "bike_id": "045d94ed1f4df1cc5daf1d284fb56e67", "rental_uris": {"android": "https://dc.lft.to/lastmile_qr_scan", "ios": "https://dc.lft.to/lastmile_qr_scan"}, "name": "045d94ed1f4df1cc5daf1d284fb56e67", "is_reserved": 0}, {"is_disabled": 0, "fusion_lon": 0.0, "fusion_lat": 0.0, "lat": 38.885236, "type": "electric_scooter", "lon": -76.92680083333333, "bike_id": "e3980741933755e8bc23f4fc6f170dbd", "rental_uris": {"android": "https://dc.lft.to/lastmile_qr_scan", "ios": "https://dc.lft.to/lastmile_qr_scan"}, "name": "e3980741933755e8bc23f4fc6f170dbd", "is_reserved": 0}, {"is_disabled": 0, "fusion_lon": 0.0, "fusion_lat": 0.0, "lat": 38.930246, "type": "electric_scooter", "lon": -77.03447133333333, "bike_id": "ff8ace5cd95a4b654674645bbee978a5", "rental_uris": {"android": "https://dc.lft.to/lastmile_qr_scan", "ios": "https://dc.lft.to/lastmile_qr_scan"}, "name": "ff8ace5cd95a4b654674645bbee978a5", "is_reserved": 0}, {"is_disabled": 0, "fusion_lon": 0.0, "fusion_lat": 0.0, "lat": 38.90285083333333, "type": "electric_scooter", "lon": -77.02424983333333, "bike_id": "d2418d9f1319c6d66f1bf946dfb679f3", "rental_uris": {"android": "https://dc.lft.to/lastmile_qr_scan", "ios": "https://dc.lft.to/lastmile_qr_scan"}, "name": "d2418d9f1319c6d66f1bf946dfb679f3", "is_reserved": 0}, {"is_disabled": 0, "fusion_lon": 0.0, "fusion_lat": 0.0, "lat": 38.939664, "type": "electric_scooter", "lon": -77.03281916666667, "bike_id": "17a59eace93f47575d1e962129943962", "rental_uris": {"android": "https://dc.lft.to/lastmile_qr_scan", "ios": "https://dc.lft.to/lastmile_qr_scan"}, "name": "17a59eace93f47575d1e962129943962", "is_reserved": 0}, {"is_disabled": 0, "fusion_lon": 0.0, "fusion_lat": 0.0, "lat": 38.92380383333333, "type": "electric_scooter", "lon": -77.02885066666667, "bike_id": "5ec0052c69db478197dd6241cc41823d", "rental_uris": {"android": "https://dc.lft.to/lastmile_qr_scan", "ios": "https://dc.lft.to/lastmile_qr_scan"}, "name": "5ec0052c69db478197dd6241cc41823d", "is_reserved": 0}, {"is_disabled": 0, "fusion_lon": 0.0, "fusion_lat": 0.0, "lat": 38.929776333333336, "type": "electric_scooter", "lon": -77.04147766666667, "bike_id": "61b2b7ab9659bfc78e2ba2350b0660e6", "rental_uris": {"android": "https://dc.lft.to/lastmile_qr_scan", "ios": "https://dc.lft.to/lastmile_qr_scan"}, "name": "61b2b7ab9659bfc78e2ba2350b0660e6", "is_reserved": 0}, {"is_disabled": 0, "fusion_lon": 0.0, "fusion_lat": 0.0, "lat": 38.94984383333333, "type": "electric_scooter", "lon": -77.02702266666667, "bike_id": "29976c7ae689d0871eb47cd4fd790790", "rental_uris": {"android": "https://dc.lft.to/lastmile_qr_scan", "ios": "https://dc.lft.to/lastmile_qr_scan"}, "name": "29976c7ae689d0871eb47cd4fd790790", "is_reserved": 0}, {"is_disabled": 0, "fusion_lon": 0.0, "fusion_lat": 0.0, "lat": 38.9164335, "type": "electric_scooter", "lon": -77.02277066666667, "bike_id": "413a763abf5233b2fff7a3246824c9bc", "rental_uris": {"android": "https://dc.lft.to/lastmile_qr_scan", "ios": "https://dc.lft.to/lastmile_qr_scan"}, "name": "413a763abf5233b2fff7a3246824c9bc", "is_reserved": 0}, {"is_disabled": 0, "fusion_lon": 0.0, "fusion_lat": 0.0, "lat": 38.920658333333336, "type": "electric_scooter", "lon": -77.04356983333334, "bike_id": "0a15b52a88cb4e67855c2019f494dc77", "rental_uris": {"android": "https://dc.lft.to/lastmile_qr_scan", "ios": "https://dc.lft.to/lastmile_qr_scan"}, "name": "0a15b52a88cb4e67855c2019f494dc77", "is_reserved": 0}, {"is_disabled": 0, "fusion_lon": 0.0, "fusion_lat": 0.0, "lat": 38.9002395, "type": "electric_scooter", "lon": -77.02681816666667, "bike_id": "c0176aafb7b31f5f42821826a9b12021", "rental_uris": {"android": "https://dc.lft.to/lastmile_qr_scan", "ios": "https://dc.lft.to/lastmile_qr_scan"}, "name": "c0176aafb7b31f5f42821826a9b12021", "is_reserved": 0}, {"is_disabled": 0, "fusion_lon": 0.0, "fusion_lat": 0.0, "lat": 38.911905833333336, "type": "electric_scooter", "lon": -77.03214333333334, "bike_id": "85855053f0ef913fda725069cea3bd0b", "rental_uris": {"android": "https://dc.lft.to/lastmile_qr_scan", "ios": "https://dc.lft.to/lastmile_qr_scan"}, "name": "85855053f0ef913fda725069cea3bd0b", "is_reserved": 0}, {"is_disabled": 0, "fusion_lon": 0.0, "fusion_lat": 0.0, "lat": 38.9134375, "type": "electric_scooter", "lon": -77.04157666666667, "bike_id": "ac4d3f0cb37db90362fd57a12e07d936", "rental_uris": {"android": "https://dc.lft.to/lastmile_qr_scan", "ios": "https://dc.lft.to/lastmile_qr_scan"}, "name": "ac4d3f0cb37db90362fd57a12e07d936", "is_reserved": 0}, {"is_disabled": 0, "fusion_lon": 0.0, "fusion_lat": 0.0, "lat": 38.81335683333333, "type": "electric_bike", "lon": -77.050895, "bike_id": "331c7c6450671ab623d893acf2c201ce", "rental_uris": {"android": "https://dc.lft.to/lastmile_qr_scan", "ios": "https://dc.lft.to/lastmile_qr_scan"}, "name": "331c7c6450671ab623d893acf2c201ce", "is_reserved": 0}, {"is_disabled": 0, "fusion_lon": 0.0, "fusion_lat": 0.0, "lat": 38.920292, "type": "electric_scooter", "lon": -77.0128605, "bike_id": "60b0bb83c51fd9ddd4a2755d9d912f42", "rental_uris": {"android": "https://dc.lft.to/lastmile_qr_scan", "ios": "https://dc.lft.to/lastmile_qr_scan"}, "name": "60b0bb83c51fd9ddd4a2755d9d912f42", "is_reserved": 0}, {"is_disabled": 0, "fusion_lon": 0.0, "fusion_lat": 0.0, "lat": 38.8997775, "type": "electric_scooter", "lon": -77.01613816666666, "bike_id": "2621c4dd3523cf13ddcc107dccf208f0", "rental_uris": {"android": "https://dc.lft.to/lastmile_qr_scan", "ios": "https://dc.lft.to/lastmile_qr_scan"}, "name": "2621c4dd3523cf13ddcc107dccf208f0", "is_reserved": 0}, {"is_disabled": 0, "fusion_lon": 0.0, "fusion_lat": 0.0, "lat": 38.896345333333336, "type": "electric_scooter", "lon": -77.00912583333333, "bike_id": "f0d5aadf8673bb1999bce34c6cd2cdf5", "rental_uris": {"android": "https://dc.lft.to/lastmile_qr_scan", "ios": "https://dc.lft.to/lastmile_qr_scan"}, "name": "f0d5aadf8673bb1999bce34c6cd2cdf5", "is_reserved": 0}, {"is_disabled": 0, "fusion_lon": 0.0, "fusion_lat": 0.0, "lat": 38.9726065, "type": "electric_bike", "lon": -76.99167966666667, "bike_id": "d3440387032231fb776dea534690012a", "rental_uris": {"android": "https://dc.lft.to/lastmile_qr_scan", "ios": "https://dc.lft.to/lastmile_qr_scan"}, "name": "d3440387032231fb776dea534690012a", "is_reserved": 0}, {"is_disabled": 0, "fusion_lon": 0.0, "fusion_lat": 0.0, "lat": 38.8953965, "type": "electric_scooter", "lon": -77.01088433333334, "bike_id": "65bf711522ab0b00500bffa21884b612", "rental_uris": {"android": "https://dc.lft.to/lastmile_qr_scan", "ios": "https://dc.lft.to/lastmile_qr_scan"}, "name": "65bf711522ab0b00500bffa21884b612", "is_reserved": 0}, {"is_disabled": 0, "fusion_lon": 0.0, "fusion_lat": 0.0, "lat": 38.896223666666664, "type": "electric_scooter", "lon": -77.0091665, "bike_id": "11798eb469d142f340a6991af91454bd", "rental_uris": {"android": "https://dc.lft.to/lastmile_qr_scan", "ios": "https://dc.lft.to/lastmile_qr_scan"}, "name": "11798eb469d142f340a6991af91454bd", "is_reserved": 0}, {"is_disabled": 0, "fusion_lon": 0.0, "fusion_lat": 0.0, "lat": 38.91406216666667, "type": "electric_scooter", "lon": -77.04357616666667, "bike_id": "7527d9668211005e779e6aea4d0b89a5", "rental_uris": {"android": "https://dc.lft.to/lastmile_qr_scan", "ios": "https://dc.lft.to/lastmile_qr_scan"}, "name": "7527d9668211005e779e6aea4d0b89a5", "is_reserved": 0}, {"is_disabled": 0, "fusion_lon": 0.0, "fusion_lat": 0.0, "lat": 38.89430733333333, "type": "electric_scooter", "lon": -77.01098033333334, "bike_id": "9bab5cf2d56330f92559abe1379cab79", "rental_uris": {"android": "https://dc.lft.to/lastmile_qr_scan", "ios": "https://dc.lft.to/lastmile_qr_scan"}, "name": "9bab5cf2d56330f92559abe1379cab79", "is_reserved": 0}, {"is_disabled": 0, "fusion_lon": 0.0, "fusion_lat": 0.0, "lat": 38.83936333333333, "type": "electric_bike", "lon": -77.0789845, "bike_id": "86b692da3d626fbf85ec6277ad5f2742", "rental_uris": {"android": "https://dc.lft.to/lastmile_qr_scan", "ios": "https://dc.lft.to/lastmile_qr_scan"}, "name": "86b692da3d626fbf85ec6277ad5f2742", "is_reserved": 0}, {"is_disabled": 0, "fusion_lon": 0.0, "fusion_lat": 0.0, "lat": 38.949237833333335, "type": "electric_scooter", "lon": -77.0185865, "bike_id": "a614929bbd8b6f9d403067f59b8ed063", "rental_uris": {"android": "https://dc.lft.to/lastmile_qr_scan", "ios": "https://dc.lft.to/lastmile_qr_scan"}, "name": "a614929bbd8b6f9d403067f59b8ed063", "is_reserved": 0}, {"is_disabled": 0, "fusion_lon": 0.0, "fusion_lat": 0.0, "lat": 38.9216835, "type": "electric_scooter", "lon": -77.055231, "bike_id": "da8373d9a4b3103572fcb1910ba8774c", "rental_uris": {"android": "https://dc.lft.to/lastmile_qr_scan", "ios": "https://dc.lft.to/lastmile_qr_scan"}, "name": "da8373d9a4b3103572fcb1910ba8774c", "is_reserved": 0}, {"is_disabled": 0, "fusion_lon": 0.0, "fusion_lat": 0.0, "lat": 38.89349766666667, "type": "electric_scooter", "lon": -76.94944016666666, "bike_id": "ef5d44f4ee53569d807e9e58fdd170d5", "rental_uris": {"android": "https://dc.lft.to/lastmile_qr_scan", "ios": "https://dc.lft.to/lastmile_qr_scan"}, "name": "ef5d44f4ee53569d807e9e58fdd170d5", "is_reserved": 0}, {"is_disabled": 0, "fusion_lon": 0.0, "fusion_lat": 0.0, "lat": 38.8953905, "type": "electric_scooter", "lon": -77.00896616666667, "bike_id": "fd4ee6b268bcc00082abf1dde3f0cd52", "rental_uris": {"android": "https://dc.lft.to/lastmile_qr_scan", "ios": "https://dc.lft.to/lastmile_qr_scan"}, "name": "fd4ee6b268bcc00082abf1dde3f0cd52", "is_reserved": 0}, {"is_disabled": 0, "fusion_lon": 0.0, "fusion_lat": 0.0, "lat": 38.91761616666667, "type": "electric_scooter", "lon": -77.00494233333333, "bike_id": "31c2c6cf1823e518d2b79684341a3d16", "rental_uris": {"android": "https://dc.lft.to/lastmile_qr_scan", "ios": "https://dc.lft.to/lastmile_qr_scan"}, "name": "31c2c6cf1823e518d2b79684341a3d16", "is_reserved": 0}, {"is_disabled": 0, "fusion_lon": 0.0, "fusion_lat": 0.0, "lat": 38.928813833333336, "type": "electric_scooter", "lon": -77.03336966666667, "bike_id": "0916887a2c9f51a45a2dd69c01aecc5a", "rental_uris": {"android": "https://dc.lft.to/lastmile_qr_scan", "ios": "https://dc.lft.to/lastmile_qr_scan"}, "name": "0916887a2c9f51a45a2dd69c01aecc5a", "is_reserved": 0},