{"data": {"bikes": [{"fusion_lat": 0.0, "lon": -77.02850833333333, "is_reserved": 0, "bike_id": "6ff978391669d173bc5d469220678275", "fusion_lon": 0.0, "rental_uris": {"android": "https://dc.lft.to/lastmile_qr_scan", "ios": "https://dc.lft.to/lastmile_qr_scan"}, "name": "6ff978391669d173bc5d469220678275", "type": "electric_scooter", "lat": 38.88739866666667, "is_disabled": 0}, {"fusion_lat": 0.0, "lon": -77.038839, "is_reserved": 0, "bike_id": "693077e18d669353a1b27572822c3676", "fusion_lon": 0.0, "rental_uris": {"android": "https://dc.lft.to/lastmile_qr_scan", "ios": "https://dc.lft.to/lastmile_qr_scan"}, "name": "693077e18d669353a1b27572822c3676", "type": "electric_scooter", "lat": 38.89195333333333, "is_disabled": 0}, {"fusion_lat": 0.0, "lon": -77.04679033333333, "is_reserved": 0, "bike_id": "4562d16108bbbc2c12b2ac8d45d4c650", "fusion_lon": 0.0, "rental_uris": {"android": "https://dc.lft.to/lastmile_qr_scan", "ios": "https://dc.lft.to/lastmile_qr_scan"}, "name": "4562d16108bbbc2c12b2ac8d45d4c650", "type": "electric_bike", "lat": 38.89452416666666, "is_disabled": 0}, {"fusion_lat": 0.0, "lon": -77.04406716666666, "is_reserved": 0, "bike_id": "0892e9b91ceea37683415dbec7d1d1e9", "fusion_lon": 0.0, "rental_uris": {"android": "https://dc.lft.to/lastmile_qr_scan", "ios": "https://dc.lft.to/lastmile_qr_scan"}, "name": "0892e9b91ceea37683415dbec7d1d1e9", "type": "electric_scooter", "lat": 38.9091615, "is_disabled": 0}, {"fusion_lat": 0.0, "lon": -77.04868333333333, "is_reserved": 0, "bike_id": "0871b660981d20e736248de4e75632be", "fusion_lon": 0.0, "rental_uris": {"android": "https://dc.lft.to/lastmile_qr_scan", "ios": "https://dc.lft.to/lastmile_qr_scan"}, "name": "0871b660981d20e736248de4e75632be", "type": "electric_scooter", "lat": 38.8922305, "is_disabled": 0}, {"fusion_lat": 0.0, "lon": -77.02880283333333, "is_reserved": 0, "bike_id": "1aeb4ae91ec99b77b17bca9532d238a5", "fusion_lon": 0.0, "rental_uris": {"android": "https://dc.lft.to/lastmile_qr_scan", "ios": "https://dc.lft.to/lastmile_qr_scan"}, "name": "1aeb4ae91ec99b77b17bca9532d238a5", "type": "electric_scooter", "lat": 38.91265833333333, "is_disabled": 0}, {"fusion_lat": 0.0, "lon": -77.077034, "is_reserved": 0, "bike_id": "9b711d49029f0d68bf872756424a5798", "fusion_lon": 0.0, "rental_uris": {"android": "https://dc.lft.to/lastmile_qr_scan", "ios": "https://dc.lft.to/lastmile_qr_scan"}, "name": "9b711d49029f0d68bf872756424a5798", "type": "electric_bike", "lat": 38.89524083333333, "is_disabled": 0}, {"fusion_lat": 0.0, "lon": -76.96786183333333, "is_reserved": 0, "bike_id": "7f817a0ae0b34c2419394c7168c42f2d", "fusion_lon": 0.0, "rental_uris": {"android": "https://dc.lft.to/lastmile_qr_scan", "ios": "https://dc.lft.to/lastmile_qr_scan"}, "name": "7f817a0ae0b34c2419394c7168c42f2d", "type": "electric_scooter", "lat": 38.873368166666666, "is_disabled": 0}, {"fusion_lat": 0.0, "lon": -77.05109866666666, "is_reserved": 0, "bike_id": "388c21e506757fbae4ec207369c27249", "fusion_lon": 0.0, "rental_uris": {"android": "https://dc.lft.to/lastmile_qr_scan", "ios": "https://dc.lft.to/lastmile_qr_scan"}, "name": "388c21e506757fbae4ec207369c27249", "type": "electric_bike", "lat": 39.036667666666666, "is_disabled": 0}, {"fusion_lat": 0.0, "lon": -76.9983205, "is_reserved": 0, "bike_id": "59cdf45c99619b5e6ecec470430c6d05", "fusion_lon": 0.0, "rental_uris": {"android": "https://dc.lft.to/lastmile_qr_scan", "ios": "https://dc.lft.to/lastmile_qr_scan"}, "name": "59cdf45c99619b5e6ecec470430c6d05", "type": "electric_scooter", "lat": 38.906972333333336, "is_disabled": 0}, {"fusion_lat": 0.0, "lon": -76.99860483333333, "is_reserved": 0, "bike_id": "1f7146f38fd492a22862356a62b10073", "fusion_lon": 0.0, "rental_uris": {"android": "https://dc.lft.to/lastmile_qr_scan", "ios": "https://dc.lft.to/lastmile_qr_scan"}, "name": "1f7146f38fd492a22862356a62b10073", "type": "electric_scooter", "lat": 38.88630583333333, "is_disabled": 0}, {"fusion_lat": 0.0, "lon": -77.02970633333334, "is_reserved": 0, "bike_id": "c917019724fbe97961ca99be5930d70c", "fusion_lon": 0.0, "rental_uris": {"android": "https://dc.lft.to/lastmile_qr_scan", "ios": "https://dc.lft.to/lastmile_qr_scan"}, "name": "c917019724fbe97961ca99be5930d70c", "type": "electric_scooter", "lat": 38.9327645, "is_disabled": 0}, {"fusion_lat": 0.0, "lon": -77.05032783333333, "is_reserved": 0, "bike_id": "a3536b9eda09b487fe361d60b3424066", "fusion_lon": 0.0, "rental_uris": {"android": "https://dc.lft.to/lastmile_qr_scan", "ios": "https://dc.lft.to/lastmile_qr_scan"}, "name": "a3536b9eda09b487fe361d60b3424066", "type": "electric_scooter", "lat": 38.901246, "is_disabled": 0}, {"fusion_lat": 0.0, "lon": -77.00048983333333, "is_reserved": 0, "bike_id": "9ec902b1ae97381cef77dc32eb79a13d", "fusion_lon": 0.0, "rental_uris": {"android": "https://dc.lft.to/lastmile_qr_scan", "ios": "https://dc.lft.to/lastmile_qr_scan"}, "name": "9ec902b1ae97381cef77dc32eb79a13d", "type": "electric_scooter", "lat": 38.92465333333333, "is_disabled": 0}, {"fusion_lat": 0.0, "lon": -77.02227516666666, "is_reserved": 0, "bike_id": "ca7ce2b7abc887de54a2c6bb80eae93d", "fusion_lon": 0.0, "rental_uris": {"android": "https://dc.lft.to/lastmile_qr_scan", "ios": "https://dc.lft.to/lastmile_qr_scan"}, "name": "ca7ce2b7abc887de54a2c6bb80eae93d", "type": "electric_scooter", "lat": 38.89216733333333, "is_disabled": 0}, {"fusion_lat": 0.0, "lon": -77.043408, "is_reserved": 0, "bike_id": "e643059187b9c1973de79eb6b0ecbc3f", "fusion_lon": 0.0, "rental_uris": {"android": "https://dc.lft.to/lastmile_qr_scan", "ios": "https://dc.lft.to/lastmile_qr_scan"}, "name": "e643059187b9c1973de79eb6b0ecbc3f", "type": "electric_scooter", "lat": 38.89222616666667, "is_disabled": 0}, {"fusion_lat": 0.0, "lon": -77.03431533333334, "is_reserved": 0, "bike_id": "d629b96adff086176bc5f4ba0bec8394", "fusion_lon": 0.0, "rental_uris": {"android": "https://dc.lft.to/lastmile_qr_scan", "ios": "https://dc.lft.to/lastmile_qr_scan"}, "name": "d629b96adff086176bc5f4ba0bec8394", "type": "electric_scooter", "lat": 38.9193165, "is_disabled": 0}, {"fusion_lat": 0.0, "lon": -77.02377516666667, "is_reserved": 0, "bike_id": "447a238d5d6e6900548c547e3de5fd76", "fusion_lon": 0.0, "rental_uris": {"android": "https://dc.lft.to/lastmile_qr_scan", "ios": "https://dc.lft.to/lastmile_qr_scan"}, "name": "447a238d5d6e6900548c547e3de5fd76", "type": "electric_scooter", "lat": 38.902029, "is_disabled": 0}, {"fusion_lat": 0.0, "lon": -77.027242, "is_reserved": 0, "bike_id": "5199affa354c967524d3f30b2b91df3e", "fusion_lon": 0.0, "rental_uris": {"android": "https://dc.lft.to/lastmile_qr_scan", "ios": "https://dc.lft.to/lastmile_qr_scan"}, "name": "5199affa354c967524d3f30b2b91df3e", "type": "electric_scooter", "lat": 38.93248166666667, "is_disabled": 0}, {"fusion_lat": 0.0, "lon": -77.04465983333333, "is_reserved": 0, "bike_id": "fc89004dc693b0fe1c802978755e017d", "fusion_lon": 0.0, "rental_uris": {"android": "https://dc.lft.to/lastmile_qr_scan", "ios": "https://dc.lft.to/lastmile_qr_scan"}, "name": "fc89004dc693b0fe1c802978755e017d", "type": "electric_scooter", "lat": 38.9101495, "is_disabled": 0}, {"fusion_lat": 0.0, "lon": -77.0416915, "is_reserved": 0, "bike_id": "c02c23d775f9f9bf2f359030b09992cd", "fusion_lon": 0.0, "rental_uris": {"android": "https://dc.lft.to/lastmile_qr_scan", "ios": "https://dc.lft.to/lastmile_qr_scan"}, "name": "c02c23d775f9f9bf2f359030b09992cd", "type": "electric_scooter", "lat": 38.90656216666667, "is_disabled": 0}, {"fusion_lat": 0.0, "lon": -77.07823, "is_reserved": 0, "bike_id": "5a5d4ce03ff4bc2791c0fede41aeb1c0", "fusion_lon": 0.0, "rental_uris": {"android": "https://dc.lft.to/lastmile_qr_scan", "ios": "https://dc.lft.to/lastmile_qr_scan"}, "name": "5a5d4ce03ff4bc2791c0fede41aeb1c0", "type": "electric_bike", "lat": 38.93638983333334, "is_disabled": 0}, {"fusion_lat": 0.0, "lon": -77.02620316666666, "is_reserved": 0, "bike_id": "acfce26ae611faad6a64659d8252b4e9", "fusion_lon": 0.0, "rental_uris": {"android": "https://dc.lft.to/lastmile_qr_scan", "ios": "https://dc.lft.to/lastmile_qr_scan"}, "name": "acfce26ae611faad6a64659d8252b4e9", "type": "electric_scooter", "lat": 38.894291, "is_disabled": 0}, {"fusion_lat": 0.0, "lon": -77.02699833333334, "is_reserved": 0, "bike_id": "b326bd2eb38f5f2741e7a5fda0c8c9c8", "fusion_lon": 0.0, "rental_uris": {"android": "https://dc.lft.to/lastmile_qr_scan", "ios": "https://dc.lft.to/lastmile_qr_scan"}, "name": "b326bd2eb38f5f2741e7a5fda0c8c9c8", "type": "electric_scooter", "lat": 38.91686833333333, "is_disabled": 0}, {"fusion_lat": 0.0, "lon": -76.98842816666667, "is_reserved": 0, "bike_id": "19176d848167ef88a9d2fb81eb5b3047", "fusion_lon": 0.0, "rental_uris": {"android": "https://dc.lft.to/lastmile_qr_scan", "ios": "https://dc.lft.to/lastmile_qr_scan"}, "name": "19176d848167ef88a9d2fb81eb5b3047", "type": "electric_bike", "lat": 38.8427225, "is_disabled": 0}, {"fusion_lat": 0.0, "lon": -76.976094, "is_reserved": 0, "bike_id": "a077f6f21b44853a20c974dcec5e83a5", "fusion_lon": 0.0, "rental_uris": {"android": "https://dc.lft.to/lastmile_qr_scan", "ios": "https://dc.lft.to/lastmile_qr_scan"}, "name": "a077f6f21b44853a20c974dcec5e83a5", "type": "electric_scooter", "lat": 38.912913, "is_disabled": 0}, {"fusion_lat": 0.0, "lon": -77.0203985, "is_reserved": 0, "bike_id": "546a5ea3248524e4deba37e922148bec", "fusion_lon": 0.0, "rental_uris": {"android": "https://dc.lft.to/lastmile_qr_scan", "ios": "https://dc.lft.to/lastmile_qr_scan"}, "name": "546a5ea3248524e4deba37e922148bec", "type": "electric_scooter", "lat": 38.92188, "is_disabled": 0}, {"fusion_lat": 0.0, "lon": -77.0153195, "is_reserved": 0, "bike_id": "fbc184b16ce247546d615207de05f7ba", "fusion_lon": 0.0, "rental_uris": {"android": "https://dc.lft.to/lastmile_qr_scan", "ios": "https://dc.lft.to/lastmile_qr_scan"}, "name": "fbc184b16ce247546d615207de05f7ba", "type": "electric_scooter", "lat": 38.902658, "is_disabled": 0}, {"fusion_lat": 0.0, "lon": -76.99405483333334, "is_reserved": 0, "bike_id": "4536049b21e2067f8f0b9ff4d4dc23f5", "fusion_lon": 0.0, "rental_uris": {"android": "https://dc.lft.to/lastmile_qr_scan", "ios": "https://dc.lft.to/lastmile_qr_scan"}, "name": "4536049b21e2067f8f0b9ff4d4dc23f5", "type": "electric_scooter", "lat": 38.920955666666664, "is_disabled": 0}, {"fusion_lat": 0.0, "lon": -76.98053466666667, "is_reserved": 0, "bike_id": "dca5657133bebca434fff3f872214d68", "fusion_lon": 0.0, "rental_uris": {"android": "https://dc.lft.to/lastmile_qr_scan", "ios": "https://dc.lft.to/lastmile_qr_scan"}, "name": "dca5657133bebca434fff3f872214d68", "type": "electric_scooter", "lat": 38.90165283333333, "is_disabled": 0}, {"fusion_lat": 0.0, "lon": -77.03191116666666, "is_reserved": 0, "bike_id": "34f0688efedf2bfe489674d37a966652", "fusion_lon": 0.0, "rental_uris": {"android": "https://dc.lft.to/lastmile_qr_scan", "ios": "https://dc.lft.to/lastmile_qr_scan"}, "name": "34f0688efedf2bfe489674d37a966652", "type": "electric_scooter", "lat": 38.90977766666666, "is_disabled": 0}, {"fusion_lat": 0.0, "lon": -77.03373716666667, "is_reserved": 0, "bike_id": "939cd5ecb0e6cf3734e465868f4588b8", "fusion_lon": 0.0, "rental_uris": {"android": "https://dc.lft.to/lastmile_qr_scan", "ios": "https://dc.lft.to/lastmile_qr_scan"}, "name": "939cd5ecb0e6cf3734e465868f4588b8", "type": "electric_scooter", "lat": 38.899140833333334, "is_disabled": 0}, {"fusion_lat": 0.0, "lon": -77.00009083333333, "is_reserved": 0, "bike_id": "07080933a2d3a3f3fb902166ced2b8ad", "fusion_lon": 0.0, "rental_uris": {"android": "https://dc.lft.to/lastmile_qr_scan", "ios": "https://dc.lft.to/lastmile_qr_scan"}, "name": "07080933a2d3a3f3fb902166ced2b8ad", "type": "electric_scooter", "lat": 38.89296483333333, "is_disabled": 0}, {"fusion_lat": 0.0, "lon": -77.03182366666667, "is_reserved": 0, "bike_id": "cf3c5a4492e72f7d84482cb467d5e459", "fusion_lon": 0.0, "rental_uris": {"android": "https://dc.lft.to/lastmile_qr_scan", "ios": "https://dc.lft.to/lastmile_qr_scan"}, "name": "cf3c5a4492e72f7d84482cb467d5e459", "type": "electric_scooter", "lat": 38.919223, "is_disabled": 0}, {"fusion_lat": 0.0, "lon": -77.02431016666667, "is_reserved": 0, "bike_id": "ba3626b107ad1e054205de2cecb6bb46", "fusion_lon": 0.0, "rental_uris": {"android": "https://dc.lft.to/lastmile_qr_scan", "ios": "https://dc.lft.to/lastmile_qr_scan"}, "name": "ba3626b107ad1e054205de2cecb6bb46", "type": "electric_scooter", "lat": 38.93710566666667, "is_disabled": 0}, {"fusion_lat": 0.0, "lon": -77.021512, "is_reserved": 0, "bike_id": "8baa88cf9d385ef947e223bd3d318fff", "fusion_lon": 0.0, "rental_uris": {"android": "https://dc.lft.to/lastmile_qr_scan", "ios": "https://dc.lft.to/lastmile_qr_scan"}, "name": "8baa88cf9d385ef947e223bd3d318fff", "type": "electric_bike", "lat": 38.91402266666667, "is_disabled": 0}, {"fusion_lat": 0.0, "lon": -76.9862475, "is_reserved": 0, "bike_id": "91744dbbce356496fa4c22b5bee9e102", "fusion_lon": 0.0, "rental_uris": {"android": "https://dc.lft.to/lastmile_qr_scan", "ios": "https://dc.lft.to/lastmile_qr_scan"}, "name": "91744dbbce356496fa4c22b5bee9e102", "type": "electric_scooter", "lat": 38.90110083333333, "is_disabled": 0}, {"fusion_lat": 0.0, "lon": -77.043466, "is_reserved": 0, "bike_id": "fdc080637b62882f21780f182ea47137", "fusion_lon": 0.0, "rental_uris": {"android": "https://dc.lft.to/lastmile_qr_scan", "ios": "https://dc.lft.to/lastmile_qr_scan"}, "name": "fdc080637b62882f21780f182ea47137", "type": "electric_scooter", "lat": 38.90719333333333, "is_disabled": 0}, {"fusion_lat": 0.0, "lon": -76.94384783333334, "is_reserved": 0, "bike_id": "b9ed92d6b6699286933ed76b0fce5864", "fusion_lon": 0.0, "rental_uris": {"android": "https://dc.lft.to/lastmile_qr_scan", "ios": "https://dc.lft.to/lastmile_qr_scan"}, "name": "b9ed92d6b6699286933ed76b0fce5864", "type": "electric_scooter", "lat": 38.89324833333333, "is_disabled": 0}, {"fusion_lat": 0.0, "lon": -77.03217466666666, "is_reserved": 0, "bike_id": "8f50806f33d4a5bb53bf10e0c46abe69", "fusion_lon": 0.0, "rental_uris": {"android": "https://dc.lft.to/lastmile_qr_scan", "ios": "https://dc.lft.to/lastmile_qr_scan"}, "name": "8f50806f33d4a5bb53bf10e0c46abe69", "type": "electric_scooter", "lat": 38.91544, "is_disabled": 0}, {"fusion_lat": 0.0, "lon": -76.9977435, "is_reserved": 0, "bike_id": "eab30b4a40ea9587ba70674634ea494d", "fusion_lon": 0.0, "rental_uris": {"android": "https://dc.lft.to/lastmile_qr_scan", "ios": "https://dc.lft.to/lastmile_qr_scan"}, "name": "eab30b4a40ea9587ba70674634ea494d", "type": "electric_scooter", "lat": 38.844285, "is_disabled": 0}, {"fusion_lat": 0.0, "lon": -76.97420016666666, "is_reserved": 0, "bike_id": "d26aea2799d0fa0eefd4b3d8b1005ae6", "fusion_lon": 0.0, "rental_uris": {"android": "https://dc.lft.to/lastmile_qr_scan", "ios": "https://dc.lft.to/lastmile_qr_scan"}, "name": "d26aea2799d0fa0eefd4b3d8b1005ae6", "type": "electric_scooter", "lat": 38.90399766666667, "is_disabled": 0}, {"fusion_lat": 0.0, "lon": -77.0322045, "is_reserved": 0, "bike_id": "2a49114aa578b23513713b2f362b083d", "fusion_lon": 0.0, "rental_uris": {"android": "https://dc.lft.to/lastmile_qr_scan", "ios": "https://dc.lft.to/lastmile_qr_scan"}, "name": "2a49114aa578b23513713b2f362b083d", "type": "electric_scooter", "lat": 38.896715, "is_disabled": 0}, {"fusion_lat": 0.0, "lon": -77.0905985, "is_reserved": 0, "bike_id": "20a387d915e6c9d4545f18e8626d38bb", "fusion_lon": 0.0, "rental_uris": {"android": "https://dc.lft.to/lastmile_qr_scan", "ios": "https://dc.lft.to/lastmile_qr_scan"}, "name": "20a387d915e6c9d4545f18e8626d38bb", "type": "electric_bike", "lat": 38.86254266666667, "is_disabled": 0}, {"fusion_lat": 0.0, "lon": -76.9782845, "is_reserved": 0, "bike_id": "d971198070d57d5a491c08c149fcfc8d", "fusion_lon": 0.0, "rental_uris": {"android": "https://dc.lft.to/lastmile_qr_scan", "ios": "https://dc.lft.to/lastmile_qr_scan"}, "name": "d971198070d57d5a491c08c149fcfc8d", "type": "electric_bike", "lat": 38.84363833333333, "is_disabled": 0}, {"fusion_lat": 0.0, "lon": -76.93741316666667, "is_reserved": 0, "bike_id": "c0e4513569d25aa588f751b21d7ff53e", "fusion_lon": 0.0, "rental_uris": {"android": "https://dc.lft.to/lastmile_qr_scan", "ios": "https://dc.lft.to/lastmile_qr_scan"}, "name": "c0e4513569d25aa588f751b21d7ff53e", "type": "electric_scooter", "lat": 38.89042383333334, "is_disabled": 0}, {"fusion_lat": 0.0, "lon": -76.99880333333333, "is_reserved": 0, "bike_id": "1096245afd4af6a4a4a709e8c3a447e2", "fusion_lon": 0.0, "rental_uris": {"android": "https://dc.lft.to/lastmile_qr_scan", "ios": "https://dc.lft.to/lastmile_qr_scan"}, "name": "1096245afd4af6a4a4a709e8c3a447e2", "type": "electric_scooter", "lat": 38.90125966666667, "is_disabled": 0}, {"fusion_lat": 0.0, "lon": -77.02203633333333, "is_reserved": 0, "bike_id": "0d08c38ef90385fb10f7a172ea4436ab", "fusion_lon": 0.0, "rental_uris": {"android": "https://dc.lft.to/lastmile_qr_scan", "ios": "https://dc.lft.to/lastmile_qr_scan"}, "name": "0d08c38ef90385fb10f7a172ea4436ab", "type": "electric_scooter", "lat": 38.92587916666667, "is_disabled": 0}, {"fusion_lat": 0.0, "lon": -76.98013883333333, "is_reserved": 0, "bike_id": "c58dc64530c9d159ccc771260528d616", "fusion_lon": 0.0, "rental_uris": {"android": "https://dc.lft.to/lastmile_qr_scan", "ios": "https://dc.lft.to/lastmile_qr_scan"}, "name": "c58dc64530c9d159ccc771260528d616", "type": "electric_scooter", "lat": 38.90281566666667, "is_disabled": 0}, {"fusion_lat": 0.0, "lon": -77.046554, "is_reserved": 0, "bike_id": "39e2fdd504b2f1a3194910b1bf9dac11", "fusion_lon": 0.0, "rental_uris": {"android": "https://dc.lft.to/lastmile_qr_scan", "ios": "https://dc.lft.to/lastmile_qr_scan"}, "name": "39e2fdd504b2f1a3194910b1bf9dac11", "type": "electric_scooter", "lat": 38.90004166666667, "is_disabled": 0}, {"fusion_lat": 0.0, "lon": -77.00206983333334, "is_reserved": 0, "bike_id": "f69bc339bd472d43a1d99e3eb0b619eb", "fusion_lon": 0.0, "rental_uris": {"android": "https://dc.lft.to/lastmile_qr_scan", "ios": "https://dc.lft.to/lastmile_qr_scan"}, "name": "f69bc339bd472d43a1d99e3eb0b619eb", "type": "electric_scooter", "lat": 38.9023775, "is_disabled": 0}, {"fusion_lat": 0.0, "lon": -77.080346, "is_reserved": 0, "bike_id": "f3ee35010cecc419503e17e80f63f9bd", "fusion_lon": 0.0, "rental_uris": {"android": "https://dc.lft.to/lastmile_qr_scan", "ios": "https://dc.lft.to/lastmile_qr_scan"}, "name": "f3ee35010cecc419503e17e80f63f9bd", "type": "electric_scooter", "lat": 38.9238255, "is_disabled": 0}, {"fusion_lat": 0.0, "lon": -77.04231033333333, "is_reserved": 0, "bike_id": "d50e667154ea0f3849cf76fbf7e01963", "fusion_lon": 0.0, "rental_uris": {"android": "https://dc.lft.to/lastmile_qr_scan", "ios": "https://dc.lft.to/lastmile_qr_scan"}, "name": "d50e667154ea0f3849cf76fbf7e01963", "type": "electric_scooter", "lat": 38.9216705, "is_disabled": 0}, {"fusion_lat": 0.0, "lon": -77.04482033333333, "is_reserved": 0, "bike_id": "51c1049ed2b04f0c40ef52e561e0492e", "fusion_lon": 0.0, "rental_uris": {"android": "https://dc.lft.to/lastmile_qr_scan", "ios": "https://dc.lft.to/lastmile_qr_scan"}, "name": "51c1049ed2b04f0c40ef52e561e0492e", "type": "electric_scooter", "lat": 38.90508666666667, "is_disabled": 0}, {"fusion_lat": 0.0, "lon": -77.02904816666667, "is_reserved": 0, "bike_id": "0d569459256e413a5d4fb440749704b7", "fusion_lon": 0.0, "rental_uris": {"android": "https://dc.lft.to/lastmile_qr_scan", "ios": "https://dc.lft.to/lastmile_qr_scan"}, "name": "0d569459256e413a5d4fb440749704b7", "type": "electric_scooter", "lat": 38.92815016666667, "is_disabled": 0}, {"fusion_lat": 0.0, "lon": -77.023742, "is_reserved": 0, "bike_id": "83ccde257b7f328aca9625aa70d18103", "fusion_lon": 0.0, "rental_uris": {"android": "https://dc.lft.to/lastmile_qr_scan", "ios": "https://dc.lft.to/lastmile_qr_scan"}, "name": "83ccde257b7f328aca9625aa70d18103", "type": "electric_scooter", "lat": 38.91834333333333, "is_disabled": 0}, {"fusion_lat": 0.0, "lon": -76.99846433333333, "is_reserved": 0, "bike_id": "446eca53cda89660a2cd1bad0058edc5", "fusion_lon": 0.0, "rental_uris": {"android": "https://dc.lft.to/lastmile_qr_scan", "ios": "https://dc.lft.to/lastmile_qr_scan"}, "name": "446eca53cda89660a2cd1bad0058edc5", "type": "electric_scooter", "lat": 38.88737833333333, "is_disabled": 0}, {"fusion_lat": 0.0, "lon": -76.98090183333333, "is_reserved": 0, "bike_id": "2a01207e005f3f4c2578695e1b6ce929", "fusion_lon": 0.0, "rental_uris": {"android": "https://dc.lft.to/lastmile_qr_scan", "ios": "https://dc.lft.to/lastmile_qr_scan"}, "name": "2a01207e005f3f4c2578695e1b6ce929", "type": "electric_bike", "lat": 38.881311, "is_disabled": 0}, {"fusion_lat": 0.0, "lon": -76.99379816666666, "is_reserved": 0, "bike_id": "46373a71a06b5d3e2d02b3c5d1beda40", "fusion_lon": 0.0, "rental_uris": {"android": "https://dc.lft.to/lastmile_qr_scan", "ios": "https://dc.lft.to/lastmile_qr_scan"}, "name": "46373a71a06b5d3e2d02b3c5d1beda40", "type": "electric_scooter", "lat": 38.883344, "is_disabled": 0}, {"fusion_lat": 0.0, "lon": -77.06354583333334, "is_reserved": 0, "bike_id": "7c86bff39c53148a73d512198605be8e", "fusion_lon": 0.0, "rental_uris": {"android": "https://dc.lft.to/lastmile_qr_scan", "ios": "https://dc.lft.to/lastmile_qr_scan"}, "name": "7c86bff39c53148a73d512198605be8e", "type": "electric_scooter", "lat": 38.906757999999996, "is_disabled": 0}, {"fusion_lat": 0.0, "lon": -76.95192883333333, "is_reserved": 0, "bike_id": "e4397bf01afb422c0cc16808e5a1880a", "fusion_lon": 0.0, "rental_uris": {"android": "https://dc.lft.to/lastmile_qr_scan", "ios": "https://dc.lft.to/lastmile_qr_scan"}, "name": "e4397bf01afb422c0cc16808e5a1880a", "type": "electric_scooter", "lat": 38.900013, "is_disabled": 0}, {"fusion_lat": 0.0, "lon": -76.98834616666667, "is_reserved": 0, "bike_id": "79ad9c21864cb6c67660ad160ac112fe", "fusion_lon": 0.0, "rental_uris": {"android": "https://dc.lft.to/lastmile_qr_scan", "ios": "https://dc.lft.to/lastmile_qr_scan"}, "name": "79ad9c21864cb6c67660ad160ac112fe", "type": "electric_scooter", "lat": 38.892442333333335, "is_disabled": 0}, {"fusion_lat": 0.0, "lon": -77.04368266666667, "is_reserved": 0, "bike_id": "03c3baa6a711ae019373906e7f2d758f", "fusion_lon": 0.0, "rental_uris": {"android": "https://dc.lft.to/lastmile_qr_scan", "ios": "https://dc.lft.to/lastmile_qr_scan"}, "name": "03c3baa6a711ae019373906e7f2d758f", "type": "electric_scooter", "lat": 38.90235666666667, "is_disabled": 0}, {"fusion_lat": 0.0, "lon": -76.93370533333334, "is_reserved": 0, "bike_id": "7e5186725771e13b2bf5a68d1efe5473", "fusion_lon": 0.0, "rental_uris": {"android": "https://dc.lft.to/lastmile_qr_scan", "ios": "https://dc.lft.to/lastmile_qr_scan"}, "name": "7e5186725771e13b2bf5a68d1efe5473", "type": "electric_scooter", "lat": 38.89908966666667, "is_disabled": 0}, {"fusion_lat": 0.0, "lon": -77.0219105, "is_reserved": 0, "bike_id": "8081ae1f389f7077ff6a0fc45541683e", "fusion_lon": 0.0, "rental_uris": {"android": "https://dc.lft.to/lastmile_qr_scan", "ios": "https://dc.lft.to/lastmile_qr_scan"}, "name": "8081ae1f389f7077ff6a0fc45541683e", "type": "electric_scooter", "lat": 38.92272, "is_disabled": 0}, {"fusion_lat": 0.0, "lon": -77.023015, "is_reserved": 0, "bike_id": "3c5825b1b7210773fca4d8f42075695e", "fusion_lon": 0.0, "rental_uris": {"android": "https://dc.lft.to/lastmile_qr_scan", "ios": "https://dc.lft.to/lastmile_qr_scan"}, "name": "3c5825b1b7210773fca4d8f42075695e", "type": "electric_scooter", "lat": 38.9178275, "is_disabled": 0}, {"fusion_lat": 0.0, "lon": -77.01763833333334, "is_reserved": 0, "bike_id": "8aac1a2746dce0bda074dea0ed244160", "fusion_lon": 0.0, "rental_uris": {"android": "https://dc.lft.to/lastmile_qr_scan", "ios": "https://dc.lft.to/lastmile_qr_scan"}, "name": "8aac1a2746dce0bda074dea0ed244160", "type": "electric_scooter", "lat": 38.8770395, "is_disabled": 0}, {"fusion_lat": 0.0, "lon": -77.02667466666666, "is_reserved": 0, "bike_id": "2f10a2ae4fecc898753299ff23380465", "fusion_lon": 0.0, "rental_uris": {"android": "https://dc.lft.to/lastmile_qr_scan", "ios": "https://dc.lft.to/lastmile_qr_scan"}, "name": "2f10a2ae4fecc898753299ff23380465", "type": "electric_scooter", "lat": 38.90258, "is_disabled": 0}, {"fusion_lat": 0.0, "lon": -77.047994, "is_reserved": 0, "bike_id": "6da1fa9d6381ee3d519b6309e1a1d17d", "fusion_lon": 0.0, "rental_uris": {"android": "https://dc.lft.to/lastmile_qr_scan", "ios": "https://dc.lft.to/lastmile_qr_scan"}, "name": "6da1fa9d6381ee3d519b6309e1a1d17d", "type": "electric_scooter", "lat": 38.90858933333333, "is_disabled": 0}, {"fusion_lat": 0.0, "lon": -77.04188766666667, "is_reserved": 0, "bike_id": "b5bc57feb06067a2a164aa3bce806a1f", "fusion_lon": 0.0, "rental_uris": {"android": "https://dc.lft.to/lastmile_qr_scan", "ios": "https://dc.lft.to/lastmile_qr_scan"}, "name": "b5bc57feb06067a2a164aa3bce806a1f", "type": "electric_scooter", "lat": 38.926226166666666, "is_disabled": 0}, {"fusion_lat": 0.0, "lon": -76.995781, "is_reserved": 0, "bike_id": "fa339c660540f7a1eeaa8a779ad2839d", "fusion_lon": 0.0, "rental_uris": {"android": "https://dc.lft.to/lastmile_qr_scan", "ios": "https://dc.lft.to/lastmile_qr_scan"}, "name": "fa339c660540f7a1eeaa8a779ad2839d", "type": "electric_scooter", "lat": 38.8517545, "is_disabled": 0}, {"fusion_lat": 0.0, "lon": -77.0417495, "is_reserved": 0, "bike_id": "ab4791eac2baad804463b924ef698008", "fusion_lon": 0.0, "rental_uris": {"android": "https://dc.lft.to/lastmile_qr_scan", "ios": "https://dc.lft.to/lastmile_qr_scan"}, "name": "ab4791eac2baad804463b924ef698008", "type": "electric_scooter", "lat": 38.904535333333335, "is_disabled": 0}, {"fusion_lat": 0.0, "lon": -76.949729, "is_reserved": 0, "bike_id": "d8967006686eb9cf22e42cd8116c6cff", "fusion_lon": 0.0, "rental_uris": {"android": "https://dc.lft.to/lastmile_qr_scan", "ios": "https://dc.lft.to/lastmile_qr_scan"}, "name": "d8967006686eb9cf22e42cd8116c6cff", "type": "electric_scooter", "lat": 38.894549833333336, "is_disabled": 0}, {"fusion_lat": 0.0, "lon": -77.0346495, "is_reserved": 0, "bike_id": "3d97c2d903a3361009f1a8f3ceeac80c", "fusion_lon": 0.0, "rental_uris": {"android": "https://dc.lft.to/lastmile_qr_scan", "ios": "https://dc.lft.to/lastmile_qr_scan"}, "name": "3d97c2d903a3361009f1a8f3ceeac80c", "type": "electric_scooter", "lat": 38.9206485, "is_disabled": 0}, {"fusion_lat": 0.0, "lon": -76.93267316666666, "is_reserved": 0, "bike_id": "1868391d6d08262974ae5c0ece20a30b", "fusion_lon": 0.0, "rental_uris": {"android": "https://dc.lft.to/lastmile_qr_scan", "ios": "https://dc.lft.to/lastmile_qr_scan"}, "name": "1868391d6d08262974ae5c0ece20a30b", "type": "electric_scooter", "lat": 38.898973166666664, "is_disabled": 0}, {"fusion_lat": 0.0, "lon": -77.04266116666666, "is_reserved": 0, "bike_id": "308ff744f82e10bbcbabbb3f12a6dc16", "fusion_lon": 0.0, "rental_uris": {"android": "https://dc.lft.to/lastmile_qr_scan", "ios": "https://dc.lft.to/lastmile_qr_scan"}, "name": "308ff744f82e10bbcbabbb3f12a6dc16", "type": "electric_scooter", "lat": 38.91332716666667, "is_disabled": 0}, {"fusion_lat": 0.0, "lon": -77.006169, "is_reserved": 0, "bike_id": "cc91032cf93098afbc401f51f6554325", "fusion_lon": 0.0, "rental_uris": {"android": "https://dc.lft.to/lastmile_qr_scan", "ios": "https://dc.lft.to/lastmile_qr_scan"}, "name": "cc91032cf93098afbc401f51f6554325", "type": "electric_scooter", "lat": 38.9084745, "is_disabled": 0}, {"fusion_lat": 0.0, "lon": -77.03215483333334, "is_reserved": 0, "bike_id": "a05b472224fd8e921f4a3ba3452fb68f", "fusion_lon": 0.0, "rental_uris": {"android": "https://dc.lft.to/lastmile_qr_scan", "ios": "https://dc.lft.to/lastmile_qr_scan"}, "name": "a05b472224fd8e921f4a3ba3452fb68f", "type": "electric_scooter", "lat": 38.89634433333333, "is_disabled": 0}, {"fusion_lat": 0.0, "lon": -77.04243966666667, "is_reserved": 0, "bike_id": "f8b32a4840706b4b0a16ff119294c0ca", "fusion_lon": 0.0, "rental_uris": {"android": "https://dc.lft.to/lastmile_qr_scan", "ios": "https://dc.lft.to/lastmile_qr_scan"}, "name": "f8b32a4840706b4b0a16ff119294c0ca", "type": "electric_scooter", "lat": 38.922336, "is_disabled": 0}, {"fusion_lat": 0.0, "lon": -77.044998, "is_reserved": 0, "bike_id": "1bf22b83df7fe32a4bfafa91bcdfb39d", "fusion_lon": 0.0, "rental_uris": {"android": "https://dc.lft.to/lastmile_qr_scan", "ios": "https://dc.lft.to/lastmile_qr_scan"}, "name": "1bf22b83df7fe32a4bfafa91bcdfb39d", "type": "electric_scooter", "lat": 38.903790666666666, "is_disabled": 0}, {"fusion_lat": 0.0, "lon": -77.06294783333334, "is_reserved": 0, "bike_id": "c8673bda8b15bebd11b5527301104674", "fusion_lon": 0.0, "rental_uris": {"android": "https://dc.lft.to/lastmile_qr_scan", "ios": "https://dc.lft.to/lastmile_qr_scan"}, "name": "c8673bda8b15bebd11b5527301104674", "type": "electric_scooter", "lat": 38.9039175, "is_disabled": 0}, {"fusion_lat": 0.0, "lon": -77.01694866666666, "is_reserved": 0, "bike_id": "330aac9e31a8db2ddb306918e93c77bf", "fusion_lon": 0.0, "rental_uris": {"android": "https://dc.lft.to/lastmile_qr_scan", "ios": "https://dc.lft.to/lastmile_qr_scan"}, "name": "330aac9e31a8db2ddb306918e93c77bf", "type": "electric_scooter", "lat": 38.905105166666665, "is_disabled": 0}, {"fusion_lat": 0.0, "lon": -77.04388383333334, "is_reserved": 0, "bike_id": "0f95f6d6e16764dbb1b92be57b930dd5", "fusion_lon": 0.0, "rental_uris": {"android": "https://dc.lft.to/lastmile_qr_scan", "ios": "https://dc.lft.to/lastmile_qr_scan"}, "name": "0f95f6d6e16764dbb1b92be57b930dd5", "type": "electric_scooter", "lat": 38.92110016666667, "is_disabled": 0}, {"fusion_lat": 0.0, "lon": -77.03872966666667, "is_reserved": 0, "bike_id": "f24fbfc2efcf7edef67960c5e90520f4", "fusion_lon": 0.0, "rental_uris": {"android": "https://dc.lft.to/lastmile_qr_scan", "ios": "https://dc.lft.to/lastmile_qr_scan"}, "name": "f24fbfc2efcf7edef67960c5e90520f4", "type": "electric_scooter", "lat": 38.90815766666667, "is_disabled": 0}, {"fusion_lat": 0.0, "lon": -77.0659985, "is_reserved": 0, "bike_id": "d4b08e3b0df9a19432ac62f669fdee69", "fusion_lon": 0.0, "rental_uris": {"android": "https://dc.lft.to/lastmile_qr_scan", "ios": "https://dc.lft.to/lastmile_qr_scan"}, "name": "d4b08e3b0df9a19432ac62f669fdee69", "type": "electric_scooter", "lat": 38.90360783333333, "is_disabled": 0}, {"fusion_lat": 0.0, "lon": -77.04481666666666, "is_reserved": 0, "bike_id": "5fab3856e67a63ca484792c5b7e32cd3", "fusion_lon": 0.0, "rental_uris": {"android": "https://dc.lft.to/lastmile_qr_scan", "ios": "https://dc.lft.to/lastmile_qr_scan"}, "name": "5fab3856e67a63ca484792c5b7e32cd3", "type": "electric_scooter", "lat": 38.91099666666667, "is_disabled": 0}, {"fusion_lat": 0.0, "lon": -77.01513216666666, "is_reserved": 0, "bike_id": "769a44dba62108169da936514a3b50e7", "fusion_lon": 0.0, "rental_uris": {"android": "https://dc.lft.to/lastmile_qr_scan", "ios": "https://dc.lft.to/lastmile_qr_scan"}, "name": "769a44dba62108169da936514a3b50e7", "type": "electric_scooter", "lat": 38.8924445, "is_disabled": 0}, {"fusion_lat": 0.0, "lon": -76.99791083333334, "is_reserved": 0, "bike_id": "0e23878b91c30a448d01e386211229ab", "fusion_lon": 0.0, "rental_uris": {"android": "https://dc.lft.to/lastmile_qr_scan", "ios": "https://dc.lft.to/lastmile_qr_scan"}, "name": "0e23878b91c30a448d01e386211229ab", "type": "electric_bike", "lat": 38.950859666666666, "is_disabled": 0}, {"fusion_lat": 0.0, "lon": -77.01756216666666, "is_reserved": 0, "bike_id": "a509f613e17879e02ec828a51e7224e9", "fusion_lon": 0.0, "rental_uris": {"android": "https://dc.lft.to/lastmile_qr_scan", "ios": "https://dc.lft.to/lastmile_qr_scan"}, "name": "a509f613e17879e02ec828a51e7224e9", "type": "electric_scooter", "lat": 38.88580683333333, "is_disabled": 0}, {"fusion_lat": 0.0, "lon": -77.0059825, "is_reserved": 0, "bike_id": "4b28cc0f86f29a2db290a23626ceea24", "fusion_lon": 0.0, "rental_uris": {"android": "https://dc.lft.to/lastmile_qr_scan", "ios": "https://dc.lft.to/lastmile_qr_scan"}, "name": "4b28cc0f86f29a2db290a23626ceea24", "type": "electric_scooter", "lat": 38.885162, "is_disabled": 0}, {"fusion_lat": 0.0, "lon": -77.07906783333334, "is_reserved": 0, "bike_id": "b4cf06e899c203f39a54c2c1144d2b3b", "fusion_lon": 0.0, "rental_uris": {"android": "https://dc.lft.to/lastmile_qr_scan", "ios": "https://dc.lft.to/lastmile_qr_scan"}, "name": "b4cf06e899c203f39a54c2c1144d2b3b", "type": "electric_scooter", "lat": 38.947993833333335, "is_disabled": 0}, {"fusion_lat": 0.0, "lon": -77.04370916666667, "is_reserved": 0, "bike_id": "06f72f84d2efad732ab3b06b764f89d4", "fusion_lon": 0.0, "rental_uris": {"android": "https://dc.lft.to/lastmile_qr_scan", "ios": "https://dc.lft.to/lastmile_qr_scan"}, "name": "06f72f84d2efad732ab3b06b764f89d4", "type": "electric_scooter", "lat": 38.89220316666667, "is_disabled": 0}, {"fusion_lat": 0.0, "lon": -77.05079216666667, "is_reserved": 0, "bike_id": "e569a65fa793151db4440a6ac45ced9b", "fusion_lon": 0.0, "rental_uris": {"android": "https://dc.lft.to/lastmile_qr_scan", "ios": "https://dc.lft.to/lastmile_qr_scan"}, "name": "e569a65fa793151db4440a6ac45ced9b", "type": "electric_scooter", "lat": 38.90188783333333, "is_disabled": 0}, {"fusion_lat": 0.0, "lon": -77.021691, "is_reserved": 0, "bike_id": "77566716249d10d82a454bd9bde3946b", "fusion_lon": 0.0, "rental_uris": {"android": "https://dc.lft.to/lastmile_qr_scan", "ios": "https://dc.lft.to/lastmile_qr_scan"}, "name": "77566716249d10d82a454bd9bde3946b", "type": "electric_bike", "lat": 38.893866333333335, "is_disabled": 0}, {"fusion_lat": 0.0, "lon": -77.02327166666667, "is_reserved": 0, "bike_id": "088be49d7244620ed1de399b28f2e0d0", "fusion_lon": 0.0, "rental_uris": {"android": "https://dc.lft.to/lastmile_qr_scan", "ios": "https://dc.lft.to/lastmile_qr_scan"}, "name": "088be49d7244620ed1de399b28f2e0d0", "type": "electric_scooter", "lat": 38.8998065, "is_disabled": 0}, {"fusion_lat": 0.0, "lon": -77.00064366666666, "is_reserved": 0, "bike_id": "88756ac276913c49ef450027f8e2a5bf", "fusion_lon": 0.0, "rental_uris": {"android": "https://dc.lft.to/lastmile_qr_scan", "ios": "https://dc.lft.to/lastmile_qr_scan"}, "name": "88756ac276913c49ef450027f8e2a5bf", "type": "electric_scooter", "lat": 38.91726166666667, "is_disabled": 0}, {"fusion_lat": 0.0, "lon": -77.04558883333333, "is_reserved": 0, "bike_id": "7983c70d277b05d7a64faacaefd976b1", "fusion_lon": 0.0, "rental_uris": {"android": "https://dc.lft.to/lastmile_qr_scan", "ios": "https://dc.lft.to/lastmile_qr_scan"}, "name": "7983c70d277b05d7a64faacaefd976b1", "type": "electric_scooter", "lat": 38.89743083333333, "is_disabled": 0}, {"fusion_lat": 0.0, "lon": -77.023923, "is_reserved": 0, "bike_id": "c872d47d2beca6f10fdb4640d9292762", "fusion_lon": 0.0, "rental_uris": {"android": "https://dc.lft.to/lastmile_qr_scan", "ios": "https://dc.lft.to/lastmile_qr_scan"}, "name": "c872d47d2beca6f10fdb4640d9292762", "type": "electric_scooter", "lat": 38.91987366666667, "is_disabled": 0}, {"fusion_lat": 0.0, "lon": -77.040996, "is_reserved": 0, "bike_id": "904404fefa0cc03477932380de98085b", "fusion_lon": 0.0, "rental_uris": {"android": "https://dc.lft.to/lastmile_qr_scan", "ios": "https://dc.lft.to/lastmile_qr_scan"}, "name": "904404fefa0cc03477932380de98085b", "type": "electric_scooter", "lat": 38.92499866666667, "is_disabled": 0}, {"fusion_lat": 0.0, "lon": -77.02981016666666, "is_reserved": 0, "bike_id": "0dc28e514d60adb87846eba8745f0054", "fusion_lon": 0.0, "rental_uris": {"android": "https://dc.lft.to/lastmile_qr_scan", "ios": "https://dc.lft.to/lastmile_qr_scan"}, "name": "0dc28e514d60adb87846eba8745f0054", "type": "electric_scooter", "lat": 38.929464333333335, "is_disabled": 0}, {"fusion_lat": 0.0, "lon": -77.02179266666667, "is_reserved": 0, "bike_id": "d28f1987c6d291853b80462de03b94a9", "fusion_lon": 0.0, "rental_uris": {"android": "https://dc.lft.to/lastmile_qr_scan", "ios": "https://dc.lft.to/lastmile_qr_scan"}, "name": "d28f1987c6d291853b80462de03b94a9", "type": "electric_scooter", "lat": 38.905734, "is_disabled": 0}, {"fusion_lat": 0.0, "lon": -77.11594583333333, "is_reserved": 0, "bike_id": "b60d7e24ac8eccd30e21122c77f44969", "fusion_lon": 0.0, "rental_uris": {"android": "https://dc.lft.to/lastmile_qr_scan", "ios": "https://dc.lft.to/lastmile_qr_scan"}, "name": "b60d7e24ac8eccd30e21122c77f44969", "type": "electric_bike", "lat": 39.074904, "is_disabled": 0}, {"fusion_lat": 0.0, "lon": -77.03212516666666, "is_reserved": 0, "bike_id": "3d8a6c898b167fcc2edb36cfb3703fe0", "fusion_lon": 0.0, "rental_uris": {"android": "https://dc.lft.to/lastmile_qr_scan", "ios": "https://dc.lft.to/lastmile_qr_scan"}, "name": "3d8a6c898b167fcc2edb36cfb3703fe0", "type": "electric_scooter", "lat": 38.91123533333333, "is_disabled": 0}, {"fusion_lat": 0.0, "lon": -76.98111883333334, "is_reserved": 0, "bike_id": "2912a016fc52714732a5257179faac66", "fusion_lon": 0.0, "rental_uris": {"android": "https://dc.lft.to/lastmile_qr_scan", "ios": "https://dc.lft.to/lastmile_qr_scan"}, "name": "2912a016fc52714732a5257179faac66", "type": "electric_scooter", "lat": 38.90402816666667, "is_disabled": 0}, {"fusion_lat": 0.0, "lon": -77.01215583333334, "is_reserved": 0, "bike_id": "c476658db890929f7a5cdc4d78966e65", "fusion_lon": 0.0, "rental_uris": {"android": "https://dc.lft.to/lastmile_qr_scan", "ios": "https://dc.lft.to/lastmile_qr_scan"}, "name": "c476658db890929f7a5cdc4d78966e65", "type": "electric_scooter", "lat": 38.91748116666667, "is_disabled": 0}, {"fusion_lat": 0.0, "lon": -76.98362416666667, "is_reserved": 0, "bike_id": "31487c9c644b2f09ae1413df13004fe4", "fusion_lon": 0.0, "rental_uris": {"android": "https://dc.lft.to/lastmile_qr_scan", "ios": "https://dc.lft.to/lastmile_qr_scan"}, "name": "31487c9c644b2f09ae1413df13004fe4", "type": "electric_scooter", "lat": 38.915458, "is_disabled": 0}, {"fusion_lat": 0.0, "lon": -77.02796083333334, "is_reserved": 0, "bike_id": "a9e81facd9c010852c5d9bb70c7d61a6", "fusion_lon": 0.0, "rental_uris": {"android": "https://dc.lft.to/lastmile_qr_scan", "ios": "https://dc.lft.to/lastmile_qr_scan"}, "name": "a9e81facd9c010852c5d9bb70c7d61a6", "type": "electric_scooter", "lat": 38.95397283333333, "is_disabled": 0}, {"fusion_lat": 0.0, "lon": -77.04657, "is_reserved": 0, "bike_id": "c70b991cb18f09b4e5eb92398623a7ad", "fusion_lon": 0.0, "rental_uris": {"android": "https://dc.lft.to/lastmile_qr_scan", "ios": "https://dc.lft.to/lastmile_qr_scan"}, "name": "c70b991cb18f09b4e5eb92398623a7ad", "type": "electric_scooter", "lat": 38.8973645, "is_disabled": 0}, {"fusion_lat": 0.0, "lon": -77.03073566666667, "is_reserved": 0, "bike_id": "328454755feeccfa6b167566456a1291", "fusion_lon": 0.0, "rental_uris": {"android": "https://dc.lft.to/lastmile_qr_scan", "ios": "https://dc.lft.to/lastmile_qr_scan"}, "name": "328454755feeccfa6b167566456a1291", "type": "electric_scooter", "lat": 38.9224805, "is_disabled": 0}, {"fusion_lat": 0.0, "lon": -77.00575916666666, "is_reserved": 0, "bike_id": "9a56658d7783da2a895e6bc0f1d04fdd", "fusion_lon": 0.0, "rental_uris": {"android": "https://dc.lft.to/lastmile_qr_scan", "ios": "https://dc.lft.to/lastmile_qr_scan"}, "name": "9a56658d7783da2a895e6bc0f1d04fdd", "type": "electric_scooter", "lat": 38.9056245, "is_disabled": 0}, {"fusion_lat": 0.0, "lon": -77.04505033333334, "is_reserved": 0, "bike_id": "578b673d98e88e625a056ee44ba54feb", "fusion_lon": 0.0, "rental_uris": {"android": "https://dc.lft.to/lastmile_qr_scan", "ios": "https://dc.lft.to/lastmile_qr_scan"}, "name": "578b673d98e88e625a056ee44ba54feb", "type": "electric_scooter", "lat": 38.892337, "is_disabled": 0}, {"fusion_lat": 0.0, "lon": -77.0091735, "is_reserved": 0, "bike_id": "32d5491052bf7be5c7c2119a8829e0b2", "fusion_lon": 0.0, "rental_uris": {"android": "https://dc.lft.to/lastmile_qr_scan", "ios": "https://dc.lft.to/lastmile_qr_scan"}, "name": "32d5491052bf7be5c7c2119a8829e0b2", "type": "electric_scooter", "lat": 38.89598433333333, "is_disabled": 0}, {"fusion_lat": 0.0, "lon": -77.0077365, "is_reserved": 0, "bike_id": "ed7a6eedcaf9404d133818f40e9e07ad", "fusion_lon": 0.0, "rental_uris": {"android": "https://dc.lft.to/lastmile_qr_scan", "ios": "https://dc.lft.to/lastmile_qr_scan"}, "name": "ed7a6eedcaf9404d133818f40e9e07ad", "type": "electric_bike", "lat": 38.98383583333333, "is_disabled": 0}, {"fusion_lat": 0.0, "lon": -77.02274983333334, "is_reserved": 0, "bike_id": "5ef2afdcd240d41e688a9258dec7bbd6", "fusion_lon": 0.0, "rental_uris": {"android": "https://dc.lft.to/lastmile_qr_scan", "ios": "https://dc.lft.to/lastmile_qr_scan"}, "name": "5ef2afdcd240d41e688a9258dec7bbd6", "type": "electric_scooter", "lat": 38.902021833333336, "is_disabled": 0}, {"fusion_lat": 0.0, "lon": -77.01072533333334, "is_reserved": 0, "bike_id": "22392ca195a25bec551cc45ffe0d8963", "fusion_lon": 0.0, "rental_uris": {"android": "https://dc.lft.to/lastmile_qr_scan", "ios": "https://dc.lft.to/lastmile_qr_scan"}, "name": "22392ca195a25bec551cc45ffe0d8963", "type": "electric_scooter", "lat": 38.91265083333333, "is_disabled": 0}, {"fusion_lat": 0.0, "lon": -77.03327816666666, "is_reserved": 0, "bike_id": "0e9f44e4e39ba05d2f260f9aa1b75d61", "fusion_lon": 0.0, "rental_uris": {"android": "https://dc.lft.to/lastmile_qr_scan", "ios": "https://dc.lft.to/lastmile_qr_scan"}, "name": "0e9f44e4e39ba05d2f260f9aa1b75d61", "type": "electric_scooter", "lat": 38.91704766666667, "is_disabled": 0}, {"fusion_lat": 0.0, "lon": -77.04540716666666, "is_reserved": 0, "bike_id": "b4559d1864abc28944fbc17e15a597e6", "fusion_lon": 0.0, "rental_uris": {"android": "https://dc.lft.to/lastmile_qr_scan", "ios": "https://dc.lft.to/lastmile_qr_scan"}, "name": "b4559d1864abc28944fbc17e15a597e6", "type": "electric_scooter", "lat": 38.8960575, "is_disabled": 0}, {"fusion_lat": 0.0, "lon": -76.994571, "is_reserved": 0, "bike_id": "a977ee14b4e65b2c0c3a3008720ce4b4", "fusion_lon": 0.0, "rental_uris": {"android": "https://dc.lft.to/lastmile_qr_scan", "ios": "https://dc.lft.to/lastmile_qr_scan"}, "name": "a977ee14b4e65b2c0c3a3008720ce4b4", "type": "electric_scooter", "lat": 38.862179833333336, "is_disabled": 0}, {"fusion_lat": 0.0, "lon": -77.0249105, "is_reserved": 0, "bike_id": "ca8fba54d1abe9a8a1ed19b2762e7fa4", "fusion_lon": 0.0, "rental_uris": {"android": "https://dc.lft.to/lastmile_qr_scan", "ios": "https://dc.lft.to/lastmile_qr_scan"}, "name": "ca8fba54d1abe9a8a1ed19b2762e7fa4", "type": "electric_scooter", "lat": 38.94180166666666, "is_disabled": 0}, {"fusion_lat": 0.0, "lon": -77.02883083333333, "is_reserved": 0, "bike_id": "71353db3722dcd1e8dc092384c575814", "fusion_lon": 0.0, "rental_uris": {"android": "https://dc.lft.to/lastmile_qr_scan", "ios": "https://dc.lft.to/lastmile_qr_scan"}, "name": "71353db3722dcd1e8dc092384c575814", "type": "electric_scooter", "lat": 38.92822816666666, "is_disabled": 0}, {"fusion_lat": 0.0, "lon": -77.0294485, "is_reserved": 0, "bike_id": "76eefe27ae7dcf15f6013cebde684a60", "fusion_lon": 0.0, "rental_uris": {"android": "https://dc.lft.to/lastmile_qr_scan", "ios": "https://dc.lft.to/lastmile_qr_scan"}, "name": "76eefe27ae7dcf15f6013cebde684a60", "type": "electric_scooter", "lat": 38.8976015, "is_disabled": 0}, {"fusion_lat": 0.0, "lon": -77.02696483333334, "is_reserved": 0, "bike_id": "a127a2e40c3026c2176029fd149487a5", "fusion_lon": 0.0, "rental_uris": {"android": "https://dc.lft.to/lastmile_qr_scan", "ios": "https://dc.lft.to/lastmile_qr_scan"}, "name": "a127a2e40c3026c2176029fd149487a5", "type": "electric_scooter", "lat": 38.9266665, "is_disabled": 0}, {"fusion_lat": 0.0, "lon": -77.05884416666666, "is_reserved": 0, "bike_id": "e11c9f5c06a901b8b500b38f38e47c4c", "fusion_lon": 0.0, "rental_uris": {"android": "https://dc.lft.to/lastmile_qr_scan", "ios": "https://dc.lft.to/lastmile_qr_scan"}, "name": "e11c9f5c06a901b8b500b38f38e47c4c", "type": "electric_scooter", "lat": 38.936363, "is_disabled": 0}, {"fusion_lat": 0.0, "lon": -77.02584816666666, "is_reserved": 0, "bike_id": "8e1d5625bafeb295e255d21f6feef59e", "fusion_lon": 0.0, "rental_uris": {"android": "https://dc.lft.to/lastmile_qr_scan", "ios": "https://dc.lft.to/lastmile_qr_scan"}, "name": "8e1d5625bafeb295e255d21f6feef59e", "type": "electric_bike", "lat": 38.99698266666667, "is_disabled": 0}, {"fusion_lat": 0.0, "lon": -76.9442445, "is_reserved": 0, "bike_id": "4532534cac04a03955e52ccff95dd6e6", "fusion_lon": 0.0, "rental_uris": {"android": "https://dc.lft.to/lastmile_qr_scan", "ios": "https://dc.lft.to/lastmile_qr_scan"}, "name": "4532534cac04a03955e52ccff95dd6e6", "type": "electric_bike", "lat": 38.96617083333334, "is_disabled": 0}, {"fusion_lat": 0.0, "lon": -77.02690216666667, "is_reserved": 0, "bike_id": "bc34b040a6bb1ba439a34bcfdd3b5949", "fusion_lon": 0.0, "rental_uris": {"android": "https://dc.lft.to/lastmile_qr_scan", "ios": "https://dc.lft.to/lastmile_qr_scan"}, "name": "bc34b040a6bb1ba439a34bcfdd3b5949", "type": "electric_scooter", "lat": 38.918135666666664, "is_disabled": 0}, {"fusion_lat": 0.0, "lon": -77.025492, "is_reserved": 0, "bike_id": "edd7070b6f60ba703e465f748954e226", "fusion_lon": 0.0, "rental_uris": {"android": "https://dc.lft.to/lastmile_qr_scan", "ios": "https://dc.lft.to/lastmile_qr_scan"}, "name": "edd7070b6f60ba703e465f748954e226", "type": "electric_scooter", "lat": 38.94134116666667, "is_disabled": 0}, {"fusion_lat": 0.0, "lon": -76.98842666666667, "is_reserved": 0, "bike_id": "4a35165ae5e80166c38e6f95a7a09df6", "fusion_lon": 0.0, "rental_uris": {"android": "https://dc.lft.to/lastmile_qr_scan", "ios": "https://dc.lft.to/lastmile_qr_scan"}, "name": "4a35165ae5e80166c38e6f95a7a09df6", "type": "electric_bike", "lat": 38.84274716666667, "is_disabled": 0}, {"fusion_lat": 0.0, "lon": -77.04188716666667, "is_reserved": 0, "bike_id": "36269d7984f834f1fb53e3c22ba78fa7", "fusion_lon": 0.0, "rental_uris": {"android": "https://dc.lft.to/lastmile_qr_scan", "ios": "https://dc.lft.to/lastmile_qr_scan"}, "name": "36269d7984f834f1fb53e3c22ba78fa7", "type": "electric_scooter", "lat": 38.92020566666667, "is_disabled": 0}, {"fusion_lat": 0.0, "lon": -77.0302135, "is_reserved": 0, "bike_id": "4e1a1574360a9acefb6cb40882ff14ec", "fusion_lon": 0.0, "rental_uris": {"android": "https://dc.lft.to/lastmile_qr_scan", "ios": "https://dc.lft.to/lastmile_qr_scan"}, "name": "4e1a1574360a9acefb6cb40882ff14ec", "type": "electric_scooter", "lat": 38.90487533333334, "is_disabled": 0}, {"fusion_lat": 0.0, "lon": -77.02212066666667, "is_reserved": 0, "bike_id": "b50e4d5f7f18114ee285240e77faf90c", "fusion_lon": 0.0, "rental_uris": {"android": "https://dc.lft.to/lastmile_qr_scan", "ios": "https://dc.lft.to/lastmile_qr_scan"}, "name": "b50e4d5f7f18114ee285240e77faf90c", "type": "electric_scooter", "lat": 38.9141385, "is_disabled": 0}, {"fusion_lat": 0.0, "lon": -77.00062133333333, "is_reserved": 0, "bike_id": "ec7dc163dc7c84d1a2545dd62fea2475", "fusion_lon": 0.0, "rental_uris": {"android": "https://dc.lft.to/lastmile_qr_scan", "ios": "https://dc.lft.to/lastmile_qr_scan"}, "name": "ec7dc163dc7c84d1a2545dd62fea2475", "type": "electric_scooter", "lat": 38.92430683333333, "is_disabled": 0}, {"fusion_lat": 0.0, "lon": -77.091681, "is_reserved": 0, "bike_id": "babb73d1f7fcaa536d34b6de6cff9fbc", "fusion_lon": 0.0, "rental_uris": {"android": "https://dc.lft.to/lastmile_qr_scan", "ios": "https://dc.lft.to/lastmile_qr_scan"}, "name": "babb73d1f7fcaa536d34b6de6cff9fbc", "type": "electric_scooter", "lat": 38.94560166666667, "is_disabled": 0}, {"fusion_lat": 0.0, "lon": -76.99930566666667, "is_reserved": 0, "bike_id": "6a06901c64540a68f633922cc73d3480", "fusion_lon": 0.0, "rental_uris": {"android": "https://dc.lft.to/lastmile_qr_scan", "ios": "https://dc.lft.to/lastmile_qr_scan"}, "name": "6a06901c64540a68f633922cc73d3480", "type": "electric_scooter", "lat": 38.84297933333333, "is_disabled": 0}, {"fusion_lat": 0.0, "lon": -76.99830466666667, "is_reserved": 0, "bike_id": "5b648fca6f1acf9d0f609093cb3b6d03", "fusion_lon": 0.0, "rental_uris": {"android": "https://dc.lft.to/lastmile_qr_scan", "ios": "https://dc.lft.to/lastmile_qr_scan"}, "name": "5b648fca6f1acf9d0f609093cb3b6d03", "type": "electric_scooter", "lat": 38.885382666666665, "is_disabled": 0}, {"fusion_lat": 0.0, "lon": -76.973305, "is_reserved": 0, "bike_id": "73e44ca624e371928f062a7b8b2d3958", "fusion_lon": 0.0, "rental_uris": {"android": "https://dc.lft.to/lastmile_qr_scan", "ios": "https://dc.lft.to/lastmile_qr_scan"}, "name": "73e44ca624e371928f062a7b8b2d3958", "type": "electric_scooter", "lat": 38.904086666666664, "is_disabled": 0}, {"fusion_lat": 0.0, "lon": -77.00777583333333, "is_reserved": 0, "bike_id": "b3aa51f4340500e42e865fa4207129c1", "fusion_lon": 0.0, "rental_uris": {"android": "https://dc.lft.to/lastmile_qr_scan", "ios": "https://dc.lft.to/lastmile_qr_scan"}, "name": "b3aa51f4340500e42e865fa4207129c1", "type": "electric_scooter", "lat": 38.92674383333333, "is_disabled": 0}, {"fusion_lat": 0.0, "lon": -77.05134966666667, "is_reserved": 0, "bike_id": "a964a15b86318e4ef022b194eb0e5e3f", "fusion_lon": 0.0, "rental_uris": {"android": "https://dc.lft.to/lastmile_qr_scan", "ios": "https://dc.lft.to/lastmile_qr_scan"}, "name": "a964a15b86318e4ef022b194eb0e5e3f", "type": "electric_scooter", "lat": 38.90708, "is_disabled": 0}, {"fusion_lat": 0.0, "lon": -77.0284935, "is_reserved": 0, "bike_id": "7359071a0b8e6f64b5533c5bda911fdc", "fusion_lon": 0.0, "rental_uris": {"android": "https://dc.lft.to/lastmile_qr_scan", "ios": "https://dc.lft.to/lastmile_qr_scan"}, "name": "7359071a0b8e6f64b5533c5bda911fdc", "type": "electric_scooter", "lat": 38.887454, "is_disabled": 0}, {"fusion_lat": 0.0, "lon": -77.020975, "is_reserved": 0, "bike_id": "ce92a3a44a2b884f03b69932e58b2d57", "fusion_lon": 0.0, "rental_uris": {"android": "https://dc.lft.to/lastmile_qr_scan", "ios": "https://dc.lft.to/lastmile_qr_scan"}, "name": "ce92a3a44a2b884f03b69932e58b2d57", "type": "electric_scooter", "lat": 38.93112516666667, "is_disabled": 0}, {"fusion_lat": 0.0, "lon": -76.9733075, "is_reserved": 0, "bike_id": "e56ab514f48170e5c0ae7c5f3f3a418f", "fusion_lon": 0.0, "rental_uris": {"android": "https://dc.lft.to/lastmile_qr_scan", "ios": "https://dc.lft.to/lastmile_qr_scan"}, "name": "e56ab514f48170e5c0ae7c5f3f3a418f", "type": "electric_scooter", "lat": 38.904089666666664, "is_disabled": 0}, {"fusion_lat": 0.0, "lon": -77.00204516666666, "is_reserved": 0, "bike_id": "c4f17eb46b1836fcad22599c74c0f807", "fusion_lon": 0.0, "rental_uris": {"android": "https://dc.lft.to/lastmile_qr_scan", "ios": "https://dc.lft.to/lastmile_qr_scan"}, "name": "c4f17eb46b1836fcad22599c74c0f807", "type": "electric_scooter", "lat": 38.895349, "is_disabled": 0}, {"fusion_lat": 0.0, "lon": -77.058868, "is_reserved": 0, "bike_id": "a6cdf26988bd17c7e129410402a18797", "fusion_lon": 0.0, "rental_uris": {"android": "https://dc.lft.to/lastmile_qr_scan", "ios": "https://dc.lft.to/lastmile_qr_scan"}, "name": "a6cdf26988bd17c7e129410402a18797", "type": "electric_scooter", "lat": 38.936357666666666, "is_disabled": 0}, {"fusion_lat": 0.0, "lon": -77.041747, "is_reserved": 0, "bike_id": "ff0d98fa49e7f1f8b556a6aca6860df0", "fusion_lon": 0.0, "rental_uris": {"android": "https://dc.lft.to/lastmile_qr_scan", "ios": "https://dc.lft.to/lastmile_qr_scan"}, "name": "ff0d98fa49e7f1f8b556a6aca6860df0", "type": "electric_scooter", "lat": 38.905933833333336, "is_disabled": 0}, {"fusion_lat": 0.0, "lon": -77.0629345, "is_reserved": 0, "bike_id": "df43f60be6cb29009d339a5d74fa7f2b", "fusion_lon": 0.0, "rental_uris": {"android": "https://dc.lft.to/lastmile_qr_scan", "ios": "https://dc.lft.to/lastmile_qr_scan"}, "name": "df43f60be6cb29009d339a5d74fa7f2b", "type": "electric_scooter", "lat": 38.94340233333333, "is_disabled": 0}, {"fusion_lat": 0.0, "lon": -77.00363266666666, "is_reserved": 0, "bike_id": "8a870e96e43f974131300178373f50b0", "fusion_lon": 0.0, "rental_uris": {"android": "https://dc.lft.to/lastmile_qr_scan", "ios": "https://dc.lft.to/lastmile_qr_scan"}, "name": "8a870e96e43f974131300178373f50b0", "type": "electric_scooter", "lat": 38.897260833333334, "is_disabled": 0}, {"fusion_lat": 0.0, "lon": -76.99364133333333, "is_reserved": 0, "bike_id": "0184ff8a8959f2998487ac114bbea830", "fusion_lon": 0.0, "rental_uris": {"android": "https://dc.lft.to/lastmile_qr_scan", "ios": "https://dc.lft.to/lastmile_qr_scan"}, "name": "0184ff8a8959f2998487ac114bbea830", "type": "electric_scooter", "lat": 38.928398, "is_disabled": 0}, {"fusion_lat": 0.0, "lon": -77.04328033333333, "is_reserved": 0, "bike_id": "c5c44ca76391adfd746cec3660f389ac", "fusion_lon": 0.0, "rental_uris": {"android": "https://dc.lft.to/lastmile_qr_scan", "ios": "https://dc.lft.to/lastmile_qr_scan"}, "name": "c5c44ca76391adfd746cec3660f389ac", "type": "electric_scooter", "lat": 38.89220016666667, "is_disabled": 0}, {"fusion_lat": 0.0, "lon": -77.00049133333333, "is_reserved": 0, "bike_id": "fa1e582933086b8b5fd4bc6409ee707d", "fusion_lon": 0.0, "rental_uris": {"android": "https://dc.lft.to/lastmile_qr_scan", "ios": "https://dc.lft.to/lastmile_qr_scan"}, "name": "fa1e582933086b8b5fd4bc6409ee707d", "type": "electric_scooter", "lat": 38.900097833333334, "is_disabled": 0}, {"fusion_lat": 0.0, "lon": -77.00293716666667, "is_reserved": 0, "bike_id": "da920810120efa4c738826e5f722e24f", "fusion_lon": 0.0, "rental_uris": {"android": "https://dc.lft.to/lastmile_qr_scan", "ios": "https://dc.lft.to/lastmile_qr_scan"}, "name": "da920810120efa4c738826e5f722e24f", "type": "electric_scooter", "lat": 38.8949175, "is_disabled": 0}, {"fusion_lat": 0.0, "lon": -77.03253566666666, "is_reserved": 0, "bike_id": "a3bf8d38ab49c21e6eae76fcbaaff495", "fusion_lon": 0.0, "rental_uris": {"android": "https://dc.lft.to/lastmile_qr_scan", "ios": "https://dc.lft.to/lastmile_qr_scan"}, "name": "a3bf8d38ab49c21e6eae76fcbaaff495", "type": "electric_scooter", "lat": 38.902833, "is_disabled": 0}, {"fusion_lat": 0.0, "lon": -76.9869855, "is_reserved": 0, "bike_id": "35aed1301f9b2e2d7de822da05676e0d", "fusion_lon": 0.0, "rental_uris": {"android": "https://dc.lft.to/lastmile_qr_scan", "ios": "https://dc.lft.to/lastmile_qr_scan"}, "name": "35aed1301f9b2e2d7de822da05676e0d", "type": "electric_scooter", "lat": 38.862460666666664, "is_disabled": 0}, {"fusion_lat": 0.0, "lon": -77.02806283333334, "is_reserved": 0, "bike_id": "98ba0dd78c08c4584f97fee3e372b694", "fusion_lon": 0.0, "rental_uris": {"android": "https://dc.lft.to/lastmile_qr_scan", "ios": "https://dc.lft.to/lastmile_qr_scan"}, "name": "98ba0dd78c08c4584f97fee3e372b694", "type": "electric_scooter", "lat": 38.8996655, "is_disabled": 0}, {"fusion_lat": 0.0, "lon": -76.9858625, "is_reserved": 0, "bike_id": "2126ea401b646b84b92d3514a1c4e114", "fusion_lon": 0.0, "rental_uris": {"android": "https://dc.lft.to/lastmile_qr_scan", "ios": "https://dc.lft.to/lastmile_qr_scan"}, "name": "2126ea401b646b84b92d3514a1c4e114", "type": "electric_scooter", "lat": 38.860542333333335, "is_disabled": 0}, {"fusion_lat": 0.0, "lon": -77.04032966666666, "is_reserved": 0, "bike_id": "508f7cecebc6bef955b2d8ac1f7817f4", "fusion_lon": 0.0, "rental_uris": {"android": "https://dc.lft.to/lastmile_qr_scan", "ios": "https://dc.lft.to/lastmile_qr_scan"}, "name": "508f7cecebc6bef955b2d8ac1f7817f4", "type": "electric_scooter", "lat": 38.90371833333333, "is_disabled": 0}, {"fusion_lat": 0.0, "lon": -77.04444183333334, "is_reserved": 0, "bike_id": "1b99f1e08150f1d89b8c9fbb4e3db333", "fusion_lon": 0.0, "rental_uris": {"android": "https://dc.lft.to/lastmile_qr_scan", "ios": "https://dc.lft.to/lastmile_qr_scan"}, "name": "1b99f1e08150f1d89b8c9fbb4e3db333", "type": "electric_scooter", "lat": 38.91872466666667, "is_disabled": 0}, {"fusion_lat": 0.0, "lon": -77.04208283333334, "is_reserved": 0, "bike_id": "34aaff472590488741a200030166c589", "fusion_lon": 0.0, "rental_uris": {"android": "https://dc.lft.to/lastmile_qr_scan", "ios": "https://dc.lft.to/lastmile_qr_scan"}, "name": "34aaff472590488741a200030166c589", "type": "electric_scooter", "lat": 38.920851, "is_disabled": 0}, {"fusion_lat": 0.0, "lon": -76.98723366666667, "is_reserved": 0, "bike_id": "da36b18a94976f51efe9c48d3e6c817f", "fusion_lon": 0.0, "rental_uris": {"android": "https://dc.lft.to/lastmile_qr_scan", "ios": "https://dc.lft.to/lastmile_qr_scan"}, "name": "da36b18a94976f51efe9c48d3e6c817f", "type": "electric_scooter", "lat": 38.867074833333334, "is_disabled": 0}, {"fusion_lat": 0.0, "lon": -77.045118, "is_reserved": 0, "bike_id": "1deb961720ee6c399d523faf84d620b4", "fusion_lon": 0.0, "rental_uris": {"android": "https://dc.lft.to/lastmile_qr_scan", "ios": "https://dc.lft.to/lastmile_qr_scan"}, "name": "1deb961720ee6c399d523faf84d620b4", "type": "electric_scooter", "lat": 38.9110775, "is_disabled": 0}, {"fusion_lat": 0.0, "lon": -77.04239966666667, "is_reserved": 0, "bike_id": "fe1aa3305ac88368000579573134380b", "fusion_lon": 0.0, "rental_uris": {"android": "https://dc.lft.to/lastmile_qr_scan", "ios": "https://dc.lft.to/lastmile_qr_scan"}, "name": "fe1aa3305ac88368000579573134380b", "type": "electric_scooter", "lat": 38.92428133333333, "is_disabled": 0}, {"fusion_lat": 0.0, "lon": -77.03118166666667, "is_reserved": 0, "bike_id": "6f677eb836f087484b171541b6cf10d6", "fusion_lon": 0.0, "rental_uris": {"android": "https://dc.lft.to/lastmile_qr_scan", "ios": "https://dc.lft.to/lastmile_qr_scan"}, "name": "6f677eb836f087484b171541b6cf10d6", "type": "electric_scooter", "lat": 38.917023666666665, "is_disabled": 0}, {"fusion_lat": 0.0, "lon": -77.00186716666667, "is_reserved": 0, "bike_id": "9482594a822c209814fcaefb4797f4c7", "fusion_lon": 0.0, "rental_uris": {"android": "https://dc.lft.to/lastmile_qr_scan", "ios": "https://dc.lft.to/lastmile_qr_scan"}, "name": "9482594a822c209814fcaefb4797f4c7", "type": "electric_scooter", "lat": 38.82197816666667, "is_disabled": 0}, {"fusion_lat": 0.0, "lon": -77.10600333333333, "is_reserved": 0, "bike_id": "3f5457ad676843924217d3330317dc57", "fusion_lon": 0.0, "rental_uris": {"android": "https://dc.lft.to/lastmile_qr_scan", "ios": "https://dc.lft.to/lastmile_qr_scan"}, "name": "3f5457ad676843924217d3330317dc57", "type": "electric_bike", "lat": 38.928967, "is_disabled": 0}, {"fusion_lat": 0.0, "lon": -77.043283, "is_reserved": 0, "bike_id": "8414a8d6a14fec5b088134b144716ec0", "fusion_lon": 0.0, "rental_uris": {"android": "https://dc.lft.to/lastmile_qr_scan", "ios": "https://dc.lft.to/lastmile_qr_scan"}, "name": "8414a8d6a14fec5b088134b144716ec0", "type": "electric_scooter", "lat": 38.907143166666664, "is_disabled": 0}, {"fusion_lat": 0.0, "lon": -77.03625266666667, "is_reserved": 0, "bike_id": "30cc7547dcd909f2455339858af6e695", "fusion_lon": 0.0, "rental_uris": {"android": "https://dc.lft.to/lastmile_qr_scan", "ios": "https://dc.lft.to/lastmile_qr_scan"}, "name": "30cc7547dcd909f2455339858af6e695", "type": "electric_scooter", "lat": 38.91801183333333, "is_disabled": 0}, {"fusion_lat": 0.0, "lon": -77.03855616666667, "is_reserved": 0, "bike_id": "0c2f98820572059ef9ca7e8ae2a81088", "fusion_lon": 0.0, "rental_uris": {"android": "https://dc.lft.to/lastmile_qr_scan", "ios": "https://dc.lft.to/lastmile_qr_scan"}, "name": "0c2f98820572059ef9ca7e8ae2a81088", "type": "electric_scooter", "lat": 38.93199633333333, "is_disabled": 0}, {"fusion_lat": 0.0, "lon": -77.02843416666667, "is_reserved": 0, "bike_id": "f3b799fc0e69ba449bb8a4cd8f350746", "fusion_lon": 0.0, "rental_uris": {"android": "https://dc.lft.to/lastmile_qr_scan", "ios": "https://dc.lft.to/lastmile_qr_scan"}, "name": "f3b799fc0e69ba449bb8a4cd8f350746", "type": "electric_scooter", "lat": 38.925748666666664, "is_disabled": 0}, {"fusion_lat": 0.0, "lon": -77.03481533333333, "is_reserved": 0, "bike_id": "89239676f8c34bd67f7d254f5bdb10c0", "fusion_lon": 0.0, "rental_uris": {"android": "https://dc.lft.to/lastmile_qr_scan", "ios": "https://dc.lft.to/lastmile_qr_scan"}, "name": "89239676f8c34bd67f7d254f5bdb10c0", "type": "electric_scooter", "lat": 38.92335333333333, "is_disabled": 0}, {"fusion_lat": 0.0, "lon": -76.98536733333333, "is_reserved": 0, "bike_id": "294b5fb40df9cfb81412aa53bc80fddc", "fusion_lon": 0.0, "rental_uris": {"android": "https://dc.lft.to/lastmile_qr_scan", "ios": "https://dc.lft.to/lastmile_qr_scan"}, "name": "294b5fb40df9cfb81412aa53bc80fddc", "type": "electric_scooter", "lat": 38.91025883333333, "is_disabled": 0}, {"fusion_lat": 0.0, "lon": -76.96151983333333, "is_reserved": 0, "bike_id": "c31ace165e7720a7d996a5e49c642721", "fusion_lon": 0.0, "rental_uris": {"android": "https://dc.lft.to/lastmile_qr_scan", "ios": "https://dc.lft.to/lastmile_qr_scan"}, "name": "c31ace165e7720a7d996a5e49c642721", "type": "electric_scooter", "lat": 38.88355383333333, "is_disabled": 0}, {"fusion_lat": 0.0, "lon": -77.00595483333333, "is_reserved": 0, "bike_id": "bf45fc11fa72c7230fb825f5475d1311", "fusion_lon": 0.0, "rental_uris": {"android": "https://dc.lft.to/lastmile_qr_scan", "ios": "https://dc.lft.to/lastmile_qr_scan"}, "name": "bf45fc11fa72c7230fb825f5475d1311", "type": "electric_scooter", "lat": 38.9057665, "is_disabled": 0}, {"fusion_lat": 0.0, "lon": -77.02708466666667, "is_reserved": 0, "bike_id": "22424e24272492cc91b1e1cda39e4000", "fusion_lon": 0.0, "rental_uris": {"android": "https://dc.lft.to/lastmile_qr_scan", "ios": "https://dc.lft.to/lastmile_qr_scan"}, "name": "22424e24272492cc91b1e1cda39e4000", "type": "electric_scooter", "lat": 38.897590666666666, "is_disabled": 0}, {"fusion_lat": 0.0, "lon": -77.02455716666667, "is_reserved": 0, "bike_id": "759b8663dc2eda302ea6a4ad22488aef", "fusion_lon": 0.0, "rental_uris": {"android": "https://dc.lft.to/lastmile_qr_scan", "ios": "https://dc.lft.to/lastmile_qr_scan"}, "name": "759b8663dc2eda302ea6a4ad22488aef", "type": "electric_scooter", "lat": 38.93299783333333, "is_disabled": 0}, {"fusion_lat": 0.0, "lon": -77.02406833333333, "is_reserved": 0, "bike_id": "37a7f9f4fab4296bc8c938f3d09770d9", "fusion_lon": 0.0, "rental_uris": {"android": "https://dc.lft.to/lastmile_qr_scan", "ios": "https://dc.lft.to/lastmile_qr_scan"}, "name": "37a7f9f4fab4296bc8c938f3d09770d9", "type": "electric_scooter", "lat": 38.89250366666667, "is_disabled": 0}, {"fusion_lat": 0.0, "lon": -76.99577133333334, "is_reserved": 0, "bike_id": "1f0f5820763ce5252249eecab00931af", "fusion_lon": 0.0, "rental_uris": {"android": "https://dc.lft.to/lastmile_qr_scan", "ios": "https://dc.lft.to/lastmile_qr_scan"}, "name": "1f0f5820763ce5252249eecab00931af", "type": "electric_bike", "lat": 38.852882, "is_disabled": 0}, {"fusion_lat": 0.0, "lon": -77.34402416666667, "is_reserved": 0, "bike_id": "dddead61ce5e378bd23de1ad5d328eb3", "fusion_lon": 0.0, "rental_uris": {"android": "https://dc.lft.to/lastmile_qr_scan", "ios": "https://dc.lft.to/lastmile_qr_scan"}, "name": "dddead61ce5e378bd23de1ad5d328eb3", "type": "electric_bike", "lat": 38.9458515, "is_disabled": 0}, {"fusion_lat": 0.0, "lon": -77.046197, "is_reserved": 0, "bike_id": "381c3e4e82a13981134876dffc7c8f47", "fusion_lon": 0.0, "rental_uris": {"android": "https://dc.lft.to/lastmile_qr_scan", "ios": "https://dc.lft.to/lastmile_qr_scan"}, "name": "381c3e4e82a13981134876dffc7c8f47", "type": "electric_scooter", "lat": 38.916130833333334, "is_disabled": 0}, {"fusion_lat": 0.0, "lon": -77.0320645, "is_reserved": 0, "bike_id": "a1a3f749cb107423905c063b076d2112", "fusion_lon": 0.0, "rental_uris": {"android": "https://dc.lft.to/lastmile_qr_scan", "ios": "https://dc.lft.to/lastmile_qr_scan"}, "name": "a1a3f749cb107423905c063b076d2112", "type": "electric_scooter", "lat": 38.917242333333334, "is_disabled": 0}, {"fusion_lat": 0.0, "lon": -77.00901883333333, "is_reserved": 0, "bike_id": "4a5335cdb04f7a9e2ca0cd7924014241", "fusion_lon": 0.0, "rental_uris": {"android": "https://dc.lft.to/lastmile_qr_scan", "ios": "https://dc.lft.to/lastmile_qr_scan"}, "name": "4a5335cdb04f7a9e2ca0cd7924014241", "type": "electric_scooter", "lat": 38.89552183333333, "is_disabled": 0}, {"fusion_lat": 0.0, "lon": -77.03821766666667, "is_reserved": 0, "bike_id": "6a51377a59328fc515ac6175f8ddad1d", "fusion_lon": 0.0, "rental_uris": {"android": "https://dc.lft.to/lastmile_qr_scan", "ios": "https://dc.lft.to/lastmile_qr_scan"}, "name": "6a51377a59328fc515ac6175f8ddad1d", "type": "electric_scooter", "lat": 38.93131733333333, "is_disabled": 0}, {"fusion_lat": 0.0, "lon": -77.02786533333334, "is_reserved": 0, "bike_id": "bf2b9bd9568c5d57278505734effe242", "fusion_lon": 0.0, "rental_uris": {"android": "https://dc.lft.to/lastmile_qr_scan", "ios": "https://dc.lft.to/lastmile_qr_scan"}, "name": "bf2b9bd9568c5d57278505734effe242", "type": "electric_scooter", "lat": 38.892233166666664, "is_disabled": 0}, {"fusion_lat": 0.0, "lon": -77.03324666666667, "is_reserved": 0, "bike_id": "2c5ab5b547ea6bf3f6b2661a2c854ac7", "fusion_lon": 0.0, "rental_uris": {"android": "https://dc.lft.to/lastmile_qr_scan", "ios": "https://dc.lft.to/lastmile_qr_scan"}, "name": "2c5ab5b547ea6bf3f6b2661a2c854ac7", "type": "electric_scooter", "lat": 38.9035945, "is_disabled": 0}, {"fusion_lat": 0.0, "lon": -77.04111483333334, "is_reserved": 0, "bike_id": "2827384a356fe94f3ce3d1cdd080e9ce", "fusion_lon": 0.0, "rental_uris": {"android": "https://dc.lft.to/lastmile_qr_scan", "ios": "https://dc.lft.to/lastmile_qr_scan"}, "name": "2827384a356fe94f3ce3d1cdd080e9ce", "type": "electric_scooter", "lat": 38.92799816666667, "is_disabled": 0}, {"fusion_lat": 0.0, "lon": -77.0221945, "is_reserved": 0, "bike_id": "a7027957eece29899226b8e36ffe3ecc", "fusion_lon": 0.0, "rental_uris": {"android": "https://dc.lft.to/lastmile_qr_scan", "ios": "https://dc.lft.to/lastmile_qr_scan"}, "name": "a7027957eece29899226b8e36ffe3ecc", "type": "electric_scooter", "lat": 38.9354835, "is_disabled": 0}, {"fusion_lat": 0.0, "lon": -77.02124033333334, "is_reserved": 0, "bike_id": "6fbcb40644ff100547a6edb459de0529", "fusion_lon": 0.0, "rental_uris": {"android": "https://dc.lft.to/lastmile_qr_scan", "ios": "https://dc.lft.to/lastmile_qr_scan"}, "name": "6fbcb40644ff100547a6edb459de0529", "type": "electric_scooter", "lat": 38.9241015, "is_disabled": 0}, {"fusion_lat": 0.0, "lon": -77.06397733333333, "is_reserved": 0, "bike_id": "0622ce198211de23e9f173c2fe5e8036", "fusion_lon": 0.0, "rental_uris": {"android": "https://dc.lft.to/lastmile_qr_scan", "ios": "https://dc.lft.to/lastmile_qr_scan"}, "name": "0622ce198211de23e9f173c2fe5e8036", "type": "electric_scooter", "lat": 38.94318783333333, "is_disabled": 0}, {"fusion_lat": 0.0, "lon": -77.04487133333333, "is_reserved": 0, "bike_id": "490cf6cebfcde2e2bf656a1ea19c9247", "fusion_lon": 0.0, "rental_uris": {"android": "https://dc.lft.to/lastmile_qr_scan", "ios": "https://dc.lft.to/lastmile_qr_scan"}, "name": "490cf6cebfcde2e2bf656a1ea19c9247", "type": "electric_scooter", "lat": 38.9151415, "is_disabled": 0}, {"fusion_lat": 0.0, "lon": -77.038337, "is_reserved": 0, "bike_id": "cc8050c54446df4592884060570c1b27", "fusion_lon": 0.0, "rental_uris": {"android": "https://dc.lft.to/lastmile_qr_scan", "ios": "https://dc.lft.to/lastmile_qr_scan"}, "name": "cc8050c54446df4592884060570c1b27", "type": "electric_scooter", "lat": 38.91194933333333, "is_disabled": 0}, {"fusion_lat": 0.0, "lon": -76.9903725, "is_reserved": 0, "bike_id": "a56edc3c4207a06646fef1c765c8470f", "fusion_lon": 0.0, "rental_uris": {"android": "https://dc.lft.to/lastmile_qr_scan", "ios": "https://dc.lft.to/lastmile_qr_scan"}, "name": "a56edc3c4207a06646fef1c765c8470f", "type": "electric_scooter", "lat": 38.86378283333333, "is_disabled": 0}, {"fusion_lat": 0.0, "lon": -77.024914, "is_reserved": 0, "bike_id": "46a1edacdd12757512d1e242e8f0d5b7", "fusion_lon": 0.0, "rental_uris": {"android": "https://dc.lft.to/lastmile_qr_scan", "ios": "https://dc.lft.to/lastmile_qr_scan"}, "name": "46a1edacdd12757512d1e242e8f0d5b7", "type": "electric_scooter", "lat": 38.941842, "is_disabled": 0}, {"fusion_lat": 0.0, "lon": -77.039351, "is_reserved": 0, "bike_id": "5c31534cc06f14e014fb4f59d6ff633b", "fusion_lon": 0.0, "rental_uris": {"android": "https://dc.lft.to/lastmile_qr_scan", "ios": "https://dc.lft.to/lastmile_qr_scan"}, "name": "5c31534cc06f14e014fb4f59d6ff633b", "type": "electric_scooter", "lat": 38.908353166666664, "is_disabled": 0}, {"fusion_lat": 0.0, "lon": -76.99033566666667, "is_reserved": 0, "bike_id": "030d141cd20b2cd98f5dda16cd5360d1", "fusion_lon": 0.0, "rental_uris": {"android": "https://dc.lft.to/lastmile_qr_scan", "ios": "https://dc.lft.to/lastmile_qr_scan"}, "name": "030d141cd20b2cd98f5dda16cd5360d1", "type": "electric_scooter", "lat": 38.90287983333333, "is_disabled": 0}, {"fusion_lat": 0.0, "lon": -77.0296455, "is_reserved": 0, "bike_id": "bf8fa64337cc620c8083160dfd0c1979", "fusion_lon": 0.0, "rental_uris": {"android": "https://dc.lft.to/lastmile_qr_scan", "ios": "https://dc.lft.to/lastmile_qr_scan"}, "name": "bf8fa64337cc620c8083160dfd0c1979", "type": "electric_scooter", "lat": 38.925665333333335, "is_disabled": 0}, {"fusion_lat": 0.0, "lon": -77.00572633333333, "is_reserved": 0, "bike_id": "3c2d2f01b6e140064749ed27e74c369c", "fusion_lon": 0.0, "rental_uris": {"android": "https://dc.lft.to/lastmile_qr_scan", "ios": "https://dc.lft.to/lastmile_qr_scan"}, "name": "3c2d2f01b6e140064749ed27e74c369c", "type": "electric_scooter", "lat": 38.8820195, "is_disabled": 0}, {"fusion_lat": 0.0, "lon": -77.0340475, "is_reserved": 0, "bike_id": "2f22864865e4e596284d39609f27d29d", "fusion_lon": 0.0, "rental_uris": {"android": "https://dc.lft.to/lastmile_qr_scan", "ios": "https://dc.lft.to/lastmile_qr_scan"}, "name": "2f22864865e4e596284d39609f27d29d", "type": "electric_scooter", "lat": 38.90392133333334, "is_disabled": 0}, {"fusion_lat": 0.0, "lon": -77.07376183333334, "is_reserved": 0, "bike_id": "7da0e9613dd090af8f21b6866754771d", "fusion_lon": 0.0, "rental_uris": {"android": "https://dc.lft.to/lastmile_qr_scan", "ios": "https://dc.lft.to/lastmile_qr_scan"}, "name": "7da0e9613dd090af8f21b6866754771d", "type": "electric_bike", "lat": 38.96175783333333, "is_disabled": 0}, {"fusion_lat": 0.0, "lon": -77.04051966666667, "is_reserved": 0, "bike_id": "808e458ca48cd053e018c9d4acedb4b8", "fusion_lon": 0.0, "rental_uris": {"android": "https://dc.lft.to/lastmile_qr_scan", "ios": "https://dc.lft.to/lastmile_qr_scan"}, "name": "808e458ca48cd053e018c9d4acedb4b8", "type": "electric_scooter", "lat": 38.91864866666667, "is_disabled": 0}, {"fusion_lat": 0.0, "lon": -77.032576, "is_reserved": 0, "bike_id": "4da7566678c246a4c3031a1a5b4b143e", "fusion_lon": 0.0, "rental_uris": {"android": "https://dc.lft.to/lastmile_qr_scan", "ios": "https://dc.lft.to/lastmile_qr_scan"}, "name": "4da7566678c246a4c3031a1a5b4b143e", "type": "electric_scooter", "lat": 38.93248, "is_disabled": 0}, {"fusion_lat": 0.0, "lon": -77.05565783333333, "is_reserved": 0, "bike_id": "d08ee0ba2ae895b66030e106ff95753a", "fusion_lon": 0.0, "rental_uris": {"android": "https://dc.lft.to/lastmile_qr_scan", "ios": "https://dc.lft.to/lastmile_qr_scan"}, "name": "d08ee0ba2ae895b66030e106ff95753a", "type": "electric_scooter", "lat": 38.909301, "is_disabled": 0}, {"fusion_lat": 0.0, "lon": -77.00190083333334, "is_reserved": 0, "bike_id": "6e68ef6f3c274533a7a017050ecc706a", "fusion_lon": 0.0, "rental_uris": {"android": "https://dc.lft.to/lastmile_qr_scan", "ios": "https://dc.lft.to/lastmile_qr_scan"}, "name": "6e68ef6f3c274533a7a017050ecc706a", "type": "electric_scooter", "lat": 38.894426333333335, "is_disabled": 0}, {"fusion_lat": 0.0, "lon": -77.053805, "is_reserved": 0, "bike_id": "d471a67f6208792b93d5a09f05a3e96e", "fusion_lon": 0.0, "rental_uris": {"android": "https://dc.lft.to/lastmile_qr_scan", "ios": "https://dc.lft.to/lastmile_qr_scan"}, "name": "d471a67f6208792b93d5a09f05a3e96e", "type": "electric_scooter", "lat": 38.898854166666666, "is_disabled": 0}, {"fusion_lat": 0.0, "lon": -77.03087666666667, "is_reserved": 0, "bike_id": "8320e72b2f1c7cadee89366f26e5b925", "fusion_lon": 0.0, "rental_uris": {"android": "https://dc.lft.to/lastmile_qr_scan", "ios": "https://dc.lft.to/lastmile_qr_scan"}, "name": "8320e72b2f1c7cadee89366f26e5b925", "type": "electric_scooter", "lat": 38.92728366666667, "is_disabled": 0}, {"fusion_lat": 0.0, "lon": -77.03594383333333, "is_reserved": 0, "bike_id": "1f2da267863c54c45cc420e6bd21cc63", "fusion_lon": 0.0, "rental_uris": {"android": "https://dc.lft.to/lastmile_qr_scan", "ios": "https://dc.lft.to/lastmile_qr_scan"}, "name": "1f2da267863c54c45cc420e6bd21cc63", "type": "electric_scooter", "lat": 38.93930916666667, "is_disabled": 0}, {"fusion_lat": 0.0, "lon": -77.04123516666667, "is_reserved": 0, "bike_id": "208328e77b1c8968e079f9a7a75eb08a", "fusion_lon": 0.0, "rental_uris": {"android": "https://dc.lft.to/lastmile_qr_scan", "ios": "https://dc.lft.to/lastmile_qr_scan"}, "name": "208328e77b1c8968e079f9a7a75eb08a", "type": "electric_scooter", "lat": 38.9170125, "is_disabled": 0}, {"fusion_lat": 0.0, "lon": -76.98799333333334, "is_reserved": 0, "bike_id": "d895eb1429b209804d401606784869db", "fusion_lon": 0.0, "rental_uris": {"android": "https://dc.lft.to/lastmile_qr_scan", "ios": "https://dc.lft.to/lastmile_qr_scan"}, "name": "d895eb1429b209804d401606784869db", "type": "electric_scooter", "lat": 38.867276, "is_disabled": 0}, {"fusion_lat": 0.0, "lon": -77.079166, "is_reserved": 0, "bike_id": "f489fd822421057e8364b21b4268b423", "fusion_lon": 0.0, "rental_uris": {"android": "https://dc.lft.to/lastmile_qr_scan", "ios": "https://dc.lft.to/lastmile_qr_scan"}, "name": "f489fd822421057e8364b21b4268b423", "type": "electric_scooter", "lat": 38.9310685, "is_disabled": 0}, {"fusion_lat": 0.0, "lon": -77.03030633333333, "is_reserved": 0, "bike_id": "9caf8336654ac9d28372d622bb952702", "fusion_lon": 0.0, "rental_uris": {"android": "https://dc.lft.to/lastmile_qr_scan", "ios": "https://dc.lft.to/lastmile_qr_scan"}, "name": "9caf8336654ac9d28372d622bb952702", "type": "electric_scooter", "lat": 38.932104333333335, "is_disabled": 0}, {"fusion_lat": 0.0, "lon": -76.98152983333334, "is_reserved": 0, "bike_id": "05bbe718409e58d4457cd099d7fba093", "fusion_lon": 0.0, "rental_uris": {"android": "https://dc.lft.to/lastmile_qr_scan", "ios": "https://dc.lft.to/lastmile_qr_scan"}, "name": "05bbe718409e58d4457cd099d7fba093", "type": "electric_scooter", "lat": 38.90320216666667, "is_disabled": 0}, {"fusion_lat": 0.0, "lon": -76.98303766666666, "is_reserved": 0, "bike_id": "334018847af00bdbe1f6d3c5a7e81d1c", "fusion_lon": 0.0, "rental_uris": {"android": "https://dc.lft.to/lastmile_qr_scan", "ios": "https://dc.lft.to/lastmile_qr_scan"}, "name": "334018847af00bdbe1f6d3c5a7e81d1c", "type": "electric_scooter", "lat": 38.905272833333335, "is_disabled": 0}, {"fusion_lat": 0.0, "lon": -77.02488683333333, "is_reserved": 0, "bike_id": "0273d2748f44d2272fc67026ed674242", "fusion_lon": 0.0, "rental_uris": {"android": "https://dc.lft.to/lastmile_qr_scan", "ios": "https://dc.lft.to/lastmile_qr_scan"}, "name": "0273d2748f44d2272fc67026ed674242", "type": "electric_scooter", "lat": 38.927469333333335, "is_disabled": 0}, {"fusion_lat": 0.0, "lon": -77.03958066666667, "is_reserved": 0, "bike_id": "9e7c2044631f24d10cb0f2738ba8caa8", "fusion_lon": 0.0, "rental_uris": {"android": "https://dc.lft.to/lastmile_qr_scan", "ios": "https://dc.lft.to/lastmile_qr_scan"}, "name": "9e7c2044631f24d10cb0f2738ba8caa8", "type": "electric_scooter", "lat": 38.902577666666666, "is_disabled": 0}, {"fusion_lat": 0.0, "lon": -77.02267933333333, "is_reserved": 0, "bike_id": "8a0ef7396fa353d5b7d5c13b6066c406", "fusion_lon": 0.0, "rental_uris": {"android": "https://dc.lft.to/lastmile_qr_scan", "ios": "https://dc.lft.to/lastmile_qr_scan"}, "name": "8a0ef7396fa353d5b7d5c13b6066c406", "type": "electric_scooter", "lat": 38.8787925, "is_disabled": 0}, {"fusion_lat": 0.0, "lon": -77.03849483333333, "is_reserved": 0, "bike_id": "0af06558c6c86bd71d9eca0d5c119531", "fusion_lon": 0.0, "rental_uris": {"android": "https://dc.lft.to/lastmile_qr_scan", "ios": "https://dc.lft.to/lastmile_qr_scan"}, "name": "0af06558c6c86bd71d9eca0d5c119531", "type": "electric_scooter", "lat": 38.903782666666665, "is_disabled": 0}, {"fusion_lat": 0.0, "lon": -77.023469, "is_reserved": 0, "bike_id": "cd1bc7c3b8f0932fc5bb2b3b54c6b123", "fusion_lon": 0.0, "rental_uris": {"android": "https://dc.lft.to/lastmile_qr_scan", "ios": "https://dc.lft.to/lastmile_qr_scan"}, "name": "cd1bc7c3b8f0932fc5bb2b3b54c6b123", "type": "electric_scooter", "lat": 38.935259333333335, "is_disabled": 0}, {"fusion_lat": 0.0, "lon": -76.976728, "is_reserved": 0, "bike_id": "5778db8a2300392a44d77820780bc998", "fusion_lon": 0.0, "rental_uris": {"android": "https://dc.lft.to/lastmile_qr_scan", "ios": "https://dc.lft.to/lastmile_qr_scan"}, "name": "5778db8a2300392a44d77820780bc998", "type": "electric_bike", "lat": 38.95241433333333, "is_disabled": 0}, {"fusion_lat": 0.0, "lon": -77.03847133333333, "is_reserved": 0, "bike_id": "2169dd3fe5277bba06b04f4fee359fbb", "fusion_lon": 0.0, "rental_uris": {"android": "https://dc.lft.to/lastmile_qr_scan", "ios": "https://dc.lft.to/lastmile_qr_scan"}, "name": "2169dd3fe5277bba06b04f4fee359fbb", "type": "electric_scooter", "lat": 38.916557166666664, "is_disabled": 0}, {"fusion_lat": 0.0, "lon": -77.025528, "is_reserved": 0, "bike_id": "b4616193be709eb67be66fcceef589c4", "fusion_lon": 0.0, "rental_uris": {"android": "https://dc.lft.to/lastmile_qr_scan", "ios": "https://dc.lft.to/lastmile_qr_scan"}, "name": "b4616193be709eb67be66fcceef589c4", "type": "electric_scooter", "lat": 38.94132666666667, "is_disabled": 0}, {"fusion_lat": 0.0, "lon": -77.02998333333333, "is_reserved": 0, "bike_id": "f684918e95e2995874c584501a9bd512", "fusion_lon": 0.0, "rental_uris": {"android": "https://dc.lft.to/lastmile_qr_scan", "ios": "https://dc.lft.to/lastmile_qr_scan"}, "name": "f684918e95e2995874c584501a9bd512", "type": "electric_scooter", "lat": 38.926773833333336, "is_disabled": 0}, {"fusion_lat": 0.0, "lon": -77.02499016666667, "is_reserved": 0, "bike_id": "9c718bb34ef5bc34efed74ae8c476a3d", "fusion_lon": 0.0, "rental_uris": {"android": "https://dc.lft.to/lastmile_qr_scan", "ios": "https://dc.lft.to/lastmile_qr_scan"}, "name": "9c718bb34ef5bc34efed74ae8c476a3d", "type": "electric_scooter", "lat": 38.941958666666665, "is_disabled": 0}, {"fusion_lat": 0.0, "lon": -77.0289075, "is_reserved": 0, "bike_id": "c2d3971c61dc137e223c6906e35c39bf", "fusion_lon": 0.0, "rental_uris": {"android": "https://dc.lft.to/lastmile_qr_scan", "ios": "https://dc.lft.to/lastmile_qr_scan"}, "name": "c2d3971c61dc137e223c6906e35c39bf", "type": "electric_scooter", "lat": 38.90425666666667, "is_disabled": 0}, {"fusion_lat": 0.0, "lon": -76.97299933333333, "is_reserved": 0, "bike_id": "1ae3e5b8500cdb55c83c70da474f1d4f", "fusion_lon": 0.0, "rental_uris": {"android": "https://dc.lft.to/lastmile_qr_scan", "ios": "https://dc.lft.to/lastmile_qr_scan"}, "name": "1ae3e5b8500cdb55c83c70da474f1d4f", "type": "electric_bike", "lat": 38.91644333333333, "is_disabled": 0}, {"fusion_lat": 0.0, "lon": -77.2333285, "is_reserved": 0, "bike_id": "8aed67138c37c4a87abf126027592125", "fusion_lon": 0.0, "rental_uris": {"android": "https://dc.lft.to/lastmile_qr_scan", "ios": "https://dc.lft.to/lastmile_qr_scan"}, "name": "8aed67138c37c4a87abf126027592125", "type": "electric_bike", "lat": 38.872787833333334, "is_disabled": 0}, {"fusion_lat": 0.0, "lon": -77.04318366666666, "is_reserved": 0, "bike_id": "c86df1b0195ecfd03f318842c7f122b5", "fusion_lon": 0.0, "rental_uris": {"android": "https://dc.lft.to/lastmile_qr_scan", "ios": "https://dc.lft.to/lastmile_qr_scan"}, "name": "c86df1b0195ecfd03f318842c7f122b5", "type": "electric_scooter", "lat": 38.91876283333333, "is_disabled": 0}, {"fusion_lat": 0.0, "lon": -77.0487205, "is_reserved": 0, "bike_id": "80f6ee2deea6fb3295028ead3c38a520", "fusion_lon": 0.0, "rental_uris": {"android": "https://dc.lft.to/lastmile_qr_scan", "ios": "https://dc.lft.to/lastmile_qr_scan"}, "name": "80f6ee2deea6fb3295028ead3c38a520", "type": "electric_scooter", "lat": 38.905475, "is_disabled": 0}, {"fusion_lat": 0.0, "lon": -77.04481933333334, "is_reserved": 0, "bike_id": "9e38c214b4243308e809cd4e0aa37825", "fusion_lon": 0.0, "rental_uris": {"android": "https://dc.lft.to/lastmile_qr_scan", "ios": "https://dc.lft.to/lastmile_qr_scan"}, "name": "9e38c214b4243308e809cd4e0aa37825", "type": "electric_scooter", "lat": 38.924178166666664, "is_disabled": 0}, {"fusion_lat": 0.0, "lon": -77.02126183333333, "is_reserved": 0, "bike_id": "91ebd3530ee153e98657e6c0dd25f32e", "fusion_lon": 0.0, "rental_uris": {"android": "https://dc.lft.to/lastmile_qr_scan", "ios": "https://dc.lft.to/lastmile_qr_scan"}, "name": "91ebd3530ee153e98657e6c0dd25f32e", "type": "electric_scooter", "lat": 38.92411, "is_disabled": 0}, {"fusion_lat": 0.0, "lon": -76.98534283333333, "is_reserved": 0, "bike_id": "cfe35496e95e3cf757c910a38f94e440", "fusion_lon": 0.0, "rental_uris": {"android": "https://dc.lft.to/lastmile_qr_scan", "ios": "https://dc.lft.to/lastmile_qr_scan"}, "name": "cfe35496e95e3cf757c910a38f94e440", "type": "electric_scooter", "lat": 38.853597, "is_disabled": 0}, {"fusion_lat": 0.0, "lon": -77.0089045, "is_reserved": 0, "bike_id": "427fb9674493e7c45e99dfb712df7b3a", "fusion_lon": 0.0, "rental_uris": {"android": "https://dc.lft.to/lastmile_qr_scan", "ios": "https://dc.lft.to/lastmile_qr_scan"}, "name": "427fb9674493e7c45e99dfb712df7b3a", "type": "electric_scooter", "lat": 38.922737166666664, "is_disabled": 0}, {"fusion_lat": 0.0, "lon": -76.93756083333334, "is_reserved": 0, "bike_id": "58bcd982ca083cabb94a510262f413b0", "fusion_lon": 0.0, "rental_uris": {"android": "https://dc.lft.to/lastmile_qr_scan", "ios": "https://dc.lft.to/lastmile_qr_scan"}, "name": "58bcd982ca083cabb94a510262f413b0", "type": "electric_scooter", "lat": 38.89041183333333, "is_disabled": 0}, {"fusion_lat": 0.0, "lon": -77.04613583333334, "is_reserved": 0, "bike_id": "2e77c0e43894cd4af637e83984b70791", "fusion_lon": 0.0, "rental_uris": {"android": "https://dc.lft.to/lastmile_qr_scan", "ios": "https://dc.lft.to/lastmile_qr_scan"}, "name": "2e77c0e43894cd4af637e83984b70791", "type": "electric_scooter", "lat": 38.92305133333333, "is_disabled": 0}, {"fusion_lat": 0.0, "lon": -77.01228983333333, "is_reserved": 0, "bike_id": "589bac63657cf1d4b6262b13e85d01dd", "fusion_lon": 0.0, "rental_uris": {"android": "https://dc.lft.to/lastmile_qr_scan", "ios": "https://dc.lft.to/lastmile_qr_scan"}, "name": "589bac63657cf1d4b6262b13e85d01dd", "type": "electric_scooter", "lat": 38.877238, "is_disabled": 0}, {"fusion_lat": 0.0, "lon": -77.0319145, "is_reserved": 0, "bike_id": "320c0c9d3ce9b7073ee6afd918da56cf", "fusion_lon": 0.0, "rental_uris": {"android": "https://dc.lft.to/lastmile_qr_scan", "ios": "https://dc.lft.to/lastmile_qr_scan"}, "name": "320c0c9d3ce9b7073ee6afd918da56cf", "type": "electric_scooter", "lat": 38.91088216666667, "is_disabled": 0}, {"fusion_lat": 0.0, "lon": -76.95146483333333, "is_reserved": 0, "bike_id": "17cfb7f56fb16fba05c11c6cff18b6c4", "fusion_lon": 0.0, "rental_uris": {"android": "https://dc.lft.to/lastmile_qr_scan", "ios": "https://dc.lft.to/lastmile_qr_scan"}, "name": "17cfb7f56fb16fba05c11c6cff18b6c4", "type": "electric_scooter", "lat": 38.8903755, "is_disabled": 0}, {"fusion_lat": 0.0, "lon": -76.98618616666667, "is_reserved": 0, "bike_id": "9eea65150625c2dadbcc956dee815a24", "fusion_lon": 0.0, "rental_uris": {"android": "https://dc.lft.to/lastmile_qr_scan", "ios": "https://dc.lft.to/lastmile_qr_scan"}, "name": "9eea65150625c2dadbcc956dee815a24", "type": "electric_scooter", "lat": 38.93825916666667, "is_disabled": 0}, {"fusion_lat": 0.0, "lon": -76.90824866666667, "is_reserved": 0, "bike_id": "ff9a41d522ea35e286c122179ec8cb67", "fusion_lon": 0.0, "rental_uris": {"android": "https://dc.lft.to/lastmile_qr_scan", "ios": "https://dc.lft.to/lastmile_qr_scan"}, "name": "ff9a41d522ea35e286c122179ec8cb67", "type": "electric_bike", "lat": 39.00270116666667, "is_disabled": 0}, {"fusion_lat": 0.0, "lon": -77.043255, "is_reserved": 0, "bike_id": "dd704b28da68304181f5842e5b78cdb8", "fusion_lon": 0.0, "rental_uris": {"android": "https://dc.lft.to/lastmile_qr_scan", "ios": "https://dc.lft.to/lastmile_qr_scan"}, "name": "dd704b28da68304181f5842e5b78cdb8", "type": "electric_scooter", "lat": 38.899339833333336, "is_disabled": 0}, {"fusion_lat": 0.0, "lon": -76.97704283333333, "is_reserved": 0, "bike_id": "3f66f24bd77ccefde0f832da2d376f93", "fusion_lon": 0.0, "rental_uris": {"android": "https://dc.lft.to/lastmile_qr_scan", "ios": "https://dc.lft.to/lastmile_qr_scan"}, "name": "3f66f24bd77ccefde0f832da2d376f93", "type": "electric_bike", "lat": 38.94914833333333, "is_disabled": 0}, {"fusion_lat": 0.0, "lon": -77.02890333333333, "is_reserved": 0, "bike_id": "79489a10edccb70108f51d596caeee66", "fusion_lon": 0.0, "rental_uris": {"android": "https://dc.lft.to/lastmile_qr_scan", "ios": "https://dc.lft.to/lastmile_qr_scan"}, "name": "79489a10edccb70108f51d596caeee66", "type": "electric_scooter", "lat": 38.939809333333336, "is_disabled": 0}, {"fusion_lat": 0.0, "lon": -77.3609945, "is_reserved": 0, "bike_id": "b6e3c8d44cba6da9a388e27e56cc1ac2", "fusion_lon": 0.0, "rental_uris": {"android": "https://dc.lft.to/lastmile_qr_scan", "ios": "https://dc.lft.to/lastmile_qr_scan"}, "name": "b6e3c8d44cba6da9a388e27e56cc1ac2", "type": "electric_bike", "lat": 38.939527166666664, "is_disabled": 0}, {"fusion_lat": 0.0, "lon": -77.02387516666667, "is_reserved": 0, "bike_id": "700c092616a36f0a74b87432ad809de5", "fusion_lon": 0.0, "rental_uris": {"android": "https://dc.lft.to/lastmile_qr_scan", "ios": "https://dc.lft.to/lastmile_qr_scan"}, "name": "700c092616a36f0a74b87432ad809de5", "type": "electric_scooter", "lat": 38.90740183333333, "is_disabled": 0}, {"fusion_lat": 0.0, "lon": -77.00402816666667, "is_reserved": 0, "bike_id": "e969e5ecd397d387c5977e08aaf4b639", "fusion_lon": 0.0, "rental_uris": {"android": "https://dc.lft.to/lastmile_qr_scan", "ios": "https://dc.lft.to/lastmile_qr_scan"}, "name": "e969e5ecd397d387c5977e08aaf4b639", "type": "electric_scooter", "lat": 38.92129533333333, "is_disabled": 0}, {"fusion_lat": 0.0, "lon": -77.005964, "is_reserved": 0, "bike_id": "c77c8e4a0802809682bf8ab6dcdf10db", "fusion_lon": 0.0, "rental_uris": {"android": "https://dc.lft.to/lastmile_qr_scan", "ios": "https://dc.lft.to/lastmile_qr_scan"}, "name": "c77c8e4a0802809682bf8ab6dcdf10db", "type": "electric_scooter", "lat": 38.885148, "is_disabled": 0}, {"fusion_lat": 0.0, "lon": -77.02366966666666, "is_reserved": 0, "bike_id": "899c52c215107fcf3e7301675e101d53", "fusion_lon": 0.0, "rental_uris": {"android": "https://dc.lft.to/lastmile_qr_scan", "ios": "https://dc.lft.to/lastmile_qr_scan"}, "name": "899c52c215107fcf3e7301675e101d53", "type": "electric_scooter", "lat": 38.892191333333336, "is_disabled": 0}, {"fusion_lat": 0.0, "lon": -77.05013283333334, "is_reserved": 0, "bike_id": "9719271c631eeea224dedb4ce28d0f97", "fusion_lon": 0.0, "rental_uris": {"android": "https://dc.lft.to/lastmile_qr_scan", "ios": "https://dc.lft.to/lastmile_qr_scan"}, "name": "9719271c631eeea224dedb4ce28d0f97", "type": "electric_scooter", "lat": 38.9071135, "is_disabled": 0}, {"fusion_lat": 0.0, "lon": -77.02623366666667, "is_reserved": 0, "bike_id": "71fa08fd3bdaa64d1293bb64cc152246", "fusion_lon": 0.0, "rental_uris": {"android": "https://dc.lft.to/lastmile_qr_scan", "ios": "https://dc.lft.to/lastmile_qr_scan"}, "name": "71fa08fd3bdaa64d1293bb64cc152246", "type": "electric_bike", "lat": 38.96220366666667, "is_disabled": 0}, {"fusion_lat": 0.0, "lon": -77.032122, "is_reserved": 0, "bike_id": "ded05f33a28b0f56ae1b577a1c78dc76", "fusion_lon": 0.0, "rental_uris": {"android": "https://dc.lft.to/lastmile_qr_scan", "ios": "https://dc.lft.to/lastmile_qr_scan"}, "name": "ded05f33a28b0f56ae1b577a1c78dc76", "type": "electric_scooter", "lat": 38.9087795, "is_disabled": 0}, {"fusion_lat": 0.0, "lon": -77.03880866666667, "is_reserved": 0, "bike_id": "3595be72891f5b34042addc06ad643d9", "fusion_lon": 0.0, "rental_uris": {"android": "https://dc.lft.to/lastmile_qr_scan", "ios": "https://dc.lft.to/lastmile_qr_scan"}, "name": "3595be72891f5b34042addc06ad643d9", "type": "electric_scooter", "lat": 38.90283983333333, "is_disabled": 0}, {"fusion_lat": 0.0, "lon": -77.03628433333333, "is_reserved": 0, "bike_id": "accdf06c40053d3eac1d056cf11be56a", "fusion_lon": 0.0, "rental_uris": {"android": "https://dc.lft.to/lastmile_qr_scan", "ios": "https://dc.lft.to/lastmile_qr_scan"}, "name": "accdf06c40053d3eac1d056cf11be56a", "type": "electric_scooter", "lat": 38.90382566666667, "is_disabled": 0}, {"fusion_lat": 0.0, "lon": -76.9789675, "is_reserved": 0, "bike_id": "ec9167527fd286765d629112d58c22a4", "fusion_lon": 0.0, "rental_uris": {"android": "https://dc.lft.to/lastmile_qr_scan", "ios": "https://dc.lft.to/lastmile_qr_scan"}, "name": "ec9167527fd286765d629112d58c22a4", "type": "electric_bike", "lat": 38.8703175, "is_disabled": 0}, {"fusion_lat": 0.0, "lon": -77.03686216666667, "is_reserved": 0, "bike_id": "f4c583965c525a446c98a37126b6c7bd", "fusion_lon": 0.0, "rental_uris": {"android": "https://dc.lft.to/lastmile_qr_scan", "ios": "https://dc.lft.to/lastmile_qr_scan"}, "name": "f4c583965c525a446c98a37126b6c7bd", "type": "electric_scooter", "lat": 38.916723, "is_disabled": 0}, {"fusion_lat": 0.0, "lon": -76.98865283333333, "is_reserved": 0, "bike_id": "72261c4adc074435901450c83b14fff2", "fusion_lon": 0.0, "rental_uris": {"android": "https://dc.lft.to/lastmile_qr_scan", "ios": "https://dc.lft.to/lastmile_qr_scan"}, "name": "72261c4adc074435901450c83b14fff2", "type": "electric_bike", "lat": 38.95480716666667, "is_disabled": 0}, {"fusion_lat": 0.0, "lon": -76.98662133333333, "is_reserved": 0, "bike_id": "2c4d9efec2ec16e2aa503c2e1e519777", "fusion_lon": 0.0, "rental_uris": {"android": "https://dc.lft.to/lastmile_qr_scan", "ios": "https://dc.lft.to/lastmile_qr_scan"}, "name": "2c4d9efec2ec16e2aa503c2e1e519777", "type": "electric_scooter", "lat": 38.89818066666667, "is_disabled": 0}, {"fusion_lat": 0.0, "lon": -76.9984035, "is_reserved": 0, "bike_id": "125ba36a3e90d75a487e3d796b5c9334", "fusion_lon": 0.0, "rental_uris": {"android": "https://dc.lft.to/lastmile_qr_scan", "ios": "https://dc.lft.to/lastmile_qr_scan"}, "name": "125ba36a3e90d75a487e3d796b5c9334", "type": "electric_scooter", "lat": 38.900284, "is_disabled": 0}, {"fusion_lat": 0.0, "lon": -77.044039, "is_reserved": 0, "bike_id": "9b47477c1dce891763a34cdcd8865753", "fusion_lon": 0.0, "rental_uris": {"android": "https://dc.lft.to/lastmile_qr_scan", "ios": "https://dc.lft.to/lastmile_qr_scan"}, "name": "9b47477c1dce891763a34cdcd8865753", "type": "electric_scooter", "lat": 38.909148333333334, "is_disabled": 0}, {"fusion_lat": 0.0, "lon": -77.02657133333334, "is_reserved": 0, "bike_id": "1582bffc7104a9655a687820b5f0ce8f", "fusion_lon": 0.0, "rental_uris": {"android": "https://dc.lft.to/lastmile_qr_scan", "ios": "https://dc.lft.to/lastmile_qr_scan"}, "name": "1582bffc7104a9655a687820b5f0ce8f", "type": "electric_scooter", "lat": 38.892166833333334, "is_disabled": 0}, {"fusion_lat": 0.0, "lon": -76.987193, "is_reserved": 0, "bike_id": "9b69b51f59f3b40a33baebc8f72a9d9a", "fusion_lon": 0.0, "rental_uris": {"android": "https://dc.lft.to/lastmile_qr_scan", "ios": "https://dc.lft.to/lastmile_qr_scan"}, "name": "9b69b51f59f3b40a33baebc8f72a9d9a", "type": "electric_scooter", "lat": 38.86708566666667, "is_disabled": 0}, {"fusion_lat": 0.0, "lon": -77.03301966666666, "is_reserved": 0, "bike_id": "9e3784db60c6527f52e58f4e7032eeca", "fusion_lon": 0.0, "rental_uris": {"android": "https://dc.lft.to/lastmile_qr_scan", "ios": "https://dc.lft.to/lastmile_qr_scan"}, "name": "9e3784db60c6527f52e58f4e7032eeca", "type": "electric_scooter", "lat": 38.93040383333334, "is_disabled": 0}, {"fusion_lat": 0.0, "lon": -77.0076415, "is_reserved": 0, "bike_id": "e9ff556b0891c5385ab6a760886a7f5b", "fusion_lon": 0.0, "rental_uris": {"android": "https://dc.lft.to/lastmile_qr_scan", "ios": "https://dc.lft.to/lastmile_qr_scan"}, "name": "e9ff556b0891c5385ab6a760886a7f5b", "type": "electric_bike", "lat": 38.8785455, "is_disabled": 0}, {"fusion_lat": 0.0, "lon": -76.99458983333334, "is_reserved": 0, "bike_id": "417e04fc0cf85cbc66f2c40bdef72ad4", "fusion_lon": 0.0, "rental_uris": {"android": "https://dc.lft.to/lastmile_qr_scan", "ios": "https://dc.lft.to/lastmile_qr_scan"}, "name": "417e04fc0cf85cbc66f2c40bdef72ad4", "type": "electric_scooter", "lat": 38.8621745, "is_disabled": 0}, {"fusion_lat": 0.0, "lon": -77.03425916666667, "is_reserved": 0, "bike_id": "4bfb2a3fb1739a465eb95e97be2ef57d", "fusion_lon": 0.0, "rental_uris": {"android": "https://dc.lft.to/lastmile_qr_scan", "ios": "https://dc.lft.to/lastmile_qr_scan"}, "name": "4bfb2a3fb1739a465eb95e97be2ef57d", "type": "electric_scooter", "lat": 38.912523, "is_disabled": 0}, {"fusion_lat": 0.0, "lon": -77.0313415, "is_reserved": 0, "bike_id": "64baef55c80914f6e9002d6c8f2979c9", "fusion_lon": 0.0, "rental_uris": {"android": "https://dc.lft.to/lastmile_qr_scan", "ios": "https://dc.lft.to/lastmile_qr_scan"}, "name": "64baef55c80914f6e9002d6c8f2979c9", "type": "electric_scooter", "lat": 38.9162555, "is_disabled": 0}, {"fusion_lat": 0.0, "lon": -76.99335966666666, "is_reserved": 0, "bike_id": "b61d1f67259c3c7c47a0d2341d447950", "fusion_lon": 0.0, "rental_uris": {"android": "https://dc.lft.to/lastmile_qr_scan", "ios": "https://dc.lft.to/lastmile_qr_scan"}, "name": "b61d1f67259c3c7c47a0d2341d447950", "type": "electric_scooter", "lat": 38.87139416666667, "is_disabled": 0}, {"fusion_lat": 0.0, "lon": -76.93751166666667, "is_reserved": 0, "bike_id": "dd84f492647518a46ebbcd746585ee1a", "fusion_lon": 0.0, "rental_uris": {"android": "https://dc.lft.to/lastmile_qr_scan", "ios": "https://dc.lft.to/lastmile_qr_scan"}, "name": "dd84f492647518a46ebbcd746585ee1a", "type": "electric_scooter", "lat": 38.890486333333335, "is_disabled": 0}, {"fusion_lat": 0.0, "lon": -76.96058383333333, "is_reserved": 0, "bike_id": "4017bd597e346473f36bdff3dbe0ec24", "fusion_lon": 0.0, "rental_uris": {"android": "https://dc.lft.to/lastmile_qr_scan", "ios": "https://dc.lft.to/lastmile_qr_scan"}, "name": "4017bd597e346473f36bdff3dbe0ec24", "type": "electric_bike", "lat": 38.88405866666667, "is_disabled": 0}, {"fusion_lat": 0.0, "lon": -77.05565516666667, "is_reserved": 0, "bike_id": "b776862286cdf8657b2d149fe87439f6", "fusion_lon": 0.0, "rental_uris": {"android": "https://dc.lft.to/lastmile_qr_scan", "ios": "https://dc.lft.to/lastmile_qr_scan"}, "name": "b776862286cdf8657b2d149fe87439f6", "type": "electric_scooter", "lat": 38.89992083333333, "is_disabled": 0}, {"fusion_lat": 0.0, "lon": -77.04660166666666, "is_reserved": 0, "bike_id": "9382b49f0e5e5a13c9e773d25d085ba7", "fusion_lon": 0.0, "rental_uris": {"android": "https://dc.lft.to/lastmile_qr_scan", "ios": "https://dc.lft.to/lastmile_qr_scan"}, "name": "9382b49f0e5e5a13c9e773d25d085ba7", "type": "electric_scooter", "lat": 38.91268733333333, "is_disabled": 0}, {"fusion_lat": 0.0, "lon": -77.0450425, "is_reserved": 0, "bike_id": "6de8d43ba9318fdb2c596bd734a71f23", "fusion_lon": 0.0, "rental_uris": {"android": "https://dc.lft.to/lastmile_qr_scan", "ios": "https://dc.lft.to/lastmile_qr_scan"}, "name": "6de8d43ba9318fdb2c596bd734a71f23", "type": "electric_bike", "lat": 38.90340283333333, "is_disabled": 0}, {"fusion_lat": 0.0, "lon": -77.05063533333333, "is_reserved": 0, "bike_id": "6e172a0342551636b25f4265ddb5bab1", "fusion_lon": 0.0, "rental_uris": {"android": "https://dc.lft.to/lastmile_qr_scan", "ios": "https://dc.lft.to/lastmile_qr_scan"}, "name": "6e172a0342551636b25f4265ddb5bab1", "type": "electric_scooter", "lat": 38.9051095, "is_disabled": 0}, {"fusion_lat": 0.0, "lon": -77.013684, "is_reserved": 0, "bike_id": "de30d169215f21c5bf2935b61b3bf6f0", "fusion_lon": 0.0, "rental_uris": {"android": "https://dc.lft.to/lastmile_qr_scan", "ios": "https://dc.lft.to/lastmile_qr_scan"}, "name": "de30d169215f21c5bf2935b61b3bf6f0", "type": "electric_scooter", "lat": 38.88704466666667, "is_disabled": 0}, {"fusion_lat": 0.0, "lon": -76.99564983333333, "is_reserved": 0, "bike_id": "e16cc66b74972779db66807f410cce10", "fusion_lon": 0.0, "rental_uris": {"android": "https://dc.lft.to/lastmile_qr_scan", "ios": "https://dc.lft.to/lastmile_qr_scan"}, "name": "e16cc66b74972779db66807f410cce10", "type": "electric_bike", "lat": 38.884627333333334, "is_disabled": 0}, {"fusion_lat": 0.0, "lon": -77.0560295, "is_reserved": 0, "bike_id": "106f632a0295ed17623c20a354f8633e", "fusion_lon": 0.0, "rental_uris": {"android": "https://dc.lft.to/lastmile_qr_scan", "ios": "https://dc.lft.to/lastmile_qr_scan"}, "name": "106f632a0295ed17623c20a354f8633e", "type": "electric_scooter", "lat": 38.936983833333336, "is_disabled": 0}, {"fusion_lat": 0.0, "lon": -76.98821866666667, "is_reserved": 0, "bike_id": "b090d82c1c6204a37e7c54b50518e05a", "fusion_lon": 0.0, "rental_uris": {"android": "https://dc.lft.to/lastmile_qr_scan", "ios": "https://dc.lft.to/lastmile_qr_scan"}, "name": "b090d82c1c6204a37e7c54b50518e05a", "type": "electric_scooter", "lat": 38.890743666666665, "is_disabled": 0}, {"fusion_lat": 0.0, "lon": -77.0091865, "is_reserved": 0, "bike_id": "a94e5f39f865f2ffecfd86b024c7eadd", "fusion_lon": 0.0, "rental_uris": {"android": "https://dc.lft.to/lastmile_qr_scan", "ios": "https://dc.lft.to/lastmile_qr_scan"}, "name": "a94e5f39f865f2ffecfd86b024c7eadd", "type": "electric_scooter", "lat": 38.896436666666666, "is_disabled": 0}, {"fusion_lat": 0.0, "lon": -77.03074016666666, "is_reserved": 0, "bike_id": "d5dd40748557b8a75b002ccda234d4ec", "fusion_lon": 0.0, "rental_uris": {"android": "https://dc.lft.to/lastmile_qr_scan", "ios": "https://dc.lft.to/lastmile_qr_scan"}, "name": "d5dd40748557b8a75b002ccda234d4ec", "type": "electric_scooter", "lat": 38.899651166666665, "is_disabled": 0}, {"fusion_lat": 0.0, "lon": -77.029241, "is_reserved": 0, "bike_id": "c6693b28ec7c294e0a6543c10de08268", "fusion_lon": 0.0, "rental_uris": {"android": "https://dc.lft.to/lastmile_qr_scan", "ios": "https://dc.lft.to/lastmile_qr_scan"}, "name": "c6693b28ec7c294e0a6543c10de08268", "type": "electric_scooter", "lat": 38.8981345, "is_disabled": 0}, {"fusion_lat": 0.0, "lon": -76.99595616666667, "is_reserved": 0, "bike_id": "a066469423531035c4a7da992137929e", "fusion_lon": 0.0, "rental_uris": {"android": "https://dc.lft.to/lastmile_qr_scan", "ios": "https://dc.lft.to/lastmile_qr_scan"}, "name": "a066469423531035c4a7da992137929e", "type": "electric_scooter", "lat": 38.856933166666664, "is_disabled": 0}, {"fusion_lat": 0.0, "lon": -77.00593283333333, "is_reserved": 0, "bike_id": "bd287dd9f92563cc66497333e999b703", "fusion_lon": 0.0, "rental_uris": {"android": "https://dc.lft.to/lastmile_qr_scan", "ios": "https://dc.lft.to/lastmile_qr_scan"}, "name": "bd287dd9f92563cc66497333e999b703", "type": "electric_scooter", "lat": 38.88516633333333, "is_disabled": 0}, {"fusion_lat": 0.0, "lon": -77.03834116666667, "is_reserved": 0, "bike_id": "d8eb6bf25ead816906ed6a250da3face", "fusion_lon": 0.0, "rental_uris": {"android": "https://dc.lft.to/lastmile_qr_scan", "ios": "https://dc.lft.to/lastmile_qr_scan"}, "name": "d8eb6bf25ead816906ed6a250da3face", "type": "electric_scooter", "lat": 38.90674816666667, "is_disabled": 0}, {"fusion_lat": 0.0, "lon": -77.00197566666667, "is_reserved": 0, "bike_id": "26b7e4006e4f13c2752911f20c39b656", "fusion_lon": 0.0, "rental_uris": {"android": "https://dc.lft.to/lastmile_qr_scan", "ios": "https://dc.lft.to/lastmile_qr_scan"}, "name": "26b7e4006e4f13c2752911f20c39b656", "type": "electric_scooter", "lat": 38.9002725, "is_disabled": 0}, {"fusion_lat": 0.0, "lon": -77.014147, "is_reserved": 0, "bike_id": "fb09baceaec1d08ca61f7f70dd8dd802", "fusion_lon": 0.0, "rental_uris": {"android": "https://dc.lft.to/lastmile_qr_scan", "ios": "https://dc.lft.to/lastmile_qr_scan"}, "name": "fb09baceaec1d08ca61f7f70dd8dd802", "type": "electric_scooter", "lat": 38.928096833333335, "is_disabled": 0}, {"fusion_lat": 0.0, "lon": -77.02835733333333, "is_reserved": 0, "bike_id": "896072fde498e12ab32bbd7377c66f8b", "fusion_lon": 0.0, "rental_uris": {"android": "https://dc.lft.to/lastmile_qr_scan", "ios": "https://dc.lft.to/lastmile_qr_scan"}, "name": "896072fde498e12ab32bbd7377c66f8b", "type": "electric_scooter", "lat": 38.924802, "is_disabled": 0}, {"fusion_lat": 0.0, "lon": -77.04386666666667, "is_reserved": 0, "bike_id": "8934e113ba8b9a3f60184625a258c803", "fusion_lon": 0.0, "rental_uris": {"android": "https://dc.lft.to/lastmile_qr_scan", "ios": "https://dc.lft.to/lastmile_qr_scan"}, "name": "8934e113ba8b9a3f60184625a258c803", "type": "electric_scooter", "lat": 38.90894, "is_disabled": 0},