{"data": {"bikes": [{"rental_uris": {"ios": "https://dc.lft.to/lastmile_qr_scan", "android": "https://dc.lft.to/lastmile_qr_scan"}, "lon": -77.006537, "type": "electric_scooter", "fusion_lat": 0.0, "lat": 38.90860466666667, "name": "8071638f7ff1e46ae4e60d45fe70289f", "fusion_lon": 0.0, "bike_id": "8071638f7ff1e46ae4e60d45fe70289f", "is_disabled": 0, "is_reserved": 0}, {"rental_uris": {"ios": "https://dc.lft.to/lastmile_qr_scan", "android": "https://dc.lft.to/lastmile_qr_scan"}, "lon": -77.0357015, "type": "electric_scooter", "fusion_lat": 0.0, "lat": 38.91633866666667, "name": "7ec6d7f46a9d4bb69147353de7eae839", "fusion_lon": 0.0, "bike_id": "7ec6d7f46a9d4bb69147353de7eae839", "is_disabled": 0, "is_reserved": 0}, {"rental_uris": {"ios": "https://dc.lft.to/lastmile_qr_scan", "android": "https://dc.lft.to/lastmile_qr_scan"}, "lon": -77.020396, "type": "electric_scooter", "fusion_lat": 0.0, "lat": 38.923990333333336, "name": "f4357e7721fcd9f3be424f74723e99c0", "fusion_lon": 0.0, "bike_id": "f4357e7721fcd9f3be424f74723e99c0", "is_disabled": 0, "is_reserved": 0}, {"rental_uris": {"ios": "https://dc.lft.to/lastmile_qr_scan", "android": "https://dc.lft.to/lastmile_qr_scan"}, "lon": -77.04183166666667, "type": "electric_scooter", "fusion_lat": 0.0, "lat": 38.902892, "name": "d8b0dff3c3db44511f24835e3a61f543", "fusion_lon": 0.0, "bike_id": "d8b0dff3c3db44511f24835e3a61f543", "is_disabled": 0, "is_reserved": 0}, {"rental_uris": {"ios": "https://dc.lft.to/lastmile_qr_scan", "android": "https://dc.lft.to/lastmile_qr_scan"}, "lon": -76.93374216666666, "type": "electric_scooter", "fusion_lat": 0.0, "lat": 38.89917366666667, "name": "d76fabb0a40ceede68bbe74ba05b2469", "fusion_lon": 0.0, "bike_id": "d76fabb0a40ceede68bbe74ba05b2469", "is_disabled": 0, "is_reserved": 0}, {"rental_uris": {"ios": "https://dc.lft.to/lastmile_qr_scan", "android": "https://dc.lft.to/lastmile_qr_scan"}, "lon": -77.029482, "type": "electric_scooter", "fusion_lat": 0.0, "lat": 38.903975, "name": "56c62629da4cb1565324b2a09673d33d", "fusion_lon": 0.0, "bike_id": "56c62629da4cb1565324b2a09673d33d", "is_disabled": 0, "is_reserved": 0}, {"rental_uris": {"ios": "https://dc.lft.to/lastmile_qr_scan", "android": "https://dc.lft.to/lastmile_qr_scan"}, "lon": -77.024774, "type": "electric_scooter", "fusion_lat": 0.0, "lat": 38.91812483333333, "name": "7c4f4178336beef2faa917b8c5125678", "fusion_lon": 0.0, "bike_id": "7c4f4178336beef2faa917b8c5125678", "is_disabled": 0, "is_reserved": 0}, {"rental_uris": {"ios": "https://dc.lft.to/lastmile_qr_scan", "android": "https://dc.lft.to/lastmile_qr_scan"}, "lon": -77.1498885, "type": "electric_bike", "fusion_lat": 0.0, "lat": 39.09459066666667, "name": "5475c51f63271f19415bd411927a6283", "fusion_lon": 0.0, "bike_id": "5475c51f63271f19415bd411927a6283", "is_disabled": 0, "is_reserved": 0}, {"rental_uris": {"ios": "https://dc.lft.to/lastmile_qr_scan", "android": "https://dc.lft.to/lastmile_qr_scan"}, "lon": -77.19906466666667, "type": "electric_bike", "fusion_lat": 0.0, "lat": 38.87532866666667, "name": "98f59c6ef0de745c6aff25bd925097ab", "fusion_lon": 0.0, "bike_id": "98f59c6ef0de745c6aff25bd925097ab", "is_disabled": 0, "is_reserved": 0}, {"rental_uris": {"ios": "https://dc.lft.to/lastmile_qr_scan", "android": "https://dc.lft.to/lastmile_qr_scan"}, "lon": -76.96845966666666, "type": "electric_scooter", "fusion_lat": 0.0, "lat": 38.874649, "name": "f0b4813561cae41ad93ff36469fced05", "fusion_lon": 0.0, "bike_id": "f0b4813561cae41ad93ff36469fced05", "is_disabled": 0, "is_reserved": 0}, {"rental_uris": {"ios": "https://dc.lft.to/lastmile_qr_scan", "android": "https://dc.lft.to/lastmile_qr_scan"}, "lon": -77.00808066666667, "type": "electric_scooter", "fusion_lat": 0.0, "lat": 38.90555783333333, "name": "02500dd6bc9b0ea3c1bdad1b48e88258", "fusion_lon": 0.0, "bike_id": "02500dd6bc9b0ea3c1bdad1b48e88258", "is_disabled": 0, "is_reserved": 0}, {"rental_uris": {"ios": "https://dc.lft.to/lastmile_qr_scan", "android": "https://dc.lft.to/lastmile_qr_scan"}, "lon": -77.045016, "type": "electric_scooter", "fusion_lat": 0.0, "lat": 38.9111375, "name": "add08117cab328a1c3937ff0c73aac2e", "fusion_lon": 0.0, "bike_id": "add08117cab328a1c3937ff0c73aac2e", "is_disabled": 0, "is_reserved": 0}, {"rental_uris": {"ios": "https://dc.lft.to/lastmile_qr_scan", "android": "https://dc.lft.to/lastmile_qr_scan"}, "lon": -77.04038716666666, "type": "electric_scooter", "fusion_lat": 0.0, "lat": 38.904019, "name": "962d812b47df92eed216334380d9f750", "fusion_lon": 0.0, "bike_id": "962d812b47df92eed216334380d9f750", "is_disabled": 0, "is_reserved": 0}, {"rental_uris": {"ios": "https://dc.lft.to/lastmile_qr_scan", "android": "https://dc.lft.to/lastmile_qr_scan"}, "lon": -77.02300416666667, "type": "electric_scooter", "fusion_lat": 0.0, "lat": 38.90148383333333, "name": "77a93def96d9c137aebc5929165c1124", "fusion_lon": 0.0, "bike_id": "77a93def96d9c137aebc5929165c1124", "is_disabled": 0, "is_reserved": 0}, {"rental_uris": {"ios": "https://dc.lft.to/lastmile_qr_scan", "android": "https://dc.lft.to/lastmile_qr_scan"}, "lon": -77.02373183333333, "type": "electric_scooter", "fusion_lat": 0.0, "lat": 38.920567, "name": "cc58bf4b58f3abe1c0d16c96fd95df67", "fusion_lon": 0.0, "bike_id": "cc58bf4b58f3abe1c0d16c96fd95df67", "is_disabled": 0, "is_reserved": 0}, {"rental_uris": {"ios": "https://dc.lft.to/lastmile_qr_scan", "android": "https://dc.lft.to/lastmile_qr_scan"}, "lon": -76.92373433333333, "type": "electric_bike", "fusion_lat": 0.0, "lat": 38.88372316666667, "name": "d74f075b7582ef8237883dc23207416b", "fusion_lon": 0.0, "bike_id": "d74f075b7582ef8237883dc23207416b", "is_disabled": 0, "is_reserved": 0}, {"rental_uris": {"ios": "https://dc.lft.to/lastmile_qr_scan", "android": "https://dc.lft.to/lastmile_qr_scan"}, "lon": -76.9317715, "type": "electric_scooter", "fusion_lat": 0.0, "lat": 38.898828333333334, "name": "1156c8130b82c764ffa4ab202116405c", "fusion_lon": 0.0, "bike_id": "1156c8130b82c764ffa4ab202116405c", "is_disabled": 0, "is_reserved": 0}, {"rental_uris": {"ios": "https://dc.lft.to/lastmile_qr_scan", "android": "https://dc.lft.to/lastmile_qr_scan"}, "lon": -77.09875933333333, "type": "electric_bike", "fusion_lat": 0.0, "lat": 38.947892, "name": "aa9b599fcb38b2b4f9c2fd613d1291bc", "fusion_lon": 0.0, "bike_id": "aa9b599fcb38b2b4f9c2fd613d1291bc", "is_disabled": 0, "is_reserved": 0}, {"rental_uris": {"ios": "https://dc.lft.to/lastmile_qr_scan", "android": "https://dc.lft.to/lastmile_qr_scan"}, "lon": -77.01713416666666, "type": "electric_scooter", "fusion_lat": 0.0, "lat": 38.89224316666667, "name": "a95ac4040951ef81f28f3702bb258e9e", "fusion_lon": 0.0, "bike_id": "a95ac4040951ef81f28f3702bb258e9e", "is_disabled": 0, "is_reserved": 0}, {"rental_uris": {"ios": "https://dc.lft.to/lastmile_qr_scan", "android": "https://dc.lft.to/lastmile_qr_scan"}, "lon": -77.04678716666666, "type": "electric_scooter", "fusion_lat": 0.0, "lat": 38.90967416666667, "name": "b6ed07bd521da7233d6563a4e13fba28", "fusion_lon": 0.0, "bike_id": "b6ed07bd521da7233d6563a4e13fba28", "is_disabled": 0, "is_reserved": 0}, {"rental_uris": {"ios": "https://dc.lft.to/lastmile_qr_scan", "android": "https://dc.lft.to/lastmile_qr_scan"}, "lon": -77.02001583333333, "type": "electric_scooter", "fusion_lat": 0.0, "lat": 38.91419633333334, "name": "eca5dc1e873f36102388704b91bde6f7", "fusion_lon": 0.0, "bike_id": "eca5dc1e873f36102388704b91bde6f7", "is_disabled": 0, "is_reserved": 0}, {"rental_uris": {"ios": "https://dc.lft.to/lastmile_qr_scan", "android": "https://dc.lft.to/lastmile_qr_scan"}, "lon": -77.00243983333333, "type": "electric_scooter", "fusion_lat": 0.0, "lat": 38.9117835, "name": "5f0860b82a7a6b06549196dbb7c35b9c", "fusion_lon": 0.0, "bike_id": "5f0860b82a7a6b06549196dbb7c35b9c", "is_disabled": 0, "is_reserved": 0}, {"rental_uris": {"ios": "https://dc.lft.to/lastmile_qr_scan", "android": "https://dc.lft.to/lastmile_qr_scan"}, "lon": -76.99579783333333, "type": "electric_scooter", "fusion_lat": 0.0, "lat": 38.900277, "name": "fc0411d0991078415a146f0dcdfdc1bc", "fusion_lon": 0.0, "bike_id": "fc0411d0991078415a146f0dcdfdc1bc", "is_disabled": 0, "is_reserved": 0}, {"rental_uris": {"ios": "https://dc.lft.to/lastmile_qr_scan", "android": "https://dc.lft.to/lastmile_qr_scan"}, "lon": -77.021748, "type": "electric_scooter", "fusion_lat": 0.0, "lat": 38.8799025, "name": "2220fa7f64af7f42acc7f658fd69cd04", "fusion_lon": 0.0, "bike_id": "2220fa7f64af7f42acc7f658fd69cd04", "is_disabled": 0, "is_reserved": 0}, {"rental_uris": {"ios": "https://dc.lft.to/lastmile_qr_scan", "android": "https://dc.lft.to/lastmile_qr_scan"}, "lon": -77.073795, "type": "electric_bike", "fusion_lat": 0.0, "lat": 38.961934, "name": "b3725930b2976b2be40b9d1aefa26e1a", "fusion_lon": 0.0, "bike_id": "b3725930b2976b2be40b9d1aefa26e1a", "is_disabled": 0, "is_reserved": 0}, {"rental_uris": {"ios": "https://dc.lft.to/lastmile_qr_scan", "android": "https://dc.lft.to/lastmile_qr_scan"}, "lon": -77.02156066666667, "type": "electric_scooter", "fusion_lat": 0.0, "lat": 38.926034333333334, "name": "b0a194b141de5aa9d736084aece8a43e", "fusion_lon": 0.0, "bike_id": "b0a194b141de5aa9d736084aece8a43e", "is_disabled": 0, "is_reserved": 0}, {"rental_uris": {"ios": "https://dc.lft.to/lastmile_qr_scan", "android": "https://dc.lft.to/lastmile_qr_scan"}, "lon": -76.99872516666667, "type": "electric_scooter", "fusion_lat": 0.0, "lat": 38.90748966666666, "name": "bf9e74b06613bd68117a2581f6fe1b38", "fusion_lon": 0.0, "bike_id": "bf9e74b06613bd68117a2581f6fe1b38", "is_disabled": 0, "is_reserved": 0}, {"rental_uris": {"ios": "https://dc.lft.to/lastmile_qr_scan", "android": "https://dc.lft.to/lastmile_qr_scan"}, "lon": -77.028436, "type": "electric_scooter", "fusion_lat": 0.0, "lat": 38.942623166666664, "name": "38e14717fdc3a155792e013cdb64fb60", "fusion_lon": 0.0, "bike_id": "38e14717fdc3a155792e013cdb64fb60", "is_disabled": 0, "is_reserved": 0}, {"rental_uris": {"ios": "https://dc.lft.to/lastmile_qr_scan", "android": "https://dc.lft.to/lastmile_qr_scan"}, "lon": -77.041641, "type": "electric_scooter", "fusion_lat": 0.0, "lat": 38.908347, "name": "d1e2b66cc5458ce933a77d09421a3476", "fusion_lon": 0.0, "bike_id": "d1e2b66cc5458ce933a77d09421a3476", "is_disabled": 0, "is_reserved": 0}, {"rental_uris": {"ios": "https://dc.lft.to/lastmile_qr_scan", "android": "https://dc.lft.to/lastmile_qr_scan"}, "lon": -76.99484666666666, "type": "electric_scooter", "fusion_lat": 0.0, "lat": 38.862394333333334, "name": "efd474c322a2731eccd939bba59a049f", "fusion_lon": 0.0, "bike_id": "efd474c322a2731eccd939bba59a049f", "is_disabled": 0, "is_reserved": 0}, {"rental_uris": {"ios": "https://dc.lft.to/lastmile_qr_scan", "android": "https://dc.lft.to/lastmile_qr_scan"}, "lon": -77.00578733333333, "type": "electric_scooter", "fusion_lat": 0.0, "lat": 38.88600066666667, "name": "a3304c10f0b592fe4b73c7b510d74b17", "fusion_lon": 0.0, "bike_id": "a3304c10f0b592fe4b73c7b510d74b17", "is_disabled": 0, "is_reserved": 0}, {"rental_uris": {"ios": "https://dc.lft.to/lastmile_qr_scan", "android": "https://dc.lft.to/lastmile_qr_scan"}, "lon": -76.93174083333334, "type": "electric_scooter", "fusion_lat": 0.0, "lat": 38.89883966666667, "name": "a4776cb689afe58393bfd94c29e771da", "fusion_lon": 0.0, "bike_id": "a4776cb689afe58393bfd94c29e771da", "is_disabled": 0, "is_reserved": 0}, {"rental_uris": {"ios": "https://dc.lft.to/lastmile_qr_scan", "android": "https://dc.lft.to/lastmile_qr_scan"}, "lon": -77.03188033333333, "type": "electric_scooter", "fusion_lat": 0.0, "lat": 38.919199, "name": "3fae09b14bd62cd8c127574987b1b9ce", "fusion_lon": 0.0, "bike_id": "3fae09b14bd62cd8c127574987b1b9ce", "is_disabled": 0, "is_reserved": 0}, {"rental_uris": {"ios": "https://dc.lft.to/lastmile_qr_scan", "android": "https://dc.lft.to/lastmile_qr_scan"}, "lon": -77.35314183333334, "type": "electric_bike", "fusion_lat": 0.0, "lat": 38.94999933333333, "name": "665e75bcd3231e76e566adce9bc889e2", "fusion_lon": 0.0, "bike_id": "665e75bcd3231e76e566adce9bc889e2", "is_disabled": 0, "is_reserved": 0}, {"rental_uris": {"ios": "https://dc.lft.to/lastmile_qr_scan", "android": "https://dc.lft.to/lastmile_qr_scan"}, "lon": -77.0296085, "type": "electric_scooter", "fusion_lat": 0.0, "lat": 38.90613966666667, "name": "dbf650f34182b8af7ba136aabe53886c", "fusion_lon": 0.0, "bike_id": "dbf650f34182b8af7ba136aabe53886c", "is_disabled": 0, "is_reserved": 0}, {"rental_uris": {"ios": "https://dc.lft.to/lastmile_qr_scan", "android": "https://dc.lft.to/lastmile_qr_scan"}, "lon": -77.03784466666667, "type": "electric_scooter", "fusion_lat": 0.0, "lat": 38.9302585, "name": "b5e01c63ca60be73c79935bc012f65f6", "fusion_lon": 0.0, "bike_id": "b5e01c63ca60be73c79935bc012f65f6", "is_disabled": 0, "is_reserved": 0}, {"rental_uris": {"ios": "https://dc.lft.to/lastmile_qr_scan", "android": "https://dc.lft.to/lastmile_qr_scan"}, "lon": -76.931734, "type": "electric_scooter", "fusion_lat": 0.0, "lat": 38.89885366666667, "name": "f3f80a2c5c6466ab3285e792e3682b8e", "fusion_lon": 0.0, "bike_id": "f3f80a2c5c6466ab3285e792e3682b8e", "is_disabled": 0, "is_reserved": 0}, {"rental_uris": {"ios": "https://dc.lft.to/lastmile_qr_scan", "android": "https://dc.lft.to/lastmile_qr_scan"}, "lon": -77.045484, "type": "electric_scooter", "fusion_lat": 0.0, "lat": 38.9126775, "name": "02d4b7bee13b677f0a13ba11e01e1689", "fusion_lon": 0.0, "bike_id": "02d4b7bee13b677f0a13ba11e01e1689", "is_disabled": 0, "is_reserved": 0}, {"rental_uris": {"ios": "https://dc.lft.to/lastmile_qr_scan", "android": "https://dc.lft.to/lastmile_qr_scan"}, "lon": -76.99793516666666, "type": "electric_scooter", "fusion_lat": 0.0, "lat": 38.908605333333334, "name": "d76454bee14304d8649fda9a91d552d8", "fusion_lon": 0.0, "bike_id": "d76454bee14304d8649fda9a91d552d8", "is_disabled": 0, "is_reserved": 0}, {"rental_uris": {"ios": "https://dc.lft.to/lastmile_qr_scan", "android": "https://dc.lft.to/lastmile_qr_scan"}, "lon": -77.01603583333333, "type": "electric_scooter", "fusion_lat": 0.0, "lat": 38.91131016666667, "name": "a8cbd4e6c8554974817cc83b5aed69d0", "fusion_lon": 0.0, "bike_id": "a8cbd4e6c8554974817cc83b5aed69d0", "is_disabled": 0, "is_reserved": 0}, {"rental_uris": {"ios": "https://dc.lft.to/lastmile_qr_scan", "android": "https://dc.lft.to/lastmile_qr_scan"}, "lon": -76.93737366666667, "type": "electric_scooter", "fusion_lat": 0.0, "lat": 38.89017666666667, "name": "5bed4216c140c51d4c95bcb4e3a0487d", "fusion_lon": 0.0, "bike_id": "5bed4216c140c51d4c95bcb4e3a0487d", "is_disabled": 0, "is_reserved": 0}, {"rental_uris": {"ios": "https://dc.lft.to/lastmile_qr_scan", "android": "https://dc.lft.to/lastmile_qr_scan"}, "lon": -77.046455, "type": "electric_scooter", "fusion_lat": 0.0, "lat": 38.9158005, "name": "9b0cada9c3ecbac095b35ef65cf94270", "fusion_lon": 0.0, "bike_id": "9b0cada9c3ecbac095b35ef65cf94270", "is_disabled": 0, "is_reserved": 0}, {"rental_uris": {"ios": "https://dc.lft.to/lastmile_qr_scan", "android": "https://dc.lft.to/lastmile_qr_scan"}, "lon": -77.00504, "type": "electric_scooter", "fusion_lat": 0.0, "lat": 38.87537716666667, "name": "0effd9b0c9c3f42b04d848924c1be108", "fusion_lon": 0.0, "bike_id": "0effd9b0c9c3f42b04d848924c1be108", "is_disabled": 0, "is_reserved": 0}, {"rental_uris": {"ios": "https://dc.lft.to/lastmile_qr_scan", "android": "https://dc.lft.to/lastmile_qr_scan"}, "lon": -77.0343505, "type": "electric_scooter", "fusion_lat": 0.0, "lat": 38.927428, "name": "3e8e54855c7202261931c56c03f7c7ff", "fusion_lon": 0.0, "bike_id": "3e8e54855c7202261931c56c03f7c7ff", "is_disabled": 0, "is_reserved": 0}, {"rental_uris": {"ios": "https://dc.lft.to/lastmile_qr_scan", "android": "https://dc.lft.to/lastmile_qr_scan"}, "lon": -76.99172233333333, "type": "electric_scooter", "fusion_lat": 0.0, "lat": 38.879209333333336, "name": "66654cadbf9b3349e57e8e133d296f7f", "fusion_lon": 0.0, "bike_id": "66654cadbf9b3349e57e8e133d296f7f", "is_disabled": 0, "is_reserved": 0}, {"rental_uris": {"ios": "https://dc.lft.to/lastmile_qr_scan", "android": "https://dc.lft.to/lastmile_qr_scan"}, "lon": -77.02065866666666, "type": "electric_scooter", "fusion_lat": 0.0, "lat": 38.904235, "name": "2ad397bfbd9e867e35536e540e0a3e4c", "fusion_lon": 0.0, "bike_id": "2ad397bfbd9e867e35536e540e0a3e4c", "is_disabled": 0, "is_reserved": 0}, {"rental_uris": {"ios": "https://dc.lft.to/lastmile_qr_scan", "android": "https://dc.lft.to/lastmile_qr_scan"}, "lon": -77.02494, "type": "electric_scooter", "fusion_lat": 0.0, "lat": 38.9428805, "name": "105015a3dd6d08f36d3d4eced853ba9c", "fusion_lon": 0.0, "bike_id": "105015a3dd6d08f36d3d4eced853ba9c", "is_disabled": 0, "is_reserved": 0}, {"rental_uris": {"ios": "https://dc.lft.to/lastmile_qr_scan", "android": "https://dc.lft.to/lastmile_qr_scan"}, "lon": -77.046198, "type": "electric_bike", "fusion_lat": 0.0, "lat": 38.999072166666664, "name": "8e69a632537d3b1608265ec6bd3a1447", "fusion_lon": 0.0, "bike_id": "8e69a632537d3b1608265ec6bd3a1447", "is_disabled": 0, "is_reserved": 0}, {"rental_uris": {"ios": "https://dc.lft.to/lastmile_qr_scan", "android": "https://dc.lft.to/lastmile_qr_scan"}, "lon": -77.00250316666667, "type": "electric_scooter", "fusion_lat": 0.0, "lat": 38.90130083333333, "name": "cd370d692ab2c434d1be5a26831d1d73", "fusion_lon": 0.0, "bike_id": "cd370d692ab2c434d1be5a26831d1d73", "is_disabled": 0, "is_reserved": 0}, {"rental_uris": {"ios": "https://dc.lft.to/lastmile_qr_scan", "android": "https://dc.lft.to/lastmile_qr_scan"}, "lon": -77.00069666666667, "type": "electric_scooter", "fusion_lat": 0.0, "lat": 38.923878, "name": "1aef25c3a824bef46eb87febd6569c49", "fusion_lon": 0.0, "bike_id": "1aef25c3a824bef46eb87febd6569c49", "is_disabled": 0, "is_reserved": 0}, {"rental_uris": {"ios": "https://dc.lft.to/lastmile_qr_scan", "android": "https://dc.lft.to/lastmile_qr_scan"}, "lon": -77.02683766666667, "type": "electric_scooter", "fusion_lat": 0.0, "lat": 38.9000985, "name": "8a72469ced60970c23c771f8fc7f2b0c", "fusion_lon": 0.0, "bike_id": "8a72469ced60970c23c771f8fc7f2b0c", "is_disabled": 0, "is_reserved": 0}, {"rental_uris": {"ios": "https://dc.lft.to/lastmile_qr_scan", "android": "https://dc.lft.to/lastmile_qr_scan"}, "lon": -77.02314366666667, "type": "electric_scooter", "fusion_lat": 0.0, "lat": 38.92789916666667, "name": "8d13a63b1c38a1368b042c566c49eed5", "fusion_lon": 0.0, "bike_id": "8d13a63b1c38a1368b042c566c49eed5", "is_disabled": 0, "is_reserved": 0}, {"rental_uris": {"ios": "https://dc.lft.to/lastmile_qr_scan", "android": "https://dc.lft.to/lastmile_qr_scan"}, "lon": -77.04157483333333, "type": "electric_scooter", "fusion_lat": 0.0, "lat": 38.9102425, "name": "7a53cc31a521aae91b34ac0b5c0109cc", "fusion_lon": 0.0, "bike_id": "7a53cc31a521aae91b34ac0b5c0109cc", "is_disabled": 0, "is_reserved": 0}, {"rental_uris": {"ios": "https://dc.lft.to/lastmile_qr_scan", "android": "https://dc.lft.to/lastmile_qr_scan"}, "lon": -77.02392033333334, "type": "electric_scooter", "fusion_lat": 0.0, "lat": 38.906983, "name": "5f8e61beed87044197fb84e42fc76bf5", "fusion_lon": 0.0, "bike_id": "5f8e61beed87044197fb84e42fc76bf5", "is_disabled": 0, "is_reserved": 0}, {"rental_uris": {"ios": "https://dc.lft.to/lastmile_qr_scan", "android": "https://dc.lft.to/lastmile_qr_scan"}, "lon": -77.0302695, "type": "electric_scooter", "fusion_lat": 0.0, "lat": 38.9172355, "name": "61628ab50939879c2c97adedf60a166f", "fusion_lon": 0.0, "bike_id": "61628ab50939879c2c97adedf60a166f", "is_disabled": 0, "is_reserved": 0}, {"rental_uris": {"ios": "https://dc.lft.to/lastmile_qr_scan", "android": "https://dc.lft.to/lastmile_qr_scan"}, "lon": -77.06482016666666, "type": "electric_bike", "fusion_lat": 0.0, "lat": 38.973848333333336, "name": "5cc9a0148f206dc5bef9384bf0c4b190", "fusion_lon": 0.0, "bike_id": "5cc9a0148f206dc5bef9384bf0c4b190", "is_disabled": 0, "is_reserved": 0}, {"rental_uris": {"ios": "https://dc.lft.to/lastmile_qr_scan", "android": "https://dc.lft.to/lastmile_qr_scan"}, "lon": -77.05023033333333, "type": "electric_scooter", "fusion_lat": 0.0, "lat": 38.903809833333334, "name": "58ad7ae5edd9d459284d10fd333a5c4a", "fusion_lon": 0.0, "bike_id": "58ad7ae5edd9d459284d10fd333a5c4a", "is_disabled": 0, "is_reserved": 0}, {"rental_uris": {"ios": "https://dc.lft.to/lastmile_qr_scan", "android": "https://dc.lft.to/lastmile_qr_scan"}, "lon": -77.0714875, "type": "electric_scooter", "fusion_lat": 0.0, "lat": 38.90773016666667, "name": "7359a2c62c8dddad1722f62c3f6fe1c3", "fusion_lon": 0.0, "bike_id": "7359a2c62c8dddad1722f62c3f6fe1c3", "is_disabled": 0, "is_reserved": 0}, {"rental_uris": {"ios": "https://dc.lft.to/lastmile_qr_scan", "android": "https://dc.lft.to/lastmile_qr_scan"}, "lon": -77.0955985, "type": "electric_bike", "fusion_lat": 0.0, "lat": 38.91704166666667, "name": "01a1ff6b7a1d512e984e57d696dce7e6", "fusion_lon": 0.0, "bike_id": "01a1ff6b7a1d512e984e57d696dce7e6", "is_disabled": 0, "is_reserved": 0}, {"rental_uris": {"ios": "https://dc.lft.to/lastmile_qr_scan", "android": "https://dc.lft.to/lastmile_qr_scan"}, "lon": -76.91651733333333, "type": "electric_bike", "fusion_lat": 0.0, "lat": 38.868654166666666, "name": "ea525dbe084cf236b290be679efd63cd", "fusion_lon": 0.0, "bike_id": "ea525dbe084cf236b290be679efd63cd", "is_disabled": 0, "is_reserved": 0}, {"rental_uris": {"ios": "https://dc.lft.to/lastmile_qr_scan", "android": "https://dc.lft.to/lastmile_qr_scan"}, "lon": -77.04489983333333, "type": "electric_scooter", "fusion_lat": 0.0, "lat": 38.919199166666665, "name": "2f2dcb96bc789e5828fb87f2e7a33c40", "fusion_lon": 0.0, "bike_id": "2f2dcb96bc789e5828fb87f2e7a33c40", "is_disabled": 0, "is_reserved": 0}, {"rental_uris": {"ios": "https://dc.lft.to/lastmile_qr_scan", "android": "https://dc.lft.to/lastmile_qr_scan"}, "lon": -77.03348466666667, "type": "electric_scooter", "fusion_lat": 0.0, "lat": 38.901291, "name": "8e54aad93c14d4e9aabfff48b411a593", "fusion_lon": 0.0, "bike_id": "8e54aad93c14d4e9aabfff48b411a593", "is_disabled": 0, "is_reserved": 0}, {"rental_uris": {"ios": "https://dc.lft.to/lastmile_qr_scan", "android": "https://dc.lft.to/lastmile_qr_scan"}, "lon": -77.00209566666666, "type": "electric_scooter", "fusion_lat": 0.0, "lat": 38.90222466666667, "name": "eb4f273a6ff34295ac0c017dc89ab21e", "fusion_lon": 0.0, "bike_id": "eb4f273a6ff34295ac0c017dc89ab21e", "is_disabled": 0, "is_reserved": 0}, {"rental_uris": {"ios": "https://dc.lft.to/lastmile_qr_scan", "android": "https://dc.lft.to/lastmile_qr_scan"}, "lon": -77.00576683333334, "type": "electric_scooter", "fusion_lat": 0.0, "lat": 38.8722015, "name": "a0971a952c2ae855eb174872392d9d6d", "fusion_lon": 0.0, "bike_id": "a0971a952c2ae855eb174872392d9d6d", "is_disabled": 0, "is_reserved": 0}, {"rental_uris": {"ios": "https://dc.lft.to/lastmile_qr_scan", "android": "https://dc.lft.to/lastmile_qr_scan"}, "lon": -77.127322, "type": "electric_bike", "fusion_lat": 0.0, "lat": 38.89559916666666, "name": "156ad460c9fe65ea599dae2e1dfc56c1", "fusion_lon": 0.0, "bike_id": "156ad460c9fe65ea599dae2e1dfc56c1", "is_disabled": 0, "is_reserved": 0}, {"rental_uris": {"ios": "https://dc.lft.to/lastmile_qr_scan", "android": "https://dc.lft.to/lastmile_qr_scan"}, "lon": -77.02230416666667, "type": "electric_scooter", "fusion_lat": 0.0, "lat": 38.912708, "name": "b2655af5ca0f0087226fce04ff6c3007", "fusion_lon": 0.0, "bike_id": "b2655af5ca0f0087226fce04ff6c3007", "is_disabled": 0, "is_reserved": 0}, {"rental_uris": {"ios": "https://dc.lft.to/lastmile_qr_scan", "android": "https://dc.lft.to/lastmile_qr_scan"}, "lon": -76.94890933333333, "type": "electric_scooter", "fusion_lat": 0.0, "lat": 38.895286666666664, "name": "75752090a2ec1585526732e864c7727d", "fusion_lon": 0.0, "bike_id": "75752090a2ec1585526732e864c7727d", "is_disabled": 0, "is_reserved": 0}, {"rental_uris": {"ios": "https://dc.lft.to/lastmile_qr_scan", "android": "https://dc.lft.to/lastmile_qr_scan"}, "lon": -77.0325405, "type": "electric_scooter", "fusion_lat": 0.0, "lat": 38.932414666666666, "name": "f5ff16a53903d25c54ac60854f9c8558", "fusion_lon": 0.0, "bike_id": "f5ff16a53903d25c54ac60854f9c8558", "is_disabled": 0, "is_reserved": 0}, {"rental_uris": {"ios": "https://dc.lft.to/lastmile_qr_scan", "android": "https://dc.lft.to/lastmile_qr_scan"}, "lon": -76.9371795, "type": "electric_scooter", "fusion_lat": 0.0, "lat": 38.895871166666666, "name": "7241bac05795c7b0460276a4ba83c494", "fusion_lon": 0.0, "bike_id": "7241bac05795c7b0460276a4ba83c494", "is_disabled": 0, "is_reserved": 0}, {"rental_uris": {"ios": "https://dc.lft.to/lastmile_qr_scan", "android": "https://dc.lft.to/lastmile_qr_scan"}, "lon": -77.0245765, "type": "electric_scooter", "fusion_lat": 0.0, "lat": 38.9025615, "name": "698f0d0f6057a7e616b26125ce3f92ae", "fusion_lon": 0.0, "bike_id": "698f0d0f6057a7e616b26125ce3f92ae", "is_disabled": 0, "is_reserved": 0}, {"rental_uris": {"ios": "https://dc.lft.to/lastmile_qr_scan", "android": "https://dc.lft.to/lastmile_qr_scan"}, "lon": -77.039859, "type": "electric_scooter", "fusion_lat": 0.0, "lat": 38.9035825, "name": "f2e394c1053fed5626d31aaeec4599c2", "fusion_lon": 0.0, "bike_id": "f2e394c1053fed5626d31aaeec4599c2", "is_disabled": 0, "is_reserved": 0}, {"rental_uris": {"ios": "https://dc.lft.to/lastmile_qr_scan", "android": "https://dc.lft.to/lastmile_qr_scan"}, "lon": -77.041753, "type": "electric_scooter", "fusion_lat": 0.0, "lat": 38.905463166666664, "name": "1875d4c6ec9240914a5490c1fd24219b", "fusion_lon": 0.0, "bike_id": "1875d4c6ec9240914a5490c1fd24219b", "is_disabled": 0, "is_reserved": 0}, {"rental_uris": {"ios": "https://dc.lft.to/lastmile_qr_scan", "android": "https://dc.lft.to/lastmile_qr_scan"}, "lon": -77.04110583333333, "type": "electric_scooter", "fusion_lat": 0.0, "lat": 38.92447966666667, "name": "7622bc799641f9d47c6093cd20d59f1e", "fusion_lon": 0.0, "bike_id": "7622bc799641f9d47c6093cd20d59f1e", "is_disabled": 0, "is_reserved": 0}, {"rental_uris": {"ios": "https://dc.lft.to/lastmile_qr_scan", "android": "https://dc.lft.to/lastmile_qr_scan"}, "lon": -77.031445, "type": "electric_scooter", "fusion_lat": 0.0, "lat": 38.918272333333334, "name": "98de49f6af0eef48f9a6df0463811ea6", "fusion_lon": 0.0, "bike_id": "98de49f6af0eef48f9a6df0463811ea6", "is_disabled": 0, "is_reserved": 0}, {"rental_uris": {"ios": "https://dc.lft.to/lastmile_qr_scan", "android": "https://dc.lft.to/lastmile_qr_scan"}, "lon": -76.9984375, "type": "electric_scooter", "fusion_lat": 0.0, "lat": 38.89998166666667, "name": "9f34e5946c0ead47aa2857cf5b605365", "fusion_lon": 0.0, "bike_id": "9f34e5946c0ead47aa2857cf5b605365", "is_disabled": 0, "is_reserved": 0}, {"rental_uris": {"ios": "https://dc.lft.to/lastmile_qr_scan", "android": "https://dc.lft.to/lastmile_qr_scan"}, "lon": -76.9793985, "type": "electric_scooter", "fusion_lat": 0.0, "lat": 38.9067025, "name": "6e4be66c1421a25d6aeae780b8b9a476", "fusion_lon": 0.0, "bike_id": "6e4be66c1421a25d6aeae780b8b9a476", "is_disabled": 0, "is_reserved": 0}, {"rental_uris": {"ios": "https://dc.lft.to/lastmile_qr_scan", "android": "https://dc.lft.to/lastmile_qr_scan"}, "lon": -77.03350283333333, "type": "electric_scooter", "fusion_lat": 0.0, "lat": 38.91191516666667, "name": "93aea09b2a9d66df23290cb299a01ddd", "fusion_lon": 0.0, "bike_id": "93aea09b2a9d66df23290cb299a01ddd", "is_disabled": 0, "is_reserved": 0}, {"rental_uris": {"ios": "https://dc.lft.to/lastmile_qr_scan", "android": "https://dc.lft.to/lastmile_qr_scan"}, "lon": -77.03479116666666, "type": "electric_scooter", "fusion_lat": 0.0, "lat": 38.912754166666666, "name": "1564c7e0a26b91d62db2cf40a58f8535", "fusion_lon": 0.0, "bike_id": "1564c7e0a26b91d62db2cf40a58f8535", "is_disabled": 0, "is_reserved": 0}, {"rental_uris": {"ios": "https://dc.lft.to/lastmile_qr_scan", "android": "https://dc.lft.to/lastmile_qr_scan"}, "lon": -76.97411016666666, "type": "electric_scooter", "fusion_lat": 0.0, "lat": 38.901584, "name": "f9f4ddddc2db15c4ba0bf2d363478ed4", "fusion_lon": 0.0, "bike_id": "f9f4ddddc2db15c4ba0bf2d363478ed4", "is_disabled": 0, "is_reserved": 0}, {"rental_uris": {"ios": "https://dc.lft.to/lastmile_qr_scan", "android": "https://dc.lft.to/lastmile_qr_scan"}, "lon": -77.0336615, "type": "electric_scooter", "fusion_lat": 0.0, "lat": 38.91978916666667, "name": "7107fa93756e9e6c27925893d8122a68", "fusion_lon": 0.0, "bike_id": "7107fa93756e9e6c27925893d8122a68", "is_disabled": 0, "is_reserved": 0}, {"rental_uris": {"ios": "https://dc.lft.to/lastmile_qr_scan", "android": "https://dc.lft.to/lastmile_qr_scan"}, "lon": -77.03306216666667, "type": "electric_scooter", "fusion_lat": 0.0, "lat": 38.900242166666665, "name": "85a0b01eacfac22f4d1baedc2658c371", "fusion_lon": 0.0, "bike_id": "85a0b01eacfac22f4d1baedc2658c371", "is_disabled": 0, "is_reserved": 0}, {"rental_uris": {"ios": "https://dc.lft.to/lastmile_qr_scan", "android": "https://dc.lft.to/lastmile_qr_scan"}, "lon": -76.9749925, "type": "electric_bike", "fusion_lat": 0.0, "lat": 38.920067833333334, "name": "b39f0faf0e2c8845bad4e67d42303ce1", "fusion_lon": 0.0, "bike_id": "b39f0faf0e2c8845bad4e67d42303ce1", "is_disabled": 0, "is_reserved": 0}, {"rental_uris": {"ios": "https://dc.lft.to/lastmile_qr_scan", "android": "https://dc.lft.to/lastmile_qr_scan"}, "lon": -77.00236016666666, "type": "electric_scooter", "fusion_lat": 0.0, "lat": 38.91182466666667, "name": "4a4da7bba98bb0a2a2f8685830ff00d3", "fusion_lon": 0.0, "bike_id": "4a4da7bba98bb0a2a2f8685830ff00d3", "is_disabled": 0, "is_reserved": 0}, {"rental_uris": {"ios": "https://dc.lft.to/lastmile_qr_scan", "android": "https://dc.lft.to/lastmile_qr_scan"}, "lon": -77.01794083333333, "type": "electric_scooter", "fusion_lat": 0.0, "lat": 38.89239716666667, "name": "4ef6da0ae4d412cfbadb76cc77811f7c", "fusion_lon": 0.0, "bike_id": "4ef6da0ae4d412cfbadb76cc77811f7c", "is_disabled": 0, "is_reserved": 0}, {"rental_uris": {"ios": "https://dc.lft.to/lastmile_qr_scan", "android": "https://dc.lft.to/lastmile_qr_scan"}, "lon": -77.03177416666666, "type": "electric_scooter", "fusion_lat": 0.0, "lat": 38.912415333333335, "name": "da75e02d31fa4650ed309499216f50df", "fusion_lon": 0.0, "bike_id": "da75e02d31fa4650ed309499216f50df", "is_disabled": 0, "is_reserved": 0}, {"rental_uris": {"ios": "https://dc.lft.to/lastmile_qr_scan", "android": "https://dc.lft.to/lastmile_qr_scan"}, "lon": -77.046598, "type": "electric_scooter", "fusion_lat": 0.0, "lat": 38.89655533333333, "name": "471e8ffae89816d66fa2fe232123c458", "fusion_lon": 0.0, "bike_id": "471e8ffae89816d66fa2fe232123c458", "is_disabled": 0, "is_reserved": 0}, {"rental_uris": {"ios": "https://dc.lft.to/lastmile_qr_scan", "android": "https://dc.lft.to/lastmile_qr_scan"}, "lon": -77.046445, "type": "electric_scooter", "fusion_lat": 0.0, "lat": 38.915813666666665, "name": "161be1cae07376d21795fb7d6693e3ef", "fusion_lon": 0.0, "bike_id": "161be1cae07376d21795fb7d6693e3ef", "is_disabled": 0, "is_reserved": 0}, {"rental_uris": {"ios": "https://dc.lft.to/lastmile_qr_scan", "android": "https://dc.lft.to/lastmile_qr_scan"}, "lon": -76.97323316666666, "type": "electric_scooter", "fusion_lat": 0.0, "lat": 38.930285166666664, "name": "b609710ced1173f6ab90b33a87fe5398", "fusion_lon": 0.0, "bike_id": "b609710ced1173f6ab90b33a87fe5398", "is_disabled": 0, "is_reserved": 0}, {"rental_uris": {"ios": "https://dc.lft.to/lastmile_qr_scan", "android": "https://dc.lft.to/lastmile_qr_scan"}, "lon": -76.98567583333333, "type": "electric_scooter", "fusion_lat": 0.0, "lat": 38.86143533333333, "name": "28bd617464c46ccabb4f883b99447a54", "fusion_lon": 0.0, "bike_id": "28bd617464c46ccabb4f883b99447a54", "is_disabled": 0, "is_reserved": 0}, {"rental_uris": {"ios": "https://dc.lft.to/lastmile_qr_scan", "android": "https://dc.lft.to/lastmile_qr_scan"}, "lon": -76.97502166666666, "type": "electric_bike", "fusion_lat": 0.0, "lat": 38.919348166666666, "name": "1849a1b9a4436981faab3d9f2942d8fc", "fusion_lon": 0.0, "bike_id": "1849a1b9a4436981faab3d9f2942d8fc", "is_disabled": 0, "is_reserved": 0}, {"rental_uris": {"ios": "https://dc.lft.to/lastmile_qr_scan", "android": "https://dc.lft.to/lastmile_qr_scan"}, "lon": -77.0572, "type": "electric_scooter", "fusion_lat": 0.0, "lat": 38.905301, "name": "99b0fbb581fc7c5ee0a869397dd572a4", "fusion_lon": 0.0, "bike_id": "99b0fbb581fc7c5ee0a869397dd572a4", "is_disabled": 0, "is_reserved": 0}, {"rental_uris": {"ios": "https://dc.lft.to/lastmile_qr_scan", "android": "https://dc.lft.to/lastmile_qr_scan"}, "lon": -76.99611633333333, "type": "electric_scooter", "fusion_lat": 0.0, "lat": 38.886237666666666, "name": "586a4529f52ac1bdb335c4cf113fda2a", "fusion_lon": 0.0, "bike_id": "586a4529f52ac1bdb335c4cf113fda2a", "is_disabled": 0, "is_reserved": 0}, {"rental_uris": {"ios": "https://dc.lft.to/lastmile_qr_scan", "android": "https://dc.lft.to/lastmile_qr_scan"}, "lon": -77.0319005, "type": "electric_scooter", "fusion_lat": 0.0, "lat": 38.916828, "name": "89e051cb0175e179c1ed478c8b6aaed0", "fusion_lon": 0.0, "bike_id": "89e051cb0175e179c1ed478c8b6aaed0", "is_disabled": 0, "is_reserved": 0}, {"rental_uris": {"ios": "https://dc.lft.to/lastmile_qr_scan", "android": "https://dc.lft.to/lastmile_qr_scan"}, "lon": -76.99873433333333, "type": "electric_scooter", "fusion_lat": 0.0, "lat": 38.900298666666664, "name": "6170a17a364a04b9819953358a2d6392", "fusion_lon": 0.0, "bike_id": "6170a17a364a04b9819953358a2d6392", "is_disabled": 0, "is_reserved": 0}, {"rental_uris": {"ios": "https://dc.lft.to/lastmile_qr_scan", "android": "https://dc.lft.to/lastmile_qr_scan"}, "lon": -76.975541, "type": "electric_scooter", "fusion_lat": 0.0, "lat": 38.90445183333333, "name": "67619bc27d836e60e49599da3a0fa614", "fusion_lon": 0.0, "bike_id": "67619bc27d836e60e49599da3a0fa614", "is_disabled": 0, "is_reserved": 0}, {"rental_uris": {"ios": "https://dc.lft.to/lastmile_qr_scan", "android": "https://dc.lft.to/lastmile_qr_scan"}, "lon": -77.01933383333333, "type": "electric_scooter", "fusion_lat": 0.0, "lat": 38.90860583333333, "name": "e1ef64a52a1a269c2f48e3212b2baf83", "fusion_lon": 0.0, "bike_id": "e1ef64a52a1a269c2f48e3212b2baf83", "is_disabled": 0, "is_reserved": 0}, {"rental_uris": {"ios": "https://dc.lft.to/lastmile_qr_scan", "android": "https://dc.lft.to/lastmile_qr_scan"}, "lon": -77.03529316666666, "type": "electric_scooter", "fusion_lat": 0.0, "lat": 38.92162666666667, "name": "640eb16edb1918be2d3f6baf7337e1ec", "fusion_lon": 0.0, "bike_id": "640eb16edb1918be2d3f6baf7337e1ec", "is_disabled": 0, "is_reserved": 0}, {"rental_uris": {"ios": "https://dc.lft.to/lastmile_qr_scan", "android": "https://dc.lft.to/lastmile_qr_scan"}, "lon": -77.00202683333333, "type": "electric_scooter", "fusion_lat": 0.0, "lat": 38.9002295, "name": "4b58fb4a476f5ce1f155c11eec6e768d", "fusion_lon": 0.0, "bike_id": "4b58fb4a476f5ce1f155c11eec6e768d", "is_disabled": 0, "is_reserved": 0}, {"rental_uris": {"ios": "https://dc.lft.to/lastmile_qr_scan", "android": "https://dc.lft.to/lastmile_qr_scan"}, "lon": -77.05350583333333, "type": "electric_scooter", "fusion_lat": 0.0, "lat": 38.902524666666665, "name": "9ccdb2f27163fc23998a80cb25d8f616", "fusion_lon": 0.0, "bike_id": "9ccdb2f27163fc23998a80cb25d8f616", "is_disabled": 0, "is_reserved": 0}, {"rental_uris": {"ios": "https://dc.lft.to/lastmile_qr_scan", "android": "https://dc.lft.to/lastmile_qr_scan"}, "lon": -77.050059, "type": "electric_scooter", "fusion_lat": 0.0, "lat": 38.892278166666664, "name": "0283560ef1f27595781c8f95d832ab67", "fusion_lon": 0.0, "bike_id": "0283560ef1f27595781c8f95d832ab67", "is_disabled": 0, "is_reserved": 0}, {"rental_uris": {"ios": "https://dc.lft.to/lastmile_qr_scan", "android": "https://dc.lft.to/lastmile_qr_scan"}, "lon": -76.98168583333333, "type": "electric_scooter", "fusion_lat": 0.0, "lat": 38.89991933333334, "name": "731006e48ce3b1b9e7308fa6c17f40cf", "fusion_lon": 0.0, "bike_id": "731006e48ce3b1b9e7308fa6c17f40cf", "is_disabled": 0, "is_reserved": 0}, {"rental_uris": {"ios": "https://dc.lft.to/lastmile_qr_scan", "android": "https://dc.lft.to/lastmile_qr_scan"}, "lon": -76.93162483333333, "type": "electric_scooter", "fusion_lat": 0.0, "lat": 38.898721, "name": "c9411d87c75dc1a4b94d45a1d757fbbe", "fusion_lon": 0.0, "bike_id": "c9411d87c75dc1a4b94d45a1d757fbbe", "is_disabled": 0, "is_reserved": 0}, {"rental_uris": {"ios": "https://dc.lft.to/lastmile_qr_scan", "android": "https://dc.lft.to/lastmile_qr_scan"}, "lon": -77.01182, "type": "electric_scooter", "fusion_lat": 0.0, "lat": 38.9002495, "name": "1283824fb61e19d9cdd0269362062a4f", "fusion_lon": 0.0, "bike_id": "1283824fb61e19d9cdd0269362062a4f", "is_disabled": 0, "is_reserved": 0}, {"rental_uris": {"ios": "https://dc.lft.to/lastmile_qr_scan", "android": "https://dc.lft.to/lastmile_qr_scan"}, "lon": -76.9630335, "type": "electric_bike", "fusion_lat": 0.0, "lat": 38.927095333333334, "name": "bfbaa5c0588f4a8b05d83bc18a073feb", "fusion_lon": 0.0, "bike_id": "bfbaa5c0588f4a8b05d83bc18a073feb", "is_disabled": 0, "is_reserved": 0}, {"rental_uris": {"ios": "https://dc.lft.to/lastmile_qr_scan", "android": "https://dc.lft.to/lastmile_qr_scan"}, "lon": -76.988996, "type": "electric_scooter", "fusion_lat": 0.0, "lat": 38.8668945, "name": "685e785c685ccc47633a6c0314af9a10", "fusion_lon": 0.0, "bike_id": "685e785c685ccc47633a6c0314af9a10", "is_disabled": 0, "is_reserved": 0}, {"rental_uris": {"ios": "https://dc.lft.to/lastmile_qr_scan", "android": "https://dc.lft.to/lastmile_qr_scan"}, "lon": -77.00138683333333, "type": "electric_scooter", "fusion_lat": 0.0, "lat": 38.8739015, "name": "bf992803cda2ae86bf654513a0a2beda", "fusion_lon": 0.0, "bike_id": "bf992803cda2ae86bf654513a0a2beda", "is_disabled": 0, "is_reserved": 0}, {"rental_uris": {"ios": "https://dc.lft.to/lastmile_qr_scan", "android": "https://dc.lft.to/lastmile_qr_scan"}, "lon": -77.02705316666666, "type": "electric_scooter", "fusion_lat": 0.0, "lat": 38.9499795, "name": "3909ac34b641751abe92573c59713eaf", "fusion_lon": 0.0, "bike_id": "3909ac34b641751abe92573c59713eaf", "is_disabled": 0, "is_reserved": 0}, {"rental_uris": {"ios": "https://dc.lft.to/lastmile_qr_scan", "android": "https://dc.lft.to/lastmile_qr_scan"}, "lon": -77.05148233333334, "type": "electric_scooter", "fusion_lat": 0.0, "lat": 38.92372833333334, "name": "0509f0bc50020aaa450a02234bd1ecd1", "fusion_lon": 0.0, "bike_id": "0509f0bc50020aaa450a02234bd1ecd1", "is_disabled": 0, "is_reserved": 0}, {"rental_uris": {"ios": "https://dc.lft.to/lastmile_qr_scan", "android": "https://dc.lft.to/lastmile_qr_scan"}, "lon": -77.0357895, "type": "electric_scooter", "fusion_lat": 0.0, "lat": 38.90769866666667, "name": "979d801cf2f7005b664adeba60c9f582", "fusion_lon": 0.0, "bike_id": "979d801cf2f7005b664adeba60c9f582", "is_disabled": 0, "is_reserved": 0}, {"rental_uris": {"ios": "https://dc.lft.to/lastmile_qr_scan", "android": "https://dc.lft.to/lastmile_qr_scan"}, "lon": -77.038344, "type": "electric_scooter", "fusion_lat": 0.0, "lat": 38.914863, "name": "cbe001ff596e0b31a9f77dafda83e34c", "fusion_lon": 0.0, "bike_id": "cbe001ff596e0b31a9f77dafda83e34c", "is_disabled": 0, "is_reserved": 0}, {"rental_uris": {"ios": "https://dc.lft.to/lastmile_qr_scan", "android": "https://dc.lft.to/lastmile_qr_scan"}, "lon": -77.04305683333334, "type": "electric_bike", "fusion_lat": 0.0, "lat": 39.05448, "name": "d73db1f56486e8bebbc0ea5b422f513f", "fusion_lon": 0.0, "bike_id": "d73db1f56486e8bebbc0ea5b422f513f", "is_disabled": 0, "is_reserved": 0}, {"rental_uris": {"ios": "https://dc.lft.to/lastmile_qr_scan", "android": "https://dc.lft.to/lastmile_qr_scan"}, "lon": -77.02614816666667, "type": "electric_scooter", "fusion_lat": 0.0, "lat": 38.897552166666664, "name": "a8db13d7631816e1e6b923659c20e064", "fusion_lon": 0.0, "bike_id": "a8db13d7631816e1e6b923659c20e064", "is_disabled": 0, "is_reserved": 0}, {"rental_uris": {"ios": "https://dc.lft.to/lastmile_qr_scan", "android": "https://dc.lft.to/lastmile_qr_scan"}, "lon": -77.00196783333334, "type": "electric_scooter", "fusion_lat": 0.0, "lat": 38.900077, "name": "367f0aac32336099647a6841118c165d", "fusion_lon": 0.0, "bike_id": "367f0aac32336099647a6841118c165d", "is_disabled": 0, "is_reserved": 0}, {"rental_uris": {"ios": "https://dc.lft.to/lastmile_qr_scan", "android": "https://dc.lft.to/lastmile_qr_scan"}, "lon": -76.95358533333334, "type": "electric_bike", "fusion_lat": 0.0, "lat": 38.9395245, "name": "348871e98f3888e15dfbcbcfc8bb5039", "fusion_lon": 0.0, "bike_id": "348871e98f3888e15dfbcbcfc8bb5039", "is_disabled": 0, "is_reserved": 0}, {"rental_uris": {"ios": "https://dc.lft.to/lastmile_qr_scan", "android": "https://dc.lft.to/lastmile_qr_scan"}, "lon": -77.17845366666667, "type": "electric_bike", "fusion_lat": 0.0, "lat": 39.0885855, "name": "d0b5ec9f78aeecc9225274e8e7cb8cba", "fusion_lon": 0.0, "bike_id": "d0b5ec9f78aeecc9225274e8e7cb8cba", "is_disabled": 0, "is_reserved": 0}, {"rental_uris": {"ios": "https://dc.lft.to/lastmile_qr_scan", "android": "https://dc.lft.to/lastmile_qr_scan"}, "lon": -77.0002765, "type": "electric_scooter", "fusion_lat": 0.0, "lat": 38.90841, "name": "7c5008a9e6bd90c1c391c03d91fc2941", "fusion_lon": 0.0, "bike_id": "7c5008a9e6bd90c1c391c03d91fc2941", "is_disabled": 0, "is_reserved": 0}, {"rental_uris": {"ios": "https://dc.lft.to/lastmile_qr_scan", "android": "https://dc.lft.to/lastmile_qr_scan"}, "lon": -77.01378166666667, "type": "electric_scooter", "fusion_lat": 0.0, "lat": 38.928618166666666, "name": "672cfb774426dbac4ea3d47917da9f6c", "fusion_lon": 0.0, "bike_id": "672cfb774426dbac4ea3d47917da9f6c", "is_disabled": 0, "is_reserved": 0}, {"rental_uris": {"ios": "https://dc.lft.to/lastmile_qr_scan", "android": "https://dc.lft.to/lastmile_qr_scan"}, "lon": -77.03189883333333, "type": "electric_scooter", "fusion_lat": 0.0, "lat": 38.9146235, "name": "5d5a1c431c37cddf08c892b3bbc1c07a", "fusion_lon": 0.0, "bike_id": "5d5a1c431c37cddf08c892b3bbc1c07a", "is_disabled": 0, "is_reserved": 0}, {"rental_uris": {"ios": "https://dc.lft.to/lastmile_qr_scan", "android": "https://dc.lft.to/lastmile_qr_scan"}, "lon": -77.02386766666666, "type": "electric_scooter", "fusion_lat": 0.0, "lat": 38.9323105, "name": "d8876e8ca2f1cf2d03e0929948c1cb91", "fusion_lon": 0.0, "bike_id": "d8876e8ca2f1cf2d03e0929948c1cb91", "is_disabled": 0, "is_reserved": 0}, {"rental_uris": {"ios": "https://dc.lft.to/lastmile_qr_scan", "android": "https://dc.lft.to/lastmile_qr_scan"}, "lon": -77.04546766666667, "type": "electric_scooter", "fusion_lat": 0.0, "lat": 38.93405683333334, "name": "533aca8695ce3b5ea59a9fd80e99f629", "fusion_lon": 0.0, "bike_id": "533aca8695ce3b5ea59a9fd80e99f629", "is_disabled": 0, "is_reserved": 0}, {"rental_uris": {"ios": "https://dc.lft.to/lastmile_qr_scan", "android": "https://dc.lft.to/lastmile_qr_scan"}, "lon": -77.020086, "type": "electric_scooter", "fusion_lat": 0.0, "lat": 38.9131135, "name": "be4a27e190b3cf7ce0a7c493338d49f2", "fusion_lon": 0.0, "bike_id": "be4a27e190b3cf7ce0a7c493338d49f2", "is_disabled": 0, "is_reserved": 0}, {"rental_uris": {"ios": "https://dc.lft.to/lastmile_qr_scan", "android": "https://dc.lft.to/lastmile_qr_scan"}, "lon": -77.03954466666667, "type": "electric_scooter", "fusion_lat": 0.0, "lat": 38.89247016666667, "name": "95d5b9a1e1bb567a579fa39eb9fa9144", "fusion_lon": 0.0, "bike_id": "95d5b9a1e1bb567a579fa39eb9fa9144", "is_disabled": 0, "is_reserved": 0}, {"rental_uris": {"ios": "https://dc.lft.to/lastmile_qr_scan", "android": "https://dc.lft.to/lastmile_qr_scan"}, "lon": -77.00616033333333, "type": "electric_scooter", "fusion_lat": 0.0, "lat": 38.90272566666667, "name": "fc34bd5cd4704743a7f5bdd74f73a57b", "fusion_lon": 0.0, "bike_id": "fc34bd5cd4704743a7f5bdd74f73a57b", "is_disabled": 0, "is_reserved": 0}, {"rental_uris": {"ios": "https://dc.lft.to/lastmile_qr_scan", "android": "https://dc.lft.to/lastmile_qr_scan"}, "lon": -77.02707083333334, "type": "electric_scooter", "fusion_lat": 0.0, "lat": 38.94996733333333, "name": "bb2bdc0da1768f5da01b5fdce3b537fc", "fusion_lon": 0.0, "bike_id": "bb2bdc0da1768f5da01b5fdce3b537fc", "is_disabled": 0, "is_reserved": 0}, {"rental_uris": {"ios": "https://dc.lft.to/lastmile_qr_scan", "android": "https://dc.lft.to/lastmile_qr_scan"}, "lon": -76.946358, "type": "electric_scooter", "fusion_lat": 0.0, "lat": 38.89833383333333, "name": "9d031fe40838e6b0d20fa5c183bcbee2", "fusion_lon": 0.0, "bike_id": "9d031fe40838e6b0d20fa5c183bcbee2", "is_disabled": 0, "is_reserved": 0}, {"rental_uris": {"ios": "https://dc.lft.to/lastmile_qr_scan", "android": "https://dc.lft.to/lastmile_qr_scan"}, "lon": -77.10457433333333, "type": "electric_bike", "fusion_lat": 0.0, "lat": 38.89636866666667, "name": "65d4e1b2f02df731529b71bf0630f1f2", "fusion_lon": 0.0, "bike_id": "65d4e1b2f02df731529b71bf0630f1f2", "is_disabled": 0, "is_reserved": 0}, {"rental_uris": {"ios": "https://dc.lft.to/lastmile_qr_scan", "android": "https://dc.lft.to/lastmile_qr_scan"}, "lon": -77.03291983333334, "type": "electric_scooter", "fusion_lat": 0.0, "lat": 38.90969666666667, "name": "98628dcb141904978292748e093a399b", "fusion_lon": 0.0, "bike_id": "98628dcb141904978292748e093a399b", "is_disabled": 0, "is_reserved": 0}, {"rental_uris": {"ios": "https://dc.lft.to/lastmile_qr_scan", "android": "https://dc.lft.to/lastmile_qr_scan"}, "lon": -77.03920533333333, "type": "electric_scooter", "fusion_lat": 0.0, "lat": 38.918382, "name": "019e2275b2adde564aeeb90207a44986", "fusion_lon": 0.0, "bike_id": "019e2275b2adde564aeeb90207a44986", "is_disabled": 0, "is_reserved": 0}, {"rental_uris": {"ios": "https://dc.lft.to/lastmile_qr_scan", "android": "https://dc.lft.to/lastmile_qr_scan"}, "lon": -77.03959483333334, "type": "electric_scooter", "fusion_lat": 0.0, "lat": 38.914857833333336, "name": "47dfd4f6201fb551df8b370afced21c0", "fusion_lon": 0.0, "bike_id": "47dfd4f6201fb551df8b370afced21c0", "is_disabled": 0, "is_reserved": 0}, {"rental_uris": {"ios": "https://dc.lft.to/lastmile_qr_scan", "android": "https://dc.lft.to/lastmile_qr_scan"}, "lon": -77.040334, "type": "electric_scooter", "fusion_lat": 0.0, "lat": 38.924448166666664, "name": "258841ac8d3439f06f713a103433ad47", "fusion_lon": 0.0, "bike_id": "258841ac8d3439f06f713a103433ad47", "is_disabled": 0, "is_reserved": 0}, {"rental_uris": {"ios": "https://dc.lft.to/lastmile_qr_scan", "android": "https://dc.lft.to/lastmile_qr_scan"}, "lon": -77.014012, "type": "electric_scooter", "fusion_lat": 0.0, "lat": 38.9194825, "name": "24369f7dde4e25777e0412cb3c4ae645", "fusion_lon": 0.0, "bike_id": "24369f7dde4e25777e0412cb3c4ae645", "is_disabled": 0, "is_reserved": 0}, {"rental_uris": {"ios": "https://dc.lft.to/lastmile_qr_scan", "android": "https://dc.lft.to/lastmile_qr_scan"}, "lon": -77.04820566666666, "type": "electric_scooter", "fusion_lat": 0.0, "lat": 38.897402166666666, "name": "a0c29b7fd671be84857e88f00cd1f0bb", "fusion_lon": 0.0, "bike_id": "a0c29b7fd671be84857e88f00cd1f0bb", "is_disabled": 0, "is_reserved": 0}, {"rental_uris": {"ios": "https://dc.lft.to/lastmile_qr_scan", "android": "https://dc.lft.to/lastmile_qr_scan"}, "lon": -77.03198383333333, "type": "electric_scooter", "fusion_lat": 0.0, "lat": 38.91790316666667, "name": "3d37d48cb6714b1a839ad233de1b46aa", "fusion_lon": 0.0, "bike_id": "3d37d48cb6714b1a839ad233de1b46aa", "is_disabled": 0, "is_reserved": 0}, {"rental_uris": {"ios": "https://dc.lft.to/lastmile_qr_scan", "android": "https://dc.lft.to/lastmile_qr_scan"}, "lon": -77.07479433333333, "type": "electric_scooter", "fusion_lat": 0.0, "lat": 38.960382, "name": "7be06271704787853dbc9dbca25ebf32", "fusion_lon": 0.0, "bike_id": "7be06271704787853dbc9dbca25ebf32", "is_disabled": 0, "is_reserved": 0}, {"rental_uris": {"ios": "https://dc.lft.to/lastmile_qr_scan", "android": "https://dc.lft.to/lastmile_qr_scan"}, "lon": -77.07275133333333, "type": "electric_scooter", "fusion_lat": 0.0, "lat": 38.9348195, "name": "0ff2229fbc9be18c32121ab7cba2df18", "fusion_lon": 0.0, "bike_id": "0ff2229fbc9be18c32121ab7cba2df18", "is_disabled": 0, "is_reserved": 0}, {"rental_uris": {"ios": "https://dc.lft.to/lastmile_qr_scan", "android": "https://dc.lft.to/lastmile_qr_scan"}, "lon": -77.04394233333333, "type": "electric_scooter", "fusion_lat": 0.0, "lat": 38.923502666666664, "name": "16a71fce0de6864c7a1d32486659d613", "fusion_lon": 0.0, "bike_id": "16a71fce0de6864c7a1d32486659d613", "is_disabled": 0, "is_reserved": 0}, {"rental_uris": {"ios": "https://dc.lft.to/lastmile_qr_scan", "android": "https://dc.lft.to/lastmile_qr_scan"}, "lon": -77.01189533333333, "type": "electric_scooter", "fusion_lat": 0.0, "lat": 38.900249, "name": "89540922e5dd9ddc8f7d04ecb421275c", "fusion_lon": 0.0, "bike_id": "89540922e5dd9ddc8f7d04ecb421275c", "is_disabled": 0, "is_reserved": 0}, {"rental_uris": {"ios": "https://dc.lft.to/lastmile_qr_scan", "android": "https://dc.lft.to/lastmile_qr_scan"}, "lon": -77.023451, "type": "electric_scooter", "fusion_lat": 0.0, "lat": 38.96204866666667, "name": "2bee49ba38f852fcd531b406d9fe0e77", "fusion_lon": 0.0, "bike_id": "2bee49ba38f852fcd531b406d9fe0e77", "is_disabled": 0, "is_reserved": 0}, {"rental_uris": {"ios": "https://dc.lft.to/lastmile_qr_scan", "android": "https://dc.lft.to/lastmile_qr_scan"}, "lon": -77.04659066666666, "type": "electric_scooter", "fusion_lat": 0.0, "lat": 38.912767833333334, "name": "e65a10a9c33c012e9c84706b0988249c", "fusion_lon": 0.0, "bike_id": "e65a10a9c33c012e9c84706b0988249c", "is_disabled": 0, "is_reserved": 0}, {"rental_uris": {"ios": "https://dc.lft.to/lastmile_qr_scan", "android": "https://dc.lft.to/lastmile_qr_scan"}, "lon": -77.056384, "type": "electric_scooter", "fusion_lat": 0.0, "lat": 38.927570833333334, "name": "a3d28c04eadfa88334478b53d668d47d", "fusion_lon": 0.0, "bike_id": "a3d28c04eadfa88334478b53d668d47d", "is_disabled": 0, "is_reserved": 0}, {"rental_uris": {"ios": "https://dc.lft.to/lastmile_qr_scan", "android": "https://dc.lft.to/lastmile_qr_scan"}, "lon": -77.0052625, "type": "electric_scooter", "fusion_lat": 0.0, "lat": 38.92899383333334, "name": "79e31c51ed5ec8041f9d33547ec00ba7", "fusion_lon": 0.0, "bike_id": "79e31c51ed5ec8041f9d33547ec00ba7", "is_disabled": 0, "is_reserved": 0}, {"rental_uris": {"ios": "https://dc.lft.to/lastmile_qr_scan", "android": "https://dc.lft.to/lastmile_qr_scan"}, "lon": -77.07235966666667, "type": "electric_scooter", "fusion_lat": 0.0, "lat": 38.933849, "name": "b00db0d8cca87cf80628262115cb5fbf", "fusion_lon": 0.0, "bike_id": "b00db0d8cca87cf80628262115cb5fbf", "is_disabled": 0, "is_reserved": 0}, {"rental_uris": {"ios": "https://dc.lft.to/lastmile_qr_scan", "android": "https://dc.lft.to/lastmile_qr_scan"}, "lon": -77.0265425, "type": "electric_scooter", "fusion_lat": 0.0, "lat": 38.892223, "name": "c403659a191c01b3c20434843888ff6b", "fusion_lon": 0.0, "bike_id": "c403659a191c01b3c20434843888ff6b", "is_disabled": 0, "is_reserved": 0}, {"rental_uris": {"ios": "https://dc.lft.to/lastmile_qr_scan", "android": "https://dc.lft.to/lastmile_qr_scan"}, "lon": -77.0534775, "type": "electric_scooter", "fusion_lat": 0.0, "lat": 38.927190333333336, "name": "1851cee42ee5ce1ed931f6b498601081", "fusion_lon": 0.0, "bike_id": "1851cee42ee5ce1ed931f6b498601081", "is_disabled": 0, "is_reserved": 0}, {"rental_uris": {"ios": "https://dc.lft.to/lastmile_qr_scan", "android": "https://dc.lft.to/lastmile_qr_scan"}, "lon": -76.9841505, "type": "electric_scooter", "fusion_lat": 0.0, "lat": 38.859791666666666, "name": "1c5d21efbabad8e3d14e5d6f5c3cb691", "fusion_lon": 0.0, "bike_id": "1c5d21efbabad8e3d14e5d6f5c3cb691", "is_disabled": 0, "is_reserved": 0}, {"rental_uris": {"ios": "https://dc.lft.to/lastmile_qr_scan", "android": "https://dc.lft.to/lastmile_qr_scan"}, "lon": -77.04427033333333, "type": "electric_scooter", "fusion_lat": 0.0, "lat": 38.91784116666667, "name": "548e605c21e6ae7cbdea00487703fa79", "fusion_lon": 0.0, "bike_id": "548e605c21e6ae7cbdea00487703fa79", "is_disabled": 0, "is_reserved": 0}, {"rental_uris": {"ios": "https://dc.lft.to/lastmile_qr_scan", "android": "https://dc.lft.to/lastmile_qr_scan"}, "lon": -77.04882133333334, "type": "electric_scooter", "fusion_lat": 0.0, "lat": 38.90358833333333, "name": "0bcf0152843523748f3d46525fedba1e", "fusion_lon": 0.0, "bike_id": "0bcf0152843523748f3d46525fedba1e", "is_disabled": 0, "is_reserved": 0}, {"rental_uris": {"ios": "https://dc.lft.to/lastmile_qr_scan", "android": "https://dc.lft.to/lastmile_qr_scan"}, "lon": -77.04176483333333, "type": "electric_scooter", "fusion_lat": 0.0, "lat": 38.917050333333336, "name": "b2ffcc8d2c0933309fa500412caa6b61", "fusion_lon": 0.0, "bike_id": "b2ffcc8d2c0933309fa500412caa6b61", "is_disabled": 0, "is_reserved": 0}, {"rental_uris": {"ios": "https://dc.lft.to/lastmile_qr_scan", "android": "https://dc.lft.to/lastmile_qr_scan"}, "lon": -77.03187466666667, "type": "electric_scooter", "fusion_lat": 0.0, "lat": 38.918259, "name": "edec6ccca0eab58c04ab22ca94232319", "fusion_lon": 0.0, "bike_id": "edec6ccca0eab58c04ab22ca94232319", "is_disabled": 0, "is_reserved": 0}, {"rental_uris": {"ios": "https://dc.lft.to/lastmile_qr_scan", "android": "https://dc.lft.to/lastmile_qr_scan"}, "lon": -77.01511416666666, "type": "electric_scooter", "fusion_lat": 0.0, "lat": 38.887435333333336, "name": "47ad1cdd7fb0f0b660573a56238412cf", "fusion_lon": 0.0, "bike_id": "47ad1cdd7fb0f0b660573a56238412cf", "is_disabled": 0, "is_reserved": 0}, {"rental_uris": {"ios": "https://dc.lft.to/lastmile_qr_scan", "android": "https://dc.lft.to/lastmile_qr_scan"}, "lon": -77.03225966666666, "type": "electric_scooter", "fusion_lat": 0.0, "lat": 38.918214, "name": "3e3043849ff39e48d65f389532ff8c22", "fusion_lon": 0.0, "bike_id": "3e3043849ff39e48d65f389532ff8c22", "is_disabled": 0, "is_reserved": 0}, {"rental_uris": {"ios": "https://dc.lft.to/lastmile_qr_scan", "android": "https://dc.lft.to/lastmile_qr_scan"}, "lon": -77.10509333333333, "type": "electric_bike", "fusion_lat": 0.0, "lat": 38.928476333333336, "name": "c794d9cb10519d30a7e3217ebfce8dc5", "fusion_lon": 0.0, "bike_id": "c794d9cb10519d30a7e3217ebfce8dc5", "is_disabled": 0, "is_reserved": 0}, {"rental_uris": {"ios": "https://dc.lft.to/lastmile_qr_scan", "android": "https://dc.lft.to/lastmile_qr_scan"}, "lon": -77.0028105, "type": "electric_scooter", "fusion_lat": 0.0, "lat": 38.89741933333333, "name": "5f1c87ebe56fc45d5df7ac7ddf1ef39a", "fusion_lon": 0.0, "bike_id": "5f1c87ebe56fc45d5df7ac7ddf1ef39a", "is_disabled": 0, "is_reserved": 0}, {"rental_uris": {"ios": "https://dc.lft.to/lastmile_qr_scan", "android": "https://dc.lft.to/lastmile_qr_scan"}, "lon": -77.02956866666666, "type": "electric_scooter", "fusion_lat": 0.0, "lat": 38.9158545, "name": "9a6a189977bf51f299b58fb26aeda13c", "fusion_lon": 0.0, "bike_id": "9a6a189977bf51f299b58fb26aeda13c", "is_disabled": 0, "is_reserved": 0}, {"rental_uris": {"ios": "https://dc.lft.to/lastmile_qr_scan", "android": "https://dc.lft.to/lastmile_qr_scan"}, "lon": -77.089516, "type": "electric_bike", "fusion_lat": 0.0, "lat": 38.84107816666667, "name": "4d3551f47a6efd9054cb74908015c9c5", "fusion_lon": 0.0, "bike_id": "4d3551f47a6efd9054cb74908015c9c5", "is_disabled": 0, "is_reserved": 0}, {"rental_uris": {"ios": "https://dc.lft.to/lastmile_qr_scan", "android": "https://dc.lft.to/lastmile_qr_scan"}, "lon": -77.00697766666667, "type": "electric_scooter", "fusion_lat": 0.0, "lat": 38.90009533333333, "name": "8fcc024df22ac1f9de1176f91af7410b", "fusion_lon": 0.0, "bike_id": "8fcc024df22ac1f9de1176f91af7410b", "is_disabled": 0, "is_reserved": 0}, {"rental_uris": {"ios": "https://dc.lft.to/lastmile_qr_scan", "android": "https://dc.lft.to/lastmile_qr_scan"}, "lon": -77.05133933333333, "type": "electric_scooter", "fusion_lat": 0.0, "lat": 38.90539233333333, "name": "ea0273c910b81d93b5ad5239da2eac94", "fusion_lon": 0.0, "bike_id": "ea0273c910b81d93b5ad5239da2eac94", "is_disabled": 0, "is_reserved": 0}, {"rental_uris": {"ios": "https://dc.lft.to/lastmile_qr_scan", "android": "https://dc.lft.to/lastmile_qr_scan"}, "lon": -77.0297705, "type": "electric_scooter", "fusion_lat": 0.0, "lat": 38.91724683333333, "name": "ec01656059d547897e154f2e8ab6767d", "fusion_lon": 0.0, "bike_id": "ec01656059d547897e154f2e8ab6767d", "is_disabled": 0, "is_reserved": 0}, {"rental_uris": {"ios": "https://dc.lft.to/lastmile_qr_scan", "android": "https://dc.lft.to/lastmile_qr_scan"}, "lon": -76.9443625, "type": "electric_bike", "fusion_lat": 0.0, "lat": 38.90295616666667, "name": "e6782227eb17e2182e2a5bb232826113", "fusion_lon": 0.0, "bike_id": "e6782227eb17e2182e2a5bb232826113", "is_disabled": 0, "is_reserved": 0}, {"rental_uris": {"ios": "https://dc.lft.to/lastmile_qr_scan", "android": "https://dc.lft.to/lastmile_qr_scan"}, "lon": -77.0330135, "type": "electric_scooter", "fusion_lat": 0.0, "lat": 38.9004125, "name": "41c37f8a1c061edcd6b36eb753ea0be5", "fusion_lon": 0.0, "bike_id": "41c37f8a1c061edcd6b36eb753ea0be5", "is_disabled": 0, "is_reserved": 0}, {"rental_uris": {"ios": "https://dc.lft.to/lastmile_qr_scan", "android": "https://dc.lft.to/lastmile_qr_scan"}, "lon": -76.97707816666667, "type": "electric_scooter", "fusion_lat": 0.0, "lat": 38.8989865, "name": "ee57058650c3c83609f17755ab17de28", "fusion_lon": 0.0, "bike_id": "ee57058650c3c83609f17755ab17de28", "is_disabled": 0, "is_reserved": 0}, {"rental_uris": {"ios": "https://dc.lft.to/lastmile_qr_scan", "android": "https://dc.lft.to/lastmile_qr_scan"}, "lon": -76.9722345, "type": "electric_bike", "fusion_lat": 0.0, "lat": 38.84482233333333, "name": "693e928f6d3f79057606fea03b963062", "fusion_lon": 0.0, "bike_id": "693e928f6d3f79057606fea03b963062", "is_disabled": 0, "is_reserved": 0}, {"rental_uris": {"ios": "https://dc.lft.to/lastmile_qr_scan", "android": "https://dc.lft.to/lastmile_qr_scan"}, "lon": -77.024874, "type": "electric_scooter", "fusion_lat": 0.0, "lat": 38.903285333333336, "name": "0a5ad5a14ae8e625742dd7f574caec27", "fusion_lon": 0.0, "bike_id": "0a5ad5a14ae8e625742dd7f574caec27", "is_disabled": 0, "is_reserved": 0}, {"rental_uris": {"ios": "https://dc.lft.to/lastmile_qr_scan", "android": "https://dc.lft.to/lastmile_qr_scan"}, "lon": -77.03181283333333, "type": "electric_scooter", "fusion_lat": 0.0, "lat": 38.910976, "name": "5bebbbb6604414341c5b8ae55a7be8a2", "fusion_lon": 0.0, "bike_id": "5bebbbb6604414341c5b8ae55a7be8a2", "is_disabled": 0, "is_reserved": 0}, {"rental_uris": {"ios": "https://dc.lft.to/lastmile_qr_scan", "android": "https://dc.lft.to/lastmile_qr_scan"}, "lon": -76.99417083333333, "type": "electric_bike", "fusion_lat": 0.0, "lat": 38.97514833333334, "name": "f3558b02020e509152471311988868a0", "fusion_lon": 0.0, "bike_id": "f3558b02020e509152471311988868a0", "is_disabled": 0, "is_reserved": 0}, {"rental_uris": {"ios": "https://dc.lft.to/lastmile_qr_scan", "android": "https://dc.lft.to/lastmile_qr_scan"}, "lon": -77.02987316666666, "type": "electric_bike", "fusion_lat": 0.0, "lat": 38.900141833333336, "name": "eeaff72ba61717fcb0a07bf3a9d05ec6", "fusion_lon": 0.0, "bike_id": "eeaff72ba61717fcb0a07bf3a9d05ec6", "is_disabled": 0, "is_reserved": 0}, {"rental_uris": {"ios": "https://dc.lft.to/lastmile_qr_scan", "android": "https://dc.lft.to/lastmile_qr_scan"}, "lon": -77.0321285, "type": "electric_scooter", "fusion_lat": 0.0, "lat": 38.916281, "name": "be1d3baff0bcabd38ec8a2cb39c62965", "fusion_lon": 0.0, "bike_id": "be1d3baff0bcabd38ec8a2cb39c62965", "is_disabled": 0, "is_reserved": 0}, {"rental_uris": {"ios": "https://dc.lft.to/lastmile_qr_scan", "android": "https://dc.lft.to/lastmile_qr_scan"}, "lon": -77.038378, "type": "electric_scooter", "fusion_lat": 0.0, "lat": 38.921786833333336, "name": "0feac0b08703921fe502dbbe9d9a6e2c", "fusion_lon": 0.0, "bike_id": "0feac0b08703921fe502dbbe9d9a6e2c", "is_disabled": 0, "is_reserved": 0}, {"rental_uris": {"ios": "https://dc.lft.to/lastmile_qr_scan", "android": "https://dc.lft.to/lastmile_qr_scan"}, "lon": -77.02210333333333, "type": "electric_scooter", "fusion_lat": 0.0, "lat": 38.9141895, "name": "0924b102f67771e3c0c85e86764580c9", "fusion_lon": 0.0, "bike_id": "0924b102f67771e3c0c85e86764580c9", "is_disabled": 0, "is_reserved": 0}, {"rental_uris": {"ios": "https://dc.lft.to/lastmile_qr_scan", "android": "https://dc.lft.to/lastmile_qr_scan"}, "lon": -77.02956116666667, "type": "electric_scooter", "fusion_lat": 0.0, "lat": 38.90053533333333, "name": "1ec5112f96aab743adcc24c924df0574", "fusion_lon": 0.0, "bike_id": "1ec5112f96aab743adcc24c924df0574", "is_disabled": 0, "is_reserved": 0}, {"rental_uris": {"ios": "https://dc.lft.to/lastmile_qr_scan", "android": "https://dc.lft.to/lastmile_qr_scan"}, "lon": -77.0396225, "type": "electric_scooter", "fusion_lat": 0.0, "lat": 38.89247366666667, "name": "e88cb3574c2e2a4069d10b6c8c734fe4", "fusion_lon": 0.0, "bike_id": "e88cb3574c2e2a4069d10b6c8c734fe4", "is_disabled": 0, "is_reserved": 0}, {"rental_uris": {"ios": "https://dc.lft.to/lastmile_qr_scan", "android": "https://dc.lft.to/lastmile_qr_scan"}, "lon": -77.00614083333333, "type": "electric_scooter", "fusion_lat": 0.0, "lat": 38.87179316666667, "name": "c20280c73e34d4d807356409fbcebf4b", "fusion_lon": 0.0, "bike_id": "c20280c73e34d4d807356409fbcebf4b", "is_disabled": 0, "is_reserved": 0}, {"rental_uris": {"ios": "https://dc.lft.to/lastmile_qr_scan", "android": "https://dc.lft.to/lastmile_qr_scan"}, "lon": -77.0314625, "type": "electric_scooter", "fusion_lat": 0.0, "lat": 38.912642, "name": "018e38c3c58da63cd13b8ef78b326495", "fusion_lon": 0.0, "bike_id": "018e38c3c58da63cd13b8ef78b326495", "is_disabled": 0, "is_reserved": 0}, {"rental_uris": {"ios": "https://dc.lft.to/lastmile_qr_scan", "android": "https://dc.lft.to/lastmile_qr_scan"}, "lon": -77.03783033333333, "type": "electric_bike", "fusion_lat": 0.0, "lat": 38.99684516666667, "name": "cac9e262498b9ce3758060f51ab1c0f1", "fusion_lon": 0.0, "bike_id": "cac9e262498b9ce3758060f51ab1c0f1", "is_disabled": 0, "is_reserved": 0}, {"rental_uris": {"ios": "https://dc.lft.to/lastmile_qr_scan", "android": "https://dc.lft.to/lastmile_qr_scan"}, "lon": -76.9494825, "type": "electric_scooter", "fusion_lat": 0.0, "lat": 38.883778666666664, "name": "034ef1cbcd4c8babe4daaa86eff4c9bd", "fusion_lon": 0.0, "bike_id": "034ef1cbcd4c8babe4daaa86eff4c9bd", "is_disabled": 0, "is_reserved": 0}, {"rental_uris": {"ios": "https://dc.lft.to/lastmile_qr_scan", "android": "https://dc.lft.to/lastmile_qr_scan"}, "lon": -77.022495, "type": "electric_scooter", "fusion_lat": 0.0, "lat": 38.916661500000004, "name": "dc6a2a3d99939befa154ae45a43aeac0", "fusion_lon": 0.0, "bike_id": "dc6a2a3d99939befa154ae45a43aeac0", "is_disabled": 0, "is_reserved": 0}, {"rental_uris": {"ios": "https://dc.lft.to/lastmile_qr_scan", "android": "https://dc.lft.to/lastmile_qr_scan"}, "lon": -77.03938216666667, "type": "electric_scooter", "fusion_lat": 0.0, "lat": 38.93144816666667, "name": "70c02a1349996d677bde0623b37a2972", "fusion_lon": 0.0, "bike_id": "70c02a1349996d677bde0623b37a2972", "is_disabled": 0, "is_reserved": 0}, {"rental_uris": {"ios": "https://dc.lft.to/lastmile_qr_scan", "android": "https://dc.lft.to/lastmile_qr_scan"}, "lon": -76.977334, "type": "electric_scooter", "fusion_lat": 0.0, "lat": 38.872913, "name": "fb4453884d09ffc7668cab08a1b873d2", "fusion_lon": 0.0, "bike_id": "fb4453884d09ffc7668cab08a1b873d2", "is_disabled": 0, "is_reserved": 0}, {"rental_uris": {"ios": "https://dc.lft.to/lastmile_qr_scan", "android": "https://dc.lft.to/lastmile_qr_scan"}, "lon": -77.021791, "type": "electric_scooter", "fusion_lat": 0.0, "lat": 38.87987966666667, "name": "c18393495b0c7ea58b8ac2ebd38a3c37", "fusion_lon": 0.0, "bike_id": "c18393495b0c7ea58b8ac2ebd38a3c37", "is_disabled": 0, "is_reserved": 0}, {"rental_uris": {"ios": "https://dc.lft.to/lastmile_qr_scan", "android": "https://dc.lft.to/lastmile_qr_scan"}, "lon": -77.042991, "type": "electric_scooter", "fusion_lat": 0.0, "lat": 38.907155333333336, "name": "7630fef7edcd9fc9eb0d6fb2fe6bb11f", "fusion_lon": 0.0, "bike_id": "7630fef7edcd9fc9eb0d6fb2fe6bb11f", "is_disabled": 0, "is_reserved": 0}, {"rental_uris": {"ios": "https://dc.lft.to/lastmile_qr_scan", "android": "https://dc.lft.to/lastmile_qr_scan"}, "lon": -77.02507733333333, "type": "electric_scooter", "fusion_lat": 0.0, "lat": 38.88029266666667, "name": "bbe421c7b4e5ccb2884a68e982b4a8b1", "fusion_lon": 0.0, "bike_id": "bbe421c7b4e5ccb2884a68e982b4a8b1", "is_disabled": 0, "is_reserved": 0}, {"rental_uris": {"ios": "https://dc.lft.to/lastmile_qr_scan", "android": "https://dc.lft.to/lastmile_qr_scan"}, "lon": -77.0613365, "type": "electric_scooter", "fusion_lat": 0.0, "lat": 38.902422666666666, "name": "2f2e937a64f85b4eec7e5143c6ef4d2c", "fusion_lon": 0.0, "bike_id": "2f2e937a64f85b4eec7e5143c6ef4d2c", "is_disabled": 0, "is_reserved": 0}, {"rental_uris": {"ios": "https://dc.lft.to/lastmile_qr_scan", "android": "https://dc.lft.to/lastmile_qr_scan"}, "lon": -77.1317765, "type": "electric_bike", "fusion_lat": 0.0, "lat": 38.86905683333333, "name": "da3f579fba0be4e9281e03df9d30b974", "fusion_lon": 0.0, "bike_id": "da3f579fba0be4e9281e03df9d30b974", "is_disabled": 0, "is_reserved": 0}, {"rental_uris": {"ios": "https://dc.lft.to/lastmile_qr_scan", "android": "https://dc.lft.to/lastmile_qr_scan"}, "lon": -76.9573535, "type": "electric_scooter", "fusion_lat": 0.0, "lat": 38.892250833333335, "name": "3acf3f57f93d2ee1c64092f6e47ec1cb", "fusion_lon": 0.0, "bike_id": "3acf3f57f93d2ee1c64092f6e47ec1cb", "is_disabled": 0, "is_reserved": 0}, {"rental_uris": {"ios": "https://dc.lft.to/lastmile_qr_scan", "android": "https://dc.lft.to/lastmile_qr_scan"}, "lon": -76.97441466666666, "type": "electric_bike", "fusion_lat": 0.0, "lat": 38.86418416666667, "name": "8db4c7685714d86aad84b73720b9f9a9", "fusion_lon": 0.0, "bike_id": "8db4c7685714d86aad84b73720b9f9a9", "is_disabled": 0, "is_reserved": 0}, {"rental_uris": {"ios": "https://dc.lft.to/lastmile_qr_scan", "android": "https://dc.lft.to/lastmile_qr_scan"}, "lon": -77.04798783333334, "type": "electric_scooter", "fusion_lat": 0.0, "lat": 38.91639766666667, "name": "1f89a2174af6fbdf56a50a6eabb6950e", "fusion_lon": 0.0, "bike_id": "1f89a2174af6fbdf56a50a6eabb6950e", "is_disabled": 0, "is_reserved": 0}, {"rental_uris": {"ios": "https://dc.lft.to/lastmile_qr_scan", "android": "https://dc.lft.to/lastmile_qr_scan"}, "lon": -77.00053566666666, "type": "electric_scooter", "fusion_lat": 0.0, "lat": 38.88898733333333, "name": "99d7fe2f22b8711516806044529bdbb2", "fusion_lon": 0.0, "bike_id": "99d7fe2f22b8711516806044529bdbb2", "is_disabled": 0, "is_reserved": 0}, {"rental_uris": {"ios": "https://dc.lft.to/lastmile_qr_scan", "android": "https://dc.lft.to/lastmile_qr_scan"}, "lon": -77.01343566666667, "type": "electric_bike", "fusion_lat": 0.0, "lat": 38.99995833333333, "name": "1ad831ed53e6e670f7212b3608f66d1f", "fusion_lon": 0.0, "bike_id": "1ad831ed53e6e670f7212b3608f66d1f", "is_disabled": 0, "is_reserved": 0}, {"rental_uris": {"ios": "https://dc.lft.to/lastmile_qr_scan", "android": "https://dc.lft.to/lastmile_qr_scan"}, "lon": -77.08842016666667, "type": "electric_bike", "fusion_lat": 0.0, "lat": 38.8408675, "name": "52c7a3334402d9dab0a1aa02af58a51d", "fusion_lon": 0.0, "bike_id": "52c7a3334402d9dab0a1aa02af58a51d", "is_disabled": 0, "is_reserved": 0}, {"rental_uris": {"ios": "https://dc.lft.to/lastmile_qr_scan", "android": "https://dc.lft.to/lastmile_qr_scan"}, "lon": -77.01843383333333, "type": "electric_scooter", "fusion_lat": 0.0, "lat": 38.90940116666667, "name": "221500becc049b34206097bfe43e3d06", "fusion_lon": 0.0, "bike_id": "221500becc049b34206097bfe43e3d06", "is_disabled": 0, "is_reserved": 0}, {"rental_uris": {"ios": "https://dc.lft.to/lastmile_qr_scan", "android": "https://dc.lft.to/lastmile_qr_scan"}, "lon": -77.0111735, "type": "electric_scooter", "fusion_lat": 0.0, "lat": 38.903613, "name": "7b82d4dfc6bfe085986746ad9d4a36ca", "fusion_lon": 0.0, "bike_id": "7b82d4dfc6bfe085986746ad9d4a36ca", "is_disabled": 0, "is_reserved": 0}, {"rental_uris": {"ios": "https://dc.lft.to/lastmile_qr_scan", "android": "https://dc.lft.to/lastmile_qr_scan"}, "lon": -77.00805, "type": "electric_scooter", "fusion_lat": 0.0, "lat": 38.8832875, "name": "225c28cd6fc1a04f31d7362a3ecb678c", "fusion_lon": 0.0, "bike_id": "225c28cd6fc1a04f31d7362a3ecb678c", "is_disabled": 0, "is_reserved": 0}, {"rental_uris": {"ios": "https://dc.lft.to/lastmile_qr_scan", "android": "https://dc.lft.to/lastmile_qr_scan"}, "lon": -77.02549, "type": "electric_scooter", "fusion_lat": 0.0, "lat": 38.892232166666666, "name": "57b56519966cc4356b685c1efe9c396f", "fusion_lon": 0.0, "bike_id": "57b56519966cc4356b685c1efe9c396f", "is_disabled": 0, "is_reserved": 0}, {"rental_uris": {"ios": "https://dc.lft.to/lastmile_qr_scan", "android": "https://dc.lft.to/lastmile_qr_scan"}, "lon": -77.0574505, "type": "electric_scooter", "fusion_lat": 0.0, "lat": 38.935392, "name": "47e8a56063b27b5fa639e8e154e0d9e7", "fusion_lon": 0.0, "bike_id": "47e8a56063b27b5fa639e8e154e0d9e7", "is_disabled": 0, "is_reserved": 0}, {"rental_uris": {"ios": "https://dc.lft.to/lastmile_qr_scan", "android": "https://dc.lft.to/lastmile_qr_scan"}, "lon": -77.022211, "type": "electric_scooter", "fusion_lat": 0.0, "lat": 38.891981333333334, "name": "89d59a8123f9187ec6872d6dcea4940c", "fusion_lon": 0.0, "bike_id": "89d59a8123f9187ec6872d6dcea4940c", "is_disabled": 0, "is_reserved": 0}, {"rental_uris": {"ios": "https://dc.lft.to/lastmile_qr_scan", "android": "https://dc.lft.to/lastmile_qr_scan"}, "lon": -77.02576433333333, "type": "electric_scooter", "fusion_lat": 0.0, "lat": 38.918212833333335, "name": "e406063ae2f769dfdaa5084a8c021007", "fusion_lon": 0.0, "bike_id": "e406063ae2f769dfdaa5084a8c021007", "is_disabled": 0, "is_reserved": 0}, {"rental_uris": {"ios": "https://dc.lft.to/lastmile_qr_scan", "android": "https://dc.lft.to/lastmile_qr_scan"}, "lon": -77.01753166666667, "type": "electric_scooter", "fusion_lat": 0.0, "lat": 38.87736366666667, "name": "453c96574699ab11978ce2d12d70d59d", "fusion_lon": 0.0, "bike_id": "453c96574699ab11978ce2d12d70d59d", "is_disabled": 0, "is_reserved": 0}, {"rental_uris": {"ios": "https://dc.lft.to/lastmile_qr_scan", "android": "https://dc.lft.to/lastmile_qr_scan"}, "lon": -77.01437066666666, "type": "electric_scooter", "fusion_lat": 0.0, "lat": 38.92990183333333, "name": "6415c56397d214db9a81a256ba5254a8", "fusion_lon": 0.0, "bike_id": "6415c56397d214db9a81a256ba5254a8", "is_disabled": 0, "is_reserved": 0}, {"rental_uris": {"ios": "https://dc.lft.to/lastmile_qr_scan", "android": "https://dc.lft.to/lastmile_qr_scan"}, "lon": -77.050032, "type": "electric_scooter", "fusion_lat": 0.0, "lat": 38.904162166666666, "name": "df6cf9f08f5c5a71db65b4c5d3fb9656", "fusion_lon": 0.0, "bike_id": "df6cf9f08f5c5a71db65b4c5d3fb9656", "is_disabled": 0, "is_reserved": 0}, {"rental_uris": {"ios": "https://dc.lft.to/lastmile_qr_scan", "android": "https://dc.lft.to/lastmile_qr_scan"}, "lon": -76.965546, "type": "electric_bike", "fusion_lat": 0.0, "lat": 38.951019, "name": "29ac96c1f5e78e51b566a0a96cf2db8c", "fusion_lon": 0.0, "bike_id": "29ac96c1f5e78e51b566a0a96cf2db8c", "is_disabled": 0, "is_reserved": 0}, {"rental_uris": {"ios": "https://dc.lft.to/lastmile_qr_scan", "android": "https://dc.lft.to/lastmile_qr_scan"}, "lon": -77.02188366666667, "type": "electric_scooter", "fusion_lat": 0.0, "lat": 38.897763166666664, "name": "74a23b3ee4031907ae3a9a1b1f00ccc0", "fusion_lon": 0.0, "bike_id": "74a23b3ee4031907ae3a9a1b1f00ccc0", "is_disabled": 0, "is_reserved": 0}, {"rental_uris": {"ios": "https://dc.lft.to/lastmile_qr_scan", "android": "https://dc.lft.to/lastmile_qr_scan"}, "lon": -77.0006715, "type": "electric_scooter", "fusion_lat": 0.0, "lat": 38.9005605, "name": "daa01289ad8a022466a0e9bc9d9c34a5", "fusion_lon": 0.0, "bike_id": "daa01289ad8a022466a0e9bc9d9c34a5", "is_disabled": 0, "is_reserved": 0}, {"rental_uris": {"ios": "https://dc.lft.to/lastmile_qr_scan", "android": "https://dc.lft.to/lastmile_qr_scan"}, "lon": -76.99544916666666, "type": "electric_scooter", "fusion_lat": 0.0, "lat": 38.886163333333336, "name": "ac72881668ef11fe8d9371941a866d6e", "fusion_lon": 0.0, "bike_id": "ac72881668ef11fe8d9371941a866d6e", "is_disabled": 0, "is_reserved": 0}, {"rental_uris": {"ios": "https://dc.lft.to/lastmile_qr_scan", "android": "https://dc.lft.to/lastmile_qr_scan"}, "lon": -77.05171933333334, "type": "electric_scooter", "fusion_lat": 0.0, "lat": 38.89772166666667, "name": "3fb84c74d7ba639bd15159c79da2c2ba", "fusion_lon": 0.0, "bike_id": "3fb84c74d7ba639bd15159c79da2c2ba", "is_disabled": 0, "is_reserved": 0}, {"rental_uris": {"ios": "https://dc.lft.to/lastmile_qr_scan", "android": "https://dc.lft.to/lastmile_qr_scan"}, "lon": -77.02326533333333, "type": "electric_scooter", "fusion_lat": 0.0, "lat": 38.916757, "name": "f1efb4c9dfe7b22f7ce65c2f4f3a4fda", "fusion_lon": 0.0, "bike_id": "f1efb4c9dfe7b22f7ce65c2f4f3a4fda", "is_disabled": 0, "is_reserved": 0}, {"rental_uris": {"ios": "https://dc.lft.to/lastmile_qr_scan", "android": "https://dc.lft.to/lastmile_qr_scan"}, "lon": -77.02975733333334, "type": "electric_scooter", "fusion_lat": 0.0, "lat": 38.910423, "name": "d91716e525139a88f4e42052e26709ec", "fusion_lon": 0.0, "bike_id": "d91716e525139a88f4e42052e26709ec", "is_disabled": 0, "is_reserved": 0}, {"rental_uris": {"ios": "https://dc.lft.to/lastmile_qr_scan", "android": "https://dc.lft.to/lastmile_qr_scan"}, "lon": -77.04416216666667, "type": "electric_scooter", "fusion_lat": 0.0, "lat": 38.92138633333333, "name": "0149de4a7ac0aeb67fbf5968d6c71acb", "fusion_lon": 0.0, "bike_id": "0149de4a7ac0aeb67fbf5968d6c71acb", "is_disabled": 0, "is_reserved": 0}, {"rental_uris": {"ios": "https://dc.lft.to/lastmile_qr_scan", "android": "https://dc.lft.to/lastmile_qr_scan"}, "lon": -77.03418616666667, "type": "electric_scooter", "fusion_lat": 0.0, "lat": 38.91922783333333, "name": "bfb4fd6bed8f3e6bae6d4f16fd584a32", "fusion_lon": 0.0, "bike_id": "bfb4fd6bed8f3e6bae6d4f16fd584a32", "is_disabled": 0, "is_reserved": 0}, {"rental_uris": {"ios": "https://dc.lft.to/lastmile_qr_scan", "android": "https://dc.lft.to/lastmile_qr_scan"}, "lon": -77.0204975, "type": "electric_scooter", "fusion_lat": 0.0, "lat": 38.91557183333333, "name": "e97368f52714d4fbe61ecf76a409b6c2", "fusion_lon": 0.0, "bike_id": "e97368f52714d4fbe61ecf76a409b6c2", "is_disabled": 0, "is_reserved": 0}, {"rental_uris": {"ios": "https://dc.lft.to/lastmile_qr_scan", "android": "https://dc.lft.to/lastmile_qr_scan"}, "lon": -76.99487183333333, "type": "electric_scooter", "fusion_lat": 0.0, "lat": 38.932013833333336, "name": "936be5e188d64a4db89ec4c55b9fb1b3", "fusion_lon": 0.0, "bike_id": "936be5e188d64a4db89ec4c55b9fb1b3", "is_disabled": 0, "is_reserved": 0}, {"rental_uris": {"ios": "https://dc.lft.to/lastmile_qr_scan", "android": "https://dc.lft.to/lastmile_qr_scan"}, "lon": -77.05006333333333, "type": "electric_scooter", "fusion_lat": 0.0, "lat": 38.892301833333335, "name": "408f4dce568814b4373c6fe121d9febd", "fusion_lon": 0.0, "bike_id": "408f4dce568814b4373c6fe121d9febd", "is_disabled": 0, "is_reserved": 0}, {"rental_uris": {"ios": "https://dc.lft.to/lastmile_qr_scan", "android": "https://dc.lft.to/lastmile_qr_scan"}, "lon": -77.03013716666666, "type": "electric_scooter", "fusion_lat": 0.0, "lat": 38.897529, "name": "9c9b0c53c0be7d9d8fe473927f2ed20f", "fusion_lon": 0.0, "bike_id": "9c9b0c53c0be7d9d8fe473927f2ed20f", "is_disabled": 0, "is_reserved": 0}, {"rental_uris": {"ios": "https://dc.lft.to/lastmile_qr_scan", "android": "https://dc.lft.to/lastmile_qr_scan"}, "lon": -77.0011435, "type": "electric_scooter", "fusion_lat": 0.0, "lat": 38.89435983333333, "name": "1307b97445c3373635c44c815f408e83", "fusion_lon": 0.0, "bike_id": "1307b97445c3373635c44c815f408e83", "is_disabled": 0, "is_reserved": 0}, {"rental_uris": {"ios": "https://dc.lft.to/lastmile_qr_scan", "android": "https://dc.lft.to/lastmile_qr_scan"}, "lon": -77.026492, "type": "electric_scooter", "fusion_lat": 0.0, "lat": 38.892174833333335, "name": "175854b2b301253edb08d46a7fa2ab48", "fusion_lon": 0.0, "bike_id": "175854b2b301253edb08d46a7fa2ab48", "is_disabled": 0, "is_reserved": 0}, {"rental_uris": {"ios": "https://dc.lft.to/lastmile_qr_scan", "android": "https://dc.lft.to/lastmile_qr_scan"}, "lon": -76.93824383333333, "type": "electric_scooter", "fusion_lat": 0.0, "lat": 38.897658166666666, "name": "83f2592a6bf78e6d750a6da760abc127", "fusion_lon": 0.0, "bike_id": "83f2592a6bf78e6d750a6da760abc127", "is_disabled": 0, "is_reserved": 0}, {"rental_uris": {"ios": "https://dc.lft.to/lastmile_qr_scan", "android": "https://dc.lft.to/lastmile_qr_scan"}, "lon": -76.96507516666667, "type": "electric_scooter", "fusion_lat": 0.0, "lat": 38.87645166666667, "name": "b96217472dd0bd9696ec963ad6ca0617", "fusion_lon": 0.0, "bike_id": "b96217472dd0bd9696ec963ad6ca0617", "is_disabled": 0, "is_reserved": 0}, {"rental_uris": {"ios": "https://dc.lft.to/lastmile_qr_scan", "android": "https://dc.lft.to/lastmile_qr_scan"}, "lon": -77.0334725, "type": "electric_scooter", "fusion_lat": 0.0, "lat": 38.919162, "name": "6e3dbded744bf58ed3876d55dc29129d", "fusion_lon": 0.0, "bike_id": "6e3dbded744bf58ed3876d55dc29129d", "is_disabled": 0, "is_reserved": 0}, {"rental_uris": {"ios": "https://dc.lft.to/lastmile_qr_scan", "android": "https://dc.lft.to/lastmile_qr_scan"}, "lon": -77.0342475, "type": "electric_scooter", "fusion_lat": 0.0, "lat": 38.93533083333333, "name": "f54ce95d7c9a37eeefc98e33636aafd3", "fusion_lon": 0.0, "bike_id": "f54ce95d7c9a37eeefc98e33636aafd3", "is_disabled": 0, "is_reserved": 0}, {"rental_uris": {"ios": "https://dc.lft.to/lastmile_qr_scan", "android": "https://dc.lft.to/lastmile_qr_scan"}, "lon": -76.97827566666666, "type": "electric_bike", "fusion_lat": 0.0, "lat": 38.846125, "name": "6e2fc9c6904ca49f66844f1816812753", "fusion_lon": 0.0, "bike_id": "6e2fc9c6904ca49f66844f1816812753", "is_disabled": 0, "is_reserved": 0}, {"rental_uris": {"ios": "https://dc.lft.to/lastmile_qr_scan", "android": "https://dc.lft.to/lastmile_qr_scan"}, "lon": -77.03130116666667, "type": "electric_scooter", "fusion_lat": 0.0, "lat": 38.910309, "name": "5f7cce8389770768a26f3e6a1eb8793d", "fusion_lon": 0.0, "bike_id": "5f7cce8389770768a26f3e6a1eb8793d", "is_disabled": 0, "is_reserved": 0}, {"rental_uris": {"ios": "https://dc.lft.to/lastmile_qr_scan", "android": "https://dc.lft.to/lastmile_qr_scan"}, "lon": -77.02958433333333, "type": "electric_scooter", "fusion_lat": 0.0, "lat": 38.89219583333333, "name": "58bdb2eb6247c4bc4672867900210a1b", "fusion_lon": 0.0, "bike_id": "58bdb2eb6247c4bc4672867900210a1b", "is_disabled": 0, "is_reserved": 0}, {"rental_uris": {"ios": "https://dc.lft.to/lastmile_qr_scan", "android": "https://dc.lft.to/lastmile_qr_scan"}, "lon": -76.9839555, "type": "electric_bike", "fusion_lat": 0.0, "lat": 38.922014, "name": "8c047d514c27edb01c7c1b449d278323", "fusion_lon": 0.0, "bike_id": "8c047d514c27edb01c7c1b449d278323", "is_disabled": 0, "is_reserved": 0}, {"rental_uris": {"ios": "https://dc.lft.to/lastmile_qr_scan", "android": "https://dc.lft.to/lastmile_qr_scan"}, "lon": -77.12628166666667, "type": "electric_bike", "fusion_lat": 0.0, "lat": 39.058102, "name": "2a7e52fc781ea5a5045ac3c6ac62c4b5", "fusion_lon": 0.0, "bike_id": "2a7e52fc781ea5a5045ac3c6ac62c4b5", "is_disabled": 0, "is_reserved": 0}, {"rental_uris": {"ios": "https://dc.lft.to/lastmile_qr_scan", "android": "https://dc.lft.to/lastmile_qr_scan"}, "lon": -77.02601066666666, "type": "electric_scooter", "fusion_lat": 0.0, "lat": 38.887422, "name": "38acd0efa9793180cf7809147af53f8b", "fusion_lon": 0.0, "bike_id": "38acd0efa9793180cf7809147af53f8b", "is_disabled": 0, "is_reserved": 0}, {"rental_uris": {"ios": "https://dc.lft.to/lastmile_qr_scan", "android": "https://dc.lft.to/lastmile_qr_scan"}, "lon": -77.03957866666667, "type": "electric_scooter", "fusion_lat": 0.0, "lat": 38.8985885, "name": "7a972fd1b603b9be6ffdbc72c75a525f", "fusion_lon": 0.0, "bike_id": "7a972fd1b603b9be6ffdbc72c75a525f", "is_disabled": 0, "is_reserved": 0}, {"rental_uris": {"ios": "https://dc.lft.to/lastmile_qr_scan", "android": "https://dc.lft.to/lastmile_qr_scan"}, "lon": -77.04913033333334, "type": "electric_scooter", "fusion_lat": 0.0, "lat": 38.90574133333333, "name": "f33b707a31216d66846dab31422db29d", "fusion_lon": 0.0, "bike_id": "f33b707a31216d66846dab31422db29d", "is_disabled": 0, "is_reserved": 0}, {"rental_uris": {"ios": "https://dc.lft.to/lastmile_qr_scan", "android": "https://dc.lft.to/lastmile_qr_scan"}, "lon": -77.02696016666667, "type": "electric_scooter", "fusion_lat": 0.0, "lat": 38.9062565, "name": "73a877454b9a97895bea496d167e280d", "fusion_lon": 0.0, "bike_id": "73a877454b9a97895bea496d167e280d", "is_disabled": 0, "is_reserved": 0}, {"rental_uris": {"ios": "https://dc.lft.to/lastmile_qr_scan", "android": "https://dc.lft.to/lastmile_qr_scan"}, "lon": -77.00040416666667, "type": "electric_scooter", "fusion_lat": 0.0, "lat": 38.87458566666667, "name": "8865daa8b3beac6634d8bd46ee19d8fa", "fusion_lon": 0.0, "bike_id": "8865daa8b3beac6634d8bd46ee19d8fa", "is_disabled": 0, "is_reserved": 0}, {"rental_uris": {"ios": "https://dc.lft.to/lastmile_qr_scan", "android": "https://dc.lft.to/lastmile_qr_scan"}, "lon": -77.061899, "type": "electric_scooter", "fusion_lat": 0.0, "lat": 38.902824, "name": "1cd04b55eb3f8a1e6a774946e9b2a1af", "fusion_lon": 0.0, "bike_id": "1cd04b55eb3f8a1e6a774946e9b2a1af", "is_disabled": 0, "is_reserved": 0}, {"rental_uris": {"ios": "https://dc.lft.to/lastmile_qr_scan", "android": "https://dc.lft.to/lastmile_qr_scan"}, "lon": -77.04052516666667, "type": "electric_scooter", "fusion_lat": 0.0, "lat": 38.92712916666667, "name": "51abb8834d78c5c839020c5be01fca80", "fusion_lon": 0.0, "bike_id": "51abb8834d78c5c839020c5be01fca80", "is_disabled": 0, "is_reserved": 0}, {"rental_uris": {"ios": "https://dc.lft.to/lastmile_qr_scan", "android": "https://dc.lft.to/lastmile_qr_scan"}, "lon": -77.0221885, "type": "electric_scooter", "fusion_lat": 0.0, "lat": 38.891975, "name": "ba1ad282e729494cf57ee255e3ee14a9", "fusion_lon": 0.0, "bike_id": "ba1ad282e729494cf57ee255e3ee14a9", "is_disabled": 0, "is_reserved": 0}, {"rental_uris": {"ios": "https://dc.lft.to/lastmile_qr_scan", "android": "https://dc.lft.to/lastmile_qr_scan"}, "lon": -77.08083533333334, "type": "electric_bike", "fusion_lat": 0.0, "lat": 38.90691616666667, "name": "42916970af320cf3ff20a7f36c0eca59", "fusion_lon": 0.0, "bike_id": "42916970af320cf3ff20a7f36c0eca59", "is_disabled": 0, "is_reserved": 0}, {"rental_uris": {"ios": "https://dc.lft.to/lastmile_qr_scan", "android": "https://dc.lft.to/lastmile_qr_scan"}, "lon": -77.0354365, "type": "electric_scooter", "fusion_lat": 0.0, "lat": 38.90854616666667, "name": "d16c1d92d1216299eba9c9b3e9b839b3", "fusion_lon": 0.0, "bike_id": "d16c1d92d1216299eba9c9b3e9b839b3", "is_disabled": 0, "is_reserved": 0}, {"rental_uris": {"ios": "https://dc.lft.to/lastmile_qr_scan", "android": "https://dc.lft.to/lastmile_qr_scan"}, "lon": -77.05002266666666, "type": "electric_scooter", "fusion_lat": 0.0, "lat": 38.892295, "name": "f9f0de369bf8c489a3f28f6fa48d47c7", "fusion_lon": 0.0, "bike_id": "f9f0de369bf8c489a3f28f6fa48d47c7", "is_disabled": 0, "is_reserved": 0}, {"rental_uris": {"ios": "https://dc.lft.to/lastmile_qr_scan", "android": "https://dc.lft.to/lastmile_qr_scan"}, "lon": -77.03214716666666, "type": "electric_scooter", "fusion_lat": 0.0, "lat": 38.912683666666666, "name": "81c2b04a268d0e2a877602fa0b15b29c", "fusion_lon": 0.0, "bike_id": "81c2b04a268d0e2a877602fa0b15b29c", "is_disabled": 0, "is_reserved": 0}, {"rental_uris": {"ios": "https://dc.lft.to/lastmile_qr_scan", "android": "https://dc.lft.to/lastmile_qr_scan"}, "lon": -77.089544, "type": "electric_bike", "fusion_lat": 0.0, "lat": 38.84113816666667, "name": "48ceae995f674d739ac35ade36b34e0b", "fusion_lon": 0.0, "bike_id": "48ceae995f674d739ac35ade36b34e0b", "is_disabled": 0, "is_reserved": 0}, {"rental_uris": {"ios": "https://dc.lft.to/lastmile_qr_scan", "android": "https://dc.lft.to/lastmile_qr_scan"}, "lon": -77.04169633333333, "type": "electric_scooter", "fusion_lat": 0.0, "lat": 38.9198925, "name": "764bbf472b39be0f5e5377ba64a1ea80", "fusion_lon": 0.0, "bike_id": "764bbf472b39be0f5e5377ba64a1ea80", "is_disabled": 0, "is_reserved": 0}, {"rental_uris": {"ios": "https://dc.lft.to/lastmile_qr_scan", "android": "https://dc.lft.to/lastmile_qr_scan"}, "lon": -77.03475133333333, "type": "electric_scooter", "fusion_lat": 0.0, "lat": 38.902525, "name": "e6379938cae7f101a772b30892f74f69", "fusion_lon": 0.0, "bike_id": "e6379938cae7f101a772b30892f74f69", "is_disabled": 0, "is_reserved": 0}, {"rental_uris": {"ios": "https://dc.lft.to/lastmile_qr_scan", "android": "https://dc.lft.to/lastmile_qr_scan"}, "lon": -77.03629783333334, "type": "electric_scooter", "fusion_lat": 0.0, "lat": 38.95637116666666, "name": "0de11f694d779e5bae8b053b542747d4", "fusion_lon": 0.0, "bike_id": "0de11f694d779e5bae8b053b542747d4", "is_disabled": 0, "is_reserved": 0}, {"rental_uris": {"ios": "https://dc.lft.to/lastmile_qr_scan", "android": "https://dc.lft.to/lastmile_qr_scan"}, "lon": -77.04467616666666, "type": "electric_scooter", "fusion_lat": 0.0, "lat": 38.9056365, "name": "1397b65e8240bc70eb14d784d3c9201d", "fusion_lon": 0.0, "bike_id": "1397b65e8240bc70eb14d784d3c9201d", "is_disabled": 0, "is_reserved": 0}, {"rental_uris": {"ios": "https://dc.lft.to/lastmile_qr_scan", "android": "https://dc.lft.to/lastmile_qr_scan"}, "lon": -77.02405983333334, "type": "electric_scooter", "fusion_lat": 0.0, "lat": 38.90693666666667, "name": "b0b5288daad50e1e2891e0298659e5ce", "fusion_lon": 0.0, "bike_id": "b0b5288daad50e1e2891e0298659e5ce", "is_disabled": 0, "is_reserved": 0}, {"rental_uris": {"ios": "https://dc.lft.to/lastmile_qr_scan", "android": "https://dc.lft.to/lastmile_qr_scan"}, "lon": -77.04188033333334, "type": "electric_scooter", "fusion_lat": 0.0, "lat": 38.9263085, "name": "5402179fa85e83ddc22030fa6e605753", "fusion_lon": 0.0, "bike_id": "5402179fa85e83ddc22030fa6e605753", "is_disabled": 0, "is_reserved": 0}, {"rental_uris": {"ios": "https://dc.lft.to/lastmile_qr_scan", "android": "https://dc.lft.to/lastmile_qr_scan"}, "lon": -76.99844033333333, "type": "electric_scooter", "fusion_lat": 0.0, "lat": 38.90003133333333, "name": "a55da831f958174d9c0503920927f9b4", "fusion_lon": 0.0, "bike_id": "a55da831f958174d9c0503920927f9b4", "is_disabled": 0, "is_reserved": 0}, {"rental_uris": {"ios": "https://dc.lft.to/lastmile_qr_scan", "android": "https://dc.lft.to/lastmile_qr_scan"}, "lon": -77.00832733333333, "type": "electric_bike", "fusion_lat": 0.0, "lat": 38.987758166666666, "name": "1796d460e3d4f1c8133bf79253d0cc4e", "fusion_lon": 0.0, "bike_id": "1796d460e3d4f1c8133bf79253d0cc4e", "is_disabled": 0, "is_reserved": 0}, {"rental_uris": {"ios": "https://dc.lft.to/lastmile_qr_scan", "android": "https://dc.lft.to/lastmile_qr_scan"}, "lon": -77.04159916666667, "type": "electric_scooter", "fusion_lat": 0.0, "lat": 38.9056295, "name": "7bdd9403aee45ba204e171254a464760", "fusion_lon": 0.0, "bike_id": "7bdd9403aee45ba204e171254a464760", "is_disabled": 0, "is_reserved": 0}, {"rental_uris": {"ios": "https://dc.lft.to/lastmile_qr_scan", "android": "https://dc.lft.to/lastmile_qr_scan"}, "lon": -76.94724466666666, "type": "electric_scooter", "fusion_lat": 0.0, "lat": 38.89689216666667, "name": "33927137715f860b1bc9a73647eb9d9f", "fusion_lon": 0.0, "bike_id": "33927137715f860b1bc9a73647eb9d9f", "is_disabled": 0, "is_reserved": 0}, {"rental_uris": {"ios": "https://dc.lft.to/lastmile_qr_scan", "android": "https://dc.lft.to/lastmile_qr_scan"}, "lon": -77.04645666666667, "type": "electric_bike", "fusion_lat": 0.0, "lat": 38.852112166666664, "name": "03941dafc24b8dc5c05b8f4b642d6f75", "fusion_lon": 0.0, "bike_id": "03941dafc24b8dc5c05b8f4b642d6f75", "is_disabled": 0, "is_reserved": 0}, {"rental_uris": {"ios": "https://dc.lft.to/lastmile_qr_scan", "android": "https://dc.lft.to/lastmile_qr_scan"}, "lon": -77.03315183333333, "type": "electric_scooter", "fusion_lat": 0.0, "lat": 38.90043133333333, "name": "578b68d588aa49867c1216d543132352", "fusion_lon": 0.0, "bike_id": "578b68d588aa49867c1216d543132352", "is_disabled": 0, "is_reserved": 0}, {"rental_uris": {"ios": "https://dc.lft.to/lastmile_qr_scan", "android": "https://dc.lft.to/lastmile_qr_scan"}, "lon": -77.0571325, "type": "electric_scooter", "fusion_lat": 0.0, "lat": 38.90535333333333, "name": "953b02a3fd95553cc755c75676a04069", "fusion_lon": 0.0, "bike_id": "953b02a3fd95553cc755c75676a04069", "is_disabled": 0, "is_reserved": 0}, {"rental_uris": {"ios": "https://dc.lft.to/lastmile_qr_scan", "android": "https://dc.lft.to/lastmile_qr_scan"}, "lon": -77.01840633333333, "type": "electric_scooter", "fusion_lat": 0.0, "lat": 38.919727, "name": "80f8e1271aa21a4d074b6cccd979d4a7", "fusion_lon": 0.0, "bike_id": "80f8e1271aa21a4d074b6cccd979d4a7", "is_disabled": 0, "is_reserved": 0}, {"rental_uris": {"ios": "https://dc.lft.to/lastmile_qr_scan", "android": "https://dc.lft.to/lastmile_qr_scan"}, "lon": -77.02729766666667, "type": "electric_scooter", "fusion_lat": 0.0, "lat": 38.92476116666667, "name": "d226a4e5e72b2ab225c14af96d83df27", "fusion_lon": 0.0, "bike_id": "d226a4e5e72b2ab225c14af96d83df27", "is_disabled": 0, "is_reserved": 0}, {"rental_uris": {"ios": "https://dc.lft.to/lastmile_qr_scan", "android": "https://dc.lft.to/lastmile_qr_scan"}, "lon": -76.93367633333334, "type": "electric_scooter", "fusion_lat": 0.0, "lat": 38.899179333333336, "name": "a987b8e883f45885e225f6b613171004", "fusion_lon": 0.0, "bike_id": "a987b8e883f45885e225f6b613171004", "is_disabled": 0, "is_reserved": 0}, {"rental_uris": {"ios": "https://dc.lft.to/lastmile_qr_scan", "android": "https://dc.lft.to/lastmile_qr_scan"}, "lon": -77.02732416666667, "type": "electric_scooter", "fusion_lat": 0.0, "lat": 38.92479383333333, "name": "c2720eecf01346cd1b286106f9050bc6", "fusion_lon": 0.0, "bike_id": "c2720eecf01346cd1b286106f9050bc6", "is_disabled": 0, "is_reserved": 0}, {"rental_uris": {"ios": "https://dc.lft.to/lastmile_qr_scan", "android": "https://dc.lft.to/lastmile_qr_scan"}, "lon": -77.01699866666667, "type": "electric_scooter", "fusion_lat": 0.0, "lat": 38.92036083333333, "name": "086cda9f0c53a0e14f99b6125da12cc3", "fusion_lon": 0.0, "bike_id": "086cda9f0c53a0e14f99b6125da12cc3", "is_disabled": 0, "is_reserved": 0}, {"rental_uris": {"ios": "https://dc.lft.to/lastmile_qr_scan", "android": "https://dc.lft.to/lastmile_qr_scan"}, "lon": -77.03184533333334, "type": "electric_scooter", "fusion_lat": 0.0, "lat": 38.917620166666666, "name": "de1166601b24af39181abbaba4ba0f25", "fusion_lon": 0.0, "bike_id": "de1166601b24af39181abbaba4ba0f25", "is_disabled": 0, "is_reserved": 0}, {"rental_uris": {"ios": "https://dc.lft.to/lastmile_qr_scan", "android": "https://dc.lft.to/lastmile_qr_scan"}, "lon": -77.01322783333333, "type": "electric_scooter", "fusion_lat": 0.0, "lat": 38.900562, "name": "efd17926276bcd72dcbcad57ce4ecd98", "fusion_lon": 0.0, "bike_id": "efd17926276bcd72dcbcad57ce4ecd98", "is_disabled": 0, "is_reserved": 0}, {"rental_uris": {"ios": "https://dc.lft.to/lastmile_qr_scan", "android": "https://dc.lft.to/lastmile_qr_scan"}, "lon": -77.03188583333333, "type": "electric_scooter", "fusion_lat": 0.0, "lat": 38.913934833333336, "name": "e19e798f6a33ec2791a83d8f1b384f5f", "fusion_lon": 0.0, "bike_id": "e19e798f6a33ec2791a83d8f1b384f5f", "is_disabled": 0, "is_reserved": 0}, {"rental_uris": {"ios": "https://dc.lft.to/lastmile_qr_scan", "android": "https://dc.lft.to/lastmile_qr_scan"}, "lon": -77.04307833333333, "type": "electric_scooter", "fusion_lat": 0.0, "lat": 38.923284, "name": "8aefa0fe2bf0c560244d926db567171b", "fusion_lon": 0.0, "bike_id": "8aefa0fe2bf0c560244d926db567171b", "is_disabled": 0, "is_reserved": 0}, {"rental_uris": {"ios": "https://dc.lft.to/lastmile_qr_scan", "android": "https://dc.lft.to/lastmile_qr_scan"}, "lon": -77.04563183333333, "type": "electric_scooter", "fusion_lat": 0.0, "lat": 38.91356283333333, "name": "19cffdd1ce5f05f9f8b2f04a6122b843", "fusion_lon": 0.0, "bike_id": "19cffdd1ce5f05f9f8b2f04a6122b843", "is_disabled": 0, "is_reserved": 0}, {"rental_uris": {"ios": "https://dc.lft.to/lastmile_qr_scan", "android": "https://dc.lft.to/lastmile_qr_scan"}, "lon": -76.98841866666666, "type": "electric_scooter", "fusion_lat": 0.0, "lat": 38.894646, "name": "b7d2f779f63e55442ff40a2acb7918a6", "fusion_lon": 0.0, "bike_id": "b7d2f779f63e55442ff40a2acb7918a6", "is_disabled": 0, "is_reserved": 0}, {"rental_uris": {"ios": "https://dc.lft.to/lastmile_qr_scan", "android": "https://dc.lft.to/lastmile_qr_scan"}, "lon": -77.04535633333333, "type": "electric_scooter", "fusion_lat": 0.0, "lat": 38.917919, "name": "39342ceecaca29812bc133e0efe4fd11", "fusion_lon": 0.0, "bike_id": "39342ceecaca29812bc133e0efe4fd11", "is_disabled": 0, "is_reserved": 0}, {"rental_uris": {"ios": "https://dc.lft.to/lastmile_qr_scan", "android": "https://dc.lft.to/lastmile_qr_scan"}, "lon": -77.026098, "type": "electric_scooter", "fusion_lat": 0.0, "lat": 38.89732733333334, "name": "6ad4e83df4c8404dbcc575112519e841", "fusion_lon": 0.0, "bike_id": "6ad4e83df4c8404dbcc575112519e841", "is_disabled": 0, "is_reserved": 0}, {"rental_uris": {"ios": "https://dc.lft.to/lastmile_qr_scan", "android": "https://dc.lft.to/lastmile_qr_scan"}, "lon": -77.01714316666667, "type": "electric_scooter", "fusion_lat": 0.0, "lat": 38.89221583333333, "name": "8e617b2fee843ef201e6f5021f4168f9", "fusion_lon": 0.0, "bike_id": "8e617b2fee843ef201e6f5021f4168f9", "is_disabled": 0, "is_reserved": 0}, {"rental_uris": {"ios": "https://dc.lft.to/lastmile_qr_scan", "android": "https://dc.lft.to/lastmile_qr_scan"}, "lon": -77.03555316666667, "type": "electric_scooter", "fusion_lat": 0.0, "lat": 38.92387216666667, "name": "292409d5e448a4b8d9dfd58c622eb866", "fusion_lon": 0.0, "bike_id": "292409d5e448a4b8d9dfd58c622eb866", "is_disabled": 0, "is_reserved": 0}, {"rental_uris": {"ios": "https://dc.lft.to/lastmile_qr_scan", "android": "https://dc.lft.to/lastmile_qr_scan"}, "lon": -77.03445166666667, "type": "electric_scooter", "fusion_lat": 0.0, "lat": 38.917797666666665, "name": "0f4d8e2ae5e0ddb13bf777c2976141ba", "fusion_lon": 0.0, "bike_id": "0f4d8e2ae5e0ddb13bf777c2976141ba", "is_disabled": 0, "is_reserved": 0}, {"rental_uris": {"ios": "https://dc.lft.to/lastmile_qr_scan", "android": "https://dc.lft.to/lastmile_qr_scan"}, "lon": -77.03521683333334, "type": "electric_scooter", "fusion_lat": 0.0, "lat": 38.922217833333335, "name": "77877902bc65e4b9380a8746244d2c7b", "fusion_lon": 0.0, "bike_id": "77877902bc65e4b9380a8746244d2c7b", "is_disabled": 0, "is_reserved": 0}, {"rental_uris": {"ios": "https://dc.lft.to/lastmile_qr_scan", "android": "https://dc.lft.to/lastmile_qr_scan"}, "lon": -77.03309283333333, "type": "electric_scooter", "fusion_lat": 0.0, "lat": 38.90429266666666, "name": "3d072cd1f8ddbcb5692c9e19ab9b8ca6", "fusion_lon": 0.0, "bike_id": "3d072cd1f8ddbcb5692c9e19ab9b8ca6", "is_disabled": 0, "is_reserved": 0}, {"rental_uris": {"ios": "https://dc.lft.to/lastmile_qr_scan", "android": "https://dc.lft.to/lastmile_qr_scan"}, "lon": -76.9981895, "type": "electric_scooter", "fusion_lat": 0.0, "lat": 38.88872683333334, "name": "a7a634e6d2abcfb2b691514ae22d29bd", "fusion_lon": 0.0, "bike_id": "a7a634e6d2abcfb2b691514ae22d29bd", "is_disabled": 0, "is_reserved": 0}, {"rental_uris": {"ios": "https://dc.lft.to/lastmile_qr_scan", "android": "https://dc.lft.to/lastmile_qr_scan"}, "lon": -77.0320655, "type": "electric_scooter", "fusion_lat": 0.0, "lat": 38.909456666666664, "name": "d8bbcaf9d62e2e94f0ec8757e5e3eb39", "fusion_lon": 0.0, "bike_id": "d8bbcaf9d62e2e94f0ec8757e5e3eb39", "is_disabled": 0, "is_reserved": 0}, {"rental_uris": {"ios": "https://dc.lft.to/lastmile_qr_scan", "android": "https://dc.lft.to/lastmile_qr_scan"}, "lon": -77.04324166666666, "type": "electric_scooter", "fusion_lat": 0.0, "lat": 38.905494, "name": "d4f31c20f5e71f0736264367126ac700", "fusion_lon": 0.0, "bike_id": "d4f31c20f5e71f0736264367126ac700", "is_disabled": 0, "is_reserved": 0}, {"rental_uris": {"ios": "https://dc.lft.to/lastmile_qr_scan", "android": "https://dc.lft.to/lastmile_qr_scan"}, "lon": -77.04351566666666, "type": "electric_scooter", "fusion_lat": 0.0, "lat": 38.89660516666667, "name": "469662d2a276225bb96dd8ff6a5b290e", "fusion_lon": 0.0, "bike_id": "469662d2a276225bb96dd8ff6a5b290e", "is_disabled": 0, "is_reserved": 0}, {"rental_uris": {"ios": "https://dc.lft.to/lastmile_qr_scan", "android": "https://dc.lft.to/lastmile_qr_scan"}, "lon": -77.01631766666667, "type": "electric_scooter", "fusion_lat": 0.0, "lat": 38.90715516666667, "name": "4c61752eb1176befa479ebffce8871ef", "fusion_lon": 0.0, "bike_id": "4c61752eb1176befa479ebffce8871ef", "is_disabled": 0, "is_reserved": 0}, {"rental_uris": {"ios": "https://dc.lft.to/lastmile_qr_scan", "android": "https://dc.lft.to/lastmile_qr_scan"}, "lon": -77.04369933333334, "type": "electric_scooter", "fusion_lat": 0.0, "lat": 38.917875, "name": "185fa00a77a4cf4772467bf94565e87e", "fusion_lon": 0.0, "bike_id": "185fa00a77a4cf4772467bf94565e87e", "is_disabled": 0, "is_reserved": 0}, {"rental_uris": {"ios": "https://dc.lft.to/lastmile_qr_scan", "android": "https://dc.lft.to/lastmile_qr_scan"}, "lon": -77.060228, "type": "electric_bike", "fusion_lat": 0.0, "lat": 38.9041355, "name": "0d6963fa128a21454cf2a6052c60fc26", "fusion_lon": 0.0, "bike_id": "0d6963fa128a21454cf2a6052c60fc26", "is_disabled": 0, "is_reserved": 0}, {"rental_uris": {"ios": "https://dc.lft.to/lastmile_qr_scan", "android": "https://dc.lft.to/lastmile_qr_scan"}, "lon": -76.9851325, "type": "electric_scooter", "fusion_lat": 0.0, "lat": 38.906087666666664, "name": "597af5975ac919620335f77d2d25a49f", "fusion_lon": 0.0, "bike_id": "597af5975ac919620335f77d2d25a49f", "is_disabled": 0, "is_reserved": 0}, {"rental_uris": {"ios": "https://dc.lft.to/lastmile_qr_scan", "android": "https://dc.lft.to/lastmile_qr_scan"}, "lon": -76.99972683333333, "type": "electric_scooter", "fusion_lat": 0.0, "lat": 38.90927166666667, "name": "a082e380e04f20829af0ba64e077a179", "fusion_lon": 0.0, "bike_id": "a082e380e04f20829af0ba64e077a179", "is_disabled": 0, "is_reserved": 0}, {"rental_uris": {"ios": "https://dc.lft.to/lastmile_qr_scan", "android": "https://dc.lft.to/lastmile_qr_scan"}, "lon": -77.0356295, "type": "electric_bike", "fusion_lat": 0.0, "lat": 38.96470566666667, "name": "6616b15054db4a3537ea4c9409860689", "fusion_lon": 0.0, "bike_id": "6616b15054db4a3537ea4c9409860689", "is_disabled": 0, "is_reserved": 0}, {"rental_uris": {"ios": "https://dc.lft.to/lastmile_qr_scan", "android": "https://dc.lft.to/lastmile_qr_scan"}, "lon": -77.04173816666666, "type": "electric_scooter", "fusion_lat": 0.0, "lat": 38.919372333333335, "name": "f93a69a80831f035fc9a4c0b1747a5d7", "fusion_lon": 0.0, "bike_id": "f93a69a80831f035fc9a4c0b1747a5d7", "is_disabled": 0, "is_reserved": 0}, {"rental_uris": {"ios": "https://dc.lft.to/lastmile_qr_scan", "android": "https://dc.lft.to/lastmile_qr_scan"}, "lon": -77.041744, "type": "electric_scooter", "fusion_lat": 0.0, "lat": 38.90849266666667, "name": "430b4c061439c00a890862848939ae9d", "fusion_lon": 0.0, "bike_id": "430b4c061439c00a890862848939ae9d", "is_disabled": 0, "is_reserved": 0}, {"rental_uris": {"ios": "https://dc.lft.to/lastmile_qr_scan", "android": "https://dc.lft.to/lastmile_qr_scan"}, "lon": -77.0060965, "type": "electric_scooter", "fusion_lat": 0.0, "lat": 38.87692283333333, "name": "664b42c00c2c061b946e409c137da509", "fusion_lon": 0.0, "bike_id": "664b42c00c2c061b946e409c137da509", "is_disabled": 0, "is_reserved": 0}, {"rental_uris": {"ios": "https://dc.lft.to/lastmile_qr_scan", "android": "https://dc.lft.to/lastmile_qr_scan"}, "lon": -77.01820216666667, "type": "electric_scooter", "fusion_lat": 0.0, "lat": 38.8999765, "name": "4049d26d071d2a21dc042aee8a0874f0", "fusion_lon": 0.0, "bike_id": "4049d26d071d2a21dc042aee8a0874f0", "is_disabled": 0, "is_reserved": 0}, {"rental_uris": {"ios": "https://dc.lft.to/lastmile_qr_scan", "android": "https://dc.lft.to/lastmile_qr_scan"}, "lon": -76.99518166666667, "type": "electric_scooter", "fusion_lat": 0.0, "lat": 38.889891166666665, "name": "3a64f0d84c7a0a0daccaea80cc173947", "fusion_lon": 0.0, "bike_id": "3a64f0d84c7a0a0daccaea80cc173947", "is_disabled": 0, "is_reserved": 0}, {"rental_uris": {"ios": "https://dc.lft.to/lastmile_qr_scan", "android": "https://dc.lft.to/lastmile_qr_scan"},