{"data": {"bikes": [{"rental_uris": {"ios": "https://dc.lft.to/lastmile_qr_scan", "android": "https://dc.lft.to/lastmile_qr_scan"}, "lon": -77.01629266666667, "type": "electric_scooter", "fusion_lat": 0.0, "lat": 38.899631, "name": "f0fce8bc63371efc69291a8b60f17cc8", "fusion_lon": 0.0, "bike_id": "f0fce8bc63371efc69291a8b60f17cc8", "is_disabled": 0, "is_reserved": 0}, {"rental_uris": {"ios": "https://dc.lft.to/lastmile_qr_scan", "android": "https://dc.lft.to/lastmile_qr_scan"}, "lon": -77.05278833333334, "type": "electric_scooter", "fusion_lat": 0.0, "lat": 38.910509, "name": "18ef4ea1a9bca577df0df1a13740577c", "fusion_lon": 0.0, "bike_id": "18ef4ea1a9bca577df0df1a13740577c", "is_disabled": 0, "is_reserved": 0}, {"rental_uris": {"ios": "https://dc.lft.to/lastmile_qr_scan", "android": "https://dc.lft.to/lastmile_qr_scan"}, "lon": -77.0271625, "type": "electric_scooter", "fusion_lat": 0.0, "lat": 38.90687283333333, "name": "94c3f463301fcdae9db75cc972435159", "fusion_lon": 0.0, "bike_id": "94c3f463301fcdae9db75cc972435159", "is_disabled": 0, "is_reserved": 0}, {"rental_uris": {"ios": "https://dc.lft.to/lastmile_qr_scan", "android": "https://dc.lft.to/lastmile_qr_scan"}, "lon": -77.07813466666667, "type": "electric_scooter", "fusion_lat": 0.0, "lat": 38.941002166666664, "name": "af8830a0c1e8e78ee6888a284a004e3e", "fusion_lon": 0.0, "bike_id": "af8830a0c1e8e78ee6888a284a004e3e", "is_disabled": 0, "is_reserved": 0}, {"rental_uris": {"ios": "https://dc.lft.to/lastmile_qr_scan", "android": "https://dc.lft.to/lastmile_qr_scan"}, "lon": -77.01598666666666, "type": "electric_scooter", "fusion_lat": 0.0, "lat": 38.89617583333333, "name": "9a149957c36e9242bf419382ba649f15", "fusion_lon": 0.0, "bike_id": "9a149957c36e9242bf419382ba649f15", "is_disabled": 0, "is_reserved": 0}, {"rental_uris": {"ios": "https://dc.lft.to/lastmile_qr_scan", "android": "https://dc.lft.to/lastmile_qr_scan"}, "lon": -76.92996716666667, "type": "electric_bike", "fusion_lat": 0.0, "lat": 38.88795233333333, "name": "7bcbd61b147037711a14ef1302d8172d", "fusion_lon": 0.0, "bike_id": "7bcbd61b147037711a14ef1302d8172d", "is_disabled": 0, "is_reserved": 0}, {"rental_uris": {"ios": "https://dc.lft.to/lastmile_qr_scan", "android": "https://dc.lft.to/lastmile_qr_scan"}, "lon": -77.00717233333333, "type": "electric_scooter", "fusion_lat": 0.0, "lat": 38.913431, "name": "9abd6a74891120dbfc5d108c551ea014", "fusion_lon": 0.0, "bike_id": "9abd6a74891120dbfc5d108c551ea014", "is_disabled": 0, "is_reserved": 0}, {"rental_uris": {"ios": "https://dc.lft.to/lastmile_qr_scan", "android": "https://dc.lft.to/lastmile_qr_scan"}, "lon": -76.93967666666667, "type": "electric_scooter", "fusion_lat": 0.0, "lat": 38.894174, "name": "a8b98aab569e5acf0f5a1ffc7ac0cb46", "fusion_lon": 0.0, "bike_id": "a8b98aab569e5acf0f5a1ffc7ac0cb46", "is_disabled": 0, "is_reserved": 0}, {"rental_uris": {"ios": "https://dc.lft.to/lastmile_qr_scan", "android": "https://dc.lft.to/lastmile_qr_scan"}, "lon": -77.020042, "type": "electric_scooter", "fusion_lat": 0.0, "lat": 38.885729166666664, "name": "84a8e7e1b18a773d98f91f703fe2be3b", "fusion_lon": 0.0, "bike_id": "84a8e7e1b18a773d98f91f703fe2be3b", "is_disabled": 0, "is_reserved": 0}, {"rental_uris": {"ios": "https://dc.lft.to/lastmile_qr_scan", "android": "https://dc.lft.to/lastmile_qr_scan"}, "lon": -77.0318345, "type": "electric_scooter", "fusion_lat": 0.0, "lat": 38.918003166666665, "name": "6a553ce9d4c1155ead77be4688518327", "fusion_lon": 0.0, "bike_id": "6a553ce9d4c1155ead77be4688518327", "is_disabled": 0, "is_reserved": 0}, {"rental_uris": {"ios": "https://dc.lft.to/lastmile_qr_scan", "android": "https://dc.lft.to/lastmile_qr_scan"}, "lon": -77.00608083333333, "type": "electric_scooter", "fusion_lat": 0.0, "lat": 38.90559583333334, "name": "e11eebf701468d1ddd2f009f0f18d23c", "fusion_lon": 0.0, "bike_id": "e11eebf701468d1ddd2f009f0f18d23c", "is_disabled": 0, "is_reserved": 0}, {"rental_uris": {"ios": "https://dc.lft.to/lastmile_qr_scan", "android": "https://dc.lft.to/lastmile_qr_scan"}, "lon": -77.04927783333333, "type": "electric_scooter", "fusion_lat": 0.0, "lat": 38.89606933333334, "name": "6be64fdc48cc5912d6406d38337b039d", "fusion_lon": 0.0, "bike_id": "6be64fdc48cc5912d6406d38337b039d", "is_disabled": 0, "is_reserved": 0}, {"rental_uris": {"ios": "https://dc.lft.to/lastmile_qr_scan", "android": "https://dc.lft.to/lastmile_qr_scan"}, "lon": -77.04630716666667, "type": "electric_scooter", "fusion_lat": 0.0, "lat": 38.914831, "name": "f21141e684d75f117549dcc6ca0117eb", "fusion_lon": 0.0, "bike_id": "f21141e684d75f117549dcc6ca0117eb", "is_disabled": 0, "is_reserved": 0}, {"rental_uris": {"ios": "https://dc.lft.to/lastmile_qr_scan", "android": "https://dc.lft.to/lastmile_qr_scan"}, "lon": -77.0164535, "type": "electric_scooter", "fusion_lat": 0.0, "lat": 38.929371833333335, "name": "8a982caad338ea05e2c44bad2a57f29c", "fusion_lon": 0.0, "bike_id": "8a982caad338ea05e2c44bad2a57f29c", "is_disabled": 0, "is_reserved": 0}, {"rental_uris": {"ios": "https://dc.lft.to/lastmile_qr_scan", "android": "https://dc.lft.to/lastmile_qr_scan"}, "lon": -77.04873466666666, "type": "electric_scooter", "fusion_lat": 0.0, "lat": 38.903061666666666, "name": "9258c9d5013f26b9473a8aaa50a0948b", "fusion_lon": 0.0, "bike_id": "9258c9d5013f26b9473a8aaa50a0948b", "is_disabled": 0, "is_reserved": 0}, {"rental_uris": {"ios": "https://dc.lft.to/lastmile_qr_scan", "android": "https://dc.lft.to/lastmile_qr_scan"}, "lon": -77.03973266666667, "type": "electric_scooter", "fusion_lat": 0.0, "lat": 38.923209, "name": "ca89548d36db73853e36db0a5a3fa7c7", "fusion_lon": 0.0, "bike_id": "ca89548d36db73853e36db0a5a3fa7c7", "is_disabled": 0, "is_reserved": 0}, {"rental_uris": {"ios": "https://dc.lft.to/lastmile_qr_scan", "android": "https://dc.lft.to/lastmile_qr_scan"}, "lon": -77.01530633333333, "type": "electric_scooter", "fusion_lat": 0.0, "lat": 38.872683333333335, "name": "d4368b1ff9823bc41a95d00dcbc61b6a", "fusion_lon": 0.0, "bike_id": "d4368b1ff9823bc41a95d00dcbc61b6a", "is_disabled": 0, "is_reserved": 0}, {"rental_uris": {"ios": "https://dc.lft.to/lastmile_qr_scan", "android": "https://dc.lft.to/lastmile_qr_scan"}, "lon": -77.024396, "type": "electric_scooter", "fusion_lat": 0.0, "lat": 38.956352833333334, "name": "8be5950f0c42faa0dbe90df4c343d3d3", "fusion_lon": 0.0, "bike_id": "8be5950f0c42faa0dbe90df4c343d3d3", "is_disabled": 0, "is_reserved": 0}, {"rental_uris": {"ios": "https://dc.lft.to/lastmile_qr_scan", "android": "https://dc.lft.to/lastmile_qr_scan"}, "lon": -77.06938866666667, "type": "electric_scooter", "fusion_lat": 0.0, "lat": 38.90517, "name": "843a40dedb291da1b2e943a09d9908b7", "fusion_lon": 0.0, "bike_id": "843a40dedb291da1b2e943a09d9908b7", "is_disabled": 0, "is_reserved": 0}, {"rental_uris": {"ios": "https://dc.lft.to/lastmile_qr_scan", "android": "https://dc.lft.to/lastmile_qr_scan"}, "lon": -77.0295815, "type": "electric_scooter", "fusion_lat": 0.0, "lat": 38.915844, "name": "19a75eaebea0f14ade22e17796c14c24", "fusion_lon": 0.0, "bike_id": "19a75eaebea0f14ade22e17796c14c24", "is_disabled": 0, "is_reserved": 0}, {"rental_uris": {"ios": "https://dc.lft.to/lastmile_qr_scan", "android": "https://dc.lft.to/lastmile_qr_scan"}, "lon": -77.06879066666667, "type": "electric_scooter", "fusion_lat": 0.0, "lat": 38.905174, "name": "23c96abee394ef400c4eb43b2c20765e", "fusion_lon": 0.0, "bike_id": "23c96abee394ef400c4eb43b2c20765e", "is_disabled": 0, "is_reserved": 0}, {"rental_uris": {"ios": "https://dc.lft.to/lastmile_qr_scan", "android": "https://dc.lft.to/lastmile_qr_scan"}, "lon": -76.99486416666667, "type": "electric_scooter", "fusion_lat": 0.0, "lat": 38.902333, "name": "e18f8f2038ba1c3f9003fdcbd3c005a6", "fusion_lon": 0.0, "bike_id": "e18f8f2038ba1c3f9003fdcbd3c005a6", "is_disabled": 0, "is_reserved": 0}, {"rental_uris": {"ios": "https://dc.lft.to/lastmile_qr_scan", "android": "https://dc.lft.to/lastmile_qr_scan"}, "lon": -76.998633, "type": "electric_scooter", "fusion_lat": 0.0, "lat": 38.900160666666665, "name": "a997a1edb9f8fc96fa3baa8568a82e35", "fusion_lon": 0.0, "bike_id": "a997a1edb9f8fc96fa3baa8568a82e35", "is_disabled": 0, "is_reserved": 0}, {"rental_uris": {"ios": "https://dc.lft.to/lastmile_qr_scan", "android": "https://dc.lft.to/lastmile_qr_scan"}, "lon": -77.04031666666667, "type": "electric_scooter", "fusion_lat": 0.0, "lat": 38.924442, "name": "f8d9c8e53cd5d05ff43e4f88273dbc42", "fusion_lon": 0.0, "bike_id": "f8d9c8e53cd5d05ff43e4f88273dbc42", "is_disabled": 0, "is_reserved": 0}, {"rental_uris": {"ios": "https://dc.lft.to/lastmile_qr_scan", "android": "https://dc.lft.to/lastmile_qr_scan"}, "lon": -77.0405445, "type": "electric_scooter", "fusion_lat": 0.0, "lat": 38.92711833333333, "name": "ec8ad0aba1e1a3ec0c4429c85541c029", "fusion_lon": 0.0, "bike_id": "ec8ad0aba1e1a3ec0c4429c85541c029", "is_disabled": 0, "is_reserved": 0}, {"rental_uris": {"ios": "https://dc.lft.to/lastmile_qr_scan", "android": "https://dc.lft.to/lastmile_qr_scan"}, "lon": -77.09750916666667, "type": "electric_bike", "fusion_lat": 0.0, "lat": 38.85854233333333, "name": "767b961363e387b3bf12011939198c03", "fusion_lon": 0.0, "bike_id": "767b961363e387b3bf12011939198c03", "is_disabled": 0, "is_reserved": 0}, {"rental_uris": {"ios": "https://dc.lft.to/lastmile_qr_scan", "android": "https://dc.lft.to/lastmile_qr_scan"}, "lon": -77.024892, "type": "electric_scooter", "fusion_lat": 0.0, "lat": 38.9418465, "name": "3551337c201881a7b01d4b041df764ac", "fusion_lon": 0.0, "bike_id": "3551337c201881a7b01d4b041df764ac", "is_disabled": 0, "is_reserved": 0}, {"rental_uris": {"ios": "https://dc.lft.to/lastmile_qr_scan", "android": "https://dc.lft.to/lastmile_qr_scan"}, "lon": -77.03394616666667, "type": "electric_scooter", "fusion_lat": 0.0, "lat": 38.938545833333336, "name": "9d1f0314bbd2ca7e8ac3ca32971a1a0b", "fusion_lon": 0.0, "bike_id": "9d1f0314bbd2ca7e8ac3ca32971a1a0b", "is_disabled": 0, "is_reserved": 0}, {"rental_uris": {"ios": "https://dc.lft.to/lastmile_qr_scan", "android": "https://dc.lft.to/lastmile_qr_scan"}, "lon": -77.02728783333333, "type": "electric_scooter", "fusion_lat": 0.0, "lat": 38.901483166666665, "name": "485b9e150b51dc9c0d67e9dd8d46175d", "fusion_lon": 0.0, "bike_id": "485b9e150b51dc9c0d67e9dd8d46175d", "is_disabled": 0, "is_reserved": 0}, {"rental_uris": {"ios": "https://dc.lft.to/lastmile_qr_scan", "android": "https://dc.lft.to/lastmile_qr_scan"}, "lon": -77.069404, "type": "electric_scooter", "fusion_lat": 0.0, "lat": 38.90513466666667, "name": "3cbe2cdccf4eada7081027e873912f1b", "fusion_lon": 0.0, "bike_id": "3cbe2cdccf4eada7081027e873912f1b", "is_disabled": 0, "is_reserved": 0}, {"rental_uris": {"ios": "https://dc.lft.to/lastmile_qr_scan", "android": "https://dc.lft.to/lastmile_qr_scan"}, "lon": -77.098723, "type": "electric_bike", "fusion_lat": 0.0, "lat": 38.853759, "name": "dd40c68e6f07faa52f0b5590b2804db2", "fusion_lon": 0.0, "bike_id": "dd40c68e6f07faa52f0b5590b2804db2", "is_disabled": 0, "is_reserved": 0}, {"rental_uris": {"ios": "https://dc.lft.to/lastmile_qr_scan", "android": "https://dc.lft.to/lastmile_qr_scan"}, "lon": -77.03443516666667, "type": "electric_scooter", "fusion_lat": 0.0, "lat": 38.9180005, "name": "d81cd73495cab5474da262c4ab97e0fd", "fusion_lon": 0.0, "bike_id": "d81cd73495cab5474da262c4ab97e0fd", "is_disabled": 0, "is_reserved": 0}, {"rental_uris": {"ios": "https://dc.lft.to/lastmile_qr_scan", "android": "https://dc.lft.to/lastmile_qr_scan"}, "lon": -77.0018315, "type": "electric_scooter", "fusion_lat": 0.0, "lat": 38.873857, "name": "efe8cc70cb0c9070c840f31c49846ac9", "fusion_lon": 0.0, "bike_id": "efe8cc70cb0c9070c840f31c49846ac9", "is_disabled": 0, "is_reserved": 0}, {"rental_uris": {"ios": "https://dc.lft.to/lastmile_qr_scan", "android": "https://dc.lft.to/lastmile_qr_scan"}, "lon": -77.04571566666667, "type": "electric_scooter", "fusion_lat": 0.0, "lat": 38.908603166666666, "name": "5f2ccdc65f8a03e5230a57ffb86a3282", "fusion_lon": 0.0, "bike_id": "5f2ccdc65f8a03e5230a57ffb86a3282", "is_disabled": 0, "is_reserved": 0}, {"rental_uris": {"ios": "https://dc.lft.to/lastmile_qr_scan", "android": "https://dc.lft.to/lastmile_qr_scan"}, "lon": -77.02477633333334, "type": "electric_scooter", "fusion_lat": 0.0, "lat": 38.918170833333335, "name": "14b9eba572fe0f8376fe1a4181cb6f64", "fusion_lon": 0.0, "bike_id": "14b9eba572fe0f8376fe1a4181cb6f64", "is_disabled": 0, "is_reserved": 0}, {"rental_uris": {"ios": "https://dc.lft.to/lastmile_qr_scan", "android": "https://dc.lft.to/lastmile_qr_scan"}, "lon": -77.03169566666666, "type": "electric_scooter", "fusion_lat": 0.0, "lat": 38.919958666666666, "name": "2102f113f390487c8f76265392a5d316", "fusion_lon": 0.0, "bike_id": "2102f113f390487c8f76265392a5d316", "is_disabled": 0, "is_reserved": 0}, {"rental_uris": {"ios": "https://dc.lft.to/lastmile_qr_scan", "android": "https://dc.lft.to/lastmile_qr_scan"}, "lon": -77.03681583333334, "type": "electric_scooter", "fusion_lat": 0.0, "lat": 38.91812316666667, "name": "96406e5adcb2514beddb5583ce9af600", "fusion_lon": 0.0, "bike_id": "96406e5adcb2514beddb5583ce9af600", "is_disabled": 0, "is_reserved": 0}, {"rental_uris": {"ios": "https://dc.lft.to/lastmile_qr_scan", "android": "https://dc.lft.to/lastmile_qr_scan"}, "lon": -77.02230583333333, "type": "electric_scooter", "fusion_lat": 0.0, "lat": 38.89197266666667, "name": "db7d9da654370e39c8d1c8fab0764406", "fusion_lon": 0.0, "bike_id": "db7d9da654370e39c8d1c8fab0764406", "is_disabled": 0, "is_reserved": 0}, {"rental_uris": {"ios": "https://dc.lft.to/lastmile_qr_scan", "android": "https://dc.lft.to/lastmile_qr_scan"}, "lon": -77.00364666666667, "type": "electric_scooter", "fusion_lat": 0.0, "lat": 38.899277833333336, "name": "db14cedf2104421647100fb0d8e38a55", "fusion_lon": 0.0, "bike_id": "db14cedf2104421647100fb0d8e38a55", "is_disabled": 0, "is_reserved": 0}, {"rental_uris": {"ios": "https://dc.lft.to/lastmile_qr_scan", "android": "https://dc.lft.to/lastmile_qr_scan"}, "lon": -77.039231, "type": "electric_scooter", "fusion_lat": 0.0, "lat": 38.899128166666664, "name": "136627d91de133c9c69d8da839411eb2", "fusion_lon": 0.0, "bike_id": "136627d91de133c9c69d8da839411eb2", "is_disabled": 0, "is_reserved": 0}, {"rental_uris": {"ios": "https://dc.lft.to/lastmile_qr_scan", "android": "https://dc.lft.to/lastmile_qr_scan"}, "lon": -77.02709216666666, "type": "electric_scooter", "fusion_lat": 0.0, "lat": 38.917485, "name": "aeda531c1bbd7c2513e4dd0d18ba3fbc", "fusion_lon": 0.0, "bike_id": "aeda531c1bbd7c2513e4dd0d18ba3fbc", "is_disabled": 0, "is_reserved": 0}, {"rental_uris": {"ios": "https://dc.lft.to/lastmile_qr_scan", "android": "https://dc.lft.to/lastmile_qr_scan"}, "lon": -77.13103333333333, "type": "electric_bike", "fusion_lat": 0.0, "lat": 38.87629483333333, "name": "f562c8c17b8b3af5676d8f720bbb75e8", "fusion_lon": 0.0, "bike_id": "f562c8c17b8b3af5676d8f720bbb75e8", "is_disabled": 0, "is_reserved": 0}, {"rental_uris": {"ios": "https://dc.lft.to/lastmile_qr_scan", "android": "https://dc.lft.to/lastmile_qr_scan"}, "lon": -77.05860533333333, "type": "electric_scooter", "fusion_lat": 0.0, "lat": 38.9342115, "name": "b793512636de9e43be5dea84fb8d6358", "fusion_lon": 0.0, "bike_id": "b793512636de9e43be5dea84fb8d6358", "is_disabled": 0, "is_reserved": 0}, {"rental_uris": {"ios": "https://dc.lft.to/lastmile_qr_scan", "android": "https://dc.lft.to/lastmile_qr_scan"}, "lon": -77.03740716666667, "type": "electric_scooter", "fusion_lat": 0.0, "lat": 38.929110333333334, "name": "f53d3f5cf57acf4909835aa26c31a521", "fusion_lon": 0.0, "bike_id": "f53d3f5cf57acf4909835aa26c31a521", "is_disabled": 0, "is_reserved": 0}, {"rental_uris": {"ios": "https://dc.lft.to/lastmile_qr_scan", "android": "https://dc.lft.to/lastmile_qr_scan"}, "lon": -76.98709083333334, "type": "electric_scooter", "fusion_lat": 0.0, "lat": 38.865375666666665, "name": "344a921c6fe6e08b180afba3f4a9ecb0", "fusion_lon": 0.0, "bike_id": "344a921c6fe6e08b180afba3f4a9ecb0", "is_disabled": 0, "is_reserved": 0}, {"rental_uris": {"ios": "https://dc.lft.to/lastmile_qr_scan", "android": "https://dc.lft.to/lastmile_qr_scan"}, "lon": -77.05062783333334, "type": "electric_scooter", "fusion_lat": 0.0, "lat": 38.900915499999996, "name": "68a478c287b6e201cf5a383bebc7d7f3", "fusion_lon": 0.0, "bike_id": "68a478c287b6e201cf5a383bebc7d7f3", "is_disabled": 0, "is_reserved": 0}, {"rental_uris": {"ios": "https://dc.lft.to/lastmile_qr_scan", "android": "https://dc.lft.to/lastmile_qr_scan"}, "lon": -77.0319115, "type": "electric_scooter", "fusion_lat": 0.0, "lat": 38.8993465, "name": "7f88a5ef65209d4563423465c28eb0dd", "fusion_lon": 0.0, "bike_id": "7f88a5ef65209d4563423465c28eb0dd", "is_disabled": 0, "is_reserved": 0}, {"rental_uris": {"ios": "https://dc.lft.to/lastmile_qr_scan", "android": "https://dc.lft.to/lastmile_qr_scan"}, "lon": -77.00520916666666, "type": "electric_scooter", "fusion_lat": 0.0, "lat": 38.92908116666667, "name": "ec0f848b977c3263c86c936efd0deaf9", "fusion_lon": 0.0, "bike_id": "ec0f848b977c3263c86c936efd0deaf9", "is_disabled": 0, "is_reserved": 0}, {"rental_uris": {"ios": "https://dc.lft.to/lastmile_qr_scan", "android": "https://dc.lft.to/lastmile_qr_scan"}, "lon": -77.01186083333333, "type": "electric_scooter", "fusion_lat": 0.0, "lat": 38.900265, "name": "876e89930c449f779522cef74c2a5095", "fusion_lon": 0.0, "bike_id": "876e89930c449f779522cef74c2a5095", "is_disabled": 0, "is_reserved": 0}, {"rental_uris": {"ios": "https://dc.lft.to/lastmile_qr_scan", "android": "https://dc.lft.to/lastmile_qr_scan"}, "lon": -77.07714833333333, "type": "electric_scooter", "fusion_lat": 0.0, "lat": 38.956118333333336, "name": "6f0e4fd85be7a2d3b17bd5f5e6aa49d4", "fusion_lon": 0.0, "bike_id": "6f0e4fd85be7a2d3b17bd5f5e6aa49d4", "is_disabled": 0, "is_reserved": 0}, {"rental_uris": {"ios": "https://dc.lft.to/lastmile_qr_scan", "android": "https://dc.lft.to/lastmile_qr_scan"}, "lon": -77.03630333333334, "type": "electric_scooter", "fusion_lat": 0.0, "lat": 38.929080666666664, "name": "5649c2fe94e016dd8148bebbc3a4e449", "fusion_lon": 0.0, "bike_id": "5649c2fe94e016dd8148bebbc3a4e449", "is_disabled": 0, "is_reserved": 0}, {"rental_uris": {"ios": "https://dc.lft.to/lastmile_qr_scan", "android": "https://dc.lft.to/lastmile_qr_scan"}, "lon": -77.02981133333333, "type": "electric_scooter", "fusion_lat": 0.0, "lat": 38.946038, "name": "b9699c9b958d92bf1da259fb48da17e8", "fusion_lon": 0.0, "bike_id": "b9699c9b958d92bf1da259fb48da17e8", "is_disabled": 0, "is_reserved": 0}, {"rental_uris": {"ios": "https://dc.lft.to/lastmile_qr_scan", "android": "https://dc.lft.to/lastmile_qr_scan"}, "lon": -77.00077916666666, "type": "electric_scooter", "fusion_lat": 0.0, "lat": 38.905885833333336, "name": "3fab2bb61e79029fd0bba2680ffc0d2f", "fusion_lon": 0.0, "bike_id": "3fab2bb61e79029fd0bba2680ffc0d2f", "is_disabled": 0, "is_reserved": 0}, {"rental_uris": {"ios": "https://dc.lft.to/lastmile_qr_scan", "android": "https://dc.lft.to/lastmile_qr_scan"}, "lon": -77.12033183333334, "type": "electric_bike", "fusion_lat": 0.0, "lat": 38.855192, "name": "e53c8c34ae6fa175df9dbc9ce85dc61a", "fusion_lon": 0.0, "bike_id": "e53c8c34ae6fa175df9dbc9ce85dc61a", "is_disabled": 0, "is_reserved": 0}, {"rental_uris": {"ios": "https://dc.lft.to/lastmile_qr_scan", "android": "https://dc.lft.to/lastmile_qr_scan"}, "lon": -77.0134325, "type": "electric_scooter", "fusion_lat": 0.0, "lat": 38.919378333333334, "name": "51e3c9d9419ad4d937bca867d36da800", "fusion_lon": 0.0, "bike_id": "51e3c9d9419ad4d937bca867d36da800", "is_disabled": 0, "is_reserved": 0}, {"rental_uris": {"ios": "https://dc.lft.to/lastmile_qr_scan", "android": "https://dc.lft.to/lastmile_qr_scan"}, "lon": -77.034525, "type": "electric_scooter", "fusion_lat": 0.0, "lat": 38.91813466666667, "name": "68de6e2b2a76997055806bba5b0532e3", "fusion_lon": 0.0, "bike_id": "68de6e2b2a76997055806bba5b0532e3", "is_disabled": 0, "is_reserved": 0}, {"rental_uris": {"ios": "https://dc.lft.to/lastmile_qr_scan", "android": "https://dc.lft.to/lastmile_qr_scan"}, "lon": -77.04442933333333, "type": "electric_scooter", "fusion_lat": 0.0, "lat": 38.91017683333333, "name": "4677ea5ce604c8bcb53dbd4231a3e692", "fusion_lon": 0.0, "bike_id": "4677ea5ce604c8bcb53dbd4231a3e692", "is_disabled": 0, "is_reserved": 0}, {"rental_uris": {"ios": "https://dc.lft.to/lastmile_qr_scan", "android": "https://dc.lft.to/lastmile_qr_scan"}, "lon": -76.99497966666667, "type": "electric_scooter", "fusion_lat": 0.0, "lat": 38.862411333333334, "name": "c293dbcb7c7bb06446391716ce637195", "fusion_lon": 0.0, "bike_id": "c293dbcb7c7bb06446391716ce637195", "is_disabled": 0, "is_reserved": 0}, {"rental_uris": {"ios": "https://dc.lft.to/lastmile_qr_scan", "android": "https://dc.lft.to/lastmile_qr_scan"}, "lon": -76.9317785, "type": "electric_scooter", "fusion_lat": 0.0, "lat": 38.8988605, "name": "0554f3733b97dd1b4402930c3afa46b5", "fusion_lon": 0.0, "bike_id": "0554f3733b97dd1b4402930c3afa46b5", "is_disabled": 0, "is_reserved": 0}, {"rental_uris": {"ios": "https://dc.lft.to/lastmile_qr_scan", "android": "https://dc.lft.to/lastmile_qr_scan"}, "lon": -77.036652, "type": "electric_scooter", "fusion_lat": 0.0, "lat": 38.91815533333333, "name": "ca2a09ad7dc05252dde31d984125dd37", "fusion_lon": 0.0, "bike_id": "ca2a09ad7dc05252dde31d984125dd37", "is_disabled": 0, "is_reserved": 0}, {"rental_uris": {"ios": "https://dc.lft.to/lastmile_qr_scan", "android": "https://dc.lft.to/lastmile_qr_scan"}, "lon": -77.03963183333333, "type": "electric_scooter", "fusion_lat": 0.0, "lat": 38.91980983333333, "name": "06c107b544606666b06f58932ed1b597", "fusion_lon": 0.0, "bike_id": "06c107b544606666b06f58932ed1b597", "is_disabled": 0, "is_reserved": 0}, {"rental_uris": {"ios": "https://dc.lft.to/lastmile_qr_scan", "android": "https://dc.lft.to/lastmile_qr_scan"}, "lon": -77.031938, "type": "electric_scooter", "fusion_lat": 0.0, "lat": 38.9124895, "name": "3b009c5d3e4cda14d3b1751af94da38a", "fusion_lon": 0.0, "bike_id": "3b009c5d3e4cda14d3b1751af94da38a", "is_disabled": 0, "is_reserved": 0}, {"rental_uris": {"ios": "https://dc.lft.to/lastmile_qr_scan", "android": "https://dc.lft.to/lastmile_qr_scan"}, "lon": -77.009892, "type": "electric_scooter", "fusion_lat": 0.0, "lat": 38.91494866666667, "name": "123a30db799e19e4682161521f6a7000", "fusion_lon": 0.0, "bike_id": "123a30db799e19e4682161521f6a7000", "is_disabled": 0, "is_reserved": 0}, {"rental_uris": {"ios": "https://dc.lft.to/lastmile_qr_scan", "android": "https://dc.lft.to/lastmile_qr_scan"}, "lon": -77.0121455, "type": "electric_bike", "fusion_lat": 0.0, "lat": 38.8709945, "name": "5a59931a37c2d269e3474ec359eb7ddc", "fusion_lon": 0.0, "bike_id": "5a59931a37c2d269e3474ec359eb7ddc", "is_disabled": 0, "is_reserved": 0}, {"rental_uris": {"ios": "https://dc.lft.to/lastmile_qr_scan", "android": "https://dc.lft.to/lastmile_qr_scan"}, "lon": -76.9289365, "type": "electric_scooter", "fusion_lat": 0.0, "lat": 38.8932975, "name": "2ae0e8732e21ed46884a792fd2afa979", "fusion_lon": 0.0, "bike_id": "2ae0e8732e21ed46884a792fd2afa979", "is_disabled": 0, "is_reserved": 0}, {"rental_uris": {"ios": "https://dc.lft.to/lastmile_qr_scan", "android": "https://dc.lft.to/lastmile_qr_scan"}, "lon": -77.0322585, "type": "electric_scooter", "fusion_lat": 0.0, "lat": 38.908631666666665, "name": "f4ee772ab21456803ba3e4a729cf6267", "fusion_lon": 0.0, "bike_id": "f4ee772ab21456803ba3e4a729cf6267", "is_disabled": 0, "is_reserved": 0}, {"rental_uris": {"ios": "https://dc.lft.to/lastmile_qr_scan", "android": "https://dc.lft.to/lastmile_qr_scan"}, "lon": -77.03182383333333, "type": "electric_scooter", "fusion_lat": 0.0, "lat": 38.899429833333336, "name": "6e6c08633df21370c580c9234350492b", "fusion_lon": 0.0, "bike_id": "6e6c08633df21370c580c9234350492b", "is_disabled": 0, "is_reserved": 0}, {"rental_uris": {"ios": "https://dc.lft.to/lastmile_qr_scan", "android": "https://dc.lft.to/lastmile_qr_scan"}, "lon": -77.02701016666667, "type": "electric_scooter", "fusion_lat": 0.0, "lat": 38.949773, "name": "bd8930042f8215d8551b3475c13c41ca", "fusion_lon": 0.0, "bike_id": "bd8930042f8215d8551b3475c13c41ca", "is_disabled": 0, "is_reserved": 0}, {"rental_uris": {"ios": "https://dc.lft.to/lastmile_qr_scan", "android": "https://dc.lft.to/lastmile_qr_scan"}, "lon": -77.04666483333334, "type": "electric_scooter", "fusion_lat": 0.0, "lat": 38.90545683333333, "name": "d20ae713c5c3a68d844a7acb505abf1a", "fusion_lon": 0.0, "bike_id": "d20ae713c5c3a68d844a7acb505abf1a", "is_disabled": 0, "is_reserved": 0}, {"rental_uris": {"ios": "https://dc.lft.to/lastmile_qr_scan", "android": "https://dc.lft.to/lastmile_qr_scan"}, "lon": -77.0211675, "type": "electric_scooter", "fusion_lat": 0.0, "lat": 38.91306, "name": "c5630004ef3d2febba2711f00fea8e7a", "fusion_lon": 0.0, "bike_id": "c5630004ef3d2febba2711f00fea8e7a", "is_disabled": 0, "is_reserved": 0}, {"rental_uris": {"ios": "https://dc.lft.to/lastmile_qr_scan", "android": "https://dc.lft.to/lastmile_qr_scan"}, "lon": -77.02220416666667, "type": "electric_scooter", "fusion_lat": 0.0, "lat": 38.8922225, "name": "0e6f41eef5de6cad1d899b2fdce89053", "fusion_lon": 0.0, "bike_id": "0e6f41eef5de6cad1d899b2fdce89053", "is_disabled": 0, "is_reserved": 0}, {"rental_uris": {"ios": "https://dc.lft.to/lastmile_qr_scan", "android": "https://dc.lft.to/lastmile_qr_scan"}, "lon": -77.01056216666667, "type": "electric_scooter", "fusion_lat": 0.0, "lat": 38.87934883333333, "name": "91964400fd4a4141f6ac93f9c9ef93eb", "fusion_lon": 0.0, "bike_id": "91964400fd4a4141f6ac93f9c9ef93eb", "is_disabled": 0, "is_reserved": 0}, {"rental_uris": {"ios": "https://dc.lft.to/lastmile_qr_scan", "android": "https://dc.lft.to/lastmile_qr_scan"}, "lon": -76.966336, "type": "electric_bike", "fusion_lat": 0.0, "lat": 38.9419985, "name": "dee350c069eaa1ecafd3f534711a596d", "fusion_lon": 0.0, "bike_id": "dee350c069eaa1ecafd3f534711a596d", "is_disabled": 0, "is_reserved": 0}, {"rental_uris": {"ios": "https://dc.lft.to/lastmile_qr_scan", "android": "https://dc.lft.to/lastmile_qr_scan"}, "lon": -77.04624816666667, "type": "electric_scooter", "fusion_lat": 0.0, "lat": 38.9038075, "name": "5a80c7b4f7a8559d78dd3e8f9f476fe4", "fusion_lon": 0.0, "bike_id": "5a80c7b4f7a8559d78dd3e8f9f476fe4", "is_disabled": 0, "is_reserved": 0}, {"rental_uris": {"ios": "https://dc.lft.to/lastmile_qr_scan", "android": "https://dc.lft.to/lastmile_qr_scan"}, "lon": -77.00187116666666, "type": "electric_scooter", "fusion_lat": 0.0, "lat": 38.8738645, "name": "659e9815af72192a715d9092976aacba", "fusion_lon": 0.0, "bike_id": "659e9815af72192a715d9092976aacba", "is_disabled": 0, "is_reserved": 0}, {"rental_uris": {"ios": "https://dc.lft.to/lastmile_qr_scan", "android": "https://dc.lft.to/lastmile_qr_scan"}, "lon": -77.04262716666666, "type": "electric_scooter", "fusion_lat": 0.0, "lat": 38.92750633333333, "name": "83f05128a2de1a15cb27eda68a5d67bb", "fusion_lon": 0.0, "bike_id": "83f05128a2de1a15cb27eda68a5d67bb", "is_disabled": 0, "is_reserved": 0}, {"rental_uris": {"ios": "https://dc.lft.to/lastmile_qr_scan", "android": "https://dc.lft.to/lastmile_qr_scan"}, "lon": -77.01017166666666, "type": "electric_scooter", "fusion_lat": 0.0, "lat": 38.91807333333333, "name": "8eb029300c4ef0a8d1c904f6b9d00e3a", "fusion_lon": 0.0, "bike_id": "8eb029300c4ef0a8d1c904f6b9d00e3a", "is_disabled": 0, "is_reserved": 0}, {"rental_uris": {"ios": "https://dc.lft.to/lastmile_qr_scan", "android": "https://dc.lft.to/lastmile_qr_scan"}, "lon": -77.02839483333334, "type": "electric_scooter", "fusion_lat": 0.0, "lat": 38.9285935, "name": "2c00dfd86ed4c83f8fd78a50bfc47490", "fusion_lon": 0.0, "bike_id": "2c00dfd86ed4c83f8fd78a50bfc47490", "is_disabled": 0, "is_reserved": 0}, {"rental_uris": {"ios": "https://dc.lft.to/lastmile_qr_scan", "android": "https://dc.lft.to/lastmile_qr_scan"}, "lon": -77.05066233333334, "type": "electric_bike", "fusion_lat": 0.0, "lat": 39.061304, "name": "f04d07d65622064ca515f40aa21b2ed8", "fusion_lon": 0.0, "bike_id": "f04d07d65622064ca515f40aa21b2ed8", "is_disabled": 0, "is_reserved": 0}, {"rental_uris": {"ios": "https://dc.lft.to/lastmile_qr_scan", "android": "https://dc.lft.to/lastmile_qr_scan"}, "lon": -77.05929283333333, "type": "electric_scooter", "fusion_lat": 0.0, "lat": 38.909528333333334, "name": "62805f9a96efe607e59975eb4aca8ca1", "fusion_lon": 0.0, "bike_id": "62805f9a96efe607e59975eb4aca8ca1", "is_disabled": 0, "is_reserved": 0}, {"rental_uris": {"ios": "https://dc.lft.to/lastmile_qr_scan", "android": "https://dc.lft.to/lastmile_qr_scan"}, "lon": -77.02450666666667, "type": "electric_scooter", "fusion_lat": 0.0, "lat": 38.937344333333336, "name": "a6f994fb07030d15af529131e40f0a02", "fusion_lon": 0.0, "bike_id": "a6f994fb07030d15af529131e40f0a02", "is_disabled": 0, "is_reserved": 0}, {"rental_uris": {"ios": "https://dc.lft.to/lastmile_qr_scan", "android": "https://dc.lft.to/lastmile_qr_scan"}, "lon": -76.98999183333333, "type": "electric_scooter", "fusion_lat": 0.0, "lat": 38.903895, "name": "2e68f76ba6b040ef8a21cde0c0960490", "fusion_lon": 0.0, "bike_id": "2e68f76ba6b040ef8a21cde0c0960490", "is_disabled": 0, "is_reserved": 0}, {"rental_uris": {"ios": "https://dc.lft.to/lastmile_qr_scan", "android": "https://dc.lft.to/lastmile_qr_scan"}, "lon": -77.03562383333333, "type": "electric_scooter", "fusion_lat": 0.0, "lat": 38.92745083333333, "name": "c2f455e1cfdcd38a398852cd587d2cbd", "fusion_lon": 0.0, "bike_id": "c2f455e1cfdcd38a398852cd587d2cbd", "is_disabled": 0, "is_reserved": 0}, {"rental_uris": {"ios": "https://dc.lft.to/lastmile_qr_scan", "android": "https://dc.lft.to/lastmile_qr_scan"}, "lon": -77.0367555, "type": "electric_scooter", "fusion_lat": 0.0, "lat": 38.9027205, "name": "b9d788568f1472b97a1a13b7a992888e", "fusion_lon": 0.0, "bike_id": "b9d788568f1472b97a1a13b7a992888e", "is_disabled": 0, "is_reserved": 0}, {"rental_uris": {"ios": "https://dc.lft.to/lastmile_qr_scan", "android": "https://dc.lft.to/lastmile_qr_scan"}, "lon": -77.02533083333333, "type": "electric_scooter", "fusion_lat": 0.0, "lat": 38.9430555, "name": "7ad9a21fa4e15f5f128b30295177278b", "fusion_lon": 0.0, "bike_id": "7ad9a21fa4e15f5f128b30295177278b", "is_disabled": 0, "is_reserved": 0}, {"rental_uris": {"ios": "https://dc.lft.to/lastmile_qr_scan", "android": "https://dc.lft.to/lastmile_qr_scan"}, "lon": -76.97881616666666, "type": "electric_scooter", "fusion_lat": 0.0, "lat": 38.887654833333336, "name": "d176bef98526ee2ab4d617f755878947", "fusion_lon": 0.0, "bike_id": "d176bef98526ee2ab4d617f755878947", "is_disabled": 0, "is_reserved": 0}, {"rental_uris": {"ios": "https://dc.lft.to/lastmile_qr_scan", "android": "https://dc.lft.to/lastmile_qr_scan"}, "lon": -77.03820083333333, "type": "electric_scooter", "fusion_lat": 0.0, "lat": 38.8986155, "name": "b6f6f8c98023d2464a6b0ab03731db65", "fusion_lon": 0.0, "bike_id": "b6f6f8c98023d2464a6b0ab03731db65", "is_disabled": 0, "is_reserved": 0}, {"rental_uris": {"ios": "https://dc.lft.to/lastmile_qr_scan", "android": "https://dc.lft.to/lastmile_qr_scan"}, "lon": -77.03813566666666, "type": "electric_scooter", "fusion_lat": 0.0, "lat": 38.9339675, "name": "3011bdc664ca62f414ce3f4bec075317", "fusion_lon": 0.0, "bike_id": "3011bdc664ca62f414ce3f4bec075317", "is_disabled": 0, "is_reserved": 0}, {"rental_uris": {"ios": "https://dc.lft.to/lastmile_qr_scan", "android": "https://dc.lft.to/lastmile_qr_scan"}, "lon": -76.95098216666666, "type": "electric_scooter", "fusion_lat": 0.0, "lat": 38.884492, "name": "cd4a88fb723106827d5631f85e14757b", "fusion_lon": 0.0, "bike_id": "cd4a88fb723106827d5631f85e14757b", "is_disabled": 0, "is_reserved": 0}, {"rental_uris": {"ios": "https://dc.lft.to/lastmile_qr_scan", "android": "https://dc.lft.to/lastmile_qr_scan"}, "lon": -77.00483016666666, "type": "electric_scooter", "fusion_lat": 0.0, "lat": 38.944067833333335, "name": "c8992f8be6f1e5eeb9487b75cee2c040", "fusion_lon": 0.0, "bike_id": "c8992f8be6f1e5eeb9487b75cee2c040", "is_disabled": 0, "is_reserved": 0}, {"rental_uris": {"ios": "https://dc.lft.to/lastmile_qr_scan", "android": "https://dc.lft.to/lastmile_qr_scan"}, "lon": -77.0390815, "type": "electric_scooter", "fusion_lat": 0.0, "lat": 38.914174833333334, "name": "cf8200c30e892c992edcf9518c0d36c9", "fusion_lon": 0.0, "bike_id": "cf8200c30e892c992edcf9518c0d36c9", "is_disabled": 0, "is_reserved": 0}, {"rental_uris": {"ios": "https://dc.lft.to/lastmile_qr_scan", "android": "https://dc.lft.to/lastmile_qr_scan"}, "lon": -77.02174966666666, "type": "electric_scooter", "fusion_lat": 0.0, "lat": 38.942916333333336, "name": "54141adedde9d01d719fec82b8f4dcdc", "fusion_lon": 0.0, "bike_id": "54141adedde9d01d719fec82b8f4dcdc", "is_disabled": 0, "is_reserved": 0}, {"rental_uris": {"ios": "https://dc.lft.to/lastmile_qr_scan", "android": "https://dc.lft.to/lastmile_qr_scan"}, "lon": -76.98978416666667, "type": "electric_scooter", "fusion_lat": 0.0, "lat": 38.8591625, "name": "9ffc7a89f3b2e1d8f0a315a0b026acb8", "fusion_lon": 0.0, "bike_id": "9ffc7a89f3b2e1d8f0a315a0b026acb8", "is_disabled": 0, "is_reserved": 0}, {"rental_uris": {"ios": "https://dc.lft.to/lastmile_qr_scan", "android": "https://dc.lft.to/lastmile_qr_scan"}, "lon": -76.9499685, "type": "electric_scooter", "fusion_lat": 0.0, "lat": 38.893752666666664, "name": "aa804b789c090a7ed41b01719433ef6e", "fusion_lon": 0.0, "bike_id": "aa804b789c090a7ed41b01719433ef6e", "is_disabled": 0, "is_reserved": 0}, {"rental_uris": {"ios": "https://dc.lft.to/lastmile_qr_scan", "android": "https://dc.lft.to/lastmile_qr_scan"}, "lon": -77.034118, "type": "electric_scooter", "fusion_lat": 0.0, "lat": 38.9232755, "name": "11ff53080cadbd0f150e818a102278a6", "fusion_lon": 0.0, "bike_id": "11ff53080cadbd0f150e818a102278a6", "is_disabled": 0, "is_reserved": 0}, {"rental_uris": {"ios": "https://dc.lft.to/lastmile_qr_scan", "android": "https://dc.lft.to/lastmile_qr_scan"}, "lon": -77.01794366666667, "type": "electric_scooter", "fusion_lat": 0.0, "lat": 38.90282666666667, "name": "1deff0c207699ad767123f7dbea01741", "fusion_lon": 0.0, "bike_id": "1deff0c207699ad767123f7dbea01741", "is_disabled": 0, "is_reserved": 0}, {"rental_uris": {"ios": "https://dc.lft.to/lastmile_qr_scan", "android": "https://dc.lft.to/lastmile_qr_scan"}, "lon": -76.976738, "type": "electric_bike", "fusion_lat": 0.0, "lat": 38.966264833333334, "name": "088f463c68d6a9b7e899b30a74c3da39", "fusion_lon": 0.0, "bike_id": "088f463c68d6a9b7e899b30a74c3da39", "is_disabled": 0, "is_reserved": 0}, {"rental_uris": {"ios": "https://dc.lft.to/lastmile_qr_scan", "android": "https://dc.lft.to/lastmile_qr_scan"}, "lon": -77.04448966666666, "type": "electric_scooter", "fusion_lat": 0.0, "lat": 38.9187805, "name": "8dba00a7f0088cc6de67fb6b29887093", "fusion_lon": 0.0, "bike_id": "8dba00a7f0088cc6de67fb6b29887093", "is_disabled": 0, "is_reserved": 0}, {"rental_uris": {"ios": "https://dc.lft.to/lastmile_qr_scan", "android": "https://dc.lft.to/lastmile_qr_scan"}, "lon": -77.0418955, "type": "electric_scooter", "fusion_lat": 0.0, "lat": 38.920505, "name": "eb5649d4d75c595208a8ef2a25e2b2aa", "fusion_lon": 0.0, "bike_id": "eb5649d4d75c595208a8ef2a25e2b2aa", "is_disabled": 0, "is_reserved": 0}, {"rental_uris": {"ios": "https://dc.lft.to/lastmile_qr_scan", "android": "https://dc.lft.to/lastmile_qr_scan"}, "lon": -77.03839866666667, "type": "electric_scooter", "fusion_lat": 0.0, "lat": 38.907620666666666, "name": "56af25d5bb5cb5a6c9d025bc5cc41a6f", "fusion_lon": 0.0, "bike_id": "56af25d5bb5cb5a6c9d025bc5cc41a6f", "is_disabled": 0, "is_reserved": 0}, {"rental_uris": {"ios": "https://dc.lft.to/lastmile_qr_scan", "android": "https://dc.lft.to/lastmile_qr_scan"}, "lon": -77.017893, "type": "electric_scooter", "fusion_lat": 0.0, "lat": 38.90813883333333, "name": "1ea8f071e1b9827c1afa4c01199efa94", "fusion_lon": 0.0, "bike_id": "1ea8f071e1b9827c1afa4c01199efa94", "is_disabled": 0, "is_reserved": 0}, {"rental_uris": {"ios": "https://dc.lft.to/lastmile_qr_scan", "android": "https://dc.lft.to/lastmile_qr_scan"}, "lon": -77.033506, "type": "electric_scooter", "fusion_lat": 0.0, "lat": 38.906392333333336, "name": "94095c844c1c4628a859459c05d5212c", "fusion_lon": 0.0, "bike_id": "94095c844c1c4628a859459c05d5212c", "is_disabled": 0, "is_reserved": 0}, {"rental_uris": {"ios": "https://dc.lft.to/lastmile_qr_scan", "android": "https://dc.lft.to/lastmile_qr_scan"}, "lon": -77.0298575, "type": "electric_scooter", "fusion_lat": 0.0, "lat": 38.900302333333336, "name": "f9cf9d2e028c5b572063d03bcdca627c", "fusion_lon": 0.0, "bike_id": "f9cf9d2e028c5b572063d03bcdca627c", "is_disabled": 0, "is_reserved": 0}, {"rental_uris": {"ios": "https://dc.lft.to/lastmile_qr_scan", "android": "https://dc.lft.to/lastmile_qr_scan"}, "lon": -76.94652866666667, "type": "electric_scooter", "fusion_lat": 0.0, "lat": 38.8982735, "name": "cd0715a44d6fd4fd5a73ea2760b6cab5", "fusion_lon": 0.0, "bike_id": "cd0715a44d6fd4fd5a73ea2760b6cab5", "is_disabled": 0, "is_reserved": 0}, {"rental_uris": {"ios": "https://dc.lft.to/lastmile_qr_scan", "android": "https://dc.lft.to/lastmile_qr_scan"}, "lon": -77.02718316666666, "type": "electric_scooter", "fusion_lat": 0.0, "lat": 38.898992666666665, "name": "e947a06d1915fbe939df4097d4714ac2", "fusion_lon": 0.0, "bike_id": "e947a06d1915fbe939df4097d4714ac2", "is_disabled": 0, "is_reserved": 0}, {"rental_uris": {"ios": "https://dc.lft.to/lastmile_qr_scan", "android": "https://dc.lft.to/lastmile_qr_scan"}, "lon": -77.0112405, "type": "electric_scooter", "fusion_lat": 0.0, "lat": 38.912687, "name": "9cdf206231d5a5511c221eaa98917d23", "fusion_lon": 0.0, "bike_id": "9cdf206231d5a5511c221eaa98917d23", "is_disabled": 0, "is_reserved": 0}, {"rental_uris": {"ios": "https://dc.lft.to/lastmile_qr_scan", "android": "https://dc.lft.to/lastmile_qr_scan"}, "lon": -76.97218233333334, "type": "electric_bike", "fusion_lat": 0.0, "lat": 38.84473033333333, "name": "9c636d66982b0862be9ec392899ff8d8", "fusion_lon": 0.0, "bike_id": "9c636d66982b0862be9ec392899ff8d8", "is_disabled": 0, "is_reserved": 0}, {"rental_uris": {"ios": "https://dc.lft.to/lastmile_qr_scan", "android": "https://dc.lft.to/lastmile_qr_scan"}, "lon": -77.03180283333333, "type": "electric_scooter", "fusion_lat": 0.0, "lat": 38.909510166666664, "name": "bba68da9ae65f1ee34981db6810a1977", "fusion_lon": 0.0, "bike_id": "bba68da9ae65f1ee34981db6810a1977", "is_disabled": 0, "is_reserved": 0}, {"rental_uris": {"ios": "https://dc.lft.to/lastmile_qr_scan", "android": "https://dc.lft.to/lastmile_qr_scan"}, "lon": -76.94440983333334, "type": "electric_bike", "fusion_lat": 0.0, "lat": 38.9029615, "name": "bb291618a8e0556de3fd5dbb3d66730f", "fusion_lon": 0.0, "bike_id": "bb291618a8e0556de3fd5dbb3d66730f", "is_disabled": 0, "is_reserved": 0}, {"rental_uris": {"ios": "https://dc.lft.to/lastmile_qr_scan", "android": "https://dc.lft.to/lastmile_qr_scan"}, "lon": -77.04186366666667, "type": "electric_scooter", "fusion_lat": 0.0, "lat": 38.920465, "name": "40d6f21af63e7eb709228628f2ad651e", "fusion_lon": 0.0, "bike_id": "40d6f21af63e7eb709228628f2ad651e", "is_disabled": 0, "is_reserved": 0}, {"rental_uris": {"ios": "https://dc.lft.to/lastmile_qr_scan", "android": "https://dc.lft.to/lastmile_qr_scan"}, "lon": -77.04719633333333, "type": "electric_scooter", "fusion_lat": 0.0, "lat": 38.916590166666666, "name": "b0c3d85f071158f19bf11dd4b18b5d53", "fusion_lon": 0.0, "bike_id": "b0c3d85f071158f19bf11dd4b18b5d53", "is_disabled": 0, "is_reserved": 0}, {"rental_uris": {"ios": "https://dc.lft.to/lastmile_qr_scan", "android": "https://dc.lft.to/lastmile_qr_scan"}, "lon": -77.03216866666666, "type": "electric_scooter", "fusion_lat": 0.0, "lat": 38.933810333333334, "name": "f00289725939300389512d68a2dae121", "fusion_lon": 0.0, "bike_id": "f00289725939300389512d68a2dae121", "is_disabled": 0, "is_reserved": 0}, {"rental_uris": {"ios": "https://dc.lft.to/lastmile_qr_scan", "android": "https://dc.lft.to/lastmile_qr_scan"}, "lon": -77.02874483333333, "type": "electric_scooter", "fusion_lat": 0.0, "lat": 38.904262833333334, "name": "4af35977d7fae9fd7c9bd2611f915d73", "fusion_lon": 0.0, "bike_id": "4af35977d7fae9fd7c9bd2611f915d73", "is_disabled": 0, "is_reserved": 0}, {"rental_uris": {"ios": "https://dc.lft.to/lastmile_qr_scan", "android": "https://dc.lft.to/lastmile_qr_scan"}, "lon": -77.03466616666667, "type": "electric_scooter", "fusion_lat": 0.0, "lat": 38.921541166666664, "name": "b11430df5819f09a8e314d17530a41e9", "fusion_lon": 0.0, "bike_id": "b11430df5819f09a8e314d17530a41e9", "is_disabled": 0, "is_reserved": 0}, {"rental_uris": {"ios": "https://dc.lft.to/lastmile_qr_scan", "android": "https://dc.lft.to/lastmile_qr_scan"}, "lon": -77.01345366666666, "type": "electric_bike", "fusion_lat": 0.0, "lat": 38.99999416666667, "name": "a62011152eba898d5c35aa9b7b4ad783", "fusion_lon": 0.0, "bike_id": "a62011152eba898d5c35aa9b7b4ad783", "is_disabled": 0, "is_reserved": 0}, {"rental_uris": {"ios": "https://dc.lft.to/lastmile_qr_scan", "android": "https://dc.lft.to/lastmile_qr_scan"}, "lon": -77.00653866666667, "type": "electric_scooter", "fusion_lat": 0.0, "lat": 38.8717445, "name": "698adbee84fb319a7f7f7b07a22bd637", "fusion_lon": 0.0, "bike_id": "698adbee84fb319a7f7f7b07a22bd637", "is_disabled": 0, "is_reserved": 0}, {"rental_uris": {"ios": "https://dc.lft.to/lastmile_qr_scan", "android": "https://dc.lft.to/lastmile_qr_scan"}, "lon": -77.018994, "type": "electric_scooter", "fusion_lat": 0.0, "lat": 38.87663166666667, "name": "86d546acf09a7f4adde05fd58acafe58", "fusion_lon": 0.0, "bike_id": "86d546acf09a7f4adde05fd58acafe58", "is_disabled": 0, "is_reserved": 0}, {"rental_uris": {"ios": "https://dc.lft.to/lastmile_qr_scan", "android": "https://dc.lft.to/lastmile_qr_scan"}, "lon": -77.02731266666666, "type": "electric_scooter", "fusion_lat": 0.0, "lat": 38.91380983333333, "name": "ab3f8511ed7f0754392a4e9fa9d2a595", "fusion_lon": 0.0, "bike_id": "ab3f8511ed7f0754392a4e9fa9d2a595", "is_disabled": 0, "is_reserved": 0}, {"rental_uris": {"ios": "https://dc.lft.to/lastmile_qr_scan", "android": "https://dc.lft.to/lastmile_qr_scan"}, "lon": -77.0111965, "type": "electric_scooter", "fusion_lat": 0.0, "lat": 38.9036315, "name": "485feed514609d51c04066c5f7cd35cf", "fusion_lon": 0.0, "bike_id": "485feed514609d51c04066c5f7cd35cf", "is_disabled": 0, "is_reserved": 0}, {"rental_uris": {"ios": "https://dc.lft.to/lastmile_qr_scan", "android": "https://dc.lft.to/lastmile_qr_scan"}, "lon": -77.055371, "type": "electric_scooter", "fusion_lat": 0.0, "lat": 38.92785333333333, "name": "e99c0e431f05542ec4cc5acd27e95501", "fusion_lon": 0.0, "bike_id": "e99c0e431f05542ec4cc5acd27e95501", "is_disabled": 0, "is_reserved": 0}, {"rental_uris": {"ios": "https://dc.lft.to/lastmile_qr_scan", "android": "https://dc.lft.to/lastmile_qr_scan"}, "lon": -77.06328266666667, "type": "electric_scooter", "fusion_lat": 0.0, "lat": 38.907623, "name": "a026f1f92cab6f85655373bda7b86d62", "fusion_lon": 0.0, "bike_id": "a026f1f92cab6f85655373bda7b86d62", "is_disabled": 0, "is_reserved": 0}, {"rental_uris": {"ios": "https://dc.lft.to/lastmile_qr_scan", "android": "https://dc.lft.to/lastmile_qr_scan"}, "lon": -76.99792166666667, "type": "electric_scooter", "fusion_lat": 0.0, "lat": 38.92181266666667, "name": "c3bbf733a1f0b0acb26d9ad99229823a", "fusion_lon": 0.0, "bike_id": "c3bbf733a1f0b0acb26d9ad99229823a", "is_disabled": 0, "is_reserved": 0}, {"rental_uris": {"ios": "https://dc.lft.to/lastmile_qr_scan", "android": "https://dc.lft.to/lastmile_qr_scan"}, "lon": -76.995013, "type": "electric_bike", "fusion_lat": 0.0, "lat": 39.0000175, "name": "2981a304cf4061c8cd00e0348decf427", "fusion_lon": 0.0, "bike_id": "2981a304cf4061c8cd00e0348decf427", "is_disabled": 0, "is_reserved": 0}, {"rental_uris": {"ios": "https://dc.lft.to/lastmile_qr_scan", "android": "https://dc.lft.to/lastmile_qr_scan"}, "lon": -77.0051595, "type": "electric_scooter", "fusion_lat": 0.0, "lat": 38.91705833333333, "name": "9a40558ebc6f1aa41a1786b01fb8f68c", "fusion_lon": 0.0, "bike_id": "9a40558ebc6f1aa41a1786b01fb8f68c", "is_disabled": 0, "is_reserved": 0}, {"rental_uris": {"ios": "https://dc.lft.to/lastmile_qr_scan", "android": "https://dc.lft.to/lastmile_qr_scan"}, "lon": -77.0437975, "type": "electric_scooter", "fusion_lat": 0.0, "lat": 38.90080116666667, "name": "bc6655048decaf9281c9346f2d02fada", "fusion_lon": 0.0, "bike_id": "bc6655048decaf9281c9346f2d02fada", "is_disabled": 0, "is_reserved": 0}, {"rental_uris": {"ios": "https://dc.lft.to/lastmile_qr_scan", "android": "https://dc.lft.to/lastmile_qr_scan"}, "lon": -77.05148166666666, "type": "electric_scooter", "fusion_lat": 0.0, "lat": 38.901244, "name": "4bae0701163a6db889a5cb0de10f97bc", "fusion_lon": 0.0, "bike_id": "4bae0701163a6db889a5cb0de10f97bc", "is_disabled": 0, "is_reserved": 0}, {"rental_uris": {"ios": "https://dc.lft.to/lastmile_qr_scan", "android": "https://dc.lft.to/lastmile_qr_scan"}, "lon": -76.99979666666667, "type": "electric_scooter", "fusion_lat": 0.0, "lat": 38.83842533333333, "name": "43bbcb4da25ec5713a57aa0d621fe238", "fusion_lon": 0.0, "bike_id": "43bbcb4da25ec5713a57aa0d621fe238", "is_disabled": 0, "is_reserved": 0}, {"rental_uris": {"ios": "https://dc.lft.to/lastmile_qr_scan", "android": "https://dc.lft.to/lastmile_qr_scan"}, "lon": -77.069868, "type": "electric_scooter", "fusion_lat": 0.0, "lat": 38.954849, "name": "dbf1040438eb5bba0f711134a064e411", "fusion_lon": 0.0, "bike_id": "dbf1040438eb5bba0f711134a064e411", "is_disabled": 0, "is_reserved": 0}, {"rental_uris": {"ios": "https://dc.lft.to/lastmile_qr_scan", "android": "https://dc.lft.to/lastmile_qr_scan"}, "lon": -77.023372, "type": "electric_scooter", "fusion_lat": 0.0, "lat": 38.937856, "name": "ae24a6d925f135cc4420df6d81e460e7", "fusion_lon": 0.0, "bike_id": "ae24a6d925f135cc4420df6d81e460e7", "is_disabled": 0, "is_reserved": 0}, {"rental_uris": {"ios": "https://dc.lft.to/lastmile_qr_scan", "android": "https://dc.lft.to/lastmile_qr_scan"}, "lon": -77.04203883333334, "type": "electric_scooter", "fusion_lat": 0.0, "lat": 38.911029166666665, "name": "1ed57a163ebee5bebee290e95c67392a", "fusion_lon": 0.0, "bike_id": "1ed57a163ebee5bebee290e95c67392a", "is_disabled": 0, "is_reserved": 0}, {"rental_uris": {"ios": "https://dc.lft.to/lastmile_qr_scan", "android": "https://dc.lft.to/lastmile_qr_scan"}, "lon": -77.02905383333334, "type": "electric_scooter", "fusion_lat": 0.0, "lat": 38.8859835, "name": "a9d6b591cb3486e23b2b0007aaf488e2", "fusion_lon": 0.0, "bike_id": "a9d6b591cb3486e23b2b0007aaf488e2", "is_disabled": 0, "is_reserved": 0}, {"rental_uris": {"ios": "https://dc.lft.to/lastmile_qr_scan", "android": "https://dc.lft.to/lastmile_qr_scan"}, "lon": -77.03899316666667, "type": "electric_scooter", "fusion_lat": 0.0, "lat": 38.918423, "name": "1eb52ca69a762c75af6d757a7cfd059f", "fusion_lon": 0.0, "bike_id": "1eb52ca69a762c75af6d757a7cfd059f", "is_disabled": 0, "is_reserved": 0}, {"rental_uris": {"ios": "https://dc.lft.to/lastmile_qr_scan", "android": "https://dc.lft.to/lastmile_qr_scan"}, "lon": -77.00778566666666, "type": "electric_scooter", "fusion_lat": 0.0, "lat": 38.90658283333333, "name": "644383e2d10e3feb8e141235cef8d6a9", "fusion_lon": 0.0, "bike_id": "644383e2d10e3feb8e141235cef8d6a9", "is_disabled": 0, "is_reserved": 0}, {"rental_uris": {"ios": "https://dc.lft.to/lastmile_qr_scan", "android": "https://dc.lft.to/lastmile_qr_scan"}, "lon": -77.01365483333333, "type": "electric_scooter", "fusion_lat": 0.0, "lat": 38.86364116666667, "name": "8f35c5849009f9ab200a92ee25274b7e", "fusion_lon": 0.0, "bike_id": "8f35c5849009f9ab200a92ee25274b7e", "is_disabled": 0, "is_reserved": 0}, {"rental_uris": {"ios": "https://dc.lft.to/lastmile_qr_scan", "android": "https://dc.lft.to/lastmile_qr_scan"}, "lon": -77.02956283333333, "type": "electric_scooter", "fusion_lat": 0.0, "lat": 38.90415183333333, "name": "0a0da52e0539f7940d3568da78d8a2ba", "fusion_lon": 0.0, "bike_id": "0a0da52e0539f7940d3568da78d8a2ba", "is_disabled": 0, "is_reserved": 0}, {"rental_uris": {"ios": "https://dc.lft.to/lastmile_qr_scan", "android": "https://dc.lft.to/lastmile_qr_scan"}, "lon": -77.03562166666667, "type": "electric_scooter", "fusion_lat": 0.0, "lat": 38.9179075, "name": "9244ac027d180401e66df92de20d7dcf", "fusion_lon": 0.0, "bike_id": "9244ac027d180401e66df92de20d7dcf", "is_disabled": 0, "is_reserved": 0}, {"rental_uris": {"ios": "https://dc.lft.to/lastmile_qr_scan", "android": "https://dc.lft.to/lastmile_qr_scan"}, "lon": -77.0433845, "type": "electric_scooter", "fusion_lat": 0.0, "lat": 38.8964315, "name": "2cb26a4593e790c4d130177ee38a38dc", "fusion_lon": 0.0, "bike_id": "2cb26a4593e790c4d130177ee38a38dc", "is_disabled": 0, "is_reserved": 0}, {"rental_uris": {"ios": "https://dc.lft.to/lastmile_qr_scan", "android": "https://dc.lft.to/lastmile_qr_scan"}, "lon": -77.03255616666667, "type": "electric_scooter", "fusion_lat": 0.0, "lat": 38.92764833333333, "name": "283d364335c83e12139856050ab43e0d", "fusion_lon": 0.0, "bike_id": "283d364335c83e12139856050ab43e0d", "is_disabled": 0, "is_reserved": 0}, {"rental_uris": {"ios": "https://dc.lft.to/lastmile_qr_scan", "android": "https://dc.lft.to/lastmile_qr_scan"}, "lon": -77.0716565, "type": "electric_scooter", "fusion_lat": 0.0, "lat": 38.91455066666666, "name": "428d2bf1e8f3d0034352d55b04de9f71", "fusion_lon": 0.0, "bike_id": "428d2bf1e8f3d0034352d55b04de9f71", "is_disabled": 0, "is_reserved": 0}, {"rental_uris": {"ios": "https://dc.lft.to/lastmile_qr_scan", "android": "https://dc.lft.to/lastmile_qr_scan"}, "lon": -77.0694675, "type": "electric_scooter", "fusion_lat": 0.0, "lat": 38.90510416666667, "name": "d4920ffa12a0bb6aa340ba0bc1712e52", "fusion_lon": 0.0, "bike_id": "d4920ffa12a0bb6aa340ba0bc1712e52", "is_disabled": 0, "is_reserved": 0}, {"rental_uris": {"ios": "https://dc.lft.to/lastmile_qr_scan", "android": "https://dc.lft.to/lastmile_qr_scan"}, "lon": -77.03657683333333, "type": "electric_scooter", "fusion_lat": 0.0, "lat": 38.9024995, "name": "eaddfe0c692a3968b3a0f03ca6e44c5a", "fusion_lon": 0.0, "bike_id": "eaddfe0c692a3968b3a0f03ca6e44c5a", "is_disabled": 0, "is_reserved": 0}, {"rental_uris": {"ios": "https://dc.lft.to/lastmile_qr_scan", "android": "https://dc.lft.to/lastmile_qr_scan"}, "lon": -76.99380333333333, "type": "electric_scooter", "fusion_lat": 0.0, "lat": 38.88745516666667, "name": "46a2a78a8fe25ce8aad8140f09d218c5", "fusion_lon": 0.0, "bike_id": "46a2a78a8fe25ce8aad8140f09d218c5", "is_disabled": 0, "is_reserved": 0}, {"rental_uris": {"ios": "https://dc.lft.to/lastmile_qr_scan", "android": "https://dc.lft.to/lastmile_qr_scan"}, "lon": -77.0322855, "type": "electric_scooter", "fusion_lat": 0.0, "lat": 38.92667516666667, "name": "0382eb1bf23f9cd3c28af132aff85f37", "fusion_lon": 0.0, "bike_id": "0382eb1bf23f9cd3c28af132aff85f37", "is_disabled": 0, "is_reserved": 0}, {"rental_uris": {"ios": "https://dc.lft.to/lastmile_qr_scan", "android": "https://dc.lft.to/lastmile_qr_scan"}, "lon": -77.04147716666667, "type": "electric_scooter", "fusion_lat": 0.0, "lat": 38.92297883333333, "name": "aca0e1df9ffb1f9d0a90229d19f4e820", "fusion_lon": 0.0, "bike_id": "aca0e1df9ffb1f9d0a90229d19f4e820", "is_disabled": 0, "is_reserved": 0}, {"rental_uris": {"ios": "https://dc.lft.to/lastmile_qr_scan", "android": "https://dc.lft.to/lastmile_qr_scan"}, "lon": -76.94420816666667, "type": "electric_scooter", "fusion_lat": 0.0, "lat": 38.89792883333333, "name": "22ed5d89c9c2f72905f94c4f6e9586bc", "fusion_lon": 0.0, "bike_id": "22ed5d89c9c2f72905f94c4f6e9586bc", "is_disabled": 0, "is_reserved": 0}, {"rental_uris": {"ios": "https://dc.lft.to/lastmile_qr_scan", "android": "https://dc.lft.to/lastmile_qr_scan"}, "lon": -77.04224583333334, "type": "electric_scooter", "fusion_lat": 0.0, "lat": 38.92117066666667, "name": "b91a11a03620848e8ccf5c7f00af4095", "fusion_lon": 0.0, "bike_id": "b91a11a03620848e8ccf5c7f00af4095", "is_disabled": 0, "is_reserved": 0}, {"rental_uris": {"ios": "https://dc.lft.to/lastmile_qr_scan", "android": "https://dc.lft.to/lastmile_qr_scan"}, "lon": -77.064963, "type": "electric_bike", "fusion_lat": 0.0, "lat": 38.96494766666667, "name": "9cc19a9265de5d021d3a65757dc6856c", "fusion_lon": 0.0, "bike_id": "9cc19a9265de5d021d3a65757dc6856c", "is_disabled": 0, "is_reserved": 0}, {"rental_uris": {"ios": "https://dc.lft.to/lastmile_qr_scan", "android": "https://dc.lft.to/lastmile_qr_scan"}, "lon": -76.98352383333334, "type": "electric_scooter", "fusion_lat": 0.0, "lat": 38.9153005, "name": "a530b36f20723bf53bc09a2675588359", "fusion_lon": 0.0, "bike_id": "a530b36f20723bf53bc09a2675588359", "is_disabled": 0, "is_reserved": 0}, {"rental_uris": {"ios": "https://dc.lft.to/lastmile_qr_scan", "android": "https://dc.lft.to/lastmile_qr_scan"}, "lon": -77.03449133333334, "type": "electric_scooter", "fusion_lat": 0.0, "lat": 38.9187675, "name": "b02624bb97e9387b1718fdd7e9c98437", "fusion_lon": 0.0, "bike_id": "b02624bb97e9387b1718fdd7e9c98437", "is_disabled": 0, "is_reserved": 0}, {"rental_uris": {"ios": "https://dc.lft.to/lastmile_qr_scan", "android": "https://dc.lft.to/lastmile_qr_scan"}, "lon": -77.02209783333333, "type": "electric_scooter", "fusion_lat": 0.0, "lat": 38.905309, "name": "b02d09d501abd70840ee38f36efefbf7", "fusion_lon": 0.0, "bike_id": "b02d09d501abd70840ee38f36efefbf7", "is_disabled": 0, "is_reserved": 0}, {"rental_uris": {"ios": "https://dc.lft.to/lastmile_qr_scan", "android": "https://dc.lft.to/lastmile_qr_scan"}, "lon": -77.03134866666667, "type": "electric_scooter", "fusion_lat": 0.0, "lat": 38.92372066666667, "name": "263025172b9439738b5fffe19d9408de", "fusion_lon": 0.0, "bike_id": "263025172b9439738b5fffe19d9408de", "is_disabled": 0, "is_reserved": 0}, {"rental_uris": {"ios": "https://dc.lft.to/lastmile_qr_scan", "android": "https://dc.lft.to/lastmile_qr_scan"}, "lon": -77.04865516666666, "type": "electric_scooter", "fusion_lat": 0.0, "lat": 38.908502166666665, "name": "126a9cdf9111e4feba4800dea40b41d1", "fusion_lon": 0.0, "bike_id": "126a9cdf9111e4feba4800dea40b41d1", "is_disabled": 0, "is_reserved": 0}, {"rental_uris": {"ios": "https://dc.lft.to/lastmile_qr_scan", "android": "https://dc.lft.to/lastmile_qr_scan"}, "lon": -77.032648, "type": "electric_scooter", "fusion_lat": 0.0, "lat": 38.94413433333333, "name": "e72bbda5722a005fdfcbd9323e4f4ee9", "fusion_lon": 0.0, "bike_id": "e72bbda5722a005fdfcbd9323e4f4ee9", "is_disabled": 0, "is_reserved": 0}, {"rental_uris": {"ios": "https://dc.lft.to/lastmile_qr_scan", "android": "https://dc.lft.to/lastmile_qr_scan"}, "lon": -77.0179215, "type": "electric_scooter", "fusion_lat": 0.0, "lat": 38.941179166666664, "name": "066eb80397c7073fcdb4e3cb0452a064", "fusion_lon": 0.0, "bike_id": "066eb80397c7073fcdb4e3cb0452a064", "is_disabled": 0, "is_reserved": 0}, {"rental_uris": {"ios": "https://dc.lft.to/lastmile_qr_scan", "android": "https://dc.lft.to/lastmile_qr_scan"}, "lon": -77.0333115, "type": "electric_scooter", "fusion_lat": 0.0, "lat": 38.898359, "name": "30705645632a7aba4de51cc243b95d15", "fusion_lon": 0.0, "bike_id": "30705645632a7aba4de51cc243b95d15", "is_disabled": 0, "is_reserved": 0}, {"rental_uris": {"ios": "https://dc.lft.to/lastmile_qr_scan", "android": "https://dc.lft.to/lastmile_qr_scan"}, "lon": -77.06618816666666, "type": "electric_scooter", "fusion_lat": 0.0, "lat": 38.90531933333333, "name": "60616fedc73f12a9eea26f8dab33f14b", "fusion_lon": 0.0, "bike_id": "60616fedc73f12a9eea26f8dab33f14b", "is_disabled": 0, "is_reserved": 0}, {"rental_uris": {"ios": "https://dc.lft.to/lastmile_qr_scan", "android": "https://dc.lft.to/lastmile_qr_scan"}, "lon": -77.02023383333334, "type": "electric_scooter", "fusion_lat": 0.0, "lat": 38.932471666666665, "name": "bcadbbcad6f106538c555d057144707f", "fusion_lon": 0.0, "bike_id": "bcadbbcad6f106538c555d057144707f", "is_disabled": 0, "is_reserved": 0}, {"rental_uris": {"ios": "https://dc.lft.to/lastmile_qr_scan", "android": "https://dc.lft.to/lastmile_qr_scan"}, "lon": -77.02605, "type": "electric_bike", "fusion_lat": 0.0, "lat": 38.900345, "name": "19cdc59ceca5a0201c581daa6cf7aa3e", "fusion_lon": 0.0, "bike_id": "19cdc59ceca5a0201c581daa6cf7aa3e", "is_disabled": 0, "is_reserved": 0}, {"rental_uris": {"ios": "https://dc.lft.to/lastmile_qr_scan", "android": "https://dc.lft.to/lastmile_qr_scan"}, "lon": -77.0303415, "type": "electric_scooter", "fusion_lat": 0.0, "lat": 38.92255733333333, "name": "607df1ca7760967e6ad5d7b598fa4220", "fusion_lon": 0.0, "bike_id": "607df1ca7760967e6ad5d7b598fa4220", "is_disabled": 0, "is_reserved": 0}, {"rental_uris": {"ios": "https://dc.lft.to/lastmile_qr_scan", "android": "https://dc.lft.to/lastmile_qr_scan"}, "lon": -76.99776983333334, "type": "electric_scooter", "fusion_lat": 0.0, "lat": 38.844245666666666, "name": "6dc6a37bddfbf15d199f3515b1b00b8a", "fusion_lon": 0.0, "bike_id": "6dc6a37bddfbf15d199f3515b1b00b8a", "is_disabled": 0, "is_reserved": 0}, {"rental_uris": {"ios": "https://dc.lft.to/lastmile_qr_scan", "android": "https://dc.lft.to/lastmile_qr_scan"}, "lon": -77.178529, "type": "electric_bike", "fusion_lat": 0.0, "lat": 39.089053666666665, "name": "198bc49457282ecb2d4a0e3be18def57", "fusion_lon": 0.0, "bike_id": "198bc49457282ecb2d4a0e3be18def57", "is_disabled": 0, "is_reserved": 0}, {"rental_uris": {"ios": "https://dc.lft.to/lastmile_qr_scan", "android": "https://dc.lft.to/lastmile_qr_scan"}, "lon": -77.00257666666667, "type": "electric_bike", "fusion_lat": 0.0, "lat": 38.95215916666667, "name": "62217aa4a782ebef628e4138265863cc", "fusion_lon": 0.0, "bike_id": "62217aa4a782ebef628e4138265863cc", "is_disabled": 0, "is_reserved": 0}, {"rental_uris": {"ios": "https://dc.lft.to/lastmile_qr_scan", "android": "https://dc.lft.to/lastmile_qr_scan"}, "lon": -77.01414516666667, "type": "electric_scooter", "fusion_lat": 0.0, "lat": 38.928534666666664, "name": "0be475205a3b0078c4bae488ce6c1899", "fusion_lon": 0.0, "bike_id": "0be475205a3b0078c4bae488ce6c1899", "is_disabled": 0, "is_reserved": 0}, {"rental_uris": {"ios": "https://dc.lft.to/lastmile_qr_scan", "android": "https://dc.lft.to/lastmile_qr_scan"}, "lon": -77.03934883333334, "type": "electric_scooter", "fusion_lat": 0.0, "lat": 38.92110616666667, "name": "347591258ff7a932bf261ba25c70fb67", "fusion_lon": 0.0, "bike_id": "347591258ff7a932bf261ba25c70fb67", "is_disabled": 0, "is_reserved": 0}, {"rental_uris": {"ios": "https://dc.lft.to/lastmile_qr_scan", "android": "https://dc.lft.to/lastmile_qr_scan"}, "lon": -77.04698233333333, "type": "electric_scooter", "fusion_lat": 0.0, "lat": 38.90529983333333, "name": "05a938efa822c6a82a13e3dac68a0151", "fusion_lon": 0.0, "bike_id": "05a938efa822c6a82a13e3dac68a0151", "is_disabled": 0, "is_reserved": 0}, {"rental_uris": {"ios": "https://dc.lft.to/lastmile_qr_scan", "android": "https://dc.lft.to/lastmile_qr_scan"}, "lon": -77.03870616666667, "type": "electric_scooter", "fusion_lat": 0.0, "lat": 38.909691, "name": "401678e5a0989c83fcec24da1b9c2f69", "fusion_lon": 0.0, "bike_id": "401678e5a0989c83fcec24da1b9c2f69", "is_disabled": 0, "is_reserved": 0}, {"rental_uris": {"ios": "https://dc.lft.to/lastmile_qr_scan", "android": "https://dc.lft.to/lastmile_qr_scan"}, "lon": -77.03208, "type": "electric_scooter", "fusion_lat": 0.0, "lat": 38.90755766666667, "name": "0c3a9d7c386edcb802a2e62ac1bd7637", "fusion_lon": 0.0, "bike_id": "0c3a9d7c386edcb802a2e62ac1bd7637", "is_disabled": 0, "is_reserved": 0}, {"rental_uris": {"ios": "https://dc.lft.to/lastmile_qr_scan", "android": "https://dc.lft.to/lastmile_qr_scan"}, "lon": -77.1262795, "type": "electric_bike", "fusion_lat": 0.0, "lat": 39.05814266666667, "name": "d634620729e07641539988e98cbe7ef0", "fusion_lon": 0.0, "bike_id": "d634620729e07641539988e98cbe7ef0", "is_disabled": 0, "is_reserved": 0}, {"rental_uris": {"ios": "https://dc.lft.to/lastmile_qr_scan", "android": "https://dc.lft.to/lastmile_qr_scan"}, "lon": -76.97833616666667, "type": "electric_bike", "fusion_lat": 0.0, "lat": 38.84609716666667, "name": "8a87749e24c95f30d690641e711638ce", "fusion_lon": 0.0, "bike_id": "8a87749e24c95f30d690641e711638ce", "is_disabled": 0, "is_reserved": 0}, {"rental_uris": {"ios": "https://dc.lft.to/lastmile_qr_scan", "android": "https://dc.lft.to/lastmile_qr_scan"}, "lon": -77.039203, "type": "electric_scooter", "fusion_lat": 0.0, "lat": 38.89913216666667, "name": "5df1a77404ee06814706b328036906d4", "fusion_lon": 0.0, "bike_id": "5df1a77404ee06814706b328036906d4", "is_disabled": 0, "is_reserved": 0}, {"rental_uris": {"ios": "https://dc.lft.to/lastmile_qr_scan", "android": "https://dc.lft.to/lastmile_qr_scan"}, "lon": -76.98500966666667, "type": "electric_scooter", "fusion_lat": 0.0, "lat": 38.8604575, "name": "ffce6b300b1982160a27d14fc89cbbda", "fusion_lon": 0.0, "bike_id": "ffce6b300b1982160a27d14fc89cbbda", "is_disabled": 0, "is_reserved": 0}, {"rental_uris": {"ios": "https://dc.lft.to/lastmile_qr_scan", "android": "https://dc.lft.to/lastmile_qr_scan"}, "lon": -76.97898766666667, "type": "electric_scooter", "fusion_lat": 0.0, "lat": 38.90423066666666, "name": "f389e4897e733fe4b857df862815eff5", "fusion_lon": 0.0, "bike_id": "f389e4897e733fe4b857df862815eff5", "is_disabled": 0, "is_reserved": 0}, {"rental_uris": {"ios": "https://dc.lft.to/lastmile_qr_scan", "android": "https://dc.lft.to/lastmile_qr_scan"}, "lon": -77.04458633333333, "type": "electric_scooter", "fusion_lat": 0.0, "lat": 38.91117666666667, "name": "acda07040d4062976202e9129bdf5229", "fusion_lon": 0.0, "bike_id": "acda07040d4062976202e9129bdf5229", "is_disabled": 0, "is_reserved": 0}, {"rental_uris": {"ios": "https://dc.lft.to/lastmile_qr_scan", "android": "https://dc.lft.to/lastmile_qr_scan"}, "lon": -76.9960075, "type": "electric_scooter", "fusion_lat": 0.0, "lat": 38.845362, "name": "474d0d77c39b83ad1c74e76aacbe392f", "fusion_lon": 0.0, "bike_id": "474d0d77c39b83ad1c74e76aacbe392f", "is_disabled": 0, "is_reserved": 0}, {"rental_uris": {"ios": "https://dc.lft.to/lastmile_qr_scan", "android": "https://dc.lft.to/lastmile_qr_scan"}, "lon": -77.10095866666667, "type": "electric_bike", "fusion_lat": 0.0, "lat": 38.95952, "name": "902b8437b4e915ecc8563013136f8203", "fusion_lon": 0.0, "bike_id": "902b8437b4e915ecc8563013136f8203", "is_disabled": 0, "is_reserved": 0}, {"rental_uris": {"ios": "https://dc.lft.to/lastmile_qr_scan", "android": "https://dc.lft.to/lastmile_qr_scan"}, "lon": -77.01532333333333, "type": "electric_scooter", "fusion_lat": 0.0, "lat": 38.90197583333333, "name": "81182a43caf0d25b64976f22d1e8bf4d", "fusion_lon": 0.0, "bike_id": "81182a43caf0d25b64976f22d1e8bf4d", "is_disabled": 0, "is_reserved": 0}, {"rental_uris": {"ios": "https://dc.lft.to/lastmile_qr_scan", "android": "https://dc.lft.to/lastmile_qr_scan"}, "lon": -77.031487, "type": "electric_scooter", "fusion_lat": 0.0, "lat": 38.911209, "name": "c76f9ef21277122f21d408684b4d4204", "fusion_lon": 0.0, "bike_id": "c76f9ef21277122f21d408684b4d4204", "is_disabled": 0, "is_reserved": 0}, {"rental_uris": {"ios": "https://dc.lft.to/lastmile_qr_scan", "android": "https://dc.lft.to/lastmile_qr_scan"}, "lon": -77.01389716666667, "type": "electric_scooter", "fusion_lat": 0.0, "lat": 38.970178, "name": "04e50bcc6955d818b8d9188ef6f86808", "fusion_lon": 0.0, "bike_id": "04e50bcc6955d818b8d9188ef6f86808", "is_disabled": 0, "is_reserved": 0}, {"rental_uris": {"ios": "https://dc.lft.to/lastmile_qr_scan", "android": "https://dc.lft.to/lastmile_qr_scan"}, "lon": -77.0345005, "type": "electric_scooter", "fusion_lat": 0.0, "lat": 38.902653666666666, "name": "a20fd351bb180c1eb48f2b71ea9ad9d0", "fusion_lon": 0.0, "bike_id": "a20fd351bb180c1eb48f2b71ea9ad9d0", "is_disabled": 0, "is_reserved": 0}, {"rental_uris": {"ios": "https://dc.lft.to/lastmile_qr_scan", "android": "https://dc.lft.to/lastmile_qr_scan"}, "lon": -76.99792833333333, "type": "electric_scooter", "fusion_lat": 0.0, "lat": 38.92175183333333, "name": "40f14a0402d3672384556346f9cc8ad6", "fusion_lon": 0.0, "bike_id": "40f14a0402d3672384556346f9cc8ad6", "is_disabled": 0, "is_reserved": 0}, {"rental_uris": {"ios": "https://dc.lft.to/lastmile_qr_scan", "android": "https://dc.lft.to/lastmile_qr_scan"}, "lon": -77.0366735, "type": "electric_scooter", "fusion_lat": 0.0, "lat": 38.918181, "name": "ec4dce6d1d58f63aaee147bb489c3def", "fusion_lon": 0.0, "bike_id": "ec4dce6d1d58f63aaee147bb489c3def", "is_disabled": 0, "is_reserved": 0}, {"rental_uris": {"ios": "https://dc.lft.to/lastmile_qr_scan", "android": "https://dc.lft.to/lastmile_qr_scan"}, "lon": -77.02714083333333, "type": "electric_scooter", "fusion_lat": 0.0, "lat": 38.91816033333333, "name": "960f353fa9e3f3282041cf76079d213b", "fusion_lon": 0.0, "bike_id": "960f353fa9e3f3282041cf76079d213b", "is_disabled": 0, "is_reserved": 0}, {"rental_uris": {"ios": "https://dc.lft.to/lastmile_qr_scan", "android": "https://dc.lft.to/lastmile_qr_scan"}, "lon": -77.04716116666667, "type": "electric_scooter", "fusion_lat": 0.0, "lat": 38.921712666666664, "name": "d62ef1fdd704d41f000f23f430b961c3", "fusion_lon": 0.0, "bike_id": "d62ef1fdd704d41f000f23f430b961c3", "is_disabled": 0, "is_reserved": 0}, {"rental_uris": {"ios": "https://dc.lft.to/lastmile_qr_scan", "android": "https://dc.lft.to/lastmile_qr_scan"}, "lon": -77.042188, "type": "electric_scooter", "fusion_lat": 0.0, "lat": 38.9140395, "name": "969d45fbe384682e6eb2185b4ad7e9da", "fusion_lon": 0.0, "bike_id": "969d45fbe384682e6eb2185b4ad7e9da", "is_disabled": 0, "is_reserved": 0}, {"rental_uris": {"ios": "https://dc.lft.to/lastmile_qr_scan", "android": "https://dc.lft.to/lastmile_qr_scan"}, "lon": -76.9936705, "type": "electric_scooter", "fusion_lat": 0.0, "lat": 38.9003955, "name": "94f78e624e7a6dcc3e58508a67a0c3b6", "fusion_lon": 0.0, "bike_id": "94f78e624e7a6dcc3e58508a67a0c3b6", "is_disabled": 0, "is_reserved": 0}, {"rental_uris": {"ios": "https://dc.lft.to/lastmile_qr_scan", "android": "https://dc.lft.to/lastmile_qr_scan"}, "lon": -77.02965533333334, "type": "electric_scooter", "fusion_lat": 0.0, "lat": 38.925216666666664, "name": "6030674488ad8ae3db034d5108c2841c", "fusion_lon": 0.0, "bike_id": "6030674488ad8ae3db034d5108c2841c", "is_disabled": 0, "is_reserved": 0}, {"rental_uris": {"ios": "https://dc.lft.to/lastmile_qr_scan", "android": "https://dc.lft.to/lastmile_qr_scan"}, "lon": -76.99162933333334, "type": "electric_scooter", "fusion_lat": 0.0, "lat": 38.8934015, "name": "4f993e96f3f9d3bd9633def517cf4275", "fusion_lon": 0.0, "bike_id": "4f993e96f3f9d3bd9633def517cf4275", "is_disabled": 0, "is_reserved": 0}, {"rental_uris": {"ios": "https://dc.lft.to/lastmile_qr_scan", "android": "https://dc.lft.to/lastmile_qr_scan"}, "lon": -77.04806733333334, "type": "electric_scooter", "fusion_lat": 0.0, "lat": 38.89744133333333, "name": "bf13c917d79bb739b824e2caf097951a", "fusion_lon": 0.0, "bike_id": "bf13c917d79bb739b824e2caf097951a", "is_disabled": 0, "is_reserved": 0}, {"rental_uris": {"ios": "https://dc.lft.to/lastmile_qr_scan", "android": "https://dc.lft.to/lastmile_qr_scan"}, "lon": -77.0453385, "type": "electric_scooter", "fusion_lat": 0.0, "lat": 38.90378233333333, "name": "fd133513b5bd313b27b64eeb3b72b719", "fusion_lon": 0.0, "bike_id": "fd133513b5bd313b27b64eeb3b72b719", "is_disabled": 0, "is_reserved": 0}, {"rental_uris": {"ios": "https://dc.lft.to/lastmile_qr_scan", "android": "https://dc.lft.to/lastmile_qr_scan"}, "lon": -77.01217633333333, "type": "electric_scooter", "fusion_lat": 0.0, "lat": 38.9203525, "name": "d1e6bacd8c1fe95dcb0e3ce101475746", "fusion_lon": 0.0, "bike_id": "d1e6bacd8c1fe95dcb0e3ce101475746", "is_disabled": 0, "is_reserved": 0}, {"rental_uris": {"ios": "https://dc.lft.to/lastmile_qr_scan", "android": "https://dc.lft.to/lastmile_qr_scan"}, "lon": -77.02001866666667, "type": "electric_scooter", "fusion_lat": 0.0, "lat": 38.905568833333334, "name": "d9bdf614ed2e1e58aef27b5c9b7eccd7", "fusion_lon": 0.0, "bike_id": "d9bdf614ed2e1e58aef27b5c9b7eccd7", "is_disabled": 0, "is_reserved": 0}, {"rental_uris": {"ios": "https://dc.lft.to/lastmile_qr_scan", "android": "https://dc.lft.to/lastmile_qr_scan"}, "lon": -76.895438, "type": "electric_bike", "fusion_lat": 0.0, "lat": 38.94549683333334, "name": "7bbf87fe7f47e151d92f68e5c9ca3641", "fusion_lon": 0.0, "bike_id": "7bbf87fe7f47e151d92f68e5c9ca3641", "is_disabled": 0, "is_reserved": 0}, {"rental_uris": {"ios": "https://dc.lft.to/lastmile_qr_scan", "android": "https://dc.lft.to/lastmile_qr_scan"}, "lon": -77.04458333333334, "type": "electric_scooter", "fusion_lat": 0.0, "lat": 38.90578816666667, "name": "23f19ab2be97282e79051fb24d239d91", "fusion_lon": 0.0, "bike_id": "23f19ab2be97282e79051fb24d239d91", "is_disabled": 0, "is_reserved": 0}, {"rental_uris": {"ios": "https://dc.lft.to/lastmile_qr_scan", "android": "https://dc.lft.to/lastmile_qr_scan"}, "lon": -77.02977716666666, "type": "electric_scooter", "fusion_lat": 0.0, "lat": 38.916311, "name": "4204ee4d8f9cbb199ca912d2cd07e37c", "fusion_lon": 0.0, "bike_id": "4204ee4d8f9cbb199ca912d2cd07e37c", "is_disabled": 0, "is_reserved": 0}, {"rental_uris": {"ios": "https://dc.lft.to/lastmile_qr_scan", "android": "https://dc.lft.to/lastmile_qr_scan"}, "lon": -77.03899466666667, "type": "electric_scooter", "fusion_lat": 0.0, "lat": 38.91833833333333, "name": "2d883cab33c9c42382333b971650ffba", "fusion_lon": 0.0, "bike_id": "2d883cab33c9c42382333b971650ffba", "is_disabled": 0, "is_reserved": 0}, {"rental_uris": {"ios": "https://dc.lft.to/lastmile_qr_scan", "android": "https://dc.lft.to/lastmile_qr_scan"}, "lon": -76.98450016666666, "type": "electric_scooter", "fusion_lat": 0.0, "lat": 38.91470316666667, "name": "8b0469d945f349cb270c5f34681a92c9", "fusion_lon": 0.0, "bike_id": "8b0469d945f349cb270c5f34681a92c9", "is_disabled": 0, "is_reserved": 0}, {"rental_uris": {"ios": "https://dc.lft.to/lastmile_qr_scan", "android": "https://dc.lft.to/lastmile_qr_scan"}, "lon": -77.00235666666667, "type": "electric_scooter", "fusion_lat": 0.0, "lat": 38.90032716666666, "name": "3263400c6547d4593552546e0aa66dd9", "fusion_lon": 0.0, "bike_id": "3263400c6547d4593552546e0aa66dd9", "is_disabled": 0, "is_reserved": 0}, {"rental_uris": {"ios": "https://dc.lft.to/lastmile_qr_scan", "android": "https://dc.lft.to/lastmile_qr_scan"}, "lon": -77.03445766666667, "type": "electric_scooter", "fusion_lat": 0.0, "lat": 38.90736166666667, "name": "799bd14f155f1bf69e755c7125292d40", "fusion_lon": 0.0, "bike_id": "799bd14f155f1bf69e755c7125292d40", "is_disabled": 0, "is_reserved": 0}, {"rental_uris": {"ios": "https://dc.lft.to/lastmile_qr_scan", "android": "https://dc.lft.to/lastmile_qr_scan"}, "lon": -77.02469166666667, "type": "electric_scooter", "fusion_lat": 0.0, "lat": 38.9023725, "name": "8f00316a5e92a9a1fda0bb0574a25527", "fusion_lon": 0.0, "bike_id": "8f00316a5e92a9a1fda0bb0574a25527", "is_disabled": 0, "is_reserved": 0}, {"rental_uris": {"ios": "https://dc.lft.to/lastmile_qr_scan", "android": "https://dc.lft.to/lastmile_qr_scan"}, "lon": -77.02714916666666, "type": "electric_scooter", "fusion_lat": 0.0, "lat": 38.918224, "name": "4aab3e8f090b1883e02abf164d34e342", "fusion_lon": 0.0, "bike_id": "4aab3e8f090b1883e02abf164d34e342", "is_disabled": 0, "is_reserved": 0}, {"rental_uris": {"ios": "https://dc.lft.to/lastmile_qr_scan", "android": "https://dc.lft.to/lastmile_qr_scan"}, "lon": -77.048749, "type": "electric_scooter", "fusion_lat": 0.0, "lat": 38.9094365, "name": "146c0e4a11d57a50f4a546303d5a4889", "fusion_lon": 0.0, "bike_id": "146c0e4a11d57a50f4a546303d5a4889", "is_disabled": 0, "is_reserved": 0}, {"rental_uris": {"ios": "https://dc.lft.to/lastmile_qr_scan", "android": "https://dc.lft.to/lastmile_qr_scan"}, "lon": -77.0112565, "type": "electric_scooter", "fusion_lat": 0.0, "lat": 38.91182416666667, "name": "56723636bfb0172eb7b266e8fff8d4a6", "fusion_lon": 0.0, "bike_id": "56723636bfb0172eb7b266e8fff8d4a6", "is_disabled": 0, "is_reserved": 0}, {"rental_uris": {"ios": "https://dc.lft.to/lastmile_qr_scan", "android": "https://dc.lft.to/lastmile_qr_scan"}, "lon": -77.02507933333334, "type": "electric_scooter", "fusion_lat": 0.0, "lat": 38.907176166666666, "name": "d349517d9008268425cc5acbe080ea34", "fusion_lon": 0.0, "bike_id": "d349517d9008268425cc5acbe080ea34", "is_disabled": 0, "is_reserved": 0}, {"rental_uris": {"ios": "https://dc.lft.to/lastmile_qr_scan", "android": "https://dc.lft.to/lastmile_qr_scan"}, "lon": -77.01205216666666, "type": "electric_scooter", "fusion_lat": 0.0, "lat": 38.9142285, "name": "34dcfa0ae1673df60da87ba41d162c01", "fusion_lon": 0.0, "bike_id": "34dcfa0ae1673df60da87ba41d162c01", "is_disabled": 0, "is_reserved": 0}, {"rental_uris": {"ios": "https://dc.lft.to/lastmile_qr_scan", "android": "https://dc.lft.to/lastmile_qr_scan"}, "lon": -76.950014, "type": "electric_scooter", "fusion_lat": 0.0, "lat": 38.89371583333333, "name": "b5c9286d6dfae68712a2899fa0c38b45", "fusion_lon": 0.0, "bike_id": "b5c9286d6dfae68712a2899fa0c38b45", "is_disabled": 0, "is_reserved": 0}, {"rental_uris": {"ios": "https://dc.lft.to/lastmile_qr_scan", "android": "https://dc.lft.to/lastmile_qr_scan"}, "lon": -77.18291083333334, "type": "electric_bike", "fusion_lat": 0.0, "lat": 38.883394833333334, "name": "2cfba96bc20178f40a27b0d276fcb084", "fusion_lon": 0.0, "bike_id": "2cfba96bc20178f40a27b0d276fcb084", "is_disabled": 0, "is_reserved": 0}, {"rental_uris": {"ios": "https://dc.lft.to/lastmile_qr_scan", "android": "https://dc.lft.to/lastmile_qr_scan"}, "lon": -77.05065066666667, "type": "electric_scooter", "fusion_lat": 0.0, "lat": 38.90064616666667, "name": "06e67d9e80253a3d9277698007c01716", "fusion_lon": 0.0, "bike_id": "06e67d9e80253a3d9277698007c01716", "is_disabled": 0, "is_reserved": 0}, {"rental_uris": {"ios": "https://dc.lft.to/lastmile_qr_scan", "android": "https://dc.lft.to/lastmile_qr_scan"}, "lon": -77.02482866666666, "type": "electric_scooter", "fusion_lat": 0.0, "lat": 38.9309665, "name": "c1c511d4d27d432158fd8c3f32c5fbdb", "fusion_lon": 0.0, "bike_id": "c1c511d4d27d432158fd8c3f32c5fbdb", "is_disabled": 0, "is_reserved": 0}, {"rental_uris": {"ios": "https://dc.lft.to/lastmile_qr_scan", "android": "https://dc.lft.to/lastmile_qr_scan"}, "lon": -77.03844216666667, "type": "electric_scooter", "fusion_lat": 0.0, "lat": 38.910911666666664, "name": "889f912443ab1aa2579bfe3904ad56d2", "fusion_lon": 0.0, "bike_id": "889f912443ab1aa2579bfe3904ad56d2", "is_disabled": 0, "is_reserved": 0}, {"rental_uris": {"ios": "https://dc.lft.to/lastmile_qr_scan", "android": "https://dc.lft.to/lastmile_qr_scan"}, "lon": -77.03330766666667, "type": "electric_scooter", "fusion_lat": 0.0, "lat": 38.901445833333334, "name": "20c0d2a329bfd02a4147554b924ad7e8", "fusion_lon": 0.0, "bike_id": "20c0d2a329bfd02a4147554b924ad7e8", "is_disabled": 0, "is_reserved": 0}, {"rental_uris": {"ios": "https://dc.lft.to/lastmile_qr_scan", "android": "https://dc.lft.to/lastmile_qr_scan"}, "lon": -76.97826183333333, "type": "electric_scooter", "fusion_lat": 0.0, "lat": 38.895179666666664, "name": "9aae81c3d6fca18853f6554065474966", "fusion_lon": 0.0, "bike_id": "9aae81c3d6fca18853f6554065474966", "is_disabled": 0, "is_reserved": 0}, {"rental_uris": {"ios": "https://dc.lft.to/lastmile_qr_scan", "android": "https://dc.lft.to/lastmile_qr_scan"}, "lon": -77.01788633333334, "type": "electric_scooter", "fusion_lat": 0.0, "lat": 38.90041983333333, "name": "506737a1bc62192cd0a15ee01bd84517", "fusion_lon": 0.0, "bike_id": "506737a1bc62192cd0a15ee01bd84517", "is_disabled": 0, "is_reserved": 0}, {"rental_uris": {"ios": "https://dc.lft.to/lastmile_qr_scan", "android": "https://dc.lft.to/lastmile_qr_scan"}, "lon": -77.071427, "type": "electric_scooter", "fusion_lat": 0.0, "lat": 38.92723633333333, "name": "66a813d5d09bfa53c079c730852e617d", "fusion_lon": 0.0, "bike_id": "66a813d5d09bfa53c079c730852e617d", "is_disabled": 0, "is_reserved": 0}, {"rental_uris": {"ios": "https://dc.lft.to/lastmile_qr_scan", "android": "https://dc.lft.to/lastmile_qr_scan"}, "lon": -77.070263, "type": "electric_scooter", "fusion_lat": 0.0, "lat": 38.907278833333336, "name": "f74a953324ed7588c03783757172b83f", "fusion_lon": 0.0, "bike_id": "f74a953324ed7588c03783757172b83f", "is_disabled": 0, "is_reserved": 0}, {"rental_uris": {"ios": "https://dc.lft.to/lastmile_qr_scan", "android": "https://dc.lft.to/lastmile_qr_scan"}, "lon": -77.01185666666667, "type": "electric_scooter", "fusion_lat": 0.0, "lat": 38.9002665, "name": "7611bdbf5768ab773f283a45dc38a9cc", "fusion_lon": 0.0, "bike_id": "7611bdbf5768ab773f283a45dc38a9cc", "is_disabled": 0, "is_reserved": 0}, {"rental_uris": {"ios": "https://dc.lft.to/lastmile_qr_scan", "android": "https://dc.lft.to/lastmile_qr_scan"}, "lon": -77.0951765, "type": "electric_bike", "fusion_lat": 0.0, "lat": 38.8076775, "name": "1f774ddf246bdc386e7fd8df2adb9e6a", "fusion_lon": 0.0, "bike_id": "1f774ddf246bdc386e7fd8df2adb9e6a", "is_disabled": 0, "is_reserved": 0}, {"rental_uris": {"ios": "https://dc.lft.to/lastmile_qr_scan", "android": "https://dc.lft.to/lastmile_qr_scan"}, "lon": -77.03344466666667, "type": "electric_scooter", "fusion_lat": 0.0, "lat": 38.9192165, "name": "75c314d85383ff9542a5815c59828bd3", "fusion_lon": 0.0, "bike_id": "75c314d85383ff9542a5815c59828bd3", "is_disabled": 0, "is_reserved": 0}, {"rental_uris": {"ios": "https://dc.lft.to/lastmile_qr_scan", "android": "https://dc.lft.to/lastmile_qr_scan"}, "lon": -76.98618133333333, "type": "electric_scooter", "fusion_lat": 0.0, "lat": 38.86828166666667, "name": "b108c80339f9d75e119aebaaac13594a", "fusion_lon": 0.0, "bike_id": "b108c80339f9d75e119aebaaac13594a", "is_disabled": 0, "is_reserved": 0}, {"rental_uris": {"ios": "https://dc.lft.to/lastmile_qr_scan", "android": "https://dc.lft.to/lastmile_qr_scan"}, "lon": -77.1359815, "type": "electric_bike", "fusion_lat": 0.0, "lat": 39.053474666666666, "name": "6040e116d680b1c59fd7aaa046e0cd5f", "fusion_lon": 0.0, "bike_id": "6040e116d680b1c59fd7aaa046e0cd5f", "is_disabled": 0, "is_reserved": 0}, {"rental_uris": {"ios": "https://dc.lft.to/lastmile_qr_scan", "android": "https://dc.lft.to/lastmile_qr_scan"}, "lon": -77.03417866666666, "type": "electric_scooter", "fusion_lat": 0.0, "lat": 38.9025755, "name": "267a09669c023ecefd26afb926f75ffd", "fusion_lon": 0.0, "bike_id": "267a09669c023ecefd26afb926f75ffd", "is_disabled": 0, "is_reserved": 0}, {"rental_uris": {"ios": "https://dc.lft.to/lastmile_qr_scan", "android": "https://dc.lft.to/lastmile_qr_scan"}, "lon": -77.041875, "type": "electric_scooter", "fusion_lat": 0.0, "lat": 38.900409833333335, "name": "8bdf3cc426238850a3490ad3a7f8f1f0", "fusion_lon": 0.0, "bike_id": "8bdf3cc426238850a3490ad3a7f8f1f0", "is_disabled": 0, "is_reserved": 0}, {"rental_uris": {"ios": "https://dc.lft.to/lastmile_qr_scan", "android": "https://dc.lft.to/lastmile_qr_scan"}, "lon": -76.98716733333333, "type": "electric_scooter", "fusion_lat": 0.0, "lat": 38.862682666666664, "name": "124f57e9b1e3ea0dbc2fcedaa169bb44", "fusion_lon": 0.0, "bike_id": "124f57e9b1e3ea0dbc2fcedaa169bb44", "is_disabled": 0, "is_reserved": 0}, {"rental_uris": {"ios": "https://dc.lft.to/lastmile_qr_scan", "android": "https://dc.lft.to/lastmile_qr_scan"}, "lon": -77.07879383333334, "type": "electric_scooter", "fusion_lat": 0.0, "lat": 38.92543366666666, "name": "fd211f836db6861b124e3b1c722db12a", "fusion_lon": 0.0, "bike_id": "fd211f836db6861b124e3b1c722db12a", "is_disabled": 0, "is_reserved": 0}, {"rental_uris": {"ios": "https://dc.lft.to/lastmile_qr_scan", "android": "https://dc.lft.to/lastmile_qr_scan"}, "lon": -77.01743866666666, "type": "electric_scooter", "fusion_lat": 0.0, "lat": 38.88318566666667, "name": "9b8f913cf09276beb47f7d9b5c828695", "fusion_lon": 0.0, "bike_id": "9b8f913cf09276beb47f7d9b5c828695", "is_disabled": 0, "is_reserved": 0}, {"rental_uris": {"ios": "https://dc.lft.to/lastmile_qr_scan", "android": "https://dc.lft.to/lastmile_qr_scan"}, "lon": -77.0125865, "type": "electric_scooter", "fusion_lat": 0.0, "lat": 38.89965816666667, "name": "222c81dc4f43714d09d6b856af0a60ff", "fusion_lon": 0.0, "bike_id": "222c81dc4f43714d09d6b856af0a60ff", "is_disabled": 0, "is_reserved": 0}, {"rental_uris": {"ios": "https://dc.lft.to/lastmile_qr_scan", "android": "https://dc.lft.to/lastmile_qr_scan"}, "lon": -76.99155716666667, "type": "electric_scooter", "fusion_lat": 0.0, "lat": 38.90034683333333, "name": "b0a7902ea5402bfbb80b236bbff1dec9", "fusion_lon": 0.0, "bike_id": "b0a7902ea5402bfbb80b236bbff1dec9", "is_disabled": 0, "is_reserved": 0}, {"rental_uris": {"ios": "https://dc.lft.to/lastmile_qr_scan", "android": "https://dc.lft.to/lastmile_qr_scan"}, "lon": -77.040339, "type": "electric_scooter", "fusion_lat": 0.0, "lat": 38.917036333333336, "name": "3fb0a12603c8c5f43e0b1821b70c1974", "fusion_lon": 0.0, "bike_id": "3fb0a12603c8c5f43e0b1821b70c1974", "is_disabled": 0, "is_reserved": 0}, {"rental_uris": {"ios": "https://dc.lft.to/lastmile_qr_scan", "android": "https://dc.lft.to/lastmile_qr_scan"}, "lon": -76.92588283333333, "type": "electric_scooter", "fusion_lat": 0.0, "lat": 38.89726916666667, "name": "5fe64399d51cfab35e46d737d9fddfab", "fusion_lon": 0.0, "bike_id": "5fe64399d51cfab35e46d737d9fddfab", "is_disabled": 0, "is_reserved": 0}, {"rental_uris": {"ios": "https://dc.lft.to/lastmile_qr_scan", "android": "https://dc.lft.to/lastmile_qr_scan"}, "lon": -77.103384, "type": "electric_bike", "fusion_lat": 0.0, "lat": 38.85228683333333, "name": "d7fe7ce2a1755c0f6758d9dc3035875c", "fusion_lon": 0.0, "bike_id": "d7fe7ce2a1755c0f6758d9dc3035875c", "is_disabled": 0, "is_reserved": 0}, {"rental_uris": {"ios": "https://dc.lft.to/lastmile_qr_scan", "android": "https://dc.lft.to/lastmile_qr_scan"}, "lon": -77.0297855, "type": "electric_scooter", "fusion_lat": 0.0, "lat": 38.9622555, "name": "8dc593e8d43062c32bad8ceecf9a364e", "fusion_lon": 0.0, "bike_id": "8dc593e8d43062c32bad8ceecf9a364e", "is_disabled": 0, "is_reserved": 0}, {"rental_uris": {"ios": "https://dc.lft.to/lastmile_qr_scan", "android": "https://dc.lft.to/lastmile_qr_scan"}, "lon": -77.0385155, "type": "electric_scooter", "fusion_lat": 0.0, "lat": 38.913119, "name": "a9ebd5dbc6fb1233de61e08e583b8b30", "fusion_lon": 0.0, "bike_id": "a9ebd5dbc6fb1233de61e08e583b8b30", "is_disabled": 0, "is_reserved": 0}, {"rental_uris": {"ios": "https://dc.lft.to/lastmile_qr_scan", "android": "https://dc.lft.to/lastmile_qr_scan"}, "lon": -77.04702533333334, "type": "electric_scooter", "fusion_lat": 0.0, "lat": 38.9056065, "name": "637f88362a2759ad9ae8367f44c80718", "fusion_lon": 0.0, "bike_id": "637f88362a2759ad9ae8367f44c80718", "is_disabled": 0, "is_reserved": 0}, {"rental_uris": {"ios": "https://dc.lft.to/lastmile_qr_scan", "android": "https://dc.lft.to/lastmile_qr_scan"}, "lon": -77.026748, "type": "electric_scooter", "fusion_lat": 0.0, "lat": 38.880868666666665, "name": "ce88e6f499615ef4f3384c107b5991d6", "fusion_lon": 0.0, "bike_id": "ce88e6f499615ef4f3384c107b5991d6", "is_disabled": 0, "is_reserved": 0}, {"rental_uris": {"ios": "https://dc.lft.to/lastmile_qr_scan", "android": "https://dc.lft.to/lastmile_qr_scan"}, "lon": -77.00138883333334, "type": "electric_scooter", "fusion_lat": 0.0, "lat": 38.90406383333333, "name": "4dd8f665e454bb16438f48e40fe92353", "fusion_lon": 0.0, "bike_id": "4dd8f665e454bb16438f48e40fe92353", "is_disabled": 0, "is_reserved": 0}, {"rental_uris": {"ios": "https://dc.lft.to/lastmile_qr_scan", "android": "https://dc.lft.to/lastmile_qr_scan"}, "lon": -77.00882283333333, "type": "electric_scooter", "fusion_lat": 0.0, "lat": 38.914045333333334, "name": "a9a9c90a862055d85c67348f528aac66", "fusion_lon": 0.0, "bike_id": "a9a9c90a862055d85c67348f528aac66", "is_disabled": 0, "is_reserved": 0}, {"rental_uris": {"ios": "https://dc.lft.to/lastmile_qr_scan", "android": "https://dc.lft.to/lastmile_qr_scan"}, "lon": -76.92720716666666, "type": "electric_scooter", "fusion_lat": 0.0, "lat": 38.88038, "name": "3a57276d644d7d394f65e4dcfe69d6ec", "fusion_lon": 0.0, "bike_id": "3a57276d644d7d394f65e4dcfe69d6ec", "is_disabled": 0, "is_reserved": 0}, {"rental_uris": {"ios": "https://dc.lft.to/lastmile_qr_scan", "android": "https://dc.lft.to/lastmile_qr_scan"}, "lon": -77.0239805, "type": "electric_scooter", "fusion_lat": 0.0, "lat": 38.90706483333334, "name": "7400cd97bb3a563c15bf290f353708a1", "fusion_lon": 0.0, "bike_id": "7400cd97bb3a563c15bf290f353708a1", "is_disabled": 0, "is_reserved": 0}, {"rental_uris": {"ios": "https://dc.lft.to/lastmile_qr_scan", "android": "https://dc.lft.to/lastmile_qr_scan"}, "lon": -77.00498683333333, "type": "electric_scooter", "fusion_lat": 0.0, "lat": 38.8785865, "name": "6a623301edcd660814007ebec3036066", "fusion_lon": 0.0, "bike_id": "6a623301edcd660814007ebec3036066", "is_disabled": 0, "is_reserved": 0}, {"rental_uris": {"ios": "https://dc.lft.to/lastmile_qr_scan", "android": "https://dc.lft.to/lastmile_qr_scan"}, "lon": -77.04006433333333, "type": "electric_scooter", "fusion_lat": 0.0, "lat": 38.932534833333335, "name": "d7b8157ad9b4fed088ff2e929fdc9bb3", "fusion_lon": 0.0, "bike_id": "d7b8157ad9b4fed088ff2e929fdc9bb3", "is_disabled": 0, "is_reserved": 0}, {"rental_uris": {"ios": "https://dc.lft.to/lastmile_qr_scan", "android": "https://dc.lft.to/lastmile_qr_scan"}, "lon": -77.02121033333333, "type": "electric_scooter", "fusion_lat": 0.0, "lat": 38.914177333333335, "name": "00d58fad3796cbd829e1464b22d8560c", "fusion_lon": 0.0, "bike_id": "00d58fad3796cbd829e1464b22d8560c", "is_disabled": 0, "is_reserved": 0}, {"rental_uris": {"ios": "https://dc.lft.to/lastmile_qr_scan", "android": "https://dc.lft.to/lastmile_qr_scan"}, "lon": -77.02210983333333, "type": "electric_scooter", "fusion_lat": 0.0, "lat": 38.8977985, "name": "4bd04b418b578a8a87d8a812addf49d8", "fusion_lon": 0.0, "bike_id": "4bd04b418b578a8a87d8a812addf49d8", "is_disabled": 0, "is_reserved": 0}, {"rental_uris": {"ios": "https://dc.lft.to/lastmile_qr_scan", "android": "https://dc.lft.to/lastmile_qr_scan"}, "lon": -76.99669566666667, "type": "electric_scooter", "fusion_lat": 0.0, "lat": 38.900425, "name": "70905537ae25e1a82cfd9d56b91b6297", "fusion_lon": 0.0, "bike_id": "70905537ae25e1a82cfd9d56b91b6297", "is_disabled": 0, "is_reserved": 0}, {"rental_uris": {"ios": "https://dc.lft.to/lastmile_qr_scan", "android": "https://dc.lft.to/lastmile_qr_scan"}, "lon": -77.02206916666667, "type": "electric_scooter", "fusion_lat": 0.0, "lat": 38.90971, "name": "d9b5645fbef8891a966247d023d31c88", "fusion_lon": 0.0, "bike_id": "d9b5645fbef8891a966247d023d31c88", "is_disabled": 0, "is_reserved": 0}, {"rental_uris": {"ios": "https://dc.lft.to/lastmile_qr_scan", "android": "https://dc.lft.to/lastmile_qr_scan"}, "lon": -76.98586433333334, "type": "electric_scooter", "fusion_lat": 0.0, "lat": 38.89921966666667, "name": "1e62d1a7d83bff10ce30ed007a59d095", "fusion_lon": 0.0, "bike_id": "1e62d1a7d83bff10ce30ed007a59d095", "is_disabled": 0, "is_reserved": 0}, {"rental_uris": {"ios": "https://dc.lft.to/lastmile_qr_scan", "android": "https://dc.lft.to/lastmile_qr_scan"}, "lon": -77.00067683333333, "type": "electric_scooter", "fusion_lat": 0.0, "lat": 38.9255605, "name": "b47dc501b69b439f56dce7bb93aa9bb9", "fusion_lon": 0.0, "bike_id": "b47dc501b69b439f56dce7bb93aa9bb9", "is_disabled": 0, "is_reserved": 0}, {"rental_uris": {"ios": "https://dc.lft.to/lastmile_qr_scan", "android": "https://dc.lft.to/lastmile_qr_scan"}, "lon": -77.04820983333333, "type": "electric_scooter", "fusion_lat": 0.0, "lat": 38.920388333333335, "name": "407dcc464dce1512d223fc54a1d5ed5d", "fusion_lon": 0.0, "bike_id": "407dcc464dce1512d223fc54a1d5ed5d", "is_disabled": 0, "is_reserved": 0}, {"rental_uris": {"ios": "https://dc.lft.to/lastmile_qr_scan", "android": "https://dc.lft.to/lastmile_qr_scan"}, "lon": -77.0233585, "type": "electric_scooter", "fusion_lat": 0.0, "lat": 38.930512, "name": "13c0e89d84288475c833fdc0f3cca515", "fusion_lon": 0.0, "bike_id": "13c0e89d84288475c833fdc0f3cca515", "is_disabled": 0, "is_reserved": 0}, {"rental_uris": {"ios": "https://dc.lft.to/lastmile_qr_scan", "android": "https://dc.lft.to/lastmile_qr_scan"}, "lon": -77.0372035, "type": "electric_scooter", "fusion_lat": 0.0, "lat": 38.91043533333333, "name": "791adcd40782d384c338869853fbb375", "fusion_lon": 0.0, "bike_id": "791adcd40782d384c338869853fbb375", "is_disabled": 0, "is_reserved": 0}, {"rental_uris": {"ios": "https://dc.lft.to/lastmile_qr_scan", "android": "https://dc.lft.to/lastmile_qr_scan"}, "lon": -76.97460216666667, "type": "electric_scooter", "fusion_lat": 0.0, "lat": 38.865398, "name": "05eeafc6fe5e480e09e16e85080b4ed0", "fusion_lon": 0.0, "bike_id": "05eeafc6fe5e480e09e16e85080b4ed0", "is_disabled": 0, "is_reserved": 0}, {"rental_uris": {"ios": "https://dc.lft.to/lastmile_qr_scan", "android": "https://dc.lft.to/lastmile_qr_scan"}, "lon": -77.03206616666667, "type": "electric_scooter", "fusion_lat": 0.0, "lat": 38.900142833333334, "name": "15334485daa8cbb3daf503bdf5d08cd2", "fusion_lon": 0.0, "bike_id": "15334485daa8cbb3daf503bdf5d08cd2", "is_disabled": 0, "is_reserved": 0}, {"rental_uris": {"ios": "https://dc.lft.to/lastmile_qr_scan", "android": "https://dc.lft.to/lastmile_qr_scan"}, "lon": -76.9906645, "type": "electric_scooter", "fusion_lat": 0.0, "lat": 38.86361, "name": "8073b02f762d48fb0dad5e278fbe18c9", "fusion_lon": 0.0, "bike_id": "8073b02f762d48fb0dad5e278fbe18c9", "is_disabled": 0, "is_reserved": 0}, {"rental_uris": {"ios": "https://dc.lft.to/lastmile_qr_scan", "android": "https://dc.lft.to/lastmile_qr_scan"}, "lon": -77.02229916666667, "type": "electric_scooter", "fusion_lat": 0.0, "lat": 38.91268766666666, "name": "17026f4f02f66f9f9c91cf73a6be6afe", "fusion_lon": 0.0, "bike_id": "17026f4f02f66f9f9c91cf73a6be6afe", "is_disabled": 0, "is_reserved": 0}, {"rental_uris": {"ios": "https://dc.lft.to/lastmile_qr_scan", "android": "https://dc.lft.to/lastmile_qr_scan"}, "lon": -77.03400033333334, "type": "electric_scooter", "fusion_lat": 0.0, "lat": 38.92154816666667, "name": "af4950defc5d64ccb0b40797f11175ee", "fusion_lon": 0.0, "bike_id": "af4950defc5d64ccb0b40797f11175ee", "is_disabled": 0, "is_reserved": 0}, {"rental_uris": {"ios": "https://dc.lft.to/lastmile_qr_scan", "android": "https://dc.lft.to/lastmile_qr_scan"}, "lon": -76.98797066666667, "type": "electric_bike", "fusion_lat": 0.0, "lat": 38.904192, "name": "6c9d216b56154990750bea731658b85d", "fusion_lon": 0.0, "bike_id": "6c9d216b56154990750bea731658b85d", "is_disabled": 0, "is_reserved": 0}, {"rental_uris": {"ios": "https://dc.lft.to/lastmile_qr_scan", "android": "https://dc.lft.to/lastmile_qr_scan"}, "lon": -76.95471783333333, "type": "electric_bike", "fusion_lat": 0.0, "lat": 38.886396166666664, "name": "d23a2ad97944286dbd7df12d6a4ef733", "fusion_lon": 0.0, "bike_id": "d23a2ad97944286dbd7df12d6a4ef733", "is_disabled": 0, "is_reserved": 0}, {"rental_uris": {"ios": "https://dc.lft.to/lastmile_qr_scan", "android": "https://dc.lft.to/lastmile_qr_scan"}, "lon": -77.05983833333333, "type": "electric_scooter", "fusion_lat": 0.0, "lat": 38.935508666666664, "name": "8078a579e554136772b64e13320477ff", "fusion_lon": 0.0, "bike_id": "8078a579e554136772b64e13320477ff", "is_disabled": 0, "is_reserved": 0}, {"rental_uris": {"ios": "https://dc.lft.to/lastmile_qr_scan", "android": "https://dc.lft.to/lastmile_qr_scan"}, "lon": -77.01208433333333, "type": "electric_scooter", "fusion_lat": 0.0, "lat": 38.91496333333333, "name": "689da11542fa4ea45fb5e12d018f0b0f", "fusion_lon": 0.0, "bike_id": "689da11542fa4ea45fb5e12d018f0b0f", "is_disabled": 0, "is_reserved": 0}, {"rental_uris": {"ios": "https://dc.lft.to/lastmile_qr_scan", "android": "https://dc.lft.to/lastmile_qr_scan"}, "lon": -77.11803616666667, "type": "electric_bike", "fusion_lat": 0.0, "lat": 38.89836533333333, "name": "a46544fb64bce05009cf9a5113ccc0b1", "fusion_lon": 0.0, "bike_id": "a46544fb64bce05009cf9a5113ccc0b1", "is_disabled": 0, "is_reserved": 0}, {"rental_uris": {"ios": "https://dc.lft.to/lastmile_qr_scan", "android": "https://dc.lft.to/lastmile_qr_scan"}, "lon": -77.03852016666667, "type": "electric_scooter", "fusion_lat": 0.0, "lat": 38.926400666666666, "name": "24f654b3611415e72f077a46fd1603da", "fusion_lon": 0.0, "bike_id": "24f654b3611415e72f077a46fd1603da", "is_disabled": 0, "is_reserved": 0}, {"rental_uris": {"ios": "https://dc.lft.to/lastmile_qr_scan", "android": "https://dc.lft.to/lastmile_qr_scan"}, "lon": -77.05197233333334, "type": "electric_scooter", "fusion_lat": 0.0, "lat": 38.89825783333333, "name": "03d52886b2b860dc1712ac12e62a41d0", "fusion_lon": 0.0, "bike_id": "03d52886b2b860dc1712ac12e62a41d0", "is_disabled": 0, "is_reserved": 0}, {"rental_uris": {"ios": "https://dc.lft.to/lastmile_qr_scan", "android": "https://dc.lft.to/lastmile_qr_scan"}, "lon": -77.02712966666667, "type": "electric_scooter", "fusion_lat": 0.0, "lat": 38.91813633333334, "name": "0aa997d903cfe85fde505559dd1b634d", "fusion_lon": 0.0, "bike_id": "0aa997d903cfe85fde505559dd1b634d", "is_disabled": 0, "is_reserved": 0}, {"rental_uris": {"ios": "https://dc.lft.to/lastmile_qr_scan", "android": "https://dc.lft.to/lastmile_qr_scan"}, "lon": -77.0296575, "type": "electric_scooter", "fusion_lat": 0.0, "lat": 38.92564866666667, "name": "a8662c9af80e5137b2fb7011a09a3243", "fusion_lon": 0.0, "bike_id": "a8662c9af80e5137b2fb7011a09a3243", "is_disabled": 0, "is_reserved": 0}, {"rental_uris": {"ios": "https://dc.lft.to/lastmile_qr_scan", "android": "https://dc.lft.to/lastmile_qr_scan"}, "lon": -77.01517933333334, "type": "electric_scooter", "fusion_lat": 0.0, "lat": 38.887367833333336, "name": "f159c062872c7bc3c4af9f57e816bea5", "fusion_lon": 0.0, "bike_id": "f159c062872c7bc3c4af9f57e816bea5", "is_disabled": 0, "is_reserved": 0}, {"rental_uris": {"ios": "https://dc.lft.to/lastmile_qr_scan", "android": "https://dc.lft.to/lastmile_qr_scan"}, "lon": -77.04625866666666, "type": "electric_scooter", "fusion_lat": 0.0, "lat": 38.9190455, "name": "c22d5a1ef5eac585e4f48bbd686ad7ff", "fusion_lon": 0.0, "bike_id": "c22d5a1ef5eac585e4f48bbd686ad7ff", "is_disabled": 0, "is_reserved": 0}, {"rental_uris": {"ios": "https://dc.lft.to/lastmile_qr_scan", "android": "https://dc.lft.to/lastmile_qr_scan"}, "lon": -77.00130283333333, "type": "electric_scooter", "fusion_lat": 0.0, "lat": 38.907144833333334, "name": "5474daa76814eeb586be7bdbe1a2ae00", "fusion_lon": 0.0, "bike_id": "5474daa76814eeb586be7bdbe1a2ae00", "is_disabled": 0, "is_reserved": 0}, {"rental_uris": {"ios": "https://dc.lft.to/lastmile_qr_scan", "android": "https://dc.lft.to/lastmile_qr_scan"}, "lon": -77.00941866666666, "type": "electric_scooter", "fusion_lat": 0.0, "lat": 38.87202966666667, "name": "4fafccfeef3bf1dabbdcd9eedf1b2ac7", "fusion_lon": 0.0, "bike_id": "4fafccfeef3bf1dabbdcd9eedf1b2ac7", "is_disabled": 0, "is_reserved": 0}, {"rental_uris": {"ios": "https://dc.lft.to/lastmile_qr_scan", "android": "https://dc.lft.to/lastmile_qr_scan"}, "lon": -77.02714816666666, "type": "electric_scooter", "fusion_lat": 0.0, "lat": 38.90898083333333, "name": "175ae2c596de062a7c9a91b65cd1ba3e", "fusion_lon": 0.0, "bike_id": "175ae2c596de062a7c9a91b65cd1ba3e", "is_disabled": 0, "is_reserved": 0}, {"rental_uris": {"ios": "https://dc.lft.to/lastmile_qr_scan", "android": "https://dc.lft.to/lastmile_qr_scan"}, "lon": -77.0389815, "type": "electric_scooter", "fusion_lat": 0.0, "lat": 38.9439255, "name": "38e33deef9c03904b92fc52a9a2ab4ff", "fusion_lon": 0.0, "bike_id": "38e33deef9c03904b92fc52a9a2ab4ff", "is_disabled": 0, "is_reserved": 0}, {"rental_uris": {"ios": "https://dc.lft.to/lastmile_qr_scan", "android": "https://dc.lft.to/lastmile_qr_scan"}, "lon": -76.93163866666667, "type": "electric_bike", "fusion_lat": 0.0, "lat": 38.9086445, "name": "3b59ea15ea2b3f83b8b6582ab81a7fde", "fusion_lon": 0.0, "bike_id": "3b59ea15ea2b3f83b8b6582ab81a7fde", "is_disabled": 0, "is_reserved": 0}, {"rental_uris": {"ios": "https://dc.lft.to/lastmile_qr_scan", "android": "https://dc.lft.to/lastmile_qr_scan"}, "lon": -77.02814783333334, "type": "electric_scooter", "fusion_lat": 0.0, "lat": 38.9613935, "name": "3eb2efa51637cea9adcee8bcf38b4034", "fusion_lon": 0.0, "bike_id": "3eb2efa51637cea9adcee8bcf38b4034", "is_disabled": 0, "is_reserved": 0}, {"rental_uris": {"ios": "https://dc.lft.to/lastmile_qr_scan", "android": "https://dc.lft.to/lastmile_qr_scan"}, "lon": -76.94143383333333, "type": "electric_scooter", "fusion_lat": 0.0, "lat": 38.89679866666667, "name": "f187a59059125e465096730dc7e8a05a", "fusion_lon": 0.0, "bike_id": "f187a59059125e465096730dc7e8a05a", "is_disabled": 0, "is_reserved": 0}, {"rental_uris": {"ios": "https://dc.lft.to/lastmile_qr_scan", "android": "https://dc.lft.to/lastmile_qr_scan"}, "lon": -77.02892316666667, "type": "electric_scooter", "fusion_lat": 0.0, "lat": 38.90719633333333, "name": "3260e3cfbb06d6891e9a97abe0614dd0", "fusion_lon": 0.0, "bike_id": "3260e3cfbb06d6891e9a97abe0614dd0", "is_disabled": 0, "is_reserved": 0}, {"rental_uris": {"ios": "https://dc.lft.to/lastmile_qr_scan", "android": "https://dc.lft.to/lastmile_qr_scan"}, "lon": -77.00377966666667, "type": "electric_bike", "fusion_lat": 0.0, "lat": 38.83604016666666, "name": "eb919294d83afaa2eadd0323e95dcef2", "fusion_lon": 0.0, "bike_id": "eb919294d83afaa2eadd0323e95dcef2", "is_disabled": 0, "is_reserved": 0}, {"rental_uris": {"ios": "https://dc.lft.to/lastmile_qr_scan", "android": "https://dc.lft.to/lastmile_qr_scan"}, "lon": -76.99065166666666, "type": "electric_scooter", "fusion_lat": 0.0, "lat": 38.8635535, "name": "df78dec43dc327a5e0a0897d5901af82", "fusion_lon": 0.0, "bike_id": "df78dec43dc327a5e0a0897d5901af82", "is_disabled": 0, "is_reserved": 0}, {"rental_uris": {"ios": "https://dc.lft.to/lastmile_qr_scan", "android": "https://dc.lft.to/lastmile_qr_scan"}, "lon": -77.0955495, "type": "electric_bike", "fusion_lat": 0.0, "lat": 38.8373, "name": "d3ea42cb57e615c4c700caed8e3121bb", "fusion_lon": 0.0, "bike_id": "d3ea42cb57e615c4c700caed8e3121bb", "is_disabled": 0, "is_reserved": 0}, {"rental_uris": {"ios": "https://dc.lft.to/lastmile_qr_scan", "android": "https://dc.lft.to/lastmile_qr_scan"}, "lon": -77.03420566666667, "type": "electric_scooter", "fusion_lat": 0.0, "lat": 38.919239833333336, "name": "ae08651aa6e7bed0f39c671b06d6a054", "fusion_lon": 0.0, "bike_id": "ae08651aa6e7bed0f39c671b06d6a054", "is_disabled": 0, "is_reserved": 0}, {"rental_uris": {"ios": "https://dc.lft.to/lastmile_qr_scan", "android": "https://dc.lft.to/lastmile_qr_scan"}, "lon": -77.0383965, "type": "electric_scooter", "fusion_lat": 0.0, "lat": 38.908384833333336, "name": "c9e4249cf544cfcb860f94af39aa8b9e", "fusion_lon": 0.0, "bike_id": "c9e4249cf544cfcb860f94af39aa8b9e", "is_disabled": 0, "is_reserved": 0}, {"rental_uris": {"ios": "https://dc.lft.to/lastmile_qr_scan", "android": "https://dc.lft.to/lastmile_qr_scan"}, "lon": -77.02230766666666, "type": "electric_scooter", "fusion_lat": 0.0, "lat": 38.89222866666667, "name": "e9fb89019f2ae23bdaa4d5b413af32b3", "fusion_lon": 0.0, "bike_id": "e9fb89019f2ae23bdaa4d5b413af32b3", "is_disabled": 0, "is_reserved": 0}, {"rental_uris": {"ios": "https://dc.lft.to/lastmile_qr_scan", "android": "https://dc.lft.to/lastmile_qr_scan"}, "lon": -77.08544116666667, "type": "electric_bike", "fusion_lat": 0.0, "lat": 38.8562395, "name": "64f0aa1fc549764503fe9ce5950070ef", "fusion_lon": 0.0, "bike_id": "64f0aa1fc549764503fe9ce5950070ef", "is_disabled": 0, "is_reserved": 0}, {"rental_uris": {"ios": "https://dc.lft.to/lastmile_qr_scan", "android": "https://dc.lft.to/lastmile_qr_scan"}, "lon": -77.026622, "type": "electric_scooter", "fusion_lat": 0.0, "lat": 38.91689866666667, "name": "b2f710004b4194bc76533beb9bb8ac65", "fusion_lon": 0.0, "bike_id": "b2f710004b4194bc76533beb9bb8ac65", "is_disabled": 0, "is_reserved": 0}, {"rental_uris": {"ios": "https://dc.lft.to/lastmile_qr_scan", "android": "https://dc.lft.to/lastmile_qr_scan"}, "lon": -76.98885, "type": "electric_scooter", "fusion_lat": 0.0, "lat": 38.86655983333333, "name": "9c01929d8ba98018b316418489bb06e7", "fusion_lon": 0.0, "bike_id": "9c01929d8ba98018b316418489bb06e7", "is_disabled": 0, "is_reserved": 0}, {"rental_uris": {"ios": "https://dc.lft.to/lastmile_qr_scan", "android": "https://dc.lft.to/lastmile_qr_scan"}, "lon": -77.01161716666667, "type": "electric_scooter", "fusion_lat": 0.0, "lat": 38.900183, "name": "a5e4058551ca2bc530d639fda236e42c", "fusion_lon": 0.0, "bike_id": "a5e4058551ca2bc530d639fda236e42c", "is_disabled": 0, "is_reserved": 0}, {"rental_uris": {"ios": "https://dc.lft.to/lastmile_qr_scan", "android": "https://dc.lft.to/lastmile_qr_scan"},