{"data": {"bikes": [{"is_disabled": 0, "rental_uris": {"android": "https://dc.lft.to/lastmile_qr_scan", "ios": "https://dc.lft.to/lastmile_qr_scan"}, "is_reserved": 0, "name": "75b387419a179cb8f9f08dad659fd0c9", "lon": -77.03464633333333, "type": "electric_scooter", "bike_id": "75b387419a179cb8f9f08dad659fd0c9", "fusion_lon": 0.0, "lat": 38.90747666666667, "fusion_lat": 0.0}, {"is_disabled": 0, "rental_uris": {"android": "https://dc.lft.to/lastmile_qr_scan", "ios": "https://dc.lft.to/lastmile_qr_scan"}, "is_reserved": 0, "name": "5698975411401492cff5a09e1ca49635", "lon": -77.0163645, "type": "electric_scooter", "bike_id": "5698975411401492cff5a09e1ca49635", "fusion_lon": 0.0, "lat": 38.90371066666667, "fusion_lat": 0.0}, {"is_disabled": 0, "rental_uris": {"android": "https://dc.lft.to/lastmile_qr_scan", "ios": "https://dc.lft.to/lastmile_qr_scan"}, "is_reserved": 0, "name": "71783c73abf7f7b7251c078f260d9c7d", "lon": -77.025124, "type": "electric_scooter", "bike_id": "71783c73abf7f7b7251c078f260d9c7d", "fusion_lon": 0.0, "lat": 38.92140416666667, "fusion_lat": 0.0}, {"is_disabled": 0, "rental_uris": {"android": "https://dc.lft.to/lastmile_qr_scan", "ios": "https://dc.lft.to/lastmile_qr_scan"}, "is_reserved": 0, "name": "3ff398f4e08783908ac154d943ca81aa", "lon": -76.97938766666667, "type": "electric_scooter", "bike_id": "3ff398f4e08783908ac154d943ca81aa", "fusion_lon": 0.0, "lat": 38.90504833333333, "fusion_lat": 0.0}, {"is_disabled": 0, "rental_uris": {"android": "https://dc.lft.to/lastmile_qr_scan", "ios": "https://dc.lft.to/lastmile_qr_scan"}, "is_reserved": 0, "name": "ee22110e0e628ca49439182b5163fcfe", "lon": -77.02004383333333, "type": "electric_scooter", "bike_id": "ee22110e0e628ca49439182b5163fcfe", "fusion_lon": 0.0, "lat": 38.924064, "fusion_lat": 0.0}, {"is_disabled": 0, "rental_uris": {"android": "https://dc.lft.to/lastmile_qr_scan", "ios": "https://dc.lft.to/lastmile_qr_scan"}, "is_reserved": 0, "name": "d6374b09fab2b3840d2671db846b6b7c", "lon": -77.04528183333333, "type": "electric_scooter", "bike_id": "d6374b09fab2b3840d2671db846b6b7c", "fusion_lon": 0.0, "lat": 38.9036465, "fusion_lat": 0.0}, {"is_disabled": 0, "rental_uris": {"android": "https://dc.lft.to/lastmile_qr_scan", "ios": "https://dc.lft.to/lastmile_qr_scan"}, "is_reserved": 0, "name": "ad5a1ecd63f87f9640bd7b250bebf588", "lon": -77.00678183333333, "type": "electric_bike", "bike_id": "ad5a1ecd63f87f9640bd7b250bebf588", "fusion_lon": 0.0, "lat": 38.944951333333336, "fusion_lat": 0.0}, {"is_disabled": 0, "rental_uris": {"android": "https://dc.lft.to/lastmile_qr_scan", "ios": "https://dc.lft.to/lastmile_qr_scan"}, "is_reserved": 0, "name": "f4846b218a5847a70b962efb26fa6ec6", "lon": -76.94055916666667, "type": "electric_scooter", "bike_id": "f4846b218a5847a70b962efb26fa6ec6", "fusion_lon": 0.0, "lat": 38.890365833333334, "fusion_lat": 0.0}, {"is_disabled": 0, "rental_uris": {"android": "https://dc.lft.to/lastmile_qr_scan", "ios": "https://dc.lft.to/lastmile_qr_scan"}, "is_reserved": 0, "name": "89545a4efa049fd41cc249b94b0083e2", "lon": -77.0378305, "type": "electric_scooter", "bike_id": "89545a4efa049fd41cc249b94b0083e2", "fusion_lon": 0.0, "lat": 38.93023, "fusion_lat": 0.0}, {"is_disabled": 0, "rental_uris": {"android": "https://dc.lft.to/lastmile_qr_scan", "ios": "https://dc.lft.to/lastmile_qr_scan"}, "is_reserved": 0, "name": "81e67906740ccfb58e5920df25b29d66", "lon": -76.97615666666667, "type": "electric_scooter", "bike_id": "81e67906740ccfb58e5920df25b29d66", "fusion_lon": 0.0, "lat": 38.9314405, "fusion_lat": 0.0}, {"is_disabled": 0, "rental_uris": {"android": "https://dc.lft.to/lastmile_qr_scan", "ios": "https://dc.lft.to/lastmile_qr_scan"}, "is_reserved": 0, "name": "41d083d7f8b4a0e13af08a94f2bd6da1", "lon": -77.03724, "type": "electric_scooter", "bike_id": "41d083d7f8b4a0e13af08a94f2bd6da1", "fusion_lon": 0.0, "lat": 38.911188333333335, "fusion_lat": 0.0}, {"is_disabled": 0, "rental_uris": {"android": "https://dc.lft.to/lastmile_qr_scan", "ios": "https://dc.lft.to/lastmile_qr_scan"}, "is_reserved": 0, "name": "2f2532ec1548715310dd5f5f5166589c", "lon": -76.98769483333334, "type": "electric_scooter", "bike_id": "2f2532ec1548715310dd5f5f5166589c", "fusion_lon": 0.0, "lat": 38.91172, "fusion_lat": 0.0}, {"is_disabled": 0, "rental_uris": {"android": "https://dc.lft.to/lastmile_qr_scan", "ios": "https://dc.lft.to/lastmile_qr_scan"}, "is_reserved": 0, "name": "ea6a0322576739b7516308d4d7cbf268", "lon": -77.030454, "type": "electric_scooter", "bike_id": "ea6a0322576739b7516308d4d7cbf268", "fusion_lon": 0.0, "lat": 38.93453, "fusion_lat": 0.0}, {"is_disabled": 0, "rental_uris": {"android": "https://dc.lft.to/lastmile_qr_scan", "ios": "https://dc.lft.to/lastmile_qr_scan"}, "is_reserved": 0, "name": "f1ecae4b78a5aba455205f6ac84a674c", "lon": -77.038474, "type": "electric_scooter", "bike_id": "f1ecae4b78a5aba455205f6ac84a674c", "fusion_lon": 0.0, "lat": 38.908031, "fusion_lat": 0.0}, {"is_disabled": 0, "rental_uris": {"android": "https://dc.lft.to/lastmile_qr_scan", "ios": "https://dc.lft.to/lastmile_qr_scan"}, "is_reserved": 0, "name": "fe28b149a16629363e0331dc9256f74a", "lon": -77.00199116666667, "type": "electric_scooter", "bike_id": "fe28b149a16629363e0331dc9256f74a", "fusion_lon": 0.0, "lat": 38.90242583333333, "fusion_lat": 0.0}, {"is_disabled": 0, "rental_uris": {"android": "https://dc.lft.to/lastmile_qr_scan", "ios": "https://dc.lft.to/lastmile_qr_scan"}, "is_reserved": 0, "name": "c5db9753be505a8d20b85fe4dabb9f10", "lon": -77.04713966666667, "type": "electric_scooter", "bike_id": "c5db9753be505a8d20b85fe4dabb9f10", "fusion_lon": 0.0, "lat": 38.89718833333333, "fusion_lat": 0.0}, {"is_disabled": 0, "rental_uris": {"android": "https://dc.lft.to/lastmile_qr_scan", "ios": "https://dc.lft.to/lastmile_qr_scan"}, "is_reserved": 0, "name": "e630fc34de93c72051a925a15ece3ea3", "lon": -77.03739833333333, "type": "electric_scooter", "bike_id": "e630fc34de93c72051a925a15ece3ea3", "fusion_lon": 0.0, "lat": 38.91188366666667, "fusion_lat": 0.0}, {"is_disabled": 0, "rental_uris": {"android": "https://dc.lft.to/lastmile_qr_scan", "ios": "https://dc.lft.to/lastmile_qr_scan"}, "is_reserved": 0, "name": "fb35afe1e30ba1c1a8416c0bfa0cb7a4", "lon": -76.98266333333333, "type": "electric_scooter", "bike_id": "fb35afe1e30ba1c1a8416c0bfa0cb7a4", "fusion_lon": 0.0, "lat": 38.885366, "fusion_lat": 0.0}, {"is_disabled": 0, "rental_uris": {"android": "https://dc.lft.to/lastmile_qr_scan", "ios": "https://dc.lft.to/lastmile_qr_scan"}, "is_reserved": 0, "name": "4cfb4f9df8cad246ce4a24cf544b3ac0", "lon": -77.0181565, "type": "electric_scooter", "bike_id": "4cfb4f9df8cad246ce4a24cf544b3ac0", "fusion_lon": 0.0, "lat": 38.92212716666667, "fusion_lat": 0.0}, {"is_disabled": 0, "rental_uris": {"android": "https://dc.lft.to/lastmile_qr_scan", "ios": "https://dc.lft.to/lastmile_qr_scan"}, "is_reserved": 0, "name": "c778b42540354516fc540cd3a1c204fd", "lon": -77.0342435, "type": "electric_scooter", "bike_id": "c778b42540354516fc540cd3a1c204fd", "fusion_lon": 0.0, "lat": 38.935431333333334, "fusion_lat": 0.0}, {"is_disabled": 0, "rental_uris": {"android": "https://dc.lft.to/lastmile_qr_scan", "ios": "https://dc.lft.to/lastmile_qr_scan"}, "is_reserved": 0, "name": "15478abae19b2a0548d4eeacca7a39b8", "lon": -77.12581083333333, "type": "electric_bike", "bike_id": "15478abae19b2a0548d4eeacca7a39b8", "fusion_lon": 0.0, "lat": 38.851456, "fusion_lat": 0.0}, {"is_disabled": 0, "rental_uris": {"android": "https://dc.lft.to/lastmile_qr_scan", "ios": "https://dc.lft.to/lastmile_qr_scan"}, "is_reserved": 0, "name": "866c8be2800ae20996339ef502cba794", "lon": -76.93223483333334, "type": "electric_bike", "bike_id": "866c8be2800ae20996339ef502cba794", "fusion_lon": 0.0, "lat": 38.86592133333333, "fusion_lat": 0.0}, {"is_disabled": 0, "rental_uris": {"android": "https://dc.lft.to/lastmile_qr_scan", "ios": "https://dc.lft.to/lastmile_qr_scan"}, "is_reserved": 0, "name": "111117921da4df76b71aeb26e224a204", "lon": -77.03204133333334, "type": "electric_scooter", "bike_id": "111117921da4df76b71aeb26e224a204", "fusion_lon": 0.0, "lat": 38.91770016666667, "fusion_lat": 0.0}, {"is_disabled": 0, "rental_uris": {"android": "https://dc.lft.to/lastmile_qr_scan", "ios": "https://dc.lft.to/lastmile_qr_scan"}, "is_reserved": 0, "name": "8a25b0bfc0557f601e949a2de90f71de", "lon": -77.04010966666667, "type": "electric_scooter", "bike_id": "8a25b0bfc0557f601e949a2de90f71de", "fusion_lon": 0.0, "lat": 38.91792133333333, "fusion_lat": 0.0}, {"is_disabled": 0, "rental_uris": {"android": "https://dc.lft.to/lastmile_qr_scan", "ios": "https://dc.lft.to/lastmile_qr_scan"}, "is_reserved": 0, "name": "cf1aa47d4637fb215c899a20b0d07cc6", "lon": -77.04732633333333, "type": "electric_scooter", "bike_id": "cf1aa47d4637fb215c899a20b0d07cc6", "fusion_lon": 0.0, "lat": 38.906032, "fusion_lat": 0.0}, {"is_disabled": 0, "rental_uris": {"android": "https://dc.lft.to/lastmile_qr_scan", "ios": "https://dc.lft.to/lastmile_qr_scan"}, "is_reserved": 0, "name": "0b8bb2c320cd862ec128758a527b8b92", "lon": -77.02008183333334, "type": "electric_scooter", "bike_id": "0b8bb2c320cd862ec128758a527b8b92", "fusion_lon": 0.0, "lat": 38.897281666666665, "fusion_lat": 0.0}, {"is_disabled": 0, "rental_uris": {"android": "https://dc.lft.to/lastmile_qr_scan", "ios": "https://dc.lft.to/lastmile_qr_scan"}, "is_reserved": 0, "name": "b22873bb119d9eb5a888a279fe000cc4", "lon": -77.03673783333333, "type": "electric_scooter", "bike_id": "b22873bb119d9eb5a888a279fe000cc4", "fusion_lon": 0.0, "lat": 38.91807716666667, "fusion_lat": 0.0}, {"is_disabled": 0, "rental_uris": {"android": "https://dc.lft.to/lastmile_qr_scan", "ios": "https://dc.lft.to/lastmile_qr_scan"}, "is_reserved": 0, "name": "9d1155f2884b77049acb81b1aa7645b7", "lon": -77.03360966666666, "type": "electric_scooter", "bike_id": "9d1155f2884b77049acb81b1aa7645b7", "fusion_lon": 0.0, "lat": 38.921550833333335, "fusion_lat": 0.0}, {"is_disabled": 0, "rental_uris": {"android": "https://dc.lft.to/lastmile_qr_scan", "ios": "https://dc.lft.to/lastmile_qr_scan"}, "is_reserved": 0, "name": "c0e778e78005c7eedaf8392b19d1487e", "lon": -77.03179783333333, "type": "electric_scooter", "bike_id": "c0e778e78005c7eedaf8392b19d1487e", "fusion_lon": 0.0, "lat": 38.9191535, "fusion_lat": 0.0}, {"is_disabled": 0, "rental_uris": {"android": "https://dc.lft.to/lastmile_qr_scan", "ios": "https://dc.lft.to/lastmile_qr_scan"}, "is_reserved": 0, "name": "18ddb91f56076edc991f658053cb54da", "lon": -77.03139766666666, "type": "electric_scooter", "bike_id": "18ddb91f56076edc991f658053cb54da", "fusion_lon": 0.0, "lat": 38.903567833333334, "fusion_lat": 0.0}, {"is_disabled": 0, "rental_uris": {"android": "https://dc.lft.to/lastmile_qr_scan", "ios": "https://dc.lft.to/lastmile_qr_scan"}, "is_reserved": 0, "name": "97bd249bda057521d6b11529994d1280", "lon": -77.0268995, "type": "electric_scooter", "bike_id": "97bd249bda057521d6b11529994d1280", "fusion_lon": 0.0, "lat": 38.897139333333335, "fusion_lat": 0.0}, {"is_disabled": 0, "rental_uris": {"android": "https://dc.lft.to/lastmile_qr_scan", "ios": "https://dc.lft.to/lastmile_qr_scan"}, "is_reserved": 0, "name": "eee6fd4fe6fe3407dc1fa7e682b7602f", "lon": -77.02840133333333, "type": "electric_scooter", "bike_id": "eee6fd4fe6fe3407dc1fa7e682b7602f", "fusion_lon": 0.0, "lat": 38.925731, "fusion_lat": 0.0}, {"is_disabled": 0, "rental_uris": {"android": "https://dc.lft.to/lastmile_qr_scan", "ios": "https://dc.lft.to/lastmile_qr_scan"}, "is_reserved": 0, "name": "f9f900f1082a940c901dd225e5f2f741", "lon": -76.99650216666667, "type": "electric_bike", "bike_id": "f9f900f1082a940c901dd225e5f2f741", "fusion_lon": 0.0, "lat": 38.98834983333333, "fusion_lat": 0.0}, {"is_disabled": 0, "rental_uris": {"android": "https://dc.lft.to/lastmile_qr_scan", "ios": "https://dc.lft.to/lastmile_qr_scan"}, "is_reserved": 0, "name": "319a9cccf979ff5466a9b033fe1ab93a", "lon": -77.00884666666667, "type": "electric_scooter", "bike_id": "319a9cccf979ff5466a9b033fe1ab93a", "fusion_lon": 0.0, "lat": 38.90581133333333, "fusion_lat": 0.0}, {"is_disabled": 0, "rental_uris": {"android": "https://dc.lft.to/lastmile_qr_scan", "ios": "https://dc.lft.to/lastmile_qr_scan"}, "is_reserved": 0, "name": "27aa22c2eb37b4a4c92f3ccc948b1f6e", "lon": -77.03828766666666, "type": "electric_scooter", "bike_id": "27aa22c2eb37b4a4c92f3ccc948b1f6e", "fusion_lon": 0.0, "lat": 38.9147345, "fusion_lat": 0.0}, {"is_disabled": 0, "rental_uris": {"android": "https://dc.lft.to/lastmile_qr_scan", "ios": "https://dc.lft.to/lastmile_qr_scan"}, "is_reserved": 0, "name": "f9f9427cacbac9831c0d621bbe19a3ac", "lon": -77.01505933333334, "type": "electric_scooter", "bike_id": "f9f9427cacbac9831c0d621bbe19a3ac", "fusion_lon": 0.0, "lat": 38.910026333333334, "fusion_lat": 0.0}, {"is_disabled": 0, "rental_uris": {"android": "https://dc.lft.to/lastmile_qr_scan", "ios": "https://dc.lft.to/lastmile_qr_scan"}, "is_reserved": 0, "name": "84abe5bd40035c531f644261ca106ad0", "lon": -77.04579033333333, "type": "electric_scooter", "bike_id": "84abe5bd40035c531f644261ca106ad0", "fusion_lon": 0.0, "lat": 38.92421266666667, "fusion_lat": 0.0}, {"is_disabled": 0, "rental_uris": {"android": "https://dc.lft.to/lastmile_qr_scan", "ios": "https://dc.lft.to/lastmile_qr_scan"}, "is_reserved": 0, "name": "afda6aea970b06b35b5c8552097def25", "lon": -77.02390583333333, "type": "electric_scooter", "bike_id": "afda6aea970b06b35b5c8552097def25", "fusion_lon": 0.0, "lat": 38.928032, "fusion_lat": 0.0}, {"is_disabled": 0, "rental_uris": {"android": "https://dc.lft.to/lastmile_qr_scan", "ios": "https://dc.lft.to/lastmile_qr_scan"}, "is_reserved": 0, "name": "01a320c57e594841770c77c2495da6df", "lon": -77.04133316666666, "type": "electric_bike", "bike_id": "01a320c57e594841770c77c2495da6df", "fusion_lon": 0.0, "lat": 38.9439905, "fusion_lat": 0.0}, {"is_disabled": 0, "rental_uris": {"android": "https://dc.lft.to/lastmile_qr_scan", "ios": "https://dc.lft.to/lastmile_qr_scan"}, "is_reserved": 0, "name": "0b6f9a45867e2415b13867f437401f06", "lon": -76.97502933333334, "type": "electric_bike", "bike_id": "0b6f9a45867e2415b13867f437401f06", "fusion_lon": 0.0, "lat": 38.91940616666667, "fusion_lat": 0.0}, {"is_disabled": 0, "rental_uris": {"android": "https://dc.lft.to/lastmile_qr_scan", "ios": "https://dc.lft.to/lastmile_qr_scan"}, "is_reserved": 0, "name": "e5fd6882f3bcb9e55de5b2cec03e0766", "lon": -77.00942683333334, "type": "electric_scooter", "bike_id": "e5fd6882f3bcb9e55de5b2cec03e0766", "fusion_lon": 0.0, "lat": 38.89498783333333, "fusion_lat": 0.0}, {"is_disabled": 0, "rental_uris": {"android": "https://dc.lft.to/lastmile_qr_scan", "ios": "https://dc.lft.to/lastmile_qr_scan"}, "is_reserved": 0, "name": "f7107aec0940eb3e08d87c5b649ef143", "lon": -77.04279583333333, "type": "electric_scooter", "bike_id": "f7107aec0940eb3e08d87c5b649ef143", "fusion_lon": 0.0, "lat": 38.917012, "fusion_lat": 0.0}, {"is_disabled": 0, "rental_uris": {"android": "https://dc.lft.to/lastmile_qr_scan", "ios": "https://dc.lft.to/lastmile_qr_scan"}, "is_reserved": 0, "name": "164443486f5851dee03d0a747a449e4e", "lon": -76.94825366666667, "type": "electric_scooter", "bike_id": "164443486f5851dee03d0a747a449e4e", "fusion_lon": 0.0, "lat": 38.8851805, "fusion_lat": 0.0}, {"is_disabled": 0, "rental_uris": {"android": "https://dc.lft.to/lastmile_qr_scan", "ios": "https://dc.lft.to/lastmile_qr_scan"}, "is_reserved": 0, "name": "546cd5b2c95b6f3927e12ae2f7e072bc", "lon": -76.9790575, "type": "electric_scooter", "bike_id": "546cd5b2c95b6f3927e12ae2f7e072bc", "fusion_lon": 0.0, "lat": 38.90429916666667, "fusion_lat": 0.0}, {"is_disabled": 0, "rental_uris": {"android": "https://dc.lft.to/lastmile_qr_scan", "ios": "https://dc.lft.to/lastmile_qr_scan"}, "is_reserved": 0, "name": "ac504a5009fa41c04eb8401e5699a422", "lon": -77.02763533333334, "type": "electric_scooter", "bike_id": "ac504a5009fa41c04eb8401e5699a422", "fusion_lon": 0.0, "lat": 38.943005166666666, "fusion_lat": 0.0}, {"is_disabled": 0, "rental_uris": {"android": "https://dc.lft.to/lastmile_qr_scan", "ios": "https://dc.lft.to/lastmile_qr_scan"}, "is_reserved": 0, "name": "1c9372e6e044d02d9a6f06a6d3847282", "lon": -77.04157383333333, "type": "electric_scooter", "bike_id": "1c9372e6e044d02d9a6f06a6d3847282", "fusion_lon": 0.0, "lat": 38.91796383333333, "fusion_lat": 0.0}, {"is_disabled": 0, "rental_uris": {"android": "https://dc.lft.to/lastmile_qr_scan", "ios": "https://dc.lft.to/lastmile_qr_scan"}, "is_reserved": 0, "name": "211b38cc79c88c57ffec961fc7f53087", "lon": -77.023356, "type": "electric_scooter", "bike_id": "211b38cc79c88c57ffec961fc7f53087", "fusion_lon": 0.0, "lat": 38.922303, "fusion_lat": 0.0}, {"is_disabled": 0, "rental_uris": {"android": "https://dc.lft.to/lastmile_qr_scan", "ios": "https://dc.lft.to/lastmile_qr_scan"}, "is_reserved": 0, "name": "377f0bade5dfb5e5786f901b46313456", "lon": -77.0022215, "type": "electric_scooter", "bike_id": "377f0bade5dfb5e5786f901b46313456", "fusion_lon": 0.0, "lat": 38.913414333333336, "fusion_lat": 0.0}, {"is_disabled": 0, "rental_uris": {"android": "https://dc.lft.to/lastmile_qr_scan", "ios": "https://dc.lft.to/lastmile_qr_scan"}, "is_reserved": 0, "name": "159a77d3c24fc6609926825f90ab5084", "lon": -77.038527, "type": "electric_scooter", "bike_id": "159a77d3c24fc6609926825f90ab5084", "fusion_lon": 0.0, "lat": 38.926476, "fusion_lat": 0.0}, {"is_disabled": 0, "rental_uris": {"android": "https://dc.lft.to/lastmile_qr_scan", "ios": "https://dc.lft.to/lastmile_qr_scan"}, "is_reserved": 0, "name": "0b4fb560c9b344964d8fc79a9e6e99c4", "lon": -76.99032966666667, "type": "electric_scooter", "bike_id": "0b4fb560c9b344964d8fc79a9e6e99c4", "fusion_lon": 0.0, "lat": 38.898764, "fusion_lat": 0.0}, {"is_disabled": 0, "rental_uris": {"android": "https://dc.lft.to/lastmile_qr_scan", "ios": "https://dc.lft.to/lastmile_qr_scan"}, "is_reserved": 0, "name": "544115fa7d229e919eb7c3fa3f0f8390", "lon": -77.05507783333333, "type": "electric_scooter", "bike_id": "544115fa7d229e919eb7c3fa3f0f8390", "fusion_lon": 0.0, "lat": 38.899993333333335, "fusion_lat": 0.0}, {"is_disabled": 0, "rental_uris": {"android": "https://dc.lft.to/lastmile_qr_scan", "ios": "https://dc.lft.to/lastmile_qr_scan"}, "is_reserved": 0, "name": "a48fbbcbb0cc4191cbbf4ad57c267347", "lon": -77.08441583333334, "type": "electric_bike", "bike_id": "a48fbbcbb0cc4191cbbf4ad57c267347", "fusion_lon": 0.0, "lat": 38.81030766666667, "fusion_lat": 0.0}, {"is_disabled": 0, "rental_uris": {"android": "https://dc.lft.to/lastmile_qr_scan", "ios": "https://dc.lft.to/lastmile_qr_scan"}, "is_reserved": 0, "name": "8eba9de0ac097a1bd9c43989c22a8e03", "lon": -77.00335583333333, "type": "electric_scooter", "bike_id": "8eba9de0ac097a1bd9c43989c22a8e03", "fusion_lon": 0.0, "lat": 38.88989483333334, "fusion_lat": 0.0}, {"is_disabled": 0, "rental_uris": {"android": "https://dc.lft.to/lastmile_qr_scan", "ios": "https://dc.lft.to/lastmile_qr_scan"}, "is_reserved": 0, "name": "2b13a085cc25b3cab3e727c26ef22725", "lon": -77.03763016666667, "type": "electric_scooter", "bike_id": "2b13a085cc25b3cab3e727c26ef22725", "fusion_lon": 0.0, "lat": 38.9069575, "fusion_lat": 0.0}, {"is_disabled": 0, "rental_uris": {"android": "https://dc.lft.to/lastmile_qr_scan", "ios": "https://dc.lft.to/lastmile_qr_scan"}, "is_reserved": 0, "name": "eb142328df6c5aad08aebf7ca6d194ec", "lon": -77.04152766666667, "type": "electric_scooter", "bike_id": "eb142328df6c5aad08aebf7ca6d194ec", "fusion_lon": 0.0, "lat": 38.91029016666667, "fusion_lat": 0.0}, {"is_disabled": 0, "rental_uris": {"android": "https://dc.lft.to/lastmile_qr_scan", "ios": "https://dc.lft.to/lastmile_qr_scan"}, "is_reserved": 0, "name": "daadff126c63a0f01694ab786cfefddd", "lon": -77.05250316666667, "type": "electric_scooter", "bike_id": "daadff126c63a0f01694ab786cfefddd", "fusion_lon": 0.0, "lat": 38.927367333333336, "fusion_lat": 0.0}, {"is_disabled": 0, "rental_uris": {"android": "https://dc.lft.to/lastmile_qr_scan", "ios": "https://dc.lft.to/lastmile_qr_scan"}, "is_reserved": 0, "name": "0fec99d19577720c52c0af0b58cbd02d", "lon": -77.05297266666666, "type": "electric_scooter", "bike_id": "0fec99d19577720c52c0af0b58cbd02d", "fusion_lon": 0.0, "lat": 38.90344666666667, "fusion_lat": 0.0}, {"is_disabled": 0, "rental_uris": {"android": "https://dc.lft.to/lastmile_qr_scan", "ios": "https://dc.lft.to/lastmile_qr_scan"}, "is_reserved": 0, "name": "0aa1b99cb720b118a8e746415a746f95", "lon": -77.01653533333334, "type": "electric_bike", "bike_id": "0aa1b99cb720b118a8e746415a746f95", "fusion_lon": 0.0, "lat": 38.954325, "fusion_lat": 0.0}, {"is_disabled": 0, "rental_uris": {"android": "https://dc.lft.to/lastmile_qr_scan", "ios": "https://dc.lft.to/lastmile_qr_scan"}, "is_reserved": 0, "name": "53c72d131a56d4cbfe1a4ebcc02ab6ff", "lon": -77.03261566666667, "type": "electric_scooter", "bike_id": "53c72d131a56d4cbfe1a4ebcc02ab6ff", "fusion_lon": 0.0, "lat": 38.933286333333335, "fusion_lat": 0.0}, {"is_disabled": 0, "rental_uris": {"android": "https://dc.lft.to/lastmile_qr_scan", "ios": "https://dc.lft.to/lastmile_qr_scan"}, "is_reserved": 0, "name": "5c84f526666bf83a746cb26e0bcc7722", "lon": -76.98715133333333, "type": "electric_scooter", "bike_id": "5c84f526666bf83a746cb26e0bcc7722", "fusion_lon": 0.0, "lat": 38.867005166666665, "fusion_lat": 0.0}, {"is_disabled": 0, "rental_uris": {"android": "https://dc.lft.to/lastmile_qr_scan", "ios": "https://dc.lft.to/lastmile_qr_scan"}, "is_reserved": 0, "name": "397400fdf3734b4ad8942eea22b07e7f", "lon": -77.005993, "type": "electric_scooter", "bike_id": "397400fdf3734b4ad8942eea22b07e7f", "fusion_lon": 0.0, "lat": 38.90578716666667, "fusion_lat": 0.0}, {"is_disabled": 0, "rental_uris": {"android": "https://dc.lft.to/lastmile_qr_scan", "ios": "https://dc.lft.to/lastmile_qr_scan"}, "is_reserved": 0, "name": "1a9bfd3d7dee852d89fb0609662636c1", "lon": -77.02692833333333, "type": "electric_scooter", "bike_id": "1a9bfd3d7dee852d89fb0609662636c1", "fusion_lon": 0.0, "lat": 38.907361, "fusion_lat": 0.0}, {"is_disabled": 0, "rental_uris": {"android": "https://dc.lft.to/lastmile_qr_scan", "ios": "https://dc.lft.to/lastmile_qr_scan"}, "is_reserved": 0, "name": "28aa9d64a50b571103321860a2b60432", "lon": -77.00921183333334, "type": "electric_scooter", "bike_id": "28aa9d64a50b571103321860a2b60432", "fusion_lon": 0.0, "lat": 38.897868833333334, "fusion_lat": 0.0}, {"is_disabled": 0, "rental_uris": {"android": "https://dc.lft.to/lastmile_qr_scan", "ios": "https://dc.lft.to/lastmile_qr_scan"}, "is_reserved": 0, "name": "69cfcb102eceb73ac2082a7f6b70f744", "lon": -77.04199033333333, "type": "electric_scooter", "bike_id": "69cfcb102eceb73ac2082a7f6b70f744", "fusion_lon": 0.0, "lat": 38.929684333333334, "fusion_lat": 0.0}, {"is_disabled": 0, "rental_uris": {"android": "https://dc.lft.to/lastmile_qr_scan", "ios": "https://dc.lft.to/lastmile_qr_scan"}, "is_reserved": 0, "name": "9fb3d2f574dde511b02cc4474e4fa71b", "lon": -77.02262666666667, "type": "electric_scooter", "bike_id": "9fb3d2f574dde511b02cc4474e4fa71b", "fusion_lon": 0.0, "lat": 38.927408666666665, "fusion_lat": 0.0}, {"is_disabled": 0, "rental_uris": {"android": "https://dc.lft.to/lastmile_qr_scan", "ios": "https://dc.lft.to/lastmile_qr_scan"}, "is_reserved": 0, "name": "4bb710d3f4f362fa1655c4793e543faa", "lon": -77.04503666666666, "type": "electric_scooter", "bike_id": "4bb710d3f4f362fa1655c4793e543faa", "fusion_lon": 0.0, "lat": 38.90785116666667, "fusion_lat": 0.0}, {"is_disabled": 0, "rental_uris": {"android": "https://dc.lft.to/lastmile_qr_scan", "ios": "https://dc.lft.to/lastmile_qr_scan"}, "is_reserved": 0, "name": "b72d188fd5e06a3c324adcc4608b4bcb", "lon": -76.94892683333333, "type": "electric_scooter", "bike_id": "b72d188fd5e06a3c324adcc4608b4bcb", "fusion_lon": 0.0, "lat": 38.89532066666666, "fusion_lat": 0.0}, {"is_disabled": 0, "rental_uris": {"android": "https://dc.lft.to/lastmile_qr_scan", "ios": "https://dc.lft.to/lastmile_qr_scan"}, "is_reserved": 0, "name": "bb4c82089d5171c6e93d7beb25717fd6", "lon": -77.02933533333334, "type": "electric_scooter", "bike_id": "bb4c82089d5171c6e93d7beb25717fd6", "fusion_lon": 0.0, "lat": 38.898692833333335, "fusion_lat": 0.0}, {"is_disabled": 0, "rental_uris": {"android": "https://dc.lft.to/lastmile_qr_scan", "ios": "https://dc.lft.to/lastmile_qr_scan"}, "is_reserved": 0, "name": "b4fdc0c662ff8030c1cec236896b150c", "lon": -77.061903, "type": "electric_scooter", "bike_id": "b4fdc0c662ff8030c1cec236896b150c", "fusion_lon": 0.0, "lat": 38.9301715, "fusion_lat": 0.0}, {"is_disabled": 0, "rental_uris": {"android": "https://dc.lft.to/lastmile_qr_scan", "ios": "https://dc.lft.to/lastmile_qr_scan"}, "is_reserved": 0, "name": "565411507a2560b36241fbfab535f13d", "lon": -77.03183216666666, "type": "electric_scooter", "bike_id": "565411507a2560b36241fbfab535f13d", "fusion_lon": 0.0, "lat": 38.91905716666667, "fusion_lat": 0.0}, {"is_disabled": 0, "rental_uris": {"android": "https://dc.lft.to/lastmile_qr_scan", "ios": "https://dc.lft.to/lastmile_qr_scan"}, "is_reserved": 0, "name": "630e68c8cc5d7a062a038f6362856218", "lon": -77.01217183333333, "type": "electric_scooter", "bike_id": "630e68c8cc5d7a062a038f6362856218", "fusion_lon": 0.0, "lat": 38.915013, "fusion_lat": 0.0}, {"is_disabled": 0, "rental_uris": {"android": "https://dc.lft.to/lastmile_qr_scan", "ios": "https://dc.lft.to/lastmile_qr_scan"}, "is_reserved": 0, "name": "fdfe427906461a526b08a9bdc9ee1e4a", "lon": -76.98880066666666, "type": "electric_scooter", "bike_id": "fdfe427906461a526b08a9bdc9ee1e4a", "fusion_lon": 0.0, "lat": 38.86671166666667, "fusion_lat": 0.0}, {"is_disabled": 0, "rental_uris": {"android": "https://dc.lft.to/lastmile_qr_scan", "ios": "https://dc.lft.to/lastmile_qr_scan"}, "is_reserved": 0, "name": "d173d783de009ecd4e4ccdc356102559", "lon": -77.01181483333333, "type": "electric_scooter", "bike_id": "d173d783de009ecd4e4ccdc356102559", "fusion_lon": 0.0, "lat": 38.868062333333334, "fusion_lat": 0.0}, {"is_disabled": 0, "rental_uris": {"android": "https://dc.lft.to/lastmile_qr_scan", "ios": "https://dc.lft.to/lastmile_qr_scan"}, "is_reserved": 0, "name": "3d9dbe124bc071252751ef5cd0a703fc", "lon": -77.03461183333333, "type": "electric_scooter", "bike_id": "3d9dbe124bc071252751ef5cd0a703fc", "fusion_lon": 0.0, "lat": 38.916689166666664, "fusion_lat": 0.0}, {"is_disabled": 0, "rental_uris": {"android": "https://dc.lft.to/lastmile_qr_scan", "ios": "https://dc.lft.to/lastmile_qr_scan"}, "is_reserved": 0, "name": "19d71e18ab2b523e9bf71f37b9a8e595", "lon": -77.038294, "type": "electric_scooter", "bike_id": "19d71e18ab2b523e9bf71f37b9a8e595", "fusion_lon": 0.0, "lat": 38.9111725, "fusion_lat": 0.0}, {"is_disabled": 0, "rental_uris": {"android": "https://dc.lft.to/lastmile_qr_scan", "ios": "https://dc.lft.to/lastmile_qr_scan"}, "is_reserved": 0, "name": "0f19131201b8a8c8d01fa53d04271c09", "lon": -77.3441185, "type": "electric_bike", "bike_id": "0f19131201b8a8c8d01fa53d04271c09", "fusion_lon": 0.0, "lat": 38.94590383333333, "fusion_lat": 0.0}, {"is_disabled": 0, "rental_uris": {"android": "https://dc.lft.to/lastmile_qr_scan", "ios": "https://dc.lft.to/lastmile_qr_scan"}, "is_reserved": 0, "name": "ab607b78361bfca81341fe5579582bc7", "lon": -77.143264, "type": "electric_bike", "bike_id": "ab607b78361bfca81341fe5579582bc7", "fusion_lon": 0.0, "lat": 39.054547, "fusion_lat": 0.0}, {"is_disabled": 0, "rental_uris": {"android": "https://dc.lft.to/lastmile_qr_scan", "ios": "https://dc.lft.to/lastmile_qr_scan"}, "is_reserved": 0, "name": "e3af49bbac116ec11a12a3ff859d2800", "lon": -77.03445866666667, "type": "electric_scooter", "bike_id": "e3af49bbac116ec11a12a3ff859d2800", "fusion_lon": 0.0, "lat": 38.93363733333333, "fusion_lat": 0.0}, {"is_disabled": 0, "rental_uris": {"android": "https://dc.lft.to/lastmile_qr_scan", "ios": "https://dc.lft.to/lastmile_qr_scan"}, "is_reserved": 0, "name": "1c96bd9f3b5e30ff22705d46401b823d", "lon": -77.0386675, "type": "electric_scooter", "bike_id": "1c96bd9f3b5e30ff22705d46401b823d", "fusion_lon": 0.0, "lat": 38.91564416666667, "fusion_lat": 0.0}, {"is_disabled": 0, "rental_uris": {"android": "https://dc.lft.to/lastmile_qr_scan", "ios": "https://dc.lft.to/lastmile_qr_scan"}, "is_reserved": 0, "name": "9b893d860e43d6b0012957a43f0acf4a", "lon": -77.03652316666667, "type": "electric_scooter", "bike_id": "9b893d860e43d6b0012957a43f0acf4a", "fusion_lon": 0.0, "lat": 38.92277816666667, "fusion_lat": 0.0}, {"is_disabled": 0, "rental_uris": {"android": "https://dc.lft.to/lastmile_qr_scan", "ios": "https://dc.lft.to/lastmile_qr_scan"}, "is_reserved": 0, "name": "df57459d5a63522f7a1e8259762c5500", "lon": -76.98728783333334, "type": "electric_scooter", "bike_id": "df57459d5a63522f7a1e8259762c5500", "fusion_lon": 0.0, "lat": 38.86717316666667, "fusion_lat": 0.0}, {"is_disabled": 0, "rental_uris": {"android": "https://dc.lft.to/lastmile_qr_scan", "ios": "https://dc.lft.to/lastmile_qr_scan"}, "is_reserved": 0, "name": "d69640f0f7642410940b88119e16700d", "lon": -77.05523216666667, "type": "electric_bike", "bike_id": "d69640f0f7642410940b88119e16700d", "fusion_lon": 0.0, "lat": 38.910587666666665, "fusion_lat": 0.0}, {"is_disabled": 0, "rental_uris": {"android": "https://dc.lft.to/lastmile_qr_scan", "ios": "https://dc.lft.to/lastmile_qr_scan"}, "is_reserved": 0, "name": "b1f7b13d060d2af97d593b50d3f4c68f", "lon": -77.04160116666667, "type": "electric_scooter", "bike_id": "b1f7b13d060d2af97d593b50d3f4c68f", "fusion_lon": 0.0, "lat": 38.8989505, "fusion_lat": 0.0}, {"is_disabled": 0, "rental_uris": {"android": "https://dc.lft.to/lastmile_qr_scan", "ios": "https://dc.lft.to/lastmile_qr_scan"}, "is_reserved": 0, "name": "75bebc2459f9568b3a2ebaffd1f47c3f", "lon": -76.93740083333333, "type": "electric_scooter", "bike_id": "75bebc2459f9568b3a2ebaffd1f47c3f", "fusion_lon": 0.0, "lat": 38.890145, "fusion_lat": 0.0}, {"is_disabled": 0, "rental_uris": {"android": "https://dc.lft.to/lastmile_qr_scan", "ios": "https://dc.lft.to/lastmile_qr_scan"}, "is_reserved": 0, "name": "fc11fec66d09f5ac6d3d47fe8a6be85e", "lon": -77.01727533333333, "type": "electric_scooter", "bike_id": "fc11fec66d09f5ac6d3d47fe8a6be85e", "fusion_lon": 0.0, "lat": 38.883928166666664, "fusion_lat": 0.0}, {"is_disabled": 0, "rental_uris": {"android": "https://dc.lft.to/lastmile_qr_scan", "ios": "https://dc.lft.to/lastmile_qr_scan"}, "is_reserved": 0, "name": "0b8cb3c7d4265916bfcc4fbdbefdc315", "lon": -77.042077, "type": "electric_scooter", "bike_id": "0b8cb3c7d4265916bfcc4fbdbefdc315", "fusion_lon": 0.0, "lat": 38.9112735, "fusion_lat": 0.0}, {"is_disabled": 0, "rental_uris": {"android": "https://dc.lft.to/lastmile_qr_scan", "ios": "https://dc.lft.to/lastmile_qr_scan"}, "is_reserved": 0, "name": "70993e9999ed7053ada1d4469efee30e", "lon": -77.0320125, "type": "electric_scooter", "bike_id": "70993e9999ed7053ada1d4469efee30e", "fusion_lon": 0.0, "lat": 38.9074125, "fusion_lat": 0.0}, {"is_disabled": 0, "rental_uris": {"android": "https://dc.lft.to/lastmile_qr_scan", "ios": "https://dc.lft.to/lastmile_qr_scan"}, "is_reserved": 0, "name": "3f55c06f68abc6183d8db3efd4a3f3a5", "lon": -77.04198566666666, "type": "electric_scooter", "bike_id": "3f55c06f68abc6183d8db3efd4a3f3a5", "fusion_lon": 0.0, "lat": 38.90373616666667, "fusion_lat": 0.0}, {"is_disabled": 0, "rental_uris": {"android": "https://dc.lft.to/lastmile_qr_scan", "ios": "https://dc.lft.to/lastmile_qr_scan"}, "is_reserved": 0, "name": "add57d12b9142b77f96ee227ef32b4be", "lon": -77.0541965, "type": "electric_scooter", "bike_id": "add57d12b9142b77f96ee227ef32b4be", "fusion_lon": 0.0, "lat": 38.92828333333333, "fusion_lat": 0.0}, {"is_disabled": 0, "rental_uris": {"android": "https://dc.lft.to/lastmile_qr_scan", "ios": "https://dc.lft.to/lastmile_qr_scan"}, "is_reserved": 0, "name": "c870fb147e27fb14caa56b7d8632912d", "lon": -76.97363183333333, "type": "electric_bike", "bike_id": "c870fb147e27fb14caa56b7d8632912d", "fusion_lon": 0.0, "lat": 38.86559166666667, "fusion_lat": 0.0}, {"is_disabled": 0, "rental_uris": {"android": "https://dc.lft.to/lastmile_qr_scan", "ios": "https://dc.lft.to/lastmile_qr_scan"}, "is_reserved": 0, "name": "4954108dfbf78d6a98af74453b9aa002", "lon": -77.00603633333333, "type": "electric_bike", "bike_id": "4954108dfbf78d6a98af74453b9aa002", "fusion_lon": 0.0, "lat": 38.89814666666667, "fusion_lat": 0.0}, {"is_disabled": 0, "rental_uris": {"android": "https://dc.lft.to/lastmile_qr_scan", "ios": "https://dc.lft.to/lastmile_qr_scan"}, "is_reserved": 0, "name": "227e3244637cf2a8dfddf05eb097a63d", "lon": -77.04547633333334, "type": "electric_bike", "bike_id": "227e3244637cf2a8dfddf05eb097a63d", "fusion_lon": 0.0, "lat": 38.919300666666665, "fusion_lat": 0.0}, {"is_disabled": 0, "rental_uris": {"android": "https://dc.lft.to/lastmile_qr_scan", "ios": "https://dc.lft.to/lastmile_qr_scan"}, "is_reserved": 0, "name": "0745d73e2e2576909e81b59fe43a78de", "lon": -76.99397133333333, "type": "electric_scooter", "bike_id": "0745d73e2e2576909e81b59fe43a78de", "fusion_lon": 0.0, "lat": 38.92167366666666, "fusion_lat": 0.0}, {"is_disabled": 0, "rental_uris": {"android": "https://dc.lft.to/lastmile_qr_scan", "ios": "https://dc.lft.to/lastmile_qr_scan"}, "is_reserved": 0, "name": "5727e82fe67278244567093d4f39e681", "lon": -77.02745466666667, "type": "electric_scooter", "bike_id": "5727e82fe67278244567093d4f39e681", "fusion_lon": 0.0, "lat": 38.935832833333336, "fusion_lat": 0.0}, {"is_disabled": 0, "rental_uris": {"android": "https://dc.lft.to/lastmile_qr_scan", "ios": "https://dc.lft.to/lastmile_qr_scan"}, "is_reserved": 0, "name": "c3017bc2509711a8ca5411e64f3818f5", "lon": -77.05275066666667, "type": "electric_scooter", "bike_id": "c3017bc2509711a8ca5411e64f3818f5", "fusion_lon": 0.0, "lat": 38.922545, "fusion_lat": 0.0}, {"is_disabled": 0, "rental_uris": {"android": "https://dc.lft.to/lastmile_qr_scan", "ios": "https://dc.lft.to/lastmile_qr_scan"}, "is_reserved": 0, "name": "ba95a07779e57edf24d4a102b7fec2a7", "lon": -76.99952616666667, "type": "electric_scooter", "bike_id": "ba95a07779e57edf24d4a102b7fec2a7", "fusion_lon": 0.0, "lat": 38.842845833333335, "fusion_lat": 0.0}, {"is_disabled": 0, "rental_uris": {"android": "https://dc.lft.to/lastmile_qr_scan", "ios": "https://dc.lft.to/lastmile_qr_scan"}, "is_reserved": 0, "name": "a64c19bd10bc1a07ac9bd55dcf19ce50", "lon": -76.9896655, "type": "electric_scooter", "bike_id": "a64c19bd10bc1a07ac9bd55dcf19ce50", "fusion_lon": 0.0, "lat": 38.90249583333333, "fusion_lat": 0.0}, {"is_disabled": 0, "rental_uris": {"android": "https://dc.lft.to/lastmile_qr_scan", "ios": "https://dc.lft.to/lastmile_qr_scan"}, "is_reserved": 0, "name": "b76022e71f6e62d7cda2d607e0022e81", "lon": -76.949449, "type": "electric_bike", "bike_id": "b76022e71f6e62d7cda2d607e0022e81", "fusion_lon": 0.0, "lat": 38.93508116666667, "fusion_lat": 0.0}, {"is_disabled": 0, "rental_uris": {"android": "https://dc.lft.to/lastmile_qr_scan", "ios": "https://dc.lft.to/lastmile_qr_scan"}, "is_reserved": 0, "name": "1da65b45273a0f50dc3d13e533a6b826", "lon": -77.03149516666667, "type": "electric_scooter", "bike_id": "1da65b45273a0f50dc3d13e533a6b826", "fusion_lon": 0.0, "lat": 38.91630033333333, "fusion_lat": 0.0}, {"is_disabled": 0, "rental_uris": {"android": "https://dc.lft.to/lastmile_qr_scan", "ios": "https://dc.lft.to/lastmile_qr_scan"}, "is_reserved": 0, "name": "d83d6df7a9ac0f66166000d67a11b682", "lon": -77.05000166666666, "type": "electric_scooter", "bike_id": "d83d6df7a9ac0f66166000d67a11b682", "fusion_lon": 0.0, "lat": 38.89231866666667, "fusion_lat": 0.0}, {"is_disabled": 0, "rental_uris": {"android": "https://dc.lft.to/lastmile_qr_scan", "ios": "https://dc.lft.to/lastmile_qr_scan"}, "is_reserved": 0, "name": "3dc5b213299486c77f9803bc612fe61e", "lon": -77.03906633333334, "type": "electric_scooter", "bike_id": "3dc5b213299486c77f9803bc612fe61e", "fusion_lon": 0.0, "lat": 38.902469833333335, "fusion_lat": 0.0}, {"is_disabled": 0, "rental_uris": {"android": "https://dc.lft.to/lastmile_qr_scan", "ios": "https://dc.lft.to/lastmile_qr_scan"}, "is_reserved": 0, "name": "d35e44099dac9e672c49fd208acc3813", "lon": -77.016249, "type": "electric_scooter", "bike_id": "d35e44099dac9e672c49fd208acc3813", "fusion_lon": 0.0, "lat": 38.8724225, "fusion_lat": 0.0}, {"is_disabled": 0, "rental_uris": {"android": "https://dc.lft.to/lastmile_qr_scan", "ios": "https://dc.lft.to/lastmile_qr_scan"}, "is_reserved": 0, "name": "8d9d6b7072fafec98ff2247efccd98bc", "lon": -77.01107916666666, "type": "electric_scooter", "bike_id": "8d9d6b7072fafec98ff2247efccd98bc", "fusion_lon": 0.0, "lat": 38.903654833333334, "fusion_lat": 0.0}, {"is_disabled": 0, "rental_uris": {"android": "https://dc.lft.to/lastmile_qr_scan", "ios": "https://dc.lft.to/lastmile_qr_scan"}, "is_reserved": 0, "name": "b7ffa9068ef4704575bf30f1a1fe1155", "lon": -77.004286, "type": "electric_scooter", "bike_id": "b7ffa9068ef4704575bf30f1a1fe1155", "fusion_lon": 0.0, "lat": 38.83814983333333, "fusion_lat": 0.0}, {"is_disabled": 0, "rental_uris": {"android": "https://dc.lft.to/lastmile_qr_scan", "ios": "https://dc.lft.to/lastmile_qr_scan"}, "is_reserved": 0, "name": "ff7ebb22e91bb4b9c1d0b7dfefd7ff5c", "lon": -77.03172133333334, "type": "electric_scooter", "bike_id": "ff7ebb22e91bb4b9c1d0b7dfefd7ff5c", "fusion_lon": 0.0, "lat": 38.9192285, "fusion_lat": 0.0}, {"is_disabled": 0, "rental_uris": {"android": "https://dc.lft.to/lastmile_qr_scan", "ios": "https://dc.lft.to/lastmile_qr_scan"}, "is_reserved": 0, "name": "00f306002a5c5e393c4eeab8b5249464", "lon": -77.04508716666666, "type": "electric_scooter", "bike_id": "00f306002a5c5e393c4eeab8b5249464", "fusion_lon": 0.0, "lat": 38.90785066666667, "fusion_lat": 0.0}, {"is_disabled": 0, "rental_uris": {"android": "https://dc.lft.to/lastmile_qr_scan", "ios": "https://dc.lft.to/lastmile_qr_scan"}, "is_reserved": 0, "name": "36884fdce9ea977b8009292010a4f353", "lon": -77.02167316666667, "type": "electric_scooter", "bike_id": "36884fdce9ea977b8009292010a4f353", "fusion_lon": 0.0, "lat": 38.9008355, "fusion_lat": 0.0}, {"is_disabled": 0, "rental_uris": {"android": "https://dc.lft.to/lastmile_qr_scan", "ios": "https://dc.lft.to/lastmile_qr_scan"}, "is_reserved": 0, "name": "83216c82a7ca02b3f154be3990d177a0", "lon": -77.04458133333333, "type": "electric_scooter", "bike_id": "83216c82a7ca02b3f154be3990d177a0", "fusion_lon": 0.0, "lat": 38.918645833333336, "fusion_lat": 0.0}, {"is_disabled": 0, "rental_uris": {"android": "https://dc.lft.to/lastmile_qr_scan", "ios": "https://dc.lft.to/lastmile_qr_scan"}, "is_reserved": 0, "name": "0c1e72733bd12e07f02aed18bb6e907b", "lon": -76.99629566666667, "type": "electric_scooter", "bike_id": "0c1e72733bd12e07f02aed18bb6e907b", "fusion_lon": 0.0, "lat": 38.8462015, "fusion_lat": 0.0}, {"is_disabled": 0, "rental_uris": {"android": "https://dc.lft.to/lastmile_qr_scan", "ios": "https://dc.lft.to/lastmile_qr_scan"}, "is_reserved": 0, "name": "0fbd1f756bcbb176960ace338517a22d", "lon": -77.02984566666667, "type": "electric_scooter", "bike_id": "0fbd1f756bcbb176960ace338517a22d", "fusion_lon": 0.0, "lat": 38.9452035, "fusion_lat": 0.0}, {"is_disabled": 0, "rental_uris": {"android": "https://dc.lft.to/lastmile_qr_scan", "ios": "https://dc.lft.to/lastmile_qr_scan"}, "is_reserved": 0, "name": "228b8cb4e88382762ba1d1b530197ba9", "lon": -77.024929, "type": "electric_scooter", "bike_id": "228b8cb4e88382762ba1d1b530197ba9", "fusion_lon": 0.0, "lat": 38.941858333333336, "fusion_lat": 0.0}, {"is_disabled": 0, "rental_uris": {"android": "https://dc.lft.to/lastmile_qr_scan", "ios": "https://dc.lft.to/lastmile_qr_scan"}, "is_reserved": 0, "name": "bf501b1c7373001d2c8f39702ca2040c", "lon": -77.02486233333333, "type": "electric_bike", "bike_id": "bf501b1c7373001d2c8f39702ca2040c", "fusion_lon": 0.0, "lat": 38.973712, "fusion_lat": 0.0}, {"is_disabled": 0, "rental_uris": {"android": "https://dc.lft.to/lastmile_qr_scan", "ios": "https://dc.lft.to/lastmile_qr_scan"}, "is_reserved": 0, "name": "e13c8ca20004fa36f598c38fba5adffc", "lon": -76.990127, "type": "electric_scooter", "bike_id": "e13c8ca20004fa36f598c38fba5adffc", "fusion_lon": 0.0, "lat": 38.86107616666666, "fusion_lat": 0.0}, {"is_disabled": 0, "rental_uris": {"android": "https://dc.lft.to/lastmile_qr_scan", "ios": "https://dc.lft.to/lastmile_qr_scan"}, "is_reserved": 0, "name": "050acd3c2df534bf3311d75e5624fcc4", "lon": -76.95752683333333, "type": "electric_scooter", "bike_id": "050acd3c2df534bf3311d75e5624fcc4", "fusion_lon": 0.0, "lat": 38.884324166666666, "fusion_lat": 0.0}, {"is_disabled": 0, "rental_uris": {"android": "https://dc.lft.to/lastmile_qr_scan", "ios": "https://dc.lft.to/lastmile_qr_scan"}, "is_reserved": 0, "name": "e1cc2d1774738e43cbbde10b00af0723", "lon": -76.993887, "type": "electric_scooter", "bike_id": "e1cc2d1774738e43cbbde10b00af0723", "fusion_lon": 0.0, "lat": 38.88454316666667, "fusion_lat": 0.0}, {"is_disabled": 0, "rental_uris": {"android": "https://dc.lft.to/lastmile_qr_scan", "ios": "https://dc.lft.to/lastmile_qr_scan"}, "is_reserved": 0, "name": "e6936383f14d3f87f015becb96af481e", "lon": -77.03418866666667, "type": "electric_scooter", "bike_id": "e6936383f14d3f87f015becb96af481e", "fusion_lon": 0.0, "lat": 38.91922666666667, "fusion_lat": 0.0}, {"is_disabled": 0, "rental_uris": {"android": "https://dc.lft.to/lastmile_qr_scan", "ios": "https://dc.lft.to/lastmile_qr_scan"}, "is_reserved": 0, "name": "abe873d168746d53f1c7d51d250a4a24", "lon": -77.00773466666666, "type": "electric_scooter", "bike_id": "abe873d168746d53f1c7d51d250a4a24", "fusion_lon": 0.0, "lat": 38.914989, "fusion_lat": 0.0}, {"is_disabled": 0, "rental_uris": {"android": "https://dc.lft.to/lastmile_qr_scan", "ios": "https://dc.lft.to/lastmile_qr_scan"}, "is_reserved": 0, "name": "cfae426a08689c9a4d62bc69a4292f09", "lon": -77.02185216666666, "type": "electric_scooter", "bike_id": "cfae426a08689c9a4d62bc69a4292f09", "fusion_lon": 0.0, "lat": 38.921047, "fusion_lat": 0.0}, {"is_disabled": 0, "rental_uris": {"android": "https://dc.lft.to/lastmile_qr_scan", "ios": "https://dc.lft.to/lastmile_qr_scan"}, "is_reserved": 0, "name": "10d8ce54f511c639f2cb15949579f6d7", "lon": -77.0909625, "type": "electric_scooter", "bike_id": "10d8ce54f511c639f2cb15949579f6d7", "fusion_lon": 0.0, "lat": 38.956371, "fusion_lat": 0.0}, {"is_disabled": 0, "rental_uris": {"android": "https://dc.lft.to/lastmile_qr_scan", "ios": "https://dc.lft.to/lastmile_qr_scan"}, "is_reserved": 0, "name": "c994e431a9687c56e7af79a91d025510", "lon": -77.04169116666667, "type": "electric_scooter", "bike_id": "c994e431a9687c56e7af79a91d025510", "fusion_lon": 0.0, "lat": 38.91549083333334, "fusion_lat": 0.0}, {"is_disabled": 0, "rental_uris": {"android": "https://dc.lft.to/lastmile_qr_scan", "ios": "https://dc.lft.to/lastmile_qr_scan"}, "is_reserved": 0, "name": "16993a9fe1200174fe3348dec8371b81", "lon": -77.0320975, "type": "electric_scooter", "bike_id": "16993a9fe1200174fe3348dec8371b81", "fusion_lon": 0.0, "lat": 38.92582266666667, "fusion_lat": 0.0}, {"is_disabled": 0, "rental_uris": {"android": "https://dc.lft.to/lastmile_qr_scan", "ios": "https://dc.lft.to/lastmile_qr_scan"}, "is_reserved": 0, "name": "bd9c3636e94f38b3ffae8387a862ea95", "lon": -77.04161066666667, "type": "electric_scooter", "bike_id": "bd9c3636e94f38b3ffae8387a862ea95", "fusion_lon": 0.0, "lat": 38.911909333333334, "fusion_lat": 0.0}, {"is_disabled": 0, "rental_uris": {"android": "https://dc.lft.to/lastmile_qr_scan", "ios": "https://dc.lft.to/lastmile_qr_scan"}, "is_reserved": 0, "name": "b49bafca3499208d997c54f71676735d", "lon": -77.00930033333333, "type": "electric_scooter", "bike_id": "b49bafca3499208d997c54f71676735d", "fusion_lon": 0.0, "lat": 38.87120216666667, "fusion_lat": 0.0}, {"is_disabled": 0, "rental_uris": {"android": "https://dc.lft.to/lastmile_qr_scan", "ios": "https://dc.lft.to/lastmile_qr_scan"}, "is_reserved": 0, "name": "3f8c57f704f0107e1e8c4a3d49b64542", "lon": -76.97235533333334, "type": "electric_scooter", "bike_id": "3f8c57f704f0107e1e8c4a3d49b64542", "fusion_lon": 0.0, "lat": 38.854550833333334, "fusion_lat": 0.0}, {"is_disabled": 0, "rental_uris": {"android": "https://dc.lft.to/lastmile_qr_scan", "ios": "https://dc.lft.to/lastmile_qr_scan"}, "is_reserved": 0, "name": "51569801c17d70fe345ce6715afe8c18", "lon": -76.99939183333333, "type": "electric_scooter", "bike_id": "51569801c17d70fe345ce6715afe8c18", "fusion_lon": 0.0, "lat": 38.900460833333334, "fusion_lat": 0.0}, {"is_disabled": 0, "rental_uris": {"android": "https://dc.lft.to/lastmile_qr_scan", "ios": "https://dc.lft.to/lastmile_qr_scan"}, "is_reserved": 0, "name": "e7e50ab2d9cf4141d5c25833c77a1506", "lon": -77.00915466666666, "type": "electric_scooter", "bike_id": "e7e50ab2d9cf4141d5c25833c77a1506", "fusion_lon": 0.0, "lat": 38.898412, "fusion_lat": 0.0}, {"is_disabled": 0, "rental_uris": {"android": "https://dc.lft.to/lastmile_qr_scan", "ios": "https://dc.lft.to/lastmile_qr_scan"}, "is_reserved": 0, "name": "40fa9e2035208edd1ee8083a66eddbc2", "lon": -77.01141533333333, "type": "electric_scooter", "bike_id": "40fa9e2035208edd1ee8083a66eddbc2", "fusion_lon": 0.0, "lat": 38.9096655, "fusion_lat": 0.0}, {"is_disabled": 0, "rental_uris": {"android": "https://dc.lft.to/lastmile_qr_scan", "ios": "https://dc.lft.to/lastmile_qr_scan"}, "is_reserved": 0, "name": "28e72095caa4a70180e58da71ce9c67d", "lon": -77.03852516666667, "type": "electric_scooter", "bike_id": "28e72095caa4a70180e58da71ce9c67d", "fusion_lon": 0.0, "lat": 38.91838166666667, "fusion_lat": 0.0}, {"is_disabled": 0, "rental_uris": {"android": "https://dc.lft.to/lastmile_qr_scan", "ios": "https://dc.lft.to/lastmile_qr_scan"}, "is_reserved": 0, "name": "88df9a9d21196a957af35ae1131fa320", "lon": -77.02373266666666, "type": "electric_scooter", "bike_id": "88df9a9d21196a957af35ae1131fa320", "fusion_lon": 0.0, "lat": 38.902031666666666, "fusion_lat": 0.0}, {"is_disabled": 0, "rental_uris": {"android": "https://dc.lft.to/lastmile_qr_scan", "ios": "https://dc.lft.to/lastmile_qr_scan"}, "is_reserved": 0, "name": "858a69b55c3c1aa2d48895d7121c614f", "lon": -77.043692, "type": "electric_scooter", "bike_id": "858a69b55c3c1aa2d48895d7121c614f", "fusion_lon": 0.0, "lat": 38.92565966666667, "fusion_lat": 0.0}, {"is_disabled": 0, "rental_uris": {"android": "https://dc.lft.to/lastmile_qr_scan", "ios": "https://dc.lft.to/lastmile_qr_scan"}, "is_reserved": 0, "name": "0a72e1a1bf41bc5cb5e0c46e6e8e287b", "lon": -77.01767533333333, "type": "electric_scooter", "bike_id": "0a72e1a1bf41bc5cb5e0c46e6e8e287b", "fusion_lon": 0.0, "lat": 38.8772405, "fusion_lat": 0.0}, {"is_disabled": 0, "rental_uris": {"android": "https://dc.lft.to/lastmile_qr_scan", "ios": "https://dc.lft.to/lastmile_qr_scan"}, "is_reserved": 0, "name": "65e7cd4f5dfba6e6a9a745f74ceb0e1a", "lon": -77.03261433333333, "type": "electric_scooter", "bike_id": "65e7cd4f5dfba6e6a9a745f74ceb0e1a", "fusion_lon": 0.0, "lat": 38.9352665, "fusion_lat": 0.0}, {"is_disabled": 0, "rental_uris": {"android": "https://dc.lft.to/lastmile_qr_scan", "ios": "https://dc.lft.to/lastmile_qr_scan"}, "is_reserved": 0, "name": "8fb926af8db4fbd0f0769ddd9ed63937", "lon": -76.98948233333333, "type": "electric_scooter", "bike_id": "8fb926af8db4fbd0f0769ddd9ed63937", "fusion_lon": 0.0, "lat": 38.8440715, "fusion_lat": 0.0}, {"is_disabled": 0, "rental_uris": {"android": "https://dc.lft.to/lastmile_qr_scan", "ios": "https://dc.lft.to/lastmile_qr_scan"}, "is_reserved": 0, "name": "16e58bedaa1f213df67fd1767e464d77", "lon": -76.94710466666666, "type": "electric_scooter", "bike_id": "16e58bedaa1f213df67fd1767e464d77", "fusion_lon": 0.0, "lat": 38.89702416666667, "fusion_lat": 0.0}, {"is_disabled": 0, "rental_uris": {"android": "https://dc.lft.to/lastmile_qr_scan", "ios": "https://dc.lft.to/lastmile_qr_scan"}, "is_reserved": 0, "name": "ac62b9e22dd63c7459bfa4a6de8ec7ed", "lon": -77.04509083333333, "type": "electric_scooter", "bike_id": "ac62b9e22dd63c7459bfa4a6de8ec7ed", "fusion_lon": 0.0, "lat": 38.9078265, "fusion_lat": 0.0}, {"is_disabled": 0, "rental_uris": {"android": "https://dc.lft.to/lastmile_qr_scan", "ios": "https://dc.lft.to/lastmile_qr_scan"}, "is_reserved": 0, "name": "3ecc231c4b4e00c1cb41f16d113dae7d", "lon": -77.02772483333334, "type": "electric_scooter", "bike_id": "3ecc231c4b4e00c1cb41f16d113dae7d", "fusion_lon": 0.0, "lat": 38.9275675, "fusion_lat": 0.0}, {"is_disabled": 0, "rental_uris": {"android": "https://dc.lft.to/lastmile_qr_scan", "ios": "https://dc.lft.to/lastmile_qr_scan"}, "is_reserved": 0, "name": "79e34743f458ab7d1cbfa85c629d003a", "lon": -77.01639433333334, "type": "electric_scooter", "bike_id": "79e34743f458ab7d1cbfa85c629d003a", "fusion_lon": 0.0, "lat": 38.876394833333336, "fusion_lat": 0.0}, {"is_disabled": 0, "rental_uris": {"android": "https://dc.lft.to/lastmile_qr_scan", "ios": "https://dc.lft.to/lastmile_qr_scan"}, "is_reserved": 0, "name": "62abec975b14805bda4246d7562708a1", "lon": -77.03390866666666, "type": "electric_scooter", "bike_id": "62abec975b14805bda4246d7562708a1", "fusion_lon": 0.0, "lat": 38.9191795, "fusion_lat": 0.0}, {"is_disabled": 0, "rental_uris": {"android": "https://dc.lft.to/lastmile_qr_scan", "ios": "https://dc.lft.to/lastmile_qr_scan"}, "is_reserved": 0, "name": "79fc6f63b088ccf815f4142874c4cab0", "lon": -77.00562483333333, "type": "electric_scooter", "bike_id": "79fc6f63b088ccf815f4142874c4cab0", "fusion_lon": 0.0, "lat": 38.885031, "fusion_lat": 0.0}, {"is_disabled": 0, "rental_uris": {"android": "https://dc.lft.to/lastmile_qr_scan", "ios": "https://dc.lft.to/lastmile_qr_scan"}, "is_reserved": 0, "name": "6a9f9d6fcbc9f56215731a1866bb7891", "lon": -77.02513416666666, "type": "electric_scooter", "bike_id": "6a9f9d6fcbc9f56215731a1866bb7891", "fusion_lon": 0.0, "lat": 38.9207565, "fusion_lat": 0.0}, {"is_disabled": 0, "rental_uris": {"android": "https://dc.lft.to/lastmile_qr_scan", "ios": "https://dc.lft.to/lastmile_qr_scan"}, "is_reserved": 0, "name": "e34c26d56711c9abfb35b990e2498fa3", "lon": -77.0346075, "type": "electric_scooter", "bike_id": "e34c26d56711c9abfb35b990e2498fa3", "fusion_lon": 0.0, "lat": 38.921563, "fusion_lat": 0.0}, {"is_disabled": 0, "rental_uris": {"android": "https://dc.lft.to/lastmile_qr_scan", "ios": "https://dc.lft.to/lastmile_qr_scan"}, "is_reserved": 0, "name": "cbc7e8cf39f213c70e21055c5a14de76", "lon": -77.0437375, "type": "electric_scooter", "bike_id": "cbc7e8cf39f213c70e21055c5a14de76", "fusion_lon": 0.0, "lat": 38.910559, "fusion_lat": 0.0}, {"is_disabled": 0, "rental_uris": {"android": "https://dc.lft.to/lastmile_qr_scan", "ios": "https://dc.lft.to/lastmile_qr_scan"}, "is_reserved": 0, "name": "73938133707b6e25631ff25f4d2a5784", "lon": -77.029238, "type": "electric_scooter", "bike_id": "73938133707b6e25631ff25f4d2a5784", "fusion_lon": 0.0, "lat": 38.90431983333333, "fusion_lat": 0.0}, {"is_disabled": 0, "rental_uris": {"android": "https://dc.lft.to/lastmile_qr_scan", "ios": "https://dc.lft.to/lastmile_qr_scan"}, "is_reserved": 0, "name": "63c908f08c561cc3749b15f8ba9a0bf4", "lon": -77.03792633333333, "type": "electric_scooter", "bike_id": "63c908f08c561cc3749b15f8ba9a0bf4", "fusion_lon": 0.0, "lat": 38.9302335, "fusion_lat": 0.0}, {"is_disabled": 0, "rental_uris": {"android": "https://dc.lft.to/lastmile_qr_scan", "ios": "https://dc.lft.to/lastmile_qr_scan"}, "is_reserved": 0, "name": "4f5d9043584d9bdaba715583e57b4896", "lon": -77.02508283333333, "type": "electric_scooter", "bike_id": "4f5d9043584d9bdaba715583e57b4896", "fusion_lon": 0.0, "lat": 38.9207755, "fusion_lat": 0.0}, {"is_disabled": 0, "rental_uris": {"android": "https://dc.lft.to/lastmile_qr_scan", "ios": "https://dc.lft.to/lastmile_qr_scan"}, "is_reserved": 0, "name": "a4471b0953e84aa21e23ab8b5b94c9fb", "lon": -77.032608, "type": "electric_scooter", "bike_id": "a4471b0953e84aa21e23ab8b5b94c9fb", "fusion_lon": 0.0, "lat": 38.933344166666664, "fusion_lat": 0.0}, {"is_disabled": 0, "rental_uris": {"android": "https://dc.lft.to/lastmile_qr_scan", "ios": "https://dc.lft.to/lastmile_qr_scan"}, "is_reserved": 0, "name": "71f21054502628d8dab7ac710fbd3934", "lon": -77.0600795, "type": "electric_scooter", "bike_id": "71f21054502628d8dab7ac710fbd3934", "fusion_lon": 0.0, "lat": 38.905312, "fusion_lat": 0.0}, {"is_disabled": 0, "rental_uris": {"android": "https://dc.lft.to/lastmile_qr_scan", "ios": "https://dc.lft.to/lastmile_qr_scan"}, "is_reserved": 0, "name": "c755cff0dbab6c2ee8f22e9000f13d59", "lon": -77.02912716666667, "type": "electric_scooter", "bike_id": "c755cff0dbab6c2ee8f22e9000f13d59", "fusion_lon": 0.0, "lat": 38.910326166666664, "fusion_lat": 0.0}, {"is_disabled": 0, "rental_uris": {"android": "https://dc.lft.to/lastmile_qr_scan", "ios": "https://dc.lft.to/lastmile_qr_scan"}, "is_reserved": 0, "name": "28c5183b15674aec35740870fd508030", "lon": -77.04455566666667, "type": "electric_scooter", "bike_id": "28c5183b15674aec35740870fd508030", "fusion_lon": 0.0, "lat": 38.918636, "fusion_lat": 0.0}, {"is_disabled": 0, "rental_uris": {"android": "https://dc.lft.to/lastmile_qr_scan", "ios": "https://dc.lft.to/lastmile_qr_scan"}, "is_reserved": 0, "name": "4ace74a9d672fd13ac3a9e1d5566c185", "lon": -77.0008255, "type": "electric_scooter", "bike_id": "4ace74a9d672fd13ac3a9e1d5566c185", "fusion_lon": 0.0, "lat": 38.925550666666666, "fusion_lat": 0.0}, {"is_disabled": 0, "rental_uris": {"android": "https://dc.lft.to/lastmile_qr_scan", "ios": "https://dc.lft.to/lastmile_qr_scan"}, "is_reserved": 0, "name": "9230df57c269c7af2bebb043c6adc8d7", "lon": -77.04155366666667, "type": "electric_scooter", "bike_id": "9230df57c269c7af2bebb043c6adc8d7", "fusion_lon": 0.0, "lat": 38.918004333333336, "fusion_lat": 0.0}, {"is_disabled": 0, "rental_uris": {"android": "https://dc.lft.to/lastmile_qr_scan", "ios": "https://dc.lft.to/lastmile_qr_scan"}, "is_reserved": 0, "name": "d4c8e6c53cdb71105c3025d3907a4a4f", "lon": -77.05097483333333, "type": "electric_scooter", "bike_id": "d4c8e6c53cdb71105c3025d3907a4a4f", "fusion_lon": 0.0, "lat": 38.923445, "fusion_lat": 0.0}, {"is_disabled": 0, "rental_uris": {"android": "https://dc.lft.to/lastmile_qr_scan", "ios": "https://dc.lft.to/lastmile_qr_scan"}, "is_reserved": 0, "name": "41f27d22f986b14182855cfe2124822b", "lon": -77.023784, "type": "electric_scooter", "bike_id": "41f27d22f986b14182855cfe2124822b", "fusion_lon": 0.0, "lat": 38.907094666666666, "fusion_lat": 0.0}, {"is_disabled": 0, "rental_uris": {"android": "https://dc.lft.to/lastmile_qr_scan", "ios": "https://dc.lft.to/lastmile_qr_scan"}, "is_reserved": 0, "name": "03c9dc2a7156b829289efce3b83785f3", "lon": -77.03838783333333, "type": "electric_scooter", "bike_id": "03c9dc2a7156b829289efce3b83785f3", "fusion_lon": 0.0, "lat": 38.909278666666665, "fusion_lat": 0.0}, {"is_disabled": 0, "rental_uris": {"android": "https://dc.lft.to/lastmile_qr_scan", "ios": "https://dc.lft.to/lastmile_qr_scan"}, "is_reserved": 0, "name": "db3fd77a449f152079450ed39fc63027", "lon": -77.0235965, "type": "electric_scooter", "bike_id": "db3fd77a449f152079450ed39fc63027", "fusion_lon": 0.0, "lat": 38.93153916666667, "fusion_lat": 0.0}, {"is_disabled": 0, "rental_uris": {"android": "https://dc.lft.to/lastmile_qr_scan", "ios": "https://dc.lft.to/lastmile_qr_scan"}, "is_reserved": 0, "name": "571dbdbba6693c9b8ef840f0c9248690", "lon": -77.01287516666666, "type": "electric_scooter", "bike_id": "571dbdbba6693c9b8ef840f0c9248690", "fusion_lon": 0.0, "lat": 38.920218166666665, "fusion_lat": 0.0}, {"is_disabled": 0, "rental_uris": {"android": "https://dc.lft.to/lastmile_qr_scan", "ios": "https://dc.lft.to/lastmile_qr_scan"}, "is_reserved": 0, "name": "eda83b328aeef18a58a38968affb5aa9", "lon": -76.973311, "type": "electric_bike", "bike_id": "eda83b328aeef18a58a38968affb5aa9", "fusion_lon": 0.0, "lat": 38.850666333333336, "fusion_lat": 0.0}, {"is_disabled": 0, "rental_uris": {"android": "https://dc.lft.to/lastmile_qr_scan", "ios": "https://dc.lft.to/lastmile_qr_scan"}, "is_reserved": 0, "name": "2f844d1fade92d45879e9ad642f781f3", "lon": -77.024792, "type": "electric_scooter", "bike_id": "2f844d1fade92d45879e9ad642f781f3", "fusion_lon": 0.0, "lat": 38.91607533333333, "fusion_lat": 0.0}, {"is_disabled": 0, "rental_uris": {"android": "https://dc.lft.to/lastmile_qr_scan", "ios": "https://dc.lft.to/lastmile_qr_scan"}, "is_reserved": 0, "name": "f6699c1c61d5711efbf6356ae9bd3df8", "lon": -77.04354966666666, "type": "electric_scooter", "bike_id": "f6699c1c61d5711efbf6356ae9bd3df8", "fusion_lon": 0.0, "lat": 38.905175166666666, "fusion_lat": 0.0}, {"is_disabled": 0, "rental_uris": {"android": "https://dc.lft.to/lastmile_qr_scan", "ios": "https://dc.lft.to/lastmile_qr_scan"}, "is_reserved": 0, "name": "ed5a6a90f507157ca21c443c0ffccee8", "lon": -77.03610716666667, "type": "electric_scooter", "bike_id": "ed5a6a90f507157ca21c443c0ffccee8", "fusion_lon": 0.0, "lat": 38.93151066666667, "fusion_lat": 0.0}, {"is_disabled": 0, "rental_uris": {"android": "https://dc.lft.to/lastmile_qr_scan", "ios": "https://dc.lft.to/lastmile_qr_scan"}, "is_reserved": 0, "name": "bc8b4c1e4ac5a36018b8037959389593", "lon": -77.03518183333334, "type": "electric_scooter", "bike_id": "bc8b4c1e4ac5a36018b8037959389593", "fusion_lon": 0.0, "lat": 38.9225685, "fusion_lat": 0.0}, {"is_disabled": 0, "rental_uris": {"android": "https://dc.lft.to/lastmile_qr_scan", "ios": "https://dc.lft.to/lastmile_qr_scan"}, "is_reserved": 0, "name": "6c96f6f9a24723cb39ff36ffc7315b3a", "lon": -77.03907733333334, "type": "electric_scooter", "bike_id": "6c96f6f9a24723cb39ff36ffc7315b3a", "fusion_lon": 0.0, "lat": 38.89968483333333, "fusion_lat": 0.0}, {"is_disabled": 0, "rental_uris": {"android": "https://dc.lft.to/lastmile_qr_scan", "ios": "https://dc.lft.to/lastmile_qr_scan"}, "is_reserved": 0, "name": "54e9342e86b335a3e9ca0054aecfbfeb", "lon": -77.04018116666667, "type": "electric_scooter", "bike_id": "54e9342e86b335a3e9ca0054aecfbfeb", "fusion_lon": 0.0, "lat": 38.922004, "fusion_lat": 0.0}, {"is_disabled": 0, "rental_uris": {"android": "https://dc.lft.to/lastmile_qr_scan", "ios": "https://dc.lft.to/lastmile_qr_scan"}, "is_reserved": 0, "name": "32dc69ce506ea34d47f44c7b7fabd146", "lon": -77.03977316666666, "type": "electric_scooter", "bike_id": "32dc69ce506ea34d47f44c7b7fabd146", "fusion_lon": 0.0, "lat": 38.90204833333333, "fusion_lat": 0.0}, {"is_disabled": 0, "rental_uris": {"android": "https://dc.lft.to/lastmile_qr_scan", "ios": "https://dc.lft.to/lastmile_qr_scan"}, "is_reserved": 0, "name": "efac71fee0f3d9e9a9b308106cb507db", "lon": -77.1122225, "type": "electric_bike", "bike_id": "efac71fee0f3d9e9a9b308106cb507db", "fusion_lon": 0.0, "lat": 38.828685666666665, "fusion_lat": 0.0}, {"is_disabled": 0, "rental_uris": {"android": "https://dc.lft.to/lastmile_qr_scan", "ios": "https://dc.lft.to/lastmile_qr_scan"}, "is_reserved": 0, "name": "22f50fc6bc9aa4968322f398d807cfad", "lon": -77.03438833333334, "type": "electric_scooter", "bike_id": "22f50fc6bc9aa4968322f398d807cfad", "fusion_lon": 0.0, "lat": 38.91808533333333, "fusion_lat": 0.0}, {"is_disabled": 0, "rental_uris": {"android": "https://dc.lft.to/lastmile_qr_scan", "ios": "https://dc.lft.to/lastmile_qr_scan"}, "is_reserved": 0, "name": "aed9b2f439ff199601146e756063ba87", "lon": -77.03177433333333, "type": "electric_scooter", "bike_id": "aed9b2f439ff199601146e756063ba87", "fusion_lon": 0.0, "lat": 38.892305, "fusion_lat": 0.0}, {"is_disabled": 0, "rental_uris": {"android": "https://dc.lft.to/lastmile_qr_scan", "ios": "https://dc.lft.to/lastmile_qr_scan"}, "is_reserved": 0, "name": "2b20170f1773767d0ede879c45f0ad86", "lon": -77.038419, "type": "electric_scooter", "bike_id": "2b20170f1773767d0ede879c45f0ad86", "fusion_lon": 0.0, "lat": 38.908698, "fusion_lat": 0.0}, {"is_disabled": 0, "rental_uris": {"android": "https://dc.lft.to/lastmile_qr_scan", "ios": "https://dc.lft.to/lastmile_qr_scan"}, "is_reserved": 0, "name": "e93dd908e5981e508676d3c6f7f5f856", "lon": -77.05012366666666, "type": "electric_scooter", "bike_id": "e93dd908e5981e508676d3c6f7f5f856", "fusion_lon": 0.0, "lat": 38.90414233333333, "fusion_lat": 0.0}, {"is_disabled": 0, "rental_uris": {"android": "https://dc.lft.to/lastmile_qr_scan", "ios": "https://dc.lft.to/lastmile_qr_scan"}, "is_reserved": 0, "name": "3a219a3f8c4e81ac388af71e321b5b80", "lon": -76.9374975, "type": "electric_scooter", "bike_id": "3a219a3f8c4e81ac388af71e321b5b80", "fusion_lon": 0.0, "lat": 38.89043433333333, "fusion_lat": 0.0}, {"is_disabled": 0, "rental_uris": {"android": "https://dc.lft.to/lastmile_qr_scan", "ios": "https://dc.lft.to/lastmile_qr_scan"}, "is_reserved": 0, "name": "798b7d8e2604fca94af27b210321ecaf", "lon": -77.03824916666667, "type": "electric_scooter", "bike_id": "798b7d8e2604fca94af27b210321ecaf", "fusion_lon": 0.0, "lat": 38.90969833333333, "fusion_lat": 0.0}, {"is_disabled": 0, "rental_uris": {"android": "https://dc.lft.to/lastmile_qr_scan", "ios": "https://dc.lft.to/lastmile_qr_scan"}, "is_reserved": 0, "name": "84dbea44fb2644bbe66d5825586a5945", "lon": -77.0176515, "type": "electric_scooter", "bike_id": "84dbea44fb2644bbe66d5825586a5945", "fusion_lon": 0.0, "lat": 38.921058333333335, "fusion_lat": 0.0}, {"is_disabled": 0, "rental_uris": {"android": "https://dc.lft.to/lastmile_qr_scan", "ios": "https://dc.lft.to/lastmile_qr_scan"}, "is_reserved": 0, "name": "21849ff4849398cc53e0cdba72912333", "lon": -76.87495316666667, "type": "electric_bike", "bike_id": "21849ff4849398cc53e0cdba72912333", "fusion_lon": 0.0, "lat": 38.990922, "fusion_lat": 0.0}, {"is_disabled": 0, "rental_uris": {"android": "https://dc.lft.to/lastmile_qr_scan", "ios": "https://dc.lft.to/lastmile_qr_scan"}, "is_reserved": 0, "name": "0263b6489595513f90371bd5658d2221", "lon": -77.01983783333333, "type": "electric_scooter", "bike_id": "0263b6489595513f90371bd5658d2221", "fusion_lon": 0.0, "lat": 38.895683, "fusion_lat": 0.0}, {"is_disabled": 0, "rental_uris": {"android": "https://dc.lft.to/lastmile_qr_scan", "ios": "https://dc.lft.to/lastmile_qr_scan"}, "is_reserved": 0, "name": "5574e44aedfea8e6b7fec493ffb6ba3c", "lon": -77.0121675, "type": "electric_scooter", "bike_id": "5574e44aedfea8e6b7fec493ffb6ba3c", "fusion_lon": 0.0, "lat": 38.9102395, "fusion_lat": 0.0}, {"is_disabled": 0, "rental_uris": {"android": "https://dc.lft.to/lastmile_qr_scan", "ios": "https://dc.lft.to/lastmile_qr_scan"}, "is_reserved": 0, "name": "34e9a2c040d940876bdeb0c633d49e73", "lon": -77.04034583333333, "type": "electric_scooter", "bike_id": "34e9a2c040d940876bdeb0c633d49e73", "fusion_lon": 0.0, "lat": 38.90023466666667, "fusion_lat": 0.0}, {"is_disabled": 0, "rental_uris": {"android": "https://dc.lft.to/lastmile_qr_scan", "ios": "https://dc.lft.to/lastmile_qr_scan"}, "is_reserved": 0, "name": "f7baedbe595538f70069b49e1119bf40", "lon": -77.03661066666666, "type": "electric_scooter", "bike_id": "f7baedbe595538f70069b49e1119bf40", "fusion_lon": 0.0, "lat": 38.928021333333334, "fusion_lat": 0.0}, {"is_disabled": 0, "rental_uris": {"android": "https://dc.lft.to/lastmile_qr_scan", "ios": "https://dc.lft.to/lastmile_qr_scan"}, "is_reserved": 0, "name": "e8c4078de6c087e31d3885210a21c574", "lon": -77.0415395, "type": "electric_scooter", "bike_id": "e8c4078de6c087e31d3885210a21c574", "fusion_lon": 0.0, "lat": 38.914203, "fusion_lat": 0.0}, {"is_disabled": 0, "rental_uris": {"android": "https://dc.lft.to/lastmile_qr_scan", "ios": "https://dc.lft.to/lastmile_qr_scan"}, "is_reserved": 0, "name": "c5bd4d4555fd4d38222e9d5d7bbfb046", "lon": -77.03352883333334, "type": "electric_scooter", "bike_id": "c5bd4d4555fd4d38222e9d5d7bbfb046", "fusion_lon": 0.0, "lat": 38.918046333333336, "fusion_lat": 0.0}, {"is_disabled": 0, "rental_uris": {"android": "https://dc.lft.to/lastmile_qr_scan", "ios": "https://dc.lft.to/lastmile_qr_scan"}, "is_reserved": 0, "name": "2ebaa3913b844766ac85cbde20197d5d", "lon": -76.930515, "type": "electric_scooter", "bike_id": "2ebaa3913b844766ac85cbde20197d5d", "fusion_lon": 0.0, "lat": 38.8979505, "fusion_lat": 0.0}, {"is_disabled": 0, "rental_uris": {"android": "https://dc.lft.to/lastmile_qr_scan", "ios": "https://dc.lft.to/lastmile_qr_scan"}, "is_reserved": 0, "name": "c9a76f8d94105c6e13a79f1d7ad82c00", "lon": -77.017606, "type": "electric_scooter", "bike_id": "c9a76f8d94105c6e13a79f1d7ad82c00", "fusion_lon": 0.0, "lat": 38.92119483333333, "fusion_lat": 0.0}, {"is_disabled": 0, "rental_uris": {"android": "https://dc.lft.to/lastmile_qr_scan", "ios": "https://dc.lft.to/lastmile_qr_scan"}, "is_reserved": 0, "name": "83bee754c7ce2b599be997d0adb45e62", "lon": -77.12737166666666, "type": "electric_bike", "bike_id": "83bee754c7ce2b599be997d0adb45e62", "fusion_lon": 0.0, "lat": 38.89566116666666, "fusion_lat": 0.0}, {"is_disabled": 0, "rental_uris": {"android": "https://dc.lft.to/lastmile_qr_scan", "ios": "https://dc.lft.to/lastmile_qr_scan"}, "is_reserved": 0, "name": "408b652448e337c1656e9f682c00cd6d", "lon": -77.032101, "type": "electric_scooter", "bike_id": "408b652448e337c1656e9f682c00cd6d", "fusion_lon": 0.0, "lat": 38.92015283333333, "fusion_lat": 0.0}, {"is_disabled": 0, "rental_uris": {"android": "https://dc.lft.to/lastmile_qr_scan", "ios": "https://dc.lft.to/lastmile_qr_scan"}, "is_reserved": 0, "name": "43f916b2373ebd4c6f2006ae3853a84c", "lon": -77.02164483333334, "type": "electric_scooter", "bike_id": "43f916b2373ebd4c6f2006ae3853a84c", "fusion_lon": 0.0, "lat": 38.8946155, "fusion_lat": 0.0}, {"is_disabled": 0, "rental_uris": {"android": "https://dc.lft.to/lastmile_qr_scan", "ios": "https://dc.lft.to/lastmile_qr_scan"}, "is_reserved": 0, "name": "399b7aa79e49f8cc8eb055269758e4f8", "lon": -77.0318005, "type": "electric_scooter", "bike_id": "399b7aa79e49f8cc8eb055269758e4f8", "fusion_lon": 0.0, "lat": 38.91848183333333, "fusion_lat": 0.0}, {"is_disabled": 0, "rental_uris": {"android": "https://dc.lft.to/lastmile_qr_scan", "ios": "https://dc.lft.to/lastmile_qr_scan"}, "is_reserved": 0, "name": "b3e18323707d1914cf6ac05fb2144e6c", "lon": -76.9962875, "type": "electric_scooter", "bike_id": "b3e18323707d1914cf6ac05fb2144e6c", "fusion_lon": 0.0, "lat": 38.84621883333333, "fusion_lat": 0.0}, {"is_disabled": 0, "rental_uris": {"android": "https://dc.lft.to/lastmile_qr_scan", "ios": "https://dc.lft.to/lastmile_qr_scan"}, "is_reserved": 0, "name": "bb3fa89422808d900dae8abae1fa13f1", "lon": -77.031742, "type": "electric_scooter", "bike_id": "bb3fa89422808d900dae8abae1fa13f1", "fusion_lon": 0.0, "lat": 38.914174833333334, "fusion_lat": 0.0}, {"is_disabled": 0, "rental_uris": {"android": "https://dc.lft.to/lastmile_qr_scan", "ios": "https://dc.lft.to/lastmile_qr_scan"}, "is_reserved": 0, "name": "7e678c8a6238c68c850f8b43bfda7d52", "lon": -77.02218283333333, "type": "electric_scooter", "bike_id": "7e678c8a6238c68c850f8b43bfda7d52", "fusion_lon": 0.0, "lat": 38.93545916666667, "fusion_lat": 0.0}, {"is_disabled": 0, "rental_uris": {"android": "https://dc.lft.to/lastmile_qr_scan", "ios": "https://dc.lft.to/lastmile_qr_scan"}, "is_reserved": 0, "name": "3990b908959c3deff0073e4a148a3c31", "lon": -77.03920716666667, "type": "electric_scooter", "bike_id": "3990b908959c3deff0073e4a148a3c31", "fusion_lon": 0.0, "lat": 38.9191485, "fusion_lat": 0.0}, {"is_disabled": 0, "rental_uris": {"android": "https://dc.lft.to/lastmile_qr_scan", "ios": "https://dc.lft.to/lastmile_qr_scan"}, "is_reserved": 0, "name": "c34e1a542c3b0c75d8bb46cd54a501af", "lon": -77.036247, "type": "electric_scooter", "bike_id": "c34e1a542c3b0c75d8bb46cd54a501af", "fusion_lon": 0.0, "lat": 38.93685633333333, "fusion_lat": 0.0}, {"is_disabled": 0, "rental_uris": {"android": "https://dc.lft.to/lastmile_qr_scan", "ios": "https://dc.lft.to/lastmile_qr_scan"}, "is_reserved": 0, "name": "40db09e363dc568b1811bb9eb110b2de", "lon": -77.03864266666666, "type": "electric_scooter", "bike_id": "40db09e363dc568b1811bb9eb110b2de", "fusion_lon": 0.0, "lat": 38.909713333333336, "fusion_lat": 0.0}, {"is_disabled": 0, "rental_uris": {"android": "https://dc.lft.to/lastmile_qr_scan", "ios": "https://dc.lft.to/lastmile_qr_scan"}, "is_reserved": 0, "name": "8717ab74f228c17d18a3db858ee7453c", "lon": -76.9811135, "type": "electric_scooter", "bike_id": "8717ab74f228c17d18a3db858ee7453c", "fusion_lon": 0.0, "lat": 38.89608883333333, "fusion_lat": 0.0}, {"is_disabled": 0, "rental_uris": {"android": "https://dc.lft.to/lastmile_qr_scan", "ios": "https://dc.lft.to/lastmile_qr_scan"}, "is_reserved": 0, "name": "8fbc30424a2e8f538db190825f194d8b", "lon": -77.00334233333334, "type": "electric_scooter", "bike_id": "8fbc30424a2e8f538db190825f194d8b", "fusion_lon": 0.0, "lat": 38.88988366666667, "fusion_lat": 0.0}, {"is_disabled": 0, "rental_uris": {"android": "https://dc.lft.to/lastmile_qr_scan", "ios": "https://dc.lft.to/lastmile_qr_scan"}, "is_reserved": 0, "name": "4f622c734095a2c57a3d90189e38a765", "lon": -77.01388033333333, "type": "electric_scooter", "bike_id": "4f622c734095a2c57a3d90189e38a765", "fusion_lon": 0.0, "lat": 38.88031216666667, "fusion_lat": 0.0}, {"is_disabled": 0, "rental_uris": {"android": "https://dc.lft.to/lastmile_qr_scan", "ios": "https://dc.lft.to/lastmile_qr_scan"}, "is_reserved": 0, "name": "4369231ce3e2d1b6c92401d74148b1ce", "lon": -77.03186716666667, "type": "electric_scooter", "bike_id": "4369231ce3e2d1b6c92401d74148b1ce", "fusion_lon": 0.0, "lat": 38.910209, "fusion_lat": 0.0}, {"is_disabled": 0, "rental_uris": {"android": "https://dc.lft.to/lastmile_qr_scan", "ios": "https://dc.lft.to/lastmile_qr_scan"}, "is_reserved": 0, "name": "c8b7fc726a1a78f2199495645b0b9329", "lon": -77.02185483333334, "type": "electric_scooter", "bike_id": "c8b7fc726a1a78f2199495645b0b9329", "fusion_lon": 0.0, "lat": 38.9017025, "fusion_lat": 0.0}, {"is_disabled": 0, "rental_uris": {"android": "https://dc.lft.to/lastmile_qr_scan", "ios": "https://dc.lft.to/lastmile_qr_scan"}, "is_reserved": 0, "name": "38c236b20da4785c5fb3a4116e38705f", "lon": -77.07082016666666, "type": "electric_scooter", "bike_id": "38c236b20da4785c5fb3a4116e38705f", "fusion_lon": 0.0, "lat": 38.93907, "fusion_lat": 0.0}, {"is_disabled": 0, "rental_uris": {"android": "https://dc.lft.to/lastmile_qr_scan", "ios": "https://dc.lft.to/lastmile_qr_scan"}, "is_reserved": 0, "name": "84f1572c14ad14c456ea36a614410898", "lon": -76.99605633333333, "type": "electric_scooter", "bike_id": "84f1572c14ad14c456ea36a614410898", "fusion_lon": 0.0, "lat": 38.864642333333336, "fusion_lat": 0.0}, {"is_disabled": 0, "rental_uris": {"android": "https://dc.lft.to/lastmile_qr_scan", "ios": "https://dc.lft.to/lastmile_qr_scan"}, "is_reserved": 0, "name": "40259fd9bd4d22b51d7fd39284b0de40", "lon": -77.02074233333333, "type": "electric_scooter", "bike_id": "40259fd9bd4d22b51d7fd39284b0de40", "fusion_lon": 0.0, "lat": 38.88462166666667, "fusion_lat": 0.0}, {"is_disabled": 0, "rental_uris": {"android": "https://dc.lft.to/lastmile_qr_scan", "ios": "https://dc.lft.to/lastmile_qr_scan"}, "is_reserved": 0, "name": "2a91a3a421d444634f787525c1e02421", "lon": -77.04288316666667, "type": "electric_scooter", "bike_id": "2a91a3a421d444634f787525c1e02421", "fusion_lon": 0.0, "lat": 38.91043, "fusion_lat": 0.0}, {"is_disabled": 0, "rental_uris": {"android": "https://dc.lft.to/lastmile_qr_scan", "ios": "https://dc.lft.to/lastmile_qr_scan"}, "is_reserved": 0, "name": "10bbad00e9eb8494d92e5bab725aad80", "lon": -77.03061266666667, "type": "electric_scooter", "bike_id": "10bbad00e9eb8494d92e5bab725aad80", "fusion_lon": 0.0, "lat": 38.92581666666667, "fusion_lat": 0.0}, {"is_disabled": 0, "rental_uris": {"android": "https://dc.lft.to/lastmile_qr_scan", "ios": "https://dc.lft.to/lastmile_qr_scan"}, "is_reserved": 0, "name": "c959e644e18009fe4f41c064d51f4bf2", "lon": -76.98703716666667, "type": "electric_scooter", "bike_id": "c959e644e18009fe4f41c064d51f4bf2", "fusion_lon": 0.0, "lat": 38.865363333333335, "fusion_lat": 0.0}, {"is_disabled": 0, "rental_uris": {"android": "https://dc.lft.to/lastmile_qr_scan", "ios": "https://dc.lft.to/lastmile_qr_scan"}, "is_reserved": 0, "name": "0b1014352b0d5a9acaa719085a962d85", "lon": -77.0358375, "type": "electric_scooter", "bike_id": "0b1014352b0d5a9acaa719085a962d85", "fusion_lon": 0.0, "lat": 38.907545, "fusion_lat": 0.0}, {"is_disabled": 0, "rental_uris": {"android": "https://dc.lft.to/lastmile_qr_scan", "ios": "https://dc.lft.to/lastmile_qr_scan"}, "is_reserved": 0, "name": "b324e1e4bd3af646aeac28bcb2992766", "lon": -77.02840666666667, "type": "electric_scooter", "bike_id": "b324e1e4bd3af646aeac28bcb2992766", "fusion_lon": 0.0, "lat": 38.90432, "fusion_lat": 0.0}, {"is_disabled": 0, "rental_uris": {"android": "https://dc.lft.to/lastmile_qr_scan", "ios": "https://dc.lft.to/lastmile_qr_scan"}, "is_reserved": 0, "name": "bcf7f01cb9e4c5c06bfac5151f0fe464", "lon": -77.07040733333334, "type": "electric_bike", "bike_id": "bcf7f01cb9e4c5c06bfac5151f0fe464", "fusion_lon": 0.0, "lat": 38.824480333333334, "fusion_lat": 0.0}, {"is_disabled": 0, "rental_uris": {"android": "https://dc.lft.to/lastmile_qr_scan", "ios": "https://dc.lft.to/lastmile_qr_scan"}, "is_reserved": 0, "name": "acea4bd4e66635713eb788bae8737a96", "lon": -77.005851, "type": "electric_scooter", "bike_id": "acea4bd4e66635713eb788bae8737a96", "fusion_lon": 0.0, "lat": 38.9057175, "fusion_lat": 0.0}, {"is_disabled": 0, "rental_uris": {"android": "https://dc.lft.to/lastmile_qr_scan", "ios": "https://dc.lft.to/lastmile_qr_scan"}, "is_reserved": 0, "name": "811f898d628fb9c658b7d18a3267174d", "lon": -77.04513316666667, "type": "electric_scooter", "bike_id": "811f898d628fb9c658b7d18a3267174d", "fusion_lon": 0.0, "lat": 38.886015, "fusion_lat": 0.0}, {"is_disabled": 0, "rental_uris": {"android": "https://dc.lft.to/lastmile_qr_scan", "ios": "https://dc.lft.to/lastmile_qr_scan"}, "is_reserved": 0, "name": "bf3333c5a7de24cc88b4ea3c230e8718", "lon": -77.128118, "type": "electric_bike", "bike_id": "bf3333c5a7de24cc88b4ea3c230e8718", "fusion_lon": 0.0, "lat": 38.86523316666667, "fusion_lat": 0.0}, {"is_disabled": 0, "rental_uris": {"android": "https://dc.lft.to/lastmile_qr_scan", "ios": "https://dc.lft.to/lastmile_qr_scan"}, "is_reserved": 0, "name": "d010bd83e1dd535913c43d8e3f4748df", "lon": -77.04158066666666, "type": "electric_scooter", "bike_id": "d010bd83e1dd535913c43d8e3f4748df", "fusion_lon": 0.0, "lat": 38.915727833333335, "fusion_lat": 0.0}, {"is_disabled": 0, "rental_uris": {"android": "https://dc.lft.to/lastmile_qr_scan", "ios": "https://dc.lft.to/lastmile_qr_scan"}, "is_reserved": 0, "name": "b1c45646c27fea76ec857dcb15ea177c", "lon": -77.01764066666667, "type": "electric_scooter", "bike_id": "b1c45646c27fea76ec857dcb15ea177c", "fusion_lon": 0.0, "lat": 38.88345366666667, "fusion_lat": 0.0}, {"is_disabled": 0, "rental_uris": {"android": "https://dc.lft.to/lastmile_qr_scan", "ios": "https://dc.lft.to/lastmile_qr_scan"}, "is_reserved": 0, "name": "c145e2c6c2df276c0493d6ba38b51c71", "lon": -77.01249883333334, "type": "electric_scooter", "bike_id": "c145e2c6c2df276c0493d6ba38b51c71", "fusion_lon": 0.0, "lat": 38.908509, "fusion_lat": 0.0}, {"is_disabled": 0, "rental_uris": {"android": "https://dc.lft.to/lastmile_qr_scan", "ios": "https://dc.lft.to/lastmile_qr_scan"}, "is_reserved": 0, "name": "41fd2edfd5649d64ede3cd13f21cb329", "lon": -76.99003216666667, "type": "electric_scooter", "bike_id": "41fd2edfd5649d64ede3cd13f21cb329", "fusion_lon": 0.0, "lat": 38.8650505, "fusion_lat": 0.0}, {"is_disabled": 0, "rental_uris": {"android": "https://dc.lft.to/lastmile_qr_scan", "ios": "https://dc.lft.to/lastmile_qr_scan"}, "is_reserved": 0, "name": "666fe0f3d6d0e11d74537e9a42982368", "lon": -77.0284355, "type": "electric_scooter", "bike_id": "666fe0f3d6d0e11d74537e9a42982368", "fusion_lon": 0.0, "lat": 38.9224715, "fusion_lat": 0.0}, {"is_disabled": 0, "rental_uris": {"android": "https://dc.lft.to/lastmile_qr_scan", "ios": "https://dc.lft.to/lastmile_qr_scan"}, "is_reserved": 0, "name": "d8895151bf19df21425c7a97242189c4", "lon": -77.02491533333334, "type": "electric_scooter", "bike_id": "d8895151bf19df21425c7a97242189c4", "fusion_lon": 0.0, "lat": 38.91809766666667, "fusion_lat": 0.0}, {"is_disabled": 0, "rental_uris": {"android": "https://dc.lft.to/lastmile_qr_scan", "ios": "https://dc.lft.to/lastmile_qr_scan"}, "is_reserved": 0, "name": "466a01cf7a6d4d302588c8063cdf44f2", "lon": -77.0297575, "type": "electric_scooter", "bike_id": "466a01cf7a6d4d302588c8063cdf44f2", "fusion_lon": 0.0, "lat": 38.90722566666667, "fusion_lat": 0.0}, {"is_disabled": 0, "rental_uris": {"android": "https://dc.lft.to/lastmile_qr_scan", "ios": "https://dc.lft.to/lastmile_qr_scan"}, "is_reserved": 0, "name": "16a7aaadbae09a547aa2fffddb8656aa", "lon": -77.03054083333333, "type": "electric_scooter", "bike_id": "16a7aaadbae09a547aa2fffddb8656aa", "fusion_lon": 0.0, "lat": 38.89983516666667, "fusion_lat": 0.0}, {"is_disabled": 0, "rental_uris": {"android": "https://dc.lft.to/lastmile_qr_scan", "ios": "https://dc.lft.to/lastmile_qr_scan"}, "is_reserved": 0, "name": "1ec57f2fb031248360750bcd367c54cf", "lon": -77.02377083333333, "type": "electric_scooter", "bike_id": "1ec57f2fb031248360750bcd367c54cf", "fusion_lon": 0.0, "lat": 38.93265533333334, "fusion_lat": 0.0}, {"is_disabled": 0, "rental_uris": {"android": "https://dc.lft.to/lastmile_qr_scan", "ios": "https://dc.lft.to/lastmile_qr_scan"}, "is_reserved": 0, "name": "f261d79eaccfa8c00966bb3cdd17cd71", "lon": -76.98332683333334, "type": "electric_bike", "bike_id": "f261d79eaccfa8c00966bb3cdd17cd71", "fusion_lon": 0.0, "lat": 38.96605, "fusion_lat": 0.0}, {"is_disabled": 0, "rental_uris": {"android": "https://dc.lft.to/lastmile_qr_scan", "ios": "https://dc.lft.to/lastmile_qr_scan"}, "is_reserved": 0, "name": "b67c4e033508ff7a8f2e2e6ca5c5f0b1", "lon": -77.025044, "type": "electric_scooter", "bike_id": "b67c4e033508ff7a8f2e2e6ca5c5f0b1", "fusion_lon": 0.0, "lat": 38.919189333333335, "fusion_lat": 0.0}, {"is_disabled": 0, "rental_uris": {"android": "https://dc.lft.to/lastmile_qr_scan", "ios": "https://dc.lft.to/lastmile_qr_scan"}, "is_reserved": 0, "name": "af2b2deda8a284a44b9fee2624c9225b", "lon": -76.93373983333333, "type": "electric_scooter", "bike_id": "af2b2deda8a284a44b9fee2624c9225b", "fusion_lon": 0.0, "lat": 38.8992235, "fusion_lat": 0.0}, {"is_disabled": 0, "rental_uris": {"android": "https://dc.lft.to/lastmile_qr_scan", "ios": "https://dc.lft.to/lastmile_qr_scan"}, "is_reserved": 0, "name": "b2914e1a44559ea5319b762f3f7fec12", "lon": -77.0498185, "type": "electric_bike", "bike_id": "b2914e1a44559ea5319b762f3f7fec12", "fusion_lon": 0.0, "lat": 38.90121166666667, "fusion_lat": 0.0}, {"is_disabled": 0, "rental_uris": {"android": "https://dc.lft.to/lastmile_qr_scan", "ios": "https://dc.lft.to/lastmile_qr_scan"}, "is_reserved": 0, "name": "42198763a6a6f5e1700b4557ec8609b0", "lon": -77.026899, "type": "electric_scooter", "bike_id": "42198763a6a6f5e1700b4557ec8609b0", "fusion_lon": 0.0, "lat": 38.90735016666667, "fusion_lat": 0.0}, {"is_disabled": 0, "rental_uris": {"android": "https://dc.lft.to/lastmile_qr_scan", "ios": "https://dc.lft.to/lastmile_qr_scan"}, "is_reserved": 0, "name": "f229d9a07deb00f676e9fde68dee1f0e", "lon": -77.0804765, "type": "electric_bike", "bike_id": "f229d9a07deb00f676e9fde68dee1f0e", "fusion_lon": 0.0, "lat": 38.8484545, "fusion_lat": 0.0}, {"is_disabled": 0, "rental_uris": {"android": "https://dc.lft.to/lastmile_qr_scan", "ios": "https://dc.lft.to/lastmile_qr_scan"}, "is_reserved": 0, "name": "24d1bcac6d0526dc2e0cadea28b534f4", "lon": -77.0204125, "type": "electric_scooter", "bike_id": "24d1bcac6d0526dc2e0cadea28b534f4", "fusion_lon": 0.0, "lat": 38.91557133333333, "fusion_lat": 0.0}, {"is_disabled": 0, "rental_uris": {"android": "https://dc.lft.to/lastmile_qr_scan", "ios": "https://dc.lft.to/lastmile_qr_scan"}, "is_reserved": 0, "name": "c5dd31184e4909684e33af3c44ce459d", "lon": -77.0415665, "type": "electric_scooter", "bike_id": "c5dd31184e4909684e33af3c44ce459d", "fusion_lon": 0.0, "lat": 38.914172666666666, "fusion_lat": 0.0}, {"is_disabled": 0, "rental_uris": {"android": "https://dc.lft.to/lastmile_qr_scan", "ios": "https://dc.lft.to/lastmile_qr_scan"}, "is_reserved": 0, "name": "901d4ef82ee79a1edf1f769aa0ab0696", "lon": -77.02415716666667, "type": "electric_scooter", "bike_id": "901d4ef82ee79a1edf1f769aa0ab0696", "fusion_lon": 0.0, "lat": 38.909648833333335, "fusion_lat": 0.0}, {"is_disabled": 0, "rental_uris": {"android": "https://dc.lft.to/lastmile_qr_scan", "ios": "https://dc.lft.to/lastmile_qr_scan"}, "is_reserved": 0, "name": "98a882eb4f4cdc5e4070bc50963db274", "lon": -77.03180533333334, "type": "electric_scooter", "bike_id": "98a882eb4f4cdc5e4070bc50963db274", "fusion_lon": 0.0, "lat": 38.892324, "fusion_lat": 0.0}, {"is_disabled": 0, "rental_uris": {"android": "https://dc.lft.to/lastmile_qr_scan", "ios": "https://dc.lft.to/lastmile_qr_scan"}, "is_reserved": 0, "name": "09963b4a83c6090feb5ff34b39e4e4a6", "lon": -77.05421016666666, "type": "electric_scooter", "bike_id": "09963b4a83c6090feb5ff34b39e4e4a6", "fusion_lon": 0.0, "lat": 38.928125, "fusion_lat": 0.0}, {"is_disabled": 0, "rental_uris": {"android": "https://dc.lft.to/lastmile_qr_scan", "ios": "https://dc.lft.to/lastmile_qr_scan"}, "is_reserved": 0, "name": "b6f798577904250c637238321f412927", "lon": -77.01219833333333, "type": "electric_scooter", "bike_id": "b6f798577904250c637238321f412927", "fusion_lon": 0.0, "lat": 38.91689383333333, "fusion_lat": 0.0}, {"is_disabled": 0, "rental_uris": {"android": "https://dc.lft.to/lastmile_qr_scan", "ios": "https://dc.lft.to/lastmile_qr_scan"}, "is_reserved": 0, "name": "821f96ac4d10aa93cda0b94f634aca3c", "lon": -76.94702733333334, "type": "electric_scooter", "bike_id": "821f96ac4d10aa93cda0b94f634aca3c", "fusion_lon": 0.0, "lat": 38.89672233333334, "fusion_lat": 0.0}, {"is_disabled": 0, "rental_uris": {"android": "https://dc.lft.to/lastmile_qr_scan", "ios": "https://dc.lft.to/lastmile_qr_scan"}, "is_reserved": 0, "name": "3d04afc1b67b395ce52a1d7f19d3682a", "lon": -77.04580566666667, "type": "electric_scooter", "bike_id": "3d04afc1b67b395ce52a1d7f19d3682a", "fusion_lon": 0.0, "lat": 38.917126, "fusion_lat": 0.0}, {"is_disabled": 0, "rental_uris": {"android": "https://dc.lft.to/lastmile_qr_scan", "ios": "https://dc.lft.to/lastmile_qr_scan"}, "is_reserved": 0, "name": "7ac2288adf40e7fc890f2712f410d34e", "lon": -77.02221316666666, "type": "electric_scooter", "bike_id": "7ac2288adf40e7fc890f2712f410d34e", "fusion_lon": 0.0, "lat": 38.887479166666665, "fusion_lat": 0.0}, {"is_disabled": 0, "rental_uris": {"android": "https://dc.lft.to/lastmile_qr_scan", "ios": "https://dc.lft.to/lastmile_qr_scan"}, "is_reserved": 0, "name": "239374392d84003b4aecab050649093d", "lon": -76.95751533333333, "type": "electric_scooter", "bike_id": "239374392d84003b4aecab050649093d", "fusion_lon": 0.0, "lat": 38.884301666666666, "fusion_lat": 0.0}, {"is_disabled": 0, "rental_uris": {"android": "https://dc.lft.to/lastmile_qr_scan", "ios": "https://dc.lft.to/lastmile_qr_scan"}, "is_reserved": 0, "name": "a2ac8a8fda40ed83117755800227c088", "lon": -77.03458866666666, "type": "electric_scooter", "bike_id": "a2ac8a8fda40ed83117755800227c088", "fusion_lon": 0.0, "lat": 38.909841166666666, "fusion_lat": 0.0}, {"is_disabled": 0, "rental_uris": {"android": "https://dc.lft.to/lastmile_qr_scan", "ios": "https://dc.lft.to/lastmile_qr_scan"}, "is_reserved": 0, "name": "dead5123c0e8a30bf6b107b793db8fc2", "lon": -76.96682316666667, "type": "electric_bike", "bike_id": "dead5123c0e8a30bf6b107b793db8fc2", "fusion_lon": 0.0, "lat": 38.95891566666667, "fusion_lat": 0.0}, {"is_disabled": 0, "rental_uris": {"android": "https://dc.lft.to/lastmile_qr_scan", "ios": "https://dc.lft.to/lastmile_qr_scan"}, "is_reserved": 0, "name": "db52241a89a6aadfd637316a3ceb713e", "lon": -76.98831016666666, "type": "electric_scooter", "bike_id": "db52241a89a6aadfd637316a3ceb713e", "fusion_lon": 0.0, "lat": 38.89983316666667, "fusion_lat": 0.0}, {"is_disabled": 0, "rental_uris": {"android": "https://dc.lft.to/lastmile_qr_scan", "ios": "https://dc.lft.to/lastmile_qr_scan"}, "is_reserved": 0, "name": "994c31ebd426b8a1cce6919613c6ad9a", "lon": -77.05023833333334, "type": "electric_scooter", "bike_id": "994c31ebd426b8a1cce6919613c6ad9a", "fusion_lon": 0.0, "lat": 38.8957615, "fusion_lat": 0.0}, {"is_disabled": 0, "rental_uris": {"android": "https://dc.lft.to/lastmile_qr_scan", "ios": "https://dc.lft.to/lastmile_qr_scan"}, "is_reserved": 0, "name": "b231138d135a3ce4fd38d62d242743b2", "lon": -76.949908, "type": "electric_scooter", "bike_id": "b231138d135a3ce4fd38d62d242743b2", "fusion_lon": 0.0, "lat": 38.89389366666666, "fusion_lat": 0.0}, {"is_disabled": 0, "rental_uris": {"android": "https://dc.lft.to/lastmile_qr_scan", "ios": "https://dc.lft.to/lastmile_qr_scan"}, "is_reserved": 0, "name": "933acbd125565d587501093101f05941", "lon": -77.0466135, "type": "electric_scooter", "bike_id": "933acbd125565d587501093101f05941", "fusion_lon": 0.0, "lat": 38.8934195, "fusion_lat": 0.0}, {"is_disabled": 0, "rental_uris": {"android": "https://dc.lft.to/lastmile_qr_scan", "ios": "https://dc.lft.to/lastmile_qr_scan"}, "is_reserved": 0, "name": "212943e1cc0fdc8ff0e3d90dea0660be", "lon": -77.06525733333334, "type": "electric_scooter", "bike_id": "212943e1cc0fdc8ff0e3d90dea0660be", "fusion_lon": 0.0, "lat": 38.90519616666667, "fusion_lat": 0.0}, {"is_disabled": 0, "rental_uris": {"android": "https://dc.lft.to/lastmile_qr_scan", "ios": "https://dc.lft.to/lastmile_qr_scan"}, "is_reserved": 0, "name": "7de667bf3aff332108486a9f36098f89", "lon": -77.01991366666667, "type": "electric_scooter", "bike_id": "7de667bf3aff332108486a9f36098f89", "fusion_lon": 0.0, "lat": 38.87574516666667, "fusion_lat": 0.0}, {"is_disabled": 0, "rental_uris": {"android": "https://dc.lft.to/lastmile_qr_scan", "ios": "https://dc.lft.to/lastmile_qr_scan"}, "is_reserved": 0, "name": "2c56828f6f44855854a0310bad968552", "lon": -77.04458416666667, "type": "electric_scooter", "bike_id": "2c56828f6f44855854a0310bad968552", "fusion_lon": 0.0, "lat": 38.90851983333334, "fusion_lat": 0.0}, {"is_disabled": 0, "rental_uris": {"android": "https://dc.lft.to/lastmile_qr_scan", "ios": "https://dc.lft.to/lastmile_qr_scan"}, "is_reserved": 0, "name": "09d99992496207260bdd712d3e58e96a", "lon": -77.05191116666667, "type": "electric_scooter", "bike_id": "09d99992496207260bdd712d3e58e96a", "fusion_lon": 0.0, "lat": 38.92558283333334, "fusion_lat": 0.0}, {"is_disabled": 0, "rental_uris": {"android": "https://dc.lft.to/lastmile_qr_scan", "ios": "https://dc.lft.to/lastmile_qr_scan"}, "is_reserved": 0, "name": "c7e410cf5dd0740c24d52e9a4e9a608e", "lon": -77.02783783333334, "type": "electric_scooter", "bike_id": "c7e410cf5dd0740c24d52e9a4e9a608e", "fusion_lon": 0.0, "lat": 38.9181545, "fusion_lat": 0.0}, {"is_disabled": 0, "rental_uris": {"android": "https://dc.lft.to/lastmile_qr_scan", "ios": "https://dc.lft.to/lastmile_qr_scan"}, "is_reserved": 0, "name": "8d2cad356ac9bb650e64665f528ddc4e", "lon": -76.99154616666667, "type": "electric_scooter", "bike_id": "8d2cad356ac9bb650e64665f528ddc4e", "fusion_lon": 0.0, "lat": 38.897761333333335, "fusion_lat": 0.0}, {"is_disabled": 0, "rental_uris": {"android": "https://dc.lft.to/lastmile_qr_scan", "ios": "https://dc.lft.to/lastmile_qr_scan"}, "is_reserved": 0, "name": "ca5ef0f677cd92e568132dedb38d1ebd", "lon": -77.032548, "type": "electric_scooter", "bike_id": "ca5ef0f677cd92e568132dedb38d1ebd", "fusion_lon": 0.0, "lat": 38.9353025, "fusion_lat": 0.0}, {"is_disabled": 0, "rental_uris": {"android": "https://dc.lft.to/lastmile_qr_scan", "ios": "https://dc.lft.to/lastmile_qr_scan"}, "is_reserved": 0, "name": "70e08a0d25c2af45f076e9ca2e041132", "lon": -77.07274683333333, "type": "electric_scooter", "bike_id": "70e08a0d25c2af45f076e9ca2e041132", "fusion_lon": 0.0, "lat": 38.93473816666667, "fusion_lat": 0.0}, {"is_disabled": 0, "rental_uris": {"android": "https://dc.lft.to/lastmile_qr_scan", "ios": "https://dc.lft.to/lastmile_qr_scan"}, "is_reserved": 0, "name": "b75f8a8a6a68849506ea7ca4416517a3", "lon": -77.05329416666666, "type": "electric_scooter", "bike_id": "b75f8a8a6a68849506ea7ca4416517a3", "fusion_lon": 0.0, "lat": 38.92791533333333, "fusion_lat": 0.0}, {"is_disabled": 0, "rental_uris": {"android": "https://dc.lft.to/lastmile_qr_scan", "ios": "https://dc.lft.to/lastmile_qr_scan"}, "is_reserved": 0, "name": "249645563d33d6f94bc80e17cd93e4d1", "lon": -77.04100616666666, "type": "electric_scooter", "bike_id": "249645563d33d6f94bc80e17cd93e4d1", "fusion_lon": 0.0, "lat": 38.92451416666667, "fusion_lat": 0.0}, {"is_disabled": 0, "rental_uris": {"android": "https://dc.lft.to/lastmile_qr_scan", "ios": "https://dc.lft.to/lastmile_qr_scan"}, "is_reserved": 0, "name": "5d24716072d4e5642ca3d413c5f94b88", "lon": -76.99455166666667, "type": "electric_scooter", "bike_id": "5d24716072d4e5642ca3d413c5f94b88", "fusion_lon": 0.0, "lat": 38.922834, "fusion_lat": 0.0}, {"is_disabled": 0, "rental_uris": {"android": "https://dc.lft.to/lastmile_qr_scan", "ios": "https://dc.lft.to/lastmile_qr_scan"}, "is_reserved": 0, "name": "378aa0717dc186b23d732c835fd73e3c", "lon": -77.03235066666667, "type": "electric_scooter", "bike_id": "378aa0717dc186b23d732c835fd73e3c", "fusion_lon": 0.0, "lat": 38.9148785, "fusion_lat": 0.0}, {"is_disabled": 0, "rental_uris": {"android": "https://dc.lft.to/lastmile_qr_scan", "ios": "https://dc.lft.to/lastmile_qr_scan"}, "is_reserved": 0, "name": "d35da0b44470d9c3f15576dc4ebf2763", "lon": -77.02308133333334, "type": "electric_scooter", "bike_id": "d35da0b44470d9c3f15576dc4ebf2763", "fusion_lon": 0.0, "lat": 38.89573733333334, "fusion_lat": 0.0}, {"is_disabled": 0, "rental_uris": {"android": "https://dc.lft.to/lastmile_qr_scan", "ios": "https://dc.lft.to/lastmile_qr_scan"}, "is_reserved": 0, "name": "38d4d183ea25afb8ae6ac5e3f906e9d2", "lon": -77.0282065, "type": "electric_bike", "bike_id": "38d4d183ea25afb8ae6ac5e3f906e9d2", "fusion_lon": 0.0, "lat": 38.932982333333335, "fusion_lat": 0.0}, {"is_disabled": 0, "rental_uris": {"android": "https://dc.lft.to/lastmile_qr_scan", "ios": "https://dc.lft.to/lastmile_qr_scan"}, "is_reserved": 0, "name": "87791433bcd9bfa311b83f4e92452650", "lon": -77.04480166666667, "type": "electric_scooter", "bike_id": "87791433bcd9bfa311b83f4e92452650", "fusion_lon": 0.0, "lat": 38.92425516666667, "fusion_lat": 0.0}, {"is_disabled": 0, "rental_uris": {"android": "https://dc.lft.to/lastmile_qr_scan", "ios": "https://dc.lft.to/lastmile_qr_scan"}, "is_reserved": 0, "name": "4f162b7e8c241ecd7ffdec4712a6a0b1", "lon": -77.040565, "type": "electric_scooter", "bike_id": "4f162b7e8c241ecd7ffdec4712a6a0b1", "fusion_lon": 0.0, "lat": 38.91037333333333, "fusion_lat": 0.0}, {"is_disabled": 0, "rental_uris": {"android": "https://dc.lft.to/lastmile_qr_scan", "ios": "https://dc.lft.to/lastmile_qr_scan"}, "is_reserved": 0, "name": "b1135921c34a8d07a297ec4f951e5418", "lon": -77.02789666666666, "type": "electric_scooter", "bike_id": "b1135921c34a8d07a297ec4f951e5418", "fusion_lon": 0.0, "lat": 38.961304, "fusion_lat": 0.0}, {"is_disabled": 0, "rental_uris": {"android": "https://dc.lft.to/lastmile_qr_scan", "ios": "https://dc.lft.to/lastmile_qr_scan"}, "is_reserved": 0, "name": "f39d302c61bccfc95a48f7622a86a6f6", "lon": -77.03855416666667, "type": "electric_scooter", "bike_id": "f39d302c61bccfc95a48f7622a86a6f6", "fusion_lon": 0.0, "lat": 38.90785866666667, "fusion_lat": 0.0}, {"is_disabled": 0, "rental_uris": {"android": "https://dc.lft.to/lastmile_qr_scan", "ios": "https://dc.lft.to/lastmile_qr_scan"}, "is_reserved": 0, "name": "d349dff012cab1b5f2df03095f48fcd7", "lon": -76.93184616666667, "type": "electric_scooter", "bike_id": "d349dff012cab1b5f2df03095f48fcd7", "fusion_lon": 0.0, "lat": 38.898763333333335, "fusion_lat": 0.0}, {"is_disabled": 0, "rental_uris": {"android": "https://dc.lft.to/lastmile_qr_scan", "ios": "https://dc.lft.to/lastmile_qr_scan"}, "is_reserved": 0, "name": "8d5a6c231470c37f914355127249ca72", "lon": -77.02802, "type": "electric_scooter", "bike_id": "8d5a6c231470c37f914355127249ca72", "fusion_lon": 0.0, "lat": 38.930784, "fusion_lat": 0.0}, {"is_disabled": 0, "rental_uris": {"android": "https://dc.lft.to/lastmile_qr_scan", "ios": "https://dc.lft.to/lastmile_qr_scan"}, "is_reserved": 0, "name": "f85f67b1a03f509dac8a3592655810dd", "lon": -77.02808216666666, "type": "electric_scooter", "bike_id": "f85f67b1a03f509dac8a3592655810dd", "fusion_lon": 0.0, "lat": 38.93078966666667, "fusion_lat": 0.0}, {"is_disabled": 0, "rental_uris": {"android": "https://dc.lft.to/lastmile_qr_scan", "ios": "https://dc.lft.to/lastmile_qr_scan"}, "is_reserved": 0, "name": "27ebbc2f8df9305c9c39f5631590f26c", "lon": -77.05703183333334, "type": "electric_scooter", "bike_id": "27ebbc2f8df9305c9c39f5631590f26c", "fusion_lon": 0.0, "lat": 38.926211333333335, "fusion_lat": 0.0}, {"is_disabled": 0, "rental_uris": {"android": "https://dc.lft.to/lastmile_qr_scan", "ios": "https://dc.lft.to/lastmile_qr_scan"}, "is_reserved": 0, "name": "7a7547ad524ddab93c86624559e4fb70", "lon": -77.02385383333333, "type": "electric_scooter", "bike_id": "7a7547ad524ddab93c86624559e4fb70", "fusion_lon": 0.0, "lat": 38.9058415, "fusion_lat": 0.0}, {"is_disabled": 0, "rental_uris": {"android": "https://dc.lft.to/lastmile_qr_scan", "ios": "https://dc.lft.to/lastmile_qr_scan"}, "is_reserved": 0, "name": "fc29f562f0fba95bb3cf16f672a3902d", "lon": -76.95669816666667, "type": "electric_scooter", "bike_id": "fc29f562f0fba95bb3cf16f672a3902d", "fusion_lon": 0.0, "lat": 38.88766366666667, "fusion_lat": 0.0}, {"is_disabled": 0, "rental_uris": {"android": "https://dc.lft.to/lastmile_qr_scan", "ios": "https://dc.lft.to/lastmile_qr_scan"}, "is_reserved": 0, "name": "c1e60c1c06c3f20ccc74825690ef05d8", "lon": -76.98157166666667, "type": "electric_bike", "bike_id": "c1e60c1c06c3f20ccc74825690ef05d8", "fusion_lon": 0.0, "lat": 38.95964016666667, "fusion_lat": 0.0}, {"is_disabled": 0, "rental_uris": {"android": "https://dc.lft.to/lastmile_qr_scan", "ios": "https://dc.lft.to/lastmile_qr_scan"}, "is_reserved": 0, "name": "1a70b55edb73b24f2ced001b11f6282b", "lon": -77.04142916666666, "type": "electric_scooter", "bike_id": "1a70b55edb73b24f2ced001b11f6282b", "fusion_lon": 0.0, "lat": 38.912695, "fusion_lat": 0.0}, {"is_disabled": 0, "rental_uris": {"android": "https://dc.lft.to/lastmile_qr_scan", "ios": "https://dc.lft.to/lastmile_qr_scan"}, "is_reserved": 0, "name": "7f4ccff0d5fc338a6a8cd3bd40994bad", "lon": -77.02460333333333, "type": "electric_bike", "bike_id": "7f4ccff0d5fc338a6a8cd3bd40994bad", "fusion_lon": 0.0, "lat": 38.95576633333334, "fusion_lat": 0.0}, {"is_disabled": 0, "rental_uris": {"android": "https://dc.lft.to/lastmile_qr_scan", "ios": "https://dc.lft.to/lastmile_qr_scan"}, "is_reserved": 0, "name": "c2d2a11df23cb8c220a38bf92e9191b7", "lon": -76.93352416666667, "type": "electric_scooter", "bike_id": "c2d2a11df23cb8c220a38bf92e9191b7", "fusion_lon": 0.0, "lat": 38.89896933333333, "fusion_lat": 0.0}, {"is_disabled": 0, "rental_uris": {"android": "https://dc.lft.to/lastmile_qr_scan", "ios": "https://dc.lft.to/lastmile_qr_scan"}, "is_reserved": 0, "name": "3d04561f8e7983e3c7734b801b93df0e", "lon": -77.01980183333333, "type": "electric_scooter", "bike_id": "3d04561f8e7983e3c7734b801b93df0e", "fusion_lon": 0.0, "lat": 38.911961166666664, "fusion_lat": 0.0}, {"is_disabled": 0, "rental_uris": {"android": "https://dc.lft.to/lastmile_qr_scan", "ios": "https://dc.lft.to/lastmile_qr_scan"}, "is_reserved": 0, "name": "f92caf51cd461be7cb03348040245cc6", "lon": -77.0339335, "type": "electric_scooter", "bike_id": "f92caf51cd461be7cb03348040245cc6", "fusion_lon": 0.0, "lat": 38.91970033333333, "fusion_lat": 0.0}, {"is_disabled": 0, "rental_uris": {"android": "https://dc.lft.to/lastmile_qr_scan", "ios": "https://dc.lft.to/lastmile_qr_scan"}, "is_reserved": 0, "name": "4bf5edf190b13aaa6e76f0324293c538", "lon": -77.046612, "type": "electric_scooter", "bike_id": "4bf5edf190b13aaa6e76f0324293c538", "fusion_lon": 0.0, "lat": 38.90742216666666, "fusion_lat": 0.0}, {"is_disabled": 0, "rental_uris": {"android": "https://dc.lft.to/lastmile_qr_scan", "ios": "https://dc.lft.to/lastmile_qr_scan"}, "is_reserved": 0, "name": "6e1f6041b819cb7d8e55cda371a29142", "lon": -77.060952, "type": "electric_scooter", "bike_id": "6e1f6041b819cb7d8e55cda371a29142", "fusion_lon": 0.0, "lat": 38.9437145, "fusion_lat": 0.0}, {"is_disabled": 0, "rental_uris": {"android": "https://dc.lft.to/lastmile_qr_scan", "ios": "https://dc.lft.to/lastmile_qr_scan"}, "is_reserved": 0, "name": "4070dbea468e028c55e2f331c39bf3e4", "lon": -76.9916225, "type": "electric_bike", "bike_id": "4070dbea468e028c55e2f331c39bf3e4", "fusion_lon": 0.0, "lat": 38.972618, "fusion_lat": 0.0}, {"is_disabled": 0, "rental_uris": {"android": "https://dc.lft.to/lastmile_qr_scan", "ios": "https://dc.lft.to/lastmile_qr_scan"}, "is_reserved": 0, "name": "b9052a5d4ae481c2bc323476c67dea1c", "lon": -77.02401983333333, "type": "electric_scooter", "bike_id": "b9052a5d4ae481c2bc323476c67dea1c", "fusion_lon": 0.0, "lat": 38.91689933333333, "fusion_lat": 0.0}, {"is_disabled": 0, "rental_uris": {"android": "https://dc.lft.to/lastmile_qr_scan", "ios": "https://dc.lft.to/lastmile_qr_scan"}, "is_reserved": 0, "name": "c9367b835f1fa70b328d30c9e8099e75", "lon": -77.02936333333334, "type": "electric_scooter", "bike_id": "c9367b835f1fa70b328d30c9e8099e75", "fusion_lon": 0.0, "lat": 38.8981625, "fusion_lat": 0.0}, {"is_disabled": 0, "rental_uris": {"android": "https://dc.lft.to/lastmile_qr_scan", "ios": "https://dc.lft.to/lastmile_qr_scan"}, "is_reserved": 0, "name": "60fcfe3c85ad67652b86180bd9b38558", "lon": -77.061688, "type": "electric_bike", "bike_id": "60fcfe3c85ad67652b86180bd9b38558", "fusion_lon": 0.0, "lat": 38.812688, "fusion_lat": 0.0}, {"is_disabled": 0, "rental_uris": {"android": "https://dc.lft.to/lastmile_qr_scan", "ios": "https://dc.lft.to/lastmile_qr_scan"}, "is_reserved": 0, "name": "0192faee054d784bbdf377079b763c54", "lon": -77.07899483333334, "type": "electric_bike", "bike_id": "0192faee054d784bbdf377079b763c54", "fusion_lon": 0.0, "lat": 38.839313, "fusion_lat": 0.0}, {"is_disabled": 0, "rental_uris": {"android": "https://dc.lft.to/lastmile_qr_scan", "ios": "https://dc.lft.to/lastmile_qr_scan"}, "is_reserved": 0, "name": "4e932e0f42a53ae86f55896370f73ed6", "lon": -77.00118916666666, "type": "electric_scooter", "bike_id": "4e932e0f42a53ae86f55896370f73ed6", "fusion_lon": 0.0, "lat": 38.91252433333333, "fusion_lat": 0.0}, {"is_disabled": 0, "rental_uris": {"android": "https://dc.lft.to/lastmile_qr_scan", "ios": "https://dc.lft.to/lastmile_qr_scan"}, "is_reserved": 0, "name": "5f77bfdd0754d7304e76c52c96adc67c", "lon": -77.009023, "type": "electric_scooter", "bike_id": "5f77bfdd0754d7304e76c52c96adc67c", "fusion_lon": 0.0, "lat": 38.89536983333333, "fusion_lat": 0.0}, {"is_disabled": 0, "rental_uris": {"android": "https://dc.lft.to/lastmile_qr_scan", "ios": "https://dc.lft.to/lastmile_qr_scan"}, "is_reserved": 0, "name": "5507abd9c853fe0f32bb64f10b6a4a8c", "lon": -77.01627316666666, "type": "electric_scooter", "bike_id": "5507abd9c853fe0f32bb64f10b6a4a8c", "fusion_lon": 0.0, "lat": 38.898653333333336, "fusion_lat": 0.0}, {"is_disabled": 0, "rental_uris": {"android": "https://dc.lft.to/lastmile_qr_scan", "ios": "https://dc.lft.to/lastmile_qr_scan"}, "is_reserved": 0, "name": "423ae59414394e1cc84c16a1f91e0f3e", "lon": -77.01009633333334, "type": "electric_scooter", "bike_id": "423ae59414394e1cc84c16a1f91e0f3e", "fusion_lon": 0.0, "lat": 38.87967866666666, "fusion_lat": 0.0}, {"is_disabled": 0, "rental_uris": {"android": "https://dc.lft.to/lastmile_qr_scan", "ios": "https://dc.lft.to/lastmile_qr_scan"}, "is_reserved": 0, "name": "d220af24def5ae78fae7e6dacdc8193e", "lon": -77.027996, "type": "electric_scooter", "bike_id": "d220af24def5ae78fae7e6dacdc8193e", "fusion_lon": 0.0, "lat": 38.91769733333334, "fusion_lat": 0.0}, {"is_disabled": 0, "rental_uris": {"android": "https://dc.lft.to/lastmile_qr_scan", "ios": "https://dc.lft.to/lastmile_qr_scan"}, "is_reserved": 0, "name": "3cdb15281e87f81764d3057b2341fc02", "lon": -76.99486216666666, "type": "electric_scooter", "bike_id": "3cdb15281e87f81764d3057b2341fc02", "fusion_lon": 0.0, "lat": 38.932262, "fusion_lat": 0.0}, {"is_disabled": 0, "rental_uris": {"android": "https://dc.lft.to/lastmile_qr_scan", "ios": "https://dc.lft.to/lastmile_qr_scan"},