{"data": {"bikes": [{"bike_id": "b21f5c41c9dc6a69194c1def581c04f5", "type": "electric_bike", "is_disabled": 0, "lat": 39.037410666666666, "rental_uris": {"ios": "https://dc.lft.to/lastmile_qr_scan", "android": "https://dc.lft.to/lastmile_qr_scan"}, "is_reserved": 0, "fusion_lon": 0.0, "fusion_lat": 0.0, "lon": -77.05484133333333, "name": "b21f5c41c9dc6a69194c1def581c04f5"}, {"bike_id": "0792605bb05b39aae4e6373abf3970af", "type": "electric_scooter", "is_disabled": 0, "lat": 38.86833083333333, "rental_uris": {"ios": "https://dc.lft.to/lastmile_qr_scan", "android": "https://dc.lft.to/lastmile_qr_scan"}, "is_reserved": 0, "fusion_lon": 0.0, "fusion_lat": 0.0, "lon": -77.01148133333334, "name": "0792605bb05b39aae4e6373abf3970af"}, {"bike_id": "e6c1b531f4201384d4c4cb2f2643ac12", "type": "electric_scooter", "is_disabled": 0, "lat": 38.909740166666666, "rental_uris": {"ios": "https://dc.lft.to/lastmile_qr_scan", "android": "https://dc.lft.to/lastmile_qr_scan"}, "is_reserved": 0, "fusion_lon": 0.0, "fusion_lat": 0.0, "lon": -77.03147383333334, "name": "e6c1b531f4201384d4c4cb2f2643ac12"}, {"bike_id": "b7890006d18002ffdd0118c3d4aa4090", "type": "electric_scooter", "is_disabled": 0, "lat": 38.90836733333333, "rental_uris": {"ios": "https://dc.lft.to/lastmile_qr_scan", "android": "https://dc.lft.to/lastmile_qr_scan"}, "is_reserved": 0, "fusion_lon": 0.0, "fusion_lat": 0.0, "lon": -77.02205783333333, "name": "b7890006d18002ffdd0118c3d4aa4090"}, {"bike_id": "f910bd3e2a5b5d926d28da06ad1df900", "type": "electric_scooter", "is_disabled": 0, "lat": 38.893545, "rental_uris": {"ios": "https://dc.lft.to/lastmile_qr_scan", "android": "https://dc.lft.to/lastmile_qr_scan"}, "is_reserved": 0, "fusion_lon": 0.0, "fusion_lat": 0.0, "lon": -76.9927155, "name": "f910bd3e2a5b5d926d28da06ad1df900"}, {"bike_id": "c10d4a2f25a5f00d6a1c1fc9088bea8f", "type": "electric_bike", "is_disabled": 0, "lat": 39.055000166666666, "rental_uris": {"ios": "https://dc.lft.to/lastmile_qr_scan", "android": "https://dc.lft.to/lastmile_qr_scan"}, "is_reserved": 0, "fusion_lon": 0.0, "fusion_lat": 0.0, "lon": -77.11788733333333, "name": "c10d4a2f25a5f00d6a1c1fc9088bea8f"}, {"bike_id": "82aed28ab7f1de67d182780101cc6cf6", "type": "electric_bike", "is_disabled": 0, "lat": 38.906946, "rental_uris": {"ios": "https://dc.lft.to/lastmile_qr_scan", "android": "https://dc.lft.to/lastmile_qr_scan"}, "is_reserved": 0, "fusion_lon": 0.0, "fusion_lat": 0.0, "lon": -76.95253166666667, "name": "82aed28ab7f1de67d182780101cc6cf6"}, {"bike_id": "7b2a6bafcdc3723c7e649005d802128e", "type": "electric_scooter", "is_disabled": 0, "lat": 38.905707666666665, "rental_uris": {"ios": "https://dc.lft.to/lastmile_qr_scan", "android": "https://dc.lft.to/lastmile_qr_scan"}, "is_reserved": 0, "fusion_lon": 0.0, "fusion_lat": 0.0, "lon": -77.017969, "name": "7b2a6bafcdc3723c7e649005d802128e"}, {"bike_id": "d4c0b1319b76cf592b27cb037681af8b", "type": "electric_scooter", "is_disabled": 0, "lat": 38.897429, "rental_uris": {"ios": "https://dc.lft.to/lastmile_qr_scan", "android": "https://dc.lft.to/lastmile_qr_scan"}, "is_reserved": 0, "fusion_lon": 0.0, "fusion_lat": 0.0, "lon": -77.0470195, "name": "d4c0b1319b76cf592b27cb037681af8b"}, {"bike_id": "cbce086dd4ba3ddee2b52eaadf611c65", "type": "electric_scooter", "is_disabled": 0, "lat": 38.91330716666667, "rental_uris": {"ios": "https://dc.lft.to/lastmile_qr_scan", "android": "https://dc.lft.to/lastmile_qr_scan"}, "is_reserved": 0, "fusion_lon": 0.0, "fusion_lat": 0.0, "lon": -77.03183616666666, "name": "cbce086dd4ba3ddee2b52eaadf611c65"}, {"bike_id": "7da9443255c96a93fe848724226abd82", "type": "electric_scooter", "is_disabled": 0, "lat": 38.88637766666667, "rental_uris": {"ios": "https://dc.lft.to/lastmile_qr_scan", "android": "https://dc.lft.to/lastmile_qr_scan"}, "is_reserved": 0, "fusion_lon": 0.0, "fusion_lat": 0.0, "lon": -77.02142516666666, "name": "7da9443255c96a93fe848724226abd82"}, {"bike_id": "00b62c066917d0b07e14eced13d3635d", "type": "electric_scooter", "is_disabled": 0, "lat": 38.88718883333333, "rental_uris": {"ios": "https://dc.lft.to/lastmile_qr_scan", "android": "https://dc.lft.to/lastmile_qr_scan"}, "is_reserved": 0, "fusion_lon": 0.0, "fusion_lat": 0.0, "lon": -77.021854, "name": "00b62c066917d0b07e14eced13d3635d"}, {"bike_id": "589dd0f81d73702d2d3bca85ef533cd7", "type": "electric_scooter", "is_disabled": 0, "lat": 38.92544566666667, "rental_uris": {"ios": "https://dc.lft.to/lastmile_qr_scan", "android": "https://dc.lft.to/lastmile_qr_scan"}, "is_reserved": 0, "fusion_lon": 0.0, "fusion_lat": 0.0, "lon": -77.033889, "name": "589dd0f81d73702d2d3bca85ef533cd7"}, {"bike_id": "5b3b43141ed1c2a97a894acbacf3c562", "type": "electric_scooter", "is_disabled": 0, "lat": 38.9147795, "rental_uris": {"ios": "https://dc.lft.to/lastmile_qr_scan", "android": "https://dc.lft.to/lastmile_qr_scan"}, "is_reserved": 0, "fusion_lon": 0.0, "fusion_lat": 0.0, "lon": -77.01985083333334, "name": "5b3b43141ed1c2a97a894acbacf3c562"}, {"bike_id": "0dc8566281230a5c7024a7731477c48d", "type": "electric_scooter", "is_disabled": 0, "lat": 38.923484, "rental_uris": {"ios": "https://dc.lft.to/lastmile_qr_scan", "android": "https://dc.lft.to/lastmile_qr_scan"}, "is_reserved": 0, "fusion_lon": 0.0, "fusion_lat": 0.0, "lon": -77.0352615, "name": "0dc8566281230a5c7024a7731477c48d"}, {"bike_id": "7b2946a0b5341f6510e288b38f2c5dfe", "type": "electric_scooter", "is_disabled": 0, "lat": 38.90832783333333, "rental_uris": {"ios": "https://dc.lft.to/lastmile_qr_scan", "android": "https://dc.lft.to/lastmile_qr_scan"}, "is_reserved": 0, "fusion_lon": 0.0, "fusion_lat": 0.0, "lon": -76.99694633333333, "name": "7b2946a0b5341f6510e288b38f2c5dfe"}, {"bike_id": "77639d3a0540f0d66b784cb98e863894", "type": "electric_scooter", "is_disabled": 0, "lat": 38.90028516666667, "rental_uris": {"ios": "https://dc.lft.to/lastmile_qr_scan", "android": "https://dc.lft.to/lastmile_qr_scan"}, "is_reserved": 0, "fusion_lon": 0.0, "fusion_lat": 0.0, "lon": -77.0116105, "name": "77639d3a0540f0d66b784cb98e863894"}, {"bike_id": "5ab9876537fa7649aa06b38f37b15ff0", "type": "electric_scooter", "is_disabled": 0, "lat": 38.907364333333334, "rental_uris": {"ios": "https://dc.lft.to/lastmile_qr_scan", "android": "https://dc.lft.to/lastmile_qr_scan"}, "is_reserved": 0, "fusion_lon": 0.0, "fusion_lat": 0.0, "lon": -77.02517116666667, "name": "5ab9876537fa7649aa06b38f37b15ff0"}, {"bike_id": "9f6051294b19dff9209685d580db0a95", "type": "electric_scooter", "is_disabled": 0, "lat": 38.972055, "rental_uris": {"ios": "https://dc.lft.to/lastmile_qr_scan", "android": "https://dc.lft.to/lastmile_qr_scan"}, "is_reserved": 0, "fusion_lon": 0.0, "fusion_lat": 0.0, "lon": -77.0265245, "name": "9f6051294b19dff9209685d580db0a95"}, {"bike_id": "6404b1bff91124d5f70ea61f170d550f", "type": "electric_scooter", "is_disabled": 0, "lat": 38.9336475, "rental_uris": {"ios": "https://dc.lft.to/lastmile_qr_scan", "android": "https://dc.lft.to/lastmile_qr_scan"}, "is_reserved": 0, "fusion_lon": 0.0, "fusion_lat": 0.0, "lon": -77.08854183333334, "name": "6404b1bff91124d5f70ea61f170d550f"}, {"bike_id": "ef8ac3436f36fe14aab6822ebcb02988", "type": "electric_scooter", "is_disabled": 0, "lat": 38.8663345, "rental_uris": {"ios": "https://dc.lft.to/lastmile_qr_scan", "android": "https://dc.lft.to/lastmile_qr_scan"}, "is_reserved": 0, "fusion_lon": 0.0, "fusion_lat": 0.0, "lon": -76.98715283333334, "name": "ef8ac3436f36fe14aab6822ebcb02988"}, {"bike_id": "6a02fb0765abfca71c4e7df1e6fa9406", "type": "electric_scooter", "is_disabled": 0, "lat": 38.90560216666667, "rental_uris": {"ios": "https://dc.lft.to/lastmile_qr_scan", "android": "https://dc.lft.to/lastmile_qr_scan"}, "is_reserved": 0, "fusion_lon": 0.0, "fusion_lat": 0.0, "lon": -77.0059065, "name": "6a02fb0765abfca71c4e7df1e6fa9406"}, {"bike_id": "a28a29f6332bf87d3987e684dbe684d0", "type": "electric_scooter", "is_disabled": 0, "lat": 38.9065035, "rental_uris": {"ios": "https://dc.lft.to/lastmile_qr_scan", "android": "https://dc.lft.to/lastmile_qr_scan"}, "is_reserved": 0, "fusion_lon": 0.0, "fusion_lat": 0.0, "lon": -77.04859766666667, "name": "a28a29f6332bf87d3987e684dbe684d0"}, {"bike_id": "fd3109bbccfa052434d9c1544f0ba897", "type": "electric_scooter", "is_disabled": 0, "lat": 38.8969935, "rental_uris": {"ios": "https://dc.lft.to/lastmile_qr_scan", "android": "https://dc.lft.to/lastmile_qr_scan"}, "is_reserved": 0, "fusion_lon": 0.0, "fusion_lat": 0.0, "lon": -77.023053, "name": "fd3109bbccfa052434d9c1544f0ba897"}, {"bike_id": "f04b45f083ba04beda81818b6936dd73", "type": "electric_scooter", "is_disabled": 0, "lat": 38.897637833333334, "rental_uris": {"ios": "https://dc.lft.to/lastmile_qr_scan", "android": "https://dc.lft.to/lastmile_qr_scan"}, "is_reserved": 0, "fusion_lon": 0.0, "fusion_lat": 0.0, "lon": -77.0276465, "name": "f04b45f083ba04beda81818b6936dd73"}, {"bike_id": "47188a7ab2559ec1f0aa47d53576a286", "type": "electric_bike", "is_disabled": 0, "lat": 38.88974283333334, "rental_uris": {"ios": "https://dc.lft.to/lastmile_qr_scan", "android": "https://dc.lft.to/lastmile_qr_scan"}, "is_reserved": 0, "fusion_lon": 0.0, "fusion_lat": 0.0, "lon": -77.03558633333333, "name": "47188a7ab2559ec1f0aa47d53576a286"}, {"bike_id": "f21998cc6f28d91e0e0552ee6fd49604", "type": "electric_scooter", "is_disabled": 0, "lat": 38.931548166666666, "rental_uris": {"ios": "https://dc.lft.to/lastmile_qr_scan", "android": "https://dc.lft.to/lastmile_qr_scan"}, "is_reserved": 0, "fusion_lon": 0.0, "fusion_lat": 0.0, "lon": -77.03346316666666, "name": "f21998cc6f28d91e0e0552ee6fd49604"}, {"bike_id": "15948fee07e0773d4bda446183ee4210", "type": "electric_scooter", "is_disabled": 0, "lat": 38.940208, "rental_uris": {"ios": "https://dc.lft.to/lastmile_qr_scan", "android": "https://dc.lft.to/lastmile_qr_scan"}, "is_reserved": 0, "fusion_lon": 0.0, "fusion_lat": 0.0, "lon": -76.97608083333333, "name": "15948fee07e0773d4bda446183ee4210"}, {"bike_id": "7fe6b483a78664437d208433df80e258", "type": "electric_scooter", "is_disabled": 0, "lat": 38.89435116666667, "rental_uris": {"ios": "https://dc.lft.to/lastmile_qr_scan", "android": "https://dc.lft.to/lastmile_qr_scan"}, "is_reserved": 0, "fusion_lon": 0.0, "fusion_lat": 0.0, "lon": -77.01046016666666, "name": "7fe6b483a78664437d208433df80e258"}, {"bike_id": "4f106fb734e5f6a02daf9bf6ad7ccdd1", "type": "electric_scooter", "is_disabled": 0, "lat": 38.91114483333333, "rental_uris": {"ios": "https://dc.lft.to/lastmile_qr_scan", "android": "https://dc.lft.to/lastmile_qr_scan"}, "is_reserved": 0, "fusion_lon": 0.0, "fusion_lat": 0.0, "lon": -77.04200766666666, "name": "4f106fb734e5f6a02daf9bf6ad7ccdd1"}, {"bike_id": "193486f17f95e8fd389bd04b47c2283b", "type": "electric_bike", "is_disabled": 0, "lat": 38.978882166666665, "rental_uris": {"ios": "https://dc.lft.to/lastmile_qr_scan", "android": "https://dc.lft.to/lastmile_qr_scan"}, "is_reserved": 0, "fusion_lon": 0.0, "fusion_lat": 0.0, "lon": -77.06026183333333, "name": "193486f17f95e8fd389bd04b47c2283b"}, {"bike_id": "9a7ae18ecc0a048f2301c98678c25156", "type": "electric_scooter", "is_disabled": 0, "lat": 38.937176666666666, "rental_uris": {"ios": "https://dc.lft.to/lastmile_qr_scan", "android": "https://dc.lft.to/lastmile_qr_scan"}, "is_reserved": 0, "fusion_lon": 0.0, "fusion_lat": 0.0, "lon": -77.03631733333333, "name": "9a7ae18ecc0a048f2301c98678c25156"}, {"bike_id": "5effbcadb48b1988b50a44b30319a150", "type": "electric_scooter", "is_disabled": 0, "lat": 38.894799666666664, "rental_uris": {"ios": "https://dc.lft.to/lastmile_qr_scan", "android": "https://dc.lft.to/lastmile_qr_scan"}, "is_reserved": 0, "fusion_lon": 0.0, "fusion_lat": 0.0, "lon": -76.9486065, "name": "5effbcadb48b1988b50a44b30319a150"}, {"bike_id": "4b7b122de751b05d12de80430655101e", "type": "electric_scooter", "is_disabled": 0, "lat": 38.92045233333333, "rental_uris": {"ios": "https://dc.lft.to/lastmile_qr_scan", "android": "https://dc.lft.to/lastmile_qr_scan"}, "is_reserved": 0, "fusion_lon": 0.0, "fusion_lat": 0.0, "lon": -77.02578216666667, "name": "4b7b122de751b05d12de80430655101e"}, {"bike_id": "1a4f783bb5bb79e5139b0df099246392", "type": "electric_scooter", "is_disabled": 0, "lat": 38.877023666666666, "rental_uris": {"ios": "https://dc.lft.to/lastmile_qr_scan", "android": "https://dc.lft.to/lastmile_qr_scan"}, "is_reserved": 0, "fusion_lon": 0.0, "fusion_lat": 0.0, "lon": -77.00512683333334, "name": "1a4f783bb5bb79e5139b0df099246392"}, {"bike_id": "30fe15ca56771967c9148a915836f02c", "type": "electric_bike", "is_disabled": 0, "lat": 38.85361183333333, "rental_uris": {"ios": "https://dc.lft.to/lastmile_qr_scan", "android": "https://dc.lft.to/lastmile_qr_scan"}, "is_reserved": 0, "fusion_lon": 0.0, "fusion_lat": 0.0, "lon": -77.08682916666666, "name": "30fe15ca56771967c9148a915836f02c"}, {"bike_id": "b933ccc51e3f84c447d3012e36462351", "type": "electric_scooter", "is_disabled": 0, "lat": 38.90046866666667, "rental_uris": {"ios": "https://dc.lft.to/lastmile_qr_scan", "android": "https://dc.lft.to/lastmile_qr_scan"}, "is_reserved": 0, "fusion_lon": 0.0, "fusion_lat": 0.0, "lon": -76.99152050000001, "name": "b933ccc51e3f84c447d3012e36462351"}, {"bike_id": "5b16124b11cc7a268ab80b3b7664a759", "type": "electric_scooter", "is_disabled": 0, "lat": 38.86672633333333, "rental_uris": {"ios": "https://dc.lft.to/lastmile_qr_scan", "android": "https://dc.lft.to/lastmile_qr_scan"}, "is_reserved": 0, "fusion_lon": 0.0, "fusion_lat": 0.0, "lon": -77.01068216666667, "name": "5b16124b11cc7a268ab80b3b7664a759"}, {"bike_id": "51ff2209d265db6a4424fc407b6e8f62", "type": "electric_bike", "is_disabled": 0, "lat": 38.957583, "rental_uris": {"ios": "https://dc.lft.to/lastmile_qr_scan", "android": "https://dc.lft.to/lastmile_qr_scan"}, "is_reserved": 0, "fusion_lon": 0.0, "fusion_lat": 0.0, "lon": -77.02056566666667, "name": "51ff2209d265db6a4424fc407b6e8f62"}, {"bike_id": "a14103ac3e07546ce9c30d2367be10a3", "type": "electric_scooter", "is_disabled": 0, "lat": 38.91559133333333, "rental_uris": {"ios": "https://dc.lft.to/lastmile_qr_scan", "android": "https://dc.lft.to/lastmile_qr_scan"}, "is_reserved": 0, "fusion_lon": 0.0, "fusion_lat": 0.0, "lon": -77.02566833333333, "name": "a14103ac3e07546ce9c30d2367be10a3"}, {"bike_id": "ee12af3b28f81bd230d2403323d3de07", "type": "electric_scooter", "is_disabled": 0, "lat": 38.8923145, "rental_uris": {"ios": "https://dc.lft.to/lastmile_qr_scan", "android": "https://dc.lft.to/lastmile_qr_scan"}, "is_reserved": 0, "fusion_lon": 0.0, "fusion_lat": 0.0, "lon": -77.01371933333333, "name": "ee12af3b28f81bd230d2403323d3de07"}, {"bike_id": "7497a8e909da205c07f5ec99796a0c0c", "type": "electric_scooter", "is_disabled": 0, "lat": 38.922465, "rental_uris": {"ios": "https://dc.lft.to/lastmile_qr_scan", "android": "https://dc.lft.to/lastmile_qr_scan"}, "is_reserved": 0, "fusion_lon": 0.0, "fusion_lat": 0.0, "lon": -77.02985033333333, "name": "7497a8e909da205c07f5ec99796a0c0c"}, {"bike_id": "19e397b1e94f116177c982020ac84f96", "type": "electric_scooter", "is_disabled": 0, "lat": 38.865095833333335, "rental_uris": {"ios": "https://dc.lft.to/lastmile_qr_scan", "android": "https://dc.lft.to/lastmile_qr_scan"}, "is_reserved": 0, "fusion_lon": 0.0, "fusion_lat": 0.0, "lon": -76.98997516666667, "name": "19e397b1e94f116177c982020ac84f96"}, {"bike_id": "f1d4c0e62c2cefdca6b36d3fd1d5285f", "type": "electric_scooter", "is_disabled": 0, "lat": 38.923284333333335, "rental_uris": {"ios": "https://dc.lft.to/lastmile_qr_scan", "android": "https://dc.lft.to/lastmile_qr_scan"}, "is_reserved": 0, "fusion_lon": 0.0, "fusion_lat": 0.0, "lon": -77.03676983333334, "name": "f1d4c0e62c2cefdca6b36d3fd1d5285f"}, {"bike_id": "42635e06fb5c7f8e22549c5ffb95e2f0", "type": "electric_scooter", "is_disabled": 0, "lat": 38.92326, "rental_uris": {"ios": "https://dc.lft.to/lastmile_qr_scan", "android": "https://dc.lft.to/lastmile_qr_scan"}, "is_reserved": 0, "fusion_lon": 0.0, "fusion_lat": 0.0, "lon": -77.03678183333334, "name": "42635e06fb5c7f8e22549c5ffb95e2f0"}, {"bike_id": "97b828a57271b88bdcaa2871f560895f", "type": "electric_scooter", "is_disabled": 0, "lat": 38.95739483333333, "rental_uris": {"ios": "https://dc.lft.to/lastmile_qr_scan", "android": "https://dc.lft.to/lastmile_qr_scan"}, "is_reserved": 0, "fusion_lon": 0.0, "fusion_lat": 0.0, "lon": -77.028007, "name": "97b828a57271b88bdcaa2871f560895f"}, {"bike_id": "fe6817f0483729ab2a7739c3bf29acea", "type": "electric_scooter", "is_disabled": 0, "lat": 38.9228425, "rental_uris": {"ios": "https://dc.lft.to/lastmile_qr_scan", "android": "https://dc.lft.to/lastmile_qr_scan"}, "is_reserved": 0, "fusion_lon": 0.0, "fusion_lat": 0.0, "lon": -77.04234266666667, "name": "fe6817f0483729ab2a7739c3bf29acea"}, {"bike_id": "fcd7ad55261a47ea0b8d1fc013f06d11", "type": "electric_scooter", "is_disabled": 0, "lat": 38.897975833333334, "rental_uris": {"ios": "https://dc.lft.to/lastmile_qr_scan", "android": "https://dc.lft.to/lastmile_qr_scan"}, "is_reserved": 0, "fusion_lon": 0.0, "fusion_lat": 0.0, "lon": -77.03208383333333, "name": "fcd7ad55261a47ea0b8d1fc013f06d11"}, {"bike_id": "07ab0ec6559dfe33730d2aff2e0a511a", "type": "electric_scooter", "is_disabled": 0, "lat": 38.8669225, "rental_uris": {"ios": "https://dc.lft.to/lastmile_qr_scan", "android": "https://dc.lft.to/lastmile_qr_scan"}, "is_reserved": 0, "fusion_lon": 0.0, "fusion_lat": 0.0, "lon": -76.985815, "name": "07ab0ec6559dfe33730d2aff2e0a511a"}, {"bike_id": "cc3d39adb4d6e66325aa230a32cca975", "type": "electric_scooter", "is_disabled": 0, "lat": 38.93500433333333, "rental_uris": {"ios": "https://dc.lft.to/lastmile_qr_scan", "android": "https://dc.lft.to/lastmile_qr_scan"}, "is_reserved": 0, "fusion_lon": 0.0, "fusion_lat": 0.0, "lon": -77.02543316666667, "name": "cc3d39adb4d6e66325aa230a32cca975"}, {"bike_id": "4f35cd87cc53b5c697ca80448d1ed58e", "type": "electric_scooter", "is_disabled": 0, "lat": 38.86630233333333, "rental_uris": {"ios": "https://dc.lft.to/lastmile_qr_scan", "android": "https://dc.lft.to/lastmile_qr_scan"}, "is_reserved": 0, "fusion_lon": 0.0, "fusion_lat": 0.0, "lon": -76.98718516666666, "name": "4f35cd87cc53b5c697ca80448d1ed58e"}, {"bike_id": "0287accba96587c72786e66633e2fc30", "type": "electric_scooter", "is_disabled": 0, "lat": 38.89481083333333, "rental_uris": {"ios": "https://dc.lft.to/lastmile_qr_scan", "android": "https://dc.lft.to/lastmile_qr_scan"}, "is_reserved": 0, "fusion_lon": 0.0, "fusion_lat": 0.0, "lon": -76.9877745, "name": "0287accba96587c72786e66633e2fc30"}, {"bike_id": "52a7fe8ad0b4de796098aa03fb4f6505", "type": "electric_scooter", "is_disabled": 0, "lat": 38.85816716666667, "rental_uris": {"ios": "https://dc.lft.to/lastmile_qr_scan", "android": "https://dc.lft.to/lastmile_qr_scan"}, "is_reserved": 0, "fusion_lon": 0.0, "fusion_lat": 0.0, "lon": -76.98925733333333, "name": "52a7fe8ad0b4de796098aa03fb4f6505"}, {"bike_id": "421bf473fba0362b6e16c04e64aee236", "type": "electric_scooter", "is_disabled": 0, "lat": 38.90794366666667, "rental_uris": {"ios": "https://dc.lft.to/lastmile_qr_scan", "android": "https://dc.lft.to/lastmile_qr_scan"}, "is_reserved": 0, "fusion_lon": 0.0, "fusion_lat": 0.0, "lon": -76.99425266666667, "name": "421bf473fba0362b6e16c04e64aee236"}, {"bike_id": "042f35cebf313e58b12a3c91f6766e41", "type": "electric_scooter", "is_disabled": 0, "lat": 38.8707435, "rental_uris": {"ios": "https://dc.lft.to/lastmile_qr_scan", "android": "https://dc.lft.to/lastmile_qr_scan"}, "is_reserved": 0, "fusion_lon": 0.0, "fusion_lat": 0.0, "lon": -76.98130366666666, "name": "042f35cebf313e58b12a3c91f6766e41"}, {"bike_id": "bc73cb50ea97dd85b88691c83ccd7fbd", "type": "electric_scooter", "is_disabled": 0, "lat": 38.89698166666667, "rental_uris": {"ios": "https://dc.lft.to/lastmile_qr_scan", "android": "https://dc.lft.to/lastmile_qr_scan"}, "is_reserved": 0, "fusion_lon": 0.0, "fusion_lat": 0.0, "lon": -77.023019, "name": "bc73cb50ea97dd85b88691c83ccd7fbd"}, {"bike_id": "f7afad6187581cf477634d8b0358ca52", "type": "electric_scooter", "is_disabled": 0, "lat": 38.92134716666666, "rental_uris": {"ios": "https://dc.lft.to/lastmile_qr_scan", "android": "https://dc.lft.to/lastmile_qr_scan"}, "is_reserved": 0, "fusion_lon": 0.0, "fusion_lat": 0.0, "lon": -77.02712683333333, "name": "f7afad6187581cf477634d8b0358ca52"}, {"bike_id": "eb8654211d5d8d8c1445b15fe7f5dd99", "type": "electric_scooter", "is_disabled": 0, "lat": 38.886414333333335, "rental_uris": {"ios": "https://dc.lft.to/lastmile_qr_scan", "android": "https://dc.lft.to/lastmile_qr_scan"}, "is_reserved": 0, "fusion_lon": 0.0, "fusion_lat": 0.0, "lon": -77.0137815, "name": "eb8654211d5d8d8c1445b15fe7f5dd99"}, {"bike_id": "d711368db99239640f2a55a4d4a6af34", "type": "electric_scooter", "is_disabled": 0, "lat": 38.91708116666667, "rental_uris": {"ios": "https://dc.lft.to/lastmile_qr_scan", "android": "https://dc.lft.to/lastmile_qr_scan"}, "is_reserved": 0, "fusion_lon": 0.0, "fusion_lat": 0.0, "lon": -77.0400065, "name": "d711368db99239640f2a55a4d4a6af34"}, {"bike_id": "5486ac3e1c78828bd6c72509fa2b97cb", "type": "electric_scooter", "is_disabled": 0, "lat": 38.90861666666667, "rental_uris": {"ios": "https://dc.lft.to/lastmile_qr_scan", "android": "https://dc.lft.to/lastmile_qr_scan"}, "is_reserved": 0, "fusion_lon": 0.0, "fusion_lat": 0.0, "lon": -76.99960366666667, "name": "5486ac3e1c78828bd6c72509fa2b97cb"}, {"bike_id": "23d7393fd8431830daac56319094279a", "type": "electric_scooter", "is_disabled": 0, "lat": 38.93274983333333, "rental_uris": {"ios": "https://dc.lft.to/lastmile_qr_scan", "android": "https://dc.lft.to/lastmile_qr_scan"}, "is_reserved": 0, "fusion_lon": 0.0, "fusion_lat": 0.0, "lon": -77.03088916666667, "name": "23d7393fd8431830daac56319094279a"}, {"bike_id": "23565b80865e4067a3a5157f82ac38ea", "type": "electric_bike", "is_disabled": 0, "lat": 38.943676333333336, "rental_uris": {"ios": "https://dc.lft.to/lastmile_qr_scan", "android": "https://dc.lft.to/lastmile_qr_scan"}, "is_reserved": 0, "fusion_lon": 0.0, "fusion_lat": 0.0, "lon": -77.00352933333333, "name": "23565b80865e4067a3a5157f82ac38ea"}, {"bike_id": "d545ebd20236665f0e28a35ad67552dc", "type": "electric_scooter", "is_disabled": 0, "lat": 38.948392166666665, "rental_uris": {"ios": "https://dc.lft.to/lastmile_qr_scan", "android": "https://dc.lft.to/lastmile_qr_scan"}, "is_reserved": 0, "fusion_lon": 0.0, "fusion_lat": 0.0, "lon": -77.02544966666666, "name": "d545ebd20236665f0e28a35ad67552dc"}, {"bike_id": "9352218600181bbff3677762e25ef463", "type": "electric_scooter", "is_disabled": 0, "lat": 38.916053, "rental_uris": {"ios": "https://dc.lft.to/lastmile_qr_scan", "android": "https://dc.lft.to/lastmile_qr_scan"}, "is_reserved": 0, "fusion_lon": 0.0, "fusion_lat": 0.0, "lon": -77.0399575, "name": "9352218600181bbff3677762e25ef463"}, {"bike_id": "cc59ec651a3af981161697d02ee49e69", "type": "electric_scooter", "is_disabled": 0, "lat": 38.92013166666667, "rental_uris": {"ios": "https://dc.lft.to/lastmile_qr_scan", "android": "https://dc.lft.to/lastmile_qr_scan"}, "is_reserved": 0, "fusion_lon": 0.0, "fusion_lat": 0.0, "lon": -77.01785616666666, "name": "cc59ec651a3af981161697d02ee49e69"}, {"bike_id": "0fdb4334882872c736e655f5bf9997c9", "type": "electric_scooter", "is_disabled": 0, "lat": 38.903894, "rental_uris": {"ios": "https://dc.lft.to/lastmile_qr_scan", "android": "https://dc.lft.to/lastmile_qr_scan"}, "is_reserved": 0, "fusion_lon": 0.0, "fusion_lat": 0.0, "lon": -77.0483995, "name": "0fdb4334882872c736e655f5bf9997c9"}, {"bike_id": "f2758abf091da3887e15e8ffab6c12b4", "type": "electric_scooter", "is_disabled": 0, "lat": 38.899721666666665, "rental_uris": {"ios": "https://dc.lft.to/lastmile_qr_scan", "android": "https://dc.lft.to/lastmile_qr_scan"}, "is_reserved": 0, "fusion_lon": 0.0, "fusion_lat": 0.0, "lon": -76.98306683333334, "name": "f2758abf091da3887e15e8ffab6c12b4"}, {"bike_id": "fcc317665e3320a3640875c62b2da790", "type": "electric_scooter", "is_disabled": 0, "lat": 38.887193, "rental_uris": {"ios": "https://dc.lft.to/lastmile_qr_scan", "android": "https://dc.lft.to/lastmile_qr_scan"}, "is_reserved": 0, "fusion_lon": 0.0, "fusion_lat": 0.0, "lon": -76.99628666666666, "name": "fcc317665e3320a3640875c62b2da790"}, {"bike_id": "016ca12084a660398f34f9a0aa62f5ff", "type": "electric_scooter", "is_disabled": 0, "lat": 38.8653485, "rental_uris": {"ios": "https://dc.lft.to/lastmile_qr_scan", "android": "https://dc.lft.to/lastmile_qr_scan"}, "is_reserved": 0, "fusion_lon": 0.0, "fusion_lat": 0.0, "lon": -76.9732795, "name": "016ca12084a660398f34f9a0aa62f5ff"}, {"bike_id": "e3702959638aca5de9ee334309c47bf8", "type": "electric_scooter", "is_disabled": 0, "lat": 38.93655016666666, "rental_uris": {"ios": "https://dc.lft.to/lastmile_qr_scan", "android": "https://dc.lft.to/lastmile_qr_scan"}, "is_reserved": 0, "fusion_lon": 0.0, "fusion_lat": 0.0, "lon": -77.036512, "name": "e3702959638aca5de9ee334309c47bf8"}, {"bike_id": "09217ab2126be8b296b513b7a6e801f6", "type": "electric_scooter", "is_disabled": 0, "lat": 38.92074216666666, "rental_uris": {"ios": "https://dc.lft.to/lastmile_qr_scan", "android": "https://dc.lft.to/lastmile_qr_scan"}, "is_reserved": 0, "fusion_lon": 0.0, "fusion_lat": 0.0, "lon": -77.02211883333334, "name": "09217ab2126be8b296b513b7a6e801f6"}, {"bike_id": "cdded57a4f199eea74daf645f2c6e5a3", "type": "electric_scooter", "is_disabled": 0, "lat": 38.92248566666667, "rental_uris": {"ios": "https://dc.lft.to/lastmile_qr_scan", "android": "https://dc.lft.to/lastmile_qr_scan"}, "is_reserved": 0, "fusion_lon": 0.0, "fusion_lat": 0.0, "lon": -77.038827, "name": "cdded57a4f199eea74daf645f2c6e5a3"}, {"bike_id": "1d1fc8e35a63c980a67e64ff37b97d80", "type": "electric_scooter", "is_disabled": 0, "lat": 38.921568666666666, "rental_uris": {"ios": "https://dc.lft.to/lastmile_qr_scan", "android": "https://dc.lft.to/lastmile_qr_scan"}, "is_reserved": 0, "fusion_lon": 0.0, "fusion_lat": 0.0, "lon": -77.03517716666667, "name": "1d1fc8e35a63c980a67e64ff37b97d80"}, {"bike_id": "243410727d9d3bb693a038bde404e244", "type": "electric_scooter", "is_disabled": 0, "lat": 38.919859333333335, "rental_uris": {"ios": "https://dc.lft.to/lastmile_qr_scan", "android": "https://dc.lft.to/lastmile_qr_scan"}, "is_reserved": 0, "fusion_lon": 0.0, "fusion_lat": 0.0, "lon": -77.03325116666667, "name": "243410727d9d3bb693a038bde404e244"}, {"bike_id": "2e8e3253b513ba8bc1e2421ae455319f", "type": "electric_scooter", "is_disabled": 0, "lat": 38.88744783333333, "rental_uris": {"ios": "https://dc.lft.to/lastmile_qr_scan", "android": "https://dc.lft.to/lastmile_qr_scan"}, "is_reserved": 0, "fusion_lon": 0.0, "fusion_lat": 0.0, "lon": -77.01720883333333, "name": "2e8e3253b513ba8bc1e2421ae455319f"}, {"bike_id": "b1eadbee00b427d5977232814d0864f8", "type": "electric_scooter", "is_disabled": 0, "lat": 38.88719616666667, "rental_uris": {"ios": "https://dc.lft.to/lastmile_qr_scan", "android": "https://dc.lft.to/lastmile_qr_scan"}, "is_reserved": 0, "fusion_lon": 0.0, "fusion_lat": 0.0, "lon": -77.02175066666666, "name": "b1eadbee00b427d5977232814d0864f8"}, {"bike_id": "9f122efcd5c82f40ce570e90529eed5d", "type": "electric_scooter", "is_disabled": 0, "lat": 38.95639116666667, "rental_uris": {"ios": "https://dc.lft.to/lastmile_qr_scan", "android": "https://dc.lft.to/lastmile_qr_scan"}, "is_reserved": 0, "fusion_lon": 0.0, "fusion_lat": 0.0, "lon": -77.03629466666666, "name": "9f122efcd5c82f40ce570e90529eed5d"}, {"bike_id": "9fde9d720e4bdcb49dc04fd69e292a75", "type": "electric_bike", "is_disabled": 0, "lat": 38.9126725, "rental_uris": {"ios": "https://dc.lft.to/lastmile_qr_scan", "android": "https://dc.lft.to/lastmile_qr_scan"}, "is_reserved": 0, "fusion_lon": 0.0, "fusion_lat": 0.0, "lon": -77.04181666666666, "name": "9fde9d720e4bdcb49dc04fd69e292a75"}, {"bike_id": "37334c80f79bea97f6719d687c3f7641", "type": "electric_scooter", "is_disabled": 0, "lat": 38.9223735, "rental_uris": {"ios": "https://dc.lft.to/lastmile_qr_scan", "android": "https://dc.lft.to/lastmile_qr_scan"}, "is_reserved": 0, "fusion_lon": 0.0, "fusion_lat": 0.0, "lon": -77.04717333333333, "name": "37334c80f79bea97f6719d687c3f7641"}, {"bike_id": "1a4e5fe6a28beee631219fd24c41badc", "type": "electric_scooter", "is_disabled": 0, "lat": 38.88546266666667, "rental_uris": {"ios": "https://dc.lft.to/lastmile_qr_scan", "android": "https://dc.lft.to/lastmile_qr_scan"}, "is_reserved": 0, "fusion_lon": 0.0, "fusion_lat": 0.0, "lon": -77.00575483333333, "name": "1a4e5fe6a28beee631219fd24c41badc"}, {"bike_id": "56943d2258393f0a19d9e774f38fc427", "type": "electric_scooter", "is_disabled": 0, "lat": 38.8951655, "rental_uris": {"ios": "https://dc.lft.to/lastmile_qr_scan", "android": "https://dc.lft.to/lastmile_qr_scan"}, "is_reserved": 0, "fusion_lon": 0.0, "fusion_lat": 0.0, "lon": -77.04329616666666, "name": "56943d2258393f0a19d9e774f38fc427"}, {"bike_id": "0e889cba28b9270d5a4651ccf94aa7eb", "type": "electric_scooter", "is_disabled": 0, "lat": 38.907969666666666, "rental_uris": {"ios": "https://dc.lft.to/lastmile_qr_scan", "android": "https://dc.lft.to/lastmile_qr_scan"}, "is_reserved": 0, "fusion_lon": 0.0, "fusion_lat": 0.0, "lon": -77.02694916666667, "name": "0e889cba28b9270d5a4651ccf94aa7eb"}, {"bike_id": "5379f72627ebacfa8b968ccef578aa6b", "type": "electric_scooter", "is_disabled": 0, "lat": 38.93717616666667, "rental_uris": {"ios": "https://dc.lft.to/lastmile_qr_scan", "android": "https://dc.lft.to/lastmile_qr_scan"}, "is_reserved": 0, "fusion_lon": 0.0, "fusion_lat": 0.0, "lon": -77.03635216666666, "name": "5379f72627ebacfa8b968ccef578aa6b"}, {"bike_id": "e876a3ce978c8813a4cb5f493a40fa74", "type": "electric_bike", "is_disabled": 0, "lat": 39.051028, "rental_uris": {"ios": "https://dc.lft.to/lastmile_qr_scan", "android": "https://dc.lft.to/lastmile_qr_scan"}, "is_reserved": 0, "fusion_lon": 0.0, "fusion_lat": 0.0, "lon": -77.11740183333333, "name": "e876a3ce978c8813a4cb5f493a40fa74"}, {"bike_id": "6ff5c665d754f5a071cfe68d9eff1875", "type": "electric_scooter", "is_disabled": 0, "lat": 38.90356966666667, "rental_uris": {"ios": "https://dc.lft.to/lastmile_qr_scan", "android": "https://dc.lft.to/lastmile_qr_scan"}, "is_reserved": 0, "fusion_lon": 0.0, "fusion_lat": 0.0, "lon": -76.99221883333334, "name": "6ff5c665d754f5a071cfe68d9eff1875"}, {"bike_id": "f9a9f5e1486bea37c35480892bb42ad1", "type": "electric_scooter", "is_disabled": 0, "lat": 38.90309033333333, "rental_uris": {"ios": "https://dc.lft.to/lastmile_qr_scan", "android": "https://dc.lft.to/lastmile_qr_scan"}, "is_reserved": 0, "fusion_lon": 0.0, "fusion_lat": 0.0, "lon": -77.05058483333333, "name": "f9a9f5e1486bea37c35480892bb42ad1"}, {"bike_id": "8fd6300047a7129a0a57421e7d8b037b", "type": "electric_scooter", "is_disabled": 0, "lat": 38.8922915, "rental_uris": {"ios": "https://dc.lft.to/lastmile_qr_scan", "android": "https://dc.lft.to/lastmile_qr_scan"}, "is_reserved": 0, "fusion_lon": 0.0, "fusion_lat": 0.0, "lon": -77.04509516666667, "name": "8fd6300047a7129a0a57421e7d8b037b"}, {"bike_id": "27126603b67aa86ae375bba49c2ad1bb", "type": "electric_scooter", "is_disabled": 0, "lat": 38.92902, "rental_uris": {"ios": "https://dc.lft.to/lastmile_qr_scan", "android": "https://dc.lft.to/lastmile_qr_scan"}, "is_reserved": 0, "fusion_lon": 0.0, "fusion_lat": 0.0, "lon": -77.0329225, "name": "27126603b67aa86ae375bba49c2ad1bb"}, {"bike_id": "124f18b2ab0838ee0de6e815c38b94da", "type": "electric_scooter", "is_disabled": 0, "lat": 38.92384233333333, "rental_uris": {"ios": "https://dc.lft.to/lastmile_qr_scan", "android": "https://dc.lft.to/lastmile_qr_scan"}, "is_reserved": 0, "fusion_lon": 0.0, "fusion_lat": 0.0, "lon": -77.02822016666667, "name": "124f18b2ab0838ee0de6e815c38b94da"}, {"bike_id": "4a6175ab96b6de559f92d868817cc421", "type": "electric_scooter", "is_disabled": 0, "lat": 38.902681333333334, "rental_uris": {"ios": "https://dc.lft.to/lastmile_qr_scan", "android": "https://dc.lft.to/lastmile_qr_scan"}, "is_reserved": 0, "fusion_lon": 0.0, "fusion_lat": 0.0, "lon": -77.00327983333334, "name": "4a6175ab96b6de559f92d868817cc421"}, {"bike_id": "724ba1c694780ae5338e5f430f25ddce", "type": "electric_scooter", "is_disabled": 0, "lat": 38.900472, "rental_uris": {"ios": "https://dc.lft.to/lastmile_qr_scan", "android": "https://dc.lft.to/lastmile_qr_scan"}, "is_reserved": 0, "fusion_lon": 0.0, "fusion_lat": 0.0, "lon": -77.002122, "name": "724ba1c694780ae5338e5f430f25ddce"}, {"bike_id": "6f48e41149333f0cdbd7c537473b4742", "type": "electric_bike", "is_disabled": 0, "lat": 39.03420916666666, "rental_uris": {"ios": "https://dc.lft.to/lastmile_qr_scan", "android": "https://dc.lft.to/lastmile_qr_scan"}, "is_reserved": 0, "fusion_lon": 0.0, "fusion_lat": 0.0, "lon": -77.04164116666666, "name": "6f48e41149333f0cdbd7c537473b4742"}, {"bike_id": "709bce7e766cd5a5a3e89c8f6a9e6a6d", "type": "electric_scooter", "is_disabled": 0, "lat": 38.92348066666667, "rental_uris": {"ios": "https://dc.lft.to/lastmile_qr_scan", "android": "https://dc.lft.to/lastmile_qr_scan"}, "is_reserved": 0, "fusion_lon": 0.0, "fusion_lat": 0.0, "lon": -77.03901083333334, "name": "709bce7e766cd5a5a3e89c8f6a9e6a6d"}, {"bike_id": "4dbea4c7f1223ced489771d1bec997c9", "type": "electric_scooter", "is_disabled": 0, "lat": 38.917174333333335, "rental_uris": {"ios": "https://dc.lft.to/lastmile_qr_scan", "android": "https://dc.lft.to/lastmile_qr_scan"}, "is_reserved": 0, "fusion_lon": 0.0, "fusion_lat": 0.0, "lon": -77.04154166666666, "name": "4dbea4c7f1223ced489771d1bec997c9"}, {"bike_id": "596c34738d73bb342daff248e20638d7", "type": "electric_scooter", "is_disabled": 0, "lat": 38.929544166666666, "rental_uris": {"ios": "https://dc.lft.to/lastmile_qr_scan", "android": "https://dc.lft.to/lastmile_qr_scan"}, "is_reserved": 0, "fusion_lon": 0.0, "fusion_lat": 0.0, "lon": -77.03470866666666, "name": "596c34738d73bb342daff248e20638d7"}, {"bike_id": "8871b100881a13b36fb23d695345ecae", "type": "electric_scooter", "is_disabled": 0, "lat": 38.89232283333333, "rental_uris": {"ios": "https://dc.lft.to/lastmile_qr_scan", "android": "https://dc.lft.to/lastmile_qr_scan"}, "is_reserved": 0, "fusion_lon": 0.0, "fusion_lat": 0.0, "lon": -77.05004233333334, "name": "8871b100881a13b36fb23d695345ecae"}, {"bike_id": "646855ba67288efa0d026cb2dcc7696c", "type": "electric_scooter", "is_disabled": 0, "lat": 38.881272333333335, "rental_uris": {"ios": "https://dc.lft.to/lastmile_qr_scan", "android": "https://dc.lft.to/lastmile_qr_scan"}, "is_reserved": 0, "fusion_lon": 0.0, "fusion_lat": 0.0, "lon": -77.01653033333334, "name": "646855ba67288efa0d026cb2dcc7696c"}, {"bike_id": "c0d54a39387e3a34824bf91d54409c50", "type": "electric_scooter", "is_disabled": 0, "lat": 38.8818445, "rental_uris": {"ios": "https://dc.lft.to/lastmile_qr_scan", "android": "https://dc.lft.to/lastmile_qr_scan"}, "is_reserved": 0, "fusion_lon": 0.0, "fusion_lat": 0.0, "lon": -77.02808983333334, "name": "c0d54a39387e3a34824bf91d54409c50"}, {"bike_id": "66ed809a183caeb1e572d2c1ec903a8d", "type": "electric_scooter", "is_disabled": 0, "lat": 38.8845285, "rental_uris": {"ios": "https://dc.lft.to/lastmile_qr_scan", "android": "https://dc.lft.to/lastmile_qr_scan"}, "is_reserved": 0, "fusion_lon": 0.0, "fusion_lat": 0.0, "lon": -76.95095533333334, "name": "66ed809a183caeb1e572d2c1ec903a8d"}, {"bike_id": "bd59ee553508a8440265e556b09c119a", "type": "electric_scooter", "is_disabled": 0, "lat": 38.914096, "rental_uris": {"ios": "https://dc.lft.to/lastmile_qr_scan", "android": "https://dc.lft.to/lastmile_qr_scan"}, "is_reserved": 0, "fusion_lon": 0.0, "fusion_lat": 0.0, "lon": -77.03170716666666, "name": "bd59ee553508a8440265e556b09c119a"}, {"bike_id": "9fc9a085d3bee55954d5d03ea90c4d90", "type": "electric_scooter", "is_disabled": 0, "lat": 38.91115833333333, "rental_uris": {"ios": "https://dc.lft.to/lastmile_qr_scan", "android": "https://dc.lft.to/lastmile_qr_scan"}, "is_reserved": 0, "fusion_lon": 0.0, "fusion_lat": 0.0, "lon": -77.03246733333333, "name": "9fc9a085d3bee55954d5d03ea90c4d90"}, {"bike_id": "2dc134c3b1eff89fb0aeb0cf46eb728a", "type": "electric_bike", "is_disabled": 0, "lat": 39.056369, "rental_uris": {"ios": "https://dc.lft.to/lastmile_qr_scan", "android": "https://dc.lft.to/lastmile_qr_scan"}, "is_reserved": 0, "fusion_lon": 0.0, "fusion_lat": 0.0, "lon": -77.12528866666666, "name": "2dc134c3b1eff89fb0aeb0cf46eb728a"}, {"bike_id": "2af28b6e2002e86b4bf0259fbc0bc86c", "type": "electric_scooter", "is_disabled": 0, "lat": 38.92338983333333, "rental_uris": {"ios": "https://dc.lft.to/lastmile_qr_scan", "android": "https://dc.lft.to/lastmile_qr_scan"}, "is_reserved": 0, "fusion_lon": 0.0, "fusion_lat": 0.0, "lon": -77.0530055, "name": "2af28b6e2002e86b4bf0259fbc0bc86c"}, {"bike_id": "b8844e50bf66b0c03cc70a2bc86459f8", "type": "electric_scooter", "is_disabled": 0, "lat": 38.90973866666667, "rental_uris": {"ios": "https://dc.lft.to/lastmile_qr_scan", "android": "https://dc.lft.to/lastmile_qr_scan"}, "is_reserved": 0, "fusion_lon": 0.0, "fusion_lat": 0.0, "lon": -77.02711783333334, "name": "b8844e50bf66b0c03cc70a2bc86459f8"}, {"bike_id": "2c58cab7ec618d6eaca7c6bcca2d2574", "type": "electric_scooter", "is_disabled": 0, "lat": 38.93283683333333, "rental_uris": {"ios": "https://dc.lft.to/lastmile_qr_scan", "android": "https://dc.lft.to/lastmile_qr_scan"}, "is_reserved": 0, "fusion_lon": 0.0, "fusion_lat": 0.0, "lon": -77.034941, "name": "2c58cab7ec618d6eaca7c6bcca2d2574"}, {"bike_id": "ba2d6b85b90be6ae99ee8378f330919d", "type": "electric_scooter", "is_disabled": 0, "lat": 38.938211, "rental_uris": {"ios": "https://dc.lft.to/lastmile_qr_scan", "android": "https://dc.lft.to/lastmile_qr_scan"}, "is_reserved": 0, "fusion_lon": 0.0, "fusion_lat": 0.0, "lon": -77.07166616666666, "name": "ba2d6b85b90be6ae99ee8378f330919d"}, {"bike_id": "ddca53448d5ae29d766e9474c3615a24", "type": "electric_scooter", "is_disabled": 0, "lat": 38.91796883333333, "rental_uris": {"ios": "https://dc.lft.to/lastmile_qr_scan", "android": "https://dc.lft.to/lastmile_qr_scan"}, "is_reserved": 0, "fusion_lon": 0.0, "fusion_lat": 0.0, "lon": -77.03204583333333, "name": "ddca53448d5ae29d766e9474c3615a24"}, {"bike_id": "b150e4c0661156e17b68d691f8e7ef53", "type": "electric_scooter", "is_disabled": 0, "lat": 38.942158666666664, "rental_uris": {"ios": "https://dc.lft.to/lastmile_qr_scan", "android": "https://dc.lft.to/lastmile_qr_scan"}, "is_reserved": 0, "fusion_lon": 0.0, "fusion_lat": 0.0, "lon": -77.025851, "name": "b150e4c0661156e17b68d691f8e7ef53"}, {"bike_id": "c48ca10bbc88f9d3b5bc3da5678c8171", "type": "electric_scooter", "is_disabled": 0, "lat": 38.907605833333335, "rental_uris": {"ios": "https://dc.lft.to/lastmile_qr_scan", "android": "https://dc.lft.to/lastmile_qr_scan"}, "is_reserved": 0, "fusion_lon": 0.0, "fusion_lat": 0.0, "lon": -77.0088015, "name": "c48ca10bbc88f9d3b5bc3da5678c8171"}, {"bike_id": "e47e971eac731add877f4467fbb9004e", "type": "electric_scooter", "is_disabled": 0, "lat": 38.8882455, "rental_uris": {"ios": "https://dc.lft.to/lastmile_qr_scan", "android": "https://dc.lft.to/lastmile_qr_scan"}, "is_reserved": 0, "fusion_lon": 0.0, "fusion_lat": 0.0, "lon": -76.99160983333333, "name": "e47e971eac731add877f4467fbb9004e"}, {"bike_id": "98e5e597eb0d07eda90ddb01f47046c5", "type": "electric_scooter", "is_disabled": 0, "lat": 38.92141133333333, "rental_uris": {"ios": "https://dc.lft.to/lastmile_qr_scan", "android": "https://dc.lft.to/lastmile_qr_scan"}, "is_reserved": 0, "fusion_lon": 0.0, "fusion_lat": 0.0, "lon": -77.01796516666667, "name": "98e5e597eb0d07eda90ddb01f47046c5"}, {"bike_id": "678bc6a0ce10ecbbe3cc4959e1911524", "type": "electric_scooter", "is_disabled": 0, "lat": 38.92346166666667, "rental_uris": {"ios": "https://dc.lft.to/lastmile_qr_scan", "android": "https://dc.lft.to/lastmile_qr_scan"}, "is_reserved": 0, "fusion_lon": 0.0, "fusion_lat": 0.0, "lon": -77.0511835, "name": "678bc6a0ce10ecbbe3cc4959e1911524"}, {"bike_id": "1cf530775900384ea31578be882ea285", "type": "electric_scooter", "is_disabled": 0, "lat": 38.88527366666667, "rental_uris": {"ios": "https://dc.lft.to/lastmile_qr_scan", "android": "https://dc.lft.to/lastmile_qr_scan"}, "is_reserved": 0, "fusion_lon": 0.0, "fusion_lat": 0.0, "lon": -76.97708916666667, "name": "1cf530775900384ea31578be882ea285"}, {"bike_id": "349053c0c13f39456341ffdbbd9f09ff", "type": "electric_scooter", "is_disabled": 0, "lat": 38.920087333333335, "rental_uris": {"ios": "https://dc.lft.to/lastmile_qr_scan", "android": "https://dc.lft.to/lastmile_qr_scan"}, "is_reserved": 0, "fusion_lon": 0.0, "fusion_lat": 0.0, "lon": -77.081923, "name": "349053c0c13f39456341ffdbbd9f09ff"}, {"bike_id": "12bda417e311aa659f3b859169398866", "type": "electric_scooter", "is_disabled": 0, "lat": 38.93157033333333, "rental_uris": {"ios": "https://dc.lft.to/lastmile_qr_scan", "android": "https://dc.lft.to/lastmile_qr_scan"}, "is_reserved": 0, "fusion_lon": 0.0, "fusion_lat": 0.0, "lon": -77.03347316666667, "name": "12bda417e311aa659f3b859169398866"}, {"bike_id": "df1cd5c7a923ef05871a13b7a7b368d4", "type": "electric_scooter", "is_disabled": 0, "lat": 38.9434035, "rental_uris": {"ios": "https://dc.lft.to/lastmile_qr_scan", "android": "https://dc.lft.to/lastmile_qr_scan"}, "is_reserved": 0, "fusion_lon": 0.0, "fusion_lat": 0.0, "lon": -77.01479566666667, "name": "df1cd5c7a923ef05871a13b7a7b368d4"}, {"bike_id": "d9cacd27c53198e710a90d9c144eb87e", "type": "electric_scooter", "is_disabled": 0, "lat": 38.92056516666667, "rental_uris": {"ios": "https://dc.lft.to/lastmile_qr_scan", "android": "https://dc.lft.to/lastmile_qr_scan"}, "is_reserved": 0, "fusion_lon": 0.0, "fusion_lat": 0.0, "lon": -77.04180066666666, "name": "d9cacd27c53198e710a90d9c144eb87e"}, {"bike_id": "b07d7fb940804f97c0be4d9687b983cb", "type": "electric_scooter", "is_disabled": 0, "lat": 38.91981616666666, "rental_uris": {"ios": "https://dc.lft.to/lastmile_qr_scan", "android": "https://dc.lft.to/lastmile_qr_scan"}, "is_reserved": 0, "fusion_lon": 0.0, "fusion_lat": 0.0, "lon": -77.07094416666666, "name": "b07d7fb940804f97c0be4d9687b983cb"}, {"bike_id": "0e20035c21599c4f07fe895989542e67", "type": "electric_scooter", "is_disabled": 0, "lat": 38.91332366666666, "rental_uris": {"ios": "https://dc.lft.to/lastmile_qr_scan", "android": "https://dc.lft.to/lastmile_qr_scan"}, "is_reserved": 0, "fusion_lon": 0.0, "fusion_lat": 0.0, "lon": -77.03188433333334, "name": "0e20035c21599c4f07fe895989542e67"}, {"bike_id": "0f4a6b6bee290fcd939182fe5765954e", "type": "electric_scooter", "is_disabled": 0, "lat": 38.90827, "rental_uris": {"ios": "https://dc.lft.to/lastmile_qr_scan", "android": "https://dc.lft.to/lastmile_qr_scan"}, "is_reserved": 0, "fusion_lon": 0.0, "fusion_lat": 0.0, "lon": -77.03195883333333, "name": "0f4a6b6bee290fcd939182fe5765954e"}, {"bike_id": "8f18c3d17430a63b65e774bb568efe5b", "type": "electric_scooter", "is_disabled": 0, "lat": 38.91430316666667, "rental_uris": {"ios": "https://dc.lft.to/lastmile_qr_scan", "android": "https://dc.lft.to/lastmile_qr_scan"}, "is_reserved": 0, "fusion_lon": 0.0, "fusion_lat": 0.0, "lon": -77.01981566666667, "name": "8f18c3d17430a63b65e774bb568efe5b"}, {"bike_id": "acfb57fe9998cd3459b36093ad17092d", "type": "electric_scooter", "is_disabled": 0, "lat": 38.928748, "rental_uris": {"ios": "https://dc.lft.to/lastmile_qr_scan", "android": "https://dc.lft.to/lastmile_qr_scan"}, "is_reserved": 0, "fusion_lon": 0.0, "fusion_lat": 0.0, "lon": -77.02770383333333, "name": "acfb57fe9998cd3459b36093ad17092d"}, {"bike_id": "317f9dedc5353b000f2af0e9da989c95", "type": "electric_bike", "is_disabled": 0, "lat": 38.88332033333333, "rental_uris": {"ios": "https://dc.lft.to/lastmile_qr_scan", "android": "https://dc.lft.to/lastmile_qr_scan"}, "is_reserved": 0, "fusion_lon": 0.0, "fusion_lat": 0.0, "lon": -76.96054116666667, "name": "317f9dedc5353b000f2af0e9da989c95"}, {"bike_id": "05ae8d3984fea71c00efaef525f1fa5f", "type": "electric_scooter", "is_disabled": 0, "lat": 38.92159483333333, "rental_uris": {"ios": "https://dc.lft.to/lastmile_qr_scan", "android": "https://dc.lft.to/lastmile_qr_scan"}, "is_reserved": 0, "fusion_lon": 0.0, "fusion_lat": 0.0, "lon": -77.0339085, "name": "05ae8d3984fea71c00efaef525f1fa5f"}, {"bike_id": "92e9ff973a44497d7da1aab08ffa3aee", "type": "electric_scooter", "is_disabled": 0, "lat": 38.909693833333336, "rental_uris": {"ios": "https://dc.lft.to/lastmile_qr_scan", "android": "https://dc.lft.to/lastmile_qr_scan"}, "is_reserved": 0, "fusion_lon": 0.0, "fusion_lat": 0.0, "lon": -77.02174666666667, "name": "92e9ff973a44497d7da1aab08ffa3aee"}, {"bike_id": "332e43a596e0febb5a255827df6de976", "type": "electric_scooter", "is_disabled": 0, "lat": 38.93148166666667, "rental_uris": {"ios": "https://dc.lft.to/lastmile_qr_scan", "android": "https://dc.lft.to/lastmile_qr_scan"}, "is_reserved": 0, "fusion_lon": 0.0, "fusion_lat": 0.0, "lon": -77.033599, "name": "332e43a596e0febb5a255827df6de976"}, {"bike_id": "104a055835b6f48ed470d10d79c141c5", "type": "electric_scooter", "is_disabled": 0, "lat": 38.883864, "rental_uris": {"ios": "https://dc.lft.to/lastmile_qr_scan", "android": "https://dc.lft.to/lastmile_qr_scan"}, "is_reserved": 0, "fusion_lon": 0.0, "fusion_lat": 0.0, "lon": -76.98520716666667, "name": "104a055835b6f48ed470d10d79c141c5"}, {"bike_id": "88621850ace0dc29f34a33d27aaa9071", "type": "electric_scooter", "is_disabled": 0, "lat": 38.90470366666667, "rental_uris": {"ios": "https://dc.lft.to/lastmile_qr_scan", "android": "https://dc.lft.to/lastmile_qr_scan"}, "is_reserved": 0, "fusion_lon": 0.0, "fusion_lat": 0.0, "lon": -77.04353283333333, "name": "88621850ace0dc29f34a33d27aaa9071"}, {"bike_id": "634f0c001af20f3119dc6c23f024bd49", "type": "electric_scooter", "is_disabled": 0, "lat": 38.881289, "rental_uris": {"ios": "https://dc.lft.to/lastmile_qr_scan", "android": "https://dc.lft.to/lastmile_qr_scan"}, "is_reserved": 0, "fusion_lon": 0.0, "fusion_lat": 0.0, "lon": -77.01645833333333, "name": "634f0c001af20f3119dc6c23f024bd49"}, {"bike_id": "c8a183109400405a3b9e774d13d9e3ff", "type": "electric_scooter", "is_disabled": 0, "lat": 38.91391316666667, "rental_uris": {"ios": "https://dc.lft.to/lastmile_qr_scan", "android": "https://dc.lft.to/lastmile_qr_scan"}, "is_reserved": 0, "fusion_lon": 0.0, "fusion_lat": 0.0, "lon": -77.0321225, "name": "c8a183109400405a3b9e774d13d9e3ff"}, {"bike_id": "67a929f1ca2cd03382198b68c85cb69f", "type": "electric_scooter", "is_disabled": 0, "lat": 38.87378316666667, "rental_uris": {"ios": "https://dc.lft.to/lastmile_qr_scan", "android": "https://dc.lft.to/lastmile_qr_scan"}, "is_reserved": 0, "fusion_lon": 0.0, "fusion_lat": 0.0, "lon": -77.001122, "name": "67a929f1ca2cd03382198b68c85cb69f"}, {"bike_id": "bba1864ffae6bf5e36bf65a06f9ffb5f", "type": "electric_scooter", "is_disabled": 0, "lat": 38.8922025, "rental_uris": {"ios": "https://dc.lft.to/lastmile_qr_scan", "android": "https://dc.lft.to/lastmile_qr_scan"}, "is_reserved": 0, "fusion_lon": 0.0, "fusion_lat": 0.0, "lon": -77.03025183333334, "name": "bba1864ffae6bf5e36bf65a06f9ffb5f"}, {"bike_id": "5c58ef869fd6aee522f0a6782f4a7953", "type": "electric_scooter", "is_disabled": 0, "lat": 38.921573, "rental_uris": {"ios": "https://dc.lft.to/lastmile_qr_scan", "android": "https://dc.lft.to/lastmile_qr_scan"}, "is_reserved": 0, "fusion_lon": 0.0, "fusion_lat": 0.0, "lon": -77.03513116666667, "name": "5c58ef869fd6aee522f0a6782f4a7953"}, {"bike_id": "5e561cb326ff7fd626566a92e4c3db03", "type": "electric_scooter", "is_disabled": 0, "lat": 38.912125833333334, "rental_uris": {"ios": "https://dc.lft.to/lastmile_qr_scan", "android": "https://dc.lft.to/lastmile_qr_scan"}, "is_reserved": 0, "fusion_lon": 0.0, "fusion_lat": 0.0, "lon": -77.04464083333333, "name": "5e561cb326ff7fd626566a92e4c3db03"}, {"bike_id": "d7a6b11925a0d5c98b8203f2bcd604f1", "type": "electric_bike", "is_disabled": 0, "lat": 38.932315833333334, "rental_uris": {"ios": "https://dc.lft.to/lastmile_qr_scan", "android": "https://dc.lft.to/lastmile_qr_scan"}, "is_reserved": 0, "fusion_lon": 0.0, "fusion_lat": 0.0, "lon": -77.181234, "name": "d7a6b11925a0d5c98b8203f2bcd604f1"}, {"bike_id": "324d5b0fbb94920b2a39174395540979", "type": "electric_scooter", "is_disabled": 0, "lat": 38.946426333333335, "rental_uris": {"ios": "https://dc.lft.to/lastmile_qr_scan", "android": "https://dc.lft.to/lastmile_qr_scan"}, "is_reserved": 0, "fusion_lon": 0.0, "fusion_lat": 0.0, "lon": -77.07918016666666, "name": "324d5b0fbb94920b2a39174395540979"}, {"bike_id": "683094005c888e8557ac6c0ff5b0f529", "type": "electric_scooter", "is_disabled": 0, "lat": 38.9047195, "rental_uris": {"ios": "https://dc.lft.to/lastmile_qr_scan", "android": "https://dc.lft.to/lastmile_qr_scan"}, "is_reserved": 0, "fusion_lon": 0.0, "fusion_lat": 0.0, "lon": -76.97613183333333, "name": "683094005c888e8557ac6c0ff5b0f529"}, {"bike_id": "1eada83c56ea9d8a6462d112344090cb", "type": "electric_scooter", "is_disabled": 0, "lat": 38.92476683333334, "rental_uris": {"ios": "https://dc.lft.to/lastmile_qr_scan", "android": "https://dc.lft.to/lastmile_qr_scan"}, "is_reserved": 0, "fusion_lon": 0.0, "fusion_lat": 0.0, "lon": -77.02717, "name": "1eada83c56ea9d8a6462d112344090cb"}, {"bike_id": "16994f55614527b1e709125cedd1f9f0", "type": "electric_scooter", "is_disabled": 0, "lat": 38.90687633333334, "rental_uris": {"ios": "https://dc.lft.to/lastmile_qr_scan", "android": "https://dc.lft.to/lastmile_qr_scan"}, "is_reserved": 0, "fusion_lon": 0.0, "fusion_lat": 0.0, "lon": -76.9800405, "name": "16994f55614527b1e709125cedd1f9f0"}, {"bike_id": "b26d7e8e6d888f0c767f2ed83d6edb49", "type": "electric_scooter", "is_disabled": 0, "lat": 38.916188166666664, "rental_uris": {"ios": "https://dc.lft.to/lastmile_qr_scan", "android": "https://dc.lft.to/lastmile_qr_scan"}, "is_reserved": 0, "fusion_lon": 0.0, "fusion_lat": 0.0, "lon": -77.0487355, "name": "b26d7e8e6d888f0c767f2ed83d6edb49"}, {"bike_id": "3da8155bdaa3c39af0f574b676334e53", "type": "electric_scooter", "is_disabled": 0, "lat": 38.87857783333333, "rental_uris": {"ios": "https://dc.lft.to/lastmile_qr_scan", "android": "https://dc.lft.to/lastmile_qr_scan"}, "is_reserved": 0, "fusion_lon": 0.0, "fusion_lat": 0.0, "lon": -77.0080375, "name": "3da8155bdaa3c39af0f574b676334e53"}, {"bike_id": "55df6965f11752a8ec05f399170e2e5b", "type": "electric_scooter", "is_disabled": 0, "lat": 38.90355666666667, "rental_uris": {"ios": "https://dc.lft.to/lastmile_qr_scan", "android": "https://dc.lft.to/lastmile_qr_scan"}, "is_reserved": 0, "fusion_lon": 0.0, "fusion_lat": 0.0, "lon": -76.974807, "name": "55df6965f11752a8ec05f399170e2e5b"}, {"bike_id": "d3f88120bf2a345636ae032ae4f54526", "type": "electric_scooter", "is_disabled": 0, "lat": 38.929676, "rental_uris": {"ios": "https://dc.lft.to/lastmile_qr_scan", "android": "https://dc.lft.to/lastmile_qr_scan"}, "is_reserved": 0, "fusion_lon": 0.0, "fusion_lat": 0.0, "lon": -77.04370716666666, "name": "d3f88120bf2a345636ae032ae4f54526"}, {"bike_id": "20bdd5931f68ae64a539718ad30506ee", "type": "electric_scooter", "is_disabled": 0, "lat": 38.89818316666667, "rental_uris": {"ios": "https://dc.lft.to/lastmile_qr_scan", "android": "https://dc.lft.to/lastmile_qr_scan"}, "is_reserved": 0, "fusion_lon": 0.0, "fusion_lat": 0.0, "lon": -77.03363416666667, "name": "20bdd5931f68ae64a539718ad30506ee"}, {"bike_id": "048a6000b30e1a6e89023f5a35da04d7", "type": "electric_scooter", "is_disabled": 0, "lat": 38.862517, "rental_uris": {"ios": "https://dc.lft.to/lastmile_qr_scan", "android": "https://dc.lft.to/lastmile_qr_scan"}, "is_reserved": 0, "fusion_lon": 0.0, "fusion_lat": 0.0, "lon": -76.99494866666667, "name": "048a6000b30e1a6e89023f5a35da04d7"}, {"bike_id": "edf28dff682a592bdb409a30e8c14ec3", "type": "electric_scooter", "is_disabled": 0, "lat": 38.9004115, "rental_uris": {"ios": "https://dc.lft.to/lastmile_qr_scan", "android": "https://dc.lft.to/lastmile_qr_scan"}, "is_reserved": 0, "fusion_lon": 0.0, "fusion_lat": 0.0, "lon": -77.001949, "name": "edf28dff682a592bdb409a30e8c14ec3"}, {"bike_id": "1ef2bff9fcfb4e49cd7250218ead6ed3", "type": "electric_scooter", "is_disabled": 0, "lat": 38.876519, "rental_uris": {"ios": "https://dc.lft.to/lastmile_qr_scan", "android": "https://dc.lft.to/lastmile_qr_scan"}, "is_reserved": 0, "fusion_lon": 0.0, "fusion_lat": 0.0, "lon": -76.96506333333333, "name": "1ef2bff9fcfb4e49cd7250218ead6ed3"}, {"bike_id": "0b4164354470ee07c2b8870ffd165c36", "type": "electric_scooter", "is_disabled": 0, "lat": 38.968518333333336, "rental_uris": {"ios": "https://dc.lft.to/lastmile_qr_scan", "android": "https://dc.lft.to/lastmile_qr_scan"}, "is_reserved": 0, "fusion_lon": 0.0, "fusion_lat": 0.0, "lon": -77.02725716666667, "name": "0b4164354470ee07c2b8870ffd165c36"}, {"bike_id": "9a0ed7ab1ba7c611866ae05b57c55058", "type": "electric_scooter", "is_disabled": 0, "lat": 38.861945166666665, "rental_uris": {"ios": "https://dc.lft.to/lastmile_qr_scan", "android": "https://dc.lft.to/lastmile_qr_scan"}, "is_reserved": 0, "fusion_lon": 0.0, "fusion_lat": 0.0, "lon": -76.95955, "name": "9a0ed7ab1ba7c611866ae05b57c55058"}, {"bike_id": "5ef795b08b5768a32ad4069af359e07a", "type": "electric_bike", "is_disabled": 0, "lat": 38.995333333333335, "rental_uris": {"ios": "https://dc.lft.to/lastmile_qr_scan", "android": "https://dc.lft.to/lastmile_qr_scan"}, "is_reserved": 0, "fusion_lon": 0.0, "fusion_lat": 0.0, "lon": -77.06947216666667, "name": "5ef795b08b5768a32ad4069af359e07a"}, {"bike_id": "f4dcd8e60eedfff64389bea8060209a1", "type": "electric_scooter", "is_disabled": 0, "lat": 38.89611383333333, "rental_uris": {"ios": "https://dc.lft.to/lastmile_qr_scan", "android": "https://dc.lft.to/lastmile_qr_scan"}, "is_reserved": 0, "fusion_lon": 0.0, "fusion_lat": 0.0, "lon": -77.04433833333333, "name": "f4dcd8e60eedfff64389bea8060209a1"}, {"bike_id": "c8ec639d805e21348436b14f954343fc", "type": "electric_scooter", "is_disabled": 0, "lat": 38.9002375, "rental_uris": {"ios": "https://dc.lft.to/lastmile_qr_scan", "android": "https://dc.lft.to/lastmile_qr_scan"}, "is_reserved": 0, "fusion_lon": 0.0, "fusion_lat": 0.0, "lon": -77.0116505, "name": "c8ec639d805e21348436b14f954343fc"}, {"bike_id": "fff84e6f693347e26b5b1943074bea39", "type": "electric_scooter", "is_disabled": 0, "lat": 38.92221966666666, "rental_uris": {"ios": "https://dc.lft.to/lastmile_qr_scan", "android": "https://dc.lft.to/lastmile_qr_scan"}, "is_reserved": 0, "fusion_lon": 0.0, "fusion_lat": 0.0, "lon": -77.043389, "name": "fff84e6f693347e26b5b1943074bea39"}, {"bike_id": "63cf91b2cc7fd8b3dd9e8d8e30e5a88c", "type": "electric_scooter", "is_disabled": 0, "lat": 38.9240555, "rental_uris": {"ios": "https://dc.lft.to/lastmile_qr_scan", "android": "https://dc.lft.to/lastmile_qr_scan"}, "is_reserved": 0, "fusion_lon": 0.0, "fusion_lat": 0.0, "lon": -76.99367433333333, "name": "63cf91b2cc7fd8b3dd9e8d8e30e5a88c"}, {"bike_id": "8815fd8b92e8eb55759d4ab2d4b6b22c", "type": "electric_scooter", "is_disabled": 0, "lat": 38.88545766666667, "rental_uris": {"ios": "https://dc.lft.to/lastmile_qr_scan", "android": "https://dc.lft.to/lastmile_qr_scan"}, "is_reserved": 0, "fusion_lon": 0.0, "fusion_lat": 0.0, "lon": -77.005717, "name": "8815fd8b92e8eb55759d4ab2d4b6b22c"}, {"bike_id": "982083e061541900045d62a4f4c01783", "type": "electric_bike", "is_disabled": 0, "lat": 39.013744, "rental_uris": {"ios": "https://dc.lft.to/lastmile_qr_scan", "android": "https://dc.lft.to/lastmile_qr_scan"}, "is_reserved": 0, "fusion_lon": 0.0, "fusion_lat": 0.0, "lon": -76.921351, "name": "982083e061541900045d62a4f4c01783"}, {"bike_id": "7fa577eda7fdbc849a56eb05832e9638", "type": "electric_scooter", "is_disabled": 0, "lat": 38.91424683333334, "rental_uris": {"ios": "https://dc.lft.to/lastmile_qr_scan", "android": "https://dc.lft.to/lastmile_qr_scan"}, "is_reserved": 0, "fusion_lon": 0.0, "fusion_lat": 0.0, "lon": -77.0198385, "name": "7fa577eda7fdbc849a56eb05832e9638"}, {"bike_id": "534d834770f1117dcef1a6b3d4101e24", "type": "electric_scooter", "is_disabled": 0, "lat": 38.922379, "rental_uris": {"ios": "https://dc.lft.to/lastmile_qr_scan", "android": "https://dc.lft.to/lastmile_qr_scan"}, "is_reserved": 0, "fusion_lon": 0.0, "fusion_lat": 0.0, "lon": -77.042467, "name": "534d834770f1117dcef1a6b3d4101e24"}, {"bike_id": "7d9724b921b2bf6add2017b00ed569cf", "type": "electric_scooter", "is_disabled": 0, "lat": 38.88539816666667, "rental_uris": {"ios": "https://dc.lft.to/lastmile_qr_scan", "android": "https://dc.lft.to/lastmile_qr_scan"}, "is_reserved": 0, "fusion_lon": 0.0, "fusion_lat": 0.0, "lon": -76.99826283333333, "name": "7d9724b921b2bf6add2017b00ed569cf"}, {"bike_id": "aef3f5eefc81649c1e4d57ea7ff3911a", "type": "electric_scooter", "is_disabled": 0, "lat": 38.887128, "rental_uris": {"ios": "https://dc.lft.to/lastmile_qr_scan", "android": "https://dc.lft.to/lastmile_qr_scan"}, "is_reserved": 0, "fusion_lon": 0.0, "fusion_lat": 0.0, "lon": -77.0177395, "name": "aef3f5eefc81649c1e4d57ea7ff3911a"}, {"bike_id": "a76764bf9c77b92036a89c586cd1a4ad", "type": "electric_scooter", "is_disabled": 0, "lat": 38.9208325, "rental_uris": {"ios": "https://dc.lft.to/lastmile_qr_scan", "android": "https://dc.lft.to/lastmile_qr_scan"}, "is_reserved": 0, "fusion_lon": 0.0, "fusion_lat": 0.0, "lon": -77.04195166666666, "name": "a76764bf9c77b92036a89c586cd1a4ad"}, {"bike_id": "89197a2cbdbde07e3126613f0eb3882f", "type": "electric_scooter", "is_disabled": 0, "lat": 38.92087683333333, "rental_uris": {"ios": "https://dc.lft.to/lastmile_qr_scan", "android": "https://dc.lft.to/lastmile_qr_scan"}, "is_reserved": 0, "fusion_lon": 0.0, "fusion_lat": 0.0, "lon": -77.02302483333334, "name": "89197a2cbdbde07e3126613f0eb3882f"}, {"bike_id": "dde98f3e1397a08d494da7bef68ea41b", "type": "electric_scooter", "is_disabled": 0, "lat": 38.91384716666666, "rental_uris": {"ios": "https://dc.lft.to/lastmile_qr_scan", "android": "https://dc.lft.to/lastmile_qr_scan"}, "is_reserved": 0, "fusion_lon": 0.0, "fusion_lat": 0.0, "lon": -77.032112, "name": "dde98f3e1397a08d494da7bef68ea41b"}, {"bike_id": "d982c8fe9d2e71c78123992e1bcf5408", "type": "electric_bike", "is_disabled": 0, "lat": 38.924717, "rental_uris": {"ios": "https://dc.lft.to/lastmile_qr_scan", "android": "https://dc.lft.to/lastmile_qr_scan"}, "is_reserved": 0, "fusion_lon": 0.0, "fusion_lat": 0.0, "lon": -77.03918516666667, "name": "d982c8fe9d2e71c78123992e1bcf5408"}, {"bike_id": "90ab9aeffc21711e732c93582833eda1", "type": "electric_scooter", "is_disabled": 0, "lat": 38.896078833333334, "rental_uris": {"ios": "https://dc.lft.to/lastmile_qr_scan", "android": "https://dc.lft.to/lastmile_qr_scan"}, "is_reserved": 0, "fusion_lon": 0.0, "fusion_lat": 0.0, "lon": -77.0092385, "name": "90ab9aeffc21711e732c93582833eda1"}, {"bike_id": "de035f2a53c998f3f79681329e05fc21", "type": "electric_scooter", "is_disabled": 0, "lat": 38.90822466666667, "rental_uris": {"ios": "https://dc.lft.to/lastmile_qr_scan", "android": "https://dc.lft.to/lastmile_qr_scan"}, "is_reserved": 0, "fusion_lon": 0.0, "fusion_lat": 0.0, "lon": -76.99710533333334, "name": "de035f2a53c998f3f79681329e05fc21"}, {"bike_id": "d9a2bc2353f1d23dc0b65a7695073627", "type": "electric_scooter", "is_disabled": 0, "lat": 38.915684166666665, "rental_uris": {"ios": "https://dc.lft.to/lastmile_qr_scan", "android": "https://dc.lft.to/lastmile_qr_scan"}, "is_reserved": 0, "fusion_lon": 0.0, "fusion_lat": 0.0, "lon": -77.0201585, "name": "d9a2bc2353f1d23dc0b65a7695073627"}, {"bike_id": "03ec3131c433630cfac789acf625a482", "type": "electric_scooter", "is_disabled": 0, "lat": 38.917786166666666, "rental_uris": {"ios": "https://dc.lft.to/lastmile_qr_scan", "android": "https://dc.lft.to/lastmile_qr_scan"}, "is_reserved": 0, "fusion_lon": 0.0, "fusion_lat": 0.0, "lon": -77.02952783333333, "name": "03ec3131c433630cfac789acf625a482"}, {"bike_id": "83bac69cd9857ab86be4719b49843c30", "type": "electric_scooter", "is_disabled": 0, "lat": 38.92445633333333, "rental_uris": {"ios": "https://dc.lft.to/lastmile_qr_scan", "android": "https://dc.lft.to/lastmile_qr_scan"}, "is_reserved": 0, "fusion_lon": 0.0, "fusion_lat": 0.0, "lon": -77.029617, "name": "83bac69cd9857ab86be4719b49843c30"}, {"bike_id": "050a8affeea05fa2ca63f451d79545b9", "type": "electric_scooter", "is_disabled": 0, "lat": 38.92160966666667, "rental_uris": {"ios": "https://dc.lft.to/lastmile_qr_scan", "android": "https://dc.lft.to/lastmile_qr_scan"}, "is_reserved": 0, "fusion_lon": 0.0, "fusion_lat": 0.0, "lon": -77.03464333333334, "name": "050a8affeea05fa2ca63f451d79545b9"}, {"bike_id": "0655e918e405f197899fc56ef2085f4a", "type": "electric_scooter", "is_disabled": 0, "lat": 38.922903166666664, "rental_uris": {"ios": "https://dc.lft.to/lastmile_qr_scan", "android": "https://dc.lft.to/lastmile_qr_scan"}, "is_reserved": 0, "fusion_lon": 0.0, "fusion_lat": 0.0, "lon": -77.029654, "name": "0655e918e405f197899fc56ef2085f4a"}, {"bike_id": "385788a6f38e53c6fdd83b53aeaf9140", "type": "electric_bike", "is_disabled": 0, "lat": 38.85521116666666, "rental_uris": {"ios": "https://dc.lft.to/lastmile_qr_scan", "android": "https://dc.lft.to/lastmile_qr_scan"}, "is_reserved": 0, "fusion_lon": 0.0, "fusion_lat": 0.0, "lon": -77.12051066666666, "name": "385788a6f38e53c6fdd83b53aeaf9140"}, {"bike_id": "31b2334dce17b1507ee2309ad622584e", "type": "electric_scooter", "is_disabled": 0, "lat": 38.95002816666667, "rental_uris": {"ios": "https://dc.lft.to/lastmile_qr_scan", "android": "https://dc.lft.to/lastmile_qr_scan"}, "is_reserved": 0, "fusion_lon": 0.0, "fusion_lat": 0.0, "lon": -77.01844816666667, "name": "31b2334dce17b1507ee2309ad622584e"}, {"bike_id": "6c1eccb5bd6cab4237f009b49fcedade", "type": "electric_scooter", "is_disabled": 0, "lat": 38.844421833333335, "rental_uris": {"ios": "https://dc.lft.to/lastmile_qr_scan", "android": "https://dc.lft.to/lastmile_qr_scan"}, "is_reserved": 0, "fusion_lon": 0.0, "fusion_lat": 0.0, "lon": -76.99868866666667, "name": "6c1eccb5bd6cab4237f009b49fcedade"}, {"bike_id": "8e73b17cd9e60965e162017e4f0977bb", "type": "electric_scooter", "is_disabled": 0, "lat": 38.911097833333336, "rental_uris": {"ios": "https://dc.lft.to/lastmile_qr_scan", "android": "https://dc.lft.to/lastmile_qr_scan"}, "is_reserved": 0, "fusion_lon": 0.0, "fusion_lat": 0.0, "lon": -77.00214216666667, "name": "8e73b17cd9e60965e162017e4f0977bb"}, {"bike_id": "911340b4f78763c7e68ca43b736eefd7", "type": "electric_scooter", "is_disabled": 0, "lat": 38.90257033333334, "rental_uris": {"ios": "https://dc.lft.to/lastmile_qr_scan", "android": "https://dc.lft.to/lastmile_qr_scan"}, "is_reserved": 0, "fusion_lon": 0.0, "fusion_lat": 0.0, "lon": -77.01912966666667, "name": "911340b4f78763c7e68ca43b736eefd7"}, {"bike_id": "b8a03af4721ddf58db03598bdd67cecc", "type": "electric_bike", "is_disabled": 0, "lat": 38.99096933333333, "rental_uris": {"ios": "https://dc.lft.to/lastmile_qr_scan", "android": "https://dc.lft.to/lastmile_qr_scan"}, "is_reserved": 0, "fusion_lon": 0.0, "fusion_lat": 0.0, "lon": -76.99369883333334, "name": "b8a03af4721ddf58db03598bdd67cecc"}, {"bike_id": "640149f580832e93d92aca6180b6f571", "type": "electric_scooter", "is_disabled": 0, "lat": 38.883166833333334, "rental_uris": {"ios": "https://dc.lft.to/lastmile_qr_scan", "android": "https://dc.lft.to/lastmile_qr_scan"}, "is_reserved": 0, "fusion_lon": 0.0, "fusion_lat": 0.0, "lon": -77.00348433333333, "name": "640149f580832e93d92aca6180b6f571"}, {"bike_id": "3f87bc8d002468210044c279a7ce9f19", "type": "electric_scooter", "is_disabled": 0, "lat": 38.915645166666664, "rental_uris": {"ios": "https://dc.lft.to/lastmile_qr_scan", "android": "https://dc.lft.to/lastmile_qr_scan"}, "is_reserved": 0, "fusion_lon": 0.0, "fusion_lat": 0.0, "lon": -77.03140433333333, "name": "3f87bc8d002468210044c279a7ce9f19"}, {"bike_id": "c55c151b269b8cc8c24e4c065981326b", "type": "electric_scooter", "is_disabled": 0, "lat": 38.93663816666667, "rental_uris": {"ios": "https://dc.lft.to/lastmile_qr_scan", "android": "https://dc.lft.to/lastmile_qr_scan"}, "is_reserved": 0, "fusion_lon": 0.0, "fusion_lat": 0.0, "lon": -77.0549745, "name": "c55c151b269b8cc8c24e4c065981326b"}, {"bike_id": "8ce24a9e2c05ef305b73255237470247", "type": "electric_scooter", "is_disabled": 0, "lat": 38.925728166666666, "rental_uris": {"ios": "https://dc.lft.to/lastmile_qr_scan", "android": "https://dc.lft.to/lastmile_qr_scan"}, "is_reserved": 0, "fusion_lon": 0.0, "fusion_lat": 0.0, "lon": -77.03777516666666, "name": "8ce24a9e2c05ef305b73255237470247"}, {"bike_id": "a7c08f944f77d75f4438db045be2b978", "type": "electric_scooter", "is_disabled": 0, "lat": 38.859014333333334, "rental_uris": {"ios": "https://dc.lft.to/lastmile_qr_scan", "android": "https://dc.lft.to/lastmile_qr_scan"}, "is_reserved": 0, "fusion_lon": 0.0, "fusion_lat": 0.0, "lon": -76.99730966666667, "name": "a7c08f944f77d75f4438db045be2b978"}, {"bike_id": "bd14bc6b95e9aaf815b16145274796ca", "type": "electric_scooter", "is_disabled": 0, "lat": 38.892441166666664, "rental_uris": {"ios": "https://dc.lft.to/lastmile_qr_scan", "android": "https://dc.lft.to/lastmile_qr_scan"}, "is_reserved": 0, "fusion_lon": 0.0, "fusion_lat": 0.0, "lon": -77.04496483333334, "name": "bd14bc6b95e9aaf815b16145274796ca"}, {"bike_id": "e29e2ab9323eb71501b2f4132c5ae081", "type": "electric_scooter", "is_disabled": 0, "lat": 38.87744883333333, "rental_uris": {"ios": "https://dc.lft.to/lastmile_qr_scan", "android": "https://dc.lft.to/lastmile_qr_scan"}, "is_reserved": 0, "fusion_lon": 0.0, "fusion_lat": 0.0, "lon": -77.00476066666667, "name": "e29e2ab9323eb71501b2f4132c5ae081"}, {"bike_id": "55e284ece1611bb097ac9a4b265a6c82", "type": "electric_scooter", "is_disabled": 0, "lat": 38.878191, "rental_uris": {"ios": "https://dc.lft.to/lastmile_qr_scan", "android": "https://dc.lft.to/lastmile_qr_scan"}, "is_reserved": 0, "fusion_lon": 0.0, "fusion_lat": 0.0, "lon": -76.97170783333334, "name": "55e284ece1611bb097ac9a4b265a6c82"}, {"bike_id": "f136a534ef41825d2eabe497342fdaa6", "type": "electric_scooter", "is_disabled": 0, "lat": 38.890020666666665, "rental_uris": {"ios": "https://dc.lft.to/lastmile_qr_scan", "android": "https://dc.lft.to/lastmile_qr_scan"}, "is_reserved": 0, "fusion_lon": 0.0, "fusion_lat": 0.0, "lon": -77.048943, "name": "f136a534ef41825d2eabe497342fdaa6"}, {"bike_id": "a47e4e94a2f03d56a739d61b9856415a", "type": "electric_scooter", "is_disabled": 0, "lat": 38.937728166666666, "rental_uris": {"ios": "https://dc.lft.to/lastmile_qr_scan", "android": "https://dc.lft.to/lastmile_qr_scan"}, "is_reserved": 0, "fusion_lon": 0.0, "fusion_lat": 0.0, "lon": -77.0196755, "name": "a47e4e94a2f03d56a739d61b9856415a"}, {"bike_id": "10b832f21ee1d44fe6395f46dd971e78", "type": "electric_scooter", "is_disabled": 0, "lat": 38.899876666666664, "rental_uris": {"ios": "https://dc.lft.to/lastmile_qr_scan", "android": "https://dc.lft.to/lastmile_qr_scan"}, "is_reserved": 0, "fusion_lon": 0.0, "fusion_lat": 0.0, "lon": -76.94998083333333, "name": "10b832f21ee1d44fe6395f46dd971e78"}, {"bike_id": "4a89ff7d684777e26058c21320d4d491", "type": "electric_scooter", "is_disabled": 0, "lat": 38.90757833333333, "rental_uris": {"ios": "https://dc.lft.to/lastmile_qr_scan", "android": "https://dc.lft.to/lastmile_qr_scan"}, "is_reserved": 0, "fusion_lon": 0.0, "fusion_lat": 0.0, "lon": -77.0317525, "name": "4a89ff7d684777e26058c21320d4d491"}, {"bike_id": "cf0b0b7f58111e3c2d03f2852e0cfd02", "type": "electric_scooter", "is_disabled": 0, "lat": 38.90336116666667, "rental_uris": {"ios": "https://dc.lft.to/lastmile_qr_scan", "android": "https://dc.lft.to/lastmile_qr_scan"}, "is_reserved": 0, "fusion_lon": 0.0, "fusion_lat": 0.0, "lon": -77.02899016666667, "name": "cf0b0b7f58111e3c2d03f2852e0cfd02"}, {"bike_id": "e8f557cd1f00107c1de17cb8a27a7c35", "type": "electric_scooter", "is_disabled": 0, "lat": 38.874793833333335, "rental_uris": {"ios": "https://dc.lft.to/lastmile_qr_scan", "android": "https://dc.lft.to/lastmile_qr_scan"}, "is_reserved": 0, "fusion_lon": 0.0, "fusion_lat": 0.0, "lon": -77.01064683333334, "name": "e8f557cd1f00107c1de17cb8a27a7c35"}, {"bike_id": "5e1eb83a4469c4800f1f9572731400a2", "type": "electric_scooter", "is_disabled": 0, "lat": 38.92974383333333, "rental_uris": {"ios": "https://dc.lft.to/lastmile_qr_scan", "android": "https://dc.lft.to/lastmile_qr_scan"}, "is_reserved": 0, "fusion_lon": 0.0, "fusion_lat": 0.0, "lon": -77.0279205, "name": "5e1eb83a4469c4800f1f9572731400a2"}, {"bike_id": "3f0af630df587e757d1a319019ea5814", "type": "electric_scooter", "is_disabled": 0, "lat": 38.90749, "rental_uris": {"ios": "https://dc.lft.to/lastmile_qr_scan", "android": "https://dc.lft.to/lastmile_qr_scan"}, "is_reserved": 0, "fusion_lon": 0.0, "fusion_lat": 0.0, "lon": -77.041478, "name": "3f0af630df587e757d1a319019ea5814"}, {"bike_id": "a0a7847887a3bae5ba2a6a67014c1104", "type": "electric_bike", "is_disabled": 0, "lat": 38.87887716666667, "rental_uris": {"ios": "https://dc.lft.to/lastmile_qr_scan", "android": "https://dc.lft.to/lastmile_qr_scan"}, "is_reserved": 0, "fusion_lon": 0.0, "fusion_lat": 0.0, "lon": -77.096099, "name": "a0a7847887a3bae5ba2a6a67014c1104"}, {"bike_id": "8b0381579c52fa2417613aadbf4d80b3", "type": "electric_scooter", "is_disabled": 0, "lat": 38.9237835, "rental_uris": {"ios": "https://dc.lft.to/lastmile_qr_scan", "android": "https://dc.lft.to/lastmile_qr_scan"}, "is_reserved": 0, "fusion_lon": 0.0, "fusion_lat": 0.0, "lon": -77.04123333333334, "name": "8b0381579c52fa2417613aadbf4d80b3"}, {"bike_id": "f57634939611436567fd9e2ac33e447f", "type": "electric_scooter", "is_disabled": 0, "lat": 38.90383816666667, "rental_uris": {"ios": "https://dc.lft.to/lastmile_qr_scan", "android": "https://dc.lft.to/lastmile_qr_scan"}, "is_reserved": 0, "fusion_lon": 0.0, "fusion_lat": 0.0, "lon": -77.0483625, "name": "f57634939611436567fd9e2ac33e447f"}, {"bike_id": "0cfd069196da2f8f8cd6ddfa1da9a90a", "type": "electric_scooter", "is_disabled": 0, "lat": 38.927416, "rental_uris": {"ios": "https://dc.lft.to/lastmile_qr_scan", "android": "https://dc.lft.to/lastmile_qr_scan"}, "is_reserved": 0, "fusion_lon": 0.0, "fusion_lat": 0.0, "lon": -77.0226175, "name": "0cfd069196da2f8f8cd6ddfa1da9a90a"}, {"bike_id": "25a76c24c513d4eaa7245435ecdfe33b", "type": "electric_scooter", "is_disabled": 0, "lat": 38.933205666666666, "rental_uris": {"ios": "https://dc.lft.to/lastmile_qr_scan", "android": "https://dc.lft.to/lastmile_qr_scan"}, "is_reserved": 0, "fusion_lon": 0.0, "fusion_lat": 0.0, "lon": -77.0296725, "name": "25a76c24c513d4eaa7245435ecdfe33b"}, {"bike_id": "b8f9df9c45e9c29d8880084cdd6272e2", "type": "electric_scooter", "is_disabled": 0, "lat": 38.905052166666664, "rental_uris": {"ios": "https://dc.lft.to/lastmile_qr_scan", "android": "https://dc.lft.to/lastmile_qr_scan"}, "is_reserved": 0, "fusion_lon": 0.0, "fusion_lat": 0.0, "lon": -76.999579, "name": "b8f9df9c45e9c29d8880084cdd6272e2"}, {"bike_id": "59c50ec56316cc383adf990e760effe7", "type": "electric_scooter", "is_disabled": 0, "lat": 38.941463666666664, "rental_uris": {"ios": "https://dc.lft.to/lastmile_qr_scan", "android": "https://dc.lft.to/lastmile_qr_scan"}, "is_reserved": 0, "fusion_lon": 0.0, "fusion_lat": 0.0, "lon": -77.02325266666666, "name": "59c50ec56316cc383adf990e760effe7"}, {"bike_id": "3f4465de649af7f48f8b04c2f0d1af05", "type": "electric_scooter", "is_disabled": 0, "lat": 38.92978816666667, "rental_uris": {"ios": "https://dc.lft.to/lastmile_qr_scan", "android": "https://dc.lft.to/lastmile_qr_scan"}, "is_reserved": 0, "fusion_lon": 0.0, "fusion_lat": 0.0, "lon": -77.013045, "name": "3f4465de649af7f48f8b04c2f0d1af05"}, {"bike_id": "918415ba3230ca25596b09f693075cf8", "type": "electric_scooter", "is_disabled": 0, "lat": 38.9234055, "rental_uris": {"ios": "https://dc.lft.to/lastmile_qr_scan", "android": "https://dc.lft.to/lastmile_qr_scan"}, "is_reserved": 0, "fusion_lon": 0.0, "fusion_lat": 0.0, "lon": -77.0533225, "name": "918415ba3230ca25596b09f693075cf8"}, {"bike_id": "cfade68d93a9c7e601044f2f5f55ab67", "type": "electric_scooter", "is_disabled": 0, "lat": 38.91454683333333, "rental_uris": {"ios": "https://dc.lft.to/lastmile_qr_scan", "android": "https://dc.lft.to/lastmile_qr_scan"}, "is_reserved": 0, "fusion_lon": 0.0, "fusion_lat": 0.0, "lon": -77.0450155, "name": "cfade68d93a9c7e601044f2f5f55ab67"}, {"bike_id": "c1e730b91f5689eb9e1c9c9851c8738f", "type": "electric_scooter", "is_disabled": 0, "lat": 38.8952795, "rental_uris": {"ios": "https://dc.lft.to/lastmile_qr_scan", "android": "https://dc.lft.to/lastmile_qr_scan"}, "is_reserved": 0, "fusion_lon": 0.0, "fusion_lat": 0.0, "lon": -76.94894083333334, "name": "c1e730b91f5689eb9e1c9c9851c8738f"}, {"bike_id": "a4f8e5befd2df73d402f0e33a7b9632b", "type": "electric_scooter", "is_disabled": 0, "lat": 38.897374666666664, "rental_uris": {"ios": "https://dc.lft.to/lastmile_qr_scan", "android": "https://dc.lft.to/lastmile_qr_scan"}, "is_reserved": 0, "fusion_lon": 0.0, "fusion_lat": 0.0, "lon": -76.9472555, "name": "a4f8e5befd2df73d402f0e33a7b9632b"}, {"bike_id": "6c229812c7a4ab78783c3ba359f5d378", "type": "electric_scooter", "is_disabled": 0, "lat": 38.9005515, "rental_uris": {"ios": "https://dc.lft.to/lastmile_qr_scan", "android": "https://dc.lft.to/lastmile_qr_scan"}, "is_reserved": 0, "fusion_lon": 0.0, "fusion_lat": 0.0, "lon": -77.00070483333333, "name": "6c229812c7a4ab78783c3ba359f5d378"}, {"bike_id": "96b1cd6c635a15ff50e0de5348d95d10", "type": "electric_scooter", "is_disabled": 0, "lat": 38.90563516666667, "rental_uris": {"ios": "https://dc.lft.to/lastmile_qr_scan", "android": "https://dc.lft.to/lastmile_qr_scan"}, "is_reserved": 0, "fusion_lon": 0.0, "fusion_lat": 0.0, "lon": -77.00577516666667, "name": "96b1cd6c635a15ff50e0de5348d95d10"}, {"bike_id": "c157c042b68a9c4ccaa069ab7b19f52c", "type": "electric_scooter", "is_disabled": 0, "lat": 38.928838666666664, "rental_uris": {"ios": "https://dc.lft.to/lastmile_qr_scan", "android": "https://dc.lft.to/lastmile_qr_scan"}, "is_reserved": 0, "fusion_lon": 0.0, "fusion_lat": 0.0, "lon": -77.02705833333333, "name": "c157c042b68a9c4ccaa069ab7b19f52c"}, {"bike_id": "1fed1f91055929a4d42df99a6d39e461", "type": "electric_scooter", "is_disabled": 0, "lat": 38.91538166666667, "rental_uris": {"ios": "https://dc.lft.to/lastmile_qr_scan", "android": "https://dc.lft.to/lastmile_qr_scan"}, "is_reserved": 0, "fusion_lon": 0.0, "fusion_lat": 0.0, "lon": -77.021788, "name": "1fed1f91055929a4d42df99a6d39e461"}, {"bike_id": "458c8398667219c991df8af62b383720", "type": "electric_scooter", "is_disabled": 0, "lat": 38.9125905, "rental_uris": {"ios": "https://dc.lft.to/lastmile_qr_scan", "android": "https://dc.lft.to/lastmile_qr_scan"}, "is_reserved": 0, "fusion_lon": 0.0, "fusion_lat": 0.0, "lon": -77.04737016666667, "name": "458c8398667219c991df8af62b383720"}, {"bike_id": "09bfbf63db0c8e04f62e9a8987f1b780", "type": "electric_scooter", "is_disabled": 0, "lat": 38.8874165, "rental_uris": {"ios": "https://dc.lft.to/lastmile_qr_scan", "android": "https://dc.lft.to/lastmile_qr_scan"}, "is_reserved": 0, "fusion_lon": 0.0, "fusion_lat": 0.0, "lon": -77.01534433333333, "name": "09bfbf63db0c8e04f62e9a8987f1b780"}, {"bike_id": "0c26547059d7fcfee010ff7c52ee1064", "type": "electric_scooter", "is_disabled": 0, "lat": 38.92219733333334, "rental_uris": {"ios": "https://dc.lft.to/lastmile_qr_scan", "android": "https://dc.lft.to/lastmile_qr_scan"}, "is_reserved": 0, "fusion_lon": 0.0, "fusion_lat": 0.0, "lon": -77.0329375, "name": "0c26547059d7fcfee010ff7c52ee1064"}, {"bike_id": "14262c9d08fc701975f9f83e26133081", "type": "electric_scooter", "is_disabled": 0, "lat": 38.917406, "rental_uris": {"ios": "https://dc.lft.to/lastmile_qr_scan", "android": "https://dc.lft.to/lastmile_qr_scan"}, "is_reserved": 0, "fusion_lon": 0.0, "fusion_lat": 0.0, "lon": -77.021014, "name": "14262c9d08fc701975f9f83e26133081"}, {"bike_id": "0657e8121577debf487a683b1292762c", "type": "electric_scooter", "is_disabled": 0, "lat": 38.902683, "rental_uris": {"ios": "https://dc.lft.to/lastmile_qr_scan", "android": "https://dc.lft.to/lastmile_qr_scan"}, "is_reserved": 0, "fusion_lon": 0.0, "fusion_lat": 0.0, "lon": -76.98119433333333, "name": "0657e8121577debf487a683b1292762c"}, {"bike_id": "0fa71c1734d6f6651b6a4e1e4980da32", "type": "electric_scooter", "is_disabled": 0, "lat": 38.9155715, "rental_uris": {"ios": "https://dc.lft.to/lastmile_qr_scan", "android": "https://dc.lft.to/lastmile_qr_scan"}, "is_reserved": 0, "fusion_lon": 0.0, "fusion_lat": 0.0, "lon": -77.03214533333333, "name": "0fa71c1734d6f6651b6a4e1e4980da32"}, {"bike_id": "670a11b7745ac61b6dc20a5c74b15593", "type": "electric_scooter", "is_disabled": 0, "lat": 38.9182695, "rental_uris": {"ios": "https://dc.lft.to/lastmile_qr_scan", "android": "https://dc.lft.to/lastmile_qr_scan"}, "is_reserved": 0, "fusion_lon": 0.0, "fusion_lat": 0.0, "lon": -77.04946233333334, "name": "670a11b7745ac61b6dc20a5c74b15593"}, {"bike_id": "03b1f6753d1b82003f36b0977b74629f", "type": "electric_scooter", "is_disabled": 0, "lat": 38.9096855, "rental_uris": {"ios": "https://dc.lft.to/lastmile_qr_scan", "android": "https://dc.lft.to/lastmile_qr_scan"}, "is_reserved": 0, "fusion_lon": 0.0, "fusion_lat": 0.0, "lon": -77.02171083333333, "name": "03b1f6753d1b82003f36b0977b74629f"}, {"bike_id": "9798b059b61aab07cae125e0838e7304", "type": "electric_scooter", "is_disabled": 0, "lat": 38.9431765, "rental_uris": {"ios": "https://dc.lft.to/lastmile_qr_scan", "android": "https://dc.lft.to/lastmile_qr_scan"}, "is_reserved": 0, "fusion_lon": 0.0, "fusion_lat": 0.0, "lon": -77.061767, "name": "9798b059b61aab07cae125e0838e7304"}, {"bike_id": "073daf5a06fa8761364d6a6f4999ebae", "type": "electric_scooter", "is_disabled": 0, "lat": 38.92511483333333, "rental_uris": {"ios": "https://dc.lft.to/lastmile_qr_scan", "android": "https://dc.lft.to/lastmile_qr_scan"}, "is_reserved": 0, "fusion_lon": 0.0, "fusion_lat": 0.0, "lon": -77.03782533333333, "name": "073daf5a06fa8761364d6a6f4999ebae"}, {"bike_id": "b747077b04e2cff75c24a22abf8fc632", "type": "electric_scooter", "is_disabled": 0, "lat": 38.9058075, "rental_uris": {"ios": "https://dc.lft.to/lastmile_qr_scan", "android": "https://dc.lft.to/lastmile_qr_scan"}, "is_reserved": 0, "fusion_lon": 0.0, "fusion_lat": 0.0, "lon": -77.03066883333334, "name": "b747077b04e2cff75c24a22abf8fc632"}, {"bike_id": "e9096201cfe28a6e89206966fcbdd632", "type": "electric_bike", "is_disabled": 0, "lat": 38.897431833333336, "rental_uris": {"ios": "https://dc.lft.to/lastmile_qr_scan", "android": "https://dc.lft.to/lastmile_qr_scan"}, "is_reserved": 0, "fusion_lon": 0.0, "fusion_lat": 0.0, "lon": -76.92044966666667, "name": "e9096201cfe28a6e89206966fcbdd632"}, {"bike_id": "bb8ec147ae919d84ed3f8bf1b3d0933a", "type": "electric_scooter", "is_disabled": 0, "lat": 38.9098195, "rental_uris": {"ios": "https://dc.lft.to/lastmile_qr_scan", "android": "https://dc.lft.to/lastmile_qr_scan"}, "is_reserved": 0, "fusion_lon": 0.0, "fusion_lat": 0.0, "lon": -76.99591466666666, "name": "bb8ec147ae919d84ed3f8bf1b3d0933a"}, {"bike_id": "52e5859bc4a97f135e756f7c7644dfa4", "type": "electric_scooter", "is_disabled": 0, "lat": 38.89239466666667, "rental_uris": {"ios": "https://dc.lft.to/lastmile_qr_scan", "android": "https://dc.lft.to/lastmile_qr_scan"}, "is_reserved": 0, "fusion_lon": 0.0, "fusion_lat": 0.0, "lon": -77.04161916666666, "name": "52e5859bc4a97f135e756f7c7644dfa4"}, {"bike_id": "7c0c0288d5fa129144f5d4c3805be420", "type": "electric_scooter", "is_disabled": 0, "lat": 38.884115, "rental_uris": {"ios": "https://dc.lft.to/lastmile_qr_scan", "android": "https://dc.lft.to/lastmile_qr_scan"}, "is_reserved": 0, "fusion_lon": 0.0, "fusion_lat": 0.0, "lon": -77.01976516666667, "name": "7c0c0288d5fa129144f5d4c3805be420"}, {"bike_id": "2f50dcf72362f89eaa16fa3ac06177d1", "type": "electric_scooter", "is_disabled": 0, "lat": 38.91193766666667, "rental_uris": {"ios": "https://dc.lft.to/lastmile_qr_scan", "android": "https://dc.lft.to/lastmile_qr_scan"}, "is_reserved": 0, "fusion_lon": 0.0, "fusion_lat": 0.0, "lon": -77.03217133333334, "name": "2f50dcf72362f89eaa16fa3ac06177d1"}, {"bike_id": "de021e48739bc4505b2b622a762253c5", "type": "electric_scooter", "is_disabled": 0, "lat": 38.87626616666667, "rental_uris": {"ios": "https://dc.lft.to/lastmile_qr_scan", "android": "https://dc.lft.to/lastmile_qr_scan"}, "is_reserved": 0, "fusion_lon": 0.0, "fusion_lat": 0.0, "lon": -77.00047733333334, "name": "de021e48739bc4505b2b622a762253c5"}, {"bike_id": "01c940301a4f3de61f89e59832b351f8", "type": "electric_scooter", "is_disabled": 0, "lat": 38.887189166666666, "rental_uris": {"ios": "https://dc.lft.to/lastmile_qr_scan", "android": "https://dc.lft.to/lastmile_qr_scan"}, "is_reserved": 0, "fusion_lon": 0.0, "fusion_lat": 0.0, "lon": -77.01775783333333, "name": "01c940301a4f3de61f89e59832b351f8"}, {"bike_id": "df2955c94495533fde42cf427f2045de", "type": "electric_scooter", "is_disabled": 0, "lat": 38.914707, "rental_uris": {"ios": "https://dc.lft.to/lastmile_qr_scan", "android": "https://dc.lft.to/lastmile_qr_scan"}, "is_reserved": 0, "fusion_lon": 0.0, "fusion_lat": 0.0, "lon": -77.0459075, "name": "df2955c94495533fde42cf427f2045de"}, {"bike_id": "5aec72076428f96d9ecb14322313c343", "type": "electric_scooter", "is_disabled": 0, "lat": 38.874735666666666, "rental_uris": {"ios": "https://dc.lft.to/lastmile_qr_scan", "android": "https://dc.lft.to/lastmile_qr_scan"}, "is_reserved": 0, "fusion_lon": 0.0, "fusion_lat": 0.0, "lon": -77.00556616666667, "name": "5aec72076428f96d9ecb14322313c343"}, {"bike_id": "6c0cdd458279b3aca7e06ba816a2a9cc", "type": "electric_scooter", "is_disabled": 0, "lat": 38.909646333333335, "rental_uris": {"ios": "https://dc.lft.to/lastmile_qr_scan", "android": "https://dc.lft.to/lastmile_qr_scan"}, "is_reserved": 0, "fusion_lon": 0.0, "fusion_lat": 0.0, "lon": -77.03632216666666, "name": "6c0cdd458279b3aca7e06ba816a2a9cc"}, {"bike_id": "3bcc112be077b231f7deba1129ac7e0d", "type": "electric_scooter", "is_disabled": 0, "lat": 38.89733116666667, "rental_uris": {"ios": "https://dc.lft.to/lastmile_qr_scan", "android": "https://dc.lft.to/lastmile_qr_scan"}, "is_reserved": 0, "fusion_lon": 0.0, "fusion_lat": 0.0, "lon": -77.02457633333333, "name": "3bcc112be077b231f7deba1129ac7e0d"}, {"bike_id": "c0e45b4fc405c288270644c6d60af142", "type": "electric_scooter", "is_disabled": 0, "lat": 38.919980833333334, "rental_uris": {"ios": "https://dc.lft.to/lastmile_qr_scan", "android": "https://dc.lft.to/lastmile_qr_scan"}, "is_reserved": 0, "fusion_lon": 0.0, "fusion_lat": 0.0, "lon": -77.01855733333333, "name": "c0e45b4fc405c288270644c6d60af142"}, {"bike_id": "46ccdef38caa87eedd3c3f9f40fcb371", "type": "electric_scooter", "is_disabled": 0, "lat": 38.919049666666666, "rental_uris": {"ios": "https://dc.lft.to/lastmile_qr_scan", "android": "https://dc.lft.to/lastmile_qr_scan"}, "is_reserved": 0, "fusion_lon": 0.0, "fusion_lat": 0.0, "lon": -77.01684633333333, "name": "46ccdef38caa87eedd3c3f9f40fcb371"}, {"bike_id": "f9d7d203a268e93d1886a3ef3180260a", "type": "electric_scooter", "is_disabled": 0, "lat": 38.8929145, "rental_uris": {"ios": "https://dc.lft.to/lastmile_qr_scan", "android": "https://dc.lft.to/lastmile_qr_scan"}, "is_reserved": 0, "fusion_lon": 0.0, "fusion_lat": 0.0, "lon": -77.04484783333334, "name": "f9d7d203a268e93d1886a3ef3180260a"}, {"bike_id": "3abb11230eebf308f6178c7da9005057", "type": "electric_scooter", "is_disabled": 0, "lat": 38.93351, "rental_uris": {"ios": "https://dc.lft.to/lastmile_qr_scan", "android": "https://dc.lft.to/lastmile_qr_scan"}, "is_reserved": 0, "fusion_lon": 0.0, "fusion_lat": 0.0, "lon": -77.039845, "name": "3abb11230eebf308f6178c7da9005057"}, {"bike_id": "31254db4665144d21f0c2cfd7c5fc99d", "type": "electric_scooter", "is_disabled": 0, "lat": 38.902410333333336, "rental_uris": {"ios": "https://dc.lft.to/lastmile_qr_scan", "android": "https://dc.lft.to/lastmile_qr_scan"}, "is_reserved": 0, "fusion_lon": 0.0, "fusion_lat": 0.0, "lon": -77.03254033333333, "name": "31254db4665144d21f0c2cfd7c5fc99d"}, {"bike_id": "b071706066982e8f2016c792344060a5", "type": "electric_bike", "is_disabled": 0, "lat": 38.91311683333333, "rental_uris": {"ios": "https://dc.lft.to/lastmile_qr_scan", "android": "https://dc.lft.to/lastmile_qr_scan"}, "is_reserved": 0, "fusion_lon": 0.0, "fusion_lat": 0.0, "lon": -77.00641066666667, "name": "b071706066982e8f2016c792344060a5"}, {"bike_id": "42483520bdb9c8427dd44ec5b924103e", "type": "electric_scooter", "is_disabled": 0, "lat": 38.922367666666666, "rental_uris": {"ios": "https://dc.lft.to/lastmile_qr_scan", "android": "https://dc.lft.to/lastmile_qr_scan"}, "is_reserved": 0, "fusion_lon": 0.0, "fusion_lat": 0.0, "lon": -77.0426705, "name": "42483520bdb9c8427dd44ec5b924103e"}, {"bike_id": "1653c105f19c26fe39c3f0d87722033b", "type": "electric_scooter", "is_disabled": 0, "lat": 38.912624, "rental_uris": {"ios": "https://dc.lft.to/lastmile_qr_scan", "android": "https://dc.lft.to/lastmile_qr_scan"}, "is_reserved": 0, "fusion_lon": 0.0, "fusion_lat": 0.0, "lon": -77.03140983333333, "name": "1653c105f19c26fe39c3f0d87722033b"}, {"bike_id": "fb72aea9f8601e0a86683fe2a2f7dae5", "type": "electric_scooter", "is_disabled": 0, "lat": 38.87373616666667, "rental_uris": {"ios": "https://dc.lft.to/lastmile_qr_scan", "android": "https://dc.lft.to/lastmile_qr_scan"}, "is_reserved": 0, "fusion_lon": 0.0, "fusion_lat": 0.0, "lon": -77.00113433333334, "name": "fb72aea9f8601e0a86683fe2a2f7dae5"}, {"bike_id": "95d87feb34c6c01b7594fd4bc697ad95", "type": "electric_scooter", "is_disabled": 0, "lat": 38.9429555, "rental_uris": {"ios": "https://dc.lft.to/lastmile_qr_scan", "android": "https://dc.lft.to/lastmile_qr_scan"}, "is_reserved": 0, "fusion_lon": 0.0, "fusion_lat": 0.0, "lon": -77.021732, "name": "95d87feb34c6c01b7594fd4bc697ad95"}, {"bike_id": "dcd50f9adf975812ee2967ed130e58aa", "type": "electric_scooter", "is_disabled": 0, "lat": 38.91421916666667, "rental_uris": {"ios": "https://dc.lft.to/lastmile_qr_scan", "android": "https://dc.lft.to/lastmile_qr_scan"}, "is_reserved": 0, "fusion_lon": 0.0, "fusion_lat": 0.0, "lon": -77.03222816666667, "name": "dcd50f9adf975812ee2967ed130e58aa"}, {"bike_id": "f750e8b9b183d9436a537b6ee5da944e", "type": "electric_scooter", "is_disabled": 0, "lat": 38.91669533333334, "rental_uris": {"ios": "https://dc.lft.to/lastmile_qr_scan", "android": "https://dc.lft.to/lastmile_qr_scan"}, "is_reserved": 0, "fusion_lon": 0.0, "fusion_lat": 0.0, "lon": -77.0385025, "name": "f750e8b9b183d9436a537b6ee5da944e"}, {"bike_id": "fad30ec6b218c7118e9869ee5ea952ce", "type": "electric_scooter", "is_disabled": 0, "lat": 38.876503166666666, "rental_uris": {"ios": "https://dc.lft.to/lastmile_qr_scan", "android": "https://dc.lft.to/lastmile_qr_scan"}, "is_reserved": 0, "fusion_lon": 0.0, "fusion_lat": 0.0, "lon": -76.96507266666667, "name": "fad30ec6b218c7118e9869ee5ea952ce"}, {"bike_id": "853cfd1b6e491c2888e9d7a50569d2cc", "type": "electric_scooter", "is_disabled": 0, "lat": 38.91388966666667, "rental_uris": {"ios": "https://dc.lft.to/lastmile_qr_scan", "android": "https://dc.lft.to/lastmile_qr_scan"}, "is_reserved": 0, "fusion_lon": 0.0, "fusion_lat": 0.0, "lon": -77.01704633333334, "name": "853cfd1b6e491c2888e9d7a50569d2cc"}, {"bike_id": "c8158e39657872b821c534cbb29698ba", "type": "electric_scooter", "is_disabled": 0, "lat": 38.87910816666667, "rental_uris": {"ios": "https://dc.lft.to/lastmile_qr_scan", "android": "https://dc.lft.to/lastmile_qr_scan"}, "is_reserved": 0, "fusion_lon": 0.0, "fusion_lat": 0.0, "lon": -77.02198983333334, "name": "c8158e39657872b821c534cbb29698ba"}, {"bike_id": "4c0ab9648d7b90e20f1f41dbc31a5a39", "type": "electric_scooter", "is_disabled": 0, "lat": 38.9284925, "rental_uris": {"ios": "https://dc.lft.to/lastmile_qr_scan", "android": "https://dc.lft.to/lastmile_qr_scan"}, "is_reserved": 0, "fusion_lon": 0.0, "fusion_lat": 0.0, "lon": -77.0138655, "name": "4c0ab9648d7b90e20f1f41dbc31a5a39"}, {"bike_id": "a56c5bc3bbf2f738da579c7b54b2dc11", "type": "electric_scooter", "is_disabled": 0, "lat": 38.909690833333336, "rental_uris": {"ios": "https://dc.lft.to/lastmile_qr_scan", "android": "https://dc.lft.to/lastmile_qr_scan"}, "is_reserved": 0, "fusion_lon": 0.0, "fusion_lat": 0.0, "lon": -77.033796, "name": "a56c5bc3bbf2f738da579c7b54b2dc11"}, {"bike_id": "8fd196bb3cc7cc3785652e19e95589bb", "type": "electric_bike", "is_disabled": 0, "lat": 38.908624333333336, "rental_uris": {"ios": "https://dc.lft.to/lastmile_qr_scan", "android": "https://dc.lft.to/lastmile_qr_scan"}, "is_reserved": 0, "fusion_lon": 0.0, "fusion_lat": 0.0, "lon": -76.99135083333333, "name": "8fd196bb3cc7cc3785652e19e95589bb"}, {"bike_id": "2265410d091a3941792805e0e87e2dd5", "type": "electric_scooter", "is_disabled": 0, "lat": 38.90239566666666, "rental_uris": {"ios": "https://dc.lft.to/lastmile_qr_scan", "android": "https://dc.lft.to/lastmile_qr_scan"}, "is_reserved": 0, "fusion_lon": 0.0, "fusion_lat": 0.0, "lon": -77.00211116666667, "name": "2265410d091a3941792805e0e87e2dd5"}, {"bike_id": "d4cfe9655d13326e088f37ca4ec9ea1b", "type": "electric_scooter", "is_disabled": 0, "lat": 38.9246485, "rental_uris": {"ios": "https://dc.lft.to/lastmile_qr_scan", "android": "https://dc.lft.to/lastmile_qr_scan"}, "is_reserved": 0, "fusion_lon": 0.0, "fusion_lat": 0.0, "lon": -77.02978616666667, "name": "d4cfe9655d13326e088f37ca4ec9ea1b"}, {"bike_id": "36e7a45f66571da783dc104a00a916b4", "type": "electric_scooter", "is_disabled": 0, "lat": 38.88028083333333, "rental_uris": {"ios": "https://dc.lft.to/lastmile_qr_scan", "android": "https://dc.lft.to/lastmile_qr_scan"}, "is_reserved": 0, "fusion_lon": 0.0, "fusion_lat": 0.0, "lon": -77.010036, "name": "36e7a45f66571da783dc104a00a916b4"}, {"bike_id": "65659ec020c14169e1581896a2393d0d", "type": "electric_scooter", "is_disabled": 0, "lat": 38.90559616666667, "rental_uris": {"ios": "https://dc.lft.to/lastmile_qr_scan", "android": "https://dc.lft.to/lastmile_qr_scan"}, "is_reserved": 0, "fusion_lon": 0.0, "fusion_lat": 0.0, "lon": -77.02724566666667, "name": "65659ec020c14169e1581896a2393d0d"}, {"bike_id": "00fc10caf61859c130de372edadbcb51", "type": "electric_scooter", "is_disabled": 0, "lat": 38.91054716666667, "rental_uris": {"ios": "https://dc.lft.to/lastmile_qr_scan", "android": "https://dc.lft.to/lastmile_qr_scan"}, "is_reserved": 0, "fusion_lon": 0.0, "fusion_lat": 0.0, "lon": -77.02206583333333, "name": "00fc10caf61859c130de372edadbcb51"}, {"bike_id": "b05fec7cfc5f133a900bf766b3e0817d", "type": "electric_scooter", "is_disabled": 0, "lat": 38.927441, "rental_uris": {"ios": "https://dc.lft.to/lastmile_qr_scan", "android": "https://dc.lft.to/lastmile_qr_scan"}, "is_reserved": 0, "fusion_lon": 0.0, "fusion_lat": 0.0, "lon": -77.034278, "name": "b05fec7cfc5f133a900bf766b3e0817d"}, {"bike_id": "8596c5a05b02476a9b95b2288eeafaeb", "type": "electric_scooter", "is_disabled": 0, "lat": 38.915718166666665, "rental_uris": {"ios": "https://dc.lft.to/lastmile_qr_scan", "android": "https://dc.lft.to/lastmile_qr_scan"}, "is_reserved": 0, "fusion_lon": 0.0, "fusion_lat": 0.0, "lon": -77.0332665, "name": "8596c5a05b02476a9b95b2288eeafaeb"}, {"bike_id": "1b98a6dd56d28cbeadc33fff1dc11003", "type": "electric_scooter", "is_disabled": 0, "lat": 38.909796166666666, "rental_uris": {"ios": "https://dc.lft.to/lastmile_qr_scan", "android": "https://dc.lft.to/lastmile_qr_scan"}, "is_reserved": 0, "fusion_lon": 0.0, "fusion_lat": 0.0, "lon": -77.01414766666667, "name": "1b98a6dd56d28cbeadc33fff1dc11003"}, {"bike_id": "247c6c89e0e639c489bbd67ad5b234ff", "type": "electric_scooter", "is_disabled": 0, "lat": 38.91114366666667, "rental_uris": {"ios": "https://dc.lft.to/lastmile_qr_scan", "android": "https://dc.lft.to/lastmile_qr_scan"}, "is_reserved": 0, "fusion_lon": 0.0, "fusion_lat": 0.0, "lon": -77.0439895, "name": "247c6c89e0e639c489bbd67ad5b234ff"}, {"bike_id": "bb65fa27099ebdc987554f1af7a8d257", "type": "electric_scooter", "is_disabled": 0, "lat": 38.905915666666665, "rental_uris": {"ios": "https://dc.lft.to/lastmile_qr_scan", "android": "https://dc.lft.to/lastmile_qr_scan"}, "is_reserved": 0, "fusion_lon": 0.0, "fusion_lat": 0.0, "lon": -77.04718766666667, "name": "bb65fa27099ebdc987554f1af7a8d257"}, {"bike_id": "ad60ee2e2dc22512ea7ebb5ec974f696", "type": "electric_scooter", "is_disabled": 0, "lat": 38.91569583333333, "rental_uris": {"ios": "https://dc.lft.to/lastmile_qr_scan", "android": "https://dc.lft.to/lastmile_qr_scan"}, "is_reserved": 0, "fusion_lon": 0.0, "fusion_lat": 0.0, "lon": -77.0259245, "name": "ad60ee2e2dc22512ea7ebb5ec974f696"}, {"bike_id": "8b51d46bda24e3c0dbba2f39ee841cd3", "type": "electric_scooter", "is_disabled": 0, "lat": 38.918788666666664, "rental_uris": {"ios": "https://dc.lft.to/lastmile_qr_scan", "android": "https://dc.lft.to/lastmile_qr_scan"}, "is_reserved": 0, "fusion_lon": 0.0, "fusion_lat": 0.0, "lon": -77.03468783333334, "name": "8b51d46bda24e3c0dbba2f39ee841cd3"}, {"bike_id": "81ef63ce81a595df541bb752e94f137f", "type": "electric_scooter", "is_disabled": 0, "lat": 38.923197, "rental_uris": {"ios": "https://dc.lft.to/lastmile_qr_scan", "android": "https://dc.lft.to/lastmile_qr_scan"}, "is_reserved": 0, "fusion_lon": 0.0, "fusion_lat": 0.0, "lon": -77.046443, "name": "81ef63ce81a595df541bb752e94f137f"}, {"bike_id": "eab177a5f43a5d1b1e6910d7ab755990", "type": "electric_bike", "is_disabled": 0, "lat": 38.8687355, "rental_uris": {"ios": "https://dc.lft.to/lastmile_qr_scan", "android": "https://dc.lft.to/lastmile_qr_scan"}, "is_reserved": 0, "fusion_lon": 0.0, "fusion_lat": 0.0, "lon": -76.97088183333334, "name": "eab177a5f43a5d1b1e6910d7ab755990"}, {"bike_id": "7cd5df3ec21a095c82be3664eea092d0", "type": "electric_scooter", "is_disabled": 0, "lat": 38.907197333333336, "rental_uris": {"ios": "https://dc.lft.to/lastmile_qr_scan", "android": "https://dc.lft.to/lastmile_qr_scan"}, "is_reserved": 0, "fusion_lon": 0.0, "fusion_lat": 0.0, "lon": -77.02255883333333, "name": "7cd5df3ec21a095c82be3664eea092d0"}, {"bike_id": "faa669dd0846b37eedbd707a13a604f4", "type": "electric_scooter", "is_disabled": 0, "lat": 38.9419805, "rental_uris": {"ios": "https://dc.lft.to/lastmile_qr_scan", "android": "https://dc.lft.to/lastmile_qr_scan"}, "is_reserved": 0, "fusion_lon": 0.0, "fusion_lat": 0.0, "lon": -77.03655366666666, "name": "faa669dd0846b37eedbd707a13a604f4"}, {"bike_id": "6475bd06563912f1ed42c6de0951c1a5", "type": "electric_scooter", "is_disabled": 0, "lat": 38.9388295, "rental_uris": {"ios": "https://dc.lft.to/lastmile_qr_scan", "android": "https://dc.lft.to/lastmile_qr_scan"}, "is_reserved": 0, "fusion_lon": 0.0, "fusion_lat": 0.0, "lon": -77.02462516666667, "name": "6475bd06563912f1ed42c6de0951c1a5"}, {"bike_id": "677df1197172a8046561f7ab29f98df4", "type": "electric_bike", "is_disabled": 0, "lat": 38.94805, "rental_uris": {"ios": "https://dc.lft.to/lastmile_qr_scan", "android": "https://dc.lft.to/lastmile_qr_scan"}, "is_reserved": 0, "fusion_lon": 0.0, "fusion_lat": 0.0, "lon": -76.95540033333333, "name": "677df1197172a8046561f7ab29f98df4"}, {"bike_id": "1c7cf5899c851eeab256a86e3104aed9", "type": "electric_scooter", "is_disabled": 0, "lat": 38.917187166666665, "rental_uris": {"ios": "https://dc.lft.to/lastmile_qr_scan", "android": "https://dc.lft.to/lastmile_qr_scan"}, "is_reserved": 0, "fusion_lon": 0.0, "fusion_lat": 0.0, "lon": -77.02602133333333, "name": "1c7cf5899c851eeab256a86e3104aed9"}, {"bike_id": "51b6bf7c466d9f94c4dd4639972a58ce", "type": "electric_scooter", "is_disabled": 0, "lat": 38.93766983333333, "rental_uris": {"ios": "https://dc.lft.to/lastmile_qr_scan", "android": "https://dc.lft.to/lastmile_qr_scan"}, "is_reserved": 0, "fusion_lon": 0.0, "fusion_lat": 0.0, "lon": -77.032858, "name": "51b6bf7c466d9f94c4dd4639972a58ce"}, {"bike_id": "57f2c2d8a082358c96c75102b5030e26", "type": "electric_scooter", "is_disabled": 0, "lat": 38.84320783333333, "rental_uris": {"ios": "https://dc.lft.to/lastmile_qr_scan", "android": "https://dc.lft.to/lastmile_qr_scan"}, "is_reserved": 0, "fusion_lon": 0.0, "fusion_lat": 0.0, "lon": -76.99920783333333, "name": "57f2c2d8a082358c96c75102b5030e26"}, {"bike_id": "66bd858f1614e39e46b8aaf27ff2090a", "type": "electric_scooter", "is_disabled": 0, "lat": 38.89538433333333, "rental_uris": {"ios": "https://dc.lft.to/lastmile_qr_scan", "android": "https://dc.lft.to/lastmile_qr_scan"}, "is_reserved": 0, "fusion_lon": 0.0, "fusion_lat": 0.0, "lon": -76.98862266666667, "name": "66bd858f1614e39e46b8aaf27ff2090a"}, {"bike_id": "101f6df0754e0b51ca39a3fe8b5dba2d", "type": "electric_scooter", "is_disabled": 0, "lat": 38.91559566666667, "rental_uris": {"ios": "https://dc.lft.to/lastmile_qr_scan", "android": "https://dc.lft.to/lastmile_qr_scan"}, "is_reserved": 0, "fusion_lon": 0.0, "fusion_lat": 0.0, "lon": -77.03175733333333, "name": "101f6df0754e0b51ca39a3fe8b5dba2d"}, {"bike_id": "09df9417b55aac0ca267674a9aca9670", "type": "electric_scooter", "is_disabled": 0, "lat": 38.90828883333333, "rental_uris": {"ios": "https://dc.lft.to/lastmile_qr_scan", "android": "https://dc.lft.to/lastmile_qr_scan"}, "is_reserved": 0, "fusion_lon": 0.0, "fusion_lat": 0.0, "lon": -77.03188616666667, "name": "09df9417b55aac0ca267674a9aca9670"}, {"bike_id": "b1a5153d786bd0e9639d1da926089a8a", "type": "electric_scooter", "is_disabled": 0, "lat": 38.85159766666666, "rental_uris": {"ios": "https://dc.lft.to/lastmile_qr_scan", "android": "https://dc.lft.to/lastmile_qr_scan"}, "is_reserved": 0, "fusion_lon": 0.0, "fusion_lat": 0.0, "lon": -76.98803766666667, "name": "b1a5153d786bd0e9639d1da926089a8a"}, {"bike_id": "a304498146e7bb296cc8e009581214c8", "type": "electric_scooter", "is_disabled": 0, "lat": 38.912747833333334, "rental_uris": {"ios": "https://dc.lft.to/lastmile_qr_scan", "android": "https://dc.lft.to/lastmile_qr_scan"}, "is_reserved": 0, "fusion_lon": 0.0, "fusion_lat": 0.0, "lon": -77.02302133333333, "name": "a304498146e7bb296cc8e009581214c8"}, {"bike_id": "0e3f372f7a666a67dd29a1bb9ae068e5", "type": "electric_scooter", "is_disabled": 0, "lat": 38.892434333333334, "rental_uris": {"ios": "https://dc.lft.to/lastmile_qr_scan", "android": "https://dc.lft.to/lastmile_qr_scan"}, "is_reserved": 0, "fusion_lon": 0.0, "fusion_lat": 0.0, "lon": -77.044997, "name": "0e3f372f7a666a67dd29a1bb9ae068e5"}, {"bike_id": "5813872626a78a242569adc3d2567738", "type": "electric_scooter", "is_disabled": 0, "lat": 38.90960616666667, "rental_uris": {"ios": "https://dc.lft.to/lastmile_qr_scan", "android": "https://dc.lft.to/lastmile_qr_scan"}, "is_reserved": 0, "fusion_lon": 0.0, "fusion_lat": 0.0, "lon": -77.04871933333334, "name": "5813872626a78a242569adc3d2567738"}, {"bike_id": "0589eb7d95b8adf5b3ccb56b4a1fd07f", "type": "electric_scooter", "is_disabled": 0, "lat": 38.901301, "rental_uris": {"ios": "https://dc.lft.to/lastmile_qr_scan", "android": "https://dc.lft.to/lastmile_qr_scan"}, "is_reserved": 0, "fusion_lon": 0.0, "fusion_lat": 0.0, "lon": -77.01816383333333, "name": "0589eb7d95b8adf5b3ccb56b4a1fd07f"}, {"bike_id": "7d726cbceea3ab3d61f59f2dd28bbb81", "type": "electric_scooter", "is_disabled": 0, "lat": 38.92085016666667, "rental_uris": {"ios": "https://dc.lft.to/lastmile_qr_scan", "android": "https://dc.lft.to/lastmile_qr_scan"}, "is_reserved": 0, "fusion_lon": 0.0, "fusion_lat": 0.0, "lon": -77.031749, "name": "7d726cbceea3ab3d61f59f2dd28bbb81"}, {"bike_id": "7b5b895b9122c421f5da30196443bf2b", "type": "electric_scooter", "is_disabled": 0, "lat": 38.930836166666666, "rental_uris": {"ios": "https://dc.lft.to/lastmile_qr_scan", "android": "https://dc.lft.to/lastmile_qr_scan"}, "is_reserved": 0, "fusion_lon": 0.0, "fusion_lat": 0.0, "lon": -77.027947, "name": "7b5b895b9122c421f5da30196443bf2b"}, {"bike_id": "7c8c469b82a30b0d8e25949d911bc0a2", "type": "electric_scooter", "is_disabled": 0, "lat": 38.9150805, "rental_uris": {"ios": "https://dc.lft.to/lastmile_qr_scan", "android": "https://dc.lft.to/lastmile_qr_scan"}, "is_reserved": 0, "fusion_lon": 0.0, "fusion_lat": 0.0, "lon": -77.01778316666666, "name": "7c8c469b82a30b0d8e25949d911bc0a2"}, {"bike_id": "920d52ac514de00b74e505b63dd46d46", "type": "electric_scooter", "is_disabled": 0, "lat": 38.92323533333333, "rental_uris": {"ios": "https://dc.lft.to/lastmile_qr_scan", "android": "https://dc.lft.to/lastmile_qr_scan"}, "is_reserved": 0, "fusion_lon": 0.0, "fusion_lat": 0.0, "lon": -77.03758783333333, "name": "920d52ac514de00b74e505b63dd46d46"},