{"data": {"bikes": [{"name": "3e26d2a350b39c73c67ab702443ce720", "type": "electric_scooter", "lat": 38.895141333333335, "is_reserved": 0, "lon": -76.9488975, "fusion_lon": 0.0, "is_disabled": 0, "fusion_lat": 0.0, "bike_id": "3e26d2a350b39c73c67ab702443ce720", "rental_uris": {"ios": "https://dc.lft.to/lastmile_qr_scan", "android": "https://dc.lft.to/lastmile_qr_scan"}}, {"name": "6c2f5a788f37c4c51712a0f792c8cffa", "type": "electric_scooter", "lat": 38.92983, "is_reserved": 0, "lon": -77.0261765, "fusion_lon": 0.0, "is_disabled": 0, "fusion_lat": 0.0, "bike_id": "6c2f5a788f37c4c51712a0f792c8cffa", "rental_uris": {"ios": "https://dc.lft.to/lastmile_qr_scan", "android": "https://dc.lft.to/lastmile_qr_scan"}}, {"name": "aa764ace7729d4218f0e1aab698a03fc", "type": "electric_scooter", "lat": 38.92364966666667, "is_reserved": 0, "lon": -77.05031533333333, "fusion_lon": 0.0, "is_disabled": 0, "fusion_lat": 0.0, "bike_id": "aa764ace7729d4218f0e1aab698a03fc", "rental_uris": {"ios": "https://dc.lft.to/lastmile_qr_scan", "android": "https://dc.lft.to/lastmile_qr_scan"}}, {"name": "268dea14b85576f35b0eea914584e5b9", "type": "electric_scooter", "lat": 38.880234333333334, "is_reserved": 0, "lon": -76.9313125, "fusion_lon": 0.0, "is_disabled": 0, "fusion_lat": 0.0, "bike_id": "268dea14b85576f35b0eea914584e5b9", "rental_uris": {"ios": "https://dc.lft.to/lastmile_qr_scan", "android": "https://dc.lft.to/lastmile_qr_scan"}}, {"name": "a306aaa75403e6c293812f603ead7ad4", "type": "electric_scooter", "lat": 38.910592333333334, "is_reserved": 0, "lon": -77.04578466666666, "fusion_lon": 0.0, "is_disabled": 0, "fusion_lat": 0.0, "bike_id": "a306aaa75403e6c293812f603ead7ad4", "rental_uris": {"ios": "https://dc.lft.to/lastmile_qr_scan", "android": "https://dc.lft.to/lastmile_qr_scan"}}, {"name": "cee1332b8649439abbc78bcf8f16e549", "type": "electric_scooter", "lat": 38.898357, "is_reserved": 0, "lon": -76.946423, "fusion_lon": 0.0, "is_disabled": 0, "fusion_lat": 0.0, "bike_id": "cee1332b8649439abbc78bcf8f16e549", "rental_uris": {"ios": "https://dc.lft.to/lastmile_qr_scan", "android": "https://dc.lft.to/lastmile_qr_scan"}}, {"name": "834879fe09caaa14a9084558d08a8784", "type": "electric_scooter", "lat": 38.90110333333333, "is_reserved": 0, "lon": -77.03184283333333, "fusion_lon": 0.0, "is_disabled": 0, "fusion_lat": 0.0, "bike_id": "834879fe09caaa14a9084558d08a8784", "rental_uris": {"ios": "https://dc.lft.to/lastmile_qr_scan", "android": "https://dc.lft.to/lastmile_qr_scan"}}, {"name": "ea8514bff08b1a99324ef15ba2d2bd8d", "type": "electric_bike", "lat": 38.82727766666667, "is_reserved": 0, "lon": -77.0086485, "fusion_lon": 0.0, "is_disabled": 0, "fusion_lat": 0.0, "bike_id": "ea8514bff08b1a99324ef15ba2d2bd8d", "rental_uris": {"ios": "https://dc.lft.to/lastmile_qr_scan", "android": "https://dc.lft.to/lastmile_qr_scan"}}, {"name": "7b17375bd4e1f7ff666d76994d0a4658", "type": "electric_scooter", "lat": 38.888706666666664, "is_reserved": 0, "lon": -76.990287, "fusion_lon": 0.0, "is_disabled": 0, "fusion_lat": 0.0, "bike_id": "7b17375bd4e1f7ff666d76994d0a4658", "rental_uris": {"ios": "https://dc.lft.to/lastmile_qr_scan", "android": "https://dc.lft.to/lastmile_qr_scan"}}, {"name": "6d248c0c609a88cf67b7b5972ad8e7ae", "type": "electric_scooter", "lat": 38.9169645, "is_reserved": 0, "lon": -77.0279875, "fusion_lon": 0.0, "is_disabled": 0, "fusion_lat": 0.0, "bike_id": "6d248c0c609a88cf67b7b5972ad8e7ae", "rental_uris": {"ios": "https://dc.lft.to/lastmile_qr_scan", "android": "https://dc.lft.to/lastmile_qr_scan"}}, {"name": "d1d4b63227e2e99a0dc261ef4fdfbe38", "type": "electric_scooter", "lat": 38.920675333333335, "is_reserved": 0, "lon": -77.024322, "fusion_lon": 0.0, "is_disabled": 0, "fusion_lat": 0.0, "bike_id": "d1d4b63227e2e99a0dc261ef4fdfbe38", "rental_uris": {"ios": "https://dc.lft.to/lastmile_qr_scan", "android": "https://dc.lft.to/lastmile_qr_scan"}}, {"name": "5dc237c034df57c37c582eea43dfd02d", "type": "electric_scooter", "lat": 38.89477083333333, "is_reserved": 0, "lon": -77.02373666666666, "fusion_lon": 0.0, "is_disabled": 0, "fusion_lat": 0.0, "bike_id": "5dc237c034df57c37c582eea43dfd02d", "rental_uris": {"ios": "https://dc.lft.to/lastmile_qr_scan", "android": "https://dc.lft.to/lastmile_qr_scan"}}, {"name": "d13376bc5e755fe5a85e01fc0cc739a1", "type": "electric_scooter", "lat": 38.89944883333333, "is_reserved": 0, "lon": -77.03302333333333, "fusion_lon": 0.0, "is_disabled": 0, "fusion_lat": 0.0, "bike_id": "d13376bc5e755fe5a85e01fc0cc739a1", "rental_uris": {"ios": "https://dc.lft.to/lastmile_qr_scan", "android": "https://dc.lft.to/lastmile_qr_scan"}}, {"name": "b8af8c6d93fc260acb60bebfd4b1a9b7", "type": "electric_scooter", "lat": 38.90005166666667, "is_reserved": 0, "lon": -76.99745716666666, "fusion_lon": 0.0, "is_disabled": 0, "fusion_lat": 0.0, "bike_id": "b8af8c6d93fc260acb60bebfd4b1a9b7", "rental_uris": {"ios": "https://dc.lft.to/lastmile_qr_scan", "android": "https://dc.lft.to/lastmile_qr_scan"}}, {"name": "1a2ba8eacca0df1c0a5561153df52806", "type": "electric_scooter", "lat": 38.91893733333333, "is_reserved": 0, "lon": -77.05289216666667, "fusion_lon": 0.0, "is_disabled": 0, "fusion_lat": 0.0, "bike_id": "1a2ba8eacca0df1c0a5561153df52806", "rental_uris": {"ios": "https://dc.lft.to/lastmile_qr_scan", "android": "https://dc.lft.to/lastmile_qr_scan"}}, {"name": "6a8811dfbcc992071a8c819b962ed206", "type": "electric_scooter", "lat": 38.9080445, "is_reserved": 0, "lon": -77.0367285, "fusion_lon": 0.0, "is_disabled": 0, "fusion_lat": 0.0, "bike_id": "6a8811dfbcc992071a8c819b962ed206", "rental_uris": {"ios": "https://dc.lft.to/lastmile_qr_scan", "android": "https://dc.lft.to/lastmile_qr_scan"}}, {"name": "0bb8d0b2382d934150453c2b851d9ab7", "type": "electric_scooter", "lat": 38.92795733333333, "is_reserved": 0, "lon": -77.05356, "fusion_lon": 0.0, "is_disabled": 0, "fusion_lat": 0.0, "bike_id": "0bb8d0b2382d934150453c2b851d9ab7", "rental_uris": {"ios": "https://dc.lft.to/lastmile_qr_scan", "android": "https://dc.lft.to/lastmile_qr_scan"}}, {"name": "96fa3da9d351d227485a0b4382590bb6", "type": "electric_scooter", "lat": 38.967179, "is_reserved": 0, "lon": -77.027374, "fusion_lon": 0.0, "is_disabled": 0, "fusion_lat": 0.0, "bike_id": "96fa3da9d351d227485a0b4382590bb6", "rental_uris": {"ios": "https://dc.lft.to/lastmile_qr_scan", "android": "https://dc.lft.to/lastmile_qr_scan"}}, {"name": "5e134865392b4f185348a7a924f7f496", "type": "electric_scooter", "lat": 38.842903666666665, "is_reserved": 0, "lon": -76.99946083333333, "fusion_lon": 0.0, "is_disabled": 0, "fusion_lat": 0.0, "bike_id": "5e134865392b4f185348a7a924f7f496", "rental_uris": {"ios": "https://dc.lft.to/lastmile_qr_scan", "android": "https://dc.lft.to/lastmile_qr_scan"}}, {"name": "3ba2640f2103b9d591c0664154c99263", "type": "electric_scooter", "lat": 38.92230583333333, "is_reserved": 0, "lon": -77.04255683333334, "fusion_lon": 0.0, "is_disabled": 0, "fusion_lat": 0.0, "bike_id": "3ba2640f2103b9d591c0664154c99263", "rental_uris": {"ios": "https://dc.lft.to/lastmile_qr_scan", "android": "https://dc.lft.to/lastmile_qr_scan"}}, {"name": "85815ce74c9d305e97a9532934f7b331", "type": "electric_scooter", "lat": 38.935390166666664, "is_reserved": 0, "lon": -77.0331175, "fusion_lon": 0.0, "is_disabled": 0, "fusion_lat": 0.0, "bike_id": "85815ce74c9d305e97a9532934f7b331", "rental_uris": {"ios": "https://dc.lft.to/lastmile_qr_scan", "android": "https://dc.lft.to/lastmile_qr_scan"}}, {"name": "46b551b23f7cd7e7c48caf4c1a39e57f", "type": "electric_scooter", "lat": 38.91415416666667, "is_reserved": 0, "lon": -77.0399755, "fusion_lon": 0.0, "is_disabled": 0, "fusion_lat": 0.0, "bike_id": "46b551b23f7cd7e7c48caf4c1a39e57f", "rental_uris": {"ios": "https://dc.lft.to/lastmile_qr_scan", "android": "https://dc.lft.to/lastmile_qr_scan"}}, {"name": "2c3c0d000486b0eab4649a91a0f5dcf1", "type": "electric_scooter", "lat": 38.905059666666666, "is_reserved": 0, "lon": -77.026103, "fusion_lon": 0.0, "is_disabled": 0, "fusion_lat": 0.0, "bike_id": "2c3c0d000486b0eab4649a91a0f5dcf1", "rental_uris": {"ios": "https://dc.lft.to/lastmile_qr_scan", "android": "https://dc.lft.to/lastmile_qr_scan"}}, {"name": "1c4427a40317d037759ff7426664e13e", "type": "electric_scooter", "lat": 38.90117733333334, "is_reserved": 0, "lon": -77.04389033333334, "fusion_lon": 0.0, "is_disabled": 0, "fusion_lat": 0.0, "bike_id": "1c4427a40317d037759ff7426664e13e", "rental_uris": {"ios": "https://dc.lft.to/lastmile_qr_scan", "android": "https://dc.lft.to/lastmile_qr_scan"}}, {"name": "e6e451eb6fba06374b8b2c7121d9365a", "type": "electric_scooter", "lat": 38.87456183333333, "is_reserved": 0, "lon": -77.00767883333333, "fusion_lon": 0.0, "is_disabled": 0, "fusion_lat": 0.0, "bike_id": "e6e451eb6fba06374b8b2c7121d9365a", "rental_uris": {"ios": "https://dc.lft.to/lastmile_qr_scan", "android": "https://dc.lft.to/lastmile_qr_scan"}}, {"name": "ab0263474a62a60ae65ac97bdbdac930", "type": "electric_scooter", "lat": 38.89367516666667, "is_reserved": 0, "lon": -77.00329616666667, "fusion_lon": 0.0, "is_disabled": 0, "fusion_lat": 0.0, "bike_id": "ab0263474a62a60ae65ac97bdbdac930", "rental_uris": {"ios": "https://dc.lft.to/lastmile_qr_scan", "android": "https://dc.lft.to/lastmile_qr_scan"}}, {"name": "6a36c306b165e05c00300e41fd587c60", "type": "electric_scooter", "lat": 38.919189, "is_reserved": 0, "lon": -77.03016866666667, "fusion_lon": 0.0, "is_disabled": 0, "fusion_lat": 0.0, "bike_id": "6a36c306b165e05c00300e41fd587c60", "rental_uris": {"ios": "https://dc.lft.to/lastmile_qr_scan", "android": "https://dc.lft.to/lastmile_qr_scan"}}, {"name": "cf2aeb239f618bedaa4c9edee9cba063", "type": "electric_scooter", "lat": 38.89933516666667, "is_reserved": 0, "lon": -77.02989533333333, "fusion_lon": 0.0, "is_disabled": 0, "fusion_lat": 0.0, "bike_id": "cf2aeb239f618bedaa4c9edee9cba063", "rental_uris": {"ios": "https://dc.lft.to/lastmile_qr_scan", "android": "https://dc.lft.to/lastmile_qr_scan"}}, {"name": "e011d121b5cff39c1bfb4c30875fdb34", "type": "electric_scooter", "lat": 38.902777666666665, "is_reserved": 0, "lon": -77.03844766666667, "fusion_lon": 0.0, "is_disabled": 0, "fusion_lat": 0.0, "bike_id": "e011d121b5cff39c1bfb4c30875fdb34", "rental_uris": {"ios": "https://dc.lft.to/lastmile_qr_scan", "android": "https://dc.lft.to/lastmile_qr_scan"}}, {"name": "7e3b37240586e1bf2e522e80fe0eb3e6", "type": "electric_scooter", "lat": 38.904475166666664, "is_reserved": 0, "lon": -77.04166933333333, "fusion_lon": 0.0, "is_disabled": 0, "fusion_lat": 0.0, "bike_id": "7e3b37240586e1bf2e522e80fe0eb3e6", "rental_uris": {"ios": "https://dc.lft.to/lastmile_qr_scan", "android": "https://dc.lft.to/lastmile_qr_scan"}}, {"name": "afea586f533da6bc767097243d410eaf", "type": "electric_scooter", "lat": 38.905607833333335, "is_reserved": 0, "lon": -77.0360015, "fusion_lon": 0.0, "is_disabled": 0, "fusion_lat": 0.0, "bike_id": "afea586f533da6bc767097243d410eaf", "rental_uris": {"ios": "https://dc.lft.to/lastmile_qr_scan", "android": "https://dc.lft.to/lastmile_qr_scan"}}, {"name": "11c2e58c61e15c4d0c3f9349d928acdf", "type": "electric_bike", "lat": 38.85247716666667, "is_reserved": 0, "lon": -77.11427183333333, "fusion_lon": 0.0, "is_disabled": 0, "fusion_lat": 0.0, "bike_id": "11c2e58c61e15c4d0c3f9349d928acdf", "rental_uris": {"ios": "https://dc.lft.to/lastmile_qr_scan", "android": "https://dc.lft.to/lastmile_qr_scan"}}, {"name": "64e7a03bebf66c76dfc3a85dc9e5f36a", "type": "electric_scooter", "lat": 38.900067, "is_reserved": 0, "lon": -76.9984375, "fusion_lon": 0.0, "is_disabled": 0, "fusion_lat": 0.0, "bike_id": "64e7a03bebf66c76dfc3a85dc9e5f36a", "rental_uris": {"ios": "https://dc.lft.to/lastmile_qr_scan", "android": "https://dc.lft.to/lastmile_qr_scan"}}, {"name": "ca3ff8bb65d019bc29a31479dbcd52d2", "type": "electric_scooter", "lat": 38.941865666666665, "is_reserved": 0, "lon": -77.0309425, "fusion_lon": 0.0, "is_disabled": 0, "fusion_lat": 0.0, "bike_id": "ca3ff8bb65d019bc29a31479dbcd52d2", "rental_uris": {"ios": "https://dc.lft.to/lastmile_qr_scan", "android": "https://dc.lft.to/lastmile_qr_scan"}}, {"name": "875786876c1359cc3df3f4bb53abf34c", "type": "electric_scooter", "lat": 38.907126833333336, "is_reserved": 0, "lon": -77.02507866666667, "fusion_lon": 0.0, "is_disabled": 0, "fusion_lat": 0.0, "bike_id": "875786876c1359cc3df3f4bb53abf34c", "rental_uris": {"ios": "https://dc.lft.to/lastmile_qr_scan", "android": "https://dc.lft.to/lastmile_qr_scan"}}, {"name": "8f9babe89a12b0435a739678fdfa3fb5", "type": "electric_scooter", "lat": 38.90985383333334, "is_reserved": 0, "lon": -77.0320955, "fusion_lon": 0.0, "is_disabled": 0, "fusion_lat": 0.0, "bike_id": "8f9babe89a12b0435a739678fdfa3fb5", "rental_uris": {"ios": "https://dc.lft.to/lastmile_qr_scan", "android": "https://dc.lft.to/lastmile_qr_scan"}}, {"name": "2d62772d855c11f432880f9717ff2b7a", "type": "electric_scooter", "lat": 38.8952615, "is_reserved": 0, "lon": -77.01609083333334, "fusion_lon": 0.0, "is_disabled": 0, "fusion_lat": 0.0, "bike_id": "2d62772d855c11f432880f9717ff2b7a", "rental_uris": {"ios": "https://dc.lft.to/lastmile_qr_scan", "android": "https://dc.lft.to/lastmile_qr_scan"}}, {"name": "21a6579268a8c8b54ed8a35627d2f562", "type": "electric_bike", "lat": 38.854373333333335, "is_reserved": 0, "lon": -77.11705833333333, "fusion_lon": 0.0, "is_disabled": 0, "fusion_lat": 0.0, "bike_id": "21a6579268a8c8b54ed8a35627d2f562", "rental_uris": {"ios": "https://dc.lft.to/lastmile_qr_scan", "android": "https://dc.lft.to/lastmile_qr_scan"}}, {"name": "bb5fc7a170106261498f62150525933d", "type": "electric_scooter", "lat": 38.9062125, "is_reserved": 0, "lon": -77.00596233333333, "fusion_lon": 0.0, "is_disabled": 0, "fusion_lat": 0.0, "bike_id": "bb5fc7a170106261498f62150525933d", "rental_uris": {"ios": "https://dc.lft.to/lastmile_qr_scan", "android": "https://dc.lft.to/lastmile_qr_scan"}}, {"name": "81dd99a02fe21708a8671cbb4a3fc439", "type": "electric_scooter", "lat": 38.93514233333333, "is_reserved": 0, "lon": -77.02841983333333, "fusion_lon": 0.0, "is_disabled": 0, "fusion_lat": 0.0, "bike_id": "81dd99a02fe21708a8671cbb4a3fc439", "rental_uris": {"ios": "https://dc.lft.to/lastmile_qr_scan", "android": "https://dc.lft.to/lastmile_qr_scan"}}, {"name": "131c68aeba58fa2ece6b215e4d79429c", "type": "electric_scooter", "lat": 38.8872255, "is_reserved": 0, "lon": -77.022064, "fusion_lon": 0.0, "is_disabled": 0, "fusion_lat": 0.0, "bike_id": "131c68aeba58fa2ece6b215e4d79429c", "rental_uris": {"ios": "https://dc.lft.to/lastmile_qr_scan", "android": "https://dc.lft.to/lastmile_qr_scan"}}, {"name": "82578db654f7b53c9ae2b0600a1b2994", "type": "electric_scooter", "lat": 38.91063716666667, "is_reserved": 0, "lon": -77.03036683333333, "fusion_lon": 0.0, "is_disabled": 0, "fusion_lat": 0.0, "bike_id": "82578db654f7b53c9ae2b0600a1b2994", "rental_uris": {"ios": "https://dc.lft.to/lastmile_qr_scan", "android": "https://dc.lft.to/lastmile_qr_scan"}}, {"name": "a07004664fdb299e26abd5b07312a690", "type": "electric_scooter", "lat": 38.92344666666666, "is_reserved": 0, "lon": -77.05098266666667, "fusion_lon": 0.0, "is_disabled": 0, "fusion_lat": 0.0, "bike_id": "a07004664fdb299e26abd5b07312a690", "rental_uris": {"ios": "https://dc.lft.to/lastmile_qr_scan", "android": "https://dc.lft.to/lastmile_qr_scan"}}, {"name": "b1283d561996e9205454c65060a98d62", "type": "electric_scooter", "lat": 38.906031166666665, "is_reserved": 0, "lon": -77.01322383333333, "fusion_lon": 0.0, "is_disabled": 0, "fusion_lat": 0.0, "bike_id": "b1283d561996e9205454c65060a98d62", "rental_uris": {"ios": "https://dc.lft.to/lastmile_qr_scan", "android": "https://dc.lft.to/lastmile_qr_scan"}}, {"name": "095546fa8855d09d1a1f90397065b1af", "type": "electric_bike", "lat": 38.910608833333335, "is_reserved": 0, "lon": -77.00461266666667, "fusion_lon": 0.0, "is_disabled": 0, "fusion_lat": 0.0, "bike_id": "095546fa8855d09d1a1f90397065b1af", "rental_uris": {"ios": "https://dc.lft.to/lastmile_qr_scan", "android": "https://dc.lft.to/lastmile_qr_scan"}}, {"name": "8ac08adb6cf33fd9a69bca4a21e8ede3", "type": "electric_scooter", "lat": 38.898802833333335, "is_reserved": 0, "lon": -76.93161316666666, "fusion_lon": 0.0, "is_disabled": 0, "fusion_lat": 0.0, "bike_id": "8ac08adb6cf33fd9a69bca4a21e8ede3", "rental_uris": {"ios": "https://dc.lft.to/lastmile_qr_scan", "android": "https://dc.lft.to/lastmile_qr_scan"}}, {"name": "398ef29979fb11809e3d83b26c70bd5a", "type": "electric_scooter", "lat": 38.941777, "is_reserved": 0, "lon": -77.041341, "fusion_lon": 0.0, "is_disabled": 0, "fusion_lat": 0.0, "bike_id": "398ef29979fb11809e3d83b26c70bd5a", "rental_uris": {"ios": "https://dc.lft.to/lastmile_qr_scan", "android": "https://dc.lft.to/lastmile_qr_scan"}}, {"name": "beec0fc59923a5dd9079d1af49d322ba", "type": "electric_bike", "lat": 38.94901733333333, "is_reserved": 0, "lon": -76.9637405, "fusion_lon": 0.0, "is_disabled": 0, "fusion_lat": 0.0, "bike_id": "beec0fc59923a5dd9079d1af49d322ba", "rental_uris": {"ios": "https://dc.lft.to/lastmile_qr_scan", "android": "https://dc.lft.to/lastmile_qr_scan"}}, {"name": "91b8b5a890308aef042af16ff9e3574a", "type": "electric_bike", "lat": 38.99829416666667, "is_reserved": 0, "lon": -76.88360083333333, "fusion_lon": 0.0, "is_disabled": 0, "fusion_lat": 0.0, "bike_id": "91b8b5a890308aef042af16ff9e3574a", "rental_uris": {"ios": "https://dc.lft.to/lastmile_qr_scan", "android": "https://dc.lft.to/lastmile_qr_scan"}}, {"name": "24a882af20ac59182f8beb969baa8e21", "type": "electric_scooter", "lat": 38.928969333333335, "is_reserved": 0, "lon": -77.05455516666666, "fusion_lon": 0.0, "is_disabled": 0, "fusion_lat": 0.0, "bike_id": "24a882af20ac59182f8beb969baa8e21", "rental_uris": {"ios": "https://dc.lft.to/lastmile_qr_scan", "android": "https://dc.lft.to/lastmile_qr_scan"}}, {"name": "14213d64dcd2d3f9d91524e4c0442ebc", "type": "electric_scooter", "lat": 38.918495, "is_reserved": 0, "lon": -77.02608066666667, "fusion_lon": 0.0, "is_disabled": 0, "fusion_lat": 0.0, "bike_id": "14213d64dcd2d3f9d91524e4c0442ebc", "rental_uris": {"ios": "https://dc.lft.to/lastmile_qr_scan", "android": "https://dc.lft.to/lastmile_qr_scan"}}, {"name": "6c627c6f2c6477b327bf0ebe9cc009ea", "type": "electric_scooter", "lat": 38.903487, "is_reserved": 0, "lon": -77.06646083333334, "fusion_lon": 0.0, "is_disabled": 0, "fusion_lat": 0.0, "bike_id": "6c627c6f2c6477b327bf0ebe9cc009ea", "rental_uris": {"ios": "https://dc.lft.to/lastmile_qr_scan", "android": "https://dc.lft.to/lastmile_qr_scan"}}, {"name": "98a8d88ca27d3018469444b69157b6f5", "type": "electric_scooter", "lat": 38.90132883333333, "is_reserved": 0, "lon": -77.03970733333334, "fusion_lon": 0.0, "is_disabled": 0, "fusion_lat": 0.0, "bike_id": "98a8d88ca27d3018469444b69157b6f5", "rental_uris": {"ios": "https://dc.lft.to/lastmile_qr_scan", "android": "https://dc.lft.to/lastmile_qr_scan"}}, {"name": "a94574a71e3bbfa45234ea8e85957053", "type": "electric_scooter", "lat": 38.91105683333333, "is_reserved": 0, "lon": -77.0021825, "fusion_lon": 0.0, "is_disabled": 0, "fusion_lat": 0.0, "bike_id": "a94574a71e3bbfa45234ea8e85957053", "rental_uris": {"ios": "https://dc.lft.to/lastmile_qr_scan", "android": "https://dc.lft.to/lastmile_qr_scan"}}, {"name": "323899a657a408b981bfbc06771be901", "type": "electric_scooter", "lat": 38.90356516666667, "is_reserved": 0, "lon": -77.01105666666666, "fusion_lon": 0.0, "is_disabled": 0, "fusion_lat": 0.0, "bike_id": "323899a657a408b981bfbc06771be901", "rental_uris": {"ios": "https://dc.lft.to/lastmile_qr_scan", "android": "https://dc.lft.to/lastmile_qr_scan"}}, {"name": "e21e50283fc8694a408f0d6626fd51eb", "type": "electric_scooter", "lat": 38.9102665, "is_reserved": 0, "lon": -77.04820016666666, "fusion_lon": 0.0, "is_disabled": 0, "fusion_lat": 0.0, "bike_id": "e21e50283fc8694a408f0d6626fd51eb", "rental_uris": {"ios": "https://dc.lft.to/lastmile_qr_scan", "android": "https://dc.lft.to/lastmile_qr_scan"}}, {"name": "b4e8a91a2527ae456f261fa32b8347c3", "type": "electric_scooter", "lat": 38.85633983333334, "is_reserved": 0, "lon": -76.974539, "fusion_lon": 0.0, "is_disabled": 0, "fusion_lat": 0.0, "bike_id": "b4e8a91a2527ae456f261fa32b8347c3", "rental_uris": {"ios": "https://dc.lft.to/lastmile_qr_scan", "android": "https://dc.lft.to/lastmile_qr_scan"}}, {"name": "5f60f852e390e91b05472eed6aef11b2", "type": "electric_scooter", "lat": 38.9304595, "is_reserved": 0, "lon": -77.0235155, "fusion_lon": 0.0, "is_disabled": 0, "fusion_lat": 0.0, "bike_id": "5f60f852e390e91b05472eed6aef11b2", "rental_uris": {"ios": "https://dc.lft.to/lastmile_qr_scan", "android": "https://dc.lft.to/lastmile_qr_scan"}}, {"name": "fa7252929cbd5f5e6be197f9adf8fae7", "type": "electric_scooter", "lat": 38.905178, "is_reserved": 0, "lon": -77.06590366666667, "fusion_lon": 0.0, "is_disabled": 0, "fusion_lat": 0.0, "bike_id": "fa7252929cbd5f5e6be197f9adf8fae7", "rental_uris": {"ios": "https://dc.lft.to/lastmile_qr_scan", "android": "https://dc.lft.to/lastmile_qr_scan"}}, {"name": "ed38f4a15b8df3f8e6847e029ec6c92e", "type": "electric_bike", "lat": 38.92866183333334, "is_reserved": 0, "lon": -76.96109633333333, "fusion_lon": 0.0, "is_disabled": 0, "fusion_lat": 0.0, "bike_id": "ed38f4a15b8df3f8e6847e029ec6c92e", "rental_uris": {"ios": "https://dc.lft.to/lastmile_qr_scan", "android": "https://dc.lft.to/lastmile_qr_scan"}}, {"name": "223bc13f8f90be293a7b15d10b145306", "type": "electric_scooter", "lat": 38.8635835, "is_reserved": 0, "lon": -76.99066066666667, "fusion_lon": 0.0, "is_disabled": 0, "fusion_lat": 0.0, "bike_id": "223bc13f8f90be293a7b15d10b145306", "rental_uris": {"ios": "https://dc.lft.to/lastmile_qr_scan", "android": "https://dc.lft.to/lastmile_qr_scan"}}, {"name": "1de566b442d715480a51d6ebe5c5a370", "type": "electric_scooter", "lat": 38.89725683333333, "is_reserved": 0, "lon": -77.032591, "fusion_lon": 0.0, "is_disabled": 0, "fusion_lat": 0.0, "bike_id": "1de566b442d715480a51d6ebe5c5a370", "rental_uris": {"ios": "https://dc.lft.to/lastmile_qr_scan", "android": "https://dc.lft.to/lastmile_qr_scan"}}, {"name": "d7f3817f7e8f3bbf4d4d9543cde96488", "type": "electric_scooter", "lat": 38.9411585, "is_reserved": 0, "lon": -77.02658116666667, "fusion_lon": 0.0, "is_disabled": 0, "fusion_lat": 0.0, "bike_id": "d7f3817f7e8f3bbf4d4d9543cde96488", "rental_uris": {"ios": "https://dc.lft.to/lastmile_qr_scan", "android": "https://dc.lft.to/lastmile_qr_scan"}}, {"name": "08d469145a8d4c7d17b66dbf302b6668", "type": "electric_scooter", "lat": 38.90863183333333, "is_reserved": 0, "lon": -76.98616716666666, "fusion_lon": 0.0, "is_disabled": 0, "fusion_lat": 0.0, "bike_id": "08d469145a8d4c7d17b66dbf302b6668", "rental_uris": {"ios": "https://dc.lft.to/lastmile_qr_scan", "android": "https://dc.lft.to/lastmile_qr_scan"}}, {"name": "966cf5d2a3ad48d3c6d89caa33b12b35", "type": "electric_bike", "lat": 38.92998883333333, "is_reserved": 0, "lon": -77.01087216666667, "fusion_lon": 0.0, "is_disabled": 0, "fusion_lat": 0.0, "bike_id": "966cf5d2a3ad48d3c6d89caa33b12b35", "rental_uris": {"ios": "https://dc.lft.to/lastmile_qr_scan", "android": "https://dc.lft.to/lastmile_qr_scan"}}, {"name": "a5cf9cd62fcb833e94f7067bca6c8180", "type": "electric_scooter", "lat": 38.884975833333336, "is_reserved": 0, "lon": -77.02856583333333, "fusion_lon": 0.0, "is_disabled": 0, "fusion_lat": 0.0, "bike_id": "a5cf9cd62fcb833e94f7067bca6c8180", "rental_uris": {"ios": "https://dc.lft.to/lastmile_qr_scan", "android": "https://dc.lft.to/lastmile_qr_scan"}}, {"name": "b03208c4f59a6fd3a0f3b7837865bf55", "type": "electric_scooter", "lat": 38.965607166666665, "is_reserved": 0, "lon": -77.0162585, "fusion_lon": 0.0, "is_disabled": 0, "fusion_lat": 0.0, "bike_id": "b03208c4f59a6fd3a0f3b7837865bf55", "rental_uris": {"ios": "https://dc.lft.to/lastmile_qr_scan", "android": "https://dc.lft.to/lastmile_qr_scan"}}, {"name": "044c79703c59d90dc7d61dfbac4ee1cc", "type": "electric_scooter", "lat": 38.900232833333334, "is_reserved": 0, "lon": -77.01166666666667, "fusion_lon": 0.0, "is_disabled": 0, "fusion_lat": 0.0, "bike_id": "044c79703c59d90dc7d61dfbac4ee1cc", "rental_uris": {"ios": "https://dc.lft.to/lastmile_qr_scan", "android": "https://dc.lft.to/lastmile_qr_scan"}}, {"name": "ab890bafe1db1b8bbf0a2e9ef8e02505", "type": "electric_scooter", "lat": 38.910026333333334, "is_reserved": 0, "lon": -77.022582, "fusion_lon": 0.0, "is_disabled": 0, "fusion_lat": 0.0, "bike_id": "ab890bafe1db1b8bbf0a2e9ef8e02505", "rental_uris": {"ios": "https://dc.lft.to/lastmile_qr_scan", "android": "https://dc.lft.to/lastmile_qr_scan"}}, {"name": "424cb90fa44f0015a96d970db60e3757", "type": "electric_scooter", "lat": 38.916929, "is_reserved": 0, "lon": -77.02598366666666, "fusion_lon": 0.0, "is_disabled": 0, "fusion_lat": 0.0, "bike_id": "424cb90fa44f0015a96d970db60e3757", "rental_uris": {"ios": "https://dc.lft.to/lastmile_qr_scan", "android": "https://dc.lft.to/lastmile_qr_scan"}}, {"name": "cb9b0f0bbfe180cb0a97c4cdba000793", "type": "electric_scooter", "lat": 38.903624666666666, "is_reserved": 0, "lon": -77.0436115, "fusion_lon": 0.0, "is_disabled": 0, "fusion_lat": 0.0, "bike_id": "cb9b0f0bbfe180cb0a97c4cdba000793", "rental_uris": {"ios": "https://dc.lft.to/lastmile_qr_scan", "android": "https://dc.lft.to/lastmile_qr_scan"}}, {"name": "4a4075ba75f9466aac2c7a85b901bb9c", "type": "electric_bike", "lat": 38.8866605, "is_reserved": 0, "lon": -77.16268683333334, "fusion_lon": 0.0, "is_disabled": 0, "fusion_lat": 0.0, "bike_id": "4a4075ba75f9466aac2c7a85b901bb9c", "rental_uris": {"ios": "https://dc.lft.to/lastmile_qr_scan", "android": "https://dc.lft.to/lastmile_qr_scan"}}, {"name": "640dbe7c9cb06a5a9f76a1d24bd90260", "type": "electric_scooter", "lat": 38.902678, "is_reserved": 0, "lon": -77.0532195, "fusion_lon": 0.0, "is_disabled": 0, "fusion_lat": 0.0, "bike_id": "640dbe7c9cb06a5a9f76a1d24bd90260", "rental_uris": {"ios": "https://dc.lft.to/lastmile_qr_scan", "android": "https://dc.lft.to/lastmile_qr_scan"}}, {"name": "3df8049d4e3207f78d9e200c9ae6d873", "type": "electric_scooter", "lat": 38.92748433333333, "is_reserved": 0, "lon": -77.02484966666667, "fusion_lon": 0.0, "is_disabled": 0, "fusion_lat": 0.0, "bike_id": "3df8049d4e3207f78d9e200c9ae6d873", "rental_uris": {"ios": "https://dc.lft.to/lastmile_qr_scan", "android": "https://dc.lft.to/lastmile_qr_scan"}}, {"name": "39523fd90cb92087fd21c3c83bc1f61b", "type": "electric_scooter", "lat": 38.923686000000004, "is_reserved": 0, "lon": -77.05022083333333, "fusion_lon": 0.0, "is_disabled": 0, "fusion_lat": 0.0, "bike_id": "39523fd90cb92087fd21c3c83bc1f61b", "rental_uris": {"ios": "https://dc.lft.to/lastmile_qr_scan", "android": "https://dc.lft.to/lastmile_qr_scan"}}, {"name": "34a06037548953c29b2793c6ddf7ee97", "type": "electric_scooter", "lat": 38.90798066666667, "is_reserved": 0, "lon": -77.04824233333333, "fusion_lon": 0.0, "is_disabled": 0, "fusion_lat": 0.0, "bike_id": "34a06037548953c29b2793c6ddf7ee97", "rental_uris": {"ios": "https://dc.lft.to/lastmile_qr_scan", "android": "https://dc.lft.to/lastmile_qr_scan"}}, {"name": "6fff242372cc19e5cf15de30aeecca62", "type": "electric_scooter", "lat": 38.90976833333333, "is_reserved": 0, "lon": -77.036797, "fusion_lon": 0.0, "is_disabled": 0, "fusion_lat": 0.0, "bike_id": "6fff242372cc19e5cf15de30aeecca62", "rental_uris": {"ios": "https://dc.lft.to/lastmile_qr_scan", "android": "https://dc.lft.to/lastmile_qr_scan"}}, {"name": "8778730d0616192fb978a08093175d1a", "type": "electric_scooter", "lat": 38.89835333333333, "is_reserved": 0, "lon": -77.04366866666666, "fusion_lon": 0.0, "is_disabled": 0, "fusion_lat": 0.0, "bike_id": "8778730d0616192fb978a08093175d1a", "rental_uris": {"ios": "https://dc.lft.to/lastmile_qr_scan", "android": "https://dc.lft.to/lastmile_qr_scan"}}, {"name": "1a8ef2ab8dd5b2d6993a898f3b0ab4ca", "type": "electric_bike", "lat": 39.10566716666667, "is_reserved": 0, "lon": -77.15269666666667, "fusion_lon": 0.0, "is_disabled": 0, "fusion_lat": 0.0, "bike_id": "1a8ef2ab8dd5b2d6993a898f3b0ab4ca", "rental_uris": {"ios": "https://dc.lft.to/lastmile_qr_scan", "android": "https://dc.lft.to/lastmile_qr_scan"}}, {"name": "2982d5017d8f7b4626a87998c8856b71", "type": "electric_scooter", "lat": 38.89426666666667, "is_reserved": 0, "lon": -76.93243183333334, "fusion_lon": 0.0, "is_disabled": 0, "fusion_lat": 0.0, "bike_id": "2982d5017d8f7b4626a87998c8856b71", "rental_uris": {"ios": "https://dc.lft.to/lastmile_qr_scan", "android": "https://dc.lft.to/lastmile_qr_scan"}}, {"name": "fa4f361793a33888646a05b76012108b", "type": "electric_scooter", "lat": 38.956499666666666, "is_reserved": 0, "lon": -77.03289666666667, "fusion_lon": 0.0, "is_disabled": 0, "fusion_lat": 0.0, "bike_id": "fa4f361793a33888646a05b76012108b", "rental_uris": {"ios": "https://dc.lft.to/lastmile_qr_scan", "android": "https://dc.lft.to/lastmile_qr_scan"}}, {"name": "dde35f5a924fcc525d3dff0556cd364e", "type": "electric_scooter", "lat": 38.90262383333334, "is_reserved": 0, "lon": -77.03641583333334, "fusion_lon": 0.0, "is_disabled": 0, "fusion_lat": 0.0, "bike_id": "dde35f5a924fcc525d3dff0556cd364e", "rental_uris": {"ios": "https://dc.lft.to/lastmile_qr_scan", "android": "https://dc.lft.to/lastmile_qr_scan"}}, {"name": "259a404a2f3b563495ac9d37f6bf5db0", "type": "electric_scooter", "lat": 38.923679, "is_reserved": 0, "lon": -77.03144366666666, "fusion_lon": 0.0, "is_disabled": 0, "fusion_lat": 0.0, "bike_id": "259a404a2f3b563495ac9d37f6bf5db0", "rental_uris": {"ios": "https://dc.lft.to/lastmile_qr_scan", "android": "https://dc.lft.to/lastmile_qr_scan"}}, {"name": "230e3b987934f32f000d4cef4d6549ff", "type": "electric_scooter", "lat": 38.9024975, "is_reserved": 0, "lon": -77.03838966666666, "fusion_lon": 0.0, "is_disabled": 0, "fusion_lat": 0.0, "bike_id": "230e3b987934f32f000d4cef4d6549ff", "rental_uris": {"ios": "https://dc.lft.to/lastmile_qr_scan", "android": "https://dc.lft.to/lastmile_qr_scan"}}, {"name": "3fc841a273ad67bacb0dabb4507221b3", "type": "electric_bike", "lat": 39.00376766666667, "is_reserved": 0, "lon": -77.0128795, "fusion_lon": 0.0, "is_disabled": 0, "fusion_lat": 0.0, "bike_id": "3fc841a273ad67bacb0dabb4507221b3", "rental_uris": {"ios": "https://dc.lft.to/lastmile_qr_scan", "android": "https://dc.lft.to/lastmile_qr_scan"}}, {"name": "2607dcfb362a3522c1ef8c65bcab8105", "type": "electric_scooter", "lat": 38.8580445, "is_reserved": 0, "lon": -76.99123483333334, "fusion_lon": 0.0, "is_disabled": 0, "fusion_lat": 0.0, "bike_id": "2607dcfb362a3522c1ef8c65bcab8105", "rental_uris": {"ios": "https://dc.lft.to/lastmile_qr_scan", "android": "https://dc.lft.to/lastmile_qr_scan"}}, {"name": "f1ac03c9dbf32ca1bcf11bb895683b42", "type": "electric_scooter", "lat": 38.9156675, "is_reserved": 0, "lon": -77.03187983333333, "fusion_lon": 0.0, "is_disabled": 0, "fusion_lat": 0.0, "bike_id": "f1ac03c9dbf32ca1bcf11bb895683b42", "rental_uris": {"ios": "https://dc.lft.to/lastmile_qr_scan", "android": "https://dc.lft.to/lastmile_qr_scan"}}, {"name": "7cb469899c826ee54ae0feec5a27a465", "type": "electric_bike", "lat": 38.970876, "is_reserved": 0, "lon": -77.0696455, "fusion_lon": 0.0, "is_disabled": 0, "fusion_lat": 0.0, "bike_id": "7cb469899c826ee54ae0feec5a27a465", "rental_uris": {"ios": "https://dc.lft.to/lastmile_qr_scan", "android": "https://dc.lft.to/lastmile_qr_scan"}}, {"name": "7701899858c33cdfc6a1b14650af7a05", "type": "electric_scooter", "lat": 38.89485766666667, "is_reserved": 0, "lon": -77.0112885, "fusion_lon": 0.0, "is_disabled": 0, "fusion_lat": 0.0, "bike_id": "7701899858c33cdfc6a1b14650af7a05", "rental_uris": {"ios": "https://dc.lft.to/lastmile_qr_scan", "android": "https://dc.lft.to/lastmile_qr_scan"}}, {"name": "45914af73b6cbc41c8012c946cf25650", "type": "electric_scooter", "lat": 38.903922, "is_reserved": 0, "lon": -76.98944166666666, "fusion_lon": 0.0, "is_disabled": 0, "fusion_lat": 0.0, "bike_id": "45914af73b6cbc41c8012c946cf25650", "rental_uris": {"ios": "https://dc.lft.to/lastmile_qr_scan", "android": "https://dc.lft.to/lastmile_qr_scan"}}, {"name": "879f17556c66790998dc46fac0d54622", "type": "electric_scooter", "lat": 38.87713566666667, "is_reserved": 0, "lon": -76.99382766666666, "fusion_lon": 0.0, "is_disabled": 0, "fusion_lat": 0.0, "bike_id": "879f17556c66790998dc46fac0d54622", "rental_uris": {"ios": "https://dc.lft.to/lastmile_qr_scan", "android": "https://dc.lft.to/lastmile_qr_scan"}}, {"name": "d0f0b08f0278d353189949bf223e978e", "type": "electric_scooter", "lat": 38.926268, "is_reserved": 0, "lon": -77.037852, "fusion_lon": 0.0, "is_disabled": 0, "fusion_lat": 0.0, "bike_id": "d0f0b08f0278d353189949bf223e978e", "rental_uris": {"ios": "https://dc.lft.to/lastmile_qr_scan", "android": "https://dc.lft.to/lastmile_qr_scan"}}, {"name": "872d0618fde6ed7b8cd57fc0d2974482", "type": "electric_scooter", "lat": 38.90383083333333, "is_reserved": 0, "lon": -77.04024233333334, "fusion_lon": 0.0, "is_disabled": 0, "fusion_lat": 0.0, "bike_id": "872d0618fde6ed7b8cd57fc0d2974482", "rental_uris": {"ios": "https://dc.lft.to/lastmile_qr_scan", "android": "https://dc.lft.to/lastmile_qr_scan"}}, {"name": "9819ea0db5d67760197f90a662af365f", "type": "electric_scooter", "lat": 38.91333366666667, "is_reserved": 0, "lon": -77.0487035, "fusion_lon": 0.0, "is_disabled": 0, "fusion_lat": 0.0, "bike_id": "9819ea0db5d67760197f90a662af365f", "rental_uris": {"ios": "https://dc.lft.to/lastmile_qr_scan", "android": "https://dc.lft.to/lastmile_qr_scan"}}, {"name": "b84c9065f6520794c4cd700a7c856855", "type": "electric_scooter", "lat": 38.887676166666665, "is_reserved": 0, "lon": -76.92713533333334, "fusion_lon": 0.0, "is_disabled": 0, "fusion_lat": 0.0, "bike_id": "b84c9065f6520794c4cd700a7c856855", "rental_uris": {"ios": "https://dc.lft.to/lastmile_qr_scan", "android": "https://dc.lft.to/lastmile_qr_scan"}}, {"name": "c73fb6389d3ed03094b5617ee69d7f4e", "type": "electric_scooter", "lat": 38.8991065, "is_reserved": 0, "lon": -77.03283233333333, "fusion_lon": 0.0, "is_disabled": 0, "fusion_lat": 0.0, "bike_id": "c73fb6389d3ed03094b5617ee69d7f4e", "rental_uris": {"ios": "https://dc.lft.to/lastmile_qr_scan", "android": "https://dc.lft.to/lastmile_qr_scan"}}, {"name": "084f9f76b5014a286c1829c811180c90", "type": "electric_scooter", "lat": 38.90509766666667, "is_reserved": 0, "lon": -77.03441716666667, "fusion_lon": 0.0, "is_disabled": 0, "fusion_lat": 0.0, "bike_id": "084f9f76b5014a286c1829c811180c90", "rental_uris": {"ios": "https://dc.lft.to/lastmile_qr_scan", "android": "https://dc.lft.to/lastmile_qr_scan"}}, {"name": "a39378ae5526a2708665372d7069c496", "type": "electric_scooter", "lat": 38.90010483333333, "is_reserved": 0, "lon": -77.0102135, "fusion_lon": 0.0, "is_disabled": 0, "fusion_lat": 0.0, "bike_id": "a39378ae5526a2708665372d7069c496", "rental_uris": {"ios": "https://dc.lft.to/lastmile_qr_scan", "android": "https://dc.lft.to/lastmile_qr_scan"}}, {"name": "99b816963f3d980f85e3abdaf17454be", "type": "electric_scooter", "lat": 38.93143116666667, "is_reserved": 0, "lon": -77.0385105, "fusion_lon": 0.0, "is_disabled": 0, "fusion_lat": 0.0, "bike_id": "99b816963f3d980f85e3abdaf17454be", "rental_uris": {"ios": "https://dc.lft.to/lastmile_qr_scan", "android": "https://dc.lft.to/lastmile_qr_scan"}}, {"name": "000a6541e663e3dd95c9ee1e3c63767a", "type": "electric_scooter", "lat": 38.902590333333336, "is_reserved": 0, "lon": -77.04611533333333, "fusion_lon": 0.0, "is_disabled": 0, "fusion_lat": 0.0, "bike_id": "000a6541e663e3dd95c9ee1e3c63767a", "rental_uris": {"ios": "https://dc.lft.to/lastmile_qr_scan", "android": "https://dc.lft.to/lastmile_qr_scan"}}, {"name": "4ac0753fa33df398e16aafeebff0d7a2", "type": "electric_scooter", "lat": 38.938894, "is_reserved": 0, "lon": -77.024607, "fusion_lon": 0.0, "is_disabled": 0, "fusion_lat": 0.0, "bike_id": "4ac0753fa33df398e16aafeebff0d7a2", "rental_uris": {"ios": "https://dc.lft.to/lastmile_qr_scan", "android": "https://dc.lft.to/lastmile_qr_scan"}}, {"name": "19f6c4038ec5848bfc5c554cef8a11ce", "type": "electric_bike", "lat": 39.09458716666666, "is_reserved": 0, "lon": -77.14994666666666, "fusion_lon": 0.0, "is_disabled": 0, "fusion_lat": 0.0, "bike_id": "19f6c4038ec5848bfc5c554cef8a11ce", "rental_uris": {"ios": "https://dc.lft.to/lastmile_qr_scan", "android": "https://dc.lft.to/lastmile_qr_scan"}}, {"name": "ea16b7a68ce19845453a084887de068f", "type": "electric_scooter", "lat": 38.89016316666667, "is_reserved": 0, "lon": -76.9373195, "fusion_lon": 0.0, "is_disabled": 0, "fusion_lat": 0.0, "bike_id": "ea16b7a68ce19845453a084887de068f", "rental_uris": {"ios": "https://dc.lft.to/lastmile_qr_scan", "android": "https://dc.lft.to/lastmile_qr_scan"}}, {"name": "7e2f2ec48ce9180d6c1089001b848825", "type": "electric_bike", "lat": 38.91491, "is_reserved": 0, "lon": -77.018609, "fusion_lon": 0.0, "is_disabled": 0, "fusion_lat": 0.0, "bike_id": "7e2f2ec48ce9180d6c1089001b848825", "rental_uris": {"ios": "https://dc.lft.to/lastmile_qr_scan", "android": "https://dc.lft.to/lastmile_qr_scan"}}, {"name": "01b2237529057e34d817d7a316c3cd60", "type": "electric_bike", "lat": 38.840675166666664, "is_reserved": 0, "lon": -77.06405966666667, "fusion_lon": 0.0, "is_disabled": 0, "fusion_lat": 0.0, "bike_id": "01b2237529057e34d817d7a316c3cd60", "rental_uris": {"ios": "https://dc.lft.to/lastmile_qr_scan", "android": "https://dc.lft.to/lastmile_qr_scan"}}, {"name": "3f9c384f87b08b91c4d469cc19bbea8a", "type": "electric_scooter", "lat": 38.8624585, "is_reserved": 0, "lon": -76.9949605, "fusion_lon": 0.0, "is_disabled": 0, "fusion_lat": 0.0, "bike_id": "3f9c384f87b08b91c4d469cc19bbea8a", "rental_uris": {"ios": "https://dc.lft.to/lastmile_qr_scan", "android": "https://dc.lft.to/lastmile_qr_scan"}}, {"name": "76b26b01de0730347cafe9f0736f99c4", "type": "electric_scooter", "lat": 38.894959, "is_reserved": 0, "lon": -77.00215116666666, "fusion_lon": 0.0, "is_disabled": 0, "fusion_lat": 0.0, "bike_id": "76b26b01de0730347cafe9f0736f99c4", "rental_uris": {"ios": "https://dc.lft.to/lastmile_qr_scan", "android": "https://dc.lft.to/lastmile_qr_scan"}}, {"name": "808d7700ba9a292a9de910becc232d19", "type": "electric_scooter", "lat": 38.899074666666664, "is_reserved": 0, "lon": -76.93356916666667, "fusion_lon": 0.0, "is_disabled": 0, "fusion_lat": 0.0, "bike_id": "808d7700ba9a292a9de910becc232d19", "rental_uris": {"ios": "https://dc.lft.to/lastmile_qr_scan", "android": "https://dc.lft.to/lastmile_qr_scan"}}, {"name": "78db1921b05e7eb5181ae2538bb671db", "type": "electric_bike", "lat": 38.85787933333334, "is_reserved": 0, "lon": -77.09962733333333, "fusion_lon": 0.0, "is_disabled": 0, "fusion_lat": 0.0, "bike_id": "78db1921b05e7eb5181ae2538bb671db", "rental_uris": {"ios": "https://dc.lft.to/lastmile_qr_scan", "android": "https://dc.lft.to/lastmile_qr_scan"}}, {"name": "4428ed056c4590e3ddf87ddfcef78fe6", "type": "electric_bike", "lat": 38.87527816666667, "is_reserved": 0, "lon": -77.19909716666666, "fusion_lon": 0.0, "is_disabled": 0, "fusion_lat": 0.0, "bike_id": "4428ed056c4590e3ddf87ddfcef78fe6", "rental_uris": {"ios": "https://dc.lft.to/lastmile_qr_scan", "android": "https://dc.lft.to/lastmile_qr_scan"}}, {"name": "961517117ad6f3da9093ccd68295468c", "type": "electric_scooter", "lat": 38.927250666666666, "is_reserved": 0, "lon": -77.00564333333334, "fusion_lon": 0.0, "is_disabled": 0, "fusion_lat": 0.0, "bike_id": "961517117ad6f3da9093ccd68295468c", "rental_uris": {"ios": "https://dc.lft.to/lastmile_qr_scan", "android": "https://dc.lft.to/lastmile_qr_scan"}}, {"name": "331cce03491f2d63313c75299c129ed6", "type": "electric_scooter", "lat": 38.905665, "is_reserved": 0, "lon": -77.0486755, "fusion_lon": 0.0, "is_disabled": 0, "fusion_lat": 0.0, "bike_id": "331cce03491f2d63313c75299c129ed6", "rental_uris": {"ios": "https://dc.lft.to/lastmile_qr_scan", "android": "https://dc.lft.to/lastmile_qr_scan"}}, {"name": "b25f2065bf86a94fc56794dbc358be13", "type": "electric_scooter", "lat": 38.92807083333334, "is_reserved": 0, "lon": -77.01387733333334, "fusion_lon": 0.0, "is_disabled": 0, "fusion_lat": 0.0, "bike_id": "b25f2065bf86a94fc56794dbc358be13", "rental_uris": {"ios": "https://dc.lft.to/lastmile_qr_scan", "android": "https://dc.lft.to/lastmile_qr_scan"}}, {"name": "b4cc0ee22e3e8b97837da5c06d702bd3", "type": "electric_scooter", "lat": 38.88295016666667, "is_reserved": 0, "lon": -76.9861685, "fusion_lon": 0.0, "is_disabled": 0, "fusion_lat": 0.0, "bike_id": "b4cc0ee22e3e8b97837da5c06d702bd3", "rental_uris": {"ios": "https://dc.lft.to/lastmile_qr_scan", "android": "https://dc.lft.to/lastmile_qr_scan"}}, {"name": "c780c298c229a0f12262bcb000db37d6", "type": "electric_scooter", "lat": 38.90031583333333, "is_reserved": 0, "lon": -77.00207233333333, "fusion_lon": 0.0, "is_disabled": 0, "fusion_lat": 0.0, "bike_id": "c780c298c229a0f12262bcb000db37d6", "rental_uris": {"ios": "https://dc.lft.to/lastmile_qr_scan", "android": "https://dc.lft.to/lastmile_qr_scan"}}, {"name": "a45839791d2a2eab6fa841d30aad6b8e", "type": "electric_scooter", "lat": 38.868257666666665, "is_reserved": 0, "lon": -76.98614666666667, "fusion_lon": 0.0, "is_disabled": 0, "fusion_lat": 0.0, "bike_id": "a45839791d2a2eab6fa841d30aad6b8e", "rental_uris": {"ios": "https://dc.lft.to/lastmile_qr_scan", "android": "https://dc.lft.to/lastmile_qr_scan"}}, {"name": "267d2bc408550612b21a59041d08097f", "type": "electric_scooter", "lat": 38.90518, "is_reserved": 0, "lon": -77.06593583333333, "fusion_lon": 0.0, "is_disabled": 0, "fusion_lat": 0.0, "bike_id": "267d2bc408550612b21a59041d08097f", "rental_uris": {"ios": "https://dc.lft.to/lastmile_qr_scan", "android": "https://dc.lft.to/lastmile_qr_scan"}}, {"name": "f2fe12b8da84a0ec671f7abd0a70a1fb", "type": "electric_scooter", "lat": 38.915857333333335, "is_reserved": 0, "lon": -77.0425465, "fusion_lon": 0.0, "is_disabled": 0, "fusion_lat": 0.0, "bike_id": "f2fe12b8da84a0ec671f7abd0a70a1fb", "rental_uris": {"ios": "https://dc.lft.to/lastmile_qr_scan", "android": "https://dc.lft.to/lastmile_qr_scan"}}, {"name": "d3c458e1d27921f751bcf20143421f42", "type": "electric_scooter", "lat": 38.937703166666665, "is_reserved": 0, "lon": -77.02266316666666, "fusion_lon": 0.0, "is_disabled": 0, "fusion_lat": 0.0, "bike_id": "d3c458e1d27921f751bcf20143421f42", "rental_uris": {"ios": "https://dc.lft.to/lastmile_qr_scan", "android": "https://dc.lft.to/lastmile_qr_scan"}}, {"name": "86ec35176b49c5841a82c3208140f3a0", "type": "electric_bike", "lat": 38.83986433333333, "is_reserved": 0, "lon": -77.00569583333333, "fusion_lon": 0.0, "is_disabled": 0, "fusion_lat": 0.0, "bike_id": "86ec35176b49c5841a82c3208140f3a0", "rental_uris": {"ios": "https://dc.lft.to/lastmile_qr_scan", "android": "https://dc.lft.to/lastmile_qr_scan"}}, {"name": "1c4395973c37ad082d53b5ff235145d8", "type": "electric_scooter", "lat": 38.924829833333334, "is_reserved": 0, "lon": -77.02885816666667, "fusion_lon": 0.0, "is_disabled": 0, "fusion_lat": 0.0, "bike_id": "1c4395973c37ad082d53b5ff235145d8", "rental_uris": {"ios": "https://dc.lft.to/lastmile_qr_scan", "android": "https://dc.lft.to/lastmile_qr_scan"}}, {"name": "db1e5a24e6fbe254aee590ac630e93f4", "type": "electric_scooter", "lat": 38.929812166666665, "is_reserved": 0, "lon": -77.01449366666667, "fusion_lon": 0.0, "is_disabled": 0, "fusion_lat": 0.0, "bike_id": "db1e5a24e6fbe254aee590ac630e93f4", "rental_uris": {"ios": "https://dc.lft.to/lastmile_qr_scan", "android": "https://dc.lft.to/lastmile_qr_scan"}}, {"name": "38255cd94e6cae4820c1d26c34216def", "type": "electric_scooter", "lat": 38.899774666666666, "is_reserved": 0, "lon": -77.0218365, "fusion_lon": 0.0, "is_disabled": 0, "fusion_lat": 0.0, "bike_id": "38255cd94e6cae4820c1d26c34216def", "rental_uris": {"ios": "https://dc.lft.to/lastmile_qr_scan", "android": "https://dc.lft.to/lastmile_qr_scan"}}, {"name": "e28918582d1909907da4ff772d7e064f", "type": "electric_scooter", "lat": 38.930657333333336, "is_reserved": 0, "lon": -77.0297835, "fusion_lon": 0.0, "is_disabled": 0, "fusion_lat": 0.0, "bike_id": "e28918582d1909907da4ff772d7e064f", "rental_uris": {"ios": "https://dc.lft.to/lastmile_qr_scan", "android": "https://dc.lft.to/lastmile_qr_scan"}}, {"name": "6413ac8ac2ad4e1254d5e53bbc3cce17", "type": "electric_scooter", "lat": 38.91251466666667, "is_reserved": 0, "lon": -77.03834133333334, "fusion_lon": 0.0, "is_disabled": 0, "fusion_lat": 0.0, "bike_id": "6413ac8ac2ad4e1254d5e53bbc3cce17", "rental_uris": {"ios": "https://dc.lft.to/lastmile_qr_scan", "android": "https://dc.lft.to/lastmile_qr_scan"}}, {"name": "93aca4eefb8895f3e44ed7e5b60449ba", "type": "electric_scooter", "lat": 38.900516833333334, "is_reserved": 0, "lon": -77.05072116666666, "fusion_lon": 0.0, "is_disabled": 0, "fusion_lat": 0.0, "bike_id": "93aca4eefb8895f3e44ed7e5b60449ba", "rental_uris": {"ios": "https://dc.lft.to/lastmile_qr_scan", "android": "https://dc.lft.to/lastmile_qr_scan"}}, {"name": "b4abf9a43f728f0b20a306160b5483cc", "type": "electric_scooter", "lat": 38.866594666666664, "is_reserved": 0, "lon": -76.99017, "fusion_lon": 0.0, "is_disabled": 0, "fusion_lat": 0.0, "bike_id": "b4abf9a43f728f0b20a306160b5483cc", "rental_uris": {"ios": "https://dc.lft.to/lastmile_qr_scan", "android": "https://dc.lft.to/lastmile_qr_scan"}}, {"name": "aee84749cdc6ee7c8a529cf435f05c8a", "type": "electric_scooter", "lat": 38.89952983333333, "is_reserved": 0, "lon": -76.98562016666666, "fusion_lon": 0.0, "is_disabled": 0, "fusion_lat": 0.0, "bike_id": "aee84749cdc6ee7c8a529cf435f05c8a", "rental_uris": {"ios": "https://dc.lft.to/lastmile_qr_scan", "android": "https://dc.lft.to/lastmile_qr_scan"}}, {"name": "af0b750c581e421ea24e9369fd84cdb7", "type": "electric_scooter", "lat": 38.913282333333335, "is_reserved": 0, "lon": -77.031678, "fusion_lon": 0.0, "is_disabled": 0, "fusion_lat": 0.0, "bike_id": "af0b750c581e421ea24e9369fd84cdb7", "rental_uris": {"ios": "https://dc.lft.to/lastmile_qr_scan", "android": "https://dc.lft.to/lastmile_qr_scan"}}, {"name": "a0d46cbca5e354291a28ed74a8208e5b", "type": "electric_scooter", "lat": 38.90888016666667, "is_reserved": 0, "lon": -77.00577733333333, "fusion_lon": 0.0, "is_disabled": 0, "fusion_lat": 0.0, "bike_id": "a0d46cbca5e354291a28ed74a8208e5b", "rental_uris": {"ios": "https://dc.lft.to/lastmile_qr_scan", "android": "https://dc.lft.to/lastmile_qr_scan"}}, {"name": "926ff460a10cb0afadea47db59fb57d6", "type": "electric_scooter", "lat": 38.89879916666667, "is_reserved": 0, "lon": -76.93159716666666, "fusion_lon": 0.0, "is_disabled": 0, "fusion_lat": 0.0, "bike_id": "926ff460a10cb0afadea47db59fb57d6", "rental_uris": {"ios": "https://dc.lft.to/lastmile_qr_scan", "android": "https://dc.lft.to/lastmile_qr_scan"}}, {"name": "4f1bb6a440afbb8f163cd1834f2d3151", "type": "electric_scooter", "lat": 38.894706666666664, "is_reserved": 0, "lon": -77.02310916666667, "fusion_lon": 0.0, "is_disabled": 0, "fusion_lat": 0.0, "bike_id": "4f1bb6a440afbb8f163cd1834f2d3151", "rental_uris": {"ios": "https://dc.lft.to/lastmile_qr_scan", "android": "https://dc.lft.to/lastmile_qr_scan"}}, {"name": "2adea55b9b069f2e415ce0b2ec000918", "type": "electric_scooter", "lat": 38.91730166666667, "is_reserved": 0, "lon": -77.01030016666667, "fusion_lon": 0.0, "is_disabled": 0, "fusion_lat": 0.0, "bike_id": "2adea55b9b069f2e415ce0b2ec000918", "rental_uris": {"ios": "https://dc.lft.to/lastmile_qr_scan", "android": "https://dc.lft.to/lastmile_qr_scan"}}, {"name": "f1e0c28fc1e7ea0bccb118442d618e6e", "type": "electric_scooter", "lat": 38.91547083333333, "is_reserved": 0, "lon": -77.04619133333334, "fusion_lon": 0.0, "is_disabled": 0, "fusion_lat": 0.0, "bike_id": "f1e0c28fc1e7ea0bccb118442d618e6e", "rental_uris": {"ios": "https://dc.lft.to/lastmile_qr_scan", "android": "https://dc.lft.to/lastmile_qr_scan"}}, {"name": "7362f99f50149025f5be7582a5699dbe", "type": "electric_scooter", "lat": 38.93243183333333, "is_reserved": 0, "lon": -77.03852116666667, "fusion_lon": 0.0, "is_disabled": 0, "fusion_lat": 0.0, "bike_id": "7362f99f50149025f5be7582a5699dbe", "rental_uris": {"ios": "https://dc.lft.to/lastmile_qr_scan", "android": "https://dc.lft.to/lastmile_qr_scan"}}, {"name": "f57109f503a89142b6e11ea00e26dd3e", "type": "electric_scooter", "lat": 38.91259433333333, "is_reserved": 0, "lon": -77.03932333333333, "fusion_lon": 0.0, "is_disabled": 0, "fusion_lat": 0.0, "bike_id": "f57109f503a89142b6e11ea00e26dd3e", "rental_uris": {"ios": "https://dc.lft.to/lastmile_qr_scan", "android": "https://dc.lft.to/lastmile_qr_scan"}}, {"name": "9ad94c8ba5421fd563b1e240f013677b", "type": "electric_scooter", "lat": 38.94483866666667, "is_reserved": 0, "lon": -77.0413735, "fusion_lon": 0.0, "is_disabled": 0, "fusion_lat": 0.0, "bike_id": "9ad94c8ba5421fd563b1e240f013677b", "rental_uris": {"ios": "https://dc.lft.to/lastmile_qr_scan", "android": "https://dc.lft.to/lastmile_qr_scan"}}, {"name": "a8d4fe712a512442133c2affd1229e26", "type": "electric_scooter", "lat": 38.924444333333334, "is_reserved": 0, "lon": -76.99334233333333, "fusion_lon": 0.0, "is_disabled": 0, "fusion_lat": 0.0, "bike_id": "a8d4fe712a512442133c2affd1229e26", "rental_uris": {"ios": "https://dc.lft.to/lastmile_qr_scan", "android": "https://dc.lft.to/lastmile_qr_scan"}}, {"name": "2920c6cdab23e55a09538e2455c71db9", "type": "electric_scooter", "lat": 38.912765, "is_reserved": 0, "lon": -77.03205283333334, "fusion_lon": 0.0, "is_disabled": 0, "fusion_lat": 0.0, "bike_id": "2920c6cdab23e55a09538e2455c71db9", "rental_uris": {"ios": "https://dc.lft.to/lastmile_qr_scan", "android": "https://dc.lft.to/lastmile_qr_scan"}}, {"name": "7374e3b33643d970971a922a27a41f09", "type": "electric_scooter", "lat": 38.917357333333335, "is_reserved": 0, "lon": -77.01888583333333, "fusion_lon": 0.0, "is_disabled": 0, "fusion_lat": 0.0, "bike_id": "7374e3b33643d970971a922a27a41f09", "rental_uris": {"ios": "https://dc.lft.to/lastmile_qr_scan", "android": "https://dc.lft.to/lastmile_qr_scan"}}, {"name": "65f834b56bebf9388901285d2afd8f11", "type": "electric_bike", "lat": 38.96122866666666, "is_reserved": 0, "lon": -77.03269833333333, "fusion_lon": 0.0, "is_disabled": 0, "fusion_lat": 0.0, "bike_id": "65f834b56bebf9388901285d2afd8f11", "rental_uris": {"ios": "https://dc.lft.to/lastmile_qr_scan", "android": "https://dc.lft.to/lastmile_qr_scan"}}, {"name": "7936ef074e7bab189164c6bd1a191f39", "type": "electric_scooter", "lat": 38.92361866666667, "is_reserved": 0, "lon": -77.052401, "fusion_lon": 0.0, "is_disabled": 0, "fusion_lat": 0.0, "bike_id": "7936ef074e7bab189164c6bd1a191f39", "rental_uris": {"ios": "https://dc.lft.to/lastmile_qr_scan", "android": "https://dc.lft.to/lastmile_qr_scan"}}, {"name": "b9483ee4974fe3e501871269ebd6d8bb", "type": "electric_scooter", "lat": 38.928498, "is_reserved": 0, "lon": -77.0372725, "fusion_lon": 0.0, "is_disabled": 0, "fusion_lat": 0.0, "bike_id": "b9483ee4974fe3e501871269ebd6d8bb", "rental_uris": {"ios": "https://dc.lft.to/lastmile_qr_scan", "android": "https://dc.lft.to/lastmile_qr_scan"}}, {"name": "222fe13e6c4aef7515df3a8933106106", "type": "electric_scooter", "lat": 38.90161033333333, "is_reserved": 0, "lon": -77.03178083333333, "fusion_lon": 0.0, "is_disabled": 0, "fusion_lat": 0.0, "bike_id": "222fe13e6c4aef7515df3a8933106106", "rental_uris": {"ios": "https://dc.lft.to/lastmile_qr_scan", "android": "https://dc.lft.to/lastmile_qr_scan"}}, {"name": "e203a7b0fca35ac83ea22efeb9f75d69", "type": "electric_scooter", "lat": 38.91906133333333, "is_reserved": 0, "lon": -77.02170316666667, "fusion_lon": 0.0, "is_disabled": 0, "fusion_lat": 0.0, "bike_id": "e203a7b0fca35ac83ea22efeb9f75d69", "rental_uris": {"ios": "https://dc.lft.to/lastmile_qr_scan", "android": "https://dc.lft.to/lastmile_qr_scan"}}, {"name": "d9f85026fed9e1b77cf94ea5ebbc6e16", "type": "electric_scooter", "lat": 38.933567333333336, "is_reserved": 0, "lon": -77.033658, "fusion_lon": 0.0, "is_disabled": 0, "fusion_lat": 0.0, "bike_id": "d9f85026fed9e1b77cf94ea5ebbc6e16", "rental_uris": {"ios": "https://dc.lft.to/lastmile_qr_scan", "android": "https://dc.lft.to/lastmile_qr_scan"}}, {"name": "9ab466ba6185e592f33444490b7d4b3c", "type": "electric_scooter", "lat": 38.89979433333333, "is_reserved": 0, "lon": -77.02944083333334, "fusion_lon": 0.0, "is_disabled": 0, "fusion_lat": 0.0, "bike_id": "9ab466ba6185e592f33444490b7d4b3c", "rental_uris": {"ios": "https://dc.lft.to/lastmile_qr_scan", "android": "https://dc.lft.to/lastmile_qr_scan"}}, {"name": "b314c7bfc89f62b9e9f20a7bc6726b73", "type": "electric_scooter", "lat": 38.9138375, "is_reserved": 0, "lon": -77.04656216666666, "fusion_lon": 0.0, "is_disabled": 0, "fusion_lat": 0.0, "bike_id": "b314c7bfc89f62b9e9f20a7bc6726b73", "rental_uris": {"ios": "https://dc.lft.to/lastmile_qr_scan", "android": "https://dc.lft.to/lastmile_qr_scan"}}, {"name": "1d0b94c02e69d038e55b4f5789989081", "type": "electric_scooter", "lat": 38.902502, "is_reserved": 0, "lon": -77.04513816666666, "fusion_lon": 0.0, "is_disabled": 0, "fusion_lat": 0.0, "bike_id": "1d0b94c02e69d038e55b4f5789989081", "rental_uris": {"ios": "https://dc.lft.to/lastmile_qr_scan", "android": "https://dc.lft.to/lastmile_qr_scan"}}, {"name": "0c7c2808b76a9596fabfc1368dd3d6a7", "type": "electric_scooter", "lat": 38.8651555, "is_reserved": 0, "lon": -76.990325, "fusion_lon": 0.0, "is_disabled": 0, "fusion_lat": 0.0, "bike_id": "0c7c2808b76a9596fabfc1368dd3d6a7", "rental_uris": {"ios": "https://dc.lft.to/lastmile_qr_scan", "android": "https://dc.lft.to/lastmile_qr_scan"}}, {"name": "9b45049c8e303fcff47ea5951d8df15e", "type": "electric_scooter", "lat": 38.895554, "is_reserved": 0, "lon": -77.05003566666667, "fusion_lon": 0.0, "is_disabled": 0, "fusion_lat": 0.0, "bike_id": "9b45049c8e303fcff47ea5951d8df15e", "rental_uris": {"ios": "https://dc.lft.to/lastmile_qr_scan", "android": "https://dc.lft.to/lastmile_qr_scan"}}, {"name": "eacfa2289975aab647a77fac7e899798", "type": "electric_scooter", "lat": 38.95524616666667, "is_reserved": 0, "lon": -77.06973283333333, "fusion_lon": 0.0, "is_disabled": 0, "fusion_lat": 0.0, "bike_id": "eacfa2289975aab647a77fac7e899798", "rental_uris": {"ios": "https://dc.lft.to/lastmile_qr_scan", "android": "https://dc.lft.to/lastmile_qr_scan"}}, {"name": "e01ef28816c929fd304461d3b0d7b397", "type": "electric_scooter", "lat": 38.92123183333333, "is_reserved": 0, "lon": -77.03890366666667, "fusion_lon": 0.0, "is_disabled": 0, "fusion_lat": 0.0, "bike_id": "e01ef28816c929fd304461d3b0d7b397", "rental_uris": {"ios": "https://dc.lft.to/lastmile_qr_scan", "android": "https://dc.lft.to/lastmile_qr_scan"}}, {"name": "5a4ee7853129211b4754bc05b0cb8670", "type": "electric_scooter", "lat": 38.8993635, "is_reserved": 0, "lon": -77.02995666666666, "fusion_lon": 0.0, "is_disabled": 0, "fusion_lat": 0.0, "bike_id": "5a4ee7853129211b4754bc05b0cb8670", "rental_uris": {"ios": "https://dc.lft.to/lastmile_qr_scan", "android": "https://dc.lft.to/lastmile_qr_scan"}}, {"name": "fee4f29ef34dee823b225ea6ab3dda28", "type": "electric_scooter", "lat": 38.919481, "is_reserved": 0, "lon": -77.04547283333333, "fusion_lon": 0.0, "is_disabled": 0, "fusion_lat": 0.0, "bike_id": "fee4f29ef34dee823b225ea6ab3dda28", "rental_uris": {"ios": "https://dc.lft.to/lastmile_qr_scan", "android": "https://dc.lft.to/lastmile_qr_scan"}}, {"name": "e924a5f82a2cce79a3368f598c94140d", "type": "electric_scooter", "lat": 38.94077583333333, "is_reserved": 0, "lon": -77.027005, "fusion_lon": 0.0, "is_disabled": 0, "fusion_lat": 0.0, "bike_id": "e924a5f82a2cce79a3368f598c94140d", "rental_uris": {"ios": "https://dc.lft.to/lastmile_qr_scan", "android": "https://dc.lft.to/lastmile_qr_scan"}}, {"name": "067a4fe20a166761c981517a97d8bdb6", "type": "electric_scooter", "lat": 38.911191333333335, "is_reserved": 0, "lon": -77.037177, "fusion_lon": 0.0, "is_disabled": 0, "fusion_lat": 0.0, "bike_id": "067a4fe20a166761c981517a97d8bdb6", "rental_uris": {"ios": "https://dc.lft.to/lastmile_qr_scan", "android": "https://dc.lft.to/lastmile_qr_scan"}}, {"name": "6be31f52b113a3cd31ea84185fe6af40", "type": "electric_scooter", "lat": 38.9220665, "is_reserved": 0, "lon": -77.04241983333333, "fusion_lon": 0.0, "is_disabled": 0, "fusion_lat": 0.0, "bike_id": "6be31f52b113a3cd31ea84185fe6af40", "rental_uris": {"ios": "https://dc.lft.to/lastmile_qr_scan", "android": "https://dc.lft.to/lastmile_qr_scan"}}, {"name": "9891e644dbd867210c9e4aecfb65cdaf", "type": "electric_scooter", "lat": 38.86247183333333, "is_reserved": 0, "lon": -76.99491216666667, "fusion_lon": 0.0, "is_disabled": 0, "fusion_lat": 0.0, "bike_id": "9891e644dbd867210c9e4aecfb65cdaf", "rental_uris": {"ios": "https://dc.lft.to/lastmile_qr_scan", "android": "https://dc.lft.to/lastmile_qr_scan"}}, {"name": "cdc8e34128d20710b2b9e42e6a2849d4", "type": "electric_scooter", "lat": 38.93787583333334, "is_reserved": 0, "lon": -77.05992883333333, "fusion_lon": 0.0, "is_disabled": 0, "fusion_lat": 0.0, "bike_id": "cdc8e34128d20710b2b9e42e6a2849d4", "rental_uris": {"ios": "https://dc.lft.to/lastmile_qr_scan", "android": "https://dc.lft.to/lastmile_qr_scan"}}, {"name": "b97ac486b0033389edac4d0eccefbfc0", "type": "electric_scooter", "lat": 38.902323, "is_reserved": 0, "lon": -77.0398055, "fusion_lon": 0.0, "is_disabled": 0, "fusion_lat": 0.0, "bike_id": "b97ac486b0033389edac4d0eccefbfc0", "rental_uris": {"ios": "https://dc.lft.to/lastmile_qr_scan", "android": "https://dc.lft.to/lastmile_qr_scan"}}, {"name": "46dfc72890b4fda660311a8cd153decd", "type": "electric_scooter", "lat": 38.929485, "is_reserved": 0, "lon": -77.03465016666667, "fusion_lon": 0.0, "is_disabled": 0, "fusion_lat": 0.0, "bike_id": "46dfc72890b4fda660311a8cd153decd", "rental_uris": {"ios": "https://dc.lft.to/lastmile_qr_scan", "android": "https://dc.lft.to/lastmile_qr_scan"}}, {"name": "6585a72db375deb0eedffa27df60e20e", "type": "electric_scooter", "lat": 38.87896633333333, "is_reserved": 0, "lon": -77.00719966666666, "fusion_lon": 0.0, "is_disabled": 0, "fusion_lat": 0.0, "bike_id": "6585a72db375deb0eedffa27df60e20e", "rental_uris": {"ios": "https://dc.lft.to/lastmile_qr_scan", "android": "https://dc.lft.to/lastmile_qr_scan"}}, {"name": "d5d9e1fd429dc05f5e7eab00fe67a368", "type": "electric_scooter", "lat": 38.883102666666666, "is_reserved": 0, "lon": -77.01772983333333, "fusion_lon": 0.0, "is_disabled": 0, "fusion_lat": 0.0, "bike_id": "d5d9e1fd429dc05f5e7eab00fe67a368", "rental_uris": {"ios": "https://dc.lft.to/lastmile_qr_scan", "android": "https://dc.lft.to/lastmile_qr_scan"}}, {"name": "2a2409cb9adad9707611ab8ebb282840", "type": "electric_bike", "lat": 38.990645, "is_reserved": 0, "lon": -77.1002895, "fusion_lon": 0.0, "is_disabled": 0, "fusion_lat": 0.0, "bike_id": "2a2409cb9adad9707611ab8ebb282840", "rental_uris": {"ios": "https://dc.lft.to/lastmile_qr_scan", "android": "https://dc.lft.to/lastmile_qr_scan"}}, {"name": "823699f82f9e7dd4e239dd053b1f52ac", "type": "electric_scooter", "lat": 38.90831516666667, "is_reserved": 0, "lon": -77.023627, "fusion_lon": 0.0, "is_disabled": 0, "fusion_lat": 0.0, "bike_id": "823699f82f9e7dd4e239dd053b1f52ac", "rental_uris": {"ios": "https://dc.lft.to/lastmile_qr_scan", "android": "https://dc.lft.to/lastmile_qr_scan"}}, {"name": "3b353d9c0db5e10a2900e680204778cb", "type": "electric_scooter", "lat": 38.87649533333333, "is_reserved": 0, "lon": -76.96507483333333, "fusion_lon": 0.0, "is_disabled": 0, "fusion_lat": 0.0, "bike_id": "3b353d9c0db5e10a2900e680204778cb", "rental_uris": {"ios": "https://dc.lft.to/lastmile_qr_scan", "android": "https://dc.lft.to/lastmile_qr_scan"}}, {"name": "530d3eefe0b08168bd5367b6ae6dd1a6", "type": "electric_scooter", "lat": 38.9383175, "is_reserved": 0, "lon": -77.02483166666667, "fusion_lon": 0.0, "is_disabled": 0, "fusion_lat": 0.0, "bike_id": "530d3eefe0b08168bd5367b6ae6dd1a6", "rental_uris": {"ios": "https://dc.lft.to/lastmile_qr_scan", "android": "https://dc.lft.to/lastmile_qr_scan"}}, {"name": "6e7b868899b18f2e8c68336f8e4ae547", "type": "electric_scooter", "lat": 38.906727333333336, "is_reserved": 0, "lon": -77.03842283333333, "fusion_lon": 0.0, "is_disabled": 0, "fusion_lat": 0.0, "bike_id": "6e7b868899b18f2e8c68336f8e4ae547", "rental_uris": {"ios": "https://dc.lft.to/lastmile_qr_scan", "android": "https://dc.lft.to/lastmile_qr_scan"}}, {"name": "1e3f6c6c7cacd1b2dfe6d10c6b2b089f", "type": "electric_scooter", "lat": 38.9395045, "is_reserved": 0, "lon": -77.032652, "fusion_lon": 0.0, "is_disabled": 0, "fusion_lat": 0.0, "bike_id": "1e3f6c6c7cacd1b2dfe6d10c6b2b089f", "rental_uris": {"ios": "https://dc.lft.to/lastmile_qr_scan", "android": "https://dc.lft.to/lastmile_qr_scan"}}, {"name": "dee7263fa13945101a7be71617d26820", "type": "electric_scooter", "lat": 38.917949, "is_reserved": 0, "lon": -77.02702483333333, "fusion_lon": 0.0, "is_disabled": 0, "fusion_lat": 0.0, "bike_id": "dee7263fa13945101a7be71617d26820", "rental_uris": {"ios": "https://dc.lft.to/lastmile_qr_scan", "android": "https://dc.lft.to/lastmile_qr_scan"}}, {"name": "3454bb3a75331fb7c3eeed1a202420e5", "type": "electric_scooter", "lat": 38.887471833333336, "is_reserved": 0, "lon": -77.02575566666667, "fusion_lon": 0.0, "is_disabled": 0, "fusion_lat": 0.0, "bike_id": "3454bb3a75331fb7c3eeed1a202420e5", "rental_uris": {"ios": "https://dc.lft.to/lastmile_qr_scan", "android": "https://dc.lft.to/lastmile_qr_scan"}}, {"name": "99f6cf78be44871898fd3ca862087e31", "type": "electric_scooter", "lat": 38.94426466666667, "is_reserved": 0, "lon": -77.06352066666666, "fusion_lon": 0.0, "is_disabled": 0, "fusion_lat": 0.0, "bike_id": "99f6cf78be44871898fd3ca862087e31", "rental_uris": {"ios": "https://dc.lft.to/lastmile_qr_scan", "android": "https://dc.lft.to/lastmile_qr_scan"}}, {"name": "a81b0f67b9c5bfb630fc1d6bbe39ba8a", "type": "electric_scooter", "lat": 38.92051216666667, "is_reserved": 0, "lon": -77.04374716666666, "fusion_lon": 0.0, "is_disabled": 0, "fusion_lat": 0.0, "bike_id": "a81b0f67b9c5bfb630fc1d6bbe39ba8a", "rental_uris": {"ios": "https://dc.lft.to/lastmile_qr_scan", "android": "https://dc.lft.to/lastmile_qr_scan"}}, {"name": "913b8f65af264c458993d19160d43698", "type": "electric_scooter", "lat": 38.92768366666667, "is_reserved": 0, "lon": -77.027114, "fusion_lon": 0.0, "is_disabled": 0, "fusion_lat": 0.0, "bike_id": "913b8f65af264c458993d19160d43698", "rental_uris": {"ios": "https://dc.lft.to/lastmile_qr_scan", "android": "https://dc.lft.to/lastmile_qr_scan"}}, {"name": "b433e946948500da892db71d2c129353", "type": "electric_scooter", "lat": 38.90267766666667, "is_reserved": 0, "lon": -76.936343, "fusion_lon": 0.0, "is_disabled": 0, "fusion_lat": 0.0, "bike_id": "b433e946948500da892db71d2c129353", "rental_uris": {"ios": "https://dc.lft.to/lastmile_qr_scan", "android": "https://dc.lft.to/lastmile_qr_scan"}}, {"name": "9d6c2149c72c3f296a25fe41afbfad1b", "type": "electric_scooter", "lat": 38.9118665, "is_reserved": 0, "lon": -76.99619883333334, "fusion_lon": 0.0, "is_disabled": 0, "fusion_lat": 0.0, "bike_id": "9d6c2149c72c3f296a25fe41afbfad1b", "rental_uris": {"ios": "https://dc.lft.to/lastmile_qr_scan", "android": "https://dc.lft.to/lastmile_qr_scan"}}, {"name": "9d5c651055a12674e206ca8c25f22412", "type": "electric_scooter", "lat": 38.96113883333334, "is_reserved": 0, "lon": -77.02810883333333, "fusion_lon": 0.0, "is_disabled": 0, "fusion_lat": 0.0, "bike_id": "9d5c651055a12674e206ca8c25f22412", "rental_uris": {"ios": "https://dc.lft.to/lastmile_qr_scan", "android": "https://dc.lft.to/lastmile_qr_scan"}}, {"name": "c8dcf15dea4274bd0643029e02aaab7f", "type": "electric_scooter", "lat": 38.931726, "is_reserved": 0, "lon": -77.03636683333333, "fusion_lon": 0.0, "is_disabled": 0, "fusion_lat": 0.0, "bike_id": "c8dcf15dea4274bd0643029e02aaab7f", "rental_uris": {"ios": "https://dc.lft.to/lastmile_qr_scan", "android": "https://dc.lft.to/lastmile_qr_scan"}}, {"name": "b60b42e088e78fa5a8f4cf471edac7e8", "type": "electric_scooter", "lat": 38.892266, "is_reserved": 0, "lon": -77.04265716666667, "fusion_lon": 0.0, "is_disabled": 0, "fusion_lat": 0.0, "bike_id": "b60b42e088e78fa5a8f4cf471edac7e8", "rental_uris": {"ios": "https://dc.lft.to/lastmile_qr_scan", "android": "https://dc.lft.to/lastmile_qr_scan"}}, {"name": "9b7ff62f66ce0c55237331c1230d1317", "type": "electric_scooter", "lat": 38.883057666666666, "is_reserved": 0, "lon": -77.017735, "fusion_lon": 0.0, "is_disabled": 0, "fusion_lat": 0.0, "bike_id": "9b7ff62f66ce0c55237331c1230d1317", "rental_uris": {"ios": "https://dc.lft.to/lastmile_qr_scan", "android": "https://dc.lft.to/lastmile_qr_scan"}}, {"name": "da95eb44f03fa80281b281b4a0fce230", "type": "electric_scooter", "lat": 38.914394, "is_reserved": 0, "lon": -77.022065, "fusion_lon": 0.0, "is_disabled": 0, "fusion_lat": 0.0, "bike_id": "da95eb44f03fa80281b281b4a0fce230", "rental_uris": {"ios": "https://dc.lft.to/lastmile_qr_scan", "android": "https://dc.lft.to/lastmile_qr_scan"}}, {"name": "90a5290d6441ab2fb4cdb74117e5e632", "type": "electric_scooter", "lat": 38.921538, "is_reserved": 0, "lon": -77.03509266666667, "fusion_lon": 0.0, "is_disabled": 0, "fusion_lat": 0.0, "bike_id": "90a5290d6441ab2fb4cdb74117e5e632", "rental_uris": {"ios": "https://dc.lft.to/lastmile_qr_scan", "android": "https://dc.lft.to/lastmile_qr_scan"}}, {"name": "608211ac7e32ff016aecedac4f9f09cf", "type": "electric_scooter", "lat": 38.90024183333333, "is_reserved": 0, "lon": -77.00216, "fusion_lon": 0.0, "is_disabled": 0, "fusion_lat": 0.0, "bike_id": "608211ac7e32ff016aecedac4f9f09cf", "rental_uris": {"ios": "https://dc.lft.to/lastmile_qr_scan", "android": "https://dc.lft.to/lastmile_qr_scan"}}, {"name": "a6909b83475c75904d92c7fa280be1b8", "type": "electric_scooter", "lat": 38.88567916666667, "is_reserved": 0, "lon": -77.0058565, "fusion_lon": 0.0, "is_disabled": 0, "fusion_lat": 0.0, "bike_id": "a6909b83475c75904d92c7fa280be1b8", "rental_uris": {"ios": "https://dc.lft.to/lastmile_qr_scan", "android": "https://dc.lft.to/lastmile_qr_scan"}}, {"name": "cceeeaf55fb7eb478efd0ab3b412e8f1", "type": "electric_bike", "lat": 38.854897666666666, "is_reserved": 0, "lon": -77.11523783333334, "fusion_lon": 0.0, "is_disabled": 0, "fusion_lat": 0.0, "bike_id": "cceeeaf55fb7eb478efd0ab3b412e8f1", "rental_uris": {"ios": "https://dc.lft.to/lastmile_qr_scan", "android": "https://dc.lft.to/lastmile_qr_scan"}}, {"name": "f8b2402778a9d8a75c51b9d68825cd2d", "type": "electric_scooter", "lat": 38.9214975, "is_reserved": 0, "lon": -77.04349816666667, "fusion_lon": 0.0, "is_disabled": 0, "fusion_lat": 0.0, "bike_id": "f8b2402778a9d8a75c51b9d68825cd2d", "rental_uris": {"ios": "https://dc.lft.to/lastmile_qr_scan", "android": "https://dc.lft.to/lastmile_qr_scan"}}, {"name": "4fe2b6c328432530c3ad92f669db7986", "type": "electric_scooter", "lat": 38.907882666666666, "is_reserved": 0, "lon": -77.04874516666666, "fusion_lon": 0.0, "is_disabled": 0, "fusion_lat": 0.0, "bike_id": "4fe2b6c328432530c3ad92f669db7986", "rental_uris": {"ios": "https://dc.lft.to/lastmile_qr_scan", "android": "https://dc.lft.to/lastmile_qr_scan"}}, {"name": "2a92f91279ea3b346afdeb80fb65a594", "type": "electric_bike", "lat": 38.88402766666667, "is_reserved": 0, "lon": -76.96060216666666, "fusion_lon": 0.0, "is_disabled": 0, "fusion_lat": 0.0, "bike_id": "2a92f91279ea3b346afdeb80fb65a594", "rental_uris": {"ios": "https://dc.lft.to/lastmile_qr_scan", "android": "https://dc.lft.to/lastmile_qr_scan"}}, {"name": "43444a34662913a7d6d473c5fe50e555", "type": "electric_scooter", "lat": 38.934438166666666, "is_reserved": 0, "lon": -77.03992966666667, "fusion_lon": 0.0, "is_disabled": 0, "fusion_lat": 0.0, "bike_id": "43444a34662913a7d6d473c5fe50e555", "rental_uris": {"ios": "https://dc.lft.to/lastmile_qr_scan", "android": "https://dc.lft.to/lastmile_qr_scan"}}, {"name": "14568704a9a25d97b64101f87dc8a385", "type": "electric_scooter", "lat": 38.918774166666665, "is_reserved": 0, "lon": -77.03504433333333, "fusion_lon": 0.0, "is_disabled": 0, "fusion_lat": 0.0, "bike_id": "14568704a9a25d97b64101f87dc8a385", "rental_uris": {"ios": "https://dc.lft.to/lastmile_qr_scan", "android": "https://dc.lft.to/lastmile_qr_scan"}}, {"name": "e1b76f2a1a0f4fc9f1f22974a09f503f", "type": "electric_bike", "lat": 38.9507875, "is_reserved": 0, "lon": -77.0120155, "fusion_lon": 0.0, "is_disabled": 0, "fusion_lat": 0.0, "bike_id": "e1b76f2a1a0f4fc9f1f22974a09f503f", "rental_uris": {"ios": "https://dc.lft.to/lastmile_qr_scan", "android": "https://dc.lft.to/lastmile_qr_scan"}}, {"name": "d44d5c4501598d3c4b3b28800f8e660f", "type": "electric_scooter", "lat": 38.89223766666667, "is_reserved": 0, "lon": -77.03090833333333, "fusion_lon": 0.0, "is_disabled": 0, "fusion_lat": 0.0, "bike_id": "d44d5c4501598d3c4b3b28800f8e660f", "rental_uris": {"ios": "https://dc.lft.to/lastmile_qr_scan", "android": "https://dc.lft.to/lastmile_qr_scan"}}, {"name": "7e5b8acd8f15222c1004bedb91520aa0", "type": "electric_scooter", "lat": 38.903006833333336, "is_reserved": 0, "lon": -77.0365545, "fusion_lon": 0.0, "is_disabled": 0, "fusion_lat": 0.0, "bike_id": "7e5b8acd8f15222c1004bedb91520aa0", "rental_uris": {"ios": "https://dc.lft.to/lastmile_qr_scan", "android": "https://dc.lft.to/lastmile_qr_scan"}}, {"name": "e24a109f34bf07170d865b3357db3431", "type": "electric_scooter", "lat": 38.900941, "is_reserved": 0, "lon": -77.00204966666666, "fusion_lon": 0.0, "is_disabled": 0, "fusion_lat": 0.0, "bike_id": "e24a109f34bf07170d865b3357db3431", "rental_uris": {"ios": "https://dc.lft.to/lastmile_qr_scan", "android": "https://dc.lft.to/lastmile_qr_scan"}}, {"name": "f8be92004acfd7fb1d6a61227d1a0ec9", "type": "electric_scooter", "lat": 38.928271, "is_reserved": 0, "lon": -77.02259833333333, "fusion_lon": 0.0, "is_disabled": 0, "fusion_lat": 0.0, "bike_id": "f8be92004acfd7fb1d6a61227d1a0ec9", "rental_uris": {"ios": "https://dc.lft.to/lastmile_qr_scan", "android": "https://dc.lft.to/lastmile_qr_scan"}}, {"name": "2a21f16c4ca9ef9ff9e865fc33b65f2b", "type": "electric_scooter", "lat": 38.896458, "is_reserved": 0, "lon": -77.01193766666667, "fusion_lon": 0.0, "is_disabled": 0, "fusion_lat": 0.0, "bike_id": "2a21f16c4ca9ef9ff9e865fc33b65f2b", "rental_uris": {"ios": "https://dc.lft.to/lastmile_qr_scan", "android": "https://dc.lft.to/lastmile_qr_scan"}}, {"name": "9128fac2daa9dbe408cecb1b4fc248a1", "type": "electric_scooter", "lat": 38.9178695, "is_reserved": 0, "lon": -77.04302833333334, "fusion_lon": 0.0, "is_disabled": 0, "fusion_lat": 0.0, "bike_id": "9128fac2daa9dbe408cecb1b4fc248a1", "rental_uris": {"ios": "https://dc.lft.to/lastmile_qr_scan", "android": "https://dc.lft.to/lastmile_qr_scan"}}, {"name": "254a5205879d58b828a49097acb1b6c3", "type": "electric_scooter", "lat": 38.90150916666666, "is_reserved": 0, "lon": -77.0469445, "fusion_lon": 0.0, "is_disabled": 0, "fusion_lat": 0.0, "bike_id": "254a5205879d58b828a49097acb1b6c3", "rental_uris": {"ios": "https://dc.lft.to/lastmile_qr_scan", "android": "https://dc.lft.to/lastmile_qr_scan"}}, {"name": "3d46d33e6d3b66446afc793ffb7d2e0c", "type": "electric_bike", "lat": 38.831233166666664, "is_reserved": 0, "lon": -77.11336866666667, "fusion_lon": 0.0, "is_disabled": 0, "fusion_lat": 0.0, "bike_id": "3d46d33e6d3b66446afc793ffb7d2e0c", "rental_uris": {"ios": "https://dc.lft.to/lastmile_qr_scan", "android": "https://dc.lft.to/lastmile_qr_scan"}}, {"name": "b77ef3186aad9600a8bafdbc61798b34", "type": "electric_scooter", "lat": 38.892238666666664, "is_reserved": 0, "lon": -77.04642183333333, "fusion_lon": 0.0, "is_disabled": 0, "fusion_lat": 0.0, "bike_id": "b77ef3186aad9600a8bafdbc61798b34", "rental_uris": {"ios": "https://dc.lft.to/lastmile_qr_scan", "android": "https://dc.lft.to/lastmile_qr_scan"}}, {"name": "083aa10ead7a04be2689a6ebdfa32355", "type": "electric_scooter", "lat": 38.927392166666664, "is_reserved": 0, "lon": -77.02490666666667, "fusion_lon": 0.0, "is_disabled": 0, "fusion_lat": 0.0, "bike_id": "083aa10ead7a04be2689a6ebdfa32355", "rental_uris": {"ios": "https://dc.lft.to/lastmile_qr_scan", "android": "https://dc.lft.to/lastmile_qr_scan"}}, {"name": "150a46c677794eb0dea4759021a42aae", "type": "electric_scooter", "lat": 38.933287666666665, "is_reserved": 0, "lon": -77.03435683333333, "fusion_lon": 0.0, "is_disabled": 0, "fusion_lat": 0.0, "bike_id": "150a46c677794eb0dea4759021a42aae", "rental_uris": {"ios": "https://dc.lft.to/lastmile_qr_scan", "android": "https://dc.lft.to/lastmile_qr_scan"}}, {"name": "1098e49ca242610a61c4d1d3939ed6c5", "type": "electric_scooter", "lat": 38.90083883333333, "is_reserved": 0, "lon": -77.019007, "fusion_lon": 0.0, "is_disabled": 0, "fusion_lat": 0.0, "bike_id": "1098e49ca242610a61c4d1d3939ed6c5", "rental_uris": {"ios": "https://dc.lft.to/lastmile_qr_scan", "android": "https://dc.lft.to/lastmile_qr_scan"}}, {"name": "73427af5ce353b6f914235d6413ec59a", "type": "electric_bike", "lat": 38.83936583333333, "is_reserved": 0, "lon": -77.07899866666666, "fusion_lon": 0.0, "is_disabled": 0, "fusion_lat": 0.0, "bike_id": "73427af5ce353b6f914235d6413ec59a", "rental_uris": {"ios": "https://dc.lft.to/lastmile_qr_scan", "android": "https://dc.lft.to/lastmile_qr_scan"}}, {"name": "b028b9fcefb2cf58d66b8c75afd975c3", "type": "electric_scooter", "lat": 38.9428135, "is_reserved": 0, "lon": -77.02505633333334, "fusion_lon": 0.0, "is_disabled": 0, "fusion_lat": 0.0, "bike_id": "b028b9fcefb2cf58d66b8c75afd975c3", "rental_uris": {"ios": "https://dc.lft.to/lastmile_qr_scan", "android": "https://dc.lft.to/lastmile_qr_scan"}}, {"name": "b786d16f6ac5230ce9a636b4c0b2b394", "type": "electric_scooter", "lat": 38.8983365, "is_reserved": 0, "lon": -77.04080066666667, "fusion_lon": 0.0, "is_disabled": 0, "fusion_lat": 0.0, "bike_id": "b786d16f6ac5230ce9a636b4c0b2b394", "rental_uris": {"ios": "https://dc.lft.to/lastmile_qr_scan", "android": "https://dc.lft.to/lastmile_qr_scan"}}, {"name": "3a772f592613d0f4a0f37b828a6b2282", "type": "electric_scooter", "lat": 38.949596, "is_reserved": 0, "lon": -77.027235, "fusion_lon": 0.0, "is_disabled": 0, "fusion_lat": 0.0, "bike_id": "3a772f592613d0f4a0f37b828a6b2282", "rental_uris": {"ios": "https://dc.lft.to/lastmile_qr_scan", "android": "https://dc.lft.to/lastmile_qr_scan"}}, {"name": "97cf10447347abaa69b296973f911c4f", "type": "electric_scooter", "lat": 38.905154833333334, "is_reserved": 0, "lon": -77.04562033333333, "fusion_lon": 0.0, "is_disabled": 0, "fusion_lat": 0.0, "bike_id": "97cf10447347abaa69b296973f911c4f", "rental_uris": {"ios": "https://dc.lft.to/lastmile_qr_scan", "android": "https://dc.lft.to/lastmile_qr_scan"}}, {"name": "054e083a21b7fdadf9a0dd492db76df7", "type": "electric_scooter", "lat": 38.9066525, "is_reserved": 0, "lon": -77.0343925, "fusion_lon": 0.0, "is_disabled": 0, "fusion_lat": 0.0, "bike_id": "054e083a21b7fdadf9a0dd492db76df7", "rental_uris": {"ios": "https://dc.lft.to/lastmile_qr_scan", "android": "https://dc.lft.to/lastmile_qr_scan"}}, {"name": "ffbabe0092041e9d345fc6bc14b725a9", "type": "electric_scooter", "lat": 38.899664333333334, "is_reserved": 0, "lon": -77.0436395, "fusion_lon": 0.0, "is_disabled": 0, "fusion_lat": 0.0, "bike_id": "ffbabe0092041e9d345fc6bc14b725a9", "rental_uris": {"ios": "https://dc.lft.to/lastmile_qr_scan", "android": "https://dc.lft.to/lastmile_qr_scan"}}, {"name": "de19a07470217ca4fa50f6fbbd7073ff", "type": "electric_scooter", "lat": 38.91811516666667, "is_reserved": 0, "lon": -77.02313683333334, "fusion_lon": 0.0, "is_disabled": 0, "fusion_lat": 0.0, "bike_id": "de19a07470217ca4fa50f6fbbd7073ff", "rental_uris": {"ios": "https://dc.lft.to/lastmile_qr_scan", "android": "https://dc.lft.to/lastmile_qr_scan"}}, {"name": "49cbc4c8c9fbc71936e56eca95380ea1", "type": "electric_scooter", "lat": 38.921061333333334, "is_reserved": 0, "lon": -77.03179166666666, "fusion_lon": 0.0, "is_disabled": 0, "fusion_lat": 0.0, "bike_id": "49cbc4c8c9fbc71936e56eca95380ea1", "rental_uris": {"ios": "https://dc.lft.to/lastmile_qr_scan", "android": "https://dc.lft.to/lastmile_qr_scan"}}, {"name": "cf6c0cc39d901aa7f6af728adcfb8827", "type": "electric_scooter", "lat": 38.921904, "is_reserved": 0, "lon": -77.0427745, "fusion_lon": 0.0, "is_disabled": 0, "fusion_lat": 0.0, "bike_id": "cf6c0cc39d901aa7f6af728adcfb8827", "rental_uris": {"ios": "https://dc.lft.to/lastmile_qr_scan", "android": "https://dc.lft.to/lastmile_qr_scan"}}, {"name": "2c026370728097c16bc506514e575d5f", "type": "electric_scooter", "lat": 38.91020416666667, "is_reserved": 0, "lon": -77.0487865, "fusion_lon": 0.0, "is_disabled": 0, "fusion_lat": 0.0, "bike_id": "2c026370728097c16bc506514e575d5f", "rental_uris": {"ios": "https://dc.lft.to/lastmile_qr_scan", "android": "https://dc.lft.to/lastmile_qr_scan"}}, {"name": "a4ae262e6a3bbd9b6b21a9f3ed8f8bd0", "type": "electric_scooter", "lat": 38.909619666666664, "is_reserved": 0, "lon": -77.045484, "fusion_lon": 0.0, "is_disabled": 0, "fusion_lat": 0.0, "bike_id": "a4ae262e6a3bbd9b6b21a9f3ed8f8bd0", "rental_uris": {"ios": "https://dc.lft.to/lastmile_qr_scan", "android": "https://dc.lft.to/lastmile_qr_scan"}}, {"name": "bcb49ca8aae8a84aa222b260e332b36a", "type": "electric_scooter", "lat": 38.89635416666667, "is_reserved": 0, "lon": -77.0490675, "fusion_lon": 0.0, "is_disabled": 0, "fusion_lat": 0.0, "bike_id": "bcb49ca8aae8a84aa222b260e332b36a", "rental_uris": {"ios": "https://dc.lft.to/lastmile_qr_scan", "android": "https://dc.lft.to/lastmile_qr_scan"}}, {"name": "b0ec34895460afb4114ec4c650a022b8", "type": "electric_scooter", "lat": 38.9242575, "is_reserved": 0, "lon": -77.01950333333333, "fusion_lon": 0.0, "is_disabled": 0, "fusion_lat": 0.0, "bike_id": "b0ec34895460afb4114ec4c650a022b8", "rental_uris": {"ios": "https://dc.lft.to/lastmile_qr_scan", "android": "https://dc.lft.to/lastmile_qr_scan"}}, {"name": "078f6668b5fa3fcf74f9f460d31c0ff4", "type": "electric_scooter", "lat": 38.892249166666666, "is_reserved": 0, "lon": -77.04331633333334, "fusion_lon": 0.0, "is_disabled": 0, "fusion_lat": 0.0, "bike_id": "078f6668b5fa3fcf74f9f460d31c0ff4", "rental_uris": {"ios": "https://dc.lft.to/lastmile_qr_scan", "android": "https://dc.lft.to/lastmile_qr_scan"}}, {"name": "5d2ea9ddbc09ca68ceb0678c120a5a10", "type": "electric_scooter", "lat": 38.90748516666667, "is_reserved": 0, "lon": -77.02403416666667, "fusion_lon": 0.0, "is_disabled": 0, "fusion_lat": 0.0, "bike_id": "5d2ea9ddbc09ca68ceb0678c120a5a10", "rental_uris": {"ios": "https://dc.lft.to/lastmile_qr_scan", "android": "https://dc.lft.to/lastmile_qr_scan"}}, {"name": "69275ec6650718c479cc04dbe22b75ba", "type": "electric_scooter", "lat": 38.863555833333336, "is_reserved": 0, "lon": -76.99063833333334, "fusion_lon": 0.0, "is_disabled": 0, "fusion_lat": 0.0, "bike_id": "69275ec6650718c479cc04dbe22b75ba", "rental_uris": {"ios": "https://dc.lft.to/lastmile_qr_scan", "android": "https://dc.lft.to/lastmile_qr_scan"}}, {"name": "8eab0554e8d030d5bd7381059b2d79fb", "type": "electric_scooter", "lat": 38.92876733333333, "is_reserved": 0, "lon": -77.04125983333333, "fusion_lon": 0.0, "is_disabled": 0, "fusion_lat": 0.0, "bike_id": "8eab0554e8d030d5bd7381059b2d79fb", "rental_uris": {"ios": "https://dc.lft.to/lastmile_qr_scan", "android": "https://dc.lft.to/lastmile_qr_scan"}}, {"name": "05569003bb74a6b32ff8da9440e1eee2", "type": "electric_scooter", "lat": 38.91481983333333, "is_reserved": 0, "lon": -77.00978033333334, "fusion_lon": 0.0, "is_disabled": 0, "fusion_lat": 0.0, "bike_id": "05569003bb74a6b32ff8da9440e1eee2", "rental_uris": {"ios": "https://dc.lft.to/lastmile_qr_scan", "android": "https://dc.lft.to/lastmile_qr_scan"}}, {"name": "23611c59cfcdaf1abfebecbd9db1e21f", "type": "electric_scooter", "lat": 38.895490833333334, "is_reserved": 0, "lon": -77.046907, "fusion_lon": 0.0, "is_disabled": 0, "fusion_lat": 0.0, "bike_id": "23611c59cfcdaf1abfebecbd9db1e21f", "rental_uris": {"ios": "https://dc.lft.to/lastmile_qr_scan", "android": "https://dc.lft.to/lastmile_qr_scan"}}, {"name": "a36a3433fe4ef62fe535b830fa41a1df", "type": "electric_scooter", "lat": 38.933537333333334, "is_reserved": 0, "lon": -77.05734433333333, "fusion_lon": 0.0, "is_disabled": 0, "fusion_lat": 0.0, "bike_id": "a36a3433fe4ef62fe535b830fa41a1df", "rental_uris": {"ios": "https://dc.lft.to/lastmile_qr_scan", "android": "https://dc.lft.to/lastmile_qr_scan"}}, {"name": "01eaec30b1b4e9cfe0c7e44caaf9980c", "type": "electric_scooter", "lat": 38.904751166666664, "is_reserved": 0, "lon": -77.04155483333334, "fusion_lon": 0.0, "is_disabled": 0, "fusion_lat": 0.0, "bike_id": "01eaec30b1b4e9cfe0c7e44caaf9980c", "rental_uris": {"ios": "https://dc.lft.to/lastmile_qr_scan", "android": "https://dc.lft.to/lastmile_qr_scan"}}, {"name": "d12cdc5b61fba4b9e4ca5be5bdd1b5e2", "type": "electric_scooter", "lat": 38.9181035, "is_reserved": 0, "lon": -77.02704883333334, "fusion_lon": 0.0, "is_disabled": 0, "fusion_lat": 0.0, "bike_id": "d12cdc5b61fba4b9e4ca5be5bdd1b5e2", "rental_uris": {"ios": "https://dc.lft.to/lastmile_qr_scan", "android": "https://dc.lft.to/lastmile_qr_scan"}}, {"name": "e7e16835f89b3e1c5f00560086bf9317", "type": "electric_bike", "lat": 38.95479383333333, "is_reserved": 0, "lon": -77.08241166666667, "fusion_lon": 0.0, "is_disabled": 0, "fusion_lat": 0.0, "bike_id": "e7e16835f89b3e1c5f00560086bf9317", "rental_uris": {"ios": "https://dc.lft.to/lastmile_qr_scan", "android": "https://dc.lft.to/lastmile_qr_scan"}}, {"name": "ae056ef7b08a8111fcd8c4365f4d43c8", "type": "electric_scooter", "lat": 38.89642216666667, "is_reserved": 0, "lon": -77.03234483333334, "fusion_lon": 0.0, "is_disabled": 0, "fusion_lat": 0.0, "bike_id": "ae056ef7b08a8111fcd8c4365f4d43c8", "rental_uris": {"ios": "https://dc.lft.to/lastmile_qr_scan", "android": "https://dc.lft.to/lastmile_qr_scan"}}, {"name": "83d9ca48dc4748fd296fa6f81ae39e73", "type": "electric_scooter", "lat": 38.8958525, "is_reserved": 0, "lon": -77.0269255, "fusion_lon": 0.0, "is_disabled": 0, "fusion_lat": 0.0, "bike_id": "83d9ca48dc4748fd296fa6f81ae39e73", "rental_uris": {"ios": "https://dc.lft.to/lastmile_qr_scan", "android": "https://dc.lft.to/lastmile_qr_scan"}}, {"name": "bf216a6fef99e9bf0b335f883ae00d08", "type": "electric_scooter", "lat": 38.9255935, "is_reserved": 0, "lon": -77.0227995, "fusion_lon": 0.0, "is_disabled": 0, "fusion_lat": 0.0, "bike_id": "bf216a6fef99e9bf0b335f883ae00d08", "rental_uris": {"ios": "https://dc.lft.to/lastmile_qr_scan", "android": "https://dc.lft.to/lastmile_qr_scan"}}, {"name": "8df72bf616221cc5374e5459be72f7e7", "type": "electric_scooter", "lat": 38.912631166666664, "is_reserved": 0, "lon": -77.03864616666667, "fusion_lon": 0.0, "is_disabled": 0, "fusion_lat": 0.0, "bike_id": "8df72bf616221cc5374e5459be72f7e7", "rental_uris": {"ios": "https://dc.lft.to/lastmile_qr_scan", "android": "https://dc.lft.to/lastmile_qr_scan"}}, {"name": "2c4759dd4a5a571ddbd409945e3401a9", "type": "electric_scooter", "lat": 38.942775166666664, "is_reserved": 0, "lon": -77.02505483333333, "fusion_lon": 0.0, "is_disabled": 0, "fusion_lat": 0.0, "bike_id": "2c4759dd4a5a571ddbd409945e3401a9", "rental_uris": {"ios": "https://dc.lft.to/lastmile_qr_scan", "android": "https://dc.lft.to/lastmile_qr_scan"}}, {"name": "0816d30a0277df6d211c37a58f656748", "type": "electric_scooter", "lat": 38.923710166666666, "is_reserved": 0, "lon": -77.05027433333333, "fusion_lon": 0.0, "is_disabled": 0, "fusion_lat": 0.0, "bike_id": "0816d30a0277df6d211c37a58f656748", "rental_uris": {"ios": "https://dc.lft.to/lastmile_qr_scan", "android": "https://dc.lft.to/lastmile_qr_scan"}}, {"name": "ac382553dcd37f775d29877908c88239", "type": "electric_scooter", "lat": 38.86656816666667, "is_reserved": 0, "lon": -76.98884966666667, "fusion_lon": 0.0, "is_disabled": 0, "fusion_lat": 0.0, "bike_id": "ac382553dcd37f775d29877908c88239", "rental_uris": {"ios": "https://dc.lft.to/lastmile_qr_scan", "android": "https://dc.lft.to/lastmile_qr_scan"}}, {"name": "5cabf8c732f218841a732df0986c5b34", "type": "electric_scooter", "lat": 38.92625816666666, "is_reserved": 0, "lon": -77.037118, "fusion_lon": 0.0, "is_disabled": 0, "fusion_lat": 0.0, "bike_id": "5cabf8c732f218841a732df0986c5b34", "rental_uris": {"ios": "https://dc.lft.to/lastmile_qr_scan", "android": "https://dc.lft.to/lastmile_qr_scan"}}, {"name": "8a435bf74fb0190305bea6e0b926cda3", "type": "electric_scooter", "lat": 38.90511633333333, "is_reserved": 0, "lon": -77.05326116666667, "fusion_lon": 0.0, "is_disabled": 0, "fusion_lat": 0.0, "bike_id": "8a435bf74fb0190305bea6e0b926cda3", "rental_uris": {"ios": "https://dc.lft.to/lastmile_qr_scan", "android": "https://dc.lft.to/lastmile_qr_scan"}}, {"name": "cee60ef5c4ab693204312b3848ccc71a", "type": "electric_scooter", "lat": 38.927430666666666, "is_reserved": 0, "lon": -77.02494716666666, "fusion_lon": 0.0, "is_disabled": 0, "fusion_lat": 0.0, "bike_id": "cee60ef5c4ab693204312b3848ccc71a", "rental_uris": {"ios": "https://dc.lft.to/lastmile_qr_scan", "android": "https://dc.lft.to/lastmile_qr_scan"}}, {"name": "1030d552323ffaf9844d33cdead9a423", "type": "electric_scooter", "lat": 38.939095, "is_reserved": 0, "lon": -77.06045366666666, "fusion_lon": 0.0, "is_disabled": 0, "fusion_lat": 0.0, "bike_id": "1030d552323ffaf9844d33cdead9a423", "rental_uris": {"ios": "https://dc.lft.to/lastmile_qr_scan", "android": "https://dc.lft.to/lastmile_qr_scan"}}, {"name": "4750e23c386adb7f23943e43a4c3978b", "type": "electric_scooter", "lat": 38.883413166666664, "is_reserved": 0, "lon": -77.01545633333333, "fusion_lon": 0.0, "is_disabled": 0, "fusion_lat": 0.0, "bike_id": "4750e23c386adb7f23943e43a4c3978b", "rental_uris": {"ios": "https://dc.lft.to/lastmile_qr_scan", "android": "https://dc.lft.to/lastmile_qr_scan"}}, {"name": "3efc757d0c0b97ac2ee1e4a798502a96", "type": "electric_scooter", "lat": 38.88532166666667, "is_reserved": 0, "lon": -77.00579783333333, "fusion_lon": 0.0, "is_disabled": 0, "fusion_lat": 0.0, "bike_id": "3efc757d0c0b97ac2ee1e4a798502a96", "rental_uris": {"ios": "https://dc.lft.to/lastmile_qr_scan", "android": "https://dc.lft.to/lastmile_qr_scan"}}, {"name": "494b0fc4bd5cba49f55149780d7f2164", "type": "electric_scooter", "lat": 38.93399016666667, "is_reserved": 0, "lon": -77.03884916666667, "fusion_lon": 0.0, "is_disabled": 0, "fusion_lat": 0.0, "bike_id": "494b0fc4bd5cba49f55149780d7f2164", "rental_uris": {"ios": "https://dc.lft.to/lastmile_qr_scan", "android": "https://dc.lft.to/lastmile_qr_scan"}}, {"name": "d67b726d899f0b24830042aa8e3a7047", "type": "electric_scooter", "lat": 38.89234583333333, "is_reserved": 0, "lon": -77.01271233333334, "fusion_lon": 0.0, "is_disabled": 0, "fusion_lat": 0.0, "bike_id": "d67b726d899f0b24830042aa8e3a7047", "rental_uris": {"ios": "https://dc.lft.to/lastmile_qr_scan", "android": "https://dc.lft.to/lastmile_qr_scan"}}, {"name": "88eea09bcc93202ded08800498115f1f", "type": "electric_scooter", "lat": 38.9001445, "is_reserved": 0, "lon": -77.040525, "fusion_lon": 0.0, "is_disabled": 0, "fusion_lat": 0.0, "bike_id": "88eea09bcc93202ded08800498115f1f", "rental_uris": {"ios": "https://dc.lft.to/lastmile_qr_scan", "android": "https://dc.lft.to/lastmile_qr_scan"}}, {"name": "782152c69dbb073f34818dc844f9f5fe", "type": "electric_scooter", "lat": 38.8802935, "is_reserved": 0, "lon": -76.988406, "fusion_lon": 0.0, "is_disabled": 0, "fusion_lat": 0.0, "bike_id": "782152c69dbb073f34818dc844f9f5fe", "rental_uris": {"ios": "https://dc.lft.to/lastmile_qr_scan", "android": "https://dc.lft.to/lastmile_qr_scan"}}, {"name": "901fdf16c7f05dca14c5342bedb41551", "type": "electric_scooter", "lat": 38.91014633333333, "is_reserved": 0, "lon": -76.996714, "fusion_lon": 0.0, "is_disabled": 0, "fusion_lat": 0.0, "bike_id": "901fdf16c7f05dca14c5342bedb41551", "rental_uris": {"ios": "https://dc.lft.to/lastmile_qr_scan", "android": "https://dc.lft.to/lastmile_qr_scan"}}, {"name": "0f7b4f33ebae2af8dc89357566ac2e91", "type": "electric_scooter", "lat": 38.9008225, "is_reserved": 0, "lon": -77.05906366666666, "fusion_lon": 0.0, "is_disabled": 0, "fusion_lat": 0.0, "bike_id": "0f7b4f33ebae2af8dc89357566ac2e91", "rental_uris": {"ios": "https://dc.lft.to/lastmile_qr_scan", "android": "https://dc.lft.to/lastmile_qr_scan"}}, {"name": "40f62b055c807b5980b19c895163df54", "type": "electric_scooter", "lat": 38.93071833333333, "is_reserved": 0, "lon": -77.03802766666666, "fusion_lon": 0.0, "is_disabled": 0, "fusion_lat": 0.0, "bike_id": "40f62b055c807b5980b19c895163df54", "rental_uris": {"ios": "https://dc.lft.to/lastmile_qr_scan", "android": "https://dc.lft.to/lastmile_qr_scan"}}, {"name": "4b98b8233b9104eb6b6d60ad807bdf68", "type": "electric_scooter", "lat": 38.91406966666667, "is_reserved": 0, "lon": -77.03908783333334, "fusion_lon": 0.0, "is_disabled": 0, "fusion_lat": 0.0, "bike_id": "4b98b8233b9104eb6b6d60ad807bdf68", "rental_uris": {"ios": "https://dc.lft.to/lastmile_qr_scan", "android": "https://dc.lft.to/lastmile_qr_scan"}}, {"name": "3875cff2d542d97da8ab9cf8c3ac3b17", "type": "electric_scooter", "lat": 38.84425916666667, "is_reserved": 0, "lon": -76.99777516666667, "fusion_lon": 0.0, "is_disabled": 0, "fusion_lat": 0.0, "bike_id": "3875cff2d542d97da8ab9cf8c3ac3b17", "rental_uris": {"ios": "https://dc.lft.to/lastmile_qr_scan", "android": "https://dc.lft.to/lastmile_qr_scan"}}, {"name": "4d0a8df4469f2c3a8be43697eae7cf5e", "type": "electric_scooter", "lat": 38.86248766666667, "is_reserved": 0, "lon": -76.9949765, "fusion_lon": 0.0, "is_disabled": 0, "fusion_lat": 0.0, "bike_id": "4d0a8df4469f2c3a8be43697eae7cf5e", "rental_uris": {"ios": "https://dc.lft.to/lastmile_qr_scan", "android": "https://dc.lft.to/lastmile_qr_scan"}}, {"name": "093cc3f2d3f93063b83fbaab6c7d2e3d", "type": "electric_scooter", "lat": 38.93378333333333, "is_reserved": 0, "lon": -77.02744683333333, "fusion_lon": 0.0, "is_disabled": 0, "fusion_lat": 0.0, "bike_id": "093cc3f2d3f93063b83fbaab6c7d2e3d", "rental_uris": {"ios": "https://dc.lft.to/lastmile_qr_scan", "android": "https://dc.lft.to/lastmile_qr_scan"}}, {"name": "0c1f80ae277443137d5459105b267801", "type": "electric_scooter", "lat": 38.871972, "is_reserved": 0, "lon": -77.005773, "fusion_lon": 0.0, "is_disabled": 0, "fusion_lat": 0.0, "bike_id": "0c1f80ae277443137d5459105b267801", "rental_uris": {"ios": "https://dc.lft.to/lastmile_qr_scan", "android": "https://dc.lft.to/lastmile_qr_scan"}}, {"name": "2552e566b2d3bcd605daaedb5b7f7cd1", "type": "electric_bike", "lat": 38.841607, "is_reserved": 0, "lon": -77.08890233333334, "fusion_lon": 0.0, "is_disabled": 0, "fusion_lat": 0.0, "bike_id": "2552e566b2d3bcd605daaedb5b7f7cd1", "rental_uris": {"ios": "https://dc.lft.to/lastmile_qr_scan", "android": "https://dc.lft.to/lastmile_qr_scan"}}, {"name": "3f4cb184a6df773a77adc70f8710b3f5", "type": "electric_scooter", "lat": 38.89886533333333, "is_reserved": 0, "lon": -76.93175666666667, "fusion_lon": 0.0, "is_disabled": 0, "fusion_lat": 0.0, "bike_id": "3f4cb184a6df773a77adc70f8710b3f5", "rental_uris": {"ios": "https://dc.lft.to/lastmile_qr_scan", "android": "https://dc.lft.to/lastmile_qr_scan"}}, {"name": "f48b18423261f1defcb94389c2170dce", "type": "electric_scooter", "lat": 38.901352333333335, "is_reserved": 0, "lon": -76.99120183333334, "fusion_lon": 0.0, "is_disabled": 0, "fusion_lat": 0.0, "bike_id": "f48b18423261f1defcb94389c2170dce", "rental_uris": {"ios": "https://dc.lft.to/lastmile_qr_scan", "android": "https://dc.lft.to/lastmile_qr_scan"}}, {"name": "62d8f2259ba5d220ebe3cc7627537934", "type": "electric_scooter", "lat": 38.91563166666667, "is_reserved": 0, "lon": -77.02943833333333, "fusion_lon": 0.0, "is_disabled": 0, "fusion_lat": 0.0, "bike_id": "62d8f2259ba5d220ebe3cc7627537934", "rental_uris": {"ios": "https://dc.lft.to/lastmile_qr_scan", "android": "https://dc.lft.to/lastmile_qr_scan"}}, {"name": "e5d72ec72013a1ba50487ef544703bbc", "type": "electric_bike", "lat": 39.0519135, "is_reserved": 0, "lon": -77.10921766666667, "fusion_lon": 0.0, "is_disabled": 0, "fusion_lat": 0.0, "bike_id": "e5d72ec72013a1ba50487ef544703bbc", "rental_uris": {"ios": "https://dc.lft.to/lastmile_qr_scan", "android": "https://dc.lft.to/lastmile_qr_scan"}}, {"name": "395548998c313a5dae09c262e11ac011", "type": "electric_bike", "lat": 38.8114225, "is_reserved": 0, "lon": -77.050322, "fusion_lon": 0.0, "is_disabled": 0, "fusion_lat": 0.0, "bike_id": "395548998c313a5dae09c262e11ac011", "rental_uris": {"ios": "https://dc.lft.to/lastmile_qr_scan", "android": "https://dc.lft.to/lastmile_qr_scan"}}, {"name": "46d2fed38f85f1694210138956cac1fc", "type": "electric_scooter", "lat": 38.884351333333335, "is_reserved": 0, "lon": -77.02959716666666, "fusion_lon": 0.0, "is_disabled": 0, "fusion_lat": 0.0, "bike_id": "46d2fed38f85f1694210138956cac1fc", "rental_uris": {"ios": "https://dc.lft.to/lastmile_qr_scan", "android": "https://dc.lft.to/lastmile_qr_scan"}}, {"name": "41aae53f896a1b9172c584dc93baabc3", "type": "electric_scooter", "lat": 38.87013283333334, "is_reserved": 0, "lon": -77.01228566666667, "fusion_lon": 0.0, "is_disabled": 0, "fusion_lat": 0.0, "bike_id": "41aae53f896a1b9172c584dc93baabc3", "rental_uris": {"ios": "https://dc.lft.to/lastmile_qr_scan", "android": "https://dc.lft.to/lastmile_qr_scan"}}, {"name": "7528214d2b052f780de2ad42de780bf9", "type": "electric_scooter", "lat": 38.94425366666667, "is_reserved": 0, "lon": -77.063578, "fusion_lon": 0.0, "is_disabled": 0, "fusion_lat": 0.0, "bike_id": "7528214d2b052f780de2ad42de780bf9", "rental_uris": {"ios": "https://dc.lft.to/lastmile_qr_scan", "android": "https://dc.lft.to/lastmile_qr_scan"}}, {"name": "0460041a55a16fa52c6206e267463051", "type": "electric_scooter", "lat": 38.86244216666667, "is_reserved": 0, "lon": -76.99490766666666, "fusion_lon": 0.0, "is_disabled": 0, "fusion_lat": 0.0, "bike_id": "0460041a55a16fa52c6206e267463051", "rental_uris": {"ios": "https://dc.lft.to/lastmile_qr_scan", "android": "https://dc.lft.to/lastmile_qr_scan"}}, {"name": "5713d28140ba7a6651ab35995bba180a", "type": "electric_scooter", "lat": 38.90286, "is_reserved": 0, "lon": -77.031937, "fusion_lon": 0.0, "is_disabled": 0, "fusion_lat": 0.0, "bike_id": "5713d28140ba7a6651ab35995bba180a", "rental_uris": {"ios": "https://dc.lft.to/lastmile_qr_scan", "android": "https://dc.lft.to/lastmile_qr_scan"}}, {"name": "67fec685309bd1deb20430477ccbf1b5", "type": "electric_scooter", "lat": 38.93280333333333, "is_reserved": 0, "lon": -77.0349085, "fusion_lon": 0.0, "is_disabled": 0, "fusion_lat": 0.0, "bike_id": "67fec685309bd1deb20430477ccbf1b5", "rental_uris": {"ios": "https://dc.lft.to/lastmile_qr_scan", "android": "https://dc.lft.to/lastmile_qr_scan"}}, {"name": "066c0dd7786643601fa83a7da593cf71", "type": "electric_scooter", "lat": 38.88871233333333, "is_reserved": 0, "lon": -77.0399905, "fusion_lon": 0.0, "is_disabled": 0, "fusion_lat": 0.0, "bike_id": "066c0dd7786643601fa83a7da593cf71", "rental_uris": {"ios": "https://dc.lft.to/lastmile_qr_scan", "android": "https://dc.lft.to/lastmile_qr_scan"}}, {"name": "afec2408ef8e6d363dafe0cb7bbbfceb", "type": "electric_scooter", "lat": 38.930727833333336, "is_reserved": 0, "lon": -77.03397616666666, "fusion_lon": 0.0, "is_disabled": 0, "fusion_lat": 0.0, "bike_id": "afec2408ef8e6d363dafe0cb7bbbfceb", "rental_uris": {"ios": "https://dc.lft.to/lastmile_qr_scan", "android": "https://dc.lft.to/lastmile_qr_scan"}}, {"name": "867716841601adc6074c0b9a390573d7", "type": "electric_scooter", "lat": 38.900347, "is_reserved": 0, "lon": -77.00626666666666, "fusion_lon": 0.0, "is_disabled": 0, "fusion_lat": 0.0, "bike_id": "867716841601adc6074c0b9a390573d7", "rental_uris": {"ios": "https://dc.lft.to/lastmile_qr_scan", "android": "https://dc.lft.to/lastmile_qr_scan"}}, {"name": "88958a65d8a1b5598a52754a3daab1a5", "type": "electric_bike", "lat": 38.965489, "is_reserved": 0, "lon": -77.03510233333333, "fusion_lon": 0.0, "is_disabled": 0, "fusion_lat": 0.0, "bike_id": "88958a65d8a1b5598a52754a3daab1a5", "rental_uris": {"ios": "https://dc.lft.to/lastmile_qr_scan", "android": "https://dc.lft.to/lastmile_qr_scan"}}, {"name": "2105dc1c64bf223dc4c2eab1cbacab28", "type": "electric_scooter", "lat": 38.9002465, "is_reserved": 0, "lon": -77.01155216666666, "fusion_lon": 0.0, "is_disabled": 0, "fusion_lat": 0.0, "bike_id": "2105dc1c64bf223dc4c2eab1cbacab28", "rental_uris": {"ios": "https://dc.lft.to/lastmile_qr_scan", "android": "https://dc.lft.to/lastmile_qr_scan"}}, {"name": "ea4f759357a95435ee483d3e81df55ad", "type": "electric_scooter", "lat": 38.86564933333333, "is_reserved": 0, "lon": -76.9854835, "fusion_lon": 0.0, "is_disabled": 0, "fusion_lat": 0.0, "bike_id": "ea4f759357a95435ee483d3e81df55ad", "rental_uris": {"ios": "https://dc.lft.to/lastmile_qr_scan", "android": "https://dc.lft.to/lastmile_qr_scan"}}, {"name": "87b59af6f3b960c484c38104613e9220", "type": "electric_scooter", "lat": 38.897335166666664, "is_reserved": 0, "lon": -77.05475133333333, "fusion_lon": 0.0, "is_disabled": 0, "fusion_lat": 0.0, "bike_id": "87b59af6f3b960c484c38104613e9220", "rental_uris": {"ios": "https://dc.lft.to/lastmile_qr_scan", "android": "https://dc.lft.to/lastmile_qr_scan"}}, {"name": "65ad22029bcce20148c9a574ed2791eb", "type": "electric_scooter", "lat": 38.932346333333335, "is_reserved": 0, "lon": -77.03851933333333, "fusion_lon": 0.0, "is_disabled": 0, "fusion_lat": 0.0, "bike_id": "65ad22029bcce20148c9a574ed2791eb", "rental_uris": {"ios": "https://dc.lft.to/lastmile_qr_scan", "android": "https://dc.lft.to/lastmile_qr_scan"}}, {"name": "ce520b3bfb14ce62ccf7f941f47dd92e", "type": "electric_scooter", "lat": 38.92488983333333, "is_reserved": 0, "lon": -77.02713766666666, "fusion_lon": 0.0, "is_disabled": 0, "fusion_lat": 0.0, "bike_id": "ce520b3bfb14ce62ccf7f941f47dd92e", "rental_uris": {"ios": "https://dc.lft.to/lastmile_qr_scan", "android": "https://dc.lft.to/lastmile_qr_scan"}}, {"name": "c21eaf2f7e9c9a58a662c9597c4e9f3e", "type": "electric_scooter", "lat": 38.90649416666667, "is_reserved": 0, "lon": -77.051271, "fusion_lon": 0.0, "is_disabled": 0, "fusion_lat": 0.0, "bike_id": "c21eaf2f7e9c9a58a662c9597c4e9f3e", "rental_uris": {"ios": "https://dc.lft.to/lastmile_qr_scan", "android": "https://dc.lft.to/lastmile_qr_scan"}}, {"name": "dbd5df1eb267aa7b51e1211eba862e3f", "type": "electric_scooter", "lat": 38.906107, "is_reserved": 0, "lon": -77.051387, "fusion_lon": 0.0, "is_disabled": 0, "fusion_lat": 0.0, "bike_id": "dbd5df1eb267aa7b51e1211eba862e3f", "rental_uris": {"ios": "https://dc.lft.to/lastmile_qr_scan", "android": "https://dc.lft.to/lastmile_qr_scan"}}, {"name": "4132cb575a2d1a3f8ac2ae3128eca36d", "type": "electric_scooter", "lat": 38.8972645, "is_reserved": 0, "lon": -77.0433835, "fusion_lon": 0.0, "is_disabled": 0, "fusion_lat": 0.0, "bike_id": "4132cb575a2d1a3f8ac2ae3128eca36d", "rental_uris": {"ios": "https://dc.lft.to/lastmile_qr_scan", "android": "https://dc.lft.to/lastmile_qr_scan"}}, {"name": "b5e49aa2d0b473c31ba1ec63038b5eaa", "type": "electric_scooter", "lat": 38.900084666666665, "is_reserved": 0, "lon": -77.04048766666666, "fusion_lon": 0.0, "is_disabled": 0, "fusion_lat": 0.0, "bike_id": "b5e49aa2d0b473c31ba1ec63038b5eaa", "rental_uris": {"ios": "https://dc.lft.to/lastmile_qr_scan", "android": "https://dc.lft.to/lastmile_qr_scan"}}, {"name": "95b2a200e25d51f6bed71557f4cbc5f1", "type": "electric_scooter", "lat": 38.911039, "is_reserved": 0, "lon": -77.04673366666667, "fusion_lon": 0.0, "is_disabled": 0, "fusion_lat": 0.0, "bike_id": "95b2a200e25d51f6bed71557f4cbc5f1", "rental_uris": {"ios": "https://dc.lft.to/lastmile_qr_scan", "android": "https://dc.lft.to/lastmile_qr_scan"}}, {"name": "8ce423d675641bce9e150d2cb868626c", "type": "electric_scooter", "lat": 38.9300985, "is_reserved": 0, "lon": -77.02331516666666, "fusion_lon": 0.0, "is_disabled": 0, "fusion_lat": 0.0, "bike_id": "8ce423d675641bce9e150d2cb868626c", "rental_uris": {"ios": "https://dc.lft.to/lastmile_qr_scan", "android": "https://dc.lft.to/lastmile_qr_scan"}}, {"name": "3455bddcbd3c30ab5f883e4555c62f04", "type": "electric_scooter", "lat": 38.883640666666665, "is_reserved": 0, "lon": -77.03173083333333, "fusion_lon": 0.0, "is_disabled": 0, "fusion_lat": 0.0, "bike_id": "3455bddcbd3c30ab5f883e4555c62f04", "rental_uris": {"ios": "https://dc.lft.to/lastmile_qr_scan", "android": "https://dc.lft.to/lastmile_qr_scan"}}, {"name": "b565933aacb733cd8731468b4c5b54d4", "type": "electric_bike", "lat": 38.8934865, "is_reserved": 0, "lon": -77.187394, "fusion_lon": 0.0, "is_disabled": 0, "fusion_lat": 0.0, "bike_id": "b565933aacb733cd8731468b4c5b54d4", "rental_uris": {"ios": "https://dc.lft.to/lastmile_qr_scan", "android": "https://dc.lft.to/lastmile_qr_scan"}},