{"data": {"bikes": [{"is_disabled": 0, "is_reserved": 0, "fusion_lat": 0.0, "lat": 38.902772, "fusion_lon": 0.0, "rental_uris": {"ios": "https://dc.lft.to/lastmile_qr_scan", "android": "https://dc.lft.to/lastmile_qr_scan"}, "lon": -77.05199133333333, "bike_id": "7314bd1a60dc489a32ffe8f7949212b1", "type": "electric_scooter", "name": "7314bd1a60dc489a32ffe8f7949212b1"}, {"is_disabled": 0, "is_reserved": 0, "fusion_lat": 0.0, "lat": 38.914854166666665, "fusion_lon": 0.0, "rental_uris": {"ios": "https://dc.lft.to/lastmile_qr_scan", "android": "https://dc.lft.to/lastmile_qr_scan"}, "lon": -77.021603, "bike_id": "a593fb485c0ad0ff551fd0026cd59f4e", "type": "electric_scooter", "name": "a593fb485c0ad0ff551fd0026cd59f4e"}, {"is_disabled": 0, "is_reserved": 0, "fusion_lat": 0.0, "lat": 38.89989383333333, "fusion_lon": 0.0, "rental_uris": {"ios": "https://dc.lft.to/lastmile_qr_scan", "android": "https://dc.lft.to/lastmile_qr_scan"}, "lon": -77.027164, "bike_id": "a79b47abb6ae9a210ed0a5051dc22069", "type": "electric_scooter", "name": "a79b47abb6ae9a210ed0a5051dc22069"}, {"is_disabled": 0, "is_reserved": 0, "fusion_lat": 0.0, "lat": 38.92015333333333, "fusion_lon": 0.0, "rental_uris": {"ios": "https://dc.lft.to/lastmile_qr_scan", "android": "https://dc.lft.to/lastmile_qr_scan"}, "lon": -77.02189616666666, "bike_id": "93cf66f92dc75174132cf70733865025", "type": "electric_scooter", "name": "93cf66f92dc75174132cf70733865025"}, {"is_disabled": 0, "is_reserved": 0, "fusion_lat": 0.0, "lat": 38.945025666666666, "fusion_lon": 0.0, "rental_uris": {"ios": "https://dc.lft.to/lastmile_qr_scan", "android": "https://dc.lft.to/lastmile_qr_scan"}, "lon": -77.03430833333333, "bike_id": "a738c73e611a5706e27cd0dbd8b93554", "type": "electric_scooter", "name": "a738c73e611a5706e27cd0dbd8b93554"}, {"is_disabled": 0, "is_reserved": 0, "fusion_lat": 0.0, "lat": 38.902548, "fusion_lon": 0.0, "rental_uris": {"ios": "https://dc.lft.to/lastmile_qr_scan", "android": "https://dc.lft.to/lastmile_qr_scan"}, "lon": -76.977067, "bike_id": "618e8f29906bfd69a42e54b7b7a720da", "type": "electric_scooter", "name": "618e8f29906bfd69a42e54b7b7a720da"}, {"is_disabled": 0, "is_reserved": 0, "fusion_lat": 0.0, "lat": 38.909509, "fusion_lon": 0.0, "rental_uris": {"ios": "https://dc.lft.to/lastmile_qr_scan", "android": "https://dc.lft.to/lastmile_qr_scan"}, "lon": -77.03179466666667, "bike_id": "4d9dafd032546f95ce0e1153c28ae381", "type": "electric_scooter", "name": "4d9dafd032546f95ce0e1153c28ae381"}, {"is_disabled": 0, "is_reserved": 0, "fusion_lat": 0.0, "lat": 38.918615833333334, "fusion_lon": 0.0, "rental_uris": {"ios": "https://dc.lft.to/lastmile_qr_scan", "android": "https://dc.lft.to/lastmile_qr_scan"}, "lon": -76.96090033333333, "bike_id": "7c9bbd3623fd283ef9dbff092b2619c6", "type": "electric_scooter", "name": "7c9bbd3623fd283ef9dbff092b2619c6"}, {"is_disabled": 0, "is_reserved": 0, "fusion_lat": 0.0, "lat": 38.90974, "fusion_lon": 0.0, "rental_uris": {"ios": "https://dc.lft.to/lastmile_qr_scan", "android": "https://dc.lft.to/lastmile_qr_scan"}, "lon": -77.04826233333333, "bike_id": "2ef6531b4c8cab151218cd5900deec55", "type": "electric_scooter", "name": "2ef6531b4c8cab151218cd5900deec55"}, {"is_disabled": 0, "is_reserved": 0, "fusion_lat": 0.0, "lat": 38.890127666666665, "fusion_lon": 0.0, "rental_uris": {"ios": "https://dc.lft.to/lastmile_qr_scan", "android": "https://dc.lft.to/lastmile_qr_scan"}, "lon": -76.9374305, "bike_id": "f3f7fef18f7b8f69596df62b61219de5", "type": "electric_scooter", "name": "f3f7fef18f7b8f69596df62b61219de5"}, {"is_disabled": 0, "is_reserved": 0, "fusion_lat": 0.0, "lat": 38.89413716666667, "fusion_lon": 0.0, "rental_uris": {"ios": "https://dc.lft.to/lastmile_qr_scan", "android": "https://dc.lft.to/lastmile_qr_scan"}, "lon": -77.03381583333334, "bike_id": "cf9ea4e85309e470df4a71a8475abe87", "type": "electric_scooter", "name": "cf9ea4e85309e470df4a71a8475abe87"}, {"is_disabled": 0, "is_reserved": 0, "fusion_lat": 0.0, "lat": 38.910544333333334, "fusion_lon": 0.0, "rental_uris": {"ios": "https://dc.lft.to/lastmile_qr_scan", "android": "https://dc.lft.to/lastmile_qr_scan"}, "lon": -77.0528665, "bike_id": "4c3e47991ef386aa4fa933c0e0c14fff", "type": "electric_bike", "name": "4c3e47991ef386aa4fa933c0e0c14fff"}, {"is_disabled": 0, "is_reserved": 0, "fusion_lat": 0.0, "lat": 38.89883233333333, "fusion_lon": 0.0, "rental_uris": {"ios": "https://dc.lft.to/lastmile_qr_scan", "android": "https://dc.lft.to/lastmile_qr_scan"}, "lon": -76.93175666666667, "bike_id": "d1580d43313a2322cc146dd382717d10", "type": "electric_scooter", "name": "d1580d43313a2322cc146dd382717d10"}, {"is_disabled": 0, "is_reserved": 0, "fusion_lat": 0.0, "lat": 38.892442, "fusion_lon": 0.0, "rental_uris": {"ios": "https://dc.lft.to/lastmile_qr_scan", "android": "https://dc.lft.to/lastmile_qr_scan"}, "lon": -77.03956316666667, "bike_id": "1f030085c00334c6fda2dec6eb534b31", "type": "electric_scooter", "name": "1f030085c00334c6fda2dec6eb534b31"}, {"is_disabled": 0, "is_reserved": 0, "fusion_lat": 0.0, "lat": 38.892740833333335, "fusion_lon": 0.0, "rental_uris": {"ios": "https://dc.lft.to/lastmile_qr_scan", "android": "https://dc.lft.to/lastmile_qr_scan"}, "lon": -77.046594, "bike_id": "6f9fe3ca3eeb233de6c3515b0d317ce0", "type": "electric_scooter", "name": "6f9fe3ca3eeb233de6c3515b0d317ce0"}, {"is_disabled": 0, "is_reserved": 0, "fusion_lat": 0.0, "lat": 38.8697, "fusion_lon": 0.0, "rental_uris": {"ios": "https://dc.lft.to/lastmile_qr_scan", "android": "https://dc.lft.to/lastmile_qr_scan"}, "lon": -77.013749, "bike_id": "8cc07435fdd6321fc419740032b5f438", "type": "electric_scooter", "name": "8cc07435fdd6321fc419740032b5f438"}, {"is_disabled": 0, "is_reserved": 0, "fusion_lat": 0.0, "lat": 38.86377016666667, "fusion_lon": 0.0, "rental_uris": {"ios": "https://dc.lft.to/lastmile_qr_scan", "android": "https://dc.lft.to/lastmile_qr_scan"}, "lon": -77.01358083333334, "bike_id": "fdd22cdf43ad03d84f647381e76b0654", "type": "electric_scooter", "name": "fdd22cdf43ad03d84f647381e76b0654"}, {"is_disabled": 0, "is_reserved": 0, "fusion_lat": 0.0, "lat": 38.91985366666667, "fusion_lon": 0.0, "rental_uris": {"ios": "https://dc.lft.to/lastmile_qr_scan", "android": "https://dc.lft.to/lastmile_qr_scan"}, "lon": -77.03219383333334, "bike_id": "a3a548c3a911d29c619433b193a31fab", "type": "electric_scooter", "name": "a3a548c3a911d29c619433b193a31fab"}, {"is_disabled": 0, "is_reserved": 0, "fusion_lat": 0.0, "lat": 38.927232333333336, "fusion_lon": 0.0, "rental_uris": {"ios": "https://dc.lft.to/lastmile_qr_scan", "android": "https://dc.lft.to/lastmile_qr_scan"}, "lon": -77.05138116666667, "bike_id": "f2d7f17f9419daf1adf9edac286274fb", "type": "electric_scooter", "name": "f2d7f17f9419daf1adf9edac286274fb"}, {"is_disabled": 0, "is_reserved": 0, "fusion_lat": 0.0, "lat": 38.85514466666667, "fusion_lon": 0.0, "rental_uris": {"ios": "https://dc.lft.to/lastmile_qr_scan", "android": "https://dc.lft.to/lastmile_qr_scan"}, "lon": -77.10154033333333, "bike_id": "117e97b62180150eea995c1e2711b4c8", "type": "electric_bike", "name": "117e97b62180150eea995c1e2711b4c8"}, {"is_disabled": 0, "is_reserved": 0, "fusion_lat": 0.0, "lat": 38.920957, "fusion_lon": 0.0, "rental_uris": {"ios": "https://dc.lft.to/lastmile_qr_scan", "android": "https://dc.lft.to/lastmile_qr_scan"}, "lon": -77.0231885, "bike_id": "1809c9a182ae628d348a4a8bb1ae9084", "type": "electric_scooter", "name": "1809c9a182ae628d348a4a8bb1ae9084"}, {"is_disabled": 0, "is_reserved": 0, "fusion_lat": 0.0, "lat": 38.916522666666665, "fusion_lon": 0.0, "rental_uris": {"ios": "https://dc.lft.to/lastmile_qr_scan", "android": "https://dc.lft.to/lastmile_qr_scan"}, "lon": -77.04669416666667, "bike_id": "3f1e2eb151c8a020cfa74c38f4f816e6", "type": "electric_scooter", "name": "3f1e2eb151c8a020cfa74c38f4f816e6"}, {"is_disabled": 0, "is_reserved": 0, "fusion_lat": 0.0, "lat": 38.899416, "fusion_lon": 0.0, "rental_uris": {"ios": "https://dc.lft.to/lastmile_qr_scan", "android": "https://dc.lft.to/lastmile_qr_scan"}, "lon": -76.9376145, "bike_id": "73406bf81c3987da64506b796d2b8941", "type": "electric_scooter", "name": "73406bf81c3987da64506b796d2b8941"}, {"is_disabled": 0, "is_reserved": 0, "fusion_lat": 0.0, "lat": 38.892223333333334, "fusion_lon": 0.0, "rental_uris": {"ios": "https://dc.lft.to/lastmile_qr_scan", "android": "https://dc.lft.to/lastmile_qr_scan"}, "lon": -77.03144483333334, "bike_id": "4d07abdd14a6c811e31fc8a395d305f3", "type": "electric_scooter", "name": "4d07abdd14a6c811e31fc8a395d305f3"}, {"is_disabled": 0, "is_reserved": 0, "fusion_lat": 0.0, "lat": 38.89051416666667, "fusion_lon": 0.0, "rental_uris": {"ios": "https://dc.lft.to/lastmile_qr_scan", "android": "https://dc.lft.to/lastmile_qr_scan"}, "lon": -77.0196575, "bike_id": "973caff84d128c16a1c328542216d230", "type": "electric_scooter", "name": "973caff84d128c16a1c328542216d230"}, {"is_disabled": 0, "is_reserved": 0, "fusion_lat": 0.0, "lat": 38.876567666666666, "fusion_lon": 0.0, "rental_uris": {"ios": "https://dc.lft.to/lastmile_qr_scan", "android": "https://dc.lft.to/lastmile_qr_scan"}, "lon": -77.00571816666667, "bike_id": "e0b9a238f61a41c7314a114930cf8af2", "type": "electric_scooter", "name": "e0b9a238f61a41c7314a114930cf8af2"}, {"is_disabled": 0, "is_reserved": 0, "fusion_lat": 0.0, "lat": 38.91809, "fusion_lon": 0.0, "rental_uris": {"ios": "https://dc.lft.to/lastmile_qr_scan", "android": "https://dc.lft.to/lastmile_qr_scan"}, "lon": -77.00005566666667, "bike_id": "d6389ede665c5fb562b8ecda4c232bf8", "type": "electric_scooter", "name": "d6389ede665c5fb562b8ecda4c232bf8"}, {"is_disabled": 0, "is_reserved": 0, "fusion_lat": 0.0, "lat": 38.91181066666667, "fusion_lon": 0.0, "rental_uris": {"ios": "https://dc.lft.to/lastmile_qr_scan", "android": "https://dc.lft.to/lastmile_qr_scan"}, "lon": -77.01215816666667, "bike_id": "2acb901c2f9f891cff37cdb4285bc786", "type": "electric_scooter", "name": "2acb901c2f9f891cff37cdb4285bc786"}, {"is_disabled": 0, "is_reserved": 0, "fusion_lat": 0.0, "lat": 38.928175, "fusion_lon": 0.0, "rental_uris": {"ios": "https://dc.lft.to/lastmile_qr_scan", "android": "https://dc.lft.to/lastmile_qr_scan"}, "lon": -77.059766, "bike_id": "e012a07be48f7b468a83cf6608676e9f", "type": "electric_bike", "name": "e012a07be48f7b468a83cf6608676e9f"}, {"is_disabled": 0, "is_reserved": 0, "fusion_lat": 0.0, "lat": 38.91672833333333, "fusion_lon": 0.0, "rental_uris": {"ios": "https://dc.lft.to/lastmile_qr_scan", "android": "https://dc.lft.to/lastmile_qr_scan"}, "lon": -77.01454066666666, "bike_id": "96c2f328f3f41444538698679e1c2041", "type": "electric_scooter", "name": "96c2f328f3f41444538698679e1c2041"}, {"is_disabled": 0, "is_reserved": 0, "fusion_lat": 0.0, "lat": 38.889747166666666, "fusion_lon": 0.0, "rental_uris": {"ios": "https://dc.lft.to/lastmile_qr_scan", "android": "https://dc.lft.to/lastmile_qr_scan"}, "lon": -76.981797, "bike_id": "159df7e4fb250b1885f7f850054e4efb", "type": "electric_scooter", "name": "159df7e4fb250b1885f7f850054e4efb"}, {"is_disabled": 0, "is_reserved": 0, "fusion_lat": 0.0, "lat": 38.898978, "fusion_lon": 0.0, "rental_uris": {"ios": "https://dc.lft.to/lastmile_qr_scan", "android": "https://dc.lft.to/lastmile_qr_scan"}, "lon": -77.0397605, "bike_id": "2bf2b3aeeec2e2b7c1624356ac19cbe4", "type": "electric_scooter", "name": "2bf2b3aeeec2e2b7c1624356ac19cbe4"}, {"is_disabled": 0, "is_reserved": 0, "fusion_lat": 0.0, "lat": 38.89293883333333, "fusion_lon": 0.0, "rental_uris": {"ios": "https://dc.lft.to/lastmile_qr_scan", "android": "https://dc.lft.to/lastmile_qr_scan"}, "lon": -76.976171, "bike_id": "8ac8195f65ca053ba27122adf6c2e74f", "type": "electric_bike", "name": "8ac8195f65ca053ba27122adf6c2e74f"}, {"is_disabled": 0, "is_reserved": 0, "fusion_lat": 0.0, "lat": 38.9369985, "fusion_lon": 0.0, "rental_uris": {"ios": "https://dc.lft.to/lastmile_qr_scan", "android": "https://dc.lft.to/lastmile_qr_scan"}, "lon": -77.05600083333333, "bike_id": "99eaba5ac96b376585e2ba698a5513a2", "type": "electric_scooter", "name": "99eaba5ac96b376585e2ba698a5513a2"}, {"is_disabled": 0, "is_reserved": 0, "fusion_lat": 0.0, "lat": 38.924009833333336, "fusion_lon": 0.0, "rental_uris": {"ios": "https://dc.lft.to/lastmile_qr_scan", "android": "https://dc.lft.to/lastmile_qr_scan"}, "lon": -76.993762, "bike_id": "d9bbd9b34cd7a0811b19bb0d95cd2fbb", "type": "electric_scooter", "name": "d9bbd9b34cd7a0811b19bb0d95cd2fbb"}, {"is_disabled": 0, "is_reserved": 0, "fusion_lat": 0.0, "lat": 38.91728333333333, "fusion_lon": 0.0, "rental_uris": {"ios": "https://dc.lft.to/lastmile_qr_scan", "android": "https://dc.lft.to/lastmile_qr_scan"}, "lon": -77.02703016666666, "bike_id": "f9a8ed0794021450cc5ba48e22d945e3", "type": "electric_scooter", "name": "f9a8ed0794021450cc5ba48e22d945e3"}, {"is_disabled": 0, "is_reserved": 0, "fusion_lat": 0.0, "lat": 38.92655233333333, "fusion_lon": 0.0, "rental_uris": {"ios": "https://dc.lft.to/lastmile_qr_scan", "android": "https://dc.lft.to/lastmile_qr_scan"}, "lon": -77.0242765, "bike_id": "2ba0e8746c2261ddbaad0778c8e7bf2d", "type": "electric_scooter", "name": "2ba0e8746c2261ddbaad0778c8e7bf2d"}, {"is_disabled": 0, "is_reserved": 0, "fusion_lat": 0.0, "lat": 38.9265285, "fusion_lon": 0.0, "rental_uris": {"ios": "https://dc.lft.to/lastmile_qr_scan", "android": "https://dc.lft.to/lastmile_qr_scan"}, "lon": -77.0244645, "bike_id": "dc355d7535928ece4354cf0df8a07f11", "type": "electric_scooter", "name": "dc355d7535928ece4354cf0df8a07f11"}, {"is_disabled": 0, "is_reserved": 0, "fusion_lat": 0.0, "lat": 38.918613, "fusion_lon": 0.0, "rental_uris": {"ios": "https://dc.lft.to/lastmile_qr_scan", "android": "https://dc.lft.to/lastmile_qr_scan"}, "lon": -77.04466166666667, "bike_id": "f790d03918ceb56366d235edadb0b2e3", "type": "electric_scooter", "name": "f790d03918ceb56366d235edadb0b2e3"}, {"is_disabled": 0, "is_reserved": 0, "fusion_lat": 0.0, "lat": 38.931226, "fusion_lon": 0.0, "rental_uris": {"ios": "https://dc.lft.to/lastmile_qr_scan", "android": "https://dc.lft.to/lastmile_qr_scan"}, "lon": -77.02068666666666, "bike_id": "df38c7073302148bf1e416b4c3c4fcc4", "type": "electric_scooter", "name": "df38c7073302148bf1e416b4c3c4fcc4"}, {"is_disabled": 0, "is_reserved": 0, "fusion_lat": 0.0, "lat": 38.90583383333333, "fusion_lon": 0.0, "rental_uris": {"ios": "https://dc.lft.to/lastmile_qr_scan", "android": "https://dc.lft.to/lastmile_qr_scan"}, "lon": -77.0022, "bike_id": "598430b8abf8ed32f2066538250d58fc", "type": "electric_scooter", "name": "598430b8abf8ed32f2066538250d58fc"}, {"is_disabled": 0, "is_reserved": 0, "fusion_lat": 0.0, "lat": 38.923501333333334, "fusion_lon": 0.0, "rental_uris": {"ios": "https://dc.lft.to/lastmile_qr_scan", "android": "https://dc.lft.to/lastmile_qr_scan"}, "lon": -77.07311983333334, "bike_id": "4056c6fc73360c096bd91b89b4a2632d", "type": "electric_scooter", "name": "4056c6fc73360c096bd91b89b4a2632d"}, {"is_disabled": 0, "is_reserved": 0, "fusion_lat": 0.0, "lat": 38.9079535, "fusion_lon": 0.0, "rental_uris": {"ios": "https://dc.lft.to/lastmile_qr_scan", "android": "https://dc.lft.to/lastmile_qr_scan"}, "lon": -77.04986066666666, "bike_id": "1dabaef539248341464012a7afdc325d", "type": "electric_scooter", "name": "1dabaef539248341464012a7afdc325d"}, {"is_disabled": 0, "is_reserved": 0, "fusion_lat": 0.0, "lat": 38.900203833333336, "fusion_lon": 0.0, "rental_uris": {"ios": "https://dc.lft.to/lastmile_qr_scan", "android": "https://dc.lft.to/lastmile_qr_scan"}, "lon": -77.021776, "bike_id": "57c34bde453b6502e53120602f9a3545", "type": "electric_scooter", "name": "57c34bde453b6502e53120602f9a3545"}, {"is_disabled": 0, "is_reserved": 0, "fusion_lat": 0.0, "lat": 38.91565516666667, "fusion_lon": 0.0, "rental_uris": {"ios": "https://dc.lft.to/lastmile_qr_scan", "android": "https://dc.lft.to/lastmile_qr_scan"}, "lon": -77.0007175, "bike_id": "b557251e42583f47351b0d34263543ce", "type": "electric_scooter", "name": "b557251e42583f47351b0d34263543ce"}, {"is_disabled": 0, "is_reserved": 0, "fusion_lat": 0.0, "lat": 38.8221285, "fusion_lon": 0.0, "rental_uris": {"ios": "https://dc.lft.to/lastmile_qr_scan", "android": "https://dc.lft.to/lastmile_qr_scan"}, "lon": -76.97704983333334, "bike_id": "c8b216093be63942d971488c3ad322f0", "type": "electric_bike", "name": "c8b216093be63942d971488c3ad322f0"}, {"is_disabled": 0, "is_reserved": 0, "fusion_lat": 0.0, "lat": 38.907235666666665, "fusion_lon": 0.0, "rental_uris": {"ios": "https://dc.lft.to/lastmile_qr_scan", "android": "https://dc.lft.to/lastmile_qr_scan"}, "lon": -77.03514583333333, "bike_id": "3ea2e14f382600468121374f1d7606e5", "type": "electric_scooter", "name": "3ea2e14f382600468121374f1d7606e5"}, {"is_disabled": 0, "is_reserved": 0, "fusion_lat": 0.0, "lat": 38.899399, "fusion_lon": 0.0, "rental_uris": {"ios": "https://dc.lft.to/lastmile_qr_scan", "android": "https://dc.lft.to/lastmile_qr_scan"}, "lon": -77.02206966666667, "bike_id": "6d1610c3c6712e5712759127a04c13a4", "type": "electric_scooter", "name": "6d1610c3c6712e5712759127a04c13a4"}, {"is_disabled": 0, "is_reserved": 0, "fusion_lat": 0.0, "lat": 38.92338383333333, "fusion_lon": 0.0, "rental_uris": {"ios": "https://dc.lft.to/lastmile_qr_scan", "android": "https://dc.lft.to/lastmile_qr_scan"}, "lon": -76.99874183333333, "bike_id": "9a592c1a390d5d56d771e680052e5e34", "type": "electric_scooter", "name": "9a592c1a390d5d56d771e680052e5e34"}, {"is_disabled": 0, "is_reserved": 0, "fusion_lat": 0.0, "lat": 38.908345, "fusion_lon": 0.0, "rental_uris": {"ios": "https://dc.lft.to/lastmile_qr_scan", "android": "https://dc.lft.to/lastmile_qr_scan"}, "lon": -76.99697933333333, "bike_id": "50f4ea8c1a5fee45a6201089cfd7027e", "type": "electric_scooter", "name": "50f4ea8c1a5fee45a6201089cfd7027e"}, {"is_disabled": 0, "is_reserved": 0, "fusion_lat": 0.0, "lat": 38.92224183333333, "fusion_lon": 0.0, "rental_uris": {"ios": "https://dc.lft.to/lastmile_qr_scan", "android": "https://dc.lft.to/lastmile_qr_scan"}, "lon": -77.01873766666667, "bike_id": "6c6fe295bd0a3679f347529ef1e0ce37", "type": "electric_scooter", "name": "6c6fe295bd0a3679f347529ef1e0ce37"}, {"is_disabled": 0, "is_reserved": 0, "fusion_lat": 0.0, "lat": 38.9002915, "fusion_lon": 0.0, "rental_uris": {"ios": "https://dc.lft.to/lastmile_qr_scan", "android": "https://dc.lft.to/lastmile_qr_scan"}, "lon": -76.99877283333333, "bike_id": "99b6cf30483d81468aadf6591b5bb8a7", "type": "electric_scooter", "name": "99b6cf30483d81468aadf6591b5bb8a7"}, {"is_disabled": 0, "is_reserved": 0, "fusion_lat": 0.0, "lat": 38.855193, "fusion_lon": 0.0, "rental_uris": {"ios": "https://dc.lft.to/lastmile_qr_scan", "android": "https://dc.lft.to/lastmile_qr_scan"}, "lon": -77.120612, "bike_id": "788622b0431e668939b414e3df0173b5", "type": "electric_bike", "name": "788622b0431e668939b414e3df0173b5"}, {"is_disabled": 0, "is_reserved": 0, "fusion_lat": 0.0, "lat": 38.882698833333336, "fusion_lon": 0.0, "rental_uris": {"ios": "https://dc.lft.to/lastmile_qr_scan", "android": "https://dc.lft.to/lastmile_qr_scan"}, "lon": -76.99016716666667, "bike_id": "ce07d748d06e53160473eeeeeb438f0f", "type": "electric_scooter", "name": "ce07d748d06e53160473eeeeeb438f0f"}, {"is_disabled": 0, "is_reserved": 0, "fusion_lat": 0.0, "lat": 38.905364166666665, "fusion_lon": 0.0, "rental_uris": {"ios": "https://dc.lft.to/lastmile_qr_scan", "android": "https://dc.lft.to/lastmile_qr_scan"}, "lon": -77.02976716666667, "bike_id": "b00a865a4b8fe28f09453ecbe05f66db", "type": "electric_scooter", "name": "b00a865a4b8fe28f09453ecbe05f66db"}, {"is_disabled": 0, "is_reserved": 0, "fusion_lat": 0.0, "lat": 38.91824866666666, "fusion_lon": 0.0, "rental_uris": {"ios": "https://dc.lft.to/lastmile_qr_scan", "android": "https://dc.lft.to/lastmile_qr_scan"}, "lon": -77.0242025, "bike_id": "1043232f32f24d3e5e2f947025218352", "type": "electric_scooter", "name": "1043232f32f24d3e5e2f947025218352"}, {"is_disabled": 0, "is_reserved": 0, "fusion_lat": 0.0, "lat": 38.87662183333333, "fusion_lon": 0.0, "rental_uris": {"ios": "https://dc.lft.to/lastmile_qr_scan", "android": "https://dc.lft.to/lastmile_qr_scan"}, "lon": -77.0088685, "bike_id": "8167f2a92b9bbe3386682135580a914c", "type": "electric_scooter", "name": "8167f2a92b9bbe3386682135580a914c"}, {"is_disabled": 0, "is_reserved": 0, "fusion_lat": 0.0, "lat": 38.928704, "fusion_lon": 0.0, "rental_uris": {"ios": "https://dc.lft.to/lastmile_qr_scan", "android": "https://dc.lft.to/lastmile_qr_scan"}, "lon": -77.07892783333334, "bike_id": "e6076a385115fdcaa88c2f9d66e172ee", "type": "electric_scooter", "name": "e6076a385115fdcaa88c2f9d66e172ee"}, {"is_disabled": 0, "is_reserved": 0, "fusion_lat": 0.0, "lat": 38.88363716666667, "fusion_lon": 0.0, "rental_uris": {"ios": "https://dc.lft.to/lastmile_qr_scan", "android": "https://dc.lft.to/lastmile_qr_scan"}, "lon": -76.927881, "bike_id": "1c295e508b6e2d75e5a3ce147ce70b05", "type": "electric_scooter", "name": "1c295e508b6e2d75e5a3ce147ce70b05"}, {"is_disabled": 0, "is_reserved": 0, "fusion_lat": 0.0, "lat": 38.913109666666664, "fusion_lon": 0.0, "rental_uris": {"ios": "https://dc.lft.to/lastmile_qr_scan", "android": "https://dc.lft.to/lastmile_qr_scan"}, "lon": -77.03261933333333, "bike_id": "84f33a5499ed8283de8c47598ad29f44", "type": "electric_scooter", "name": "84f33a5499ed8283de8c47598ad29f44"}, {"is_disabled": 0, "is_reserved": 0, "fusion_lat": 0.0, "lat": 38.90472883333333, "fusion_lon": 0.0, "rental_uris": {"ios": "https://dc.lft.to/lastmile_qr_scan", "android": "https://dc.lft.to/lastmile_qr_scan"}, "lon": -77.04882066666667, "bike_id": "5de87dc858716bc810fcd0b9d0d8c969", "type": "electric_scooter", "name": "5de87dc858716bc810fcd0b9d0d8c969"}, {"is_disabled": 0, "is_reserved": 0, "fusion_lat": 0.0, "lat": 38.91840766666667, "fusion_lon": 0.0, "rental_uris": {"ios": "https://dc.lft.to/lastmile_qr_scan", "android": "https://dc.lft.to/lastmile_qr_scan"}, "lon": -77.041662, "bike_id": "057f45b4b5d2a98d9c8f34ff01eb3bad", "type": "electric_scooter", "name": "057f45b4b5d2a98d9c8f34ff01eb3bad"}, {"is_disabled": 0, "is_reserved": 0, "fusion_lat": 0.0, "lat": 38.85838433333333, "fusion_lon": 0.0, "rental_uris": {"ios": "https://dc.lft.to/lastmile_qr_scan", "android": "https://dc.lft.to/lastmile_qr_scan"}, "lon": -76.98816916666667, "bike_id": "3702d54a4f36da060d73adf5da5f4f1f", "type": "electric_scooter", "name": "3702d54a4f36da060d73adf5da5f4f1f"}, {"is_disabled": 0, "is_reserved": 0, "fusion_lat": 0.0, "lat": 38.9386275, "fusion_lon": 0.0, "rental_uris": {"ios": "https://dc.lft.to/lastmile_qr_scan", "android": "https://dc.lft.to/lastmile_qr_scan"}, "lon": -77.02627833333334, "bike_id": "4da0aa04094cc61f4a53b8e9eb0a84d0", "type": "electric_bike", "name": "4da0aa04094cc61f4a53b8e9eb0a84d0"}, {"is_disabled": 0, "is_reserved": 0, "fusion_lat": 0.0, "lat": 38.892537, "fusion_lon": 0.0, "rental_uris": {"ios": "https://dc.lft.to/lastmile_qr_scan", "android": "https://dc.lft.to/lastmile_qr_scan"}, "lon": -77.04654766666667, "bike_id": "78bf66c977b4e674de883436ae5b295b", "type": "electric_scooter", "name": "78bf66c977b4e674de883436ae5b295b"}, {"is_disabled": 0, "is_reserved": 0, "fusion_lat": 0.0, "lat": 38.92317416666667, "fusion_lon": 0.0, "rental_uris": {"ios": "https://dc.lft.to/lastmile_qr_scan", "android": "https://dc.lft.to/lastmile_qr_scan"}, "lon": -77.02813866666666, "bike_id": "f7c62c7d74bdb77f28df214d2eb3e6cc", "type": "electric_scooter", "name": "f7c62c7d74bdb77f28df214d2eb3e6cc"}, {"is_disabled": 0, "is_reserved": 0, "fusion_lat": 0.0, "lat": 38.8578805, "fusion_lon": 0.0, "rental_uris": {"ios": "https://dc.lft.to/lastmile_qr_scan", "android": "https://dc.lft.to/lastmile_qr_scan"}, "lon": -76.98760833333333, "bike_id": "267ab56eadf15b8f5997b40d8d03f198", "type": "electric_bike", "name": "267ab56eadf15b8f5997b40d8d03f198"}, {"is_disabled": 0, "is_reserved": 0, "fusion_lat": 0.0, "lat": 38.897352833333336, "fusion_lon": 0.0, "rental_uris": {"ios": "https://dc.lft.to/lastmile_qr_scan", "android": "https://dc.lft.to/lastmile_qr_scan"}, "lon": -77.0272035, "bike_id": "ee491b2527b9a1bad522a7b3183736a3", "type": "electric_scooter", "name": "ee491b2527b9a1bad522a7b3183736a3"}, {"is_disabled": 0, "is_reserved": 0, "fusion_lat": 0.0, "lat": 38.8903615, "fusion_lon": 0.0, "rental_uris": {"ios": "https://dc.lft.to/lastmile_qr_scan", "android": "https://dc.lft.to/lastmile_qr_scan"}, "lon": -77.02982016666667, "bike_id": "4b4da9569354581368d308f084305d55", "type": "electric_scooter", "name": "4b4da9569354581368d308f084305d55"}, {"is_disabled": 0, "is_reserved": 0, "fusion_lat": 0.0, "lat": 38.9181415, "fusion_lon": 0.0, "rental_uris": {"ios": "https://dc.lft.to/lastmile_qr_scan", "android": "https://dc.lft.to/lastmile_qr_scan"}, "lon": -77.03995316666666, "bike_id": "0dfc79075ef97dd463e01b7bb335a117", "type": "electric_scooter", "name": "0dfc79075ef97dd463e01b7bb335a117"}, {"is_disabled": 0, "is_reserved": 0, "fusion_lat": 0.0, "lat": 38.924138666666664, "fusion_lon": 0.0, "rental_uris": {"ios": "https://dc.lft.to/lastmile_qr_scan", "android": "https://dc.lft.to/lastmile_qr_scan"}, "lon": -77.02714533333334, "bike_id": "c2194ec8f8d487e0ba3e4b86152de662", "type": "electric_scooter", "name": "c2194ec8f8d487e0ba3e4b86152de662"}, {"is_disabled": 0, "is_reserved": 0, "fusion_lat": 0.0, "lat": 38.94976783333333, "fusion_lon": 0.0, "rental_uris": {"ios": "https://dc.lft.to/lastmile_qr_scan", "android": "https://dc.lft.to/lastmile_qr_scan"}, "lon": -77.02446133333333, "bike_id": "751330a6d82b9ff295a23e044508af23", "type": "electric_scooter", "name": "751330a6d82b9ff295a23e044508af23"}, {"is_disabled": 0, "is_reserved": 0, "fusion_lat": 0.0, "lat": 38.961752, "fusion_lon": 0.0, "rental_uris": {"ios": "https://dc.lft.to/lastmile_qr_scan", "android": "https://dc.lft.to/lastmile_qr_scan"}, "lon": -77.03227483333333, "bike_id": "248a69a410a7465703ad1ba41cb3dee5", "type": "electric_scooter", "name": "248a69a410a7465703ad1ba41cb3dee5"}, {"is_disabled": 0, "is_reserved": 0, "fusion_lat": 0.0, "lat": 38.9289265, "fusion_lon": 0.0, "rental_uris": {"ios": "https://dc.lft.to/lastmile_qr_scan", "android": "https://dc.lft.to/lastmile_qr_scan"}, "lon": -77.03242283333333, "bike_id": "f746407c7e5a198e18faedfa0007d5da", "type": "electric_scooter", "name": "f746407c7e5a198e18faedfa0007d5da"}, {"is_disabled": 0, "is_reserved": 0, "fusion_lat": 0.0, "lat": 38.943702333333334, "fusion_lon": 0.0, "rental_uris": {"ios": "https://dc.lft.to/lastmile_qr_scan", "android": "https://dc.lft.to/lastmile_qr_scan"}, "lon": -77.06111083333333, "bike_id": "bd811cce877ff1aef296756b62255bc3", "type": "electric_scooter", "name": "bd811cce877ff1aef296756b62255bc3"}, {"is_disabled": 0, "is_reserved": 0, "fusion_lat": 0.0, "lat": 38.915645, "fusion_lon": 0.0, "rental_uris": {"ios": "https://dc.lft.to/lastmile_qr_scan", "android": "https://dc.lft.to/lastmile_qr_scan"}, "lon": -77.04012216666666, "bike_id": "cd0c0dd1114c3459c7791739389ee613", "type": "electric_scooter", "name": "cd0c0dd1114c3459c7791739389ee613"}, {"is_disabled": 0, "is_reserved": 0, "fusion_lat": 0.0, "lat": 38.886571, "fusion_lon": 0.0, "rental_uris": {"ios": "https://dc.lft.to/lastmile_qr_scan", "android": "https://dc.lft.to/lastmile_qr_scan"}, "lon": -77.03387766666667, "bike_id": "c4430462f7c87b1b05136a4b57c992f5", "type": "electric_scooter", "name": "c4430462f7c87b1b05136a4b57c992f5"}, {"is_disabled": 0, "is_reserved": 0, "fusion_lat": 0.0, "lat": 38.93701983333333, "fusion_lon": 0.0, "rental_uris": {"ios": "https://dc.lft.to/lastmile_qr_scan", "android": "https://dc.lft.to/lastmile_qr_scan"}, "lon": -77.056834, "bike_id": "108e224b1a8ed987027c048b9a3e088b", "type": "electric_scooter", "name": "108e224b1a8ed987027c048b9a3e088b"}, {"is_disabled": 0, "is_reserved": 0, "fusion_lat": 0.0, "lat": 38.90619916666667, "fusion_lon": 0.0, "rental_uris": {"ios": "https://dc.lft.to/lastmile_qr_scan", "android": "https://dc.lft.to/lastmile_qr_scan"}, "lon": -77.04165183333333, "bike_id": "1bd5722674afa4c3a69af9bb761e0fe2", "type": "electric_scooter", "name": "1bd5722674afa4c3a69af9bb761e0fe2"}, {"is_disabled": 0, "is_reserved": 0, "fusion_lat": 0.0, "lat": 38.894403833333335, "fusion_lon": 0.0, "rental_uris": {"ios": "https://dc.lft.to/lastmile_qr_scan", "android": "https://dc.lft.to/lastmile_qr_scan"}, "lon": -77.021994, "bike_id": "91d54b9556ffa14f390a8ebebc43b955", "type": "electric_scooter", "name": "91d54b9556ffa14f390a8ebebc43b955"}, {"is_disabled": 0, "is_reserved": 0, "fusion_lat": 0.0, "lat": 38.9353035, "fusion_lon": 0.0, "rental_uris": {"ios": "https://dc.lft.to/lastmile_qr_scan", "android": "https://dc.lft.to/lastmile_qr_scan"}, "lon": -77.03814066666666, "bike_id": "86a1df46500faed7b0a2ad523d97b5c3", "type": "electric_scooter", "name": "86a1df46500faed7b0a2ad523d97b5c3"}, {"is_disabled": 0, "is_reserved": 0, "fusion_lat": 0.0, "lat": 38.924446, "fusion_lon": 0.0, "rental_uris": {"ios": "https://dc.lft.to/lastmile_qr_scan", "android": "https://dc.lft.to/lastmile_qr_scan"}, "lon": -77.04030433333334, "bike_id": "bda38f7a5185ef5a8801f6341b97fa24", "type": "electric_scooter", "name": "bda38f7a5185ef5a8801f6341b97fa24"}, {"is_disabled": 0, "is_reserved": 0, "fusion_lat": 0.0, "lat": 38.89023683333333, "fusion_lon": 0.0, "rental_uris": {"ios": "https://dc.lft.to/lastmile_qr_scan", "android": "https://dc.lft.to/lastmile_qr_scan"}, "lon": -76.93728433333334, "bike_id": "84babf2a6fbd6970792d0685f155651e", "type": "electric_scooter", "name": "84babf2a6fbd6970792d0685f155651e"}, {"is_disabled": 0, "is_reserved": 0, "fusion_lat": 0.0, "lat": 38.8950435, "fusion_lon": 0.0, "rental_uris": {"ios": "https://dc.lft.to/lastmile_qr_scan", "android": "https://dc.lft.to/lastmile_qr_scan"}, "lon": -77.04182733333333, "bike_id": "439a372a19a8c05736b2ad605baea624", "type": "electric_scooter", "name": "439a372a19a8c05736b2ad605baea624"}, {"is_disabled": 0, "is_reserved": 0, "fusion_lat": 0.0, "lat": 38.8941795, "fusion_lon": 0.0, "rental_uris": {"ios": "https://dc.lft.to/lastmile_qr_scan", "android": "https://dc.lft.to/lastmile_qr_scan"}, "lon": -77.02134116666667, "bike_id": "a62edf7265b8c5bfc7a04a0ad75ea18a", "type": "electric_scooter", "name": "a62edf7265b8c5bfc7a04a0ad75ea18a"}, {"is_disabled": 0, "is_reserved": 0, "fusion_lat": 0.0, "lat": 38.926110666666666, "fusion_lon": 0.0, "rental_uris": {"ios": "https://dc.lft.to/lastmile_qr_scan", "android": "https://dc.lft.to/lastmile_qr_scan"}, "lon": -77.07966016666667, "bike_id": "59a27576463d04b7edebe89b843f46ab", "type": "electric_scooter", "name": "59a27576463d04b7edebe89b843f46ab"}, {"is_disabled": 0, "is_reserved": 0, "fusion_lat": 0.0, "lat": 38.921403166666664, "fusion_lon": 0.0, "rental_uris": {"ios": "https://dc.lft.to/lastmile_qr_scan", "android": "https://dc.lft.to/lastmile_qr_scan"}, "lon": -77.0455975, "bike_id": "bfac1af00d2109c7fd120355cdcd1254", "type": "electric_scooter", "name": "bfac1af00d2109c7fd120355cdcd1254"}, {"is_disabled": 0, "is_reserved": 0, "fusion_lat": 0.0, "lat": 38.90507933333333, "fusion_lon": 0.0, "rental_uris": {"ios": "https://dc.lft.to/lastmile_qr_scan", "android": "https://dc.lft.to/lastmile_qr_scan"}, "lon": -77.06017016666667, "bike_id": "1fade7ce2d6b2180ff9190448e268d3b", "type": "electric_scooter", "name": "1fade7ce2d6b2180ff9190448e268d3b"}, {"is_disabled": 0, "is_reserved": 0, "fusion_lat": 0.0, "lat": 38.91130316666667, "fusion_lon": 0.0, "rental_uris": {"ios": "https://dc.lft.to/lastmile_qr_scan", "android": "https://dc.lft.to/lastmile_qr_scan"}, "lon": -77.02202816666667, "bike_id": "cd728795d3f3a1fc5a89b5993292168b", "type": "electric_scooter", "name": "cd728795d3f3a1fc5a89b5993292168b"}, {"is_disabled": 0, "is_reserved": 0, "fusion_lat": 0.0, "lat": 38.9044795, "fusion_lon": 0.0, "rental_uris": {"ios": "https://dc.lft.to/lastmile_qr_scan", "android": "https://dc.lft.to/lastmile_qr_scan"}, "lon": -77.03088316666667, "bike_id": "884c2e5be4ba0b083eef7fd90d48b2ef", "type": "electric_scooter", "name": "884c2e5be4ba0b083eef7fd90d48b2ef"}, {"is_disabled": 0, "is_reserved": 0, "fusion_lat": 0.0, "lat": 38.88459733333333, "fusion_lon": 0.0, "rental_uris": {"ios": "https://dc.lft.to/lastmile_qr_scan", "android": "https://dc.lft.to/lastmile_qr_scan"}, "lon": -77.02504783333333, "bike_id": "0587e42ae01dead27f86222c59f0c17a", "type": "electric_scooter", "name": "0587e42ae01dead27f86222c59f0c17a"}, {"is_disabled": 0, "is_reserved": 0, "fusion_lat": 0.0, "lat": 38.88776266666667, "fusion_lon": 0.0, "rental_uris": {"ios": "https://dc.lft.to/lastmile_qr_scan", "android": "https://dc.lft.to/lastmile_qr_scan"}, "lon": -76.93261666666666, "bike_id": "0262f1eb7150ccb40ba5c3e10bb4e9ee", "type": "electric_scooter", "name": "0262f1eb7150ccb40ba5c3e10bb4e9ee"}, {"is_disabled": 0, "is_reserved": 0, "fusion_lat": 0.0, "lat": 38.894798333333334, "fusion_lon": 0.0, "rental_uris": {"ios": "https://dc.lft.to/lastmile_qr_scan", "android": "https://dc.lft.to/lastmile_qr_scan"}, "lon": -77.04190166666666, "bike_id": "3d86b2804f663c85c1776c3c6cdd1161", "type": "electric_scooter", "name": "3d86b2804f663c85c1776c3c6cdd1161"}, {"is_disabled": 0, "is_reserved": 0, "fusion_lat": 0.0, "lat": 38.922542166666666, "fusion_lon": 0.0, "rental_uris": {"ios": "https://dc.lft.to/lastmile_qr_scan", "android": "https://dc.lft.to/lastmile_qr_scan"}, "lon": -77.0365935, "bike_id": "66c231e42f7f0184eb300213e469a56a", "type": "electric_scooter", "name": "66c231e42f7f0184eb300213e469a56a"}, {"is_disabled": 0, "is_reserved": 0, "fusion_lat": 0.0, "lat": 38.92707083333333, "fusion_lon": 0.0, "rental_uris": {"ios": "https://dc.lft.to/lastmile_qr_scan", "android": "https://dc.lft.to/lastmile_qr_scan"}, "lon": -77.03821283333333, "bike_id": "c1aff277ae043f5bdcd84ab40b658ac3", "type": "electric_scooter", "name": "c1aff277ae043f5bdcd84ab40b658ac3"}, {"is_disabled": 0, "is_reserved": 0, "fusion_lat": 0.0, "lat": 38.98369016666667, "fusion_lon": 0.0, "rental_uris": {"ios": "https://dc.lft.to/lastmile_qr_scan", "android": "https://dc.lft.to/lastmile_qr_scan"}, "lon": -76.988475, "bike_id": "a73a7543dffd87ccbc3b28e515690f8c", "type": "electric_bike", "name": "a73a7543dffd87ccbc3b28e515690f8c"}, {"is_disabled": 0, "is_reserved": 0, "fusion_lat": 0.0, "lat": 38.92337633333333, "fusion_lon": 0.0, "rental_uris": {"ios": "https://dc.lft.to/lastmile_qr_scan", "android": "https://dc.lft.to/lastmile_qr_scan"}, "lon": -77.05678833333333, "bike_id": "7b4dcae838bc6706a025ef00c268b724", "type": "electric_scooter", "name": "7b4dcae838bc6706a025ef00c268b724"}, {"is_disabled": 0, "is_reserved": 0, "fusion_lat": 0.0, "lat": 38.87645833333333, "fusion_lon": 0.0, "rental_uris": {"ios": "https://dc.lft.to/lastmile_qr_scan", "android": "https://dc.lft.to/lastmile_qr_scan"}, "lon": -77.0059705, "bike_id": "bd4cd20068c0cb46f1168fa37b49d481", "type": "electric_scooter", "name": "bd4cd20068c0cb46f1168fa37b49d481"}, {"is_disabled": 0, "is_reserved": 0, "fusion_lat": 0.0, "lat": 38.8555665, "fusion_lon": 0.0, "rental_uris": {"ios": "https://dc.lft.to/lastmile_qr_scan", "android": "https://dc.lft.to/lastmile_qr_scan"}, "lon": -77.06404883333333, "bike_id": "def16a013057121a777480276555a0a6", "type": "electric_bike", "name": "def16a013057121a777480276555a0a6"}, {"is_disabled": 0, "is_reserved": 0, "fusion_lat": 0.0, "lat": 38.89727883333333, "fusion_lon": 0.0, "rental_uris": {"ios": "https://dc.lft.to/lastmile_qr_scan", "android": "https://dc.lft.to/lastmile_qr_scan"}, "lon": -77.03021966666667, "bike_id": "2cc81b640b1598cc601ee80ca7e25ecc", "type": "electric_scooter", "name": "2cc81b640b1598cc601ee80ca7e25ecc"}, {"is_disabled": 0, "is_reserved": 0, "fusion_lat": 0.0, "lat": 38.842299833333335, "fusion_lon": 0.0, "rental_uris": {"ios": "https://dc.lft.to/lastmile_qr_scan", "android": "https://dc.lft.to/lastmile_qr_scan"}, "lon": -77.00170383333334, "bike_id": "d8e5512f3a43373d939daa1bbb4917e6", "type": "electric_scooter", "name": "d8e5512f3a43373d939daa1bbb4917e6"}, {"is_disabled": 0, "is_reserved": 0, "fusion_lat": 0.0, "lat": 38.957462666666665, "fusion_lon": 0.0, "rental_uris": {"ios": "https://dc.lft.to/lastmile_qr_scan", "android": "https://dc.lft.to/lastmile_qr_scan"}, "lon": -77.02065833333333, "bike_id": "f483f34938db01f6c0d9bbd832109987", "type": "electric_scooter", "name": "f483f34938db01f6c0d9bbd832109987"}, {"is_disabled": 0, "is_reserved": 0, "fusion_lat": 0.0, "lat": 38.91350466666667, "fusion_lon": 0.0, "rental_uris": {"ios": "https://dc.lft.to/lastmile_qr_scan", "android": "https://dc.lft.to/lastmile_qr_scan"}, "lon": -77.02053883333333, "bike_id": "5c7f5a9f3f4092811fac810c446248da", "type": "electric_scooter", "name": "5c7f5a9f3f4092811fac810c446248da"}, {"is_disabled": 0, "is_reserved": 0, "fusion_lat": 0.0, "lat": 38.921558833333336, "fusion_lon": 0.0, "rental_uris": {"ios": "https://dc.lft.to/lastmile_qr_scan", "android": "https://dc.lft.to/lastmile_qr_scan"}, "lon": -77.03666216666667, "bike_id": "a79c36d5b5f46ce0eb333c82d8b50039", "type": "electric_scooter", "name": "a79c36d5b5f46ce0eb333c82d8b50039"}, {"is_disabled": 0, "is_reserved": 0, "fusion_lat": 0.0, "lat": 38.8422515, "fusion_lon": 0.0, "rental_uris": {"ios": "https://dc.lft.to/lastmile_qr_scan", "android": "https://dc.lft.to/lastmile_qr_scan"}, "lon": -76.94892116666666, "bike_id": "d2ccd9f3a7c3414a08b46491233132d3", "type": "electric_bike", "name": "d2ccd9f3a7c3414a08b46491233132d3"}, {"is_disabled": 0, "is_reserved": 0, "fusion_lat": 0.0, "lat": 38.9178275, "fusion_lon": 0.0, "rental_uris": {"ios": "https://dc.lft.to/lastmile_qr_scan", "android": "https://dc.lft.to/lastmile_qr_scan"}, "lon": -77.023385, "bike_id": "d98af8cbe85929f6766dae241b0d0379", "type": "electric_scooter", "name": "d98af8cbe85929f6766dae241b0d0379"}, {"is_disabled": 0, "is_reserved": 0, "fusion_lat": 0.0, "lat": 38.931723833333336, "fusion_lon": 0.0, "rental_uris": {"ios": "https://dc.lft.to/lastmile_qr_scan", "android": "https://dc.lft.to/lastmile_qr_scan"}, "lon": -77.02815433333333, "bike_id": "295479d6902ad902f1db7db7ecfc9a2a", "type": "electric_scooter", "name": "295479d6902ad902f1db7db7ecfc9a2a"}, {"is_disabled": 0, "is_reserved": 0, "fusion_lat": 0.0, "lat": 38.87071383333333, "fusion_lon": 0.0, "rental_uris": {"ios": "https://dc.lft.to/lastmile_qr_scan", "android": "https://dc.lft.to/lastmile_qr_scan"}, "lon": -76.98133033333333, "bike_id": "d9dce6da9b7f876506d36c9f4dfee2bd", "type": "electric_scooter", "name": "d9dce6da9b7f876506d36c9f4dfee2bd"}, {"is_disabled": 0, "is_reserved": 0, "fusion_lat": 0.0, "lat": 38.91230483333333, "fusion_lon": 0.0, "rental_uris": {"ios": "https://dc.lft.to/lastmile_qr_scan", "android": "https://dc.lft.to/lastmile_qr_scan"}, "lon": -77.03794066666667, "bike_id": "a0b046077109d6f5effba9784903d853", "type": "electric_scooter", "name": "a0b046077109d6f5effba9784903d853"}, {"is_disabled": 0, "is_reserved": 0, "fusion_lat": 0.0, "lat": 38.87578033333333, "fusion_lon": 0.0, "rental_uris": {"ios": "https://dc.lft.to/lastmile_qr_scan", "android": "https://dc.lft.to/lastmile_qr_scan"}, "lon": -77.2341005, "bike_id": "7ce06f8c9b6dea58c8f0324ce936bc97", "type": "electric_bike", "name": "7ce06f8c9b6dea58c8f0324ce936bc97"}, {"is_disabled": 0, "is_reserved": 0, "fusion_lat": 0.0, "lat": 38.91515316666667, "fusion_lon": 0.0, "rental_uris": {"ios": "https://dc.lft.to/lastmile_qr_scan", "android": "https://dc.lft.to/lastmile_qr_scan"}, "lon": -77.04489233333334, "bike_id": "ede657bd8444cde0a6a2100474642d22", "type": "electric_scooter", "name": "ede657bd8444cde0a6a2100474642d22"}, {"is_disabled": 0, "is_reserved": 0, "fusion_lat": 0.0, "lat": 38.880431333333334, "fusion_lon": 0.0, "rental_uris": {"ios": "https://dc.lft.to/lastmile_qr_scan", "android": "https://dc.lft.to/lastmile_qr_scan"}, "lon": -76.92722183333333, "bike_id": "4aa07a30883ab4e28e93433942a1f0a4", "type": "electric_scooter", "name": "4aa07a30883ab4e28e93433942a1f0a4"}, {"is_disabled": 0, "is_reserved": 0, "fusion_lat": 0.0, "lat": 38.89547983333333, "fusion_lon": 0.0, "rental_uris": {"ios": "https://dc.lft.to/lastmile_qr_scan", "android": "https://dc.lft.to/lastmile_qr_scan"}, "lon": -77.0218285, "bike_id": "8cc8b9d33527a8b8bcf7c7308dfd467a", "type": "electric_scooter", "name": "8cc8b9d33527a8b8bcf7c7308dfd467a"}, {"is_disabled": 0, "is_reserved": 0, "fusion_lat": 0.0, "lat": 38.92779683333333, "fusion_lon": 0.0, "rental_uris": {"ios": "https://dc.lft.to/lastmile_qr_scan", "android": "https://dc.lft.to/lastmile_qr_scan"}, "lon": -77.02742233333333, "bike_id": "020db24b400823a1c41e321002e6afc4", "type": "electric_scooter", "name": "020db24b400823a1c41e321002e6afc4"}, {"is_disabled": 0, "is_reserved": 0, "fusion_lat": 0.0, "lat": 38.914446, "fusion_lon": 0.0, "rental_uris": {"ios": "https://dc.lft.to/lastmile_qr_scan", "android": "https://dc.lft.to/lastmile_qr_scan"}, "lon": -77.02283866666667, "bike_id": "1b6d97c2af5e764bfcab70ccc15219e2", "type": "electric_scooter", "name": "1b6d97c2af5e764bfcab70ccc15219e2"}, {"is_disabled": 0, "is_reserved": 0, "fusion_lat": 0.0, "lat": 38.947953166666665, "fusion_lon": 0.0, "rental_uris": {"ios": "https://dc.lft.to/lastmile_qr_scan", "android": "https://dc.lft.to/lastmile_qr_scan"}, "lon": -77.0789865, "bike_id": "fee551f642dbd43b6cd78a189d8cf51f", "type": "electric_scooter", "name": "fee551f642dbd43b6cd78a189d8cf51f"}, {"is_disabled": 0, "is_reserved": 0, "fusion_lat": 0.0, "lat": 38.9510055, "fusion_lon": 0.0, "rental_uris": {"ios": "https://dc.lft.to/lastmile_qr_scan", "android": "https://dc.lft.to/lastmile_qr_scan"}, "lon": -77.02197933333333, "bike_id": "0c8a5a9faaf38cd0620cff2817eae7b7", "type": "electric_scooter", "name": "0c8a5a9faaf38cd0620cff2817eae7b7"}, {"is_disabled": 0, "is_reserved": 0, "fusion_lat": 0.0, "lat": 38.915760666666664, "fusion_lon": 0.0, "rental_uris": {"ios": "https://dc.lft.to/lastmile_qr_scan", "android": "https://dc.lft.to/lastmile_qr_scan"}, "lon": -77.02196933333333, "bike_id": "23a947092976591cb7397f86182c005a", "type": "electric_scooter", "name": "23a947092976591cb7397f86182c005a"}, {"is_disabled": 0, "is_reserved": 0, "fusion_lat": 0.0, "lat": 38.91559866666667, "fusion_lon": 0.0, "rental_uris": {"ios": "https://dc.lft.to/lastmile_qr_scan", "android": "https://dc.lft.to/lastmile_qr_scan"}, "lon": -77.04282916666666, "bike_id": "f1cd1bb0efc4c625feb0a597e09c4115", "type": "electric_scooter", "name": "f1cd1bb0efc4c625feb0a597e09c4115"}, {"is_disabled": 0, "is_reserved": 0, "fusion_lat": 0.0, "lat": 38.963848666666664, "fusion_lon": 0.0, "rental_uris": {"ios": "https://dc.lft.to/lastmile_qr_scan", "android": "https://dc.lft.to/lastmile_qr_scan"}, "lon": -77.01973666666666, "bike_id": "88244ce1298d51e037a947d54d4df6dd", "type": "electric_bike", "name": "88244ce1298d51e037a947d54d4df6dd"}, {"is_disabled": 0, "is_reserved": 0, "fusion_lat": 0.0, "lat": 38.9268645, "fusion_lon": 0.0, "rental_uris": {"ios": "https://dc.lft.to/lastmile_qr_scan", "android": "https://dc.lft.to/lastmile_qr_scan"}, "lon": -77.01453833333333, "bike_id": "5edfea3d30963cb643aa30a34b9854b6", "type": "electric_scooter", "name": "5edfea3d30963cb643aa30a34b9854b6"}, {"is_disabled": 0, "is_reserved": 0, "fusion_lat": 0.0, "lat": 38.8948735, "fusion_lon": 0.0, "rental_uris": {"ios": "https://dc.lft.to/lastmile_qr_scan", "android": "https://dc.lft.to/lastmile_qr_scan"}, "lon": -77.00983616666667, "bike_id": "eb44ddd3ea62c149b8f0d45a1b3753d7", "type": "electric_scooter", "name": "eb44ddd3ea62c149b8f0d45a1b3753d7"}, {"is_disabled": 0, "is_reserved": 0, "fusion_lat": 0.0, "lat": 38.9393465, "fusion_lon": 0.0, "rental_uris": {"ios": "https://dc.lft.to/lastmile_qr_scan", "android": "https://dc.lft.to/lastmile_qr_scan"}, "lon": -77.02588616666667, "bike_id": "da62347e44c934f13338096d765f47a1", "type": "electric_scooter", "name": "da62347e44c934f13338096d765f47a1"}, {"is_disabled": 0, "is_reserved": 0, "fusion_lat": 0.0, "lat": 38.910707333333335, "fusion_lon": 0.0, "rental_uris": {"ios": "https://dc.lft.to/lastmile_qr_scan", "android": "https://dc.lft.to/lastmile_qr_scan"}, "lon": -77.0373655, "bike_id": "bd1618aec52ebb0a1bd16f90dcd59e3a", "type": "electric_scooter", "name": "bd1618aec52ebb0a1bd16f90dcd59e3a"}, {"is_disabled": 0, "is_reserved": 0, "fusion_lat": 0.0, "lat": 38.89567266666667, "fusion_lon": 0.0, "rental_uris": {"ios": "https://dc.lft.to/lastmile_qr_scan", "android": "https://dc.lft.to/lastmile_qr_scan"}, "lon": -77.1273495, "bike_id": "3675a88286de9d7111c33bfbb08f7a23", "type": "electric_bike", "name": "3675a88286de9d7111c33bfbb08f7a23"}, {"is_disabled": 0, "is_reserved": 0, "fusion_lat": 0.0, "lat": 38.9171635, "fusion_lon": 0.0, "rental_uris": {"ios": "https://dc.lft.to/lastmile_qr_scan", "android": "https://dc.lft.to/lastmile_qr_scan"}, "lon": -77.04172516666667, "bike_id": "fd4599d587118b54fbce1f725a20f673", "type": "electric_scooter", "name": "fd4599d587118b54fbce1f725a20f673"}, {"is_disabled": 0, "is_reserved": 0, "fusion_lat": 0.0, "lat": 38.9168065, "fusion_lon": 0.0, "rental_uris": {"ios": "https://dc.lft.to/lastmile_qr_scan", "android": "https://dc.lft.to/lastmile_qr_scan"}, "lon": -77.02801716666667, "bike_id": "5cc82f0824bed7d1fa993e4e1b30919b", "type": "electric_scooter", "name": "5cc82f0824bed7d1fa993e4e1b30919b"}, {"is_disabled": 0, "is_reserved": 0, "fusion_lat": 0.0, "lat": 38.90153516666667, "fusion_lon": 0.0, "rental_uris": {"ios": "https://dc.lft.to/lastmile_qr_scan", "android": "https://dc.lft.to/lastmile_qr_scan"}, "lon": -77.03218266666667, "bike_id": "9517df183168e3cd83484fde6bc04a3c", "type": "electric_scooter", "name": "9517df183168e3cd83484fde6bc04a3c"}, {"is_disabled": 0, "is_reserved": 0, "fusion_lat": 0.0, "lat": 38.871790833333336, "fusion_lon": 0.0, "rental_uris": {"ios": "https://dc.lft.to/lastmile_qr_scan", "android": "https://dc.lft.to/lastmile_qr_scan"}, "lon": -77.00619033333334, "bike_id": "b096dabcb0c99bb1daeef170ded4fb00", "type": "electric_scooter", "name": "b096dabcb0c99bb1daeef170ded4fb00"}, {"is_disabled": 0, "is_reserved": 0, "fusion_lat": 0.0, "lat": 38.916932333333335, "fusion_lon": 0.0, "rental_uris": {"ios": "https://dc.lft.to/lastmile_qr_scan", "android": "https://dc.lft.to/lastmile_qr_scan"}, "lon": -77.02517416666667, "bike_id": "000c590087201a3aa0e88d0ca51266a9", "type": "electric_scooter", "name": "000c590087201a3aa0e88d0ca51266a9"}, {"is_disabled": 0, "is_reserved": 0, "fusion_lat": 0.0, "lat": 38.9715765, "fusion_lon": 0.0, "rental_uris": {"ios": "https://dc.lft.to/lastmile_qr_scan", "android": "https://dc.lft.to/lastmile_qr_scan"}, "lon": -76.98361716666666, "bike_id": "333236c1432f9a1c32d74dd4c836bda7", "type": "electric_bike", "name": "333236c1432f9a1c32d74dd4c836bda7"}, {"is_disabled": 0, "is_reserved": 0, "fusion_lat": 0.0, "lat": 38.911593, "fusion_lon": 0.0, "rental_uris": {"ios": "https://dc.lft.to/lastmile_qr_scan", "android": "https://dc.lft.to/lastmile_qr_scan"}, "lon": -77.01084316666666, "bike_id": "b0685ce5dd09040abee96bbac6889961", "type": "electric_scooter", "name": "b0685ce5dd09040abee96bbac6889961"}, {"is_disabled": 0, "is_reserved": 0, "fusion_lat": 0.0, "lat": 38.89708233333333, "fusion_lon": 0.0, "rental_uris": {"ios": "https://dc.lft.to/lastmile_qr_scan", "android": "https://dc.lft.to/lastmile_qr_scan"}, "lon": -76.93909983333333, "bike_id": "178cb058d2e27ea89c20887ef6b544ee", "type": "electric_scooter", "name": "178cb058d2e27ea89c20887ef6b544ee"}, {"is_disabled": 0, "is_reserved": 0, "fusion_lat": 0.0, "lat": 38.926540833333334, "fusion_lon": 0.0, "rental_uris": {"ios": "https://dc.lft.to/lastmile_qr_scan", "android": "https://dc.lft.to/lastmile_qr_scan"}, "lon": -77.09020216666667, "bike_id": "2a79f40921aa53b862d1d96977b358ad", "type": "electric_bike", "name": "2a79f40921aa53b862d1d96977b358ad"}, {"is_disabled": 0, "is_reserved": 0, "fusion_lat": 0.0, "lat": 38.890188333333334, "fusion_lon": 0.0, "rental_uris": {"ios": "https://dc.lft.to/lastmile_qr_scan", "android": "https://dc.lft.to/lastmile_qr_scan"}, "lon": -76.93734916666666, "bike_id": "5388cfad54533daecf9f87eab85180d2", "type": "electric_scooter", "name": "5388cfad54533daecf9f87eab85180d2"}, {"is_disabled": 0, "is_reserved": 0, "fusion_lat": 0.0, "lat": 38.903216666666665, "fusion_lon": 0.0, "rental_uris": {"ios": "https://dc.lft.to/lastmile_qr_scan", "android": "https://dc.lft.to/lastmile_qr_scan"}, "lon": -76.97542, "bike_id": "e6f379f91b9667b4a90c1f929c1ac8a2", "type": "electric_scooter", "name": "e6f379f91b9667b4a90c1f929c1ac8a2"}, {"is_disabled": 0, "is_reserved": 0, "fusion_lat": 0.0, "lat": 38.9170475, "fusion_lon": 0.0, "rental_uris": {"ios": "https://dc.lft.to/lastmile_qr_scan", "android": "https://dc.lft.to/lastmile_qr_scan"}, "lon": -77.02312233333333, "bike_id": "1e8b85acbcf8c1c7f3ce1cead951c894", "type": "electric_scooter", "name": "1e8b85acbcf8c1c7f3ce1cead951c894"}, {"is_disabled": 0, "is_reserved": 0, "fusion_lat": 0.0, "lat": 39.025187333333335, "fusion_lon": 0.0, "rental_uris": {"ios": "https://dc.lft.to/lastmile_qr_scan", "android": "https://dc.lft.to/lastmile_qr_scan"}, "lon": -77.0197055, "bike_id": "f3e78194dea351a8e5227f85b3b73aca", "type": "electric_bike", "name": "f3e78194dea351a8e5227f85b3b73aca"}, {"is_disabled": 0, "is_reserved": 0, "fusion_lat": 0.0, "lat": 38.91416983333333, "fusion_lon": 0.0, "rental_uris": {"ios": "https://dc.lft.to/lastmile_qr_scan", "android": "https://dc.lft.to/lastmile_qr_scan"}, "lon": -77.0222955, "bike_id": "b4bae2cf89337fadc17c552c6df78548", "type": "electric_scooter", "name": "b4bae2cf89337fadc17c552c6df78548"}, {"is_disabled": 0, "is_reserved": 0, "fusion_lat": 0.0, "lat": 38.90305016666667, "fusion_lon": 0.0, "rental_uris": {"ios": "https://dc.lft.to/lastmile_qr_scan", "android": "https://dc.lft.to/lastmile_qr_scan"}, "lon": -77.03215883333333, "bike_id": "b42dd44d5e04f598ad386f3c26d55816", "type": "electric_scooter", "name": "b42dd44d5e04f598ad386f3c26d55816"}, {"is_disabled": 0, "is_reserved": 0, "fusion_lat": 0.0, "lat": 38.89969383333333, "fusion_lon": 0.0, "rental_uris": {"ios": "https://dc.lft.to/lastmile_qr_scan", "android": "https://dc.lft.to/lastmile_qr_scan"}, "lon": -76.9263395, "bike_id": "e84ae99f28002537eec50151240b8347", "type": "electric_scooter", "name": "e84ae99f28002537eec50151240b8347"}, {"is_disabled": 0, "is_reserved": 0, "fusion_lat": 0.0, "lat": 39.08475766666667, "fusion_lon": 0.0, "rental_uris": {"ios": "https://dc.lft.to/lastmile_qr_scan", "android": "https://dc.lft.to/lastmile_qr_scan"}, "lon": -76.9505915, "bike_id": "71bab80de76f500f92db9a1a277dc23f", "type": "electric_bike", "name": "71bab80de76f500f92db9a1a277dc23f"}, {"is_disabled": 0, "is_reserved": 0, "fusion_lat": 0.0, "lat": 38.89956883333333, "fusion_lon": 0.0, "rental_uris": {"ios": "https://dc.lft.to/lastmile_qr_scan", "android": "https://dc.lft.to/lastmile_qr_scan"}, "lon": -77.01654766666667, "bike_id": "118222c1e85af1d35308b974fda60c4f", "type": "electric_scooter", "name": "118222c1e85af1d35308b974fda60c4f"}, {"is_disabled": 0, "is_reserved": 0, "fusion_lat": 0.0, "lat": 38.953461833333336, "fusion_lon": 0.0, "rental_uris": {"ios": "https://dc.lft.to/lastmile_qr_scan", "android": "https://dc.lft.to/lastmile_qr_scan"}, "lon": -77.08153633333333, "bike_id": "f1f9268427f2718b51b4316bb9939eb4", "type": "electric_scooter", "name": "f1f9268427f2718b51b4316bb9939eb4"}, {"is_disabled": 0, "is_reserved": 0, "fusion_lat": 0.0, "lat": 38.9002415, "fusion_lon": 0.0, "rental_uris": {"ios": "https://dc.lft.to/lastmile_qr_scan", "android": "https://dc.lft.to/lastmile_qr_scan"}, "lon": -76.9986845, "bike_id": "1db7facb979d279e76a4251628378fcb", "type": "electric_scooter", "name": "1db7facb979d279e76a4251628378fcb"}, {"is_disabled": 0, "is_reserved": 0, "fusion_lat": 0.0, "lat": 38.921686333333334, "fusion_lon": 0.0, "rental_uris": {"ios": "https://dc.lft.to/lastmile_qr_scan", "android": "https://dc.lft.to/lastmile_qr_scan"}, "lon": -77.0402665, "bike_id": "5f5755e6ac9b51cc865241bed02855a6", "type": "electric_scooter", "name": "5f5755e6ac9b51cc865241bed02855a6"}, {"is_disabled": 0, "is_reserved": 0, "fusion_lat": 0.0, "lat": 38.90565183333333, "fusion_lon": 0.0, "rental_uris": {"ios": "https://dc.lft.to/lastmile_qr_scan", "android": "https://dc.lft.to/lastmile_qr_scan"}, "lon": -77.03270816666667, "bike_id": "1a57a23aa9643be3c5de77cf309dc8c5", "type": "electric_scooter", "name": "1a57a23aa9643be3c5de77cf309dc8c5"}, {"is_disabled": 0, "is_reserved": 0, "fusion_lat": 0.0, "lat": 38.923498333333335, "fusion_lon": 0.0, "rental_uris": {"ios": "https://dc.lft.to/lastmile_qr_scan", "android": "https://dc.lft.to/lastmile_qr_scan"}, "lon": -76.97206983333334, "bike_id": "72d25533ac1d61e581ed3f5878845428", "type": "electric_scooter", "name": "72d25533ac1d61e581ed3f5878845428"}, {"is_disabled": 0, "is_reserved": 0, "fusion_lat": 0.0, "lat": 38.88768866666667, "fusion_lon": 0.0, "rental_uris": {"ios": "https://dc.lft.to/lastmile_qr_scan", "android": "https://dc.lft.to/lastmile_qr_scan"}, "lon": -77.0145975, "bike_id": "5e62a00309efd1b7afb46a5c2b512e88", "type": "electric_scooter", "name": "5e62a00309efd1b7afb46a5c2b512e88"}, {"is_disabled": 0, "is_reserved": 0, "fusion_lat": 0.0, "lat": 38.91808, "fusion_lon": 0.0, "rental_uris": {"ios": "https://dc.lft.to/lastmile_qr_scan", "android": "https://dc.lft.to/lastmile_qr_scan"}, "lon": -77.0343375, "bike_id": "4d21d38b9e79b9a3ead4ef80c4b7fc08", "type": "electric_scooter", "name": "4d21d38b9e79b9a3ead4ef80c4b7fc08"}, {"is_disabled": 0, "is_reserved": 0, "fusion_lat": 0.0, "lat": 38.919580833333335, "fusion_lon": 0.0, "rental_uris": {"ios": "https://dc.lft.to/lastmile_qr_scan", "android": "https://dc.lft.to/lastmile_qr_scan"}, "lon": -77.04147566666667, "bike_id": "41afc08319e7f11d765c4e8f2e5b84aa", "type": "electric_scooter", "name": "41afc08319e7f11d765c4e8f2e5b84aa"}, {"is_disabled": 0, "is_reserved": 0, "fusion_lat": 0.0, "lat": 38.9189835, "fusion_lon": 0.0, "rental_uris": {"ios": "https://dc.lft.to/lastmile_qr_scan", "android": "https://dc.lft.to/lastmile_qr_scan"}, "lon": -77.02711466666666, "bike_id": "ed376f234c7ce5c046a5f9f24f53d72b", "type": "electric_scooter", "name": "ed376f234c7ce5c046a5f9f24f53d72b"}, {"is_disabled": 0, "is_reserved": 0, "fusion_lat": 0.0, "lat": 38.9140505, "fusion_lon": 0.0, "rental_uris": {"ios": "https://dc.lft.to/lastmile_qr_scan", "android": "https://dc.lft.to/lastmile_qr_scan"}, "lon": -77.0321735, "bike_id": "83f749db8acfbd6e130919e45717e524", "type": "electric_scooter", "name": "83f749db8acfbd6e130919e45717e524"}, {"is_disabled": 0, "is_reserved": 0, "fusion_lat": 0.0, "lat": 38.9222935, "fusion_lon": 0.0, "rental_uris": {"ios": "https://dc.lft.to/lastmile_qr_scan", "android": "https://dc.lft.to/lastmile_qr_scan"}, "lon": -77.03897716666667, "bike_id": "3ee0f734fdab9f7909200cb577f6b7ed", "type": "electric_scooter", "name": "3ee0f734fdab9f7909200cb577f6b7ed"}, {"is_disabled": 0, "is_reserved": 0, "fusion_lat": 0.0, "lat": 38.93615533333333, "fusion_lon": 0.0, "rental_uris": {"ios": "https://dc.lft.to/lastmile_qr_scan", "android": "https://dc.lft.to/lastmile_qr_scan"}, "lon": -76.949978, "bike_id": "40fccfa3d7a8c9dabc85f5ab341d9c11", "type": "electric_bike", "name": "40fccfa3d7a8c9dabc85f5ab341d9c11"}, {"is_disabled": 0, "is_reserved": 0, "fusion_lat": 0.0, "lat": 38.897490833333336, "fusion_lon": 0.0, "rental_uris": {"ios": "https://dc.lft.to/lastmile_qr_scan", "android": "https://dc.lft.to/lastmile_qr_scan"}, "lon": -77.05482933333333, "bike_id": "4978d6b1ac9b55a0afbc80c8e5d5401c", "type": "electric_scooter", "name": "4978d6b1ac9b55a0afbc80c8e5d5401c"}, {"is_disabled": 0, "is_reserved": 0, "fusion_lat": 0.0, "lat": 38.95334783333333, "fusion_lon": 0.0, "rental_uris": {"ios": "https://dc.lft.to/lastmile_qr_scan", "android": "https://dc.lft.to/lastmile_qr_scan"}, "lon": -76.98252116666667, "bike_id": "bfd01610b0210fe9b0840d048ef32168", "type": "electric_bike", "name": "bfd01610b0210fe9b0840d048ef32168"}, {"is_disabled": 0, "is_reserved": 0, "fusion_lat": 0.0, "lat": 38.87500633333333, "fusion_lon": 0.0, "rental_uris": {"ios": "https://dc.lft.to/lastmile_qr_scan", "android": "https://dc.lft.to/lastmile_qr_scan"}, "lon": -77.00176066666667, "bike_id": "e8f7ff9f34aebc3c871b7ee8ba9c374a", "type": "electric_scooter", "name": "e8f7ff9f34aebc3c871b7ee8ba9c374a"}, {"is_disabled": 0, "is_reserved": 0, "fusion_lat": 0.0, "lat": 38.8968655, "fusion_lon": 0.0, "rental_uris": {"ios": "https://dc.lft.to/lastmile_qr_scan", "android": "https://dc.lft.to/lastmile_qr_scan"}, "lon": -76.93904216666667, "bike_id": "203ce1a917fff69fdd41b6b0e16406db", "type": "electric_scooter", "name": "203ce1a917fff69fdd41b6b0e16406db"}, {"is_disabled": 0, "is_reserved": 0, "fusion_lat": 0.0, "lat": 38.90531083333333, "fusion_lon": 0.0, "rental_uris": {"ios": "https://dc.lft.to/lastmile_qr_scan", "android": "https://dc.lft.to/lastmile_qr_scan"}, "lon": -77.06205333333334, "bike_id": "000b7e553d9cd1b185eacf517ef31ba4", "type": "electric_scooter", "name": "000b7e553d9cd1b185eacf517ef31ba4"}, {"is_disabled": 0, "is_reserved": 0, "fusion_lat": 0.0, "lat": 38.914512, "fusion_lon": 0.0, "rental_uris": {"ios": "https://dc.lft.to/lastmile_qr_scan", "android": "https://dc.lft.to/lastmile_qr_scan"}, "lon": -77.00886983333334, "bike_id": "8fba31f6ff99b2d9f94dad88139f4e45", "type": "electric_scooter", "name": "8fba31f6ff99b2d9f94dad88139f4e45"}, {"is_disabled": 0, "is_reserved": 0, "fusion_lat": 0.0, "lat": 38.86240333333333, "fusion_lon": 0.0, "rental_uris": {"ios": "https://dc.lft.to/lastmile_qr_scan", "android": "https://dc.lft.to/lastmile_qr_scan"}, "lon": -76.99515666666667, "bike_id": "36e81c5240bd05c757ac371834f4b222", "type": "electric_scooter", "name": "36e81c5240bd05c757ac371834f4b222"}, {"is_disabled": 0, "is_reserved": 0, "fusion_lat": 0.0, "lat": 38.91084083333333, "fusion_lon": 0.0, "rental_uris": {"ios": "https://dc.lft.to/lastmile_qr_scan", "android": "https://dc.lft.to/lastmile_qr_scan"}, "lon": -77.06550983333334, "bike_id": "3562e542c46d23ba779b5734546dd414", "type": "electric_scooter", "name": "3562e542c46d23ba779b5734546dd414"}, {"is_disabled": 0, "is_reserved": 0, "fusion_lat": 0.0, "lat": 38.92906416666667, "fusion_lon": 0.0, "rental_uris": {"ios": "https://dc.lft.to/lastmile_qr_scan", "android": "https://dc.lft.to/lastmile_qr_scan"}, "lon": -77.05978783333333, "bike_id": "6d955492a8632fa2240963bb2142d4ee", "type": "electric_scooter", "name": "6d955492a8632fa2240963bb2142d4ee"}, {"is_disabled": 0, "is_reserved": 0, "fusion_lat": 0.0, "lat": 38.91950466666667, "fusion_lon": 0.0, "rental_uris": {"ios": "https://dc.lft.to/lastmile_qr_scan", "android": "https://dc.lft.to/lastmile_qr_scan"}, "lon": -77.01397616666667, "bike_id": "716ff6a29b3d4319582361c3980a668b", "type": "electric_scooter", "name": "716ff6a29b3d4319582361c3980a668b"}, {"is_disabled": 0, "is_reserved": 0, "fusion_lat": 0.0, "lat": 38.919856, "fusion_lon": 0.0, "rental_uris": {"ios": "https://dc.lft.to/lastmile_qr_scan", "android": "https://dc.lft.to/lastmile_qr_scan"}, "lon": -77.0332515, "bike_id": "16f0114f9356be29a80a3d3a97622162", "type": "electric_scooter", "name": "16f0114f9356be29a80a3d3a97622162"}, {"is_disabled": 0, "is_reserved": 0, "fusion_lat": 0.0, "lat": 38.91565383333333, "fusion_lon": 0.0, "rental_uris": {"ios": "https://dc.lft.to/lastmile_qr_scan", "android": "https://dc.lft.to/lastmile_qr_scan"}, "lon": -77.0215625, "bike_id": "b6e7de77f1403ba58e6084d9b5601fea", "type": "electric_scooter", "name": "b6e7de77f1403ba58e6084d9b5601fea"}, {"is_disabled": 0, "is_reserved": 0, "fusion_lat": 0.0, "lat": 38.8773515, "fusion_lon": 0.0, "rental_uris": {"ios": "https://dc.lft.to/lastmile_qr_scan", "android": "https://dc.lft.to/lastmile_qr_scan"}, "lon": -77.11842, "bike_id": "f8353a8591001afde4b7bc916f318332", "type": "electric_bike", "name": "f8353a8591001afde4b7bc916f318332"}, {"is_disabled": 0, "is_reserved": 0, "fusion_lat": 0.0, "lat": 38.9191955, "fusion_lon": 0.0, "rental_uris": {"ios": "https://dc.lft.to/lastmile_qr_scan", "android": "https://dc.lft.to/lastmile_qr_scan"}, "lon": -77.02541933333333, "bike_id": "d8bf09a9a993da6a803c5d14b3f25d75", "type": "electric_scooter", "name": "d8bf09a9a993da6a803c5d14b3f25d75"}, {"is_disabled": 0, "is_reserved": 0, "fusion_lat": 0.0, "lat": 38.884105, "fusion_lon": 0.0, "rental_uris": {"ios": "https://dc.lft.to/lastmile_qr_scan", "android": "https://dc.lft.to/lastmile_qr_scan"}, "lon": -77.02979583333334, "bike_id": "b42a3cbf23b2f96514ad84f7fd896944", "type": "electric_scooter", "name": "b42a3cbf23b2f96514ad84f7fd896944"}, {"is_disabled": 0, "is_reserved": 0, "fusion_lat": 0.0, "lat": 38.917959833333335, "fusion_lon": 0.0, "rental_uris": {"ios": "https://dc.lft.to/lastmile_qr_scan", "android": "https://dc.lft.to/lastmile_qr_scan"}, "lon": -77.032023, "bike_id": "30bac05bc932af730d24a82addbd0c78", "type": "electric_scooter", "name": "30bac05bc932af730d24a82addbd0c78"}, {"is_disabled": 0, "is_reserved": 0, "fusion_lat": 0.0, "lat": 38.90949283333333, "fusion_lon": 0.0, "rental_uris": {"ios": "https://dc.lft.to/lastmile_qr_scan", "android": "https://dc.lft.to/lastmile_qr_scan"}, "lon": -77.03181416666666, "bike_id": "ea98d97c68ff147cc3c9231f03959d5a", "type": "electric_scooter", "name": "ea98d97c68ff147cc3c9231f03959d5a"}, {"is_disabled": 0, "is_reserved": 0, "fusion_lat": 0.0, "lat": 38.92669316666667, "fusion_lon": 0.0, "rental_uris": {"ios": "https://dc.lft.to/lastmile_qr_scan", "android": "https://dc.lft.to/lastmile_qr_scan"}, "lon": -77.02276866666666, "bike_id": "39908904e76c1a7b7f432daf2c1c2edd", "type": "electric_scooter", "name": "39908904e76c1a7b7f432daf2c1c2edd"}, {"is_disabled": 0, "is_reserved": 0, "fusion_lat": 0.0, "lat": 38.93057566666667, "fusion_lon": 0.0, "rental_uris": {"ios": "https://dc.lft.to/lastmile_qr_scan", "android": "https://dc.lft.to/lastmile_qr_scan"}, "lon": -77.03186, "bike_id": "ee81e132b800d7b8614598847d4b6269", "type": "electric_scooter", "name": "ee81e132b800d7b8614598847d4b6269"}, {"is_disabled": 0, "is_reserved": 0, "fusion_lat": 0.0, "lat": 38.91208783333333, "fusion_lon": 0.0, "rental_uris": {"ios": "https://dc.lft.to/lastmile_qr_scan", "android": "https://dc.lft.to/lastmile_qr_scan"}, "lon": -77.02096733333333, "bike_id": "ea19dda3d778d20daa5bd73efa67a39b", "type": "electric_scooter", "name": "ea19dda3d778d20daa5bd73efa67a39b"}, {"is_disabled": 0, "is_reserved": 0, "fusion_lat": 0.0, "lat": 38.91157716666667, "fusion_lon": 0.0, "rental_uris": {"ios": "https://dc.lft.to/lastmile_qr_scan", "android": "https://dc.lft.to/lastmile_qr_scan"}, "lon": -77.023812, "bike_id": "d96452a5d1b53cf672166b1d89224175", "type": "electric_scooter", "name": "d96452a5d1b53cf672166b1d89224175"}, {"is_disabled": 0, "is_reserved": 0, "fusion_lat": 0.0, "lat": 38.933564833333335, "fusion_lon": 0.0, "rental_uris": {"ios": "https://dc.lft.to/lastmile_qr_scan", "android": "https://dc.lft.to/lastmile_qr_scan"}, "lon": -77.07288833333334, "bike_id": "f1effda67970c46ed63ceed71a50bff1", "type": "electric_scooter", "name": "f1effda67970c46ed63ceed71a50bff1"}, {"is_disabled": 0, "is_reserved": 0, "fusion_lat": 0.0, "lat": 38.91105966666667, "fusion_lon": 0.0, "rental_uris": {"ios": "https://dc.lft.to/lastmile_qr_scan", "android": "https://dc.lft.to/lastmile_qr_scan"}, "lon": -77.018787, "bike_id": "3e59d6c9fbbe0b8170256fe13caaef66", "type": "electric_scooter", "name": "3e59d6c9fbbe0b8170256fe13caaef66"}, {"is_disabled": 0, "is_reserved": 0, "fusion_lat": 0.0, "lat": 38.908942333333336, "fusion_lon": 0.0, "rental_uris": {"ios": "https://dc.lft.to/lastmile_qr_scan", "android": "https://dc.lft.to/lastmile_qr_scan"}, "lon": -77.04422783333334, "bike_id": "5ab915dc80cd6ae02b6553a7b2fe2a51", "type": "electric_scooter", "name": "5ab915dc80cd6ae02b6553a7b2fe2a51"}, {"is_disabled": 0, "is_reserved": 0, "fusion_lat": 0.0, "lat": 38.921671, "fusion_lon": 0.0, "rental_uris": {"ios": "https://dc.lft.to/lastmile_qr_scan", "android": "https://dc.lft.to/lastmile_qr_scan"}, "lon": -77.03663016666667, "bike_id": "329b90750ab50b28650b148f3fb5f6c1", "type": "electric_scooter", "name": "329b90750ab50b28650b148f3fb5f6c1"}, {"is_disabled": 0, "is_reserved": 0, "fusion_lat": 0.0, "lat": 38.8935445, "fusion_lon": 0.0, "rental_uris": {"ios": "https://dc.lft.to/lastmile_qr_scan", "android": "https://dc.lft.to/lastmile_qr_scan"}, "lon": -76.99214883333333, "bike_id": "559263ee145c79abcedbf8ec40795dfb", "type": "electric_scooter", "name": "559263ee145c79abcedbf8ec40795dfb"}, {"is_disabled": 0, "is_reserved": 0, "fusion_lat": 0.0, "lat": 38.9071635, "fusion_lon": 0.0, "rental_uris": {"ios": "https://dc.lft.to/lastmile_qr_scan", "android": "https://dc.lft.to/lastmile_qr_scan"}, "lon": -77.0531225, "bike_id": "c7c1d2e6e27a8d72720191cd06ddea50", "type": "electric_scooter", "name": "c7c1d2e6e27a8d72720191cd06ddea50"}, {"is_disabled": 0, "is_reserved": 0, "fusion_lat": 0.0, "lat": 38.93133433333333, "fusion_lon": 0.0, "rental_uris": {"ios": "https://dc.lft.to/lastmile_qr_scan", "android": "https://dc.lft.to/lastmile_qr_scan"}, "lon": -77.02807316666667, "bike_id": "5f23f25dd791415e9cfd321863680c6f", "type": "electric_scooter", "name": "5f23f25dd791415e9cfd321863680c6f"}, {"is_disabled": 0, "is_reserved": 0, "fusion_lat": 0.0, "lat": 38.8938155, "fusion_lon": 0.0, "rental_uris": {"ios": "https://dc.lft.to/lastmile_qr_scan", "android": "https://dc.lft.to/lastmile_qr_scan"}, "lon": -76.92313216666666, "bike_id": "baaf84ad7d9604e2fe955cc63c6f18f2", "type": "electric_scooter", "name": "baaf84ad7d9604e2fe955cc63c6f18f2"}, {"is_disabled": 0, "is_reserved": 0, "fusion_lat": 0.0, "lat": 38.884833, "fusion_lon": 0.0, "rental_uris": {"ios": "https://dc.lft.to/lastmile_qr_scan", "android": "https://dc.lft.to/lastmile_qr_scan"}, "lon": -77.033566, "bike_id": "ea3f5ca5c1a586be349f348b2fe524a4", "type": "electric_scooter", "name": "ea3f5ca5c1a586be349f348b2fe524a4"}, {"is_disabled": 0, "is_reserved": 0, "fusion_lat": 0.0, "lat": 38.926474666666664, "fusion_lon": 0.0, "rental_uris": {"ios": "https://dc.lft.to/lastmile_qr_scan", "android": "https://dc.lft.to/lastmile_qr_scan"}, "lon": -77.03697166666667, "bike_id": "bc1877d2be0ade1226f52fa9d50df796", "type": "electric_scooter", "name": "bc1877d2be0ade1226f52fa9d50df796"}, {"is_disabled": 0, "is_reserved": 0, "fusion_lat": 0.0, "lat": 38.89761016666667, "fusion_lon": 0.0, "rental_uris": {"ios": "https://dc.lft.to/lastmile_qr_scan", "android": "https://dc.lft.to/lastmile_qr_scan"}, "lon": -77.02129716666667, "bike_id": "b65570127681bdc511168286a9efed91", "type": "electric_scooter", "name": "b65570127681bdc511168286a9efed91"}, {"is_disabled": 0, "is_reserved": 0, "fusion_lat": 0.0, "lat": 38.907074333333334, "fusion_lon": 0.0, "rental_uris": {"ios": "https://dc.lft.to/lastmile_qr_scan", "android": "https://dc.lft.to/lastmile_qr_scan"}, "lon": -77.03197833333333, "bike_id": "7d2fbfc11375b6e04f0790401bd90d84", "type": "electric_scooter", "name": "7d2fbfc11375b6e04f0790401bd90d84"}, {"is_disabled": 0, "is_reserved": 0, "fusion_lat": 0.0, "lat": 38.953082, "fusion_lon": 0.0, "rental_uris": {"ios": "https://dc.lft.to/lastmile_qr_scan", "android": "https://dc.lft.to/lastmile_qr_scan"}, "lon": -77.0202255, "bike_id": "8351c2a8623beae9a7be94ea60cbb70c", "type": "electric_scooter", "name": "8351c2a8623beae9a7be94ea60cbb70c"}, {"is_disabled": 0, "is_reserved": 0, "fusion_lat": 0.0, "lat": 38.93458416666667, "fusion_lon": 0.0, "rental_uris": {"ios": "https://dc.lft.to/lastmile_qr_scan", "android": "https://dc.lft.to/lastmile_qr_scan"}, "lon": -77.02410233333333, "bike_id": "1ed1f76c6c0a8719899850e391425ce6", "type": "electric_scooter", "name": "1ed1f76c6c0a8719899850e391425ce6"}, {"is_disabled": 0, "is_reserved": 0, "fusion_lat": 0.0, "lat": 38.896457, "fusion_lon": 0.0, "rental_uris": {"ios": "https://dc.lft.to/lastmile_qr_scan", "android": "https://dc.lft.to/lastmile_qr_scan"}, "lon": -77.0324145, "bike_id": "ff31e240ab4f04d15618518f9f00dd4a", "type": "electric_scooter", "name": "ff31e240ab4f04d15618518f9f00dd4a"}, {"is_disabled": 0, "is_reserved": 0, "fusion_lat": 0.0, "lat": 38.931961333333334, "fusion_lon": 0.0, "rental_uris": {"ios": "https://dc.lft.to/lastmile_qr_scan", "android": "https://dc.lft.to/lastmile_qr_scan"}, "lon": -77.02451333333333, "bike_id": "0e1626686682c57408cf31f0883360c1", "type": "electric_scooter", "name": "0e1626686682c57408cf31f0883360c1"}, {"is_disabled": 0, "is_reserved": 0, "fusion_lat": 0.0, "lat": 38.92077966666667, "fusion_lon": 0.0, "rental_uris": {"ios": "https://dc.lft.to/lastmile_qr_scan", "android": "https://dc.lft.to/lastmile_qr_scan"}, "lon": -77.004549, "bike_id": "d746f7b8ce363ddcda4ebd36f0aab3d3", "type": "electric_scooter", "name": "d746f7b8ce363ddcda4ebd36f0aab3d3"}, {"is_disabled": 0, "is_reserved": 0, "fusion_lat": 0.0, "lat": 38.8629805, "fusion_lon": 0.0, "rental_uris": {"ios": "https://dc.lft.to/lastmile_qr_scan", "android": "https://dc.lft.to/lastmile_qr_scan"}, "lon": -77.0622405, "bike_id": "02edbc4ba32518937d4e27745d14ff94", "type": "electric_bike", "name": "02edbc4ba32518937d4e27745d14ff94"}, {"is_disabled": 0, "is_reserved": 0, "fusion_lat": 0.0, "lat": 38.932054, "fusion_lon": 0.0, "rental_uris": {"ios": "https://dc.lft.to/lastmile_qr_scan", "android": "https://dc.lft.to/lastmile_qr_scan"}, "lon": -77.02331616666666, "bike_id": "d8afc61e3ba9541384db5265b441473d", "type": "electric_scooter", "name": "d8afc61e3ba9541384db5265b441473d"}, {"is_disabled": 0, "is_reserved": 0, "fusion_lat": 0.0, "lat": 38.90544716666667, "fusion_lon": 0.0, "rental_uris": {"ios": "https://dc.lft.to/lastmile_qr_scan", "android": "https://dc.lft.to/lastmile_qr_scan"}, "lon": -77.06276466666667, "bike_id": "ee90cf41cd05ca09425f169a791858b5", "type": "electric_scooter", "name": "ee90cf41cd05ca09425f169a791858b5"}, {"is_disabled": 0, "is_reserved": 0, "fusion_lat": 0.0, "lat": 38.905218166666664, "fusion_lon": 0.0, "rental_uris": {"ios": "https://dc.lft.to/lastmile_qr_scan", "android": "https://dc.lft.to/lastmile_qr_scan"}, "lon": -77.062394, "bike_id": "09fac8d8c07f95fdf9737020d827cc20", "type": "electric_scooter", "name": "09fac8d8c07f95fdf9737020d827cc20"}, {"is_disabled": 0, "is_reserved": 0, "fusion_lat": 0.0, "lat": 38.89250083333334, "fusion_lon": 0.0, "rental_uris": {"ios": "https://dc.lft.to/lastmile_qr_scan", "android": "https://dc.lft.to/lastmile_qr_scan"}, "lon": -77.03955883333333, "bike_id": "97cb5b1b2219cd3617ae414205dcd278", "type": "electric_scooter", "name": "97cb5b1b2219cd3617ae414205dcd278"}, {"is_disabled": 0, "is_reserved": 0, "fusion_lat": 0.0, "lat": 38.90010016666667, "fusion_lon": 0.0, "rental_uris": {"ios": "https://dc.lft.to/lastmile_qr_scan", "android": "https://dc.lft.to/lastmile_qr_scan"}, "lon": -77.01252266666667, "bike_id": "ec1ec98b52ae75fe1442c7145d09e316", "type": "electric_scooter", "name": "ec1ec98b52ae75fe1442c7145d09e316"}, {"is_disabled": 0, "is_reserved": 0, "fusion_lat": 0.0, "lat": 38.902741666666664, "fusion_lon": 0.0, "rental_uris": {"ios": "https://dc.lft.to/lastmile_qr_scan", "android": "https://dc.lft.to/lastmile_qr_scan"}, "lon": -77.052004, "bike_id": "f2b4825983dd9702e1a1c8ee0e4cad00", "type": "electric_scooter", "name": "f2b4825983dd9702e1a1c8ee0e4cad00"}, {"is_disabled": 0, "is_reserved": 0, "fusion_lat": 0.0, "lat": 38.90537666666667, "fusion_lon": 0.0, "rental_uris": {"ios": "https://dc.lft.to/lastmile_qr_scan", "android": "https://dc.lft.to/lastmile_qr_scan"}, "lon": -77.06514383333334, "bike_id": "08145721a136f6d8be10cf7522b1da9f", "type": "electric_scooter", "name": "08145721a136f6d8be10cf7522b1da9f"}, {"is_disabled": 0, "is_reserved": 0, "fusion_lat": 0.0, "lat": 38.896548333333335, "fusion_lon": 0.0, "rental_uris": {"ios": "https://dc.lft.to/lastmile_qr_scan", "android": "https://dc.lft.to/lastmile_qr_scan"}, "lon": -77.03224266666666, "bike_id": "533c2b4aa729cf55180527efc6a0e530", "type": "electric_scooter", "name": "533c2b4aa729cf55180527efc6a0e530"}, {"is_disabled": 0, "is_reserved": 0, "fusion_lat": 0.0, "lat": 38.911010833333336, "fusion_lon": 0.0, "rental_uris": {"ios": "https://dc.lft.to/lastmile_qr_scan", "android": "https://dc.lft.to/lastmile_qr_scan"}, "lon": -77.032025, "bike_id": "8b9f168abfa5d85e5a1cc035408dc54e", "type": "electric_scooter", "name": "8b9f168abfa5d85e5a1cc035408dc54e"}, {"is_disabled": 0, "is_reserved": 0, "fusion_lat": 0.0, "lat": 38.90732333333333, "fusion_lon": 0.0, "rental_uris": {"ios": "https://dc.lft.to/lastmile_qr_scan", "android": "https://dc.lft.to/lastmile_qr_scan"}, "lon": -77.02439016666666, "bike_id": "54de5f531de7aeb4150c4fa6a0b8505e", "type": "electric_scooter", "name": "54de5f531de7aeb4150c4fa6a0b8505e"}, {"is_disabled": 0, "is_reserved": 0, "fusion_lat": 0.0, "lat": 38.89514483333333, "fusion_lon": 0.0, "rental_uris": {"ios": "https://dc.lft.to/lastmile_qr_scan", "android": "https://dc.lft.to/lastmile_qr_scan"}, "lon": -77.02287166666666, "bike_id": "959e857e2be1e799c18e8b79d1f8ae60", "type": "electric_scooter", "name": "959e857e2be1e799c18e8b79d1f8ae60"}, {"is_disabled": 0, "is_reserved": 0, "fusion_lat": 0.0, "lat": 38.896490666666665, "fusion_lon": 0.0, "rental_uris": {"ios": "https://dc.lft.to/lastmile_qr_scan", "android": "https://dc.lft.to/lastmile_qr_scan"}, "lon": -77.0258555, "bike_id": "2b1652c8e693c66ccf70aa68f9663c97", "type": "electric_scooter", "name": "2b1652c8e693c66ccf70aa68f9663c97"}, {"is_disabled": 0, "is_reserved": 0, "fusion_lat": 0.0, "lat": 38.941808333333334, "fusion_lon": 0.0, "rental_uris": {"ios": "https://dc.lft.to/lastmile_qr_scan", "android": "https://dc.lft.to/lastmile_qr_scan"}, "lon": -77.0152805, "bike_id": "d75171a1fb0d63fa8041a2f6c240441d", "type": "electric_scooter", "name": "d75171a1fb0d63fa8041a2f6c240441d"}, {"is_disabled": 0, "is_reserved": 0, "fusion_lat": 0.0, "lat": 38.89517133333333, "fusion_lon": 0.0, "rental_uris": {"ios": "https://dc.lft.to/lastmile_qr_scan", "android": "https://dc.lft.to/lastmile_qr_scan"}, "lon": -77.02284766666666, "bike_id": "2db520be477c233d5ee2e18fe95bc83f", "type": "electric_scooter", "name": "2db520be477c233d5ee2e18fe95bc83f"}, {"is_disabled": 0, "is_reserved": 0, "fusion_lat": 0.0, "lat": 38.921811, "fusion_lon": 0.0, "rental_uris": {"ios": "https://dc.lft.to/lastmile_qr_scan", "android": "https://dc.lft.to/lastmile_qr_scan"}, "lon": -76.9942075, "bike_id": "779e64db5e9883391b418ac2fca426bc", "type": "electric_scooter", "name": "779e64db5e9883391b418ac2fca426bc"}, {"is_disabled": 0, "is_reserved": 0, "fusion_lat": 0.0, "lat": 38.91827, "fusion_lon": 0.0, "rental_uris": {"ios": "https://dc.lft.to/lastmile_qr_scan", "android": "https://dc.lft.to/lastmile_qr_scan"}, "lon": -77.04001966666667, "bike_id": "5216d3391fe1f6893a69231f4826f8ab", "type": "electric_scooter", "name": "5216d3391fe1f6893a69231f4826f8ab"}, {"is_disabled": 0, "is_reserved": 0, "fusion_lat": 0.0, "lat": 38.94289833333333, "fusion_lon": 0.0, "rental_uris": {"ios": "https://dc.lft.to/lastmile_qr_scan", "android": "https://dc.lft.to/lastmile_qr_scan"}, "lon": -77.0216735, "bike_id": "2de1360b15ab7983de18baa081dde749", "type": "electric_scooter", "name": "2de1360b15ab7983de18baa081dde749"}, {"is_disabled": 0, "is_reserved": 0, "fusion_lat": 0.0, "lat": 38.927462166666665, "fusion_lon": 0.0, "rental_uris": {"ios": "https://dc.lft.to/lastmile_qr_scan", "android": "https://dc.lft.to/lastmile_qr_scan"}, "lon": -77.02162533333333, "bike_id": "4873d940bc7e198065df76e35625e9ed", "type": "electric_scooter", "name": "4873d940bc7e198065df76e35625e9ed"}, {"is_disabled": 0, "is_reserved": 0, "fusion_lat": 0.0, "lat": 38.921701, "fusion_lon": 0.0, "rental_uris": {"ios": "https://dc.lft.to/lastmile_qr_scan", "android": "https://dc.lft.to/lastmile_qr_scan"}, "lon": -77.042269, "bike_id": "a76927e7e973b04dba86f13d559f4483", "type": "electric_scooter", "name": "a76927e7e973b04dba86f13d559f4483"}, {"is_disabled": 0, "is_reserved": 0, "fusion_lat": 0.0, "lat": 38.896675, "fusion_lon": 0.0, "rental_uris": {"ios": "https://dc.lft.to/lastmile_qr_scan", "android": "https://dc.lft.to/lastmile_qr_scan"}, "lon": -76.949057, "bike_id": "4e10108acdf7d55cb2b53686422915b3", "type": "electric_scooter", "name": "4e10108acdf7d55cb2b53686422915b3"}, {"is_disabled": 0, "is_reserved": 0, "fusion_lat": 0.0, "lat": 38.898490833333334, "fusion_lon": 0.0, "rental_uris": {"ios": "https://dc.lft.to/lastmile_qr_scan", "android": "https://dc.lft.to/lastmile_qr_scan"}, "lon": -77.028604, "bike_id": "2930ed6f6228e174bcf60b61a119491c", "type": "electric_scooter", "name": "2930ed6f6228e174bcf60b61a119491c"}, {"is_disabled": 0, "is_reserved": 0, "fusion_lat": 0.0, "lat": 38.896738, "fusion_lon": 0.0, "rental_uris": {"ios": "https://dc.lft.to/lastmile_qr_scan", "android": "https://dc.lft.to/lastmile_qr_scan"}, "lon": -76.93208916666667, "bike_id": "da2f10cc04f61f46858df0d09b55dd62", "type": "electric_bike", "name": "da2f10cc04f61f46858df0d09b55dd62"}, {"is_disabled": 0, "is_reserved": 0, "fusion_lat": 0.0, "lat": 38.909681666666664, "fusion_lon": 0.0, "rental_uris": {"ios": "https://dc.lft.to/lastmile_qr_scan", "android": "https://dc.lft.to/lastmile_qr_scan"}, "lon": -77.02292233333333, "bike_id": "e1ccc344b335cd12ace315899585dcef", "type": "electric_scooter", "name": "e1ccc344b335cd12ace315899585dcef"}, {"is_disabled": 0, "is_reserved": 0, "fusion_lat": 0.0, "lat": 38.900392333333336, "fusion_lon": 0.0, "rental_uris": {"ios": "https://dc.lft.to/lastmile_qr_scan", "android": "https://dc.lft.to/lastmile_qr_scan"}, "lon": -76.99157366666667, "bike_id": "349c65ada77ff97576c77b1f7726cb7c", "type": "electric_scooter", "name": "349c65ada77ff97576c77b1f7726cb7c"}, {"is_disabled": 0, "is_reserved": 0, "fusion_lat": 0.0, "lat": 38.9160925, "fusion_lon": 0.0, "rental_uris": {"ios": "https://dc.lft.to/lastmile_qr_scan", "android": "https://dc.lft.to/lastmile_qr_scan"}, "lon": -77.02128916666666, "bike_id": "b7fc0cf38dc6925f027aaff1be1109ba", "type": "electric_scooter", "name": "b7fc0cf38dc6925f027aaff1be1109ba"}, {"is_disabled": 0, "is_reserved": 0, "fusion_lat": 0.0, "lat": 38.92011466666666, "fusion_lon": 0.0, "rental_uris": {"ios": "https://dc.lft.to/lastmile_qr_scan", "android": "https://dc.lft.to/lastmile_qr_scan"}, "lon": -77.031325, "bike_id": "dc851d0f849fcae737a0be42d130a9ec", "type": "electric_scooter", "name": "dc851d0f849fcae737a0be42d130a9ec"}, {"is_disabled": 0, "is_reserved": 0, "fusion_lat": 0.0, "lat": 38.97444683333333, "fusion_lon": 0.0, "rental_uris": {"ios": "https://dc.lft.to/lastmile_qr_scan", "android": "https://dc.lft.to/lastmile_qr_scan"}, "lon": -77.09584233333334, "bike_id": "8d9a45fa8ada31f5d2635bfb0244c0ee", "type": "electric_bike", "name": "8d9a45fa8ada31f5d2635bfb0244c0ee"}, {"is_disabled": 0, "is_reserved": 0, "fusion_lat": 0.0, "lat": 38.898471, "fusion_lon": 0.0, "rental_uris": {"ios": "https://dc.lft.to/lastmile_qr_scan", "android": "https://dc.lft.to/lastmile_qr_scan"}, "lon": -77.00202466666667, "bike_id": "74ac6de1235b83ac59a11511fafc8c7a", "type": "electric_scooter", "name": "74ac6de1235b83ac59a11511fafc8c7a"}, {"is_disabled": 0, "is_reserved": 0, "fusion_lat": 0.0, "lat": 38.92306766666667, "fusion_lon": 0.0, "rental_uris": {"ios": "https://dc.lft.to/lastmile_qr_scan", "android": "https://dc.lft.to/lastmile_qr_scan"}, "lon": -77.03404633333334, "bike_id": "6e210ee8ce7afc92ffc44c68428e7079", "type": "electric_scooter", "name": "6e210ee8ce7afc92ffc44c68428e7079"}, {"is_disabled": 0, "is_reserved": 0, "fusion_lat": 0.0, "lat": 38.876607666666665, "fusion_lon": 0.0, "rental_uris": {"ios": "https://dc.lft.to/lastmile_qr_scan", "android": "https://dc.lft.to/lastmile_qr_scan"}, "lon": -77.00880983333333, "bike_id": "963029f1449d66c43a25baec0ad1036d", "type": "electric_scooter", "name": "963029f1449d66c43a25baec0ad1036d"}, {"is_disabled": 0, "is_reserved": 0, "fusion_lat": 0.0, "lat": 38.9222315, "fusion_lon": 0.0, "rental_uris": {"ios": "https://dc.lft.to/lastmile_qr_scan", "android": "https://dc.lft.to/lastmile_qr_scan"}, "lon": -77.04239066666666, "bike_id": "d6b8404e874c2e632a10975b3bf21ae3", "type": "electric_scooter", "name": "d6b8404e874c2e632a10975b3bf21ae3"}, {"is_disabled": 0, "is_reserved": 0, "fusion_lat": 0.0, "lat": 38.90393683333333, "fusion_lon": 0.0, "rental_uris": {"ios": "https://dc.lft.to/lastmile_qr_scan", "android": "https://dc.lft.to/lastmile_qr_scan"}, "lon": -77.048386, "bike_id": "8b521c0fcdb2a5942399819230980275", "type": "electric_scooter", "name": "8b521c0fcdb2a5942399819230980275"}, {"is_disabled": 0, "is_reserved": 0, "fusion_lat": 0.0, "lat": 38.897353833333334, "fusion_lon": 0.0, "rental_uris": {"ios": "https://dc.lft.to/lastmile_qr_scan", "android": "https://dc.lft.to/lastmile_qr_scan"}, "lon": -77.04364133333333, "bike_id": "0417d08c592fb086197710ec9d4bc9f9", "type": "electric_scooter", "name": "0417d08c592fb086197710ec9d4bc9f9"}, {"is_disabled": 0, "is_reserved": 0, "fusion_lat": 0.0, "lat": 38.898153666666666, "fusion_lon": 0.0, "rental_uris": {"ios": "https://dc.lft.to/lastmile_qr_scan", "android": "https://dc.lft.to/lastmile_qr_scan"}, "lon": -77.02480483333333, "bike_id": "e0b4bf5700190323e750c3cece100c6c", "type": "electric_scooter", "name": "e0b4bf5700190323e750c3cece100c6c"}, {"is_disabled": 0, "is_reserved": 0, "fusion_lat": 0.0, "lat": 38.91267233333333, "fusion_lon": 0.0, "rental_uris": {"ios": "https://dc.lft.to/lastmile_qr_scan", "android": "https://dc.lft.to/lastmile_qr_scan"}, "lon": -77.02250366666667, "bike_id": "1a5cce3f3936a4a9f38a4bd7d46c6337", "type": "electric_scooter", "name": "1a5cce3f3936a4a9f38a4bd7d46c6337"}, {"is_disabled": 0, "is_reserved": 0, "fusion_lat": 0.0, "lat": 38.91429016666667, "fusion_lon": 0.0, "rental_uris": {"ios": "https://dc.lft.to/lastmile_qr_scan", "android": "https://dc.lft.to/lastmile_qr_scan"}, "lon": -77.03181683333334, "bike_id": "54a15ba16614d2b6d37b6a065de15ddf", "type": "electric_scooter", "name": "54a15ba16614d2b6d37b6a065de15ddf"}, {"is_disabled": 0, "is_reserved": 0, "fusion_lat": 0.0, "lat": 38.899628, "fusion_lon": 0.0, "rental_uris": {"ios": "https://dc.lft.to/lastmile_qr_scan", "android": "https://dc.lft.to/lastmile_qr_scan"}, "lon": -77.05496216666667, "bike_id": "25d60ff11917537148419ecc47c1411f", "type": "electric_scooter", "name": "25d60ff11917537148419ecc47c1411f"}, {"is_disabled": 0, "is_reserved": 0, "fusion_lat": 0.0, "lat": 38.89232366666667, "fusion_lon": 0.0, "rental_uris": {"ios": "https://dc.lft.to/lastmile_qr_scan", "android": "https://dc.lft.to/lastmile_qr_scan"}, "lon": -77.03204, "bike_id": "bdc910282148a2e580427b6ecd10c1eb", "type": "electric_scooter", "name": "bdc910282148a2e580427b6ecd10c1eb"}, {"is_disabled": 0, "is_reserved": 0, "fusion_lat": 0.0, "lat": 38.920628666666666, "fusion_lon": 0.0, "rental_uris": {"ios": "https://dc.lft.to/lastmile_qr_scan", "android": "https://dc.lft.to/lastmile_qr_scan"}, "lon": -77.024337, "bike_id": "34e547e9e14759c2af4f871dcfc31e46", "type": "electric_scooter", "name": "34e547e9e14759c2af4f871dcfc31e46"}, {"is_disabled": 0, "is_reserved": 0, "fusion_lat": 0.0, "lat": 38.87628733333333, "fusion_lon": 0.0, "rental_uris": {"ios": "https://dc.lft.to/lastmile_qr_scan", "android": "https://dc.lft.to/lastmile_qr_scan"}, "lon": -77.0082885, "bike_id": "0b23db4dfe87f0c3a409b38b2537c82d", "type": "electric_scooter", "name": "0b23db4dfe87f0c3a409b38b2537c82d"}, {"is_disabled": 0, "is_reserved": 0, "fusion_lat": 0.0, "lat": 38.92552216666667, "fusion_lon": 0.0, "rental_uris": {"ios": "https://dc.lft.to/lastmile_qr_scan", "android": "https://dc.lft.to/lastmile_qr_scan"}, "lon": -77.0227975, "bike_id": "22ffbf030a3d712a8ad5301273859d6c", "type": "electric_scooter", "name": "22ffbf030a3d712a8ad5301273859d6c"}, {"is_disabled": 0, "is_reserved": 0, "fusion_lat": 0.0, "lat": 38.94722483333334, "fusion_lon": 0.0, "rental_uris": {"ios": "https://dc.lft.to/lastmile_qr_scan", "android": "https://dc.lft.to/lastmile_qr_scan"}, "lon": -77.023569, "bike_id": "0cf9ee0f1f7d5cb88c67bc4f475ea2f3", "type": "electric_scooter", "name": "0cf9ee0f1f7d5cb88c67bc4f475ea2f3"}, {"is_disabled": 0, "is_reserved": 0, "fusion_lat": 0.0, "lat": 38.91343283333333, "fusion_lon": 0.0, "rental_uris": {"ios": "https://dc.lft.to/lastmile_qr_scan", "android": "https://dc.lft.to/lastmile_qr_scan"}, "lon": -77.03119016666666, "bike_id": "61e0d27f75f6a6531898735eab10c8ed", "type": "electric_scooter", "name": "61e0d27f75f6a6531898735eab10c8ed"}, {"is_disabled": 0, "is_reserved": 0, "fusion_lat": 0.0, "lat": 38.917865, "fusion_lon": 0.0, "rental_uris": {"ios": "https://dc.lft.to/lastmile_qr_scan", "android": "https://dc.lft.to/lastmile_qr_scan"}, "lon": -77.024789, "bike_id": "d69c69ae8447a5c2cb0025f48c743a38", "type": "electric_scooter", "name": "d69c69ae8447a5c2cb0025f48c743a38"}, {"is_disabled": 0, "is_reserved": 0, "fusion_lat": 0.0, "lat": 38.902213333333336, "fusion_lon": 0.0, "rental_uris": {"ios": "https://dc.lft.to/lastmile_qr_scan", "android": "https://dc.lft.to/lastmile_qr_scan"}, "lon": -77.02371433333333, "bike_id": "5422bb3493f1a951d1d383083b811ed3", "type": "electric_scooter", "name": "5422bb3493f1a951d1d383083b811ed3"}, {"is_disabled": 0, "is_reserved": 0, "fusion_lat": 0.0, "lat": 38.915815, "fusion_lon": 0.0, "rental_uris": {"ios": "https://dc.lft.to/lastmile_qr_scan", "android": "https://dc.lft.to/lastmile_qr_scan"}, "lon": -77.06789266666667, "bike_id": "9b2feaee4af17cbba4dcb77a89803af5", "type": "electric_scooter", "name": "9b2feaee4af17cbba4dcb77a89803af5"}, {"is_disabled": 0, "is_reserved": 0, "fusion_lat": 0.0, "lat": 38.926545, "fusion_lon": 0.0, "rental_uris": {"ios": "https://dc.lft.to/lastmile_qr_scan", "android": "https://dc.lft.to/lastmile_qr_scan"}, "lon": -77.02432766666666, "bike_id": "cecf894c2bd60e721d81837ed3fc1f4d", "type": "electric_scooter", "name": "cecf894c2bd60e721d81837ed3fc1f4d"}, {"is_disabled": 0, "is_reserved": 0, "fusion_lat": 0.0, "lat": 38.90905516666667, "fusion_lon": 0.0, "rental_uris": {"ios": "https://dc.lft.to/lastmile_qr_scan", "android": "https://dc.lft.to/lastmile_qr_scan"}, "lon": -77.04430816666667, "bike_id": "16075bd93b34e85194ede39cadb6420f", "type": "electric_scooter", "name": "16075bd93b34e85194ede39cadb6420f"}, {"is_disabled": 0, "is_reserved": 0, "fusion_lat": 0.0, "lat": 38.90199, "fusion_lon": 0.0, "rental_uris": {"ios": "https://dc.lft.to/lastmile_qr_scan", "android": "https://dc.lft.to/lastmile_qr_scan"}, "lon": -77.0509805, "bike_id": "9507f466c2e7835a0428f7aae331eb96", "type": "electric_scooter", "name": "9507f466c2e7835a0428f7aae331eb96"}, {"is_disabled": 0, "is_reserved": 0, "fusion_lat": 0.0, "lat": 38.91718016666667, "fusion_lon": 0.0, "rental_uris": {"ios": "https://dc.lft.to/lastmile_qr_scan", "android": "https://dc.lft.to/lastmile_qr_scan"}, "lon": -77.04168483333333, "bike_id": "fc89b7f613e966330bf3dea8b90faffc", "type": "electric_scooter", "name": "fc89b7f613e966330bf3dea8b90faffc"}, {"is_disabled": 0, "is_reserved": 0, "fusion_lat": 0.0, "lat": 38.846331166666666, "fusion_lon": 0.0, "rental_uris": {"ios": "https://dc.lft.to/lastmile_qr_scan", "android": "https://dc.lft.to/lastmile_qr_scan"}, "lon": -76.96898, "bike_id": "afd4a7b3eb94edd974bce4b2f807e954", "type": "electric_bike", "name": "afd4a7b3eb94edd974bce4b2f807e954"}, {"is_disabled": 0, "is_reserved": 0, "fusion_lat": 0.0, "lat": 38.902555, "fusion_lon": 0.0, "rental_uris": {"ios": "https://dc.lft.to/lastmile_qr_scan", "android": "https://dc.lft.to/lastmile_qr_scan"}, "lon": -77.02646433333334, "bike_id": "1476a9e8281f18f591a5c4003702ee2d", "type": "electric_scooter", "name": "1476a9e8281f18f591a5c4003702ee2d"}, {"is_disabled": 0, "is_reserved": 0, "fusion_lat": 0.0, "lat": 38.887160333333334, "fusion_lon": 0.0, "rental_uris": {"ios": "https://dc.lft.to/lastmile_qr_scan", "android": "https://dc.lft.to/lastmile_qr_scan"}, "lon": -76.996099, "bike_id": "d7623173a441a6e91386397659c1d84f", "type": "electric_scooter", "name": "d7623173a441a6e91386397659c1d84f"}, {"is_disabled": 0, "is_reserved": 0, "fusion_lat": 0.0, "lat": 38.834916, "fusion_lon": 0.0, "rental_uris": {"ios": "https://dc.lft.to/lastmile_qr_scan", "android": "https://dc.lft.to/lastmile_qr_scan"}, "lon": -77.004349, "bike_id": "0328fa2546587935c1cc9ffb4db620aa", "type": "electric_bike", "name": "0328fa2546587935c1cc9ffb4db620aa"}, {"is_disabled": 0, "is_reserved": 0, "fusion_lat": 0.0, "lat": 39.02299283333333, "fusion_lon": 0.0, "rental_uris": {"ios": "https://dc.lft.to/lastmile_qr_scan", "android": "https://dc.lft.to/lastmile_qr_scan"}, "lon": -77.02105116666667, "bike_id": "020d05316f688fe6492c8db16fbaf29c", "type": "electric_bike", "name": "020d05316f688fe6492c8db16fbaf29c"}, {"is_disabled": 0, "is_reserved": 0, "fusion_lat": 0.0, "lat": 38.97479916666666, "fusion_lon": 0.0, "rental_uris": {"ios": "https://dc.lft.to/lastmile_qr_scan", "android": "https://dc.lft.to/lastmile_qr_scan"}, "lon": -76.98668116666667, "bike_id": "4919e337a62c496da127f145ac882e7f", "type": "electric_bike", "name": "4919e337a62c496da127f145ac882e7f"}, {"is_disabled": 0, "is_reserved": 0, "fusion_lat": 0.0, "lat": 38.8992205, "fusion_lon": 0.0, "rental_uris": {"ios": "https://dc.lft.to/lastmile_qr_scan", "android": "https://dc.lft.to/lastmile_qr_scan"}, "lon": -77.03225016666667, "bike_id": "3c274b168540e48a1c1965d98d065adf", "type": "electric_scooter", "name": "3c274b168540e48a1c1965d98d065adf"}, {"is_disabled": 0, "is_reserved": 0, "fusion_lat": 0.0, "lat": 38.86180383333333, "fusion_lon": 0.0, "rental_uris": {"ios": "https://dc.lft.to/lastmile_qr_scan", "android": "https://dc.lft.to/lastmile_qr_scan"}, "lon": -77.0882935, "bike_id": "c2fbc29110d0f783e5ad842c0612dbe2", "type": "electric_bike", "name": "c2fbc29110d0f783e5ad842c0612dbe2"}, {"is_disabled": 0, "is_reserved": 0, "fusion_lat": 0.0, "lat": 38.912270166666666, "fusion_lon": 0.0, "rental_uris": {"ios": "https://dc.lft.to/lastmile_qr_scan", "android": "https://dc.lft.to/lastmile_qr_scan"}, "lon": -77.00658783333333, "bike_id": "a2fcad1c81226fc521bbb6ee9bce2810", "type": "electric_scooter", "name": "a2fcad1c81226fc521bbb6ee9bce2810"}, {"is_disabled": 0, "is_reserved": 0, "fusion_lat": 0.0, "lat": 38.91359516666667, "fusion_lon": 0.0, "rental_uris": {"ios": "https://dc.lft.to/lastmile_qr_scan", "android": "https://dc.lft.to/lastmile_qr_scan"}, "lon": -77.04661333333334, "bike_id": "dfe170069f1ef8cd08b9314b04e7d013", "type": "electric_scooter", "name": "dfe170069f1ef8cd08b9314b04e7d013"}, {"is_disabled": 0, "is_reserved": 0, "fusion_lat": 0.0, "lat": 38.905451, "fusion_lon": 0.0, "rental_uris": {"ios": "https://dc.lft.to/lastmile_qr_scan", "android": "https://dc.lft.to/lastmile_qr_scan"}, "lon": -77.04179066666667, "bike_id": "5bb5a703c0831aefd91d09bd532817f7", "type": "electric_scooter", "name": "5bb5a703c0831aefd91d09bd532817f7"}, {"is_disabled": 0, "is_reserved": 0, "fusion_lat": 0.0, "lat": 38.9142825, "fusion_lon": 0.0, "rental_uris": {"ios": "https://dc.lft.to/lastmile_qr_scan", "android": "https://dc.lft.to/lastmile_qr_scan"}, "lon": -77.03184633333333, "bike_id": "5a8b1042f84c902d3ad682f939e007f8", "type": "electric_scooter", "name": "5a8b1042f84c902d3ad682f939e007f8"}, {"is_disabled": 0, "is_reserved": 0, "fusion_lat": 0.0, "lat": 38.90060883333334, "fusion_lon": 0.0, "rental_uris": {"ios": "https://dc.lft.to/lastmile_qr_scan", "android": "https://dc.lft.to/lastmile_qr_scan"}, "lon": -76.98695, "bike_id": "6e9b62ae8c70db2910702cb41cac8098", "type": "electric_scooter", "name": "6e9b62ae8c70db2910702cb41cac8098"}, {"is_disabled": 0, "is_reserved": 0, "fusion_lat": 0.0, "lat": 38.93089616666666, "fusion_lon": 0.0, "rental_uris": {"ios": "https://dc.lft.to/lastmile_qr_scan", "android": "https://dc.lft.to/lastmile_qr_scan"}, "lon": -77.02791433333333, "bike_id": "c8f137e024a0565316a34b10375f92ac", "type": "electric_scooter", "name": "c8f137e024a0565316a34b10375f92ac"}, {"is_disabled": 0, "is_reserved": 0, "fusion_lat": 0.0, "lat": 38.90546116666667, "fusion_lon": 0.0, "rental_uris": {"ios": "https://dc.lft.to/lastmile_qr_scan", "android": "https://dc.lft.to/lastmile_qr_scan"}, "lon": -77.06278333333333, "bike_id": "eff77d9dc5d6ed811b98dd75efc346b8", "type": "electric_scooter", "name": "eff77d9dc5d6ed811b98dd75efc346b8"}, {"is_disabled": 0, "is_reserved": 0, "fusion_lat": 0.0, "lat": 38.922690833333334, "fusion_lon": 0.0, "rental_uris": {"ios": "https://dc.lft.to/lastmile_qr_scan", "android": "https://dc.lft.to/lastmile_qr_scan"}, "lon": -77.01947433333333, "bike_id": "8389e6834daf280b493873ecc25a6158", "type": "electric_scooter", "name": "8389e6834daf280b493873ecc25a6158"}, {"is_disabled": 0, "is_reserved": 0, "fusion_lat": 0.0, "lat": 38.95589666666667, "fusion_lon": 0.0, "rental_uris": {"ios": "https://dc.lft.to/lastmile_qr_scan", "android": "https://dc.lft.to/lastmile_qr_scan"}, "lon": -77.02812716666666, "bike_id": "3ec6390ea570b3a71b44b3becab4fe4c", "type": "electric_scooter", "name": "3ec6390ea570b3a71b44b3becab4fe4c"}, {"is_disabled": 0, "is_reserved": 0, "fusion_lat": 0.0, "lat": 38.909586, "fusion_lon": 0.0, "rental_uris": {"ios": "https://dc.lft.to/lastmile_qr_scan", "android": "https://dc.lft.to/lastmile_qr_scan"}, "lon": -77.01443, "bike_id": "4e92326929e951a89ebf6c4f3d716a76", "type": "electric_scooter", "name": "4e92326929e951a89ebf6c4f3d716a76"}, {"is_disabled": 0, "is_reserved": 0, "fusion_lat": 0.0, "lat": 38.89175516666667, "fusion_lon": 0.0, "rental_uris": {"ios": "https://dc.lft.to/lastmile_qr_scan", "android": "https://dc.lft.to/lastmile_qr_scan"}, "lon": -77.01561016666666, "bike_id": "9a1286b307e717f60c4badd31b08e561", "type": "electric_scooter", "name": "9a1286b307e717f60c4badd31b08e561"}, {"is_disabled": 0, "is_reserved": 0, "fusion_lat": 0.0, "lat": 38.8955215, "fusion_lon": 0.0, "rental_uris": {"ios": "https://dc.lft.to/lastmile_qr_scan", "android": "https://dc.lft.to/lastmile_qr_scan"}, "lon": -77.01601483333333, "bike_id": "a0970991f2e1abc47aa7dcb262622687", "type": "electric_scooter", "name": "a0970991f2e1abc47aa7dcb262622687"}, {"is_disabled": 0, "is_reserved": 0, "fusion_lat": 0.0, "lat": 38.89172966666667, "fusion_lon": 0.0, "rental_uris": {"ios": "https://dc.lft.to/lastmile_qr_scan", "android": "https://dc.lft.to/lastmile_qr_scan"}, "lon": -77.01548916666667, "bike_id": "2d8b7935ca85f40f002c74ccfdf019da", "type": "electric_scooter", "name": "2d8b7935ca85f40f002c74ccfdf019da"}, {"is_disabled": 0, "is_reserved": 0, "fusion_lat": 0.0, "lat": 38.9188885, "fusion_lon": 0.0, "rental_uris": {"ios": "https://dc.lft.to/lastmile_qr_scan", "android": "https://dc.lft.to/lastmile_qr_scan"}, "lon": -77.0320455, "bike_id": "d2b5e092cfbd46e980395e36f121fc49", "type": "electric_scooter", "name": "d2b5e092cfbd46e980395e36f121fc49"}, {"is_disabled": 0, "is_reserved": 0, "fusion_lat": 0.0, "lat": 38.8695345, "fusion_lon": 0.0, "rental_uris": {"ios": "https://dc.lft.to/lastmile_qr_scan", "android": "https://dc.lft.to/lastmile_qr_scan"}, "lon": -77.01268966666666, "bike_id": "2ba6563416ac997efe6c87647ad7f93f", "type": "electric_bike", "name": "2ba6563416ac997efe6c87647ad7f93f"}, {"is_disabled": 0, "is_reserved": 0, "fusion_lat": 0.0, "lat": 38.90758133333333, "fusion_lon": 0.0, "rental_uris": {"ios": "https://dc.lft.to/lastmile_qr_scan", "android": "https://dc.lft.to/lastmile_qr_scan"}, "lon": -76.99928183333333, "bike_id": "a913c5b73f1a2c7acd4acac352877b46", "type": "electric_scooter", "name": "a913c5b73f1a2c7acd4acac352877b46"}, {"is_disabled": 0, "is_reserved": 0, "fusion_lat": 0.0, "lat": 38.9185825, "fusion_lon": 0.0, "rental_uris": {"ios": "https://dc.lft.to/lastmile_qr_scan", "android": "https://dc.lft.to/lastmile_qr_scan"}, "lon": -77.02437533333334, "bike_id": "c23d00cdb614b3c8135c9dfeeecea20b", "type": "electric_scooter", "name": "c23d00cdb614b3c8135c9dfeeecea20b"}, {"is_disabled": 0, "is_reserved": 0, "fusion_lat": 0.0, "lat": 38.915588666666665, "fusion_lon": 0.0, "rental_uris": {"ios": "https://dc.lft.to/lastmile_qr_scan", "android": "https://dc.lft.to/lastmile_qr_scan"}, "lon": -77.02031433333333, "bike_id": "b962f1fc2501af50f40631db7b5ff1d2", "type": "electric_scooter", "name": "b962f1fc2501af50f40631db7b5ff1d2"}, {"is_disabled": 0, "is_reserved": 0, "fusion_lat": 0.0, "lat": 38.88579333333333, "fusion_lon": 0.0, "rental_uris": {"ios": "https://dc.lft.to/lastmile_qr_scan", "android": "https://dc.lft.to/lastmile_qr_scan"}, "lon": -76.99501766666667, "bike_id": "49bbf0df153169e5c8c85ef112ba0da7", "type": "electric_scooter", "name": "49bbf0df153169e5c8c85ef112ba0da7"}, {"is_disabled": 0, "is_reserved": 0, "fusion_lat": 0.0, "lat": 38.92045616666667, "fusion_lon": 0.0, "rental_uris": {"ios": "https://dc.lft.to/lastmile_qr_scan", "android": "https://dc.lft.to/lastmile_qr_scan"}, "lon": -77.03325883333333, "bike_id": "4e92ac7c88d9ef2987a61fd0f81a801e", "type": "electric_scooter", "name": "4e92ac7c88d9ef2987a61fd0f81a801e"}, {"is_disabled": 0, "is_reserved": 0, "fusion_lat": 0.0, "lat": 38.900543, "fusion_lon": 0.0, "rental_uris": {"ios": "https://dc.lft.to/lastmile_qr_scan", "android": "https://dc.lft.to/lastmile_qr_scan"}, "lon": -77.01726233333333, "bike_id": "4a03375e68b762f23bf620b63712575a", "type": "electric_scooter", "name": "4a03375e68b762f23bf620b63712575a"}, {"is_disabled": 0, "is_reserved": 0, "fusion_lat": 0.0, "lat": 38.88544683333333, "fusion_lon": 0.0, "rental_uris": {"ios": "https://dc.lft.to/lastmile_qr_scan", "android": "https://dc.lft.to/lastmile_qr_scan"}, "lon": -76.95972466666667, "bike_id": "f494be16f22ea0330a9c2f4a8d7f8b26", "type": "electric_scooter", "name": "f494be16f22ea0330a9c2f4a8d7f8b26"}, {"is_disabled": 0, "is_reserved": 0, "fusion_lat": 0.0, "lat": 38.882460333333334, "fusion_lon": 0.0, "rental_uris": {"ios": "https://dc.lft.to/lastmile_qr_scan", "android": "https://dc.lft.to/lastmile_qr_scan"}, "lon": -77.00920683333334, "bike_id": "4e6031d29ef25325414e6b8e98d08172", "type": "electric_scooter", "name": "4e6031d29ef25325414e6b8e98d08172"}, {"is_disabled": 0, "is_reserved": 0, "fusion_lat": 0.0, "lat": 38.9180805, "fusion_lon": 0.0, "rental_uris": {"ios": "https://dc.lft.to/lastmile_qr_scan", "android": "https://dc.lft.to/lastmile_qr_scan"}, "lon": -77.0249455, "bike_id": "8c9606ce47735aa65847c65f992fe70f", "type": "electric_scooter", "name": "8c9606ce47735aa65847c65f992fe70f"}, {"is_disabled": 0, "is_reserved": 0, "fusion_lat": 0.0, "lat": 38.87642916666667, "fusion_lon": 0.0, "rental_uris": {"ios": "https://dc.lft.to/lastmile_qr_scan", "android": "https://dc.lft.to/lastmile_qr_scan"}, "lon": -77.01476316666667, "bike_id": "9a105db7e297daaa667507178e0bd9bd", "type": "electric_scooter", "name": "9a105db7e297daaa667507178e0bd9bd"}, {"is_disabled": 0, "is_reserved": 0, "fusion_lat": 0.0, "lat": 38.92655833333333, "fusion_lon": 0.0, "rental_uris": {"ios": "https://dc.lft.to/lastmile_qr_scan", "android": "https://dc.lft.to/lastmile_qr_scan"}, "lon": -77.05200166666667, "bike_id": "4fba2de76e8d5d558b28a2832f98e40c", "type": "electric_scooter", "name": "4fba2de76e8d5d558b28a2832f98e40c"}, {"is_disabled": 0, "is_reserved": 0, "fusion_lat": 0.0, "lat": 38.879908, "fusion_lon": 0.0, "rental_uris": {"ios": "https://dc.lft.to/lastmile_qr_scan", "android": "https://dc.lft.to/lastmile_qr_scan"}, "lon": -77.0240355, "bike_id": "d1a25484c24ed1abf6b8496a5b9a093b", "type": "electric_scooter", "name": "d1a25484c24ed1abf6b8496a5b9a093b"}, {"is_disabled": 0, "is_reserved": 0, "fusion_lat": 0.0, "lat": 38.9311645, "fusion_lon": 0.0, "rental_uris": {"ios": "https://dc.lft.to/lastmile_qr_scan", "android": "https://dc.lft.to/lastmile_qr_scan"}, "lon": -77.02345683333333, "bike_id": "98b622ed7737151b8cdb1dbe61dd14f6", "type": "electric_scooter", "name": "98b622ed7737151b8cdb1dbe61dd14f6"}, {"is_disabled": 0, "is_reserved": 0, "fusion_lat": 0.0, "lat": 38.896719, "fusion_lon": 0.0, "rental_uris": {"ios": "https://dc.lft.to/lastmile_qr_scan", "android": "https://dc.lft.to/lastmile_qr_scan"}, "lon": -76.93207833333334, "bike_id": "b8d91a5800b89cfad94c04af7b825bdf", "type": "electric_scooter", "name": "b8d91a5800b89cfad94c04af7b825bdf"}, {"is_disabled": 0, "is_reserved": 0, "fusion_lat": 0.0, "lat": 38.9051085, "fusion_lon": 0.0, "rental_uris": {"ios": "https://dc.lft.to/lastmile_qr_scan", "android": "https://dc.lft.to/lastmile_qr_scan"}, "lon": -76.95181483333333, "bike_id": "008e71515926d23ce0964fd02d593129", "type": "electric_scooter", "name": "008e71515926d23ce0964fd02d593129"},