{"data": {"bikes": [{"type": "electric_scooter", "rental_uris": {"ios": "https://dc.lft.to/lastmile_qr_scan", "android": "https://dc.lft.to/lastmile_qr_scan"}, "lon": -77.036577, "fusion_lon": 0.0, "is_disabled": 0, "lat": 38.903362333333334, "bike_id": "f53c88f7ec7bdd07761c823465cec329", "name": "f53c88f7ec7bdd07761c823465cec329", "is_reserved": 0, "fusion_lat": 0.0}, {"type": "electric_bike", "rental_uris": {"ios": "https://dc.lft.to/lastmile_qr_scan", "android": "https://dc.lft.to/lastmile_qr_scan"}, "lon": -76.95194316666667, "fusion_lon": 0.0, "is_disabled": 0, "lat": 38.936760166666666, "bike_id": "1d8b334c030d45f454ab9156740e4083", "name": "1d8b334c030d45f454ab9156740e4083", "is_reserved": 0, "fusion_lat": 0.0}, {"type": "electric_scooter", "rental_uris": {"ios": "https://dc.lft.to/lastmile_qr_scan", "android": "https://dc.lft.to/lastmile_qr_scan"}, "lon": -77.04109483333333, "fusion_lon": 0.0, "is_disabled": 0, "lat": 38.89932433333333, "bike_id": "c79cf4db89b947bb61ef21ed0fa198c1", "name": "c79cf4db89b947bb61ef21ed0fa198c1", "is_reserved": 0, "fusion_lat": 0.0}, {"type": "electric_bike", "rental_uris": {"ios": "https://dc.lft.to/lastmile_qr_scan", "android": "https://dc.lft.to/lastmile_qr_scan"}, "lon": -76.9726325, "fusion_lon": 0.0, "is_disabled": 0, "lat": 38.919628833333334, "bike_id": "c39fa7b7a0c9f1a76b87e3b8bbcbddd3", "name": "c39fa7b7a0c9f1a76b87e3b8bbcbddd3", "is_reserved": 0, "fusion_lat": 0.0}, {"type": "electric_scooter", "rental_uris": {"ios": "https://dc.lft.to/lastmile_qr_scan", "android": "https://dc.lft.to/lastmile_qr_scan"}, "lon": -77.02618133333333, "fusion_lon": 0.0, "is_disabled": 0, "lat": 38.948233333333334, "bike_id": "e1a6ce9f3137ff85a55472f8c09ff899", "name": "e1a6ce9f3137ff85a55472f8c09ff899", "is_reserved": 0, "fusion_lat": 0.0}, {"type": "electric_scooter", "rental_uris": {"ios": "https://dc.lft.to/lastmile_qr_scan", "android": "https://dc.lft.to/lastmile_qr_scan"}, "lon": -77.009839, "fusion_lon": 0.0, "is_disabled": 0, "lat": 38.872891333333335, "bike_id": "1d5d327b5c48aae3be91346ab92feb4b", "name": "1d5d327b5c48aae3be91346ab92feb4b", "is_reserved": 0, "fusion_lat": 0.0}, {"type": "electric_scooter", "rental_uris": {"ios": "https://dc.lft.to/lastmile_qr_scan", "android": "https://dc.lft.to/lastmile_qr_scan"}, "lon": -77.00070633333333, "fusion_lon": 0.0, "is_disabled": 0, "lat": 38.925518, "bike_id": "78c41d35116fd0ef8bcd7697704ef825", "name": "78c41d35116fd0ef8bcd7697704ef825", "is_reserved": 0, "fusion_lat": 0.0}, {"type": "electric_bike", "rental_uris": {"ios": "https://dc.lft.to/lastmile_qr_scan", "android": "https://dc.lft.to/lastmile_qr_scan"}, "lon": -77.03163833333333, "fusion_lon": 0.0, "is_disabled": 0, "lat": 38.99423083333333, "bike_id": "146cd0de321cef9632f8a3a284615e77", "name": "146cd0de321cef9632f8a3a284615e77", "is_reserved": 0, "fusion_lat": 0.0}, {"type": "electric_bike", "rental_uris": {"ios": "https://dc.lft.to/lastmile_qr_scan", "android": "https://dc.lft.to/lastmile_qr_scan"}, "lon": -77.21656583333333, "fusion_lon": 0.0, "is_disabled": 0, "lat": 38.93012, "bike_id": "1b88264f02992440240449888f6dd3d3", "name": "1b88264f02992440240449888f6dd3d3", "is_reserved": 0, "fusion_lat": 0.0}, {"type": "electric_scooter", "rental_uris": {"ios": "https://dc.lft.to/lastmile_qr_scan", "android": "https://dc.lft.to/lastmile_qr_scan"}, "lon": -77.01933183333334, "fusion_lon": 0.0, "is_disabled": 0, "lat": 38.94852083333333, "bike_id": "69b60a7022a4f4d4121962e81511c15d", "name": "69b60a7022a4f4d4121962e81511c15d", "is_reserved": 0, "fusion_lat": 0.0}, {"type": "electric_scooter", "rental_uris": {"ios": "https://dc.lft.to/lastmile_qr_scan", "android": "https://dc.lft.to/lastmile_qr_scan"}, "lon": -77.0243105, "fusion_lon": 0.0, "is_disabled": 0, "lat": 38.918567833333334, "bike_id": "99006fdfddf733f01f5f4a0f603731d0", "name": "99006fdfddf733f01f5f4a0f603731d0", "is_reserved": 0, "fusion_lat": 0.0}, {"type": "electric_bike", "rental_uris": {"ios": "https://dc.lft.to/lastmile_qr_scan", "android": "https://dc.lft.to/lastmile_qr_scan"}, "lon": -76.96057916666666, "fusion_lon": 0.0, "is_disabled": 0, "lat": 38.8840615, "bike_id": "aad95ef7424da2abe4ed07e5065b4cdf", "name": "aad95ef7424da2abe4ed07e5065b4cdf", "is_reserved": 0, "fusion_lat": 0.0}, {"type": "electric_scooter", "rental_uris": {"ios": "https://dc.lft.to/lastmile_qr_scan", "android": "https://dc.lft.to/lastmile_qr_scan"}, "lon": -77.039718, "fusion_lon": 0.0, "is_disabled": 0, "lat": 38.898890333333334, "bike_id": "9dc8a9727616e3cb9738ae357b4b2995", "name": "9dc8a9727616e3cb9738ae357b4b2995", "is_reserved": 0, "fusion_lat": 0.0}, {"type": "electric_scooter", "rental_uris": {"ios": "https://dc.lft.to/lastmile_qr_scan", "android": "https://dc.lft.to/lastmile_qr_scan"}, "lon": -77.02156316666667, "fusion_lon": 0.0, "is_disabled": 0, "lat": 38.924991166666665, "bike_id": "07c2b02c10a53b7ba144ac77ff9641f6", "name": "07c2b02c10a53b7ba144ac77ff9641f6", "is_reserved": 0, "fusion_lat": 0.0}, {"type": "electric_scooter", "rental_uris": {"ios": "https://dc.lft.to/lastmile_qr_scan", "android": "https://dc.lft.to/lastmile_qr_scan"}, "lon": -77.02201133333334, "fusion_lon": 0.0, "is_disabled": 0, "lat": 38.89510966666667, "bike_id": "092ab56c23104d006c25aeb16ef6b382", "name": "092ab56c23104d006c25aeb16ef6b382", "is_reserved": 0, "fusion_lat": 0.0}, {"type": "electric_scooter", "rental_uris": {"ios": "https://dc.lft.to/lastmile_qr_scan", "android": "https://dc.lft.to/lastmile_qr_scan"}, "lon": -76.99495416666667, "fusion_lon": 0.0, "is_disabled": 0, "lat": 38.8624195, "bike_id": "c5c680d9d3faee740f90ff592c2c2c8a", "name": "c5c680d9d3faee740f90ff592c2c2c8a", "is_reserved": 0, "fusion_lat": 0.0}, {"type": "electric_bike", "rental_uris": {"ios": "https://dc.lft.to/lastmile_qr_scan", "android": "https://dc.lft.to/lastmile_qr_scan"}, "lon": -77.05874516666667, "fusion_lon": 0.0, "is_disabled": 0, "lat": 38.95893366666667, "bike_id": "d6547f80042ede86a348680fb9b16431", "name": "d6547f80042ede86a348680fb9b16431", "is_reserved": 0, "fusion_lat": 0.0}, {"type": "electric_scooter", "rental_uris": {"ios": "https://dc.lft.to/lastmile_qr_scan", "android": "https://dc.lft.to/lastmile_qr_scan"}, "lon": -77.04157716666667, "fusion_lon": 0.0, "is_disabled": 0, "lat": 38.927983, "bike_id": "53bea3df5060a8d92e23fd4a7c4ef7b0", "name": "53bea3df5060a8d92e23fd4a7c4ef7b0", "is_reserved": 0, "fusion_lat": 0.0}, {"type": "electric_scooter", "rental_uris": {"ios": "https://dc.lft.to/lastmile_qr_scan", "android": "https://dc.lft.to/lastmile_qr_scan"}, "lon": -77.04014033333333, "fusion_lon": 0.0, "is_disabled": 0, "lat": 38.921764833333334, "bike_id": "97e2b7f07c4b4e6f2cd8d4e4394379b9", "name": "97e2b7f07c4b4e6f2cd8d4e4394379b9", "is_reserved": 0, "fusion_lat": 0.0}, {"type": "electric_scooter", "rental_uris": {"ios": "https://dc.lft.to/lastmile_qr_scan", "android": "https://dc.lft.to/lastmile_qr_scan"}, "lon": -77.04420766666667, "fusion_lon": 0.0, "is_disabled": 0, "lat": 38.910074, "bike_id": "8150138e465167f2141630fd8272dacc", "name": "8150138e465167f2141630fd8272dacc", "is_reserved": 0, "fusion_lat": 0.0}, {"type": "electric_scooter", "rental_uris": {"ios": "https://dc.lft.to/lastmile_qr_scan", "android": "https://dc.lft.to/lastmile_qr_scan"}, "lon": -77.0316385, "fusion_lon": 0.0, "is_disabled": 0, "lat": 38.92377116666667, "bike_id": "f8ad46178de69344ae97c2847edbf0c3", "name": "f8ad46178de69344ae97c2847edbf0c3", "is_reserved": 0, "fusion_lat": 0.0}, {"type": "electric_scooter", "rental_uris": {"ios": "https://dc.lft.to/lastmile_qr_scan", "android": "https://dc.lft.to/lastmile_qr_scan"}, "lon": -77.02827166666667, "fusion_lon": 0.0, "is_disabled": 0, "lat": 38.931923166666664, "bike_id": "44bc981c2954fb696a8c92a42e7f3620", "name": "44bc981c2954fb696a8c92a42e7f3620", "is_reserved": 0, "fusion_lat": 0.0}, {"type": "electric_bike", "rental_uris": {"ios": "https://dc.lft.to/lastmile_qr_scan", "android": "https://dc.lft.to/lastmile_qr_scan"}, "lon": -77.02391266666666, "fusion_lon": 0.0, "is_disabled": 0, "lat": 38.962728166666665, "bike_id": "5e0ce1418e2c1026955174931bc0d766", "name": "5e0ce1418e2c1026955174931bc0d766", "is_reserved": 0, "fusion_lat": 0.0}, {"type": "electric_scooter", "rental_uris": {"ios": "https://dc.lft.to/lastmile_qr_scan", "android": "https://dc.lft.to/lastmile_qr_scan"}, "lon": -77.041574, "fusion_lon": 0.0, "is_disabled": 0, "lat": 38.912152, "bike_id": "87ae0268506703941f2e908156647fca", "name": "87ae0268506703941f2e908156647fca", "is_reserved": 0, "fusion_lat": 0.0}, {"type": "electric_bike", "rental_uris": {"ios": "https://dc.lft.to/lastmile_qr_scan", "android": "https://dc.lft.to/lastmile_qr_scan"}, "lon": -77.00793716666666, "fusion_lon": 0.0, "is_disabled": 0, "lat": 38.94919983333333, "bike_id": "93c706d176c5901f7eb0c67fccdf68e7", "name": "93c706d176c5901f7eb0c67fccdf68e7", "is_reserved": 0, "fusion_lat": 0.0}, {"type": "electric_scooter", "rental_uris": {"ios": "https://dc.lft.to/lastmile_qr_scan", "android": "https://dc.lft.to/lastmile_qr_scan"}, "lon": -77.0380595, "fusion_lon": 0.0, "is_disabled": 0, "lat": 38.91267766666667, "bike_id": "7adc80eecf0acf609bdc709715487208", "name": "7adc80eecf0acf609bdc709715487208", "is_reserved": 0, "fusion_lat": 0.0}, {"type": "electric_scooter", "rental_uris": {"ios": "https://dc.lft.to/lastmile_qr_scan", "android": "https://dc.lft.to/lastmile_qr_scan"}, "lon": -77.0314905, "fusion_lon": 0.0, "is_disabled": 0, "lat": 38.91566266666667, "bike_id": "fba8fe4bad21e5bfd0934735759a7fe0", "name": "fba8fe4bad21e5bfd0934735759a7fe0", "is_reserved": 0, "fusion_lat": 0.0}, {"type": "electric_scooter", "rental_uris": {"ios": "https://dc.lft.to/lastmile_qr_scan", "android": "https://dc.lft.to/lastmile_qr_scan"}, "lon": -77.03801816666666, "fusion_lon": 0.0, "is_disabled": 0, "lat": 38.92065066666667, "bike_id": "5748cf3d88931017ee3f7138f485bc40", "name": "5748cf3d88931017ee3f7138f485bc40", "is_reserved": 0, "fusion_lat": 0.0}, {"type": "electric_bike", "rental_uris": {"ios": "https://dc.lft.to/lastmile_qr_scan", "android": "https://dc.lft.to/lastmile_qr_scan"}, "lon": -77.114951, "fusion_lon": 0.0, "is_disabled": 0, "lat": 39.06925, "bike_id": "7428997fc09bbe4accd61ee8ea1f003b", "name": "7428997fc09bbe4accd61ee8ea1f003b", "is_reserved": 0, "fusion_lat": 0.0}, {"type": "electric_scooter", "rental_uris": {"ios": "https://dc.lft.to/lastmile_qr_scan", "android": "https://dc.lft.to/lastmile_qr_scan"}, "lon": -77.03295016666667, "fusion_lon": 0.0, "is_disabled": 0, "lat": 38.9564285, "bike_id": "ff86390799a4054908c57a989c7cb2a2", "name": "ff86390799a4054908c57a989c7cb2a2", "is_reserved": 0, "fusion_lat": 0.0}, {"type": "electric_scooter", "rental_uris": {"ios": "https://dc.lft.to/lastmile_qr_scan", "android": "https://dc.lft.to/lastmile_qr_scan"}, "lon": -77.05128816666667, "fusion_lon": 0.0, "is_disabled": 0, "lat": 38.90589283333333, "bike_id": "41d4bb6930946766b37e30a1aed04c0a", "name": "41d4bb6930946766b37e30a1aed04c0a", "is_reserved": 0, "fusion_lat": 0.0}, {"type": "electric_scooter", "rental_uris": {"ios": "https://dc.lft.to/lastmile_qr_scan", "android": "https://dc.lft.to/lastmile_qr_scan"}, "lon": -77.024039, "fusion_lon": 0.0, "is_disabled": 0, "lat": 38.928991333333336, "bike_id": "64c6bc3f86622c2b1357bf589aa0c41c", "name": "64c6bc3f86622c2b1357bf589aa0c41c", "is_reserved": 0, "fusion_lat": 0.0}, {"type": "electric_bike", "rental_uris": {"ios": "https://dc.lft.to/lastmile_qr_scan", "android": "https://dc.lft.to/lastmile_qr_scan"}, "lon": -77.09962383333334, "fusion_lon": 0.0, "is_disabled": 0, "lat": 38.933624333333334, "bike_id": "7f77b4f6312cf2c7bb52869cb1beaab4", "name": "7f77b4f6312cf2c7bb52869cb1beaab4", "is_reserved": 0, "fusion_lat": 0.0}, {"type": "electric_scooter", "rental_uris": {"ios": "https://dc.lft.to/lastmile_qr_scan", "android": "https://dc.lft.to/lastmile_qr_scan"}, "lon": -77.03185633333334, "fusion_lon": 0.0, "is_disabled": 0, "lat": 38.913344, "bike_id": "062e0e99102bd6a2230eb55fcb02b3ab", "name": "062e0e99102bd6a2230eb55fcb02b3ab", "is_reserved": 0, "fusion_lat": 0.0}, {"type": "electric_scooter", "rental_uris": {"ios": "https://dc.lft.to/lastmile_qr_scan", "android": "https://dc.lft.to/lastmile_qr_scan"}, "lon": -77.0367625, "fusion_lon": 0.0, "is_disabled": 0, "lat": 38.917113, "bike_id": "7a7d08583c8d6ace69b88ba6eac2d80d", "name": "7a7d08583c8d6ace69b88ba6eac2d80d", "is_reserved": 0, "fusion_lat": 0.0}, {"type": "electric_scooter", "rental_uris": {"ios": "https://dc.lft.to/lastmile_qr_scan", "android": "https://dc.lft.to/lastmile_qr_scan"}, "lon": -76.9330145, "fusion_lon": 0.0, "is_disabled": 0, "lat": 38.881383166666666, "bike_id": "002745d508d65a5a2447afd45109b444", "name": "002745d508d65a5a2447afd45109b444", "is_reserved": 0, "fusion_lat": 0.0}, {"type": "electric_scooter", "rental_uris": {"ios": "https://dc.lft.to/lastmile_qr_scan", "android": "https://dc.lft.to/lastmile_qr_scan"}, "lon": -77.03953483333333, "fusion_lon": 0.0, "is_disabled": 0, "lat": 38.924655333333334, "bike_id": "8caaa97e5c5e1807454fc8e554ec5fcc", "name": "8caaa97e5c5e1807454fc8e554ec5fcc", "is_reserved": 0, "fusion_lat": 0.0}, {"type": "electric_scooter", "rental_uris": {"ios": "https://dc.lft.to/lastmile_qr_scan", "android": "https://dc.lft.to/lastmile_qr_scan"}, "lon": -77.01868516666667, "fusion_lon": 0.0, "is_disabled": 0, "lat": 38.93150133333333, "bike_id": "ded187360eabae6fd6ee7ff5273ffcdd", "name": "ded187360eabae6fd6ee7ff5273ffcdd", "is_reserved": 0, "fusion_lat": 0.0}, {"type": "electric_scooter", "rental_uris": {"ios": "https://dc.lft.to/lastmile_qr_scan", "android": "https://dc.lft.to/lastmile_qr_scan"}, "lon": -77.03260083333333, "fusion_lon": 0.0, "is_disabled": 0, "lat": 38.93970766666666, "bike_id": "73785126137bf30aef6f2c57210daf4e", "name": "73785126137bf30aef6f2c57210daf4e", "is_reserved": 0, "fusion_lat": 0.0}, {"type": "electric_scooter", "rental_uris": {"ios": "https://dc.lft.to/lastmile_qr_scan", "android": "https://dc.lft.to/lastmile_qr_scan"}, "lon": -76.996755, "fusion_lon": 0.0, "is_disabled": 0, "lat": 38.90834683333333, "bike_id": "deba5510b86ebdc42227a48b06ca327b", "name": "deba5510b86ebdc42227a48b06ca327b", "is_reserved": 0, "fusion_lat": 0.0}, {"type": "electric_bike", "rental_uris": {"ios": "https://dc.lft.to/lastmile_qr_scan", "android": "https://dc.lft.to/lastmile_qr_scan"}, "lon": -77.03645933333334, "fusion_lon": 0.0, "is_disabled": 0, "lat": 38.928055, "bike_id": "415f3d1eeebe2fcb299c6503a885736b", "name": "415f3d1eeebe2fcb299c6503a885736b", "is_reserved": 0, "fusion_lat": 0.0}, {"type": "electric_scooter", "rental_uris": {"ios": "https://dc.lft.to/lastmile_qr_scan", "android": "https://dc.lft.to/lastmile_qr_scan"}, "lon": -77.003093, "fusion_lon": 0.0, "is_disabled": 0, "lat": 38.82601583333334, "bike_id": "4c5598c33f499d74342c7cb04117a750", "name": "4c5598c33f499d74342c7cb04117a750", "is_reserved": 0, "fusion_lat": 0.0}, {"type": "electric_bike", "rental_uris": {"ios": "https://dc.lft.to/lastmile_qr_scan", "android": "https://dc.lft.to/lastmile_qr_scan"}, "lon": -76.993475, "fusion_lon": 0.0, "is_disabled": 0, "lat": 38.972261, "bike_id": "d40493909beb63368a21e347ba67fa19", "name": "d40493909beb63368a21e347ba67fa19", "is_reserved": 0, "fusion_lat": 0.0}, {"type": "electric_scooter", "rental_uris": {"ios": "https://dc.lft.to/lastmile_qr_scan", "android": "https://dc.lft.to/lastmile_qr_scan"}, "lon": -77.02828916666667, "fusion_lon": 0.0, "is_disabled": 0, "lat": 38.90262533333333, "bike_id": "90b5faa0820f5af69939cd39fd89cba3", "name": "90b5faa0820f5af69939cd39fd89cba3", "is_reserved": 0, "fusion_lat": 0.0}, {"type": "electric_scooter", "rental_uris": {"ios": "https://dc.lft.to/lastmile_qr_scan", "android": "https://dc.lft.to/lastmile_qr_scan"}, "lon": -77.04361216666666, "fusion_lon": 0.0, "is_disabled": 0, "lat": 38.89225233333333, "bike_id": "f1de33bcf2d5ea82bbd3ef85c628365e", "name": "f1de33bcf2d5ea82bbd3ef85c628365e", "is_reserved": 0, "fusion_lat": 0.0}, {"type": "electric_scooter", "rental_uris": {"ios": "https://dc.lft.to/lastmile_qr_scan", "android": "https://dc.lft.to/lastmile_qr_scan"}, "lon": -76.99508033333333, "fusion_lon": 0.0, "is_disabled": 0, "lat": 38.88367616666667, "bike_id": "47ae829b6c5c721537968e8cdc87255e", "name": "47ae829b6c5c721537968e8cdc87255e", "is_reserved": 0, "fusion_lat": 0.0}, {"type": "electric_bike", "rental_uris": {"ios": "https://dc.lft.to/lastmile_qr_scan", "android": "https://dc.lft.to/lastmile_qr_scan"}, "lon": -77.03596066666667, "fusion_lon": 0.0, "is_disabled": 0, "lat": 38.90688566666667, "bike_id": "66606370925375dee39859f7a5cd726c", "name": "66606370925375dee39859f7a5cd726c", "is_reserved": 0, "fusion_lat": 0.0}, {"type": "electric_scooter", "rental_uris": {"ios": "https://dc.lft.to/lastmile_qr_scan", "android": "https://dc.lft.to/lastmile_qr_scan"}, "lon": -77.003735, "fusion_lon": 0.0, "is_disabled": 0, "lat": 38.88267483333333, "bike_id": "e104f6ca4bb2f59a58854c193792a943", "name": "e104f6ca4bb2f59a58854c193792a943", "is_reserved": 0, "fusion_lat": 0.0}, {"type": "electric_scooter", "rental_uris": {"ios": "https://dc.lft.to/lastmile_qr_scan", "android": "https://dc.lft.to/lastmile_qr_scan"}, "lon": -77.0365995, "fusion_lon": 0.0, "is_disabled": 0, "lat": 38.91864966666667, "bike_id": "63f7becc7bd41b333eec5d0a30fc7d97", "name": "63f7becc7bd41b333eec5d0a30fc7d97", "is_reserved": 0, "fusion_lat": 0.0}, {"type": "electric_scooter", "rental_uris": {"ios": "https://dc.lft.to/lastmile_qr_scan", "android": "https://dc.lft.to/lastmile_qr_scan"}, "lon": -77.02980283333333, "fusion_lon": 0.0, "is_disabled": 0, "lat": 38.93065716666667, "bike_id": "f896e4423a55a238e363e089d6071ea4", "name": "f896e4423a55a238e363e089d6071ea4", "is_reserved": 0, "fusion_lat": 0.0}, {"type": "electric_scooter", "rental_uris": {"ios": "https://dc.lft.to/lastmile_qr_scan", "android": "https://dc.lft.to/lastmile_qr_scan"}, "lon": -77.01067383333333, "fusion_lon": 0.0, "is_disabled": 0, "lat": 38.907264, "bike_id": "7c550d20ccfb1cbb7e783f5c1b5dad17", "name": "7c550d20ccfb1cbb7e783f5c1b5dad17", "is_reserved": 0, "fusion_lat": 0.0}, {"type": "electric_scooter", "rental_uris": {"ios": "https://dc.lft.to/lastmile_qr_scan", "android": "https://dc.lft.to/lastmile_qr_scan"}, "lon": -76.95416633333333, "fusion_lon": 0.0, "is_disabled": 0, "lat": 38.89002633333333, "bike_id": "cc86865456924ac859f81a7615c05bad", "name": "cc86865456924ac859f81a7615c05bad", "is_reserved": 0, "fusion_lat": 0.0}, {"type": "electric_scooter", "rental_uris": {"ios": "https://dc.lft.to/lastmile_qr_scan", "android": "https://dc.lft.to/lastmile_qr_scan"}, "lon": -77.04171033333333, "fusion_lon": 0.0, "is_disabled": 0, "lat": 38.91551183333333, "bike_id": "4d593a9c248be2052e7b95e107b8b887", "name": "4d593a9c248be2052e7b95e107b8b887", "is_reserved": 0, "fusion_lat": 0.0}, {"type": "electric_scooter", "rental_uris": {"ios": "https://dc.lft.to/lastmile_qr_scan", "android": "https://dc.lft.to/lastmile_qr_scan"}, "lon": -77.04181116666666, "fusion_lon": 0.0, "is_disabled": 0, "lat": 38.905306833333334, "bike_id": "a14f3612b1df26736577ef1bbb9b0003", "name": "a14f3612b1df26736577ef1bbb9b0003", "is_reserved": 0, "fusion_lat": 0.0}, {"type": "electric_scooter", "rental_uris": {"ios": "https://dc.lft.to/lastmile_qr_scan", "android": "https://dc.lft.to/lastmile_qr_scan"}, "lon": -77.03679133333333, "fusion_lon": 0.0, "is_disabled": 0, "lat": 38.917136666666664, "bike_id": "1d1df58669d5c03df6a13c0e827c3683", "name": "1d1df58669d5c03df6a13c0e827c3683", "is_reserved": 0, "fusion_lat": 0.0}, {"type": "electric_scooter", "rental_uris": {"ios": "https://dc.lft.to/lastmile_qr_scan", "android": "https://dc.lft.to/lastmile_qr_scan"}, "lon": -76.98690416666666, "fusion_lon": 0.0, "is_disabled": 0, "lat": 38.86632433333333, "bike_id": "e7bee8bd4cd51526173c15dcea3e5f1d", "name": "e7bee8bd4cd51526173c15dcea3e5f1d", "is_reserved": 0, "fusion_lat": 0.0}, {"type": "electric_scooter", "rental_uris": {"ios": "https://dc.lft.to/lastmile_qr_scan", "android": "https://dc.lft.to/lastmile_qr_scan"}, "lon": -77.024006, "fusion_lon": 0.0, "is_disabled": 0, "lat": 38.9570975, "bike_id": "8f05270e186a567648221e82b4d02587", "name": "8f05270e186a567648221e82b4d02587", "is_reserved": 0, "fusion_lat": 0.0}, {"type": "electric_scooter", "rental_uris": {"ios": "https://dc.lft.to/lastmile_qr_scan", "android": "https://dc.lft.to/lastmile_qr_scan"}, "lon": -77.0386035, "fusion_lon": 0.0, "is_disabled": 0, "lat": 38.91238116666667, "bike_id": "8d47871728ea911430a474497919b706", "name": "8d47871728ea911430a474497919b706", "is_reserved": 0, "fusion_lat": 0.0}, {"type": "electric_scooter", "rental_uris": {"ios": "https://dc.lft.to/lastmile_qr_scan", "android": "https://dc.lft.to/lastmile_qr_scan"}, "lon": -77.02798966666667, "fusion_lon": 0.0, "is_disabled": 0, "lat": 38.89942583333333, "bike_id": "2419da641b822213bca36d338ef87aaf", "name": "2419da641b822213bca36d338ef87aaf", "is_reserved": 0, "fusion_lat": 0.0}, {"type": "electric_scooter", "rental_uris": {"ios": "https://dc.lft.to/lastmile_qr_scan", "android": "https://dc.lft.to/lastmile_qr_scan"}, "lon": -77.04186433333334, "fusion_lon": 0.0, "is_disabled": 0, "lat": 38.90533716666667, "bike_id": "582c8e12e0b834aa9400aa561fb4c135", "name": "582c8e12e0b834aa9400aa561fb4c135", "is_reserved": 0, "fusion_lat": 0.0}, {"type": "electric_scooter", "rental_uris": {"ios": "https://dc.lft.to/lastmile_qr_scan", "android": "https://dc.lft.to/lastmile_qr_scan"}, "lon": -77.04344033333334, "fusion_lon": 0.0, "is_disabled": 0, "lat": 38.90523683333333, "bike_id": "5a11d5709977e652f007038f79da6db9", "name": "5a11d5709977e652f007038f79da6db9", "is_reserved": 0, "fusion_lat": 0.0}, {"type": "electric_scooter", "rental_uris": {"ios": "https://dc.lft.to/lastmile_qr_scan", "android": "https://dc.lft.to/lastmile_qr_scan"}, "lon": -77.037616, "fusion_lon": 0.0, "is_disabled": 0, "lat": 38.91695516666667, "bike_id": "bbdaac499f533e6fc55611be78e6f42a", "name": "bbdaac499f533e6fc55611be78e6f42a", "is_reserved": 0, "fusion_lat": 0.0}, {"type": "electric_scooter", "rental_uris": {"ios": "https://dc.lft.to/lastmile_qr_scan", "android": "https://dc.lft.to/lastmile_qr_scan"}, "lon": -77.03760283333334, "fusion_lon": 0.0, "is_disabled": 0, "lat": 38.91121033333334, "bike_id": "1e3b32469aa178d95348d44e5befe231", "name": "1e3b32469aa178d95348d44e5befe231", "is_reserved": 0, "fusion_lat": 0.0}, {"type": "electric_scooter", "rental_uris": {"ios": "https://dc.lft.to/lastmile_qr_scan", "android": "https://dc.lft.to/lastmile_qr_scan"}, "lon": -77.0135785, "fusion_lon": 0.0, "is_disabled": 0, "lat": 38.892356666666664, "bike_id": "bf4f49fcbc66dd73e2f22fe3460e9c38", "name": "bf4f49fcbc66dd73e2f22fe3460e9c38", "is_reserved": 0, "fusion_lat": 0.0}, {"type": "electric_scooter", "rental_uris": {"ios": "https://dc.lft.to/lastmile_qr_scan", "android": "https://dc.lft.to/lastmile_qr_scan"}, "lon": -76.98987816666667, "fusion_lon": 0.0, "is_disabled": 0, "lat": 38.864989666666666, "bike_id": "bc1d00e4f4275e2a126c892c814a7fe8", "name": "bc1d00e4f4275e2a126c892c814a7fe8", "is_reserved": 0, "fusion_lat": 0.0}, {"type": "electric_scooter", "rental_uris": {"ios": "https://dc.lft.to/lastmile_qr_scan", "android": "https://dc.lft.to/lastmile_qr_scan"}, "lon": -77.01539216666667, "fusion_lon": 0.0, "is_disabled": 0, "lat": 38.89166866666667, "bike_id": "019d39e1542b3af0b23758b769249052", "name": "019d39e1542b3af0b23758b769249052", "is_reserved": 0, "fusion_lat": 0.0}, {"type": "electric_scooter", "rental_uris": {"ios": "https://dc.lft.to/lastmile_qr_scan", "android": "https://dc.lft.to/lastmile_qr_scan"}, "lon": -77.02195016666667, "fusion_lon": 0.0, "is_disabled": 0, "lat": 38.91494383333333, "bike_id": "eee0d8f2151ac289b661659b15d8ffce", "name": "eee0d8f2151ac289b661659b15d8ffce", "is_reserved": 0, "fusion_lat": 0.0}, {"type": "electric_scooter", "rental_uris": {"ios": "https://dc.lft.to/lastmile_qr_scan", "android": "https://dc.lft.to/lastmile_qr_scan"}, "lon": -77.03704966666666, "fusion_lon": 0.0, "is_disabled": 0, "lat": 38.928342666666666, "bike_id": "81fb9b3c67feef333eaadb6a09f0d21b", "name": "81fb9b3c67feef333eaadb6a09f0d21b", "is_reserved": 0, "fusion_lat": 0.0}, {"type": "electric_scooter", "rental_uris": {"ios": "https://dc.lft.to/lastmile_qr_scan", "android": "https://dc.lft.to/lastmile_qr_scan"}, "lon": -77.05028, "fusion_lon": 0.0, "is_disabled": 0, "lat": 38.923661833333334, "bike_id": "082fbc2330d7a03112510302cb2de1d6", "name": "082fbc2330d7a03112510302cb2de1d6", "is_reserved": 0, "fusion_lat": 0.0}, {"type": "electric_scooter", "rental_uris": {"ios": "https://dc.lft.to/lastmile_qr_scan", "android": "https://dc.lft.to/lastmile_qr_scan"}, "lon": -77.02528033333333, "fusion_lon": 0.0, "is_disabled": 0, "lat": 38.92374816666667, "bike_id": "0a4f34be6b859e028fbaeb56576dad00", "name": "0a4f34be6b859e028fbaeb56576dad00", "is_reserved": 0, "fusion_lat": 0.0}, {"type": "electric_scooter", "rental_uris": {"ios": "https://dc.lft.to/lastmile_qr_scan", "android": "https://dc.lft.to/lastmile_qr_scan"}, "lon": -77.02332733333333, "fusion_lon": 0.0, "is_disabled": 0, "lat": 38.92304516666667, "bike_id": "e2d846277f5fc1e7cb14ce27dd544bfb", "name": "e2d846277f5fc1e7cb14ce27dd544bfb", "is_reserved": 0, "fusion_lat": 0.0}, {"type": "electric_scooter", "rental_uris": {"ios": "https://dc.lft.to/lastmile_qr_scan", "android": "https://dc.lft.to/lastmile_qr_scan"}, "lon": -77.02194116666666, "fusion_lon": 0.0, "is_disabled": 0, "lat": 38.9329515, "bike_id": "a99eec05d3c7f8602ea526e065e87f66", "name": "a99eec05d3c7f8602ea526e065e87f66", "is_reserved": 0, "fusion_lat": 0.0}, {"type": "electric_bike", "rental_uris": {"ios": "https://dc.lft.to/lastmile_qr_scan", "android": "https://dc.lft.to/lastmile_qr_scan"}, "lon": -76.97236383333333, "fusion_lon": 0.0, "is_disabled": 0, "lat": 38.94906483333333, "bike_id": "66f5d069e4d026ce3247934f4689cd5f", "name": "66f5d069e4d026ce3247934f4689cd5f", "is_reserved": 0, "fusion_lat": 0.0}, {"type": "electric_scooter", "rental_uris": {"ios": "https://dc.lft.to/lastmile_qr_scan", "android": "https://dc.lft.to/lastmile_qr_scan"}, "lon": -77.02110783333333, "fusion_lon": 0.0, "is_disabled": 0, "lat": 38.940959166666666, "bike_id": "771837e5ad582739365fd2f72fcbbeb7", "name": "771837e5ad582739365fd2f72fcbbeb7", "is_reserved": 0, "fusion_lat": 0.0}, {"type": "electric_scooter", "rental_uris": {"ios": "https://dc.lft.to/lastmile_qr_scan", "android": "https://dc.lft.to/lastmile_qr_scan"}, "lon": -76.99516483333333, "fusion_lon": 0.0, "is_disabled": 0, "lat": 38.8973135, "bike_id": "7fffe0d763f6845a288fc5797639d306", "name": "7fffe0d763f6845a288fc5797639d306", "is_reserved": 0, "fusion_lat": 0.0}, {"type": "electric_bike", "rental_uris": {"ios": "https://dc.lft.to/lastmile_qr_scan", "android": "https://dc.lft.to/lastmile_qr_scan"}, "lon": -77.04016983333334, "fusion_lon": 0.0, "is_disabled": 0, "lat": 38.79331616666666, "bike_id": "e378712b40257603e39d59fffc44dae8", "name": "e378712b40257603e39d59fffc44dae8", "is_reserved": 0, "fusion_lat": 0.0}, {"type": "electric_scooter", "rental_uris": {"ios": "https://dc.lft.to/lastmile_qr_scan", "android": "https://dc.lft.to/lastmile_qr_scan"}, "lon": -77.03244383333333, "fusion_lon": 0.0, "is_disabled": 0, "lat": 38.89897, "bike_id": "4474f31152ce6c2b4766454fa16ef8c2", "name": "4474f31152ce6c2b4766454fa16ef8c2", "is_reserved": 0, "fusion_lat": 0.0}, {"type": "electric_bike", "rental_uris": {"ios": "https://dc.lft.to/lastmile_qr_scan", "android": "https://dc.lft.to/lastmile_qr_scan"}, "lon": -77.11803733333333, "fusion_lon": 0.0, "is_disabled": 0, "lat": 38.873740833333336, "bike_id": "04a59e0be55d6fa3c4c0b3e2324b6cac", "name": "04a59e0be55d6fa3c4c0b3e2324b6cac", "is_reserved": 0, "fusion_lat": 0.0}, {"type": "electric_scooter", "rental_uris": {"ios": "https://dc.lft.to/lastmile_qr_scan", "android": "https://dc.lft.to/lastmile_qr_scan"}, "lon": -77.03176483333333, "fusion_lon": 0.0, "is_disabled": 0, "lat": 38.913270833333335, "bike_id": "f2a221f4b870036ad6340a005c0f61ff", "name": "f2a221f4b870036ad6340a005c0f61ff", "is_reserved": 0, "fusion_lat": 0.0}, {"type": "electric_scooter", "rental_uris": {"ios": "https://dc.lft.to/lastmile_qr_scan", "android": "https://dc.lft.to/lastmile_qr_scan"}, "lon": -77.02837016666666, "fusion_lon": 0.0, "is_disabled": 0, "lat": 38.93193483333334, "bike_id": "dec547f98fcfb43490a234cff476efb2", "name": "dec547f98fcfb43490a234cff476efb2", "is_reserved": 0, "fusion_lat": 0.0}, {"type": "electric_scooter", "rental_uris": {"ios": "https://dc.lft.to/lastmile_qr_scan", "android": "https://dc.lft.to/lastmile_qr_scan"}, "lon": -77.03493516666667, "fusion_lon": 0.0, "is_disabled": 0, "lat": 38.929122666666665, "bike_id": "a884e1173bd3d9643ef4fa6e7d746319", "name": "a884e1173bd3d9643ef4fa6e7d746319", "is_reserved": 0, "fusion_lat": 0.0}, {"type": "electric_scooter", "rental_uris": {"ios": "https://dc.lft.to/lastmile_qr_scan", "android": "https://dc.lft.to/lastmile_qr_scan"}, "lon": -77.00933, "fusion_lon": 0.0, "is_disabled": 0, "lat": 38.883368, "bike_id": "ec2c459ff251d0b5cf11ecbc89b8fa44", "name": "ec2c459ff251d0b5cf11ecbc89b8fa44", "is_reserved": 0, "fusion_lat": 0.0}, {"type": "electric_scooter", "rental_uris": {"ios": "https://dc.lft.to/lastmile_qr_scan", "android": "https://dc.lft.to/lastmile_qr_scan"}, "lon": -77.026936, "fusion_lon": 0.0, "is_disabled": 0, "lat": 38.90687916666667, "bike_id": "d22ae2a071b7cb39845275f14a18d6a0", "name": "d22ae2a071b7cb39845275f14a18d6a0", "is_reserved": 0, "fusion_lat": 0.0}, {"type": "electric_scooter", "rental_uris": {"ios": "https://dc.lft.to/lastmile_qr_scan", "android": "https://dc.lft.to/lastmile_qr_scan"}, "lon": -77.03186216666667, "fusion_lon": 0.0, "is_disabled": 0, "lat": 38.914273333333334, "bike_id": "b37e2b074335a9301c17c22f4a0de60f", "name": "b37e2b074335a9301c17c22f4a0de60f", "is_reserved": 0, "fusion_lat": 0.0}, {"type": "electric_scooter", "rental_uris": {"ios": "https://dc.lft.to/lastmile_qr_scan", "android": "https://dc.lft.to/lastmile_qr_scan"}, "lon": -77.026268, "fusion_lon": 0.0, "is_disabled": 0, "lat": 38.892207666666664, "bike_id": "97d3799be3dc2d54397d10ebbf6f3fcb", "name": "97d3799be3dc2d54397d10ebbf6f3fcb", "is_reserved": 0, "fusion_lat": 0.0}, {"type": "electric_bike", "rental_uris": {"ios": "https://dc.lft.to/lastmile_qr_scan", "android": "https://dc.lft.to/lastmile_qr_scan"}, "lon": -77.01026716666667, "fusion_lon": 0.0, "is_disabled": 0, "lat": 38.95597333333333, "bike_id": "0f74e29b1aff8e23dbfa558a07d42637", "name": "0f74e29b1aff8e23dbfa558a07d42637", "is_reserved": 0, "fusion_lat": 0.0}, {"type": "electric_scooter", "rental_uris": {"ios": "https://dc.lft.to/lastmile_qr_scan", "android": "https://dc.lft.to/lastmile_qr_scan"}, "lon": -77.02724483333333, "fusion_lon": 0.0, "is_disabled": 0, "lat": 38.932548, "bike_id": "f83f16caa18d3294406d6cc785737082", "name": "f83f16caa18d3294406d6cc785737082", "is_reserved": 0, "fusion_lat": 0.0}, {"type": "electric_scooter", "rental_uris": {"ios": "https://dc.lft.to/lastmile_qr_scan", "android": "https://dc.lft.to/lastmile_qr_scan"}, "lon": -77.0395685, "fusion_lon": 0.0, "is_disabled": 0, "lat": 38.892482333333334, "bike_id": "1964b00db4c5b841ea977f6244eea208", "name": "1964b00db4c5b841ea977f6244eea208", "is_reserved": 0, "fusion_lat": 0.0}, {"type": "electric_scooter", "rental_uris": {"ios": "https://dc.lft.to/lastmile_qr_scan", "android": "https://dc.lft.to/lastmile_qr_scan"}, "lon": -77.03880916666667, "fusion_lon": 0.0, "is_disabled": 0, "lat": 38.902501666666666, "bike_id": "5487e3cce5862b5ba2e6dd1672d6e544", "name": "5487e3cce5862b5ba2e6dd1672d6e544", "is_reserved": 0, "fusion_lat": 0.0}, {"type": "electric_scooter", "rental_uris": {"ios": "https://dc.lft.to/lastmile_qr_scan", "android": "https://dc.lft.to/lastmile_qr_scan"}, "lon": -77.04372483333333, "fusion_lon": 0.0, "is_disabled": 0, "lat": 38.93324033333333, "bike_id": "c058dfb862f974ca1bc461226a55739a", "name": "c058dfb862f974ca1bc461226a55739a", "is_reserved": 0, "fusion_lat": 0.0}, {"type": "electric_scooter", "rental_uris": {"ios": "https://dc.lft.to/lastmile_qr_scan", "android": "https://dc.lft.to/lastmile_qr_scan"}, "lon": -77.01134266666666, "fusion_lon": 0.0, "is_disabled": 0, "lat": 38.88526, "bike_id": "e0db1944ed272617c7036db02e836d65", "name": "e0db1944ed272617c7036db02e836d65", "is_reserved": 0, "fusion_lat": 0.0}, {"type": "electric_scooter", "rental_uris": {"ios": "https://dc.lft.to/lastmile_qr_scan", "android": "https://dc.lft.to/lastmile_qr_scan"}, "lon": -77.04228133333334, "fusion_lon": 0.0, "is_disabled": 0, "lat": 38.921764333333336, "bike_id": "57675f898286ec9473d72292b6aa398f", "name": "57675f898286ec9473d72292b6aa398f", "is_reserved": 0, "fusion_lat": 0.0}, {"type": "electric_scooter", "rental_uris": {"ios": "https://dc.lft.to/lastmile_qr_scan", "android": "https://dc.lft.to/lastmile_qr_scan"}, "lon": -77.03423516666666, "fusion_lon": 0.0, "is_disabled": 0, "lat": 38.930828, "bike_id": "d7339361906c63f2fc38f43aa03ebc6c", "name": "d7339361906c63f2fc38f43aa03ebc6c", "is_reserved": 0, "fusion_lat": 0.0}, {"type": "electric_scooter", "rental_uris": {"ios": "https://dc.lft.to/lastmile_qr_scan", "android": "https://dc.lft.to/lastmile_qr_scan"}, "lon": -77.0298195, "fusion_lon": 0.0, "is_disabled": 0, "lat": 38.90513, "bike_id": "0aeb33d0324a86e9fb590116fc041d3b", "name": "0aeb33d0324a86e9fb590116fc041d3b", "is_reserved": 0, "fusion_lat": 0.0}, {"type": "electric_scooter", "rental_uris": {"ios": "https://dc.lft.to/lastmile_qr_scan", "android": "https://dc.lft.to/lastmile_qr_scan"}, "lon": -76.980783, "fusion_lon": 0.0, "is_disabled": 0, "lat": 38.91961216666667, "bike_id": "5deaa0ba940d04ce6fe9508fc3e02534", "name": "5deaa0ba940d04ce6fe9508fc3e02534", "is_reserved": 0, "fusion_lat": 0.0}, {"type": "electric_bike", "rental_uris": {"ios": "https://dc.lft.to/lastmile_qr_scan", "android": "https://dc.lft.to/lastmile_qr_scan"}, "lon": -77.03695466666667, "fusion_lon": 0.0, "is_disabled": 0, "lat": 38.936570833333334, "bike_id": "3d3ad126dda4e4368ee80525d0da796c", "name": "3d3ad126dda4e4368ee80525d0da796c", "is_reserved": 0, "fusion_lat": 0.0}, {"type": "electric_scooter", "rental_uris": {"ios": "https://dc.lft.to/lastmile_qr_scan", "android": "https://dc.lft.to/lastmile_qr_scan"}, "lon": -76.97702983333333, "fusion_lon": 0.0, "is_disabled": 0, "lat": 38.90255466666667, "bike_id": "0bac2cb3c90545f64ace36b93fd8ff77", "name": "0bac2cb3c90545f64ace36b93fd8ff77", "is_reserved": 0, "fusion_lat": 0.0}, {"type": "electric_scooter", "rental_uris": {"ios": "https://dc.lft.to/lastmile_qr_scan", "android": "https://dc.lft.to/lastmile_qr_scan"}, "lon": -77.03312066666666, "fusion_lon": 0.0, "is_disabled": 0, "lat": 38.931966333333335, "bike_id": "2c142b0436fb87d7fd8ca557e2cda18c", "name": "2c142b0436fb87d7fd8ca557e2cda18c", "is_reserved": 0, "fusion_lat": 0.0}, {"type": "electric_scooter", "rental_uris": {"ios": "https://dc.lft.to/lastmile_qr_scan", "android": "https://dc.lft.to/lastmile_qr_scan"}, "lon": -76.9668025, "fusion_lon": 0.0, "is_disabled": 0, "lat": 38.869558166666664, "bike_id": "62374fa44cbcee67e17bc4efb7a87d36", "name": "62374fa44cbcee67e17bc4efb7a87d36", "is_reserved": 0, "fusion_lat": 0.0}, {"type": "electric_scooter", "rental_uris": {"ios": "https://dc.lft.to/lastmile_qr_scan", "android": "https://dc.lft.to/lastmile_qr_scan"}, "lon": -77.02695416666667, "fusion_lon": 0.0, "is_disabled": 0, "lat": 38.906856, "bike_id": "43140c58568607aa822d27c58736d920", "name": "43140c58568607aa822d27c58736d920", "is_reserved": 0, "fusion_lat": 0.0}, {"type": "electric_scooter", "rental_uris": {"ios": "https://dc.lft.to/lastmile_qr_scan", "android": "https://dc.lft.to/lastmile_qr_scan"}, "lon": -77.0222375, "fusion_lon": 0.0, "is_disabled": 0, "lat": 38.93551133333333, "bike_id": "52a6855467268d0d0664d469f49c184b", "name": "52a6855467268d0d0664d469f49c184b", "is_reserved": 0, "fusion_lat": 0.0}, {"type": "electric_bike", "rental_uris": {"ios": "https://dc.lft.to/lastmile_qr_scan", "android": "https://dc.lft.to/lastmile_qr_scan"}, "lon": -76.9898865, "fusion_lon": 0.0, "is_disabled": 0, "lat": 38.863875666666665, "bike_id": "cbcb149b00461c55dfcf12c5f30631ac", "name": "cbcb149b00461c55dfcf12c5f30631ac", "is_reserved": 0, "fusion_lat": 0.0}, {"type": "electric_scooter", "rental_uris": {"ios": "https://dc.lft.to/lastmile_qr_scan", "android": "https://dc.lft.to/lastmile_qr_scan"}, "lon": -77.02825, "fusion_lon": 0.0, "is_disabled": 0, "lat": 38.8873405, "bike_id": "54100a5fe4b1696daeafbc8d3fa507ae", "name": "54100a5fe4b1696daeafbc8d3fa507ae", "is_reserved": 0, "fusion_lat": 0.0}, {"type": "electric_bike", "rental_uris": {"ios": "https://dc.lft.to/lastmile_qr_scan", "android": "https://dc.lft.to/lastmile_qr_scan"}, "lon": -76.98298833333334, "fusion_lon": 0.0, "is_disabled": 0, "lat": 38.96281783333333, "bike_id": "069b67b8f4dc25b154472930fb22cbdf", "name": "069b67b8f4dc25b154472930fb22cbdf", "is_reserved": 0, "fusion_lat": 0.0}, {"type": "electric_scooter", "rental_uris": {"ios": "https://dc.lft.to/lastmile_qr_scan", "android": "https://dc.lft.to/lastmile_qr_scan"}, "lon": -77.05269016666666, "fusion_lon": 0.0, "is_disabled": 0, "lat": 38.92548816666667, "bike_id": "41650b28f89ae116a49547513fa8a559", "name": "41650b28f89ae116a49547513fa8a559", "is_reserved": 0, "fusion_lat": 0.0}, {"type": "electric_scooter", "rental_uris": {"ios": "https://dc.lft.to/lastmile_qr_scan", "android": "https://dc.lft.to/lastmile_qr_scan"}, "lon": -77.02956766666667, "fusion_lon": 0.0, "is_disabled": 0, "lat": 38.9324885, "bike_id": "66578af27b49d18658383fa4afd17fea", "name": "66578af27b49d18658383fa4afd17fea", "is_reserved": 0, "fusion_lat": 0.0}, {"type": "electric_scooter", "rental_uris": {"ios": "https://dc.lft.to/lastmile_qr_scan", "android": "https://dc.lft.to/lastmile_qr_scan"}, "lon": -77.0271835, "fusion_lon": 0.0, "is_disabled": 0, "lat": 38.90684566666667, "bike_id": "5c1e5ab894ef5fe385c87a0bd42c3139", "name": "5c1e5ab894ef5fe385c87a0bd42c3139", "is_reserved": 0, "fusion_lat": 0.0}, {"type": "electric_bike", "rental_uris": {"ios": "https://dc.lft.to/lastmile_qr_scan", "android": "https://dc.lft.to/lastmile_qr_scan"}, "lon": -76.993561, "fusion_lon": 0.0, "is_disabled": 0, "lat": 38.84509466666667, "bike_id": "52e05b6ed2f285be5d89b65c83b31a92", "name": "52e05b6ed2f285be5d89b65c83b31a92", "is_reserved": 0, "fusion_lat": 0.0}, {"type": "electric_scooter", "rental_uris": {"ios": "https://dc.lft.to/lastmile_qr_scan", "android": "https://dc.lft.to/lastmile_qr_scan"}, "lon": -77.025887, "fusion_lon": 0.0, "is_disabled": 0, "lat": 38.91412033333334, "bike_id": "183b781afbdf34a3bb829d5aa781feb3", "name": "183b781afbdf34a3bb829d5aa781feb3", "is_reserved": 0, "fusion_lat": 0.0}, {"type": "electric_scooter", "rental_uris": {"ios": "https://dc.lft.to/lastmile_qr_scan", "android": "https://dc.lft.to/lastmile_qr_scan"}, "lon": -76.98728633333333, "fusion_lon": 0.0, "is_disabled": 0, "lat": 38.8671125, "bike_id": "a6d01e68c349cbd5ec9fbaaeaaa06693", "name": "a6d01e68c349cbd5ec9fbaaeaaa06693", "is_reserved": 0, "fusion_lat": 0.0}, {"type": "electric_scooter", "rental_uris": {"ios": "https://dc.lft.to/lastmile_qr_scan", "android": "https://dc.lft.to/lastmile_qr_scan"}, "lon": -77.03121733333333, "fusion_lon": 0.0, "is_disabled": 0, "lat": 38.937691666666666, "bike_id": "1d2e9534152a37eca9ed83a8331315bd", "name": "1d2e9534152a37eca9ed83a8331315bd", "is_reserved": 0, "fusion_lat": 0.0}, {"type": "electric_scooter", "rental_uris": {"ios": "https://dc.lft.to/lastmile_qr_scan", "android": "https://dc.lft.to/lastmile_qr_scan"}, "lon": -76.99827966666666, "fusion_lon": 0.0, "is_disabled": 0, "lat": 38.885341, "bike_id": "842ae4517c45699a731c03c74f506404", "name": "842ae4517c45699a731c03c74f506404", "is_reserved": 0, "fusion_lat": 0.0}, {"type": "electric_scooter", "rental_uris": {"ios": "https://dc.lft.to/lastmile_qr_scan", "android": "https://dc.lft.to/lastmile_qr_scan"}, "lon": -77.03891483333334, "fusion_lon": 0.0, "is_disabled": 0, "lat": 38.90648366666667, "bike_id": "5a7e528a5a64689aeb0edbda5cb03c8d", "name": "5a7e528a5a64689aeb0edbda5cb03c8d", "is_reserved": 0, "fusion_lat": 0.0}, {"type": "electric_bike", "rental_uris": {"ios": "https://dc.lft.to/lastmile_qr_scan", "android": "https://dc.lft.to/lastmile_qr_scan"}, "lon": -77.02091566666667, "fusion_lon": 0.0, "is_disabled": 0, "lat": 38.93718066666667, "bike_id": "f13083c49e5b1d6d208a59237fcc83e1", "name": "f13083c49e5b1d6d208a59237fcc83e1", "is_reserved": 0, "fusion_lat": 0.0}, {"type": "electric_scooter", "rental_uris": {"ios": "https://dc.lft.to/lastmile_qr_scan", "android": "https://dc.lft.to/lastmile_qr_scan"}, "lon": -77.04474283333333, "fusion_lon": 0.0, "is_disabled": 0, "lat": 38.9112325, "bike_id": "f2ddee47a7b46daf8989c006f3ea95b3", "name": "f2ddee47a7b46daf8989c006f3ea95b3", "is_reserved": 0, "fusion_lat": 0.0}, {"type": "electric_scooter", "rental_uris": {"ios": "https://dc.lft.to/lastmile_qr_scan", "android": "https://dc.lft.to/lastmile_qr_scan"}, "lon": -76.965157, "fusion_lon": 0.0, "is_disabled": 0, "lat": 38.8762875, "bike_id": "3d888214f59bbe3056e6f258f7ca3dac", "name": "3d888214f59bbe3056e6f258f7ca3dac", "is_reserved": 0, "fusion_lat": 0.0}, {"type": "electric_bike", "rental_uris": {"ios": "https://dc.lft.to/lastmile_qr_scan", "android": "https://dc.lft.to/lastmile_qr_scan"}, "lon": -77.11798, "fusion_lon": 0.0, "is_disabled": 0, "lat": 38.87376233333333, "bike_id": "b78b4719ea6a4aa9d0f0a4069aff371c", "name": "b78b4719ea6a4aa9d0f0a4069aff371c", "is_reserved": 0, "fusion_lat": 0.0}, {"type": "electric_scooter", "rental_uris": {"ios": "https://dc.lft.to/lastmile_qr_scan", "android": "https://dc.lft.to/lastmile_qr_scan"}, "lon": -77.0453605, "fusion_lon": 0.0, "is_disabled": 0, "lat": 38.915957166666665, "bike_id": "64b88657bbdfd0656696176171a64b88", "name": "64b88657bbdfd0656696176171a64b88", "is_reserved": 0, "fusion_lat": 0.0}, {"type": "electric_scooter", "rental_uris": {"ios": "https://dc.lft.to/lastmile_qr_scan", "android": "https://dc.lft.to/lastmile_qr_scan"}, "lon": -76.937331, "fusion_lon": 0.0, "is_disabled": 0, "lat": 38.89016983333333, "bike_id": "b26b7163e42fbb441a6342b77c23bd54", "name": "b26b7163e42fbb441a6342b77c23bd54", "is_reserved": 0, "fusion_lat": 0.0}, {"type": "electric_scooter", "rental_uris": {"ios": "https://dc.lft.to/lastmile_qr_scan", "android": "https://dc.lft.to/lastmile_qr_scan"}, "lon": -76.965261, "fusion_lon": 0.0, "is_disabled": 0, "lat": 38.8762785, "bike_id": "9ed9c93c739fd4631036421a7a19a40b", "name": "9ed9c93c739fd4631036421a7a19a40b", "is_reserved": 0, "fusion_lat": 0.0}, {"type": "electric_bike", "rental_uris": {"ios": "https://dc.lft.to/lastmile_qr_scan", "android": "https://dc.lft.to/lastmile_qr_scan"}, "lon": -77.02618716666667, "fusion_lon": 0.0, "is_disabled": 0, "lat": 38.9693095, "bike_id": "0d07cdd29580d09b7360fbde5b988adf", "name": "0d07cdd29580d09b7360fbde5b988adf", "is_reserved": 0, "fusion_lat": 0.0}, {"type": "electric_scooter", "rental_uris": {"ios": "https://dc.lft.to/lastmile_qr_scan", "android": "https://dc.lft.to/lastmile_qr_scan"}, "lon": -77.03205716666666, "fusion_lon": 0.0, "is_disabled": 0, "lat": 38.9163545, "bike_id": "0b807b8c53f8431b56ae7082019728ca", "name": "0b807b8c53f8431b56ae7082019728ca", "is_reserved": 0, "fusion_lat": 0.0}, {"type": "electric_scooter", "rental_uris": {"ios": "https://dc.lft.to/lastmile_qr_scan", "android": "https://dc.lft.to/lastmile_qr_scan"}, "lon": -77.02286766666667, "fusion_lon": 0.0, "is_disabled": 0, "lat": 38.91447, "bike_id": "8dbb7c6f83ee11655af01e385ab2bb15", "name": "8dbb7c6f83ee11655af01e385ab2bb15", "is_reserved": 0, "fusion_lat": 0.0}, {"type": "electric_scooter", "rental_uris": {"ios": "https://dc.lft.to/lastmile_qr_scan", "android": "https://dc.lft.to/lastmile_qr_scan"}, "lon": -77.03657616666666, "fusion_lon": 0.0, "is_disabled": 0, "lat": 38.92256, "bike_id": "a67fc241bf83eb96d939ac9d0ccc8b59", "name": "a67fc241bf83eb96d939ac9d0ccc8b59", "is_reserved": 0, "fusion_lat": 0.0}, {"type": "electric_scooter", "rental_uris": {"ios": "https://dc.lft.to/lastmile_qr_scan", "android": "https://dc.lft.to/lastmile_qr_scan"}, "lon": -76.9465285, "fusion_lon": 0.0, "is_disabled": 0, "lat": 38.89825666666667, "bike_id": "d2272c950437a7819d8024efcca64079", "name": "d2272c950437a7819d8024efcca64079", "is_reserved": 0, "fusion_lat": 0.0}, {"type": "electric_scooter", "rental_uris": {"ios": "https://dc.lft.to/lastmile_qr_scan", "android": "https://dc.lft.to/lastmile_qr_scan"}, "lon": -77.0316135, "fusion_lon": 0.0, "is_disabled": 0, "lat": 38.91881733333334, "bike_id": "9f59d4e6d35c1115105ec9493ba0f836", "name": "9f59d4e6d35c1115105ec9493ba0f836", "is_reserved": 0, "fusion_lat": 0.0}, {"type": "electric_scooter", "rental_uris": {"ios": "https://dc.lft.to/lastmile_qr_scan", "android": "https://dc.lft.to/lastmile_qr_scan"}, "lon": -77.01529666666667, "fusion_lon": 0.0, "is_disabled": 0, "lat": 38.887400166666666, "bike_id": "0afeb5a0da386451e1e1543ff819b90f", "name": "0afeb5a0da386451e1e1543ff819b90f", "is_reserved": 0, "fusion_lat": 0.0}, {"type": "electric_scooter", "rental_uris": {"ios": "https://dc.lft.to/lastmile_qr_scan", "android": "https://dc.lft.to/lastmile_qr_scan"}, "lon": -77.02586316666667, "fusion_lon": 0.0, "is_disabled": 0, "lat": 38.901722, "bike_id": "4701ef66f8b8fa7ac2ac020efdfd18ab", "name": "4701ef66f8b8fa7ac2ac020efdfd18ab", "is_reserved": 0, "fusion_lat": 0.0}, {"type": "electric_scooter", "rental_uris": {"ios": "https://dc.lft.to/lastmile_qr_scan", "android": "https://dc.lft.to/lastmile_qr_scan"}, "lon": -77.03637283333333, "fusion_lon": 0.0, "is_disabled": 0, "lat": 38.91766583333333, "bike_id": "cb406cf52546b98aaf20cde3a895ad4e", "name": "cb406cf52546b98aaf20cde3a895ad4e", "is_reserved": 0, "fusion_lat": 0.0}, {"type": "electric_scooter", "rental_uris": {"ios": "https://dc.lft.to/lastmile_qr_scan", "android": "https://dc.lft.to/lastmile_qr_scan"}, "lon": -77.04560683333334, "fusion_lon": 0.0, "is_disabled": 0, "lat": 38.91937683333333, "bike_id": "7fe745db69fc1682e0ba36e4daf1e021", "name": "7fe745db69fc1682e0ba36e4daf1e021", "is_reserved": 0, "fusion_lat": 0.0}, {"type": "electric_scooter", "rental_uris": {"ios": "https://dc.lft.to/lastmile_qr_scan", "android": "https://dc.lft.to/lastmile_qr_scan"}, "lon": -77.04363483333333, "fusion_lon": 0.0, "is_disabled": 0, "lat": 38.902419333333334, "bike_id": "efb688e072330b8ad4b2ba4465f76ee0", "name": "efb688e072330b8ad4b2ba4465f76ee0", "is_reserved": 0, "fusion_lat": 0.0}, {"type": "electric_scooter", "rental_uris": {"ios": "https://dc.lft.to/lastmile_qr_scan", "android": "https://dc.lft.to/lastmile_qr_scan"}, "lon": -77.03534633333334, "fusion_lon": 0.0, "is_disabled": 0, "lat": 38.925366833333335, "bike_id": "349812cdfb9f7af3df3dee100e70220c", "name": "349812cdfb9f7af3df3dee100e70220c", "is_reserved": 0, "fusion_lat": 0.0}, {"type": "electric_scooter", "rental_uris": {"ios": "https://dc.lft.to/lastmile_qr_scan", "android": "https://dc.lft.to/lastmile_qr_scan"}, "lon": -77.022026, "fusion_lon": 0.0, "is_disabled": 0, "lat": 38.915551, "bike_id": "723a1db28b5557c5743eae9d10f91e70", "name": "723a1db28b5557c5743eae9d10f91e70", "is_reserved": 0, "fusion_lat": 0.0}, {"type": "electric_bike", "rental_uris": {"ios": "https://dc.lft.to/lastmile_qr_scan", "android": "https://dc.lft.to/lastmile_qr_scan"}, "lon": -77.12528316666666, "fusion_lon": 0.0, "is_disabled": 0, "lat": 39.0563625, "bike_id": "65245839d94758b2d29e1934c41fc744", "name": "65245839d94758b2d29e1934c41fc744", "is_reserved": 0, "fusion_lat": 0.0}, {"type": "electric_scooter", "rental_uris": {"ios": "https://dc.lft.to/lastmile_qr_scan", "android": "https://dc.lft.to/lastmile_qr_scan"}, "lon": -77.02220816666667, "fusion_lon": 0.0, "is_disabled": 0, "lat": 38.892228333333335, "bike_id": "8166f64db24448fb9d4d8848d9547de7", "name": "8166f64db24448fb9d4d8848d9547de7", "is_reserved": 0, "fusion_lat": 0.0}, {"type": "electric_scooter", "rental_uris": {"ios": "https://dc.lft.to/lastmile_qr_scan", "android": "https://dc.lft.to/lastmile_qr_scan"}, "lon": -77.03787483333333, "fusion_lon": 0.0, "is_disabled": 0, "lat": 38.91120983333333, "bike_id": "386847f1756633c14c25ed8d51a9b143", "name": "386847f1756633c14c25ed8d51a9b143", "is_reserved": 0, "fusion_lat": 0.0}, {"type": "electric_scooter", "rental_uris": {"ios": "https://dc.lft.to/lastmile_qr_scan", "android": "https://dc.lft.to/lastmile_qr_scan"}, "lon": -76.98393983333334, "fusion_lon": 0.0, "is_disabled": 0, "lat": 38.880882166666666, "bike_id": "42b50d37944a0b835403aa3ceb6f8d2c", "name": "42b50d37944a0b835403aa3ceb6f8d2c", "is_reserved": 0, "fusion_lat": 0.0}, {"type": "electric_scooter", "rental_uris": {"ios": "https://dc.lft.to/lastmile_qr_scan", "android": "https://dc.lft.to/lastmile_qr_scan"}, "lon": -77.01171166666667, "fusion_lon": 0.0, "is_disabled": 0, "lat": 38.91568016666667, "bike_id": "5c30e196dd2e1ad23c88b454e96e385d", "name": "5c30e196dd2e1ad23c88b454e96e385d", "is_reserved": 0, "fusion_lat": 0.0}, {"type": "electric_scooter", "rental_uris": {"ios": "https://dc.lft.to/lastmile_qr_scan", "android": "https://dc.lft.to/lastmile_qr_scan"}, "lon": -76.98532666666667, "fusion_lon": 0.0, "is_disabled": 0, "lat": 38.866956, "bike_id": "9604a330303427fed1ed6a855eb2ff8c", "name": "9604a330303427fed1ed6a855eb2ff8c", "is_reserved": 0, "fusion_lat": 0.0}, {"type": "electric_bike", "rental_uris": {"ios": "https://dc.lft.to/lastmile_qr_scan", "android": "https://dc.lft.to/lastmile_qr_scan"}, "lon": -77.099611, "fusion_lon": 0.0, "is_disabled": 0, "lat": 38.85789616666667, "bike_id": "32d6ba263c08c53aed5a8c1316257c02", "name": "32d6ba263c08c53aed5a8c1316257c02", "is_reserved": 0, "fusion_lat": 0.0}, {"type": "electric_scooter", "rental_uris": {"ios": "https://dc.lft.to/lastmile_qr_scan", "android": "https://dc.lft.to/lastmile_qr_scan"}, "lon": -77.03289416666667, "fusion_lon": 0.0, "is_disabled": 0, "lat": 38.9565675, "bike_id": "bd10986e9eae91447cf9cf34101be112", "name": "bd10986e9eae91447cf9cf34101be112", "is_reserved": 0, "fusion_lat": 0.0}, {"type": "electric_scooter", "rental_uris": {"ios": "https://dc.lft.to/lastmile_qr_scan", "android": "https://dc.lft.to/lastmile_qr_scan"}, "lon": -77.05023916666667, "fusion_lon": 0.0, "is_disabled": 0, "lat": 38.923566, "bike_id": "354c1119e0d74d3382f2225b64b81b8b", "name": "354c1119e0d74d3382f2225b64b81b8b", "is_reserved": 0, "fusion_lat": 0.0}, {"type": "electric_scooter", "rental_uris": {"ios": "https://dc.lft.to/lastmile_qr_scan", "android": "https://dc.lft.to/lastmile_qr_scan"}, "lon": -77.0705465, "fusion_lon": 0.0, "is_disabled": 0, "lat": 38.91921683333333, "bike_id": "9f8b99b6ddd2000c60217521b0f8e020", "name": "9f8b99b6ddd2000c60217521b0f8e020", "is_reserved": 0, "fusion_lat": 0.0}, {"type": "electric_scooter", "rental_uris": {"ios": "https://dc.lft.to/lastmile_qr_scan", "android": "https://dc.lft.to/lastmile_qr_scan"}, "lon": -77.03469933333334, "fusion_lon": 0.0, "is_disabled": 0, "lat": 38.92255, "bike_id": "4f0ccc178e2ade93fd28e55a19eb0ef8", "name": "4f0ccc178e2ade93fd28e55a19eb0ef8", "is_reserved": 0, "fusion_lat": 0.0}, {"type": "electric_scooter", "rental_uris": {"ios": "https://dc.lft.to/lastmile_qr_scan", "android": "https://dc.lft.to/lastmile_qr_scan"}, "lon": -77.0416405, "fusion_lon": 0.0, "is_disabled": 0, "lat": 38.903144166666664, "bike_id": "ad4eef75f32685692b10c531be6ea025", "name": "ad4eef75f32685692b10c531be6ea025", "is_reserved": 0, "fusion_lat": 0.0}, {"type": "electric_scooter", "rental_uris": {"ios": "https://dc.lft.to/lastmile_qr_scan", "android": "https://dc.lft.to/lastmile_qr_scan"}, "lon": -77.03649233333333, "fusion_lon": 0.0, "is_disabled": 0, "lat": 38.923448666666665, "bike_id": "a31e64e5fb7a769a7e17ce7ecf8e2449", "name": "a31e64e5fb7a769a7e17ce7ecf8e2449", "is_reserved": 0, "fusion_lat": 0.0}, {"type": "electric_scooter", "rental_uris": {"ios": "https://dc.lft.to/lastmile_qr_scan", "android": "https://dc.lft.to/lastmile_qr_scan"}, "lon": -77.02797416666667, "fusion_lon": 0.0, "is_disabled": 0, "lat": 38.954058, "bike_id": "7ca705964aab3cd82a6c46eaa613d75b", "name": "7ca705964aab3cd82a6c46eaa613d75b", "is_reserved": 0, "fusion_lat": 0.0}, {"type": "electric_scooter", "rental_uris": {"ios": "https://dc.lft.to/lastmile_qr_scan", "android": "https://dc.lft.to/lastmile_qr_scan"}, "lon": -77.04163966666667, "fusion_lon": 0.0, "is_disabled": 0, "lat": 38.90524116666667, "bike_id": "1bfcc6312f7df7142b9daa6b9189437a", "name": "1bfcc6312f7df7142b9daa6b9189437a", "is_reserved": 0, "fusion_lat": 0.0}, {"type": "electric_scooter", "rental_uris": {"ios": "https://dc.lft.to/lastmile_qr_scan", "android": "https://dc.lft.to/lastmile_qr_scan"}, "lon": -77.0275955, "fusion_lon": 0.0, "is_disabled": 0, "lat": 38.95777966666667, "bike_id": "d234bcba9cebd254805cdc2122b31ead", "name": "d234bcba9cebd254805cdc2122b31ead", "is_reserved": 0, "fusion_lat": 0.0}, {"type": "electric_scooter", "rental_uris": {"ios": "https://dc.lft.to/lastmile_qr_scan", "android": "https://dc.lft.to/lastmile_qr_scan"}, "lon": -77.0417045, "fusion_lon": 0.0, "is_disabled": 0, "lat": 38.920112833333334, "bike_id": "fec8dbcb367e9d3940a0b92b9da4b545", "name": "fec8dbcb367e9d3940a0b92b9da4b545", "is_reserved": 0, "fusion_lat": 0.0}, {"type": "electric_scooter", "rental_uris": {"ios": "https://dc.lft.to/lastmile_qr_scan", "android": "https://dc.lft.to/lastmile_qr_scan"}, "lon": -77.04148416666666, "fusion_lon": 0.0, "is_disabled": 0, "lat": 38.892250833333335, "bike_id": "22140382502a06fd2c2cebdc86a309eb", "name": "22140382502a06fd2c2cebdc86a309eb", "is_reserved": 0, "fusion_lat": 0.0}, {"type": "electric_scooter", "rental_uris": {"ios": "https://dc.lft.to/lastmile_qr_scan", "android": "https://dc.lft.to/lastmile_qr_scan"}, "lon": -77.01760983333334, "fusion_lon": 0.0, "is_disabled": 0, "lat": 38.877222833333335, "bike_id": "3355d9aa041b300d611f14039ccb357f", "name": "3355d9aa041b300d611f14039ccb357f", "is_reserved": 0, "fusion_lat": 0.0}, {"type": "electric_bike", "rental_uris": {"ios": "https://dc.lft.to/lastmile_qr_scan", "android": "https://dc.lft.to/lastmile_qr_scan"}, "lon": -77.080817, "fusion_lon": 0.0, "is_disabled": 0, "lat": 38.90859183333333, "bike_id": "54be58387ff12a932e0e7cb6a039f626", "name": "54be58387ff12a932e0e7cb6a039f626", "is_reserved": 0, "fusion_lat": 0.0}, {"type": "electric_scooter", "rental_uris": {"ios": "https://dc.lft.to/lastmile_qr_scan", "android": "https://dc.lft.to/lastmile_qr_scan"}, "lon": -77.03826683333334, "fusion_lon": 0.0, "is_disabled": 0, "lat": 38.921736833333334, "bike_id": "d4ad1020c99511538c4f6fb375ad5d47", "name": "d4ad1020c99511538c4f6fb375ad5d47", "is_reserved": 0, "fusion_lat": 0.0}, {"type": "electric_scooter", "rental_uris": {"ios": "https://dc.lft.to/lastmile_qr_scan", "android": "https://dc.lft.to/lastmile_qr_scan"}, "lon": -77.02290383333333, "fusion_lon": 0.0, "is_disabled": 0, "lat": 38.916828833333334, "bike_id": "6fe98c69044b7216b503c8183126840a", "name": "6fe98c69044b7216b503c8183126840a", "is_reserved": 0, "fusion_lat": 0.0}, {"type": "electric_scooter", "rental_uris": {"ios": "https://dc.lft.to/lastmile_qr_scan", "android": "https://dc.lft.to/lastmile_qr_scan"}, "lon": -77.0453775, "fusion_lon": 0.0, "is_disabled": 0, "lat": 38.934099, "bike_id": "09d8d5d22bfae66ef76b56275fce151c", "name": "09d8d5d22bfae66ef76b56275fce151c", "is_reserved": 0, "fusion_lat": 0.0}, {"type": "electric_scooter", "rental_uris": {"ios": "https://dc.lft.to/lastmile_qr_scan", "android": "https://dc.lft.to/lastmile_qr_scan"}, "lon": -77.030112, "fusion_lon": 0.0, "is_disabled": 0, "lat": 38.939727, "bike_id": "5b2121874635d4a88a53df4ea90f7c29", "name": "5b2121874635d4a88a53df4ea90f7c29", "is_reserved": 0, "fusion_lat": 0.0}, {"type": "electric_scooter", "rental_uris": {"ios": "https://dc.lft.to/lastmile_qr_scan", "android": "https://dc.lft.to/lastmile_qr_scan"}, "lon": -77.01658466666666, "fusion_lon": 0.0, "is_disabled": 0, "lat": 38.8811675, "bike_id": "b346922e4e6e32edb761ba5f5e1ab263", "name": "b346922e4e6e32edb761ba5f5e1ab263", "is_reserved": 0, "fusion_lat": 0.0}, {"type": "electric_scooter", "rental_uris": {"ios": "https://dc.lft.to/lastmile_qr_scan", "android": "https://dc.lft.to/lastmile_qr_scan"}, "lon": -76.9850125, "fusion_lon": 0.0, "is_disabled": 0, "lat": 38.894725333333334, "bike_id": "94e92c53c09d7174b83588d48e9dbb8a", "name": "94e92c53c09d7174b83588d48e9dbb8a", "is_reserved": 0, "fusion_lat": 0.0}, {"type": "electric_scooter", "rental_uris": {"ios": "https://dc.lft.to/lastmile_qr_scan", "android": "https://dc.lft.to/lastmile_qr_scan"}, "lon": -77.042897, "fusion_lon": 0.0, "is_disabled": 0, "lat": 38.922623333333334, "bike_id": "5bc0bfe639de1f6557a416f8307a1797", "name": "5bc0bfe639de1f6557a416f8307a1797", "is_reserved": 0, "fusion_lat": 0.0}, {"type": "electric_scooter", "rental_uris": {"ios": "https://dc.lft.to/lastmile_qr_scan", "android": "https://dc.lft.to/lastmile_qr_scan"}, "lon": -77.04351816666667, "fusion_lon": 0.0, "is_disabled": 0, "lat": 38.90523133333333, "bike_id": "9ce94a421fb9395e5d031d7b3b3dfa99", "name": "9ce94a421fb9395e5d031d7b3b3dfa99", "is_reserved": 0, "fusion_lat": 0.0}, {"type": "electric_scooter", "rental_uris": {"ios": "https://dc.lft.to/lastmile_qr_scan", "android": "https://dc.lft.to/lastmile_qr_scan"}, "lon": -77.03209083333333, "fusion_lon": 0.0, "is_disabled": 0, "lat": 38.9206895, "bike_id": "ea379bf9cba9db7e46384b1e2d63ff41", "name": "ea379bf9cba9db7e46384b1e2d63ff41", "is_reserved": 0, "fusion_lat": 0.0}, {"type": "electric_scooter", "rental_uris": {"ios": "https://dc.lft.to/lastmile_qr_scan", "android": "https://dc.lft.to/lastmile_qr_scan"}, "lon": -77.02698366666667, "fusion_lon": 0.0, "is_disabled": 0, "lat": 38.906041, "bike_id": "acab52064715a74f64b3611265cb8eea", "name": "acab52064715a74f64b3611265cb8eea", "is_reserved": 0, "fusion_lat": 0.0}, {"type": "electric_scooter", "rental_uris": {"ios": "https://dc.lft.to/lastmile_qr_scan", "android": "https://dc.lft.to/lastmile_qr_scan"}, "lon": -77.048435, "fusion_lon": 0.0, "is_disabled": 0, "lat": 38.9118775, "bike_id": "7b367b95fb3336ebe7cad60ba1ba586a", "name": "7b367b95fb3336ebe7cad60ba1ba586a", "is_reserved": 0, "fusion_lat": 0.0}, {"type": "electric_scooter", "rental_uris": {"ios": "https://dc.lft.to/lastmile_qr_scan", "android": "https://dc.lft.to/lastmile_qr_scan"}, "lon": -77.040118, "fusion_lon": 0.0, "is_disabled": 0, "lat": 38.924344833333336, "bike_id": "76c6c8b291cee26f0e81ae831cf51bcc", "name": "76c6c8b291cee26f0e81ae831cf51bcc", "is_reserved": 0, "fusion_lat": 0.0}, {"type": "electric_scooter", "rental_uris": {"ios": "https://dc.lft.to/lastmile_qr_scan", "android": "https://dc.lft.to/lastmile_qr_scan"}, "lon": -77.0259695, "fusion_lon": 0.0, "is_disabled": 0, "lat": 38.90621266666667, "bike_id": "aa3ce3f4dab79a0662a0871986471841", "name": "aa3ce3f4dab79a0662a0871986471841", "is_reserved": 0, "fusion_lat": 0.0}, {"type": "electric_scooter", "rental_uris": {"ios": "https://dc.lft.to/lastmile_qr_scan", "android": "https://dc.lft.to/lastmile_qr_scan"}, "lon": -77.04413016666666, "fusion_lon": 0.0, "is_disabled": 0, "lat": 38.913554, "bike_id": "ad17740d3f9666889d139022b4fc906c", "name": "ad17740d3f9666889d139022b4fc906c", "is_reserved": 0, "fusion_lat": 0.0}, {"type": "electric_scooter", "rental_uris": {"ios": "https://dc.lft.to/lastmile_qr_scan", "android": "https://dc.lft.to/lastmile_qr_scan"}, "lon": -77.042377, "fusion_lon": 0.0, "is_disabled": 0, "lat": 38.922179666666665, "bike_id": "a06dd44f460515863fc57483b5eeec69", "name": "a06dd44f460515863fc57483b5eeec69", "is_reserved": 0, "fusion_lat": 0.0}, {"type": "electric_bike", "rental_uris": {"ios": "https://dc.lft.to/lastmile_qr_scan", "android": "https://dc.lft.to/lastmile_qr_scan"}, "lon": -77.00202483333334, "fusion_lon": 0.0, "is_disabled": 0, "lat": 38.81939533333333, "bike_id": "08966aeba889573a4bdd3506576d866d", "name": "08966aeba889573a4bdd3506576d866d", "is_reserved": 0, "fusion_lat": 0.0}, {"type": "electric_scooter", "rental_uris": {"ios": "https://dc.lft.to/lastmile_qr_scan", "android": "https://dc.lft.to/lastmile_qr_scan"}, "lon": -77.04168183333333, "fusion_lon": 0.0, "is_disabled": 0, "lat": 38.919861, "bike_id": "a05096cd4fcefd72c8329bb8bb50b295", "name": "a05096cd4fcefd72c8329bb8bb50b295", "is_reserved": 0, "fusion_lat": 0.0}, {"type": "electric_scooter", "rental_uris": {"ios": "https://dc.lft.to/lastmile_qr_scan", "android": "https://dc.lft.to/lastmile_qr_scan"}, "lon": -77.03182233333334, "fusion_lon": 0.0, "is_disabled": 0, "lat": 38.9177905, "bike_id": "b58ea56fc1638d5dd0529f384ac6262b", "name": "b58ea56fc1638d5dd0529f384ac6262b", "is_reserved": 0, "fusion_lat": 0.0}, {"type": "electric_bike", "rental_uris": {"ios": "https://dc.lft.to/lastmile_qr_scan", "android": "https://dc.lft.to/lastmile_qr_scan"}, "lon": -76.9599065, "fusion_lon": 0.0, "is_disabled": 0, "lat": 38.86995016666667, "bike_id": "d0e30adaae26efc09701980bbff2e555", "name": "d0e30adaae26efc09701980bbff2e555", "is_reserved": 0, "fusion_lat": 0.0}, {"type": "electric_scooter", "rental_uris": {"ios": "https://dc.lft.to/lastmile_qr_scan", "android": "https://dc.lft.to/lastmile_qr_scan"}, "lon": -77.02401483333334, "fusion_lon": 0.0, "is_disabled": 0, "lat": 38.91747133333333, "bike_id": "f85a9b029544c4313c4b32f86292491b", "name": "f85a9b029544c4313c4b32f86292491b", "is_reserved": 0, "fusion_lat": 0.0}, {"type": "electric_scooter", "rental_uris": {"ios": "https://dc.lft.to/lastmile_qr_scan", "android": "https://dc.lft.to/lastmile_qr_scan"}, "lon": -76.99955333333334, "fusion_lon": 0.0, "is_disabled": 0, "lat": 38.90867716666666, "bike_id": "f3bbed5d2c18bc8d80a8c8532692ebe4", "name": "f3bbed5d2c18bc8d80a8c8532692ebe4", "is_reserved": 0, "fusion_lat": 0.0}, {"type": "electric_bike", "rental_uris": {"ios": "https://dc.lft.to/lastmile_qr_scan", "android": "https://dc.lft.to/lastmile_qr_scan"}, "lon": -77.04129533333334, "fusion_lon": 0.0, "is_disabled": 0, "lat": 38.805082166666665, "bike_id": "29da3210e699e5b7873e021e4ee46f24", "name": "29da3210e699e5b7873e021e4ee46f24", "is_reserved": 0, "fusion_lat": 0.0}, {"type": "electric_scooter", "rental_uris": {"ios": "https://dc.lft.to/lastmile_qr_scan", "android": "https://dc.lft.to/lastmile_qr_scan"}, "lon": -76.99824933333333, "fusion_lon": 0.0, "is_disabled": 0, "lat": 38.90025933333333, "bike_id": "8f3ed0e793c1af3a6811c2036847059f", "name": "8f3ed0e793c1af3a6811c2036847059f", "is_reserved": 0, "fusion_lat": 0.0}, {"type": "electric_scooter", "rental_uris": {"ios": "https://dc.lft.to/lastmile_qr_scan", "android": "https://dc.lft.to/lastmile_qr_scan"}, "lon": -77.02600083333333, "fusion_lon": 0.0, "is_disabled": 0, "lat": 38.916948833333336, "bike_id": "401cb7fd0d25b9963ac5b21ed640c92a", "name": "401cb7fd0d25b9963ac5b21ed640c92a", "is_reserved": 0, "fusion_lat": 0.0}, {"type": "electric_scooter", "rental_uris": {"ios": "https://dc.lft.to/lastmile_qr_scan", "android": "https://dc.lft.to/lastmile_qr_scan"}, "lon": -77.034398, "fusion_lon": 0.0, "is_disabled": 0, "lat": 38.9072765, "bike_id": "53359182656232412dd995c9963d630d", "name": "53359182656232412dd995c9963d630d", "is_reserved": 0, "fusion_lat": 0.0}, {"type": "electric_scooter", "rental_uris": {"ios": "https://dc.lft.to/lastmile_qr_scan", "android": "https://dc.lft.to/lastmile_qr_scan"}, "lon": -77.02584533333334, "fusion_lon": 0.0, "is_disabled": 0, "lat": 38.90955983333333, "bike_id": "05ede91cca1a43923f34b158f47bd846", "name": "05ede91cca1a43923f34b158f47bd846", "is_reserved": 0, "fusion_lat": 0.0}, {"type": "electric_scooter", "rental_uris": {"ios": "https://dc.lft.to/lastmile_qr_scan", "android": "https://dc.lft.to/lastmile_qr_scan"}, "lon": -77.034283, "fusion_lon": 0.0, "is_disabled": 0, "lat": 38.922444, "bike_id": "e30dd137a129421bac7671650a001b4d", "name": "e30dd137a129421bac7671650a001b4d", "is_reserved": 0, "fusion_lat": 0.0}, {"type": "electric_scooter", "rental_uris": {"ios": "https://dc.lft.to/lastmile_qr_scan", "android": "https://dc.lft.to/lastmile_qr_scan"}, "lon": -77.02293766666666, "fusion_lon": 0.0, "is_disabled": 0, "lat": 38.91745266666667, "bike_id": "ab6959253f7aaf0d1f7f15c17201efef", "name": "ab6959253f7aaf0d1f7f15c17201efef", "is_reserved": 0, "fusion_lat": 0.0}, {"type": "electric_scooter", "rental_uris": {"ios": "https://dc.lft.to/lastmile_qr_scan", "android": "https://dc.lft.to/lastmile_qr_scan"}, "lon": -77.04026366666666, "fusion_lon": 0.0, "is_disabled": 0, "lat": 38.918069333333335, "bike_id": "d04e5e4e507bdff655ba1f7b698ca21f", "name": "d04e5e4e507bdff655ba1f7b698ca21f", "is_reserved": 0, "fusion_lat": 0.0}, {"type": "electric_scooter", "rental_uris": {"ios": "https://dc.lft.to/lastmile_qr_scan", "android": "https://dc.lft.to/lastmile_qr_scan"}, "lon": -77.03144916666666, "fusion_lon": 0.0, "is_disabled": 0, "lat": 38.915653166666665, "bike_id": "edc7a5848ee6004948b607385a07679e", "name": "edc7a5848ee6004948b607385a07679e", "is_reserved": 0, "fusion_lat": 0.0}, {"type": "electric_bike", "rental_uris": {"ios": "https://dc.lft.to/lastmile_qr_scan", "android": "https://dc.lft.to/lastmile_qr_scan"}, "lon": -76.96905933333333, "fusion_lon": 0.0, "is_disabled": 0, "lat": 38.846083, "bike_id": "2388c7fe21f3478e5dee009c01a1dda5", "name": "2388c7fe21f3478e5dee009c01a1dda5", "is_reserved": 0, "fusion_lat": 0.0}, {"type": "electric_scooter", "rental_uris": {"ios": "https://dc.lft.to/lastmile_qr_scan", "android": "https://dc.lft.to/lastmile_qr_scan"}, "lon": -77.0319195, "fusion_lon": 0.0, "is_disabled": 0, "lat": 38.907937, "bike_id": "77ee1f0adf398231c23f82c6d3bcd807", "name": "77ee1f0adf398231c23f82c6d3bcd807", "is_reserved": 0, "fusion_lat": 0.0}, {"type": "electric_scooter", "rental_uris": {"ios": "https://dc.lft.to/lastmile_qr_scan", "android": "https://dc.lft.to/lastmile_qr_scan"}, "lon": -77.02347566666667, "fusion_lon": 0.0, "is_disabled": 0, "lat": 38.91783933333333, "bike_id": "cf2a543638552982c41fc38f9b3c9f46", "name": "cf2a543638552982c41fc38f9b3c9f46", "is_reserved": 0, "fusion_lat": 0.0}, {"type": "electric_scooter", "rental_uris": {"ios": "https://dc.lft.to/lastmile_qr_scan", "android": "https://dc.lft.to/lastmile_qr_scan"}, "lon": -77.03853216666667, "fusion_lon": 0.0, "is_disabled": 0, "lat": 38.91550183333333, "bike_id": "6e95b2405dec5f7bcb7e4ef5a9632822", "name": "6e95b2405dec5f7bcb7e4ef5a9632822", "is_reserved": 0, "fusion_lat": 0.0}, {"type": "electric_scooter", "rental_uris": {"ios": "https://dc.lft.to/lastmile_qr_scan", "android": "https://dc.lft.to/lastmile_qr_scan"}, "lon": -76.94192766666667, "fusion_lon": 0.0, "is_disabled": 0, "lat": 38.897478166666666, "bike_id": "dc5ab3c730b6ce94e6e529a96baddb65", "name": "dc5ab3c730b6ce94e6e529a96baddb65", "is_reserved": 0, "fusion_lat": 0.0}, {"type": "electric_bike", "rental_uris": {"ios": "https://dc.lft.to/lastmile_qr_scan", "android": "https://dc.lft.to/lastmile_qr_scan"}, "lon": -77.12021866666667, "fusion_lon": 0.0, "is_disabled": 0, "lat": 38.855240333333334, "bike_id": "c82497e2942b8460ac7c21d6d5a92495", "name": "c82497e2942b8460ac7c21d6d5a92495", "is_reserved": 0, "fusion_lat": 0.0}, {"type": "electric_scooter", "rental_uris": {"ios": "https://dc.lft.to/lastmile_qr_scan", "android": "https://dc.lft.to/lastmile_qr_scan"}, "lon": -76.9766415, "fusion_lon": 0.0, "is_disabled": 0, "lat": 38.898561, "bike_id": "e1765b0603afbfe4d13bf543c2257328", "name": "e1765b0603afbfe4d13bf543c2257328", "is_reserved": 0, "fusion_lat": 0.0}, {"type": "electric_scooter", "rental_uris": {"ios": "https://dc.lft.to/lastmile_qr_scan", "android": "https://dc.lft.to/lastmile_qr_scan"}, "lon": -77.0371085, "fusion_lon": 0.0, "is_disabled": 0, "lat": 38.92863366666667, "bike_id": "3204bdb44b1a10138381d23b37894b50", "name": "3204bdb44b1a10138381d23b37894b50", "is_reserved": 0, "fusion_lat": 0.0}, {"type": "electric_scooter", "rental_uris": {"ios": "https://dc.lft.to/lastmile_qr_scan", "android": "https://dc.lft.to/lastmile_qr_scan"}, "lon": -77.01948166666666, "fusion_lon": 0.0, "is_disabled": 0, "lat": 38.9492535, "bike_id": "5ffdd7fbefec16f608b8643b92c7b4d7", "name": "5ffdd7fbefec16f608b8643b92c7b4d7", "is_reserved": 0, "fusion_lat": 0.0}, {"type": "electric_scooter", "rental_uris": {"ios": "https://dc.lft.to/lastmile_qr_scan", "android": "https://dc.lft.to/lastmile_qr_scan"}, "lon": -77.03174783333333, "fusion_lon": 0.0, "is_disabled": 0, "lat": 38.89989033333333, "bike_id": "8c42039ff61157cc35cd7b7691d047c3", "name": "8c42039ff61157cc35cd7b7691d047c3", "is_reserved": 0, "fusion_lat": 0.0}, {"type": "electric_scooter", "rental_uris": {"ios": "https://dc.lft.to/lastmile_qr_scan", "android": "https://dc.lft.to/lastmile_qr_scan"}, "lon": -77.04479883333333, "fusion_lon": 0.0, "is_disabled": 0, "lat": 38.91167816666667, "bike_id": "e78d11bfc46e9b4d378a04ccb3ff0aca", "name": "e78d11bfc46e9b4d378a04ccb3ff0aca", "is_reserved": 0, "fusion_lat": 0.0}, {"type": "electric_scooter", "rental_uris": {"ios": "https://dc.lft.to/lastmile_qr_scan", "android": "https://dc.lft.to/lastmile_qr_scan"}, "lon": -77.03289916666667, "fusion_lon": 0.0, "is_disabled": 0, "lat": 38.92557983333333, "bike_id": "87f406bd885f7599d131b87a83f28c56", "name": "87f406bd885f7599d131b87a83f28c56", "is_reserved": 0, "fusion_lat": 0.0}, {"type": "electric_scooter", "rental_uris": {"ios": "https://dc.lft.to/lastmile_qr_scan", "android": "https://dc.lft.to/lastmile_qr_scan"}, "lon": -77.01191033333333, "fusion_lon": 0.0, "is_disabled": 0, "lat": 38.903106, "bike_id": "794b8c728613beb4c454c50f6f9bc8e9", "name": "794b8c728613beb4c454c50f6f9bc8e9", "is_reserved": 0, "fusion_lat": 0.0}, {"type": "electric_scooter", "rental_uris": {"ios": "https://dc.lft.to/lastmile_qr_scan", "android": "https://dc.lft.to/lastmile_qr_scan"}, "lon": -77.04016766666666, "fusion_lon": 0.0, "is_disabled": 0, "lat": 38.923640166666665, "bike_id": "3c8e7c04c1f8499c196ec80c1d8d3cd9", "name": "3c8e7c04c1f8499c196ec80c1d8d3cd9", "is_reserved": 0, "fusion_lat": 0.0}, {"type": "electric_scooter", "rental_uris": {"ios": "https://dc.lft.to/lastmile_qr_scan", "android": "https://dc.lft.to/lastmile_qr_scan"}, "lon": -76.99776433333334, "fusion_lon": 0.0, "is_disabled": 0, "lat": 38.844273, "bike_id": "97fff0d95b27c288b26ecea273691dd7", "name": "97fff0d95b27c288b26ecea273691dd7", "is_reserved": 0, "fusion_lat": 0.0}, {"type": "electric_scooter", "rental_uris": {"ios": "https://dc.lft.to/lastmile_qr_scan", "android": "https://dc.lft.to/lastmile_qr_scan"}, "lon": -77.02710833333333, "fusion_lon": 0.0, "is_disabled": 0, "lat": 38.9067425, "bike_id": "6f6eff5bda6a3282e742b3268668b78d", "name": "6f6eff5bda6a3282e742b3268668b78d", "is_reserved": 0, "fusion_lat": 0.0}, {"type": "electric_scooter", "rental_uris": {"ios": "https://dc.lft.to/lastmile_qr_scan", "android": "https://dc.lft.to/lastmile_qr_scan"}, "lon": -77.04049616666667, "fusion_lon": 0.0, "is_disabled": 0, "lat": 38.914115833333334, "bike_id": "9200064499f4b80a267a56581b39448f", "name": "9200064499f4b80a267a56581b39448f", "is_reserved": 0, "fusion_lat": 0.0}, {"type": "electric_scooter", "rental_uris": {"ios": "https://dc.lft.to/lastmile_qr_scan", "android": "https://dc.lft.to/lastmile_qr_scan"}, "lon": -77.03441983333333, "fusion_lon": 0.0, "is_disabled": 0, "lat": 38.93095116666667, "bike_id": "7b6d8860afd0759cc383e073760503c7", "name": "7b6d8860afd0759cc383e073760503c7", "is_reserved": 0, "fusion_lat": 0.0}, {"type": "electric_scooter", "rental_uris": {"ios": "https://dc.lft.to/lastmile_qr_scan", "android": "https://dc.lft.to/lastmile_qr_scan"}, "lon": -76.95756366666667, "fusion_lon": 0.0, "is_disabled": 0, "lat": 38.884326333333334, "bike_id": "b3d5bb5a7dd0b1874cdded6e9edf1ed3", "name": "b3d5bb5a7dd0b1874cdded6e9edf1ed3", "is_reserved": 0, "fusion_lat": 0.0}, {"type": "electric_scooter", "rental_uris": {"ios": "https://dc.lft.to/lastmile_qr_scan", "android": "https://dc.lft.to/lastmile_qr_scan"}, "lon": -77.02123116666667, "fusion_lon": 0.0, "is_disabled": 0, "lat": 38.88744883333333, "bike_id": "0b7e3441e0cd893b21a00c76a30dd0db", "name": "0b7e3441e0cd893b21a00c76a30dd0db", "is_reserved": 0, "fusion_lat": 0.0}, {"type": "electric_bike", "rental_uris": {"ios": "https://dc.lft.to/lastmile_qr_scan", "android": "https://dc.lft.to/lastmile_qr_scan"}, "lon": -77.10595833333333, "fusion_lon": 0.0, "is_disabled": 0, "lat": 38.928946833333335, "bike_id": "b2368ea7987b313dbdc3d6e519b0b5a9", "name": "b2368ea7987b313dbdc3d6e519b0b5a9", "is_reserved": 0, "fusion_lat": 0.0}, {"type": "electric_scooter", "rental_uris": {"ios": "https://dc.lft.to/lastmile_qr_scan", "android": "https://dc.lft.to/lastmile_qr_scan"}, "lon": -77.0157725, "fusion_lon": 0.0, "is_disabled": 0, "lat": 38.9168695, "bike_id": "41eed4e0c91c8ee17af98e0fcdf3ef68", "name": "41eed4e0c91c8ee17af98e0fcdf3ef68", "is_reserved": 0, "fusion_lat": 0.0}, {"type": "electric_scooter", "rental_uris": {"ios": "https://dc.lft.to/lastmile_qr_scan", "android": "https://dc.lft.to/lastmile_qr_scan"}, "lon": -77.01141016666666, "fusion_lon": 0.0, "is_disabled": 0, "lat": 38.9170795, "bike_id": "84f0ed8ad9bb9043ec8a3d890476f056", "name": "84f0ed8ad9bb9043ec8a3d890476f056", "is_reserved": 0, "fusion_lat": 0.0}, {"type": "electric_scooter", "rental_uris": {"ios": "https://dc.lft.to/lastmile_qr_scan", "android": "https://dc.lft.to/lastmile_qr_scan"}, "lon": -77.0132035, "fusion_lon": 0.0, "is_disabled": 0, "lat": 38.9061095, "bike_id": "d91240332ab2a0098b5dfc20f61aec42", "name": "d91240332ab2a0098b5dfc20f61aec42", "is_reserved": 0, "fusion_lat": 0.0}, {"type": "electric_scooter", "rental_uris": {"ios": "https://dc.lft.to/lastmile_qr_scan", "android": "https://dc.lft.to/lastmile_qr_scan"}, "lon": -77.03202566666667, "fusion_lon": 0.0, "is_disabled": 0, "lat": 38.902719833333336, "bike_id": "8259603a6c2b560cd5c4327c4a461940", "name": "8259603a6c2b560cd5c4327c4a461940", "is_reserved": 0, "fusion_lat": 0.0}, {"type": "electric_scooter", "rental_uris": {"ios": "https://dc.lft.to/lastmile_qr_scan", "android": "https://dc.lft.to/lastmile_qr_scan"}, "lon": -76.98836916666667, "fusion_lon": 0.0, "is_disabled": 0, "lat": 38.892496666666666, "bike_id": "607f22586b00d7cd2488a7f1126f1e8d", "name": "607f22586b00d7cd2488a7f1126f1e8d", "is_reserved": 0, "fusion_lat": 0.0}, {"type": "electric_scooter", "rental_uris": {"ios": "https://dc.lft.to/lastmile_qr_scan", "android": "https://dc.lft.to/lastmile_qr_scan"}, "lon": -77.04029183333333, "fusion_lon": 0.0, "is_disabled": 0, "lat": 38.924447666666666, "bike_id": "a12d8dbf2c6892cfafb647e210d13942", "name": "a12d8dbf2c6892cfafb647e210d13942", "is_reserved": 0, "fusion_lat": 0.0}, {"type": "electric_scooter", "rental_uris": {"ios": "https://dc.lft.to/lastmile_qr_scan", "android": "https://dc.lft.to/lastmile_qr_scan"}, "lon": -77.0275985, "fusion_lon": 0.0, "is_disabled": 0, "lat": 38.8972, "bike_id": "ead789c2daea10d7b1d80cb1ddccc5cd", "name": "ead789c2daea10d7b1d80cb1ddccc5cd", "is_reserved": 0, "fusion_lat": 0.0}, {"type": "electric_scooter", "rental_uris": {"ios": "https://dc.lft.to/lastmile_qr_scan", "android": "https://dc.lft.to/lastmile_qr_scan"}, "lon": -77.04326983333333, "fusion_lon": 0.0, "is_disabled": 0, "lat": 38.89226333333333, "bike_id": "4b1bd76970184013f87396aab6e69682", "name": "4b1bd76970184013f87396aab6e69682", "is_reserved": 0, "fusion_lat": 0.0}, {"type": "electric_scooter", "rental_uris": {"ios": "https://dc.lft.to/lastmile_qr_scan", "android": "https://dc.lft.to/lastmile_qr_scan"}, "lon": -77.01368716666667, "fusion_lon": 0.0, "is_disabled": 0, "lat": 38.892246166666666, "bike_id": "cf8abc8f2a2b79ff59cf9a96c752181a", "name": "cf8abc8f2a2b79ff59cf9a96c752181a", "is_reserved": 0, "fusion_lat": 0.0}, {"type": "electric_scooter", "rental_uris": {"ios": "https://dc.lft.to/lastmile_qr_scan", "android": "https://dc.lft.to/lastmile_qr_scan"}, "lon": -76.9892225, "fusion_lon": 0.0, "is_disabled": 0, "lat": 38.84077516666667, "bike_id": "6e1bd186b5a6dbe659277e72dd6d6b00", "name": "6e1bd186b5a6dbe659277e72dd6d6b00", "is_reserved": 0, "fusion_lat": 0.0}, {"type": "electric_scooter", "rental_uris": {"ios": "https://dc.lft.to/lastmile_qr_scan", "android": "https://dc.lft.to/lastmile_qr_scan"}, "lon": -77.00380516666667, "fusion_lon": 0.0, "is_disabled": 0, "lat": 38.910886, "bike_id": "475a4008e919bb039c5fcb81bf77b6c7", "name": "475a4008e919bb039c5fcb81bf77b6c7", "is_reserved": 0, "fusion_lat": 0.0}, {"type": "electric_scooter", "rental_uris": {"ios": "https://dc.lft.to/lastmile_qr_scan", "android": "https://dc.lft.to/lastmile_qr_scan"}, "lon": -77.02218516666667, "fusion_lon": 0.0, "is_disabled": 0, "lat": 38.9127725, "bike_id": "3d208e9cbb3d3f1676c3e7c72bed8513", "name": "3d208e9cbb3d3f1676c3e7c72bed8513", "is_reserved": 0, "fusion_lat": 0.0}, {"type": "electric_scooter", "rental_uris": {"ios": "https://dc.lft.to/lastmile_qr_scan", "android": "https://dc.lft.to/lastmile_qr_scan"}, "lon": -77.03730583333333, "fusion_lon": 0.0, "is_disabled": 0, "lat": 38.917094666666664, "bike_id": "6eba07a9e0f96b8ba03aee5106127d7d", "name": "6eba07a9e0f96b8ba03aee5106127d7d", "is_reserved": 0, "fusion_lat": 0.0}, {"type": "electric_scooter", "rental_uris": {"ios": "https://dc.lft.to/lastmile_qr_scan", "android": "https://dc.lft.to/lastmile_qr_scan"}, "lon": -77.03338066666667, "fusion_lon": 0.0, "is_disabled": 0, "lat": 38.8922395, "bike_id": "b0d082460be268ff02b5fcbfbe33af64", "name": "b0d082460be268ff02b5fcbfbe33af64", "is_reserved": 0, "fusion_lat": 0.0}, {"type": "electric_scooter", "rental_uris": {"ios": "https://dc.lft.to/lastmile_qr_scan", "android": "https://dc.lft.to/lastmile_qr_scan"}, "lon": -77.0353485, "fusion_lon": 0.0, "is_disabled": 0, "lat": 38.9264645, "bike_id": "aef6866d1c1d2d1386e406574e36c53c", "name": "aef6866d1c1d2d1386e406574e36c53c", "is_reserved": 0, "fusion_lat": 0.0}, {"type": "electric_scooter", "rental_uris": {"ios": "https://dc.lft.to/lastmile_qr_scan", "android": "https://dc.lft.to/lastmile_qr_scan"}, "lon": -77.027153, "fusion_lon": 0.0, "is_disabled": 0, "lat": 38.90741283333333, "bike_id": "2acbaabb4e3f3a04142d9dbb539f1503", "name": "2acbaabb4e3f3a04142d9dbb539f1503", "is_reserved": 0, "fusion_lat": 0.0}, {"type": "electric_scooter", "rental_uris": {"ios": "https://dc.lft.to/lastmile_qr_scan", "android": "https://dc.lft.to/lastmile_qr_scan"}, "lon": -77.0279855, "fusion_lon": 0.0, "is_disabled": 0, "lat": 38.89235333333333, "bike_id": "5cb86b6cf19d11f3fcc60f673c3a8f24", "name": "5cb86b6cf19d11f3fcc60f673c3a8f24", "is_reserved": 0, "fusion_lat": 0.0}, {"type": "electric_scooter", "rental_uris": {"ios": "https://dc.lft.to/lastmile_qr_scan", "android": "https://dc.lft.to/lastmile_qr_scan"}, "lon": -77.01613783333333, "fusion_lon": 0.0, "is_disabled": 0, "lat": 38.916059, "bike_id": "965a3de4c9cc066dbf0a0fe8cbd3cc33", "name": "965a3de4c9cc066dbf0a0fe8cbd3cc33", "is_reserved": 0, "fusion_lat": 0.0}, {"type": "electric_bike", "rental_uris": {"ios": "https://dc.lft.to/lastmile_qr_scan", "android": "https://dc.lft.to/lastmile_qr_scan"}, "lon": -77.01283216666667, "fusion_lon": 0.0, "is_disabled": 0, "lat": 38.956678333333336, "bike_id": "008d0d156df6ccd5762f7c2515cadb72", "name": "008d0d156df6ccd5762f7c2515cadb72", "is_reserved": 0, "fusion_lat": 0.0}, {"type": "electric_scooter", "rental_uris": {"ios": "https://dc.lft.to/lastmile_qr_scan", "android": "https://dc.lft.to/lastmile_qr_scan"}, "lon": -77.04897833333334, "fusion_lon": 0.0, "is_disabled": 0, "lat": 38.89223166666667, "bike_id": "ef4b4ee9f50e104dd57136bbeb58bd7d", "name": "ef4b4ee9f50e104dd57136bbeb58bd7d", "is_reserved": 0, "fusion_lat": 0.0}, {"type": "electric_scooter", "rental_uris": {"ios": "https://dc.lft.to/lastmile_qr_scan", "android": "https://dc.lft.to/lastmile_qr_scan"}, "lon": -76.97945733333333, "fusion_lon": 0.0, "is_disabled": 0, "lat": 38.91694066666667, "bike_id": "4f9a5834672d46eae2cfcc89a3c2ea8a", "name": "4f9a5834672d46eae2cfcc89a3c2ea8a", "is_reserved": 0, "fusion_lat": 0.0}, {"type": "electric_scooter", "rental_uris": {"ios": "https://dc.lft.to/lastmile_qr_scan", "android": "https://dc.lft.to/lastmile_qr_scan"}, "lon": -77.05072216666667, "fusion_lon": 0.0, "is_disabled": 0, "lat": 38.90423466666667, "bike_id": "53cd1c9a43d81f95374ef48a5c879ce8", "name": "53cd1c9a43d81f95374ef48a5c879ce8", "is_reserved": 0, "fusion_lat": 0.0}, {"type": "electric_scooter", "rental_uris": {"ios": "https://dc.lft.to/lastmile_qr_scan", "android": "https://dc.lft.to/lastmile_qr_scan"}, "lon": -77.03452966666667, "fusion_lon": 0.0, "is_disabled": 0, "lat": 38.90734033333333, "bike_id": "3bd3c44f91f83d3ed60cb7e9a18088c4", "name": "3bd3c44f91f83d3ed60cb7e9a18088c4", "is_reserved": 0, "fusion_lat": 0.0}, {"type": "electric_bike", "rental_uris": {"ios": "https://dc.lft.to/lastmile_qr_scan", "android": "https://dc.lft.to/lastmile_qr_scan"}, "lon": -77.110468, "fusion_lon": 0.0, "is_disabled": 0, "lat": 38.870794, "bike_id": "8fa22057bbdcbfecbb276b99166769fe", "name": "8fa22057bbdcbfecbb276b99166769fe", "is_reserved": 0, "fusion_lat": 0.0}, {"type": "electric_scooter", "rental_uris": {"ios": "https://dc.lft.to/lastmile_qr_scan", "android": "https://dc.lft.to/lastmile_qr_scan"}, "lon": -77.03221283333333, "fusion_lon": 0.0, "is_disabled": 0, "lat": 38.9095725, "bike_id": "b40bd6f14e81fd95ca25d5a2b577096f", "name": "b40bd6f14e81fd95ca25d5a2b577096f", "is_reserved": 0, "fusion_lat": 0.0}, {"type": "electric_scooter", "rental_uris": {"ios": "https://dc.lft.to/lastmile_qr_scan", "android": "https://dc.lft.to/lastmile_qr_scan"}, "lon": -77.025911, "fusion_lon": 0.0, "is_disabled": 0, "lat": 38.901246, "bike_id": "1f42c1611d20488c3d4c0414ce0c1098", "name": "1f42c1611d20488c3d4c0414ce0c1098", "is_reserved": 0, "fusion_lat": 0.0}, {"type": "electric_scooter", "rental_uris": {"ios": "https://dc.lft.to/lastmile_qr_scan", "android": "https://dc.lft.to/lastmile_qr_scan"}, "lon": -77.03177733333334, "fusion_lon": 0.0, "is_disabled": 0, "lat": 38.91915133333333, "bike_id": "83bb76503beca94d4c64f5ba847db55b", "name": "83bb76503beca94d4c64f5ba847db55b", "is_reserved": 0, "fusion_lat": 0.0}, {"type": "electric_scooter", "rental_uris": {"ios": "https://dc.lft.to/lastmile_qr_scan", "android": "https://dc.lft.to/lastmile_qr_scan"}, "lon": -76.99906583333333, "fusion_lon": 0.0, "is_disabled": 0, "lat": 38.948169666666665, "bike_id": "4282dc20368219a42586fb305c6b2e04", "name": "4282dc20368219a42586fb305c6b2e04", "is_reserved": 0, "fusion_lat": 0.0}, {"type": "electric_scooter", "rental_uris": {"ios": "https://dc.lft.to/lastmile_qr_scan", "android": "https://dc.lft.to/lastmile_qr_scan"}, "lon": -77.053135, "fusion_lon": 0.0, "is_disabled": 0, "lat": 38.9007885, "bike_id": "92a907b4b5d5860f2b303a2a3413fe44", "name": "92a907b4b5d5860f2b303a2a3413fe44", "is_reserved": 0, "fusion_lat": 0.0}, {"type": "electric_bike", "rental_uris": {"ios": "https://dc.lft.to/lastmile_qr_scan", "android": "https://dc.lft.to/lastmile_qr_scan"}, "lon": -77.03444966666666, "fusion_lon": 0.0, "is_disabled": 0, "lat": 38.92479566666667, "bike_id": "f8d889c6283b01568fb7d2fa8afe3b84", "name": "f8d889c6283b01568fb7d2fa8afe3b84", "is_reserved": 0, "fusion_lat": 0.0}, {"type": "electric_scooter", "rental_uris": {"ios": "https://dc.lft.to/lastmile_qr_scan", "android": "https://dc.lft.to/lastmile_qr_scan"}, "lon": -77.036323, "fusion_lon": 0.0, "is_disabled": 0, "lat": 38.93740916666667, "bike_id": "13642edec384191dd6adc1406af44a2d", "name": "13642edec384191dd6adc1406af44a2d", "is_reserved": 0, "fusion_lat": 0.0}, {"type": "electric_scooter", "rental_uris": {"ios": "https://dc.lft.to/lastmile_qr_scan", "android": "https://dc.lft.to/lastmile_qr_scan"}, "lon": -76.94638233333333, "fusion_lon": 0.0, "is_disabled": 0, "lat": 38.89842466666666, "bike_id": "7d678c53e980816983e32c95c25c1bd5", "name": "7d678c53e980816983e32c95c25c1bd5", "is_reserved": 0, "fusion_lat": 0.0}, {"type": "electric_scooter", "rental_uris": {"ios": "https://dc.lft.to/lastmile_qr_scan", "android": "https://dc.lft.to/lastmile_qr_scan"}, "lon": -77.0466075, "fusion_lon": 0.0, "is_disabled": 0, "lat": 38.8924335, "bike_id": "de8dbdda5f88a6f9412d4b3d331a4014", "name": "de8dbdda5f88a6f9412d4b3d331a4014", "is_reserved": 0, "fusion_lat": 0.0}, {"type": "electric_scooter", "rental_uris": {"ios": "https://dc.lft.to/lastmile_qr_scan", "android": "https://dc.lft.to/lastmile_qr_scan"}, "lon": -77.04656333333334, "fusion_lon": 0.0, "is_disabled": 0, "lat": 38.89656216666667, "bike_id": "0e6cf3bef5b24e7044a297fa970d4d66", "name": "0e6cf3bef5b24e7044a297fa970d4d66", "is_reserved": 0, "fusion_lat": 0.0}, {"type": "electric_bike", "rental_uris": {"ios": "https://dc.lft.to/lastmile_qr_scan", "android": "https://dc.lft.to/lastmile_qr_scan"}, "lon": -76.9462485, "fusion_lon": 0.0, "is_disabled": 0, "lat": 38.832345, "bike_id": "d9ff39b392f3015a06b89489fa07a9b5", "name": "d9ff39b392f3015a06b89489fa07a9b5", "is_reserved": 0, "fusion_lat": 0.0}, {"type": "electric_scooter", "rental_uris": {"ios": "https://dc.lft.to/lastmile_qr_scan", "android": "https://dc.lft.to/lastmile_qr_scan"}, "lon": -77.0464745, "fusion_lon": 0.0, "is_disabled": 0, "lat": 38.892248333333335, "bike_id": "4c87ad6cad9423c7e3f926a353e25f6e", "name": "4c87ad6cad9423c7e3f926a353e25f6e", "is_reserved": 0, "fusion_lat": 0.0}, {"type": "electric_scooter", "rental_uris": {"ios": "https://dc.lft.to/lastmile_qr_scan", "android": "https://dc.lft.to/lastmile_qr_scan"}, "lon": -77.03968633333334, "fusion_lon": 0.0, "is_disabled": 0, "lat": 38.89906966666667, "bike_id": "92fc04d3303cd6de9ae064b685e145a8", "name": "92fc04d3303cd6de9ae064b685e145a8", "is_reserved": 0, "fusion_lat": 0.0}, {"type": "electric_scooter", "rental_uris": {"ios": "https://dc.lft.to/lastmile_qr_scan", "android": "https://dc.lft.to/lastmile_qr_scan"}, "lon": -77.02649916666667, "fusion_lon": 0.0, "is_disabled": 0, "lat": 38.924798, "bike_id": "e95280ed433dda3278ccf7e244cb651b", "name": "e95280ed433dda3278ccf7e244cb651b", "is_reserved": 0, "fusion_lat": 0.0}, {"type": "electric_scooter", "rental_uris": {"ios": "https://dc.lft.to/lastmile_qr_scan", "android": "https://dc.lft.to/lastmile_qr_scan"}, "lon": -76.986887, "fusion_lon": 0.0, "is_disabled": 0, "lat": 38.867232666666666, "bike_id": "1339cd766ea5f2d938e45b2d510dbdd4", "name": "1339cd766ea5f2d938e45b2d510dbdd4", "is_reserved": 0, "fusion_lat": 0.0}, {"type": "electric_scooter", "rental_uris": {"ios": "https://dc.lft.to/lastmile_qr_scan", "android": "https://dc.lft.to/lastmile_qr_scan"}, "lon": -77.039958, "fusion_lon": 0.0, "is_disabled": 0, "lat": 38.914206166666666, "bike_id": "4e7fb873a1563096c374a29facb6821d", "name": "4e7fb873a1563096c374a29facb6821d", "is_reserved": 0, "fusion_lat": 0.0}, {"type": "electric_scooter", "rental_uris": {"ios": "https://dc.lft.to/lastmile_qr_scan", "android": "https://dc.lft.to/lastmile_qr_scan"}, "lon": -77.03933033333334, "fusion_lon": 0.0, "is_disabled": 0, "lat": 38.915709, "bike_id": "7317ea1b6834c9f1dbc7b0af5cc7382b", "name": "7317ea1b6834c9f1dbc7b0af5cc7382b", "is_reserved": 0, "fusion_lat": 0.0}, {"type": "electric_scooter", "rental_uris": {"ios": "https://dc.lft.to/lastmile_qr_scan", "android": "https://dc.lft.to/lastmile_qr_scan"}, "lon": -76.97742, "fusion_lon": 0.0, "is_disabled": 0, "lat": 38.86833166666667, "bike_id": "c2393af6e33fb65464804bcf6b5579d8", "name": "c2393af6e33fb65464804bcf6b5579d8", "is_reserved": 0, "fusion_lat": 0.0}, {"type": "electric_scooter", "rental_uris": {"ios": "https://dc.lft.to/lastmile_qr_scan", "android": "https://dc.lft.to/lastmile_qr_scan"}, "lon": -77.03187216666667, "fusion_lon": 0.0, "is_disabled": 0, "lat": 38.89795783333334, "bike_id": "d051d5008e6212e9395c996063e85915", "name": "d051d5008e6212e9395c996063e85915", "is_reserved": 0, "fusion_lat": 0.0}, {"type": "electric_scooter", "rental_uris": {"ios": "https://dc.lft.to/lastmile_qr_scan", "android": "https://dc.lft.to/lastmile_qr_scan"}, "lon": -77.01758866666667, "fusion_lon": 0.0, "is_disabled": 0, "lat": 38.876751666666664, "bike_id": "ba0514cf19c520fd594a23c03ce7c699", "name": "ba0514cf19c520fd594a23c03ce7c699", "is_reserved": 0, "fusion_lat": 0.0}, {"type": "electric_scooter", "rental_uris": {"ios": "https://dc.lft.to/lastmile_qr_scan", "android": "https://dc.lft.to/lastmile_qr_scan"}, "lon": -77.03158916666666, "fusion_lon": 0.0, "is_disabled": 0, "lat": 38.892231, "bike_id": "4fe8f8f39925865eba07d03b4e04ca6a", "name": "4fe8f8f39925865eba07d03b4e04ca6a", "is_reserved": 0, "fusion_lat": 0.0}, {"type": "electric_scooter", "rental_uris": {"ios": "https://dc.lft.to/lastmile_qr_scan", "android": "https://dc.lft.to/lastmile_qr_scan"}, "lon": -77.04253916666667, "fusion_lon": 0.0, "is_disabled": 0, "lat": 38.922003833333335, "bike_id": "e35fa3d8f400931c023f1b861c274b8d", "name": "e35fa3d8f400931c023f1b861c274b8d", "is_reserved": 0, "fusion_lat": 0.0}, {"type": "electric_scooter", "rental_uris": {"ios": "https://dc.lft.to/lastmile_qr_scan", "android": "https://dc.lft.to/lastmile_qr_scan"}, "lon": -77.034795, "fusion_lon": 0.0, "is_disabled": 0, "lat": 38.9327125, "bike_id": "d4585bcca0dda4506ac3300bf2e9f3dc", "name": "d4585bcca0dda4506ac3300bf2e9f3dc", "is_reserved": 0, "fusion_lat": 0.0}, {"type": "electric_scooter", "rental_uris": {"ios": "https://dc.lft.to/lastmile_qr_scan", "android": "https://dc.lft.to/lastmile_qr_scan"}, "lon": -77.05131966666667, "fusion_lon": 0.0, "is_disabled": 0, "lat": 38.923636, "bike_id": "db5d6bb9a167403c6f935d7d522d0e56", "name": "db5d6bb9a167403c6f935d7d522d0e56", "is_reserved": 0, "fusion_lat": 0.0}, {"type": "electric_scooter", "rental_uris": {"ios": "https://dc.lft.to/lastmile_qr_scan", "android": "https://dc.lft.to/lastmile_qr_scan"}, "lon": -77.04141166666666, "fusion_lon": 0.0, "is_disabled": 0, "lat": 38.9265215, "bike_id": "18b48f2f1408f0c2f542a94ca0c51fdd", "name": "18b48f2f1408f0c2f542a94ca0c51fdd", "is_reserved": 0, "fusion_lat": 0.0}, {"type": "electric_scooter", "rental_uris": {"ios": "https://dc.lft.to/lastmile_qr_scan", "android": "https://dc.lft.to/lastmile_qr_scan"}, "lon": -77.03212583333334, "fusion_lon": 0.0, "is_disabled": 0, "lat": 38.8922595, "bike_id": "54fed8dbbcfa49740cb26dfe2de66842", "name": "54fed8dbbcfa49740cb26dfe2de66842", "is_reserved": 0, "fusion_lat": 0.0}, {"type": "electric_scooter", "rental_uris": {"ios": "https://dc.lft.to/lastmile_qr_scan", "android": "https://dc.lft.to/lastmile_qr_scan"}, "lon": -77.01209166666666, "fusion_lon": 0.0, "is_disabled": 0, "lat": 38.89330483333333, "bike_id": "5ca83bd34da2d971a1369de87a257167", "name": "5ca83bd34da2d971a1369de87a257167", "is_reserved": 0, "fusion_lat": 0.0}, {"type": "electric_scooter", "rental_uris": {"ios": "https://dc.lft.to/lastmile_qr_scan", "android": "https://dc.lft.to/lastmile_qr_scan"}, "lon": -77.03434216666666, "fusion_lon": 0.0, "is_disabled": 0, "lat": 38.91840666666667, "bike_id": "2a6133f0c885c1a6400ce53af04f3320", "name": "2a6133f0c885c1a6400ce53af04f3320", "is_reserved": 0, "fusion_lat": 0.0}, {"type": "electric_bike", "rental_uris": {"ios": "https://dc.lft.to/lastmile_qr_scan", "android": "https://dc.lft.to/lastmile_qr_scan"}, "lon": -76.92371616666667, "fusion_lon": 0.0, "is_disabled": 0, "lat": 38.88374016666667, "bike_id": "490f74d1539a69be73f23399da134763", "name": "490f74d1539a69be73f23399da134763", "is_reserved": 0, "fusion_lat": 0.0}, {"type": "electric_scooter", "rental_uris": {"ios": "https://dc.lft.to/lastmile_qr_scan", "android": "https://dc.lft.to/lastmile_qr_scan"}, "lon": -77.0296605, "fusion_lon": 0.0, "is_disabled": 0, "lat": 38.9053105, "bike_id": "3f937e51e45755934b525ffb78b82f74", "name": "3f937e51e45755934b525ffb78b82f74", "is_reserved": 0, "fusion_lat": 0.0}, {"type": "electric_scooter", "rental_uris": {"ios": "https://dc.lft.to/lastmile_qr_scan", "android": "https://dc.lft.to/lastmile_qr_scan"}, "lon": -77.03695066666667, "fusion_lon": 0.0, "is_disabled": 0, "lat": 38.9363985, "bike_id": "50e4fdb5ad14eef4acc379fd925d59b0", "name": "50e4fdb5ad14eef4acc379fd925d59b0", "is_reserved": 0, "fusion_lat": 0.0}, {"type": "electric_scooter", "rental_uris": {"ios": "https://dc.lft.to/lastmile_qr_scan", "android": "https://dc.lft.to/lastmile_qr_scan"}, "lon": -77.0344075, "fusion_lon": 0.0, "is_disabled": 0, "lat": 38.90743533333333, "bike_id": "ac69e813170e81703cc01de0eaa1f969", "name": "ac69e813170e81703cc01de0eaa1f969", "is_reserved": 0, "fusion_lat": 0.0}, {"type": "electric_bike", "rental_uris": {"ios": "https://dc.lft.to/lastmile_qr_scan", "android": "https://dc.lft.to/lastmile_qr_scan"}, "lon": -76.9233065, "fusion_lon": 0.0, "is_disabled": 0, "lat": 38.8710715, "bike_id": "f1804a2197e5e4186b1bac2324f4be01", "name": "f1804a2197e5e4186b1bac2324f4be01", "is_reserved": 0, "fusion_lat": 0.0}, {"type": "electric_scooter", "rental_uris": {"ios": "https://dc.lft.to/lastmile_qr_scan", "android": "https://dc.lft.to/lastmile_qr_scan"}, "lon": -77.02399716666666, "fusion_lon": 0.0, "is_disabled": 0, "lat": 38.91750866666667, "bike_id": "7afd1ebab49ead7149fafcc0fda76459", "name": "7afd1ebab49ead7149fafcc0fda76459", "is_reserved": 0, "fusion_lat": 0.0}, {"type": "electric_scooter", "rental_uris": {"ios": "https://dc.lft.to/lastmile_qr_scan", "android": "https://dc.lft.to/lastmile_qr_scan"}, "lon": -76.98774883333333, "fusion_lon": 0.0, "is_disabled": 0, "lat": 38.89830333333333, "bike_id": "a4b7fcda085039532bf5c14f758d37cc", "name": "a4b7fcda085039532bf5c14f758d37cc", "is_reserved": 0, "fusion_lat": 0.0}, {"type": "electric_bike", "rental_uris": {"ios": "https://dc.lft.to/lastmile_qr_scan", "android": "https://dc.lft.to/lastmile_qr_scan"}, "lon": -77.09964866666667, "fusion_lon": 0.0, "is_disabled": 0, "lat": 38.9336395, "bike_id": "a5fda4591e2dfc6f113e5c1d29eb8fb8", "name": "a5fda4591e2dfc6f113e5c1d29eb8fb8", "is_reserved": 0, "fusion_lat": 0.0}, {"type": "electric_scooter", "rental_uris": {"ios": "https://dc.lft.to/lastmile_qr_scan", "android": "https://dc.lft.to/lastmile_qr_scan"}, "lon": -76.988857, "fusion_lon": 0.0, "is_disabled": 0, "lat": 38.86654733333334, "bike_id": "036a0840826c0ea07c62347306f5ba5f", "name": "036a0840826c0ea07c62347306f5ba5f", "is_reserved": 0, "fusion_lat": 0.0}, {"type": "electric_scooter", "rental_uris": {"ios": "https://dc.lft.to/lastmile_qr_scan", "android": "https://dc.lft.to/lastmile_qr_scan"}, "lon": -77.02741916666666, "fusion_lon": 0.0, "is_disabled": 0, "lat": 38.938631666666666, "bike_id": "a2323f318496b5e9dab3625410d97d2c", "name": "a2323f318496b5e9dab3625410d97d2c", "is_reserved": 0, "fusion_lat": 0.0}, {"type": "electric_scooter", "rental_uris": {"ios": "https://dc.lft.to/lastmile_qr_scan", "android": "https://dc.lft.to/lastmile_qr_scan"}, "lon": -77.05267416666666, "fusion_lon": 0.0, "is_disabled": 0, "lat": 38.925580833333335, "bike_id": "c869a2b02c33f8557506b6bd01fdac44", "name": "c869a2b02c33f8557506b6bd01fdac44", "is_reserved": 0, "fusion_lat": 0.0}, {"type": "electric_scooter", "rental_uris": {"ios": "https://dc.lft.to/lastmile_qr_scan", "android": "https://dc.lft.to/lastmile_qr_scan"}, "lon": -77.05231883333333, "fusion_lon": 0.0, "is_disabled": 0, "lat": 38.9234315, "bike_id": "bb18ce13a4e83a3da91dcdfb091dc65d", "name": "bb18ce13a4e83a3da91dcdfb091dc65d", "is_reserved": 0, "fusion_lat": 0.0}, {"type": "electric_scooter", "rental_uris": {"ios": "https://dc.lft.to/lastmile_qr_scan", "android": "https://dc.lft.to/lastmile_qr_scan"}, "lon": -77.02692733333333, "fusion_lon": 0.0, "is_disabled": 0, "lat": 38.911243666666664, "bike_id": "e28c89c57a6f778c490732a4d9e26318", "name": "e28c89c57a6f778c490732a4d9e26318", "is_reserved": 0, "fusion_lat": 0.0}, {"type": "electric_scooter", "rental_uris": {"ios": "https://dc.lft.to/lastmile_qr_scan", "android": "https://dc.lft.to/lastmile_qr_scan"}, "lon": -77.04226966666667, "fusion_lon": 0.0, "is_disabled": 0, "lat": 38.92202016666667, "bike_id": "cad60252ef998540796083256b518cbb", "name": "cad60252ef998540796083256b518cbb", "is_reserved": 0, "fusion_lat": 0.0}, {"type": "electric_scooter", "rental_uris": {"ios": "https://dc.lft.to/lastmile_qr_scan", "android": "https://dc.lft.to/lastmile_qr_scan"}, "lon": -77.04148483333333, "fusion_lon": 0.0, "is_disabled": 0, "lat": 38.892244, "bike_id": "66cd32db2ae4a512a16df4dea6c36626", "name": "66cd32db2ae4a512a16df4dea6c36626", "is_reserved": 0, "fusion_lat": 0.0}, {"type": "electric_bike", "rental_uris": {"ios": "https://dc.lft.to/lastmile_qr_scan", "android": "https://dc.lft.to/lastmile_qr_scan"}, "lon": -77.12730066666667, "fusion_lon": 0.0, "is_disabled": 0, "lat": 38.895626166666666, "bike_id": "24c2469404340724a2de784589201895", "name": "24c2469404340724a2de784589201895", "is_reserved": 0, "fusion_lat": 0.0}, {"type": "electric_scooter", "rental_uris": {"ios": "https://dc.lft.to/lastmile_qr_scan", "android": "https://dc.lft.to/lastmile_qr_scan"}, "lon": -77.032962, "fusion_lon": 0.0, "is_disabled": 0, "lat": 38.956387666666664, "bike_id": "b1c111606a5e28d81823f6b6adce7543", "name": "b1c111606a5e28d81823f6b6adce7543", "is_reserved": 0, "fusion_lat": 0.0}, {"type": "electric_scooter", "rental_uris": {"ios": "https://dc.lft.to/lastmile_qr_scan", "android": "https://dc.lft.to/lastmile_qr_scan"}, "lon": -77.0321595, "fusion_lon": 0.0, "is_disabled": 0, "lat": 38.892245, "bike_id": "50e99e6825db2a0232c417c262b09f9a", "name": "50e99e6825db2a0232c417c262b09f9a", "is_reserved": 0, "fusion_lat": 0.0}, {"type": "electric_scooter", "rental_uris": {"ios": "https://dc.lft.to/lastmile_qr_scan", "android": "https://dc.lft.to/lastmile_qr_scan"}, "lon": -77.03146616666666, "fusion_lon": 0.0, "is_disabled": 0, "lat": 38.91699533333333, "bike_id": "173747b5ebabe9b72c6590f67afb2f2d", "name": "173747b5ebabe9b72c6590f67afb2f2d", "is_reserved": 0, "fusion_lat": 0.0}, {"type": "electric_scooter", "rental_uris": {"ios": "https://dc.lft.to/lastmile_qr_scan", "android": "https://dc.lft.to/lastmile_qr_scan"}, "lon": -77.0415865, "fusion_lon": 0.0, "is_disabled": 0, "lat": 38.9142375, "bike_id": "4d9173248ec6de741c127e3c86f58f4c", "name": "4d9173248ec6de741c127e3c86f58f4c", "is_reserved": 0, "fusion_lat": 0.0}, {"type": "electric_scooter", "rental_uris": {"ios": "https://dc.lft.to/lastmile_qr_scan", "android": "https://dc.lft.to/lastmile_qr_scan"}, "lon": -77.022395, "fusion_lon": 0.0, "is_disabled": 0, "lat": 38.922374833333336, "bike_id": "ce1f94daca5b685ce95c3a4d12c35cc5", "name": "ce1f94daca5b685ce95c3a4d12c35cc5", "is_reserved": 0, "fusion_lat": 0.0}, {"type": "electric_scooter", "rental_uris": {"ios": "https://dc.lft.to/lastmile_qr_scan", "android": "https://dc.lft.to/lastmile_qr_scan"}, "lon": -77.03450833333333, "fusion_lon": 0.0, "is_disabled": 0, "lat": 38.918833166666666, "bike_id": "ac51c13eeaaa8706ef429680efd653d5", "name": "ac51c13eeaaa8706ef429680efd653d5", "is_reserved": 0, "fusion_lat": 0.0}, {"type": "electric_scooter", "rental_uris": {"ios": "https://dc.lft.to/lastmile_qr_scan", "android": "https://dc.lft.to/lastmile_qr_scan"}, "lon": -77.00069816666667, "fusion_lon": 0.0, "is_disabled": 0, "lat": 38.874053, "bike_id": "abf5b225f496cebba43fd47c4ad78602", "name": "abf5b225f496cebba43fd47c4ad78602", "is_reserved": 0, "fusion_lat": 0.0}, {"type": "electric_bike", "rental_uris": {"ios": "https://dc.lft.to/lastmile_qr_scan", "android": "https://dc.lft.to/lastmile_qr_scan"}, "lon": -77.22349483333333, "fusion_lon": 0.0, "is_disabled": 0, "lat": 38.91803816666667, "bike_id": "0c3cc41842278ba0c409238329bd4708", "name": "0c3cc41842278ba0c409238329bd4708", "is_reserved": 0, "fusion_lat": 0.0}, {"type": "electric_bike", "rental_uris": {"ios": "https://dc.lft.to/lastmile_qr_scan", "android": "https://dc.lft.to/lastmile_qr_scan"}, "lon": -77.095244, "fusion_lon": 0.0, "is_disabled": 0, "lat": 38.838115333333334, "bike_id": "95c623b1bd506f14f9761880e45cf4fd", "name": "95c623b1bd506f14f9761880e45cf4fd", "is_reserved": 0, "fusion_lat": 0.0}, {"type": "electric_scooter", "rental_uris": {"ios": "https://dc.lft.to/lastmile_qr_scan", "android": "https://dc.lft.to/lastmile_qr_scan"}, "lon": -77.01117683333334, "fusion_lon": 0.0, "is_disabled": 0, "lat": 38.920289833333335, "bike_id": "37109a30bb797b85f58b64c7321c4e7c", "name": "37109a30bb797b85f58b64c7321c4e7c", "is_reserved": 0, "fusion_lat": 0.0}, {"type": "electric_scooter", "rental_uris": {"ios": "https://dc.lft.to/lastmile_qr_scan", "android": "https://dc.lft.to/lastmile_qr_scan"},