{"data": {"bikes": [{"fusion_lat": 0.0, "name": "e61da745330b293082ca0428c8dfcc03", "is_disabled": 0, "rental_uris": {"android": "https://dc.lft.to/lastmile_qr_scan", "ios": "https://dc.lft.to/lastmile_qr_scan"}, "fusion_lon": 0.0, "lat": 38.861649666666665, "bike_id": "e61da745330b293082ca0428c8dfcc03", "type": "electric_scooter", "is_reserved": 0, "lon": -76.983664}, {"fusion_lat": 0.0, "name": "83ecac45fde26914aa8ea2e8a663767c", "is_disabled": 0, "rental_uris": {"android": "https://dc.lft.to/lastmile_qr_scan", "ios": "https://dc.lft.to/lastmile_qr_scan"}, "fusion_lon": 0.0, "lat": 38.92037166666667, "bike_id": "83ecac45fde26914aa8ea2e8a663767c", "type": "electric_scooter", "is_reserved": 0, "lon": -77.03142133333333}, {"fusion_lat": 0.0, "name": "eb86283b3688f82c7a539423f42f162d", "is_disabled": 0, "rental_uris": {"android": "https://dc.lft.to/lastmile_qr_scan", "ios": "https://dc.lft.to/lastmile_qr_scan"}, "fusion_lon": 0.0, "lat": 38.91302266666667, "bike_id": "eb86283b3688f82c7a539423f42f162d", "type": "electric_scooter", "is_reserved": 0, "lon": -77.048754}, {"fusion_lat": 0.0, "name": "0b907067580844912f4c6864d1cf9514", "is_disabled": 0, "rental_uris": {"android": "https://dc.lft.to/lastmile_qr_scan", "ios": "https://dc.lft.to/lastmile_qr_scan"}, "fusion_lon": 0.0, "lat": 38.89283233333333, "bike_id": "0b907067580844912f4c6864d1cf9514", "type": "electric_scooter", "is_reserved": 0, "lon": -76.98309583333334}, {"fusion_lat": 0.0, "name": "fc52da5882190234ce2bba86ba578fa3", "is_disabled": 0, "rental_uris": {"android": "https://dc.lft.to/lastmile_qr_scan", "ios": "https://dc.lft.to/lastmile_qr_scan"}, "fusion_lon": 0.0, "lat": 38.94229633333333, "bike_id": "fc52da5882190234ce2bba86ba578fa3", "type": "electric_bike", "is_reserved": 0, "lon": -77.013851}, {"fusion_lat": 0.0, "name": "1c05961925aece05af4923c5c2f13c9e", "is_disabled": 0, "rental_uris": {"android": "https://dc.lft.to/lastmile_qr_scan", "ios": "https://dc.lft.to/lastmile_qr_scan"}, "fusion_lon": 0.0, "lat": 38.9278325, "bike_id": "1c05961925aece05af4923c5c2f13c9e", "type": "electric_scooter", "is_reserved": 0, "lon": -77.0320205}, {"fusion_lat": 0.0, "name": "b1903c90632a445a7ebf93059224b62f", "is_disabled": 0, "rental_uris": {"android": "https://dc.lft.to/lastmile_qr_scan", "ios": "https://dc.lft.to/lastmile_qr_scan"}, "fusion_lon": 0.0, "lat": 38.92048833333333, "bike_id": "b1903c90632a445a7ebf93059224b62f", "type": "electric_scooter", "is_reserved": 0, "lon": -77.00209466666666}, {"fusion_lat": 0.0, "name": "28a79e3f61d01b747e2d1fb64912e306", "is_disabled": 0, "rental_uris": {"android": "https://dc.lft.to/lastmile_qr_scan", "ios": "https://dc.lft.to/lastmile_qr_scan"}, "fusion_lon": 0.0, "lat": 38.92502783333333, "bike_id": "28a79e3f61d01b747e2d1fb64912e306", "type": "electric_scooter", "is_reserved": 0, "lon": -77.02143116666667}, {"fusion_lat": 0.0, "name": "d61866f7c126d140d071505dcaccc14c", "is_disabled": 0, "rental_uris": {"android": "https://dc.lft.to/lastmile_qr_scan", "ios": "https://dc.lft.to/lastmile_qr_scan"}, "fusion_lon": 0.0, "lat": 38.91414566666667, "bike_id": "d61866f7c126d140d071505dcaccc14c", "type": "electric_scooter", "is_reserved": 0, "lon": -77.02216266666667}, {"fusion_lat": 0.0, "name": "ae83e6659e79be2ca0876fe3828ac6d9", "is_disabled": 0, "rental_uris": {"android": "https://dc.lft.to/lastmile_qr_scan", "ios": "https://dc.lft.to/lastmile_qr_scan"}, "fusion_lon": 0.0, "lat": 38.90826966666667, "bike_id": "ae83e6659e79be2ca0876fe3828ac6d9", "type": "electric_scooter", "is_reserved": 0, "lon": -76.98262283333334}, {"fusion_lat": 0.0, "name": "111f0821f86582e3dc2961c79cadeeb9", "is_disabled": 0, "rental_uris": {"android": "https://dc.lft.to/lastmile_qr_scan", "ios": "https://dc.lft.to/lastmile_qr_scan"}, "fusion_lon": 0.0, "lat": 38.918398333333336, "bike_id": "111f0821f86582e3dc2961c79cadeeb9", "type": "electric_scooter", "is_reserved": 0, "lon": -77.03518816666667}, {"fusion_lat": 0.0, "name": "536538fc33024bc23f2f7dcf5848b59f", "is_disabled": 0, "rental_uris": {"android": "https://dc.lft.to/lastmile_qr_scan", "ios": "https://dc.lft.to/lastmile_qr_scan"}, "fusion_lon": 0.0, "lat": 38.917652333333336, "bike_id": "536538fc33024bc23f2f7dcf5848b59f", "type": "electric_scooter", "is_reserved": 0, "lon": -77.03641333333333}, {"fusion_lat": 0.0, "name": "c651503e7e0521740eb27c3836b98acb", "is_disabled": 0, "rental_uris": {"android": "https://dc.lft.to/lastmile_qr_scan", "ios": "https://dc.lft.to/lastmile_qr_scan"}, "fusion_lon": 0.0, "lat": 38.9196715, "bike_id": "c651503e7e0521740eb27c3836b98acb", "type": "electric_scooter", "is_reserved": 0, "lon": -77.07086133333334}, {"fusion_lat": 0.0, "name": "faacbb71845309ace768596c57fc7bfd", "is_disabled": 0, "rental_uris": {"android": "https://dc.lft.to/lastmile_qr_scan", "ios": "https://dc.lft.to/lastmile_qr_scan"}, "fusion_lon": 0.0, "lat": 38.9156845, "bike_id": "faacbb71845309ace768596c57fc7bfd", "type": "electric_scooter", "is_reserved": 0, "lon": -77.0385285}, {"fusion_lat": 0.0, "name": "06e53ca43b9f99d1843954e441bade38", "is_disabled": 0, "rental_uris": {"android": "https://dc.lft.to/lastmile_qr_scan", "ios": "https://dc.lft.to/lastmile_qr_scan"}, "fusion_lon": 0.0, "lat": 38.9360005, "bike_id": "06e53ca43b9f99d1843954e441bade38", "type": "electric_scooter", "is_reserved": 0, "lon": -77.02285916666666}, {"fusion_lat": 0.0, "name": "4413eb6f295135f3bc2727b786203c94", "is_disabled": 0, "rental_uris": {"android": "https://dc.lft.to/lastmile_qr_scan", "ios": "https://dc.lft.to/lastmile_qr_scan"}, "fusion_lon": 0.0, "lat": 38.9072775, "bike_id": "4413eb6f295135f3bc2727b786203c94", "type": "electric_scooter", "is_reserved": 0, "lon": -77.04360416666667}, {"fusion_lat": 0.0, "name": "89512f4ee78cf650d92b6cba3283ed9f", "is_disabled": 0, "rental_uris": {"android": "https://dc.lft.to/lastmile_qr_scan", "ios": "https://dc.lft.to/lastmile_qr_scan"}, "fusion_lon": 0.0, "lat": 38.923796, "bike_id": "89512f4ee78cf650d92b6cba3283ed9f", "type": "electric_scooter", "is_reserved": 0, "lon": -77.07536333333333}, {"fusion_lat": 0.0, "name": "03d7af8c6ecd66ff92e1d0f53fba51aa", "is_disabled": 0, "rental_uris": {"android": "https://dc.lft.to/lastmile_qr_scan", "ios": "https://dc.lft.to/lastmile_qr_scan"}, "fusion_lon": 0.0, "lat": 38.89717866666667, "bike_id": "03d7af8c6ecd66ff92e1d0f53fba51aa", "type": "electric_scooter", "is_reserved": 0, "lon": -77.03173516666666}, {"fusion_lat": 0.0, "name": "b44d40bd07073afb777635047b89e66f", "is_disabled": 0, "rental_uris": {"android": "https://dc.lft.to/lastmile_qr_scan", "ios": "https://dc.lft.to/lastmile_qr_scan"}, "fusion_lon": 0.0, "lat": 38.920574333333334, "bike_id": "b44d40bd07073afb777635047b89e66f", "type": "electric_scooter", "is_reserved": 0, "lon": -77.02535916666666}, {"fusion_lat": 0.0, "name": "4b72d0354519754279bdf0b4cb6c72e9", "is_disabled": 0, "rental_uris": {"android": "https://dc.lft.to/lastmile_qr_scan", "ios": "https://dc.lft.to/lastmile_qr_scan"}, "fusion_lon": 0.0, "lat": 38.91698916666667, "bike_id": "4b72d0354519754279bdf0b4cb6c72e9", "type": "electric_scooter", "is_reserved": 0, "lon": -77.0117455}, {"fusion_lat": 0.0, "name": "040dbcadb5ed86e28a22026343f8d2dc", "is_disabled": 0, "rental_uris": {"android": "https://dc.lft.to/lastmile_qr_scan", "ios": "https://dc.lft.to/lastmile_qr_scan"}, "fusion_lon": 0.0, "lat": 38.9110255, "bike_id": "040dbcadb5ed86e28a22026343f8d2dc", "type": "electric_scooter", "is_reserved": 0, "lon": -77.01535866666667}, {"fusion_lat": 0.0, "name": "0d1f57e73b449b3bc70182dc3d31c3a7", "is_disabled": 0, "rental_uris": {"android": "https://dc.lft.to/lastmile_qr_scan", "ios": "https://dc.lft.to/lastmile_qr_scan"}, "fusion_lon": 0.0, "lat": 38.903826333333335, "bike_id": "0d1f57e73b449b3bc70182dc3d31c3a7", "type": "electric_scooter", "is_reserved": 0, "lon": -77.03210233333333}, {"fusion_lat": 0.0, "name": "c1a891ca57bade15a4ef5467f18b3790", "is_disabled": 0, "rental_uris": {"android": "https://dc.lft.to/lastmile_qr_scan", "ios": "https://dc.lft.to/lastmile_qr_scan"}, "fusion_lon": 0.0, "lat": 38.845082833333336, "bike_id": "c1a891ca57bade15a4ef5467f18b3790", "type": "electric_bike", "is_reserved": 0, "lon": -76.99353366666666}, {"fusion_lat": 0.0, "name": "4c4af96b7c9526dc85ef55373c6d9a5a", "is_disabled": 0, "rental_uris": {"android": "https://dc.lft.to/lastmile_qr_scan", "ios": "https://dc.lft.to/lastmile_qr_scan"}, "fusion_lon": 0.0, "lat": 38.898739, "bike_id": "4c4af96b7c9526dc85ef55373c6d9a5a", "type": "electric_scooter", "is_reserved": 0, "lon": -76.93185966666667}, {"fusion_lat": 0.0, "name": "082cdf376d70777f148601437abe08c8", "is_disabled": 0, "rental_uris": {"android": "https://dc.lft.to/lastmile_qr_scan", "ios": "https://dc.lft.to/lastmile_qr_scan"}, "fusion_lon": 0.0, "lat": 38.95383866666667, "bike_id": "082cdf376d70777f148601437abe08c8", "type": "electric_bike", "is_reserved": 0, "lon": -76.9796575}, {"fusion_lat": 0.0, "name": "d9a544d718a8f7f4d1a6e8437a023db5", "is_disabled": 0, "rental_uris": {"android": "https://dc.lft.to/lastmile_qr_scan", "ios": "https://dc.lft.to/lastmile_qr_scan"}, "fusion_lon": 0.0, "lat": 38.90030616666667, "bike_id": "d9a544d718a8f7f4d1a6e8437a023db5", "type": "electric_scooter", "is_reserved": 0, "lon": -76.989773}, {"fusion_lat": 0.0, "name": "c402c7b9bb7de2a0149f162aff33c2f6", "is_disabled": 0, "rental_uris": {"android": "https://dc.lft.to/lastmile_qr_scan", "ios": "https://dc.lft.to/lastmile_qr_scan"}, "fusion_lon": 0.0, "lat": 38.92135, "bike_id": "c402c7b9bb7de2a0149f162aff33c2f6", "type": "electric_scooter", "is_reserved": 0, "lon": -77.0470295}, {"fusion_lat": 0.0, "name": "50fb3809ce29907d760b4f9ba8da3fc3", "is_disabled": 0, "rental_uris": {"android": "https://dc.lft.to/lastmile_qr_scan", "ios": "https://dc.lft.to/lastmile_qr_scan"}, "fusion_lon": 0.0, "lat": 38.9027235, "bike_id": "50fb3809ce29907d760b4f9ba8da3fc3", "type": "electric_scooter", "is_reserved": 0, "lon": -76.97673}, {"fusion_lat": 0.0, "name": "b00adb069865794d40fa040f267b4fec", "is_disabled": 0, "rental_uris": {"android": "https://dc.lft.to/lastmile_qr_scan", "ios": "https://dc.lft.to/lastmile_qr_scan"}, "fusion_lon": 0.0, "lat": 38.92455483333333, "bike_id": "b00adb069865794d40fa040f267b4fec", "type": "electric_scooter", "is_reserved": 0, "lon": -77.0241035}, {"fusion_lat": 0.0, "name": "1806945fda52c02eb59746999f8aaa3b", "is_disabled": 0, "rental_uris": {"android": "https://dc.lft.to/lastmile_qr_scan", "ios": "https://dc.lft.to/lastmile_qr_scan"}, "fusion_lon": 0.0, "lat": 38.921426833333335, "bike_id": "1806945fda52c02eb59746999f8aaa3b", "type": "electric_scooter", "is_reserved": 0, "lon": -77.01804716666666}, {"fusion_lat": 0.0, "name": "1c759515a97606bc89fa42a2ad8748cf", "is_disabled": 0, "rental_uris": {"android": "https://dc.lft.to/lastmile_qr_scan", "ios": "https://dc.lft.to/lastmile_qr_scan"}, "fusion_lon": 0.0, "lat": 38.871781666666664, "bike_id": "1c759515a97606bc89fa42a2ad8748cf", "type": "electric_scooter", "is_reserved": 0, "lon": -77.00619766666667}, {"fusion_lat": 0.0, "name": "f38adfc481e45b5ccffc7145f7e6af1d", "is_disabled": 0, "rental_uris": {"android": "https://dc.lft.to/lastmile_qr_scan", "ios": "https://dc.lft.to/lastmile_qr_scan"}, "fusion_lon": 0.0, "lat": 38.91528566666667, "bike_id": "f38adfc481e45b5ccffc7145f7e6af1d", "type": "electric_scooter", "is_reserved": 0, "lon": -77.07271316666667}, {"fusion_lat": 0.0, "name": "0c90a5363ff282612f90409c20ccc7ef", "is_disabled": 0, "rental_uris": {"android": "https://dc.lft.to/lastmile_qr_scan", "ios": "https://dc.lft.to/lastmile_qr_scan"}, "fusion_lon": 0.0, "lat": 38.93492283333333, "bike_id": "0c90a5363ff282612f90409c20ccc7ef", "type": "electric_scooter", "is_reserved": 0, "lon": -77.04541416666666}, {"fusion_lat": 0.0, "name": "bc8105e7ce1a3730d10dc0de001fd716", "is_disabled": 0, "rental_uris": {"android": "https://dc.lft.to/lastmile_qr_scan", "ios": "https://dc.lft.to/lastmile_qr_scan"}, "fusion_lon": 0.0, "lat": 38.8710935, "bike_id": "bc8105e7ce1a3730d10dc0de001fd716", "type": "electric_scooter", "is_reserved": 0, "lon": -77.007404}, {"fusion_lat": 0.0, "name": "4140870c5e78a99d57196355cd5deede", "is_disabled": 0, "rental_uris": {"android": "https://dc.lft.to/lastmile_qr_scan", "ios": "https://dc.lft.to/lastmile_qr_scan"}, "fusion_lon": 0.0, "lat": 38.92347133333333, "bike_id": "4140870c5e78a99d57196355cd5deede", "type": "electric_scooter", "is_reserved": 0, "lon": -77.02016966666666}, {"fusion_lat": 0.0, "name": "d6335643df222f7acc0ebc6b6fb6f6d6", "is_disabled": 0, "rental_uris": {"android": "https://dc.lft.to/lastmile_qr_scan", "ios": "https://dc.lft.to/lastmile_qr_scan"}, "fusion_lon": 0.0, "lat": 38.929836333333334, "bike_id": "d6335643df222f7acc0ebc6b6fb6f6d6", "type": "electric_scooter", "is_reserved": 0, "lon": -77.0197835}, {"fusion_lat": 0.0, "name": "00e5b5d376ad24fed0f5901073d95d0d", "is_disabled": 0, "rental_uris": {"android": "https://dc.lft.to/lastmile_qr_scan", "ios": "https://dc.lft.to/lastmile_qr_scan"}, "fusion_lon": 0.0, "lat": 38.892100666666664, "bike_id": "00e5b5d376ad24fed0f5901073d95d0d", "type": "electric_scooter", "is_reserved": 0, "lon": -76.9971585}, {"fusion_lat": 0.0, "name": "9780c9d3d5cd87ef7a64cae301ccb663", "is_disabled": 0, "rental_uris": {"android": "https://dc.lft.to/lastmile_qr_scan", "ios": "https://dc.lft.to/lastmile_qr_scan"}, "fusion_lon": 0.0, "lat": 38.915984, "bike_id": "9780c9d3d5cd87ef7a64cae301ccb663", "type": "electric_scooter", "is_reserved": 0, "lon": -77.02207483333333}, {"fusion_lat": 0.0, "name": "43ba2852e17853971ed2c5d703e4f080", "is_disabled": 0, "rental_uris": {"android": "https://dc.lft.to/lastmile_qr_scan", "ios": "https://dc.lft.to/lastmile_qr_scan"}, "fusion_lon": 0.0, "lat": 38.95184183333333, "bike_id": "43ba2852e17853971ed2c5d703e4f080", "type": "electric_scooter", "is_reserved": 0, "lon": -77.027309}, {"fusion_lat": 0.0, "name": "4d50f0d426a17c7707de3eb7b66170c4", "is_disabled": 0, "rental_uris": {"android": "https://dc.lft.to/lastmile_qr_scan", "ios": "https://dc.lft.to/lastmile_qr_scan"}, "fusion_lon": 0.0, "lat": 38.920511833333336, "bike_id": "4d50f0d426a17c7707de3eb7b66170c4", "type": "electric_scooter", "is_reserved": 0, "lon": -77.02203266666666}, {"fusion_lat": 0.0, "name": "5f372cfbeb933ebf6f08ea3cc2112067", "is_disabled": 0, "rental_uris": {"android": "https://dc.lft.to/lastmile_qr_scan", "ios": "https://dc.lft.to/lastmile_qr_scan"}, "fusion_lon": 0.0, "lat": 38.877943, "bike_id": "5f372cfbeb933ebf6f08ea3cc2112067", "type": "electric_scooter", "is_reserved": 0, "lon": -77.00120533333333}, {"fusion_lat": 0.0, "name": "79474c251f00cf2f7c4d5b62727baa0a", "is_disabled": 0, "rental_uris": {"android": "https://dc.lft.to/lastmile_qr_scan", "ios": "https://dc.lft.to/lastmile_qr_scan"}, "fusion_lon": 0.0, "lat": 38.9081335, "bike_id": "79474c251f00cf2f7c4d5b62727baa0a", "type": "electric_scooter", "is_reserved": 0, "lon": -77.0384295}, {"fusion_lat": 0.0, "name": "6f7a69847ac7e511c1628fbc1de2c17b", "is_disabled": 0, "rental_uris": {"android": "https://dc.lft.to/lastmile_qr_scan", "ios": "https://dc.lft.to/lastmile_qr_scan"}, "fusion_lon": 0.0, "lat": 38.87947483333333, "bike_id": "6f7a69847ac7e511c1628fbc1de2c17b", "type": "electric_scooter", "is_reserved": 0, "lon": -77.00871266666667}, {"fusion_lat": 0.0, "name": "50e6b7a1856aa79b815b8f6911815d6d", "is_disabled": 0, "rental_uris": {"android": "https://dc.lft.to/lastmile_qr_scan", "ios": "https://dc.lft.to/lastmile_qr_scan"}, "fusion_lon": 0.0, "lat": 38.88393216666667, "bike_id": "50e6b7a1856aa79b815b8f6911815d6d", "type": "electric_bike", "is_reserved": 0, "lon": -76.95417133333333}, {"fusion_lat": 0.0, "name": "978978ec55a27e17a498812eacb8ee46", "is_disabled": 0, "rental_uris": {"android": "https://dc.lft.to/lastmile_qr_scan", "ios": "https://dc.lft.to/lastmile_qr_scan"}, "fusion_lon": 0.0, "lat": 38.8972675, "bike_id": "978978ec55a27e17a498812eacb8ee46", "type": "electric_scooter", "is_reserved": 0, "lon": -77.044282}, {"fusion_lat": 0.0, "name": "8773d829f44e35879313f7c8b7037d15", "is_disabled": 0, "rental_uris": {"android": "https://dc.lft.to/lastmile_qr_scan", "ios": "https://dc.lft.to/lastmile_qr_scan"}, "fusion_lon": 0.0, "lat": 38.883980333333334, "bike_id": "8773d829f44e35879313f7c8b7037d15", "type": "electric_bike", "is_reserved": 0, "lon": -76.9605215}, {"fusion_lat": 0.0, "name": "8d0bc413b843a04397860a847fc6aa86", "is_disabled": 0, "rental_uris": {"android": "https://dc.lft.to/lastmile_qr_scan", "ios": "https://dc.lft.to/lastmile_qr_scan"}, "fusion_lon": 0.0, "lat": 38.9199365, "bike_id": "8d0bc413b843a04397860a847fc6aa86", "type": "electric_scooter", "is_reserved": 0, "lon": -77.0237735}, {"fusion_lat": 0.0, "name": "c2f6d0aff89e480ff45bac4cb3be56f0", "is_disabled": 0, "rental_uris": {"android": "https://dc.lft.to/lastmile_qr_scan", "ios": "https://dc.lft.to/lastmile_qr_scan"}, "fusion_lon": 0.0, "lat": 38.909728, "bike_id": "c2f6d0aff89e480ff45bac4cb3be56f0", "type": "electric_scooter", "is_reserved": 0, "lon": -77.0319375}, {"fusion_lat": 0.0, "name": "e1e3eff6389f8e372226fd732bcb896e", "is_disabled": 0, "rental_uris": {"android": "https://dc.lft.to/lastmile_qr_scan", "ios": "https://dc.lft.to/lastmile_qr_scan"}, "fusion_lon": 0.0, "lat": 38.9091655, "bike_id": "e1e3eff6389f8e372226fd732bcb896e", "type": "electric_scooter", "is_reserved": 0, "lon": -77.04579483333333}, {"fusion_lat": 0.0, "name": "f18ca6f82ea0ec6c1910a43bc1491e4c", "is_disabled": 0, "rental_uris": {"android": "https://dc.lft.to/lastmile_qr_scan", "ios": "https://dc.lft.to/lastmile_qr_scan"}, "fusion_lon": 0.0, "lat": 38.908417666666665, "bike_id": "f18ca6f82ea0ec6c1910a43bc1491e4c", "type": "electric_scooter", "is_reserved": 0, "lon": -77.027002}, {"fusion_lat": 0.0, "name": "9e4963671ce92633542f46b1b5c8ddd9", "is_disabled": 0, "rental_uris": {"android": "https://dc.lft.to/lastmile_qr_scan", "ios": "https://dc.lft.to/lastmile_qr_scan"}, "fusion_lon": 0.0, "lat": 38.905088, "bike_id": "9e4963671ce92633542f46b1b5c8ddd9", "type": "electric_scooter", "is_reserved": 0, "lon": -77.02697266666667}, {"fusion_lat": 0.0, "name": "1d7d6544518e3a37d2023d8e4365d993", "is_disabled": 0, "rental_uris": {"android": "https://dc.lft.to/lastmile_qr_scan", "ios": "https://dc.lft.to/lastmile_qr_scan"}, "fusion_lon": 0.0, "lat": 38.8159735, "bike_id": "1d7d6544518e3a37d2023d8e4365d993", "type": "electric_bike", "is_reserved": 0, "lon": -77.050596}, {"fusion_lat": 0.0, "name": "c1e971cf74fef94294134a5f7f1b495e", "is_disabled": 0, "rental_uris": {"android": "https://dc.lft.to/lastmile_qr_scan", "ios": "https://dc.lft.to/lastmile_qr_scan"}, "fusion_lon": 0.0, "lat": 38.90495, "bike_id": "c1e971cf74fef94294134a5f7f1b495e", "type": "electric_scooter", "is_reserved": 0, "lon": -77.0297085}, {"fusion_lat": 0.0, "name": "cb22e1557bb58114b9dce856959c727b", "is_disabled": 0, "rental_uris": {"android": "https://dc.lft.to/lastmile_qr_scan", "ios": "https://dc.lft.to/lastmile_qr_scan"}, "fusion_lon": 0.0, "lat": 38.916092166666665, "bike_id": "cb22e1557bb58114b9dce856959c727b", "type": "electric_scooter", "is_reserved": 0, "lon": -77.01121366666666}, {"fusion_lat": 0.0, "name": "1eecfb3e748a29d9b1a2a23eb97d939f", "is_disabled": 0, "rental_uris": {"android": "https://dc.lft.to/lastmile_qr_scan", "ios": "https://dc.lft.to/lastmile_qr_scan"}, "fusion_lon": 0.0, "lat": 38.904011, "bike_id": "1eecfb3e748a29d9b1a2a23eb97d939f", "type": "electric_scooter", "is_reserved": 0, "lon": -77.06783933333334}, {"fusion_lat": 0.0, "name": "9bf861b13e83d30b91f5c755b2fa3fb7", "is_disabled": 0, "rental_uris": {"android": "https://dc.lft.to/lastmile_qr_scan", "ios": "https://dc.lft.to/lastmile_qr_scan"}, "fusion_lon": 0.0, "lat": 38.902620666666664, "bike_id": "9bf861b13e83d30b91f5c755b2fa3fb7", "type": "electric_scooter", "is_reserved": 0, "lon": -77.01776966666667}, {"fusion_lat": 0.0, "name": "1683f42066bbfd57dce89c50f6fb014a", "is_disabled": 0, "rental_uris": {"android": "https://dc.lft.to/lastmile_qr_scan", "ios": "https://dc.lft.to/lastmile_qr_scan"}, "fusion_lon": 0.0, "lat": 38.901801166666665, "bike_id": "1683f42066bbfd57dce89c50f6fb014a", "type": "electric_scooter", "is_reserved": 0, "lon": -77.02209383333333}, {"fusion_lat": 0.0, "name": "1dfcadf696d542409a7f96d277d3f173", "is_disabled": 0, "rental_uris": {"android": "https://dc.lft.to/lastmile_qr_scan", "ios": "https://dc.lft.to/lastmile_qr_scan"}, "fusion_lon": 0.0, "lat": 38.8570235, "bike_id": "1dfcadf696d542409a7f96d277d3f173", "type": "electric_scooter", "is_reserved": 0, "lon": -76.99601833333334}, {"fusion_lat": 0.0, "name": "01644df15c1edcddaddb0733dc131cd6", "is_disabled": 0, "rental_uris": {"android": "https://dc.lft.to/lastmile_qr_scan", "ios": "https://dc.lft.to/lastmile_qr_scan"}, "fusion_lon": 0.0, "lat": 38.91582966666667, "bike_id": "01644df15c1edcddaddb0733dc131cd6", "type": "electric_scooter", "is_reserved": 0, "lon": -77.03782116666666}, {"fusion_lat": 0.0, "name": "cffbbe3fd6eb9e0efa3e9e84dea0d08c", "is_disabled": 0, "rental_uris": {"android": "https://dc.lft.to/lastmile_qr_scan", "ios": "https://dc.lft.to/lastmile_qr_scan"}, "fusion_lon": 0.0, "lat": 38.924795833333334, "bike_id": "cffbbe3fd6eb9e0efa3e9e84dea0d08c", "type": "electric_scooter", "is_reserved": 0, "lon": -77.026603}, {"fusion_lat": 0.0, "name": "4e2f31596a2346abc146eeac028a0c8d", "is_disabled": 0, "rental_uris": {"android": "https://dc.lft.to/lastmile_qr_scan", "ios": "https://dc.lft.to/lastmile_qr_scan"}, "fusion_lon": 0.0, "lat": 38.93214666666667, "bike_id": "4e2f31596a2346abc146eeac028a0c8d", "type": "electric_scooter", "is_reserved": 0, "lon": -77.03346133333334}, {"fusion_lat": 0.0, "name": "0ceb6a739f96a68538e69b6a9c94baea", "is_disabled": 0, "rental_uris": {"android": "https://dc.lft.to/lastmile_qr_scan", "ios": "https://dc.lft.to/lastmile_qr_scan"}, "fusion_lon": 0.0, "lat": 38.8899025, "bike_id": "0ceb6a739f96a68538e69b6a9c94baea", "type": "electric_scooter", "is_reserved": 0, "lon": -76.98413783333334}, {"fusion_lat": 0.0, "name": "2ada22b919ed757aa7dea5b0a5dc1ca9", "is_disabled": 0, "rental_uris": {"android": "https://dc.lft.to/lastmile_qr_scan", "ios": "https://dc.lft.to/lastmile_qr_scan"}, "fusion_lon": 0.0, "lat": 38.902128833333336, "bike_id": "2ada22b919ed757aa7dea5b0a5dc1ca9", "type": "electric_scooter", "is_reserved": 0, "lon": -77.02304316666667}, {"fusion_lat": 0.0, "name": "d11b2b49bd00e8707d2da000d691c662", "is_disabled": 0, "rental_uris": {"android": "https://dc.lft.to/lastmile_qr_scan", "ios": "https://dc.lft.to/lastmile_qr_scan"}, "fusion_lon": 0.0, "lat": 38.927948, "bike_id": "d11b2b49bd00e8707d2da000d691c662", "type": "electric_scooter", "is_reserved": 0, "lon": -77.055307}, {"fusion_lat": 0.0, "name": "2aba67d132052d93dc8054d689e2ed76", "is_disabled": 0, "rental_uris": {"android": "https://dc.lft.to/lastmile_qr_scan", "ios": "https://dc.lft.to/lastmile_qr_scan"}, "fusion_lon": 0.0, "lat": 38.896382, "bike_id": "2aba67d132052d93dc8054d689e2ed76", "type": "electric_scooter", "is_reserved": 0, "lon": -77.00916133333334}, {"fusion_lat": 0.0, "name": "e04c90d96c6de628e36d6267b09460f2", "is_disabled": 0, "rental_uris": {"android": "https://dc.lft.to/lastmile_qr_scan", "ios": "https://dc.lft.to/lastmile_qr_scan"}, "fusion_lon": 0.0, "lat": 38.907279, "bike_id": "e04c90d96c6de628e36d6267b09460f2", "type": "electric_scooter", "is_reserved": 0, "lon": -77.0282725}, {"fusion_lat": 0.0, "name": "4e031b014607f09446aee313191b0286", "is_disabled": 0, "rental_uris": {"android": "https://dc.lft.to/lastmile_qr_scan", "ios": "https://dc.lft.to/lastmile_qr_scan"}, "fusion_lon": 0.0, "lat": 38.90447066666667, "bike_id": "4e031b014607f09446aee313191b0286", "type": "electric_scooter", "is_reserved": 0, "lon": -76.97424033333333}, {"fusion_lat": 0.0, "name": "ba051c8b389e20ec4614303e5975f729", "is_disabled": 0, "rental_uris": {"android": "https://dc.lft.to/lastmile_qr_scan", "ios": "https://dc.lft.to/lastmile_qr_scan"}, "fusion_lon": 0.0, "lat": 38.919222166666664, "bike_id": "ba051c8b389e20ec4614303e5975f729", "type": "electric_scooter", "is_reserved": 0, "lon": -77.02512633333333}, {"fusion_lat": 0.0, "name": "100fd2c71da4889836718b807843a366", "is_disabled": 0, "rental_uris": {"android": "https://dc.lft.to/lastmile_qr_scan", "ios": "https://dc.lft.to/lastmile_qr_scan"}, "fusion_lon": 0.0, "lat": 38.902200666666666, "bike_id": "100fd2c71da4889836718b807843a366", "type": "electric_scooter", "is_reserved": 0, "lon": -76.99509566666667}, {"fusion_lat": 0.0, "name": "48306a9ace6404153d7c4d6aa3996bec", "is_disabled": 0, "rental_uris": {"android": "https://dc.lft.to/lastmile_qr_scan", "ios": "https://dc.lft.to/lastmile_qr_scan"}, "fusion_lon": 0.0, "lat": 38.9026945, "bike_id": "48306a9ace6404153d7c4d6aa3996bec", "type": "electric_scooter", "is_reserved": 0, "lon": -77.03359983333333}, {"fusion_lat": 0.0, "name": "6e08f02ac6b1f0eb061c5d4ed80989c0", "is_disabled": 0, "rental_uris": {"android": "https://dc.lft.to/lastmile_qr_scan", "ios": "https://dc.lft.to/lastmile_qr_scan"}, "fusion_lon": 0.0, "lat": 38.907746833333334, "bike_id": "6e08f02ac6b1f0eb061c5d4ed80989c0", "type": "electric_scooter", "is_reserved": 0, "lon": -77.03859066666666}, {"fusion_lat": 0.0, "name": "d655f9538d6f5f91c15614dbb6a765c2", "is_disabled": 0, "rental_uris": {"android": "https://dc.lft.to/lastmile_qr_scan", "ios": "https://dc.lft.to/lastmile_qr_scan"}, "fusion_lon": 0.0, "lat": 38.915608, "bike_id": "d655f9538d6f5f91c15614dbb6a765c2", "type": "electric_scooter", "is_reserved": 0, "lon": -77.02225316666667}, {"fusion_lat": 0.0, "name": "a39ea832a5831afecae10467fc760b63", "is_disabled": 0, "rental_uris": {"android": "https://dc.lft.to/lastmile_qr_scan", "ios": "https://dc.lft.to/lastmile_qr_scan"}, "fusion_lon": 0.0, "lat": 38.90145066666667, "bike_id": "a39ea832a5831afecae10467fc760b63", "type": "electric_scooter", "is_reserved": 0, "lon": -77.00928}, {"fusion_lat": 0.0, "name": "95a5e24e9a3428f88609210ecd7b0bbe", "is_disabled": 0, "rental_uris": {"android": "https://dc.lft.to/lastmile_qr_scan", "ios": "https://dc.lft.to/lastmile_qr_scan"}, "fusion_lon": 0.0, "lat": 38.9339535, "bike_id": "95a5e24e9a3428f88609210ecd7b0bbe", "type": "electric_scooter", "is_reserved": 0, "lon": -77.05771016666667}, {"fusion_lat": 0.0, "name": "2477a98e61d43d0025f367e9b41fe20b", "is_disabled": 0, "rental_uris": {"android": "https://dc.lft.to/lastmile_qr_scan", "ios": "https://dc.lft.to/lastmile_qr_scan"}, "fusion_lon": 0.0, "lat": 38.928583833333334, "bike_id": "2477a98e61d43d0025f367e9b41fe20b", "type": "electric_scooter", "is_reserved": 0, "lon": -77.03222483333333}, {"fusion_lat": 0.0, "name": "6a2bb9f679ed98170fc0d46dbea45d70", "is_disabled": 0, "rental_uris": {"android": "https://dc.lft.to/lastmile_qr_scan", "ios": "https://dc.lft.to/lastmile_qr_scan"}, "fusion_lon": 0.0, "lat": 38.924969, "bike_id": "6a2bb9f679ed98170fc0d46dbea45d70", "type": "electric_scooter", "is_reserved": 0, "lon": -77.05110866666666}, {"fusion_lat": 0.0, "name": "5d8d33c7b205d07fa1ec1c4fb7d99402", "is_disabled": 0, "rental_uris": {"android": "https://dc.lft.to/lastmile_qr_scan", "ios": "https://dc.lft.to/lastmile_qr_scan"}, "fusion_lon": 0.0, "lat": 38.9380945, "bike_id": "5d8d33c7b205d07fa1ec1c4fb7d99402", "type": "electric_scooter", "is_reserved": 0, "lon": -77.060196}, {"fusion_lat": 0.0, "name": "857660223b8d1f8999c705fca2931872", "is_disabled": 0, "rental_uris": {"android": "https://dc.lft.to/lastmile_qr_scan", "ios": "https://dc.lft.to/lastmile_qr_scan"}, "fusion_lon": 0.0, "lat": 38.9019915, "bike_id": "857660223b8d1f8999c705fca2931872", "type": "electric_scooter", "is_reserved": 0, "lon": -76.98846016666667}, {"fusion_lat": 0.0, "name": "df8439d198eb4467a6126879fc3be6eb", "is_disabled": 0, "rental_uris": {"android": "https://dc.lft.to/lastmile_qr_scan", "ios": "https://dc.lft.to/lastmile_qr_scan"}, "fusion_lon": 0.0, "lat": 38.92033416666666, "bike_id": "df8439d198eb4467a6126879fc3be6eb", "type": "electric_scooter", "is_reserved": 0, "lon": -77.0178775}, {"fusion_lat": 0.0, "name": "3afb919ed71a3e2b27e0b102268a017a", "is_disabled": 0, "rental_uris": {"android": "https://dc.lft.to/lastmile_qr_scan", "ios": "https://dc.lft.to/lastmile_qr_scan"}, "fusion_lon": 0.0, "lat": 38.8873165, "bike_id": "3afb919ed71a3e2b27e0b102268a017a", "type": "electric_scooter", "is_reserved": 0, "lon": -77.02582266666667}, {"fusion_lat": 0.0, "name": "0ed7876d303458c7dc4e853dba93aece", "is_disabled": 0, "rental_uris": {"android": "https://dc.lft.to/lastmile_qr_scan", "ios": "https://dc.lft.to/lastmile_qr_scan"}, "fusion_lon": 0.0, "lat": 38.87624916666667, "bike_id": "0ed7876d303458c7dc4e853dba93aece", "type": "electric_scooter", "is_reserved": 0, "lon": -77.00111783333334}, {"fusion_lat": 0.0, "name": "ab2966345162e9b56a43eb18ed9425d8", "is_disabled": 0, "rental_uris": {"android": "https://dc.lft.to/lastmile_qr_scan", "ios": "https://dc.lft.to/lastmile_qr_scan"}, "fusion_lon": 0.0, "lat": 38.934557, "bike_id": "ab2966345162e9b56a43eb18ed9425d8", "type": "electric_scooter", "is_reserved": 0, "lon": -77.07268}, {"fusion_lat": 0.0, "name": "e6a52c53819c0f77c3d7d821c1d9bc01", "is_disabled": 0, "rental_uris": {"android": "https://dc.lft.to/lastmile_qr_scan", "ios": "https://dc.lft.to/lastmile_qr_scan"}, "fusion_lon": 0.0, "lat": 38.95730783333333, "bike_id": "e6a52c53819c0f77c3d7d821c1d9bc01", "type": "electric_scooter", "is_reserved": 0, "lon": -77.02406666666667}, {"fusion_lat": 0.0, "name": "9a19ff21af7d115102d9ee7fb2f2e5c1", "is_disabled": 0, "rental_uris": {"android": "https://dc.lft.to/lastmile_qr_scan", "ios": "https://dc.lft.to/lastmile_qr_scan"}, "fusion_lon": 0.0, "lat": 38.91830066666667, "bike_id": "9a19ff21af7d115102d9ee7fb2f2e5c1", "type": "electric_scooter", "is_reserved": 0, "lon": -77.02386183333333}, {"fusion_lat": 0.0, "name": "2b7c013fb1ece95a03c0ae89d71d87f1", "is_disabled": 0, "rental_uris": {"android": "https://dc.lft.to/lastmile_qr_scan", "ios": "https://dc.lft.to/lastmile_qr_scan"}, "fusion_lon": 0.0, "lat": 38.891606, "bike_id": "2b7c013fb1ece95a03c0ae89d71d87f1", "type": "electric_bike", "is_reserved": 0, "lon": -77.00466783333333}, {"fusion_lat": 0.0, "name": "20f5db4d2cd91c4d5b1213531cd88a49", "is_disabled": 0, "rental_uris": {"android": "https://dc.lft.to/lastmile_qr_scan", "ios": "https://dc.lft.to/lastmile_qr_scan"}, "fusion_lon": 0.0, "lat": 38.901798, "bike_id": "20f5db4d2cd91c4d5b1213531cd88a49", "type": "electric_scooter", "is_reserved": 0, "lon": -76.94146166666667}, {"fusion_lat": 0.0, "name": "7625bfaad28c938ec29b2b68f0071578", "is_disabled": 0, "rental_uris": {"android": "https://dc.lft.to/lastmile_qr_scan", "ios": "https://dc.lft.to/lastmile_qr_scan"}, "fusion_lon": 0.0, "lat": 38.945123833333334, "bike_id": "7625bfaad28c938ec29b2b68f0071578", "type": "electric_bike", "is_reserved": 0, "lon": -77.00676316666667}, {"fusion_lat": 0.0, "name": "439f96b781f298b7077919a3a8547a51", "is_disabled": 0, "rental_uris": {"android": "https://dc.lft.to/lastmile_qr_scan", "ios": "https://dc.lft.to/lastmile_qr_scan"}, "fusion_lon": 0.0, "lat": 38.89744116666667, "bike_id": "439f96b781f298b7077919a3a8547a51", "type": "electric_scooter", "is_reserved": 0, "lon": -77.0000865}, {"fusion_lat": 0.0, "name": "5ee291d84b200ef47bd21dea4d939123", "is_disabled": 0, "rental_uris": {"android": "https://dc.lft.to/lastmile_qr_scan", "ios": "https://dc.lft.to/lastmile_qr_scan"}, "fusion_lon": 0.0, "lat": 38.88126533333333, "bike_id": "5ee291d84b200ef47bd21dea4d939123", "type": "electric_scooter", "is_reserved": 0, "lon": -76.9928865}, {"fusion_lat": 0.0, "name": "240325d204f62b6a4a4eeef060acf848", "is_disabled": 0, "rental_uris": {"android": "https://dc.lft.to/lastmile_qr_scan", "ios": "https://dc.lft.to/lastmile_qr_scan"}, "fusion_lon": 0.0, "lat": 38.900352, "bike_id": "240325d204f62b6a4a4eeef060acf848", "type": "electric_scooter", "is_reserved": 0, "lon": -77.01192666666667}, {"fusion_lat": 0.0, "name": "63b1735b37c6ffea2541a34cf296f7b0", "is_disabled": 0, "rental_uris": {"android": "https://dc.lft.to/lastmile_qr_scan", "ios": "https://dc.lft.to/lastmile_qr_scan"}, "fusion_lon": 0.0, "lat": 38.90521733333333, "bike_id": "63b1735b37c6ffea2541a34cf296f7b0", "type": "electric_scooter", "is_reserved": 0, "lon": -77.03468966666667}, {"fusion_lat": 0.0, "name": "e8de5c429f933f82a2b65630fa7d2e06", "is_disabled": 0, "rental_uris": {"android": "https://dc.lft.to/lastmile_qr_scan", "ios": "https://dc.lft.to/lastmile_qr_scan"}, "fusion_lon": 0.0, "lat": 38.91639083333333, "bike_id": "e8de5c429f933f82a2b65630fa7d2e06", "type": "electric_scooter", "is_reserved": 0, "lon": -77.048144}, {"fusion_lat": 0.0, "name": "f97c9c16be636ed389dd6cd3664e3760", "is_disabled": 0, "rental_uris": {"android": "https://dc.lft.to/lastmile_qr_scan", "ios": "https://dc.lft.to/lastmile_qr_scan"}, "fusion_lon": 0.0, "lat": 38.918225166666666, "bike_id": "f97c9c16be636ed389dd6cd3664e3760", "type": "electric_scooter", "is_reserved": 0, "lon": -77.02536116666667}, {"fusion_lat": 0.0, "name": "81be551e8d4834e30b3f28fd035f704d", "is_disabled": 0, "rental_uris": {"android": "https://dc.lft.to/lastmile_qr_scan", "ios": "https://dc.lft.to/lastmile_qr_scan"}, "fusion_lon": 0.0, "lat": 38.897875166666665, "bike_id": "81be551e8d4834e30b3f28fd035f704d", "type": "electric_scooter", "is_reserved": 0, "lon": -76.93119133333333}, {"fusion_lat": 0.0, "name": "dc96479e7f222cf18bc071f49cb8a43d", "is_disabled": 0, "rental_uris": {"android": "https://dc.lft.to/lastmile_qr_scan", "ios": "https://dc.lft.to/lastmile_qr_scan"}, "fusion_lon": 0.0, "lat": 38.9322015, "bike_id": "dc96479e7f222cf18bc071f49cb8a43d", "type": "electric_scooter", "is_reserved": 0, "lon": -77.03348483333333}, {"fusion_lat": 0.0, "name": "9f32fbca730427c97e957981e95aa3b9", "is_disabled": 0, "rental_uris": {"android": "https://dc.lft.to/lastmile_qr_scan", "ios": "https://dc.lft.to/lastmile_qr_scan"}, "fusion_lon": 0.0, "lat": 38.86246833333333, "bike_id": "9f32fbca730427c97e957981e95aa3b9", "type": "electric_scooter", "is_reserved": 0, "lon": -76.9949855}, {"fusion_lat": 0.0, "name": "5a8fdcf923e4ed24411a48d2f9ebec2f", "is_disabled": 0, "rental_uris": {"android": "https://dc.lft.to/lastmile_qr_scan", "ios": "https://dc.lft.to/lastmile_qr_scan"}, "fusion_lon": 0.0, "lat": 38.900227, "bike_id": "5a8fdcf923e4ed24411a48d2f9ebec2f", "type": "electric_scooter", "is_reserved": 0, "lon": -76.99862216666666}, {"fusion_lat": 0.0, "name": "e6f3d3c6e6ffc054d697a78dd1be2c55", "is_disabled": 0, "rental_uris": {"android": "https://dc.lft.to/lastmile_qr_scan", "ios": "https://dc.lft.to/lastmile_qr_scan"}, "fusion_lon": 0.0, "lat": 38.916677, "bike_id": "e6f3d3c6e6ffc054d697a78dd1be2c55", "type": "electric_scooter", "is_reserved": 0, "lon": -77.03863}, {"fusion_lat": 0.0, "name": "dc60a08c6abf57301188e7c0e60b003a", "is_disabled": 0, "rental_uris": {"android": "https://dc.lft.to/lastmile_qr_scan", "ios": "https://dc.lft.to/lastmile_qr_scan"}, "fusion_lon": 0.0, "lat": 38.88656366666667, "bike_id": "dc60a08c6abf57301188e7c0e60b003a", "type": "electric_scooter", "is_reserved": 0, "lon": -77.00109716666667}, {"fusion_lat": 0.0, "name": "d1e5e8990f676c3ab3b69f9663f88ee7", "is_disabled": 0, "rental_uris": {"android": "https://dc.lft.to/lastmile_qr_scan", "ios": "https://dc.lft.to/lastmile_qr_scan"}, "fusion_lon": 0.0, "lat": 38.91448333333334, "bike_id": "d1e5e8990f676c3ab3b69f9663f88ee7", "type": "electric_scooter", "is_reserved": 0, "lon": -77.00207816666666}, {"fusion_lat": 0.0, "name": "296aba8860d3d4f407bfb5f9ec770192", "is_disabled": 0, "rental_uris": {"android": "https://dc.lft.to/lastmile_qr_scan", "ios": "https://dc.lft.to/lastmile_qr_scan"}, "fusion_lon": 0.0, "lat": 38.90983883333333, "bike_id": "296aba8860d3d4f407bfb5f9ec770192", "type": "electric_scooter", "is_reserved": 0, "lon": -77.03382233333333}, {"fusion_lat": 0.0, "name": "bf2ff79a293c393160131e17026710f9", "is_disabled": 0, "rental_uris": {"android": "https://dc.lft.to/lastmile_qr_scan", "ios": "https://dc.lft.to/lastmile_qr_scan"}, "fusion_lon": 0.0, "lat": 38.89628033333334, "bike_id": "bf2ff79a293c393160131e17026710f9", "type": "electric_scooter", "is_reserved": 0, "lon": -77.03224533333334}, {"fusion_lat": 0.0, "name": "1c4531161c9fc5c73d954c136b11a2fc", "is_disabled": 0, "rental_uris": {"android": "https://dc.lft.to/lastmile_qr_scan", "ios": "https://dc.lft.to/lastmile_qr_scan"}, "fusion_lon": 0.0, "lat": 38.897302333333336, "bike_id": "1c4531161c9fc5c73d954c136b11a2fc", "type": "electric_scooter", "is_reserved": 0, "lon": -77.00428616666666}, {"fusion_lat": 0.0, "name": "676fb23e312712edf1a73a9dc02628ec", "is_disabled": 0, "rental_uris": {"android": "https://dc.lft.to/lastmile_qr_scan", "ios": "https://dc.lft.to/lastmile_qr_scan"}, "fusion_lon": 0.0, "lat": 38.864258, "bike_id": "676fb23e312712edf1a73a9dc02628ec", "type": "electric_scooter", "is_reserved": 0, "lon": -76.97424266666667}, {"fusion_lat": 0.0, "name": "55299f5cdcc2be495cc0e81951fbc1bc", "is_disabled": 0, "rental_uris": {"android": "https://dc.lft.to/lastmile_qr_scan", "ios": "https://dc.lft.to/lastmile_qr_scan"}, "fusion_lon": 0.0, "lat": 38.85357366666667, "bike_id": "55299f5cdcc2be495cc0e81951fbc1bc", "type": "electric_bike", "is_reserved": 0, "lon": -77.13457516666666}, {"fusion_lat": 0.0, "name": "7d0c3a1c50583d3e85c243ed35faf166", "is_disabled": 0, "rental_uris": {"android": "https://dc.lft.to/lastmile_qr_scan", "ios": "https://dc.lft.to/lastmile_qr_scan"}, "fusion_lon": 0.0, "lat": 38.883905166666665, "bike_id": "7d0c3a1c50583d3e85c243ed35faf166", "type": "electric_scooter", "is_reserved": 0, "lon": -76.93045983333333}, {"fusion_lat": 0.0, "name": "c626e906c2a7dcee31cfcae77a8b60f6", "is_disabled": 0, "rental_uris": {"android": "https://dc.lft.to/lastmile_qr_scan", "ios": "https://dc.lft.to/lastmile_qr_scan"}, "fusion_lon": 0.0, "lat": 38.92246883333333, "bike_id": "c626e906c2a7dcee31cfcae77a8b60f6", "type": "electric_scooter", "is_reserved": 0, "lon": -77.08083316666666}, {"fusion_lat": 0.0, "name": "cfe5a43bbdd4378f185e8953537f0fa3", "is_disabled": 0, "rental_uris": {"android": "https://dc.lft.to/lastmile_qr_scan", "ios": "https://dc.lft.to/lastmile_qr_scan"}, "fusion_lon": 0.0, "lat": 38.903666333333334, "bike_id": "cfe5a43bbdd4378f185e8953537f0fa3", "type": "electric_scooter", "is_reserved": 0, "lon": -77.0671665}, {"fusion_lat": 0.0, "name": "ce3e461fce16eab343148779cd940e14", "is_disabled": 0, "rental_uris": {"android": "https://dc.lft.to/lastmile_qr_scan", "ios": "https://dc.lft.to/lastmile_qr_scan"}, "fusion_lon": 0.0, "lat": 38.8967495, "bike_id": "ce3e461fce16eab343148779cd940e14", "type": "electric_scooter", "is_reserved": 0, "lon": -77.0051885}, {"fusion_lat": 0.0, "name": "3b01aace58b4532c805379696b68f907", "is_disabled": 0, "rental_uris": {"android": "https://dc.lft.to/lastmile_qr_scan", "ios": "https://dc.lft.to/lastmile_qr_scan"}, "fusion_lon": 0.0, "lat": 38.915517333333334, "bike_id": "3b01aace58b4532c805379696b68f907", "type": "electric_scooter", "is_reserved": 0, "lon": -77.04111983333334}, {"fusion_lat": 0.0, "name": "bcd4b103422c70ec48284b82abab4b35", "is_disabled": 0, "rental_uris": {"android": "https://dc.lft.to/lastmile_qr_scan", "ios": "https://dc.lft.to/lastmile_qr_scan"}, "fusion_lon": 0.0, "lat": 38.896491166666664, "bike_id": "bcd4b103422c70ec48284b82abab4b35", "type": "electric_scooter", "is_reserved": 0, "lon": -77.05001066666667}, {"fusion_lat": 0.0, "name": "89779720bcc566c9722de5ae5e9490fd", "is_disabled": 0, "rental_uris": {"android": "https://dc.lft.to/lastmile_qr_scan", "ios": "https://dc.lft.to/lastmile_qr_scan"}, "fusion_lon": 0.0, "lat": 38.9091175, "bike_id": "89779720bcc566c9722de5ae5e9490fd", "type": "electric_scooter", "is_reserved": 0, "lon": -77.04480866666667}, {"fusion_lat": 0.0, "name": "17fb6c9a864db68244951b9f1e000a7a", "is_disabled": 0, "rental_uris": {"android": "https://dc.lft.to/lastmile_qr_scan", "ios": "https://dc.lft.to/lastmile_qr_scan"}, "fusion_lon": 0.0, "lat": 38.95893066666667, "bike_id": "17fb6c9a864db68244951b9f1e000a7a", "type": "electric_scooter", "is_reserved": 0, "lon": -77.0276265}, {"fusion_lat": 0.0, "name": "4f08edd863ea96ab3747e206b4916e1d", "is_disabled": 0, "rental_uris": {"android": "https://dc.lft.to/lastmile_qr_scan", "ios": "https://dc.lft.to/lastmile_qr_scan"}, "fusion_lon": 0.0, "lat": 38.813331833333336, "bike_id": "4f08edd863ea96ab3747e206b4916e1d", "type": "electric_bike", "is_reserved": 0, "lon": -77.05087516666667}, {"fusion_lat": 0.0, "name": "6f5def05fe4d9db45e3368847d80a9a6", "is_disabled": 0, "rental_uris": {"android": "https://dc.lft.to/lastmile_qr_scan", "ios": "https://dc.lft.to/lastmile_qr_scan"}, "fusion_lon": 0.0, "lat": 38.90529, "bike_id": "6f5def05fe4d9db45e3368847d80a9a6", "type": "electric_scooter", "is_reserved": 0, "lon": -77.0347835}, {"fusion_lat": 0.0, "name": "ff3c7e47a774bdea8a8b0ca0563d5766", "is_disabled": 0, "rental_uris": {"android": "https://dc.lft.to/lastmile_qr_scan", "ios": "https://dc.lft.to/lastmile_qr_scan"}, "fusion_lon": 0.0, "lat": 38.8736365, "bike_id": "ff3c7e47a774bdea8a8b0ca0563d5766", "type": "electric_scooter", "is_reserved": 0, "lon": -77.00097316666667}, {"fusion_lat": 0.0, "name": "2e41bb6715327bcb36383a0281bb5d33", "is_disabled": 0, "rental_uris": {"android": "https://dc.lft.to/lastmile_qr_scan", "ios": "https://dc.lft.to/lastmile_qr_scan"}, "fusion_lon": 0.0, "lat": 38.866541833333336, "bike_id": "2e41bb6715327bcb36383a0281bb5d33", "type": "electric_scooter", "is_reserved": 0, "lon": -76.98522883333334}, {"fusion_lat": 0.0, "name": "bbdb50a465708e8461d81e75fdec962c", "is_disabled": 0, "rental_uris": {"android": "https://dc.lft.to/lastmile_qr_scan", "ios": "https://dc.lft.to/lastmile_qr_scan"}, "fusion_lon": 0.0, "lat": 38.89725033333333, "bike_id": "bbdb50a465708e8461d81e75fdec962c", "type": "electric_scooter", "is_reserved": 0, "lon": -77.0079625}, {"fusion_lat": 0.0, "name": "c0f69598c53d47b8ed0c01b8f6df8b19", "is_disabled": 0, "rental_uris": {"android": "https://dc.lft.to/lastmile_qr_scan", "ios": "https://dc.lft.to/lastmile_qr_scan"}, "fusion_lon": 0.0, "lat": 38.923238166666664, "bike_id": "c0f69598c53d47b8ed0c01b8f6df8b19", "type": "electric_scooter", "is_reserved": 0, "lon": -77.0296145}, {"fusion_lat": 0.0, "name": "3c7058962046a22da73a8d8a414cb13b", "is_disabled": 0, "rental_uris": {"android": "https://dc.lft.to/lastmile_qr_scan", "ios": "https://dc.lft.to/lastmile_qr_scan"}, "fusion_lon": 0.0, "lat": 38.93107833333333, "bike_id": "3c7058962046a22da73a8d8a414cb13b", "type": "electric_scooter", "is_reserved": 0, "lon": -77.037914}, {"fusion_lat": 0.0, "name": "fdaaeb68631cddd881da7c5da732e6ad", "is_disabled": 0, "rental_uris": {"android": "https://dc.lft.to/lastmile_qr_scan", "ios": "https://dc.lft.to/lastmile_qr_scan"}, "fusion_lon": 0.0, "lat": 38.93273383333333, "bike_id": "fdaaeb68631cddd881da7c5da732e6ad", "type": "electric_scooter", "is_reserved": 0, "lon": -77.045437}, {"fusion_lat": 0.0, "name": "016ae691e0e9e98a0c2d7ebf4c30ce1e", "is_disabled": 0, "rental_uris": {"android": "https://dc.lft.to/lastmile_qr_scan", "ios": "https://dc.lft.to/lastmile_qr_scan"}, "fusion_lon": 0.0, "lat": 38.877155, "bike_id": "016ae691e0e9e98a0c2d7ebf4c30ce1e", "type": "electric_scooter", "is_reserved": 0, "lon": -77.01761366666666}, {"fusion_lat": 0.0, "name": "b655905f7bd6f2b5edbe3fe4b65f0c1d", "is_disabled": 0, "rental_uris": {"android": "https://dc.lft.to/lastmile_qr_scan", "ios": "https://dc.lft.to/lastmile_qr_scan"}, "fusion_lon": 0.0, "lat": 38.900032333333336, "bike_id": "b655905f7bd6f2b5edbe3fe4b65f0c1d", "type": "electric_scooter", "is_reserved": 0, "lon": -77.04111333333333}, {"fusion_lat": 0.0, "name": "2a1b146383f378057a2f030a08e91aeb", "is_disabled": 0, "rental_uris": {"android": "https://dc.lft.to/lastmile_qr_scan", "ios": "https://dc.lft.to/lastmile_qr_scan"}, "fusion_lon": 0.0, "lat": 38.924501, "bike_id": "2a1b146383f378057a2f030a08e91aeb", "type": "electric_scooter", "is_reserved": 0, "lon": -77.040228}, {"fusion_lat": 0.0, "name": "e6a6039020ad66160eb00077411a711a", "is_disabled": 0, "rental_uris": {"android": "https://dc.lft.to/lastmile_qr_scan", "ios": "https://dc.lft.to/lastmile_qr_scan"}, "fusion_lon": 0.0, "lat": 38.917139666666664, "bike_id": "e6a6039020ad66160eb00077411a711a", "type": "electric_scooter", "is_reserved": 0, "lon": -77.03858816666667}, {"fusion_lat": 0.0, "name": "e2f25aa5e7a5199d630f0c78c1d4fe5a", "is_disabled": 0, "rental_uris": {"android": "https://dc.lft.to/lastmile_qr_scan", "ios": "https://dc.lft.to/lastmile_qr_scan"}, "fusion_lon": 0.0, "lat": 38.92613866666667, "bike_id": "e2f25aa5e7a5199d630f0c78c1d4fe5a", "type": "electric_scooter", "is_reserved": 0, "lon": -77.0396375}, {"fusion_lat": 0.0, "name": "64c8233496ce009908a4d5e1e358288e", "is_disabled": 0, "rental_uris": {"android": "https://dc.lft.to/lastmile_qr_scan", "ios": "https://dc.lft.to/lastmile_qr_scan"}, "fusion_lon": 0.0, "lat": 38.915473166666665, "bike_id": "64c8233496ce009908a4d5e1e358288e", "type": "electric_scooter", "is_reserved": 0, "lon": -77.0384835}, {"fusion_lat": 0.0, "name": "286979fc83b5a6450ef8a4d6fcd110b4", "is_disabled": 0, "rental_uris": {"android": "https://dc.lft.to/lastmile_qr_scan", "ios": "https://dc.lft.to/lastmile_qr_scan"}, "fusion_lon": 0.0, "lat": 38.921043, "bike_id": "286979fc83b5a6450ef8a4d6fcd110b4", "type": "electric_scooter", "is_reserved": 0, "lon": -77.0747245}, {"fusion_lat": 0.0, "name": "e8a6c4bc54c9f9ca2309fc7c27ed9b88", "is_disabled": 0, "rental_uris": {"android": "https://dc.lft.to/lastmile_qr_scan", "ios": "https://dc.lft.to/lastmile_qr_scan"}, "fusion_lon": 0.0, "lat": 38.86519283333333, "bike_id": "e8a6c4bc54c9f9ca2309fc7c27ed9b88", "type": "electric_bike", "is_reserved": 0, "lon": -76.97335166666667}, {"fusion_lat": 0.0, "name": "abd0682b8af71dc1f0c5061addbbeb60", "is_disabled": 0, "rental_uris": {"android": "https://dc.lft.to/lastmile_qr_scan", "ios": "https://dc.lft.to/lastmile_qr_scan"}, "fusion_lon": 0.0, "lat": 38.92605783333333, "bike_id": "abd0682b8af71dc1f0c5061addbbeb60", "type": "electric_scooter", "is_reserved": 0, "lon": -77.03962633333333}, {"fusion_lat": 0.0, "name": "759434ee59c162a335ce733eae217688", "is_disabled": 0, "rental_uris": {"android": "https://dc.lft.to/lastmile_qr_scan", "ios": "https://dc.lft.to/lastmile_qr_scan"}, "fusion_lon": 0.0, "lat": 38.9181365, "bike_id": "759434ee59c162a335ce733eae217688", "type": "electric_scooter", "is_reserved": 0, "lon": -77.02531516666667}, {"fusion_lat": 0.0, "name": "a133089b65bb318397b4d4d0e9f41c59", "is_disabled": 0, "rental_uris": {"android": "https://dc.lft.to/lastmile_qr_scan", "ios": "https://dc.lft.to/lastmile_qr_scan"}, "fusion_lon": 0.0, "lat": 38.85604033333333, "bike_id": "a133089b65bb318397b4d4d0e9f41c59", "type": "electric_scooter", "is_reserved": 0, "lon": -76.9727265}, {"fusion_lat": 0.0, "name": "3c16f78dba69f05fed4a2907d1d816f8", "is_disabled": 0, "rental_uris": {"android": "https://dc.lft.to/lastmile_qr_scan", "ios": "https://dc.lft.to/lastmile_qr_scan"}, "fusion_lon": 0.0, "lat": 38.898231, "bike_id": "3c16f78dba69f05fed4a2907d1d816f8", "type": "electric_scooter", "is_reserved": 0, "lon": -77.04650916666667}, {"fusion_lat": 0.0, "name": "1aa6969675b2eac90c0606d39cf563da", "is_disabled": 0, "rental_uris": {"android": "https://dc.lft.to/lastmile_qr_scan", "ios": "https://dc.lft.to/lastmile_qr_scan"}, "fusion_lon": 0.0, "lat": 38.8974025, "bike_id": "1aa6969675b2eac90c0606d39cf563da", "type": "electric_scooter", "is_reserved": 0, "lon": -77.027218}, {"fusion_lat": 0.0, "name": "65a8d4d58313209bccad8372475230d7", "is_disabled": 0, "rental_uris": {"android": "https://dc.lft.to/lastmile_qr_scan", "ios": "https://dc.lft.to/lastmile_qr_scan"}, "fusion_lon": 0.0, "lat": 38.92076133333333, "bike_id": "65a8d4d58313209bccad8372475230d7", "type": "electric_scooter", "is_reserved": 0, "lon": -77.023207}, {"fusion_lat": 0.0, "name": "480269ad59ea35a9bdc4311074ca7c42", "is_disabled": 0, "rental_uris": {"android": "https://dc.lft.to/lastmile_qr_scan", "ios": "https://dc.lft.to/lastmile_qr_scan"}, "fusion_lon": 0.0, "lat": 38.9214055, "bike_id": "480269ad59ea35a9bdc4311074ca7c42", "type": "electric_scooter", "is_reserved": 0, "lon": -77.025252}, {"fusion_lat": 0.0, "name": "23354ead70f0935fd6ff2dcbd3170aa9", "is_disabled": 0, "rental_uris": {"android": "https://dc.lft.to/lastmile_qr_scan", "ios": "https://dc.lft.to/lastmile_qr_scan"}, "fusion_lon": 0.0, "lat": 38.89249683333333, "bike_id": "23354ead70f0935fd6ff2dcbd3170aa9", "type": "electric_scooter", "is_reserved": 0, "lon": -77.04655133333333}, {"fusion_lat": 0.0, "name": "dd3b9b9896f2e1ef25b228d6c1b923f9", "is_disabled": 0, "rental_uris": {"android": "https://dc.lft.to/lastmile_qr_scan", "ios": "https://dc.lft.to/lastmile_qr_scan"}, "fusion_lon": 0.0, "lat": 38.92221716666667, "bike_id": "dd3b9b9896f2e1ef25b228d6c1b923f9", "type": "electric_scooter", "is_reserved": 0, "lon": -76.98378566666666}, {"fusion_lat": 0.0, "name": "32a72d51c84532a6a4238a6ea8697680", "is_disabled": 0, "rental_uris": {"android": "https://dc.lft.to/lastmile_qr_scan", "ios": "https://dc.lft.to/lastmile_qr_scan"}, "fusion_lon": 0.0, "lat": 38.931325666666666, "bike_id": "32a72d51c84532a6a4238a6ea8697680", "type": "electric_scooter", "is_reserved": 0, "lon": -77.03852766666667}, {"fusion_lat": 0.0, "name": "0b01881aa2f802d5d18d1d2a7de8cc6d", "is_disabled": 0, "rental_uris": {"android": "https://dc.lft.to/lastmile_qr_scan", "ios": "https://dc.lft.to/lastmile_qr_scan"}, "fusion_lon": 0.0, "lat": 38.939710166666664, "bike_id": "0b01881aa2f802d5d18d1d2a7de8cc6d", "type": "electric_scooter", "is_reserved": 0, "lon": -77.032554}, {"fusion_lat": 0.0, "name": "d6f242abd03e142b4b225d94d74fc2f1", "is_disabled": 0, "rental_uris": {"android": "https://dc.lft.to/lastmile_qr_scan", "ios": "https://dc.lft.to/lastmile_qr_scan"}, "fusion_lon": 0.0, "lat": 38.9064885, "bike_id": "d6f242abd03e142b4b225d94d74fc2f1", "type": "electric_scooter", "is_reserved": 0, "lon": -77.014128}, {"fusion_lat": 0.0, "name": "74be37ecb8294dc9a916b71404ec3a72", "is_disabled": 0, "rental_uris": {"android": "https://dc.lft.to/lastmile_qr_scan", "ios": "https://dc.lft.to/lastmile_qr_scan"}, "fusion_lon": 0.0, "lat": 38.8764365, "bike_id": "74be37ecb8294dc9a916b71404ec3a72", "type": "electric_scooter", "is_reserved": 0, "lon": -77.001126}, {"fusion_lat": 0.0, "name": "d7bfb6062db1f75e656758776fe6f43c", "is_disabled": 0, "rental_uris": {"android": "https://dc.lft.to/lastmile_qr_scan", "ios": "https://dc.lft.to/lastmile_qr_scan"}, "fusion_lon": 0.0, "lat": 38.906196, "bike_id": "d7bfb6062db1f75e656758776fe6f43c", "type": "electric_scooter", "is_reserved": 0, "lon": -77.05041866666667}, {"fusion_lat": 0.0, "name": "b8e8b17bfe7faef2d8dba21992126e41", "is_disabled": 0, "rental_uris": {"android": "https://dc.lft.to/lastmile_qr_scan", "ios": "https://dc.lft.to/lastmile_qr_scan"}, "fusion_lon": 0.0, "lat": 38.873026833333334, "bike_id": "b8e8b17bfe7faef2d8dba21992126e41", "type": "electric_scooter", "is_reserved": 0, "lon": -77.00053316666667}, {"fusion_lat": 0.0, "name": "f91068a23891d0c58357afbc8f321cbd", "is_disabled": 0, "rental_uris": {"android": "https://dc.lft.to/lastmile_qr_scan", "ios": "https://dc.lft.to/lastmile_qr_scan"}, "fusion_lon": 0.0, "lat": 38.95630533333333, "bike_id": "f91068a23891d0c58357afbc8f321cbd", "type": "electric_scooter", "is_reserved": 0, "lon": -77.091313}, {"fusion_lat": 0.0, "name": "5a31ab7879ef5c134c5b21611ccd26b1", "is_disabled": 0, "rental_uris": {"android": "https://dc.lft.to/lastmile_qr_scan", "ios": "https://dc.lft.to/lastmile_qr_scan"}, "fusion_lon": 0.0, "lat": 38.91054583333333, "bike_id": "5a31ab7879ef5c134c5b21611ccd26b1", "type": "electric_scooter", "is_reserved": 0, "lon": -77.0409095}, {"fusion_lat": 0.0, "name": "1339a71feab5b9ec84a87c23048ea529", "is_disabled": 0, "rental_uris": {"android": "https://dc.lft.to/lastmile_qr_scan", "ios": "https://dc.lft.to/lastmile_qr_scan"}, "fusion_lon": 0.0, "lat": 38.86453, "bike_id": "1339a71feab5b9ec84a87c23048ea529", "type": "electric_bike", "is_reserved": 0, "lon": -77.106853}, {"fusion_lat": 0.0, "name": "5aefcdf6a1f9b1e5f2839c8eb92fc296", "is_disabled": 0, "rental_uris": {"android": "https://dc.lft.to/lastmile_qr_scan", "ios": "https://dc.lft.to/lastmile_qr_scan"}, "fusion_lon": 0.0, "lat": 38.89706416666667, "bike_id": "5aefcdf6a1f9b1e5f2839c8eb92fc296", "type": "electric_scooter", "is_reserved": 0, "lon": -77.02337}, {"fusion_lat": 0.0, "name": "3f596ff6b4bb77a13051e182ec0c1363", "is_disabled": 0, "rental_uris": {"android": "https://dc.lft.to/lastmile_qr_scan", "ios": "https://dc.lft.to/lastmile_qr_scan"}, "fusion_lon": 0.0, "lat": 38.87651483333333, "bike_id": "3f596ff6b4bb77a13051e182ec0c1363", "type": "electric_scooter", "is_reserved": 0, "lon": -77.01573883333333}, {"fusion_lat": 0.0, "name": "a34d8fd86186b4503c3b9581a4b60c4c", "is_disabled": 0, "rental_uris": {"android": "https://dc.lft.to/lastmile_qr_scan", "ios": "https://dc.lft.to/lastmile_qr_scan"}, "fusion_lon": 0.0, "lat": 38.91498083333333, "bike_id": "a34d8fd86186b4503c3b9581a4b60c4c", "type": "electric_scooter", "is_reserved": 0, "lon": -77.0320845}, {"fusion_lat": 0.0, "name": "49b29ad87c136bf0706f445a68ad1c8e", "is_disabled": 0, "rental_uris": {"android": "https://dc.lft.to/lastmile_qr_scan", "ios": "https://dc.lft.to/lastmile_qr_scan"}, "fusion_lon": 0.0, "lat": 38.92384666666667, "bike_id": "49b29ad87c136bf0706f445a68ad1c8e", "type": "electric_scooter", "is_reserved": 0, "lon": -77.02478966666666}, {"fusion_lat": 0.0, "name": "d87b3a282d5d80df5e5c9b6a97a32b56", "is_disabled": 0, "rental_uris": {"android": "https://dc.lft.to/lastmile_qr_scan", "ios": "https://dc.lft.to/lastmile_qr_scan"}, "fusion_lon": 0.0, "lat": 38.909598333333335, "bike_id": "d87b3a282d5d80df5e5c9b6a97a32b56", "type": "electric_scooter", "is_reserved": 0, "lon": -77.04542833333333}, {"fusion_lat": 0.0, "name": "f46131c5d412c0a8505a86d78918673b", "is_disabled": 0, "rental_uris": {"android": "https://dc.lft.to/lastmile_qr_scan", "ios": "https://dc.lft.to/lastmile_qr_scan"}, "fusion_lon": 0.0, "lat": 38.90632183333334, "bike_id": "f46131c5d412c0a8505a86d78918673b", "type": "electric_scooter", "is_reserved": 0, "lon": -77.01035166666666}, {"fusion_lat": 0.0, "name": "b219ff9bc2c245a0b9adb94df6a9f50a", "is_disabled": 0, "rental_uris": {"android": "https://dc.lft.to/lastmile_qr_scan", "ios": "https://dc.lft.to/lastmile_qr_scan"}, "fusion_lon": 0.0, "lat": 38.919260333333334, "bike_id": "b219ff9bc2c245a0b9adb94df6a9f50a", "type": "electric_scooter", "is_reserved": 0, "lon": -77.00986133333333}, {"fusion_lat": 0.0, "name": "92685026fd5992f1362d58c5bda1e21b", "is_disabled": 0, "rental_uris": {"android": "https://dc.lft.to/lastmile_qr_scan", "ios": "https://dc.lft.to/lastmile_qr_scan"}, "fusion_lon": 0.0, "lat": 38.90032883333333, "bike_id": "92685026fd5992f1362d58c5bda1e21b", "type": "electric_scooter", "is_reserved": 0, "lon": -77.01187816666666}, {"fusion_lat": 0.0, "name": "5dade8029ece013e0d5d53e0d3ff2d5e", "is_disabled": 0, "rental_uris": {"android": "https://dc.lft.to/lastmile_qr_scan", "ios": "https://dc.lft.to/lastmile_qr_scan"}, "fusion_lon": 0.0, "lat": 38.93645016666667, "bike_id": "5dade8029ece013e0d5d53e0d3ff2d5e", "type": "electric_scooter", "is_reserved": 0, "lon": -77.0305325}, {"fusion_lat": 0.0, "name": "d74be505a4ccd92bca14ee2ddc805e25", "is_disabled": 0, "rental_uris": {"android": "https://dc.lft.to/lastmile_qr_scan", "ios": "https://dc.lft.to/lastmile_qr_scan"}, "fusion_lon": 0.0, "lat": 38.9132265, "bike_id": "d74be505a4ccd92bca14ee2ddc805e25", "type": "electric_scooter", "is_reserved": 0, "lon": -77.03177216666667}, {"fusion_lat": 0.0, "name": "2f990305764b6d799d85bd832968117e", "is_disabled": 0, "rental_uris": {"android": "https://dc.lft.to/lastmile_qr_scan", "ios": "https://dc.lft.to/lastmile_qr_scan"}, "fusion_lon": 0.0, "lat": 38.8850545, "bike_id": "2f990305764b6d799d85bd832968117e", "type": "electric_scooter", "is_reserved": 0, "lon": -77.0150325}, {"fusion_lat": 0.0, "name": "035ab1c70e6cfacdbc3dba7411bd964b", "is_disabled": 0, "rental_uris": {"android": "https://dc.lft.to/lastmile_qr_scan", "ios": "https://dc.lft.to/lastmile_qr_scan"}, "fusion_lon": 0.0, "lat": 38.902296, "bike_id": "035ab1c70e6cfacdbc3dba7411bd964b", "type": "electric_scooter", "is_reserved": 0, "lon": -77.0594435}, {"fusion_lat": 0.0, "name": "ca880bc1a5693433d390ebeca6f02709", "is_disabled": 0, "rental_uris": {"android": "https://dc.lft.to/lastmile_qr_scan", "ios": "https://dc.lft.to/lastmile_qr_scan"}, "fusion_lon": 0.0, "lat": 38.923345166666664, "bike_id": "ca880bc1a5693433d390ebeca6f02709", "type": "electric_scooter", "is_reserved": 0, "lon": -77.035188}, {"fusion_lat": 0.0, "name": "977e648f3b624b8a35bfb4277030bd65", "is_disabled": 0, "rental_uris": {"android": "https://dc.lft.to/lastmile_qr_scan", "ios": "https://dc.lft.to/lastmile_qr_scan"}, "fusion_lon": 0.0, "lat": 38.9173015, "bike_id": "977e648f3b624b8a35bfb4277030bd65", "type": "electric_scooter", "is_reserved": 0, "lon": -77.02504633333334}, {"fusion_lat": 0.0, "name": "8837b499b06db9d466aa5a959b8fe4c3", "is_disabled": 0, "rental_uris": {"android": "https://dc.lft.to/lastmile_qr_scan", "ios": "https://dc.lft.to/lastmile_qr_scan"}, "fusion_lon": 0.0, "lat": 38.910372, "bike_id": "8837b499b06db9d466aa5a959b8fe4c3", "type": "electric_scooter", "is_reserved": 0, "lon": -77.0434465}, {"fusion_lat": 0.0, "name": "07752191eaf8bff85ffd092e3d546ea3", "is_disabled": 0, "rental_uris": {"android": "https://dc.lft.to/lastmile_qr_scan", "ios": "https://dc.lft.to/lastmile_qr_scan"}, "fusion_lon": 0.0, "lat": 38.8950775, "bike_id": "07752191eaf8bff85ffd092e3d546ea3", "type": "electric_scooter", "is_reserved": 0, "lon": -77.021849}, {"fusion_lat": 0.0, "name": "22c13dd96c4e601383feb630a081c68f", "is_disabled": 0, "rental_uris": {"android": "https://dc.lft.to/lastmile_qr_scan", "ios": "https://dc.lft.to/lastmile_qr_scan"}, "fusion_lon": 0.0, "lat": 38.92076483333334, "bike_id": "22c13dd96c4e601383feb630a081c68f", "type": "electric_bike", "is_reserved": 0, "lon": -76.98946}, {"fusion_lat": 0.0, "name": "ec8efca07ce6021c7d62e69ff793daea", "is_disabled": 0, "rental_uris": {"android": "https://dc.lft.to/lastmile_qr_scan", "ios": "https://dc.lft.to/lastmile_qr_scan"}, "fusion_lon": 0.0, "lat": 38.937248, "bike_id": "ec8efca07ce6021c7d62e69ff793daea", "type": "electric_scooter", "is_reserved": 0, "lon": -77.0244175}, {"fusion_lat": 0.0, "name": "3fd49efe0078010b643c23b804ecf49f", "is_disabled": 0, "rental_uris": {"android": "https://dc.lft.to/lastmile_qr_scan", "ios": "https://dc.lft.to/lastmile_qr_scan"}, "fusion_lon": 0.0, "lat": 38.901278166666664, "bike_id": "3fd49efe0078010b643c23b804ecf49f", "type": "electric_scooter", "is_reserved": 0, "lon": -77.04995283333334}, {"fusion_lat": 0.0, "name": "b8e1a3c16283557ac3e36251c250cc89", "is_disabled": 0, "rental_uris": {"android": "https://dc.lft.to/lastmile_qr_scan", "ios": "https://dc.lft.to/lastmile_qr_scan"}, "fusion_lon": 0.0, "lat": 38.89826033333333, "bike_id": "b8e1a3c16283557ac3e36251c250cc89", "type": "electric_scooter", "is_reserved": 0, "lon": -77.046771}, {"fusion_lat": 0.0, "name": "cc1d93f7c8a170bb9d8b2c471cbfa85e", "is_disabled": 0, "rental_uris": {"android": "https://dc.lft.to/lastmile_qr_scan", "ios": "https://dc.lft.to/lastmile_qr_scan"}, "fusion_lon": 0.0, "lat": 38.94226583333333, "bike_id": "cc1d93f7c8a170bb9d8b2c471cbfa85e", "type": "electric_scooter", "is_reserved": 0, "lon": -77.01386633333334}, {"fusion_lat": 0.0, "name": "1e90e2485e92af8fbdbf87e3dede3215", "is_disabled": 0, "rental_uris": {"android": "https://dc.lft.to/lastmile_qr_scan", "ios": "https://dc.lft.to/lastmile_qr_scan"}, "fusion_lon": 0.0, "lat": 38.92822733333333, "bike_id": "1e90e2485e92af8fbdbf87e3dede3215", "type": "electric_scooter", "is_reserved": 0, "lon": -77.02258466666666}, {"fusion_lat": 0.0, "name": "d32d0a372d37cc1a460ed25da5bffb71", "is_disabled": 0, "rental_uris": {"android": "https://dc.lft.to/lastmile_qr_scan", "ios": "https://dc.lft.to/lastmile_qr_scan"}, "fusion_lon": 0.0, "lat": 38.90739766666667, "bike_id": "d32d0a372d37cc1a460ed25da5bffb71", "type": "electric_scooter", "is_reserved": 0, "lon": -77.006952}, {"fusion_lat": 0.0, "name": "e55327ffe0b66aee0b3a1c3972c207fc", "is_disabled": 0, "rental_uris": {"android": "https://dc.lft.to/lastmile_qr_scan", "ios": "https://dc.lft.to/lastmile_qr_scan"}, "fusion_lon": 0.0, "lat": 38.92612583333333, "bike_id": "e55327ffe0b66aee0b3a1c3972c207fc", "type": "electric_scooter", "is_reserved": 0, "lon": -77.03927366666667}, {"fusion_lat": 0.0, "name": "aa79f72b67539883af70754a32b38655", "is_disabled": 0, "rental_uris": {"android": "https://dc.lft.to/lastmile_qr_scan", "ios": "https://dc.lft.to/lastmile_qr_scan"}, "fusion_lon": 0.0, "lat": 38.92285783333333, "bike_id": "aa79f72b67539883af70754a32b38655", "type": "electric_scooter", "is_reserved": 0, "lon": -76.99771016666666}, {"fusion_lat": 0.0, "name": "3c50fa85579b6194dbad0cd6032f2e90", "is_disabled": 0, "rental_uris": {"android": "https://dc.lft.to/lastmile_qr_scan", "ios": "https://dc.lft.to/lastmile_qr_scan"}, "fusion_lon": 0.0, "lat": 38.91554433333334, "bike_id": "3c50fa85579b6194dbad0cd6032f2e90", "type": "electric_scooter", "is_reserved": 0, "lon": -77.03228466666667}, {"fusion_lat": 0.0, "name": "1f304808f90ea247345ec32179ae68fe", "is_disabled": 0, "rental_uris": {"android": "https://dc.lft.to/lastmile_qr_scan", "ios": "https://dc.lft.to/lastmile_qr_scan"}, "fusion_lon": 0.0, "lat": 38.9452205, "bike_id": "1f304808f90ea247345ec32179ae68fe", "type": "electric_scooter", "is_reserved": 0, "lon": -77.02271133333333}, {"fusion_lat": 0.0, "name": "aedba586ff105e9ff6b6302729602061", "is_disabled": 0, "rental_uris": {"android": "https://dc.lft.to/lastmile_qr_scan", "ios": "https://dc.lft.to/lastmile_qr_scan"}, "fusion_lon": 0.0, "lat": 38.925595, "bike_id": "aedba586ff105e9ff6b6302729602061", "type": "electric_scooter", "is_reserved": 0, "lon": -77.03765233333333}, {"fusion_lat": 0.0, "name": "c0a335d639cb416863b5b0d39f1c874d", "is_disabled": 0, "rental_uris": {"android": "https://dc.lft.to/lastmile_qr_scan", "ios": "https://dc.lft.to/lastmile_qr_scan"}, "fusion_lon": 0.0, "lat": 38.90240416666666, "bike_id": "c0a335d639cb416863b5b0d39f1c874d", "type": "electric_scooter", "is_reserved": 0, "lon": -77.06050316666666}, {"fusion_lat": 0.0, "name": "f8d904a8161ef87697fd2d861f32264e", "is_disabled": 0, "rental_uris": {"android": "https://dc.lft.to/lastmile_qr_scan", "ios": "https://dc.lft.to/lastmile_qr_scan"}, "fusion_lon": 0.0, "lat": 38.911114, "bike_id": "f8d904a8161ef87697fd2d861f32264e", "type": "electric_scooter", "is_reserved": 0, "lon": -77.03827966666667}, {"fusion_lat": 0.0, "name": "0d492c82b0135749ee6f12e47f994910", "is_disabled": 0, "rental_uris": {"android": "https://dc.lft.to/lastmile_qr_scan", "ios": "https://dc.lft.to/lastmile_qr_scan"}, "fusion_lon": 0.0, "lat": 38.9002275, "bike_id": "0d492c82b0135749ee6f12e47f994910", "type": "electric_scooter", "is_reserved": 0, "lon": -76.97401483333333}, {"fusion_lat": 0.0, "name": "0036b3934a38cff761891b75da726d79", "is_disabled": 0, "rental_uris": {"android": "https://dc.lft.to/lastmile_qr_scan", "ios": "https://dc.lft.to/lastmile_qr_scan"}, "fusion_lon": 0.0, "lat": 38.90549266666667, "bike_id": "0036b3934a38cff761891b75da726d79", "type": "electric_scooter", "is_reserved": 0, "lon": -77.02203966666667}, {"fusion_lat": 0.0, "name": "3ab628b3850f1ea0a9b614bca4f891b1", "is_disabled": 0, "rental_uris": {"android": "https://dc.lft.to/lastmile_qr_scan", "ios": "https://dc.lft.to/lastmile_qr_scan"}, "fusion_lon": 0.0, "lat": 38.91233316666667, "bike_id": "3ab628b3850f1ea0a9b614bca4f891b1", "type": "electric_scooter", "is_reserved": 0, "lon": -77.0487505}, {"fusion_lat": 0.0, "name": "3073f3c57d8d070b7936726847d1bdda", "is_disabled": 0, "rental_uris": {"android": "https://dc.lft.to/lastmile_qr_scan", "ios": "https://dc.lft.to/lastmile_qr_scan"}, "fusion_lon": 0.0, "lat": 38.9234115, "bike_id": "3073f3c57d8d070b7936726847d1bdda", "type": "electric_scooter", "is_reserved": 0, "lon": -77.02440683333333}, {"fusion_lat": 0.0, "name": "b5fc7af6df9deacd6536d7ac5a457362", "is_disabled": 0, "rental_uris": {"android": "https://dc.lft.to/lastmile_qr_scan", "ios": "https://dc.lft.to/lastmile_qr_scan"}, "fusion_lon": 0.0, "lat": 38.90973366666667, "bike_id": "b5fc7af6df9deacd6536d7ac5a457362", "type": "electric_scooter", "is_reserved": 0, "lon": -77.03862}, {"fusion_lat": 0.0, "name": "2951265f3cf85f4d06a62cced6cebfcf", "is_disabled": 0, "rental_uris": {"android": "https://dc.lft.to/lastmile_qr_scan", "ios": "https://dc.lft.to/lastmile_qr_scan"}, "fusion_lon": 0.0, "lat": 38.9209535, "bike_id": "2951265f3cf85f4d06a62cced6cebfcf", "type": "electric_scooter", "is_reserved": 0, "lon": -77.04685433333333}, {"fusion_lat": 0.0, "name": "b74d287c3abd4f8d1f90a41e1f56721a", "is_disabled": 0, "rental_uris": {"android": "https://dc.lft.to/lastmile_qr_scan", "ios": "https://dc.lft.to/lastmile_qr_scan"}, "fusion_lon": 0.0, "lat": 38.924549666666664, "bike_id": "b74d287c3abd4f8d1f90a41e1f56721a", "type": "electric_scooter", "is_reserved": 0, "lon": -77.02408216666667}, {"fusion_lat": 0.0, "name": "3a4ab5e58c5d0877212855722af14a56", "is_disabled": 0, "rental_uris": {"android": "https://dc.lft.to/lastmile_qr_scan", "ios": "https://dc.lft.to/lastmile_qr_scan"}, "fusion_lon": 0.0, "lat": 38.920241833333336, "bike_id": "3a4ab5e58c5d0877212855722af14a56", "type": "electric_scooter", "is_reserved": 0, "lon": -77.030702}, {"fusion_lat": 0.0, "name": "2ea32e6c9f473c4c83b794d6f77421f4", "is_disabled": 0, "rental_uris": {"android": "https://dc.lft.to/lastmile_qr_scan", "ios": "https://dc.lft.to/lastmile_qr_scan"}, "fusion_lon": 0.0, "lat": 38.91127, "bike_id": "2ea32e6c9f473c4c83b794d6f77421f4", "type": "electric_scooter", "is_reserved": 0, "lon": -77.02201233333334}, {"fusion_lat": 0.0, "name": "6b1184b0a5ddafe0ce82c17c5ed2506a", "is_disabled": 0, "rental_uris": {"android": "https://dc.lft.to/lastmile_qr_scan", "ios": "https://dc.lft.to/lastmile_qr_scan"}, "fusion_lon": 0.0, "lat": 38.90877116666667, "bike_id": "6b1184b0a5ddafe0ce82c17c5ed2506a", "type": "electric_scooter", "is_reserved": 0, "lon": -77.04413633333333}, {"fusion_lat": 0.0, "name": "8a29b3c62572abced02b08a42a51a7c3", "is_disabled": 0, "rental_uris": {"android": "https://dc.lft.to/lastmile_qr_scan", "ios": "https://dc.lft.to/lastmile_qr_scan"}, "fusion_lon": 0.0, "lat": 38.920696166666666, "bike_id": "8a29b3c62572abced02b08a42a51a7c3", "type": "electric_scooter", "is_reserved": 0, "lon": -77.028558}, {"fusion_lat": 0.0, "name": "ad26e0950959dbb2abef1ee88c3e8981", "is_disabled": 0, "rental_uris": {"android": "https://dc.lft.to/lastmile_qr_scan", "ios": "https://dc.lft.to/lastmile_qr_scan"}, "fusion_lon": 0.0, "lat": 38.91815016666666, "bike_id": "ad26e0950959dbb2abef1ee88c3e8981", "type": "electric_scooter", "is_reserved": 0, "lon": -77.03271466666666}, {"fusion_lat": 0.0, "name": "c52339301e598aa7ba7268ea3a382f1d", "is_disabled": 0, "rental_uris": {"android": "https://dc.lft.to/lastmile_qr_scan", "ios": "https://dc.lft.to/lastmile_qr_scan"}, "fusion_lon": 0.0, "lat": 38.92075166666667, "bike_id": "c52339301e598aa7ba7268ea3a382f1d", "type": "electric_scooter", "is_reserved": 0, "lon": -77.0232045}, {"fusion_lat": 0.0, "name": "a456b5a5d55b1160f307672d3dbfe562", "is_disabled": 0, "rental_uris": {"android": "https://dc.lft.to/lastmile_qr_scan", "ios": "https://dc.lft.to/lastmile_qr_scan"}, "fusion_lon": 0.0, "lat": 38.84277066666667, "bike_id": "a456b5a5d55b1160f307672d3dbfe562", "type": "electric_bike", "is_reserved": 0, "lon": -76.9884625}, {"fusion_lat": 0.0, "name": "c4782d58b5ed806e4c6fbc887db6ff9d", "is_disabled": 0, "rental_uris": {"android": "https://dc.lft.to/lastmile_qr_scan", "ios": "https://dc.lft.to/lastmile_qr_scan"}, "fusion_lon": 0.0, "lat": 38.922603, "bike_id": "c4782d58b5ed806e4c6fbc887db6ff9d", "type": "electric_bike", "is_reserved": 0, "lon": -77.07028383333333}, {"fusion_lat": 0.0, "name": "fbe0fb3182eafdd20a32612dc5ca0f62", "is_disabled": 0, "rental_uris": {"android": "https://dc.lft.to/lastmile_qr_scan", "ios": "https://dc.lft.to/lastmile_qr_scan"}, "fusion_lon": 0.0, "lat": 38.920875, "bike_id": "fbe0fb3182eafdd20a32612dc5ca0f62", "type": "electric_scooter", "is_reserved": 0, "lon": -77.0394495}, {"fusion_lat": 0.0, "name": "b54d3faeabcf5e49c8aea52adff0bb49", "is_disabled": 0, "rental_uris": {"android": "https://dc.lft.to/lastmile_qr_scan", "ios": "https://dc.lft.to/lastmile_qr_scan"}, "fusion_lon": 0.0, "lat": 38.9165655, "bike_id": "b54d3faeabcf5e49c8aea52adff0bb49", "type": "electric_scooter", "is_reserved": 0, "lon": -77.04198283333334}, {"fusion_lat": 0.0, "name": "ccdccd108ee87e0b5e3c6892a2508515", "is_disabled": 0, "rental_uris": {"android": "https://dc.lft.to/lastmile_qr_scan", "ios": "https://dc.lft.to/lastmile_qr_scan"}, "fusion_lon": 0.0, "lat": 38.8973375, "bike_id": "ccdccd108ee87e0b5e3c6892a2508515", "type": "electric_scooter", "is_reserved": 0, "lon": -77.03190333333333}, {"fusion_lat": 0.0, "name": "27a7b4f521fa9206623157c5b1a09aa3", "is_disabled": 0, "rental_uris": {"android": "https://dc.lft.to/lastmile_qr_scan", "ios": "https://dc.lft.to/lastmile_qr_scan"}, "fusion_lon": 0.0, "lat": 38.934571166666665, "bike_id": "27a7b4f521fa9206623157c5b1a09aa3", "type": "electric_scooter", "is_reserved": 0, "lon": -77.05783183333334}, {"fusion_lat": 0.0, "name": "88bce8f116e26a38cec376641f101748", "is_disabled": 0, "rental_uris": {"android": "https://dc.lft.to/lastmile_qr_scan", "ios": "https://dc.lft.to/lastmile_qr_scan"}, "fusion_lon": 0.0, "lat": 38.93533083333333, "bike_id": "88bce8f116e26a38cec376641f101748", "type": "electric_scooter", "is_reserved": 0, "lon": -77.0235155}, {"fusion_lat": 0.0, "name": "25b62ed3e32314a5ee0437e54c853748", "is_disabled": 0, "rental_uris": {"android": "https://dc.lft.to/lastmile_qr_scan", "ios": "https://dc.lft.to/lastmile_qr_scan"}, "fusion_lon": 0.0, "lat": 38.89085333333333, "bike_id": "25b62ed3e32314a5ee0437e54c853748", "type": "electric_scooter", "is_reserved": 0, "lon": -76.91930216666667}, {"fusion_lat": 0.0, "name": "1d5133c273f3bcfc96aff6213184e003", "is_disabled": 0, "rental_uris": {"android": "https://dc.lft.to/lastmile_qr_scan", "ios": "https://dc.lft.to/lastmile_qr_scan"}, "fusion_lon": 0.0, "lat": 38.9033905, "bike_id": "1d5133c273f3bcfc96aff6213184e003", "type": "electric_scooter", "is_reserved": 0, "lon": -77.04510616666667}, {"fusion_lat": 0.0, "name": "916b1bee8ce573fb8bed298f0631a4d8", "is_disabled": 0, "rental_uris": {"android": "https://dc.lft.to/lastmile_qr_scan", "ios": "https://dc.lft.to/lastmile_qr_scan"}, "fusion_lon": 0.0, "lat": 38.9246985, "bike_id": "916b1bee8ce573fb8bed298f0631a4d8", "type": "electric_scooter", "is_reserved": 0, "lon": -77.0385475}, {"fusion_lat": 0.0, "name": "7a699217fd9d829909261fa473123e86", "is_disabled": 0, "rental_uris": {"android": "https://dc.lft.to/lastmile_qr_scan", "ios": "https://dc.lft.to/lastmile_qr_scan"}, "fusion_lon": 0.0, "lat": 38.8819445, "bike_id": "7a699217fd9d829909261fa473123e86", "type": "electric_scooter", "is_reserved": 0, "lon": -77.028563}, {"fusion_lat": 0.0, "name": "bdc80b71fd8ea05fd946b7400de02eb1", "is_disabled": 0, "rental_uris": {"android": "https://dc.lft.to/lastmile_qr_scan", "ios": "https://dc.lft.to/lastmile_qr_scan"}, "fusion_lon": 0.0, "lat": 38.944315333333336, "bike_id": "bdc80b71fd8ea05fd946b7400de02eb1", "type": "electric_bike", "is_reserved": 0, "lon": -77.02603183333333}, {"fusion_lat": 0.0, "name": "30b923af3febb393b3b4dbf46279d17b", "is_disabled": 0, "rental_uris": {"android": "https://dc.lft.to/lastmile_qr_scan", "ios": "https://dc.lft.to/lastmile_qr_scan"}, "fusion_lon": 0.0, "lat": 38.91709083333333, "bike_id": "30b923af3febb393b3b4dbf46279d17b", "type": "electric_scooter", "is_reserved": 0, "lon": -77.04148283333333}, {"fusion_lat": 0.0, "name": "2c4c6a8135762108d69a4f1b95eec83d", "is_disabled": 0, "rental_uris": {"android": "https://dc.lft.to/lastmile_qr_scan", "ios": "https://dc.lft.to/lastmile_qr_scan"}, "fusion_lon": 0.0, "lat": 38.93251866666667, "bike_id": "2c4c6a8135762108d69a4f1b95eec83d", "type": "electric_scooter", "is_reserved": 0, "lon": -77.03432366666667}, {"fusion_lat": 0.0, "name": "4cf2f00f8c18f06d5875a4a1cd74c677", "is_disabled": 0, "rental_uris": {"android": "https://dc.lft.to/lastmile_qr_scan", "ios": "https://dc.lft.to/lastmile_qr_scan"}, "fusion_lon": 0.0, "lat": 38.898508, "bike_id": "4cf2f00f8c18f06d5875a4a1cd74c677", "type": "electric_scooter", "is_reserved": 0, "lon": -76.97656766666667}, {"fusion_lat": 0.0, "name": "d3a4dee3b37379d546a283acfae0e8cc", "is_disabled": 0, "rental_uris": {"android": "https://dc.lft.to/lastmile_qr_scan", "ios": "https://dc.lft.to/lastmile_qr_scan"}, "fusion_lon": 0.0, "lat": 38.947551, "bike_id": "d3a4dee3b37379d546a283acfae0e8cc", "type": "electric_scooter", "is_reserved": 0, "lon": -77.00727816666667}, {"fusion_lat": 0.0, "name": "597658a621459d5bda81d7dce393e747", "is_disabled": 0, "rental_uris": {"android": "https://dc.lft.to/lastmile_qr_scan", "ios": "https://dc.lft.to/lastmile_qr_scan"}, "fusion_lon": 0.0, "lat": 38.897447666666665, "bike_id": "597658a621459d5bda81d7dce393e747", "type": "electric_scooter", "is_reserved": 0, "lon": -77.04964083333333}, {"fusion_lat": 0.0, "name": "f0778bfb45479d0b0a1e7adb64ad3d30", "is_disabled": 0, "rental_uris": {"android": "https://dc.lft.to/lastmile_qr_scan", "ios": "https://dc.lft.to/lastmile_qr_scan"}, "fusion_lon": 0.0, "lat": 38.92052733333333, "bike_id": "f0778bfb45479d0b0a1e7adb64ad3d30", "type": "electric_scooter", "is_reserved": 0, "lon": -77.02402366666666}, {"fusion_lat": 0.0, "name": "964586e00bbb8080067b35ea1f4e216b", "is_disabled": 0, "rental_uris": {"android": "https://dc.lft.to/lastmile_qr_scan", "ios": "https://dc.lft.to/lastmile_qr_scan"}, "fusion_lon": 0.0, "lat": 38.798561666666664, "bike_id": "964586e00bbb8080067b35ea1f4e216b", "type": "electric_bike", "is_reserved": 0, "lon": -77.06309333333333}, {"fusion_lat": 0.0, "name": "c80720673d21a9d2faa148c2e17ebafa", "is_disabled": 0, "rental_uris": {"android": "https://dc.lft.to/lastmile_qr_scan", "ios": "https://dc.lft.to/lastmile_qr_scan"}, "fusion_lon": 0.0, "lat": 38.9057495, "bike_id": "c80720673d21a9d2faa148c2e17ebafa", "type": "electric_scooter", "is_reserved": 0, "lon": -77.02206866666667}, {"fusion_lat": 0.0, "name": "b80640b68d8027da6a055b20c825f389", "is_disabled": 0, "rental_uris": {"android": "https://dc.lft.to/lastmile_qr_scan", "ios": "https://dc.lft.to/lastmile_qr_scan"}, "fusion_lon": 0.0, "lat": 38.9354265, "bike_id": "b80640b68d8027da6a055b20c825f389", "type": "electric_scooter", "is_reserved": 0, "lon": -77.03267}, {"fusion_lat": 0.0, "name": "40d81e10ffa2a1c91e49cb6ea302f6b9", "is_disabled": 0, "rental_uris": {"android": "https://dc.lft.to/lastmile_qr_scan", "ios": "https://dc.lft.to/lastmile_qr_scan"}, "fusion_lon": 0.0, "lat": 38.9054055, "bike_id": "40d81e10ffa2a1c91e49cb6ea302f6b9", "type": "electric_scooter", "is_reserved": 0, "lon": -77.04636516666666}, {"fusion_lat": 0.0, "name": "2bb2c5dd684e8d19eee97d07cc05cf6e", "is_disabled": 0, "rental_uris": {"android": "https://dc.lft.to/lastmile_qr_scan", "ios": "https://dc.lft.to/lastmile_qr_scan"}, "fusion_lon": 0.0, "lat": 38.90774783333333, "bike_id": "2bb2c5dd684e8d19eee97d07cc05cf6e", "type": "electric_scooter", "is_reserved": 0, "lon": -77.03858783333334}, {"fusion_lat": 0.0, "name": "ac44a2e272970c8642158aa72b90aa89", "is_disabled": 0, "rental_uris": {"android": "https://dc.lft.to/lastmile_qr_scan", "ios": "https://dc.lft.to/lastmile_qr_scan"}, "fusion_lon": 0.0, "lat": 38.923731833333335, "bike_id": "ac44a2e272970c8642158aa72b90aa89", "type": "electric_scooter", "is_reserved": 0, "lon": -77.02137283333333}, {"fusion_lat": 0.0, "name": "dcec04b424bd739e3622edf1626c8a0b", "is_disabled": 0, "rental_uris": {"android": "https://dc.lft.to/lastmile_qr_scan", "ios": "https://dc.lft.to/lastmile_qr_scan"}, "fusion_lon": 0.0, "lat": 38.91332116666667, "bike_id": "dcec04b424bd739e3622edf1626c8a0b", "type": "electric_scooter", "is_reserved": 0, "lon": -77.02142383333333}, {"fusion_lat": 0.0, "name": "a821808c787f4e8658d15265556f0bbf", "is_disabled": 0, "rental_uris": {"android": "https://dc.lft.to/lastmile_qr_scan", "ios": "https://dc.lft.to/lastmile_qr_scan"}, "fusion_lon": 0.0, "lat": 38.8832175, "bike_id": "a821808c787f4e8658d15265556f0bbf", "type": "electric_scooter", "is_reserved": 0, "lon": -77.01679833333333}, {"fusion_lat": 0.0, "name": "5630b59fa343af40fd5843eb172b4261", "is_disabled": 0, "rental_uris": {"android": "https://dc.lft.to/lastmile_qr_scan", "ios": "https://dc.lft.to/lastmile_qr_scan"}, "fusion_lon": 0.0, "lat": 38.884630333333334, "bike_id": "5630b59fa343af40fd5843eb172b4261", "type": "electric_scooter", "is_reserved": 0, "lon": -77.0150635}, {"fusion_lat": 0.0, "name": "720f8024e92c1ed28e257c3eb7b70b78", "is_disabled": 0, "rental_uris": {"android": "https://dc.lft.to/lastmile_qr_scan", "ios": "https://dc.lft.to/lastmile_qr_scan"}, "fusion_lon": 0.0, "lat": 38.93180383333333, "bike_id": "720f8024e92c1ed28e257c3eb7b70b78", "type": "electric_scooter", "is_reserved": 0, "lon": -77.07315316666667}, {"fusion_lat": 0.0, "name": "51b1de8af8e43c5cc1d972d3b9035692", "is_disabled": 0, "rental_uris": {"android": "https://dc.lft.to/lastmile_qr_scan", "ios": "https://dc.lft.to/lastmile_qr_scan"}, "fusion_lon": 0.0, "lat": 38.88492816666667, "bike_id": "51b1de8af8e43c5cc1d972d3b9035692", "type": "electric_scooter", "is_reserved": 0, "lon": -77.01085566666667}, {"fusion_lat": 0.0, "name": "dc0bfd93d36a543bee526306b6e01fca", "is_disabled": 0, "rental_uris": {"android": "https://dc.lft.to/lastmile_qr_scan", "ios": "https://dc.lft.to/lastmile_qr_scan"}, "fusion_lon": 0.0, "lat": 38.89995483333333, "bike_id": "dc0bfd93d36a543bee526306b6e01fca", "type": "electric_scooter", "is_reserved": 0, "lon": -77.0317285}, {"fusion_lat": 0.0, "name": "ef189798d3187989fcf7c4c3873ad73f", "is_disabled": 0, "rental_uris": {"android": "https://dc.lft.to/lastmile_qr_scan", "ios": "https://dc.lft.to/lastmile_qr_scan"}, "fusion_lon": 0.0, "lat": 38.907901, "bike_id": "ef189798d3187989fcf7c4c3873ad73f", "type": "electric_scooter", "is_reserved": 0, "lon": -77.0343585}, {"fusion_lat": 0.0, "name": "b7460ecf138a62f8e5f725d9ddafad9b", "is_disabled": 0, "rental_uris": {"android": "https://dc.lft.to/lastmile_qr_scan", "ios": "https://dc.lft.to/lastmile_qr_scan"}, "fusion_lon": 0.0, "lat": 38.90378666666667, "bike_id": "b7460ecf138a62f8e5f725d9ddafad9b", "type": "electric_scooter", "is_reserved": 0, "lon": -77.03215516666667}, {"fusion_lat": 0.0, "name": "ebbcbcc14af71ce26b8918aa02e6dcea", "is_disabled": 0, "rental_uris": {"android": "https://dc.lft.to/lastmile_qr_scan", "ios": "https://dc.lft.to/lastmile_qr_scan"}, "fusion_lon": 0.0, "lat": 38.909731, "bike_id": "ebbcbcc14af71ce26b8918aa02e6dcea", "type": "electric_scooter", "is_reserved": 0, "lon": -77.00879716666667}, {"fusion_lat": 0.0, "name": "83bb2ac07809ef3f9d54db8429b7b391", "is_disabled": 0, "rental_uris": {"android": "https://dc.lft.to/lastmile_qr_scan", "ios": "https://dc.lft.to/lastmile_qr_scan"}, "fusion_lon": 0.0, "lat": 38.91837833333334, "bike_id": "83bb2ac07809ef3f9d54db8429b7b391", "type": "electric_scooter", "is_reserved": 0, "lon": -77.03521266666667}, {"fusion_lat": 0.0, "name": "e232a3d435dbee4498e4f1ff9b16bb91", "is_disabled": 0, "rental_uris": {"android": "https://dc.lft.to/lastmile_qr_scan", "ios": "https://dc.lft.to/lastmile_qr_scan"}, "fusion_lon": 0.0, "lat": 38.922504, "bike_id": "e232a3d435dbee4498e4f1ff9b16bb91", "type": "electric_scooter", "is_reserved": 0, "lon": -77.04256483333333}, {"fusion_lat": 0.0, "name": "6cad9594dbefffd139b6f000ccc514e6", "is_disabled": 0, "rental_uris": {"android": "https://dc.lft.to/lastmile_qr_scan", "ios": "https://dc.lft.to/lastmile_qr_scan"}, "fusion_lon": 0.0, "lat": 38.8624485, "bike_id": "6cad9594dbefffd139b6f000ccc514e6", "type": "electric_scooter", "is_reserved": 0, "lon": -76.9950085}, {"fusion_lat": 0.0, "name": "0c9d6b637263e1eccfaed5c596668e35", "is_disabled": 0, "rental_uris": {"android": "https://dc.lft.to/lastmile_qr_scan", "ios": "https://dc.lft.to/lastmile_qr_scan"}, "fusion_lon": 0.0, "lat": 38.905075833333335, "bike_id": "0c9d6b637263e1eccfaed5c596668e35", "type": "electric_scooter", "is_reserved": 0, "lon": -77.063873}, {"fusion_lat": 0.0, "name": "52ffe8290c263fdd9a433323f21651fc", "is_disabled": 0, "rental_uris": {"android": "https://dc.lft.to/lastmile_qr_scan", "ios": "https://dc.lft.to/lastmile_qr_scan"}, "fusion_lon": 0.0, "lat": 38.95729633333333, "bike_id": "52ffe8290c263fdd9a433323f21651fc", "type": "electric_scooter", "is_reserved": 0, "lon": -77.024048}, {"fusion_lat": 0.0, "name": "c0fe42e0fadc459a6c79de1ebef26b81", "is_disabled": 0, "rental_uris": {"android": "https://dc.lft.to/lastmile_qr_scan", "ios": "https://dc.lft.to/lastmile_qr_scan"}, "fusion_lon": 0.0, "lat": 38.91571616666667, "bike_id": "c0fe42e0fadc459a6c79de1ebef26b81", "type": "electric_scooter", "is_reserved": 0, "lon": -77.03857766666667}, {"fusion_lat": 0.0, "name": "5a418ee23fd37313b84bd9f635184681", "is_disabled": 0, "rental_uris": {"android": "https://dc.lft.to/lastmile_qr_scan", "ios": "https://dc.lft.to/lastmile_qr_scan"}, "fusion_lon": 0.0, "lat": 38.9057965, "bike_id": "5a418ee23fd37313b84bd9f635184681", "type": "electric_scooter", "is_reserved": 0, "lon": -77.00889516666666}, {"fusion_lat": 0.0, "name": "ed853ebe7976ee6833c8f2a3ac68b608", "is_disabled": 0, "rental_uris": {"android": "https://dc.lft.to/lastmile_qr_scan", "ios": "https://dc.lft.to/lastmile_qr_scan"}, "fusion_lon": 0.0, "lat": 38.9056715, "bike_id": "ed853ebe7976ee6833c8f2a3ac68b608", "type": "electric_scooter", "is_reserved": 0, "lon": -77.03474866666667}, {"fusion_lat": 0.0, "name": "480d85049645f4fc612c34457d8a8014", "is_disabled": 0, "rental_uris": {"android": "https://dc.lft.to/lastmile_qr_scan", "ios": "https://dc.lft.to/lastmile_qr_scan"}, "fusion_lon": 0.0, "lat": 38.9097565, "bike_id": "480d85049645f4fc612c34457d8a8014", "type": "electric_scooter", "is_reserved": 0, "lon": -77.02087033333333}, {"fusion_lat": 0.0, "name": "7f9f24c02167141f6f2b03db5c5c6572", "is_disabled": 0, "rental_uris": {"android": "https://dc.lft.to/lastmile_qr_scan", "ios": "https://dc.lft.to/lastmile_qr_scan"}, "fusion_lon": 0.0, "lat": 38.877968, "bike_id": "7f9f24c02167141f6f2b03db5c5c6572", "type": "electric_scooter", "is_reserved": 0, "lon": -76.99020233333333}, {"fusion_lat": 0.0, "name": "b724812a29394a7eafe21268aac6a633", "is_disabled": 0, "rental_uris": {"android": "https://dc.lft.to/lastmile_qr_scan", "ios": "https://dc.lft.to/lastmile_qr_scan"}, "fusion_lon": 0.0, "lat": 38.838611, "bike_id": "b724812a29394a7eafe21268aac6a633", "type": "electric_scooter", "is_reserved": 0, "lon": -76.99692066666667}, {"fusion_lat": 0.0, "name": "d60e611c628eaaf1f5c87fe4707f1259", "is_disabled": 0, "rental_uris": {"android": "https://dc.lft.to/lastmile_qr_scan", "ios": "https://dc.lft.to/lastmile_qr_scan"}, "fusion_lon": 0.0, "lat": 38.828609666666665, "bike_id": "d60e611c628eaaf1f5c87fe4707f1259", "type": "electric_bike", "is_reserved": 0, "lon": -77.08806166666666}, {"fusion_lat": 0.0, "name": "605b7a3e01387f07a9b442d2f9051c76", "is_disabled": 0, "rental_uris": {"android": "https://dc.lft.to/lastmile_qr_scan", "ios": "https://dc.lft.to/lastmile_qr_scan"}, "fusion_lon": 0.0, "lat": 38.923224166666664, "bike_id": "605b7a3e01387f07a9b442d2f9051c76", "type": "electric_scooter", "is_reserved": 0, "lon": -77.03770633333333}, {"fusion_lat": 0.0, "name": "ce28b0c58ebacaae6726f1d9aaef7021", "is_disabled": 0, "rental_uris": {"android": "https://dc.lft.to/lastmile_qr_scan", "ios": "https://dc.lft.to/lastmile_qr_scan"}, "fusion_lon": 0.0, "lat": 38.909492166666666, "bike_id": "ce28b0c58ebacaae6726f1d9aaef7021", "type": "electric_scooter", "is_reserved": 0, "lon": -77.04472183333333}, {"fusion_lat": 0.0, "name": "b91dbb25aa7234f85da744bdcf2cbb28", "is_disabled": 0, "rental_uris": {"android": "https://dc.lft.to/lastmile_qr_scan", "ios": "https://dc.lft.to/lastmile_qr_scan"}, "fusion_lon": 0.0, "lat": 38.92892766666667, "bike_id": "b91dbb25aa7234f85da744bdcf2cbb28", "type": "electric_scooter", "is_reserved": 0, "lon": -77.03269733333333}, {"fusion_lat": 0.0, "name": "17ee3f36cdc06e7bccf09280e67d86c4", "is_disabled": 0, "rental_uris": {"android": "https://dc.lft.to/lastmile_qr_scan", "ios": "https://dc.lft.to/lastmile_qr_scan"}, "fusion_lon": 0.0, "lat": 38.9156355, "bike_id": "17ee3f36cdc06e7bccf09280e67d86c4", "type": "electric_scooter", "is_reserved": 0, "lon": -77.03150516666666}, {"fusion_lat": 0.0, "name": "135bd839a0502c16dca06d751c1b8a0e", "is_disabled": 0, "rental_uris": {"android": "https://dc.lft.to/lastmile_qr_scan", "ios": "https://dc.lft.to/lastmile_qr_scan"}, "fusion_lon": 0.0, "lat": 38.9083235, "bike_id": "135bd839a0502c16dca06d751c1b8a0e", "type": "electric_scooter", "is_reserved": 0, "lon": -77.0433665}, {"fusion_lat": 0.0, "name": "5e025c84855309b899a4c501befb199d", "is_disabled": 0, "rental_uris": {"android": "https://dc.lft.to/lastmile_qr_scan", "ios": "https://dc.lft.to/lastmile_qr_scan"}, "fusion_lon": 0.0, "lat": 39.0418155, "bike_id": "5e025c84855309b899a4c501befb199d", "type": "electric_bike", "is_reserved": 0, "lon": -77.05241516666666}, {"fusion_lat": 0.0, "name": "e13a9fe84e2de032ee42755f35ce8239", "is_disabled": 0, "rental_uris": {"android": "https://dc.lft.to/lastmile_qr_scan", "ios": "https://dc.lft.to/lastmile_qr_scan"}, "fusion_lon": 0.0, "lat": 38.91314233333333, "bike_id": "e13a9fe84e2de032ee42755f35ce8239", "type": "electric_scooter", "is_reserved": 0, "lon": -77.044868}, {"fusion_lat": 0.0, "name": "de59837d0e758bc86b1d2f24db7aab14", "is_disabled": 0, "rental_uris": {"android": "https://dc.lft.to/lastmile_qr_scan", "ios": "https://dc.lft.to/lastmile_qr_scan"}, "fusion_lon": 0.0, "lat": 38.91687, "bike_id": "de59837d0e758bc86b1d2f24db7aab14", "type": "electric_scooter", "is_reserved": 0, "lon": -77.03207266666666}, {"fusion_lat": 0.0, "name": "91c952ef7a2465ea78684450da1c30c4", "is_disabled": 0, "rental_uris": {"android": "https://dc.lft.to/lastmile_qr_scan", "ios": "https://dc.lft.to/lastmile_qr_scan"}, "fusion_lon": 0.0, "lat": 38.917115, "bike_id": "91c952ef7a2465ea78684450da1c30c4", "type": "electric_scooter", "is_reserved": 0, "lon": -77.040416}, {"fusion_lat": 0.0, "name": "67e5bfa4eab22c6033ddc03bdbbadb21", "is_disabled": 0, "rental_uris": {"android": "https://dc.lft.to/lastmile_qr_scan", "ios": "https://dc.lft.to/lastmile_qr_scan"}, "fusion_lon": 0.0, "lat": 38.93249266666667, "bike_id": "67e5bfa4eab22c6033ddc03bdbbadb21", "type": "electric_scooter", "is_reserved": 0, "lon": -77.02951583333333}, {"fusion_lat": 0.0, "name": "0593dcb2c0d4b11660913176f708df0d", "is_disabled": 0, "rental_uris": {"android": "https://dc.lft.to/lastmile_qr_scan", "ios": "https://dc.lft.to/lastmile_qr_scan"}, "fusion_lon": 0.0, "lat": 38.90394233333333, "bike_id": "0593dcb2c0d4b11660913176f708df0d", "type": "electric_scooter", "is_reserved": 0, "lon": -76.989394}, {"fusion_lat": 0.0, "name": "178fd74f6a352628fb1f67948368971c", "is_disabled": 0, "rental_uris": {"android": "https://dc.lft.to/lastmile_qr_scan", "ios": "https://dc.lft.to/lastmile_qr_scan"}, "fusion_lon": 0.0, "lat": 38.9210855, "bike_id": "178fd74f6a352628fb1f67948368971c", "type": "electric_scooter", "is_reserved": 0, "lon": -77.031738}, {"fusion_lat": 0.0, "name": "30aec2afc6536f5c37444b229f5ffe20", "is_disabled": 0, "rental_uris": {"android": "https://dc.lft.to/lastmile_qr_scan", "ios": "https://dc.lft.to/lastmile_qr_scan"}, "fusion_lon": 0.0, "lat": 38.89357716666667, "bike_id": "30aec2afc6536f5c37444b229f5ffe20", "type": "electric_scooter", "is_reserved": 0, "lon": -77.000688}, {"fusion_lat": 0.0, "name": "c62ea18539c8553011ba8368c1527d7d", "is_disabled": 0, "rental_uris": {"android": "https://dc.lft.to/lastmile_qr_scan", "ios": "https://dc.lft.to/lastmile_qr_scan"}, "fusion_lon": 0.0, "lat": 38.913249, "bike_id": "c62ea18539c8553011ba8368c1527d7d", "type": "electric_scooter", "is_reserved": 0, "lon": -77.03183983333334}, {"fusion_lat": 0.0, "name": "7b911e4d02a9601ee3c7fefcb5a2a582", "is_disabled": 0, "rental_uris": {"android": "https://dc.lft.to/lastmile_qr_scan", "ios": "https://dc.lft.to/lastmile_qr_scan"}, "fusion_lon": 0.0, "lat": 38.896272833333335, "bike_id": "7b911e4d02a9601ee3c7fefcb5a2a582", "type": "electric_scooter", "is_reserved": 0, "lon": -77.026679}, {"fusion_lat": 0.0, "name": "e2ff4eea7b625c20c2ccd4ac4daa870b", "is_disabled": 0, "rental_uris": {"android": "https://dc.lft.to/lastmile_qr_scan", "ios": "https://dc.lft.to/lastmile_qr_scan"}, "fusion_lon": 0.0, "lat": 38.967289666666666, "bike_id": "e2ff4eea7b625c20c2ccd4ac4daa870b", "type": "electric_scooter", "is_reserved": 0, "lon": -77.00918266666666}, {"fusion_lat": 0.0, "name": "4d4372299dbe1624ee1db23b5ae9d906", "is_disabled": 0, "rental_uris": {"android": "https://dc.lft.to/lastmile_qr_scan", "ios": "https://dc.lft.to/lastmile_qr_scan"}, "fusion_lon": 0.0, "lat": 38.919101, "bike_id": "4d4372299dbe1624ee1db23b5ae9d906", "type": "electric_scooter", "is_reserved": 0, "lon": -77.026155}, {"fusion_lat": 0.0, "name": "506c247426d3dc2da87af49087b63a14", "is_disabled": 0, "rental_uris": {"android": "https://dc.lft.to/lastmile_qr_scan", "ios": "https://dc.lft.to/lastmile_qr_scan"}, "fusion_lon": 0.0, "lat": 38.9524595, "bike_id": "506c247426d3dc2da87af49087b63a14", "type": "electric_scooter", "is_reserved": 0, "lon": -77.02381433333333}, {"fusion_lat": 0.0, "name": "ac73f63409c4a1a02f21c34fe4d9bf10", "is_disabled": 0, "rental_uris": {"android": "https://dc.lft.to/lastmile_qr_scan", "ios": "https://dc.lft.to/lastmile_qr_scan"}, "fusion_lon": 0.0, "lat": 38.892569333333334, "bike_id": "ac73f63409c4a1a02f21c34fe4d9bf10", "type": "electric_bike", "is_reserved": 0, "lon": -76.95117566666667}, {"fusion_lat": 0.0, "name": "9c6808b7c2075e36516eb96e7ee4d6ea", "is_disabled": 0, "rental_uris": {"android": "https://dc.lft.to/lastmile_qr_scan", "ios": "https://dc.lft.to/lastmile_qr_scan"}, "fusion_lon": 0.0, "lat": 38.883213833333336, "bike_id": "9c6808b7c2075e36516eb96e7ee4d6ea", "type": "electric_scooter", "is_reserved": 0, "lon": -77.01745333333334}, {"fusion_lat": 0.0, "name": "207456f09f0b26b5b304e0a207df0f64", "is_disabled": 0, "rental_uris": {"android": "https://dc.lft.to/lastmile_qr_scan", "ios": "https://dc.lft.to/lastmile_qr_scan"}, "fusion_lon": 0.0, "lat": 38.87548133333333, "bike_id": "207456f09f0b26b5b304e0a207df0f64", "type": "electric_scooter", "is_reserved": 0, "lon": -77.00540633333334}, {"fusion_lat": 0.0, "name": "d7f532e35ee3593e9686a5a2e227a350", "is_disabled": 0, "rental_uris": {"android": "https://dc.lft.to/lastmile_qr_scan", "ios": "https://dc.lft.to/lastmile_qr_scan"}, "fusion_lon": 0.0, "lat": 38.924608, "bike_id": "d7f532e35ee3593e9686a5a2e227a350", "type": "electric_scooter", "is_reserved": 0, "lon": -77.080249}, {"fusion_lat": 0.0, "name": "a077c984b3a7509234a3871c66693164", "is_disabled": 0, "rental_uris": {"android": "https://dc.lft.to/lastmile_qr_scan", "ios": "https://dc.lft.to/lastmile_qr_scan"}, "fusion_lon": 0.0, "lat": 38.898778666666665, "bike_id": "a077c984b3a7509234a3871c66693164", "type": "electric_scooter", "is_reserved": 0, "lon": -77.04660283333334}, {"fusion_lat": 0.0, "name": "c19425feeb83fa5bec3d607700088308", "is_disabled": 0, "rental_uris": {"android": "https://dc.lft.to/lastmile_qr_scan", "ios": "https://dc.lft.to/lastmile_qr_scan"}, "fusion_lon": 0.0, "lat": 38.905721, "bike_id": "c19425feeb83fa5bec3d607700088308", "type": "electric_scooter", "is_reserved": 0, "lon": -77.02417733333333}, {"fusion_lat": 0.0, "name": "36b41c4d3e69832a3d58688326661a48", "is_disabled": 0, "rental_uris": {"android": "https://dc.lft.to/lastmile_qr_scan", "ios": "https://dc.lft.to/lastmile_qr_scan"}, "fusion_lon": 0.0, "lat": 38.8829555, "bike_id": "36b41c4d3e69832a3d58688326661a48", "type": "electric_bike", "is_reserved": 0, "lon": -77.03024366666666}, {"fusion_lat": 0.0, "name": "b08b1c35e53d1bfd0e26906f78b0a326", "is_disabled": 0, "rental_uris": {"android": "https://dc.lft.to/lastmile_qr_scan", "ios": "https://dc.lft.to/lastmile_qr_scan"}, "fusion_lon": 0.0, "lat": 38.9307645, "bike_id": "b08b1c35e53d1bfd0e26906f78b0a326", "type": "electric_scooter", "is_reserved": 0, "lon": -77.03160716666666}, {"fusion_lat": 0.0, "name": "a0e2459c7be2ae1f77d77f4e349fd165", "is_disabled": 0, "rental_uris": {"android": "https://dc.lft.to/lastmile_qr_scan", "ios": "https://dc.lft.to/lastmile_qr_scan"}, "fusion_lon": 0.0, "lat": 38.92703316666667, "bike_id": "a0e2459c7be2ae1f77d77f4e349fd165", "type": "electric_scooter", "is_reserved": 0, "lon": -77.02325183333333}, {"fusion_lat": 0.0, "name": "e3b7103e0f3d0406922e22589f7c8a8e", "is_disabled": 0, "rental_uris": {"android": "https://dc.lft.to/lastmile_qr_scan", "ios": "https://dc.lft.to/lastmile_qr_scan"}, "fusion_lon": 0.0, "lat": 38.924973333333334, "bike_id": "e3b7103e0f3d0406922e22589f7c8a8e", "type": "electric_scooter", "is_reserved": 0, "lon": -77.02170233333334}, {"fusion_lat": 0.0, "name": "e31fa98c20c0342f7478d598dbdf8eff", "is_disabled": 0, "rental_uris": {"android": "https://dc.lft.to/lastmile_qr_scan", "ios": "https://dc.lft.to/lastmile_qr_scan"}, "fusion_lon": 0.0, "lat": 38.9563315, "bike_id": "e31fa98c20c0342f7478d598dbdf8eff", "type": "electric_scooter", "is_reserved": 0, "lon": -77.03305166666667}, {"fusion_lat": 0.0, "name": "90ee58db8a75663554fd147cf7ffcd81", "is_disabled": 0, "rental_uris": {"android": "https://dc.lft.to/lastmile_qr_scan", "ios": "https://dc.lft.to/lastmile_qr_scan"}, "fusion_lon": 0.0, "lat": 38.90098233333333, "bike_id": "90ee58db8a75663554fd147cf7ffcd81", "type": "electric_scooter", "is_reserved": 0, "lon": -77.058133}, {"fusion_lat": 0.0, "name": "fe0f3fd2d212ea3b1b41bcf575d013c2", "is_disabled": 0, "rental_uris": {"android": "https://dc.lft.to/lastmile_qr_scan", "ios": "https://dc.lft.to/lastmile_qr_scan"}, "fusion_lon": 0.0, "lat": 38.941314166666665, "bike_id": "fe0f3fd2d212ea3b1b41bcf575d013c2", "type": "electric_scooter", "is_reserved": 0, "lon": -77.0154505}, {"fusion_lat": 0.0, "name": "a94f5b4eb4556454317678a7bd775fbd", "is_disabled": 0, "rental_uris": {"android": "https://dc.lft.to/lastmile_qr_scan", "ios": "https://dc.lft.to/lastmile_qr_scan"}, "fusion_lon": 0.0, "lat": 38.91018016666666, "bike_id": "a94f5b4eb4556454317678a7bd775fbd", "type": "electric_scooter", "is_reserved": 0, "lon": -77.0385925}, {"fusion_lat": 0.0, "name": "37942476515a36d78ad006a806798940", "is_disabled": 0, "rental_uris": {"android": "https://dc.lft.to/lastmile_qr_scan", "ios": "https://dc.lft.to/lastmile_qr_scan"}, "fusion_lon": 0.0, "lat": 38.95020433333333, "bike_id": "37942476515a36d78ad006a806798940", "type": "electric_scooter", "is_reserved": 0, "lon": -77.03349566666667}, {"fusion_lat": 0.0, "name": "2bfcc59e2955e670998c6c19a9fa0453", "is_disabled": 0, "rental_uris": {"android": "https://dc.lft.to/lastmile_qr_scan", "ios": "https://dc.lft.to/lastmile_qr_scan"}, "fusion_lon": 0.0, "lat": 38.93896566666667, "bike_id": "2bfcc59e2955e670998c6c19a9fa0453", "type": "electric_scooter", "is_reserved": 0, "lon": -77.033271}, {"fusion_lat": 0.0, "name": "47271d32d55075a267622b15bb534034", "is_disabled": 0, "rental_uris": {"android": "https://dc.lft.to/lastmile_qr_scan", "ios": "https://dc.lft.to/lastmile_qr_scan"}, "fusion_lon": 0.0, "lat": 38.940915833333335, "bike_id": "47271d32d55075a267622b15bb534034", "type": "electric_scooter", "is_reserved": 0, "lon": -77.02318233333334}, {"fusion_lat": 0.0, "name": "f1d288d8d5c24f10a570047e5feecede", "is_disabled": 0, "rental_uris": {"android": "https://dc.lft.to/lastmile_qr_scan", "ios": "https://dc.lft.to/lastmile_qr_scan"}, "fusion_lon": 0.0, "lat": 38.9070145, "bike_id": "f1d288d8d5c24f10a570047e5feecede", "type": "electric_scooter", "is_reserved": 0, "lon": -77.0271965}, {"fusion_lat": 0.0, "name": "ffae308ae19f696fc7e6e26bbe9b6e0a", "is_disabled": 0, "rental_uris": {"android": "https://dc.lft.to/lastmile_qr_scan", "ios": "https://dc.lft.to/lastmile_qr_scan"}, "fusion_lon": 0.0, "lat": 38.9112985, "bike_id": "ffae308ae19f696fc7e6e26bbe9b6e0a", "type": "electric_scooter", "is_reserved": 0, "lon": -77.02097616666667}, {"fusion_lat": 0.0, "name": "897f3776812b6cac6a2d533cfa446dea", "is_disabled": 0, "rental_uris": {"android": "https://dc.lft.to/lastmile_qr_scan", "ios": "https://dc.lft.to/lastmile_qr_scan"}, "fusion_lon": 0.0, "lat": 38.89099733333333, "bike_id": "897f3776812b6cac6a2d533cfa446dea", "type": "electric_scooter", "is_reserved": 0, "lon": -76.943852}, {"fusion_lat": 0.0, "name": "e4afbc17b8e27807c94fd00e48b610bf", "is_disabled": 0, "rental_uris": {"android": "https://dc.lft.to/lastmile_qr_scan", "ios": "https://dc.lft.to/lastmile_qr_scan"}, "fusion_lon": 0.0, "lat": 38.969928833333334, "bike_id": "e4afbc17b8e27807c94fd00e48b610bf", "type": "electric_scooter", "is_reserved": 0, "lon": -77.011609}, {"fusion_lat": 0.0, "name": "c69073dfc5413f3441962b239075222f", "is_disabled": 0, "rental_uris": {"android": "https://dc.lft.to/lastmile_qr_scan", "ios": "https://dc.lft.to/lastmile_qr_scan"}, "fusion_lon": 0.0, "lat": 38.911115333333335, "bike_id": "c69073dfc5413f3441962b239075222f", "type": "electric_scooter", "is_reserved": 0, "lon": -77.0291105}, {"fusion_lat": 0.0, "name": "628c4636e4ba4697871b7a3962f51302", "is_disabled": 0, "rental_uris": {"android": "https://dc.lft.to/lastmile_qr_scan", "ios": "https://dc.lft.to/lastmile_qr_scan"}, "fusion_lon": 0.0, "lat": 38.930605166666666, "bike_id": "628c4636e4ba4697871b7a3962f51302", "type": "electric_scooter", "is_reserved": 0, "lon": -77.04057683333333}, {"fusion_lat": 0.0, "name": "e92766d041bf5cae39f9cb64b052a818", "is_disabled": 0, "rental_uris": {"android": "https://dc.lft.to/lastmile_qr_scan", "ios": "https://dc.lft.to/lastmile_qr_scan"}, "fusion_lon": 0.0, "lat": 38.909091333333336, "bike_id": "e92766d041bf5cae39f9cb64b052a818", "type": "electric_scooter", "is_reserved": 0, "lon": -77.07276183333333}, {"fusion_lat": 0.0, "name": "a3fbbe6c6318851211fd68dbedce9cff", "is_disabled": 0, "rental_uris": {"android": "https://dc.lft.to/lastmile_qr_scan", "ios": "https://dc.lft.to/lastmile_qr_scan"}, "fusion_lon": 0.0, "lat": 38.88128316666667, "bike_id": "a3fbbe6c6318851211fd68dbedce9cff", "type": "electric_bike", "is_reserved": 0, "lon": -77.01678016666666}, {"fusion_lat": 0.0, "name": "72846539dc0733bac7a0b3951ce4d4d4", "is_disabled": 0, "rental_uris": {"android": "https://dc.lft.to/lastmile_qr_scan", "ios": "https://dc.lft.to/lastmile_qr_scan"}, "fusion_lon": 0.0, "lat": 38.8972575, "bike_id": "72846539dc0733bac7a0b3951ce4d4d4", "type": "electric_scooter", "is_reserved": 0, "lon": -77.00370983333333}, {"fusion_lat": 0.0, "name": "ffa961e328abda4153fdff3cd41dd360", "is_disabled": 0, "rental_uris": {"android": "https://dc.lft.to/lastmile_qr_scan", "ios": "https://dc.lft.to/lastmile_qr_scan"}, "fusion_lon": 0.0, "lat": 38.89736766666667, "bike_id": "ffa961e328abda4153fdff3cd41dd360", "type": "electric_bike", "is_reserved": 0, "lon": -76.92045733333333}, {"fusion_lat": 0.0, "name": "50162af2961274251ab7a8d0771bfb08", "is_disabled": 0, "rental_uris": {"android": "https://dc.lft.to/lastmile_qr_scan", "ios": "https://dc.lft.to/lastmile_qr_scan"}, "fusion_lon": 0.0, "lat": 38.91908816666667, "bike_id": "50162af2961274251ab7a8d0771bfb08", "type": "electric_scooter", "is_reserved": 0, "lon": -77.0021585}, {"fusion_lat": 0.0, "name": "2a323ae9755868251b52679f602314a9", "is_disabled": 0, "rental_uris": {"android": "https://dc.lft.to/lastmile_qr_scan", "ios": "https://dc.lft.to/lastmile_qr_scan"}, "fusion_lon": 0.0, "lat": 38.975191, "bike_id": "2a323ae9755868251b52679f602314a9", "type": "electric_scooter", "is_reserved": 0, "lon": -77.017384}, {"fusion_lat": 0.0, "name": "c5b917f1a61cd81cb2c96dd961f0f154", "is_disabled": 0, "rental_uris": {"android": "https://dc.lft.to/lastmile_qr_scan", "ios": "https://dc.lft.to/lastmile_qr_scan"}, "fusion_lon": 0.0, "lat": 38.8970975, "bike_id": "c5b917f1a61cd81cb2c96dd961f0f154", "type": "electric_scooter", "is_reserved": 0, "lon": -77.04339333333333},