{"data": {"bikes": [{"fusion_lat": 0.0, "name": "42c9c9927f9d63bceb23d956dd40a8b6", "is_disabled": 0, "rental_uris": {"android": "https://dc.lft.to/lastmile_qr_scan", "ios": "https://dc.lft.to/lastmile_qr_scan"}, "fusion_lon": 0.0, "lat": 38.913976166666664, "bike_id": "42c9c9927f9d63bceb23d956dd40a8b6", "type": "electric_scooter", "is_reserved": 0, "lon": -77.03180766666667}, {"fusion_lat": 0.0, "name": "971c1d1e2073fe0612a3fc91661810e5", "is_disabled": 0, "rental_uris": {"android": "https://dc.lft.to/lastmile_qr_scan", "ios": "https://dc.lft.to/lastmile_qr_scan"}, "fusion_lon": 0.0, "lat": 38.90474416666667, "bike_id": "971c1d1e2073fe0612a3fc91661810e5", "type": "electric_scooter", "is_reserved": 0, "lon": -76.95205966666667}, {"fusion_lat": 0.0, "name": "67f197a79e39038f52dd5ec501c398e0", "is_disabled": 0, "rental_uris": {"android": "https://dc.lft.to/lastmile_qr_scan", "ios": "https://dc.lft.to/lastmile_qr_scan"}, "fusion_lon": 0.0, "lat": 38.8946455, "bike_id": "67f197a79e39038f52dd5ec501c398e0", "type": "electric_scooter", "is_reserved": 0, "lon": -77.01102333333333}, {"fusion_lat": 0.0, "name": "7a2bee3fbfc0eb212fbd0096acb59845", "is_disabled": 0, "rental_uris": {"android": "https://dc.lft.to/lastmile_qr_scan", "ios": "https://dc.lft.to/lastmile_qr_scan"}, "fusion_lon": 0.0, "lat": 38.9007875, "bike_id": "7a2bee3fbfc0eb212fbd0096acb59845", "type": "electric_scooter", "is_reserved": 0, "lon": -77.04753916666667}, {"fusion_lat": 0.0, "name": "d25b71899ad6bc8f9176ffd51d786e2e", "is_disabled": 0, "rental_uris": {"android": "https://dc.lft.to/lastmile_qr_scan", "ios": "https://dc.lft.to/lastmile_qr_scan"}, "fusion_lon": 0.0, "lat": 38.9554585, "bike_id": "d25b71899ad6bc8f9176ffd51d786e2e", "type": "electric_bike", "is_reserved": 0, "lon": -77.06942866666667}, {"fusion_lat": 0.0, "name": "0c78164bfa3b82558ba1d30f00b49264", "is_disabled": 0, "rental_uris": {"android": "https://dc.lft.to/lastmile_qr_scan", "ios": "https://dc.lft.to/lastmile_qr_scan"}, "fusion_lon": 0.0, "lat": 38.8862295, "bike_id": "0c78164bfa3b82558ba1d30f00b49264", "type": "electric_scooter", "is_reserved": 0, "lon": -77.01529183333334}, {"fusion_lat": 0.0, "name": "bb2446d528a36c8e67b319bef28cedf4", "is_disabled": 0, "rental_uris": {"android": "https://dc.lft.to/lastmile_qr_scan", "ios": "https://dc.lft.to/lastmile_qr_scan"}, "fusion_lon": 0.0, "lat": 38.92265833333333, "bike_id": "bb2446d528a36c8e67b319bef28cedf4", "type": "electric_scooter", "is_reserved": 0, "lon": -76.99424}, {"fusion_lat": 0.0, "name": "92e3964c9c2553c0c31f30b2195bbdfa", "is_disabled": 0, "rental_uris": {"android": "https://dc.lft.to/lastmile_qr_scan", "ios": "https://dc.lft.to/lastmile_qr_scan"}, "fusion_lon": 0.0, "lat": 38.92369, "bike_id": "92e3964c9c2553c0c31f30b2195bbdfa", "type": "electric_scooter", "is_reserved": 0, "lon": -77.08153183333333}, {"fusion_lat": 0.0, "name": "32ba8e05912da04cc6e274a85545814d", "is_disabled": 0, "rental_uris": {"android": "https://dc.lft.to/lastmile_qr_scan", "ios": "https://dc.lft.to/lastmile_qr_scan"}, "fusion_lon": 0.0, "lat": 38.902629, "bike_id": "32ba8e05912da04cc6e274a85545814d", "type": "electric_scooter", "is_reserved": 0, "lon": -76.99611816666666}, {"fusion_lat": 0.0, "name": "34bd1585aeaca262e01d420ea533803e", "is_disabled": 0, "rental_uris": {"android": "https://dc.lft.to/lastmile_qr_scan", "ios": "https://dc.lft.to/lastmile_qr_scan"}, "fusion_lon": 0.0, "lat": 38.92720083333333, "bike_id": "34bd1585aeaca262e01d420ea533803e", "type": "electric_scooter", "is_reserved": 0, "lon": -77.03166183333333}, {"fusion_lat": 0.0, "name": "79d9540b12f5b1efe3f2a21bc3b03c4c", "is_disabled": 0, "rental_uris": {"android": "https://dc.lft.to/lastmile_qr_scan", "ios": "https://dc.lft.to/lastmile_qr_scan"}, "fusion_lon": 0.0, "lat": 38.88615933333333, "bike_id": "79d9540b12f5b1efe3f2a21bc3b03c4c", "type": "electric_scooter", "is_reserved": 0, "lon": -77.01912716666666}, {"fusion_lat": 0.0, "name": "8ffdd4ab968103c89710ec18feb1700c", "is_disabled": 0, "rental_uris": {"android": "https://dc.lft.to/lastmile_qr_scan", "ios": "https://dc.lft.to/lastmile_qr_scan"}, "fusion_lon": 0.0, "lat": 38.91082216666667, "bike_id": "8ffdd4ab968103c89710ec18feb1700c", "type": "electric_scooter", "is_reserved": 0, "lon": -77.06545166666666}, {"fusion_lat": 0.0, "name": "98c968d856cde06b4c1c8a9f1d211b4c", "is_disabled": 0, "rental_uris": {"android": "https://dc.lft.to/lastmile_qr_scan", "ios": "https://dc.lft.to/lastmile_qr_scan"}, "fusion_lon": 0.0, "lat": 38.897372833333336, "bike_id": "98c968d856cde06b4c1c8a9f1d211b4c", "type": "electric_scooter", "is_reserved": 0, "lon": -76.94717583333333}, {"fusion_lat": 0.0, "name": "340f2dba066c906c95c02dbb9d29e3f7", "is_disabled": 0, "rental_uris": {"android": "https://dc.lft.to/lastmile_qr_scan", "ios": "https://dc.lft.to/lastmile_qr_scan"}, "fusion_lon": 0.0, "lat": 38.91584616666667, "bike_id": "340f2dba066c906c95c02dbb9d29e3f7", "type": "electric_scooter", "is_reserved": 0, "lon": -77.046154}, {"fusion_lat": 0.0, "name": "0f223764a9fb2b9ec4c1e89706497962", "is_disabled": 0, "rental_uris": {"android": "https://dc.lft.to/lastmile_qr_scan", "ios": "https://dc.lft.to/lastmile_qr_scan"}, "fusion_lon": 0.0, "lat": 38.9046405, "bike_id": "0f223764a9fb2b9ec4c1e89706497962", "type": "electric_scooter", "is_reserved": 0, "lon": -77.01272183333333}, {"fusion_lat": 0.0, "name": "220ed54abe762a371b83036abec6c92f", "is_disabled": 0, "rental_uris": {"android": "https://dc.lft.to/lastmile_qr_scan", "ios": "https://dc.lft.to/lastmile_qr_scan"}, "fusion_lon": 0.0, "lat": 38.900302833333335, "bike_id": "220ed54abe762a371b83036abec6c92f", "type": "electric_scooter", "is_reserved": 0, "lon": -76.99138666666667}, {"fusion_lat": 0.0, "name": "791af6dc224cc7905f9ed44a9c6e5da3", "is_disabled": 0, "rental_uris": {"android": "https://dc.lft.to/lastmile_qr_scan", "ios": "https://dc.lft.to/lastmile_qr_scan"}, "fusion_lon": 0.0, "lat": 38.9304125, "bike_id": "791af6dc224cc7905f9ed44a9c6e5da3", "type": "electric_scooter", "is_reserved": 0, "lon": -77.032998}, {"fusion_lat": 0.0, "name": "8781f2ba53ea6a936cbef5114ccaa607", "is_disabled": 0, "rental_uris": {"android": "https://dc.lft.to/lastmile_qr_scan", "ios": "https://dc.lft.to/lastmile_qr_scan"}, "fusion_lon": 0.0, "lat": 38.9320775, "bike_id": "8781f2ba53ea6a936cbef5114ccaa607", "type": "electric_scooter", "is_reserved": 0, "lon": -77.0266375}, {"fusion_lat": 0.0, "name": "dbfa29c916b4712275c40293fa5f77c9", "is_disabled": 0, "rental_uris": {"android": "https://dc.lft.to/lastmile_qr_scan", "ios": "https://dc.lft.to/lastmile_qr_scan"}, "fusion_lon": 0.0, "lat": 38.9003125, "bike_id": "dbfa29c916b4712275c40293fa5f77c9", "type": "electric_scooter", "is_reserved": 0, "lon": -76.99925866666666}, {"fusion_lat": 0.0, "name": "631529081a7ea83934275ba89b3e4885", "is_disabled": 0, "rental_uris": {"android": "https://dc.lft.to/lastmile_qr_scan", "ios": "https://dc.lft.to/lastmile_qr_scan"}, "fusion_lon": 0.0, "lat": 38.92315633333333, "bike_id": "631529081a7ea83934275ba89b3e4885", "type": "electric_scooter", "is_reserved": 0, "lon": -77.04624283333334}, {"fusion_lat": 0.0, "name": "3ca6cc2a995a4b2389a140b1e4b20f23", "is_disabled": 0, "rental_uris": {"android": "https://dc.lft.to/lastmile_qr_scan", "ios": "https://dc.lft.to/lastmile_qr_scan"}, "fusion_lon": 0.0, "lat": 38.90583933333333, "bike_id": "3ca6cc2a995a4b2389a140b1e4b20f23", "type": "electric_scooter", "is_reserved": 0, "lon": -77.034123}, {"fusion_lat": 0.0, "name": "caf46f1994959af1fb5bed6eabcfee91", "is_disabled": 0, "rental_uris": {"android": "https://dc.lft.to/lastmile_qr_scan", "ios": "https://dc.lft.to/lastmile_qr_scan"}, "fusion_lon": 0.0, "lat": 38.920756, "bike_id": "caf46f1994959af1fb5bed6eabcfee91", "type": "electric_scooter", "is_reserved": 0, "lon": -77.04060616666666}, {"fusion_lat": 0.0, "name": "4406c0b42ebb33ed057229088b52dd6e", "is_disabled": 0, "rental_uris": {"android": "https://dc.lft.to/lastmile_qr_scan", "ios": "https://dc.lft.to/lastmile_qr_scan"}, "fusion_lon": 0.0, "lat": 38.87449566666667, "bike_id": "4406c0b42ebb33ed057229088b52dd6e", "type": "electric_scooter", "is_reserved": 0, "lon": -77.01871833333334}, {"fusion_lat": 0.0, "name": "927de426527c48c68dbe156b0897009f", "is_disabled": 0, "rental_uris": {"android": "https://dc.lft.to/lastmile_qr_scan", "ios": "https://dc.lft.to/lastmile_qr_scan"}, "fusion_lon": 0.0, "lat": 38.8759215, "bike_id": "927de426527c48c68dbe156b0897009f", "type": "electric_scooter", "is_reserved": 0, "lon": -77.00581483333333}, {"fusion_lat": 0.0, "name": "10f14e87764a84c20363e84e085125f7", "is_disabled": 0, "rental_uris": {"android": "https://dc.lft.to/lastmile_qr_scan", "ios": "https://dc.lft.to/lastmile_qr_scan"}, "fusion_lon": 0.0, "lat": 38.890132666666666, "bike_id": "10f14e87764a84c20363e84e085125f7", "type": "electric_scooter", "is_reserved": 0, "lon": -76.9373875}, {"fusion_lat": 0.0, "name": "d77ef5ab90ea5a924ece3fe1843d6d1d", "is_disabled": 0, "rental_uris": {"android": "https://dc.lft.to/lastmile_qr_scan", "ios": "https://dc.lft.to/lastmile_qr_scan"}, "fusion_lon": 0.0, "lat": 38.95632583333333, "bike_id": "d77ef5ab90ea5a924ece3fe1843d6d1d", "type": "electric_scooter", "is_reserved": 0, "lon": -77.03306616666667}, {"fusion_lat": 0.0, "name": "5a83295540ecaec00b63d5e6e791989f", "is_disabled": 0, "rental_uris": {"android": "https://dc.lft.to/lastmile_qr_scan", "ios": "https://dc.lft.to/lastmile_qr_scan"}, "fusion_lon": 0.0, "lat": 38.955695166666665, "bike_id": "5a83295540ecaec00b63d5e6e791989f", "type": "electric_bike", "is_reserved": 0, "lon": -77.0101255}, {"fusion_lat": 0.0, "name": "240cf60cc45c1ecc62f456f7b7a46f52", "is_disabled": 0, "rental_uris": {"android": "https://dc.lft.to/lastmile_qr_scan", "ios": "https://dc.lft.to/lastmile_qr_scan"}, "fusion_lon": 0.0, "lat": 38.958701, "bike_id": "240cf60cc45c1ecc62f456f7b7a46f52", "type": "electric_bike", "is_reserved": 0, "lon": -76.97061266666667}, {"fusion_lat": 0.0, "name": "2f5188d7d31b45d38db6c0dba74f0e54", "is_disabled": 0, "rental_uris": {"android": "https://dc.lft.to/lastmile_qr_scan", "ios": "https://dc.lft.to/lastmile_qr_scan"}, "fusion_lon": 0.0, "lat": 38.925543, "bike_id": "2f5188d7d31b45d38db6c0dba74f0e54", "type": "electric_scooter", "is_reserved": 0, "lon": -77.03552616666667}, {"fusion_lat": 0.0, "name": "8438dcd623c33027bad54e8cb76a41bd", "is_disabled": 0, "rental_uris": {"android": "https://dc.lft.to/lastmile_qr_scan", "ios": "https://dc.lft.to/lastmile_qr_scan"}, "fusion_lon": 0.0, "lat": 38.90365283333333, "bike_id": "8438dcd623c33027bad54e8cb76a41bd", "type": "electric_scooter", "is_reserved": 0, "lon": -77.05016566666667}, {"fusion_lat": 0.0, "name": "fe1bdd5dd225d1da238c576f88af51f2", "is_disabled": 0, "rental_uris": {"android": "https://dc.lft.to/lastmile_qr_scan", "ios": "https://dc.lft.to/lastmile_qr_scan"}, "fusion_lon": 0.0, "lat": 38.92987333333333, "bike_id": "fe1bdd5dd225d1da238c576f88af51f2", "type": "electric_scooter", "is_reserved": 0, "lon": -77.03241916666667}, {"fusion_lat": 0.0, "name": "c745d751f04019e3803460eee8941a5a", "is_disabled": 0, "rental_uris": {"android": "https://dc.lft.to/lastmile_qr_scan", "ios": "https://dc.lft.to/lastmile_qr_scan"}, "fusion_lon": 0.0, "lat": 38.930439666666665, "bike_id": "c745d751f04019e3803460eee8941a5a", "type": "electric_scooter", "is_reserved": 0, "lon": -77.032933}, {"fusion_lat": 0.0, "name": "729a55250a4ea13973c43c21d4f7a9d5", "is_disabled": 0, "rental_uris": {"android": "https://dc.lft.to/lastmile_qr_scan", "ios": "https://dc.lft.to/lastmile_qr_scan"}, "fusion_lon": 0.0, "lat": 38.921085166666664, "bike_id": "729a55250a4ea13973c43c21d4f7a9d5", "type": "electric_scooter", "is_reserved": 0, "lon": -76.994085}, {"fusion_lat": 0.0, "name": "23710d9237d4e714cf31bb6bc43e5723", "is_disabled": 0, "rental_uris": {"android": "https://dc.lft.to/lastmile_qr_scan", "ios": "https://dc.lft.to/lastmile_qr_scan"}, "fusion_lon": 0.0, "lat": 38.894495666666664, "bike_id": "23710d9237d4e714cf31bb6bc43e5723", "type": "electric_scooter", "is_reserved": 0, "lon": -77.045456}, {"fusion_lat": 0.0, "name": "8be34e213c64ae6950a542d7ceebe9a3", "is_disabled": 0, "rental_uris": {"android": "https://dc.lft.to/lastmile_qr_scan", "ios": "https://dc.lft.to/lastmile_qr_scan"}, "fusion_lon": 0.0, "lat": 38.897288333333336, "bike_id": "8be34e213c64ae6950a542d7ceebe9a3", "type": "electric_scooter", "is_reserved": 0, "lon": -76.9470135}, {"fusion_lat": 0.0, "name": "f94778e91f716cfba026b5604781f11d", "is_disabled": 0, "rental_uris": {"android": "https://dc.lft.to/lastmile_qr_scan", "ios": "https://dc.lft.to/lastmile_qr_scan"}, "fusion_lon": 0.0, "lat": 38.908492333333335, "bike_id": "f94778e91f716cfba026b5604781f11d", "type": "electric_scooter", "is_reserved": 0, "lon": -77.063976}, {"fusion_lat": 0.0, "name": "9c4c60b9d681d9b5b153607ac8ae6671", "is_disabled": 0, "rental_uris": {"android": "https://dc.lft.to/lastmile_qr_scan", "ios": "https://dc.lft.to/lastmile_qr_scan"}, "fusion_lon": 0.0, "lat": 38.960701, "bike_id": "9c4c60b9d681d9b5b153607ac8ae6671", "type": "electric_scooter", "is_reserved": 0, "lon": -77.00098133333333}, {"fusion_lat": 0.0, "name": "a0345dd1df12c249b518e3b75c7730aa", "is_disabled": 0, "rental_uris": {"android": "https://dc.lft.to/lastmile_qr_scan", "ios": "https://dc.lft.to/lastmile_qr_scan"}, "fusion_lon": 0.0, "lat": 38.893627333333335, "bike_id": "a0345dd1df12c249b518e3b75c7730aa", "type": "electric_scooter", "is_reserved": 0, "lon": -77.00075966666667}, {"fusion_lat": 0.0, "name": "dc90884395bee662989b2104b2b6c485", "is_disabled": 0, "rental_uris": {"android": "https://dc.lft.to/lastmile_qr_scan", "ios": "https://dc.lft.to/lastmile_qr_scan"}, "fusion_lon": 0.0, "lat": 38.91618116666667, "bike_id": "dc90884395bee662989b2104b2b6c485", "type": "electric_scooter", "is_reserved": 0, "lon": -77.03859583333333}, {"fusion_lat": 0.0, "name": "b44d84ccffb43f7eb49eaa3e58357b14", "is_disabled": 0, "rental_uris": {"android": "https://dc.lft.to/lastmile_qr_scan", "ios": "https://dc.lft.to/lastmile_qr_scan"}, "fusion_lon": 0.0, "lat": 38.91926816666667, "bike_id": "b44d84ccffb43f7eb49eaa3e58357b14", "type": "electric_scooter", "is_reserved": 0, "lon": -77.0317705}, {"fusion_lat": 0.0, "name": "51d502bd3fda6888c82a3f6136bfe0de", "is_disabled": 0, "rental_uris": {"android": "https://dc.lft.to/lastmile_qr_scan", "ios": "https://dc.lft.to/lastmile_qr_scan"}, "fusion_lon": 0.0, "lat": 38.930437, "bike_id": "51d502bd3fda6888c82a3f6136bfe0de", "type": "electric_scooter", "is_reserved": 0, "lon": -77.033587}, {"fusion_lat": 0.0, "name": "ccd1771778e6622d15fbc7313ad87710", "is_disabled": 0, "rental_uris": {"android": "https://dc.lft.to/lastmile_qr_scan", "ios": "https://dc.lft.to/lastmile_qr_scan"}, "fusion_lon": 0.0, "lat": 38.949188166666666, "bike_id": "ccd1771778e6622d15fbc7313ad87710", "type": "electric_scooter", "is_reserved": 0, "lon": -77.0185615}, {"fusion_lat": 0.0, "name": "9026bc3a1dbd8b5045ef1631aaae270e", "is_disabled": 0, "rental_uris": {"android": "https://dc.lft.to/lastmile_qr_scan", "ios": "https://dc.lft.to/lastmile_qr_scan"}, "fusion_lon": 0.0, "lat": 38.88119016666667, "bike_id": "9026bc3a1dbd8b5045ef1631aaae270e", "type": "electric_scooter", "is_reserved": 0, "lon": -76.99518233333333}, {"fusion_lat": 0.0, "name": "e6760c813a4876278f0aecc2102ed01c", "is_disabled": 0, "rental_uris": {"android": "https://dc.lft.to/lastmile_qr_scan", "ios": "https://dc.lft.to/lastmile_qr_scan"}, "fusion_lon": 0.0, "lat": 38.914587, "bike_id": "e6760c813a4876278f0aecc2102ed01c", "type": "electric_scooter", "is_reserved": 0, "lon": -77.07224816666667}, {"fusion_lat": 0.0, "name": "b2ea301ef3088765c19f47d975561e46", "is_disabled": 0, "rental_uris": {"android": "https://dc.lft.to/lastmile_qr_scan", "ios": "https://dc.lft.to/lastmile_qr_scan"}, "fusion_lon": 0.0, "lat": 38.917881, "bike_id": "b2ea301ef3088765c19f47d975561e46", "type": "electric_scooter", "is_reserved": 0, "lon": -77.04027633333334}, {"fusion_lat": 0.0, "name": "d5902bc79f52e9890b15b392af0820e0", "is_disabled": 0, "rental_uris": {"android": "https://dc.lft.to/lastmile_qr_scan", "ios": "https://dc.lft.to/lastmile_qr_scan"}, "fusion_lon": 0.0, "lat": 38.87383883333333, "bike_id": "d5902bc79f52e9890b15b392af0820e0", "type": "electric_scooter", "is_reserved": 0, "lon": -77.00039466666666}, {"fusion_lat": 0.0, "name": "fb31ebd6ff7a955e6573a6e7c5973a4d", "is_disabled": 0, "rental_uris": {"android": "https://dc.lft.to/lastmile_qr_scan", "ios": "https://dc.lft.to/lastmile_qr_scan"}, "fusion_lon": 0.0, "lat": 38.900646, "bike_id": "fb31ebd6ff7a955e6573a6e7c5973a4d", "type": "electric_scooter", "is_reserved": 0, "lon": -76.92744333333333}, {"fusion_lat": 0.0, "name": "dc711be6ecdff1022fde37c8939f8292", "is_disabled": 0, "rental_uris": {"android": "https://dc.lft.to/lastmile_qr_scan", "ios": "https://dc.lft.to/lastmile_qr_scan"}, "fusion_lon": 0.0, "lat": 38.90775433333334, "bike_id": "dc711be6ecdff1022fde37c8939f8292", "type": "electric_scooter", "is_reserved": 0, "lon": -77.07169533333334}, {"fusion_lat": 0.0, "name": "fc21f9081ba33a7033923a7df0c7a440", "is_disabled": 0, "rental_uris": {"android": "https://dc.lft.to/lastmile_qr_scan", "ios": "https://dc.lft.to/lastmile_qr_scan"}, "fusion_lon": 0.0, "lat": 38.9155375, "bike_id": "fc21f9081ba33a7033923a7df0c7a440", "type": "electric_scooter", "is_reserved": 0, "lon": -77.03176}, {"fusion_lat": 0.0, "name": "606f6d814b7f398e0db614c469ee67ba", "is_disabled": 0, "rental_uris": {"android": "https://dc.lft.to/lastmile_qr_scan", "ios": "https://dc.lft.to/lastmile_qr_scan"}, "fusion_lon": 0.0, "lat": 38.876636, "bike_id": "606f6d814b7f398e0db614c469ee67ba", "type": "electric_scooter", "is_reserved": 0, "lon": -76.99624616666667}, {"fusion_lat": 0.0, "name": "2f96c6fb5b975869da8124809e194b5d", "is_disabled": 0, "rental_uris": {"android": "https://dc.lft.to/lastmile_qr_scan", "ios": "https://dc.lft.to/lastmile_qr_scan"}, "fusion_lon": 0.0, "lat": 38.92469233333333, "bike_id": "2f96c6fb5b975869da8124809e194b5d", "type": "electric_scooter", "is_reserved": 0, "lon": -77.0391685}, {"fusion_lat": 0.0, "name": "1caaa4694ed1253354d3ca6759935d64", "is_disabled": 0, "rental_uris": {"android": "https://dc.lft.to/lastmile_qr_scan", "ios": "https://dc.lft.to/lastmile_qr_scan"}, "fusion_lon": 0.0, "lat": 38.8752965, "bike_id": "1caaa4694ed1253354d3ca6759935d64", "type": "electric_scooter", "is_reserved": 0, "lon": -77.0051025}, {"fusion_lat": 0.0, "name": "fc9262cc4b0e025f03805aba95db956f", "is_disabled": 0, "rental_uris": {"android": "https://dc.lft.to/lastmile_qr_scan", "ios": "https://dc.lft.to/lastmile_qr_scan"}, "fusion_lon": 0.0, "lat": 38.910611, "bike_id": "fc9262cc4b0e025f03805aba95db956f", "type": "electric_scooter", "is_reserved": 0, "lon": -77.06513666666666}, {"fusion_lat": 0.0, "name": "a86cfa83f49e66dd26f13e0ee04b3eb3", "is_disabled": 0, "rental_uris": {"android": "https://dc.lft.to/lastmile_qr_scan", "ios": "https://dc.lft.to/lastmile_qr_scan"}, "fusion_lon": 0.0, "lat": 38.915905, "bike_id": "a86cfa83f49e66dd26f13e0ee04b3eb3", "type": "electric_scooter", "is_reserved": 0, "lon": -77.0454805}, {"fusion_lat": 0.0, "name": "0ad8124c5975723ba2c9624ed233d2ad", "is_disabled": 0, "rental_uris": {"android": "https://dc.lft.to/lastmile_qr_scan", "ios": "https://dc.lft.to/lastmile_qr_scan"}, "fusion_lon": 0.0, "lat": 38.916288333333334, "bike_id": "0ad8124c5975723ba2c9624ed233d2ad", "type": "electric_scooter", "is_reserved": 0, "lon": -77.02257816666666}, {"fusion_lat": 0.0, "name": "148ff83e38ab4cd1458e3779a22436b1", "is_disabled": 0, "rental_uris": {"android": "https://dc.lft.to/lastmile_qr_scan", "ios": "https://dc.lft.to/lastmile_qr_scan"}, "fusion_lon": 0.0, "lat": 38.8693425, "bike_id": "148ff83e38ab4cd1458e3779a22436b1", "type": "electric_scooter", "is_reserved": 0, "lon": -77.013779}, {"fusion_lat": 0.0, "name": "c846f30b8f97e098379c414894da7ab8", "is_disabled": 0, "rental_uris": {"android": "https://dc.lft.to/lastmile_qr_scan", "ios": "https://dc.lft.to/lastmile_qr_scan"}, "fusion_lon": 0.0, "lat": 38.922333, "bike_id": "c846f30b8f97e098379c414894da7ab8", "type": "electric_scooter", "is_reserved": 0, "lon": -77.03524433333334}, {"fusion_lat": 0.0, "name": "4dab4621f7f090e79cef59799249ca39", "is_disabled": 0, "rental_uris": {"android": "https://dc.lft.to/lastmile_qr_scan", "ios": "https://dc.lft.to/lastmile_qr_scan"}, "fusion_lon": 0.0, "lat": 38.89679566666667, "bike_id": "4dab4621f7f090e79cef59799249ca39", "type": "electric_scooter", "is_reserved": 0, "lon": -77.05103533333333}, {"fusion_lat": 0.0, "name": "388d2a1b17c5ab417ac3a4b17e8b628c", "is_disabled": 0, "rental_uris": {"android": "https://dc.lft.to/lastmile_qr_scan", "ios": "https://dc.lft.to/lastmile_qr_scan"}, "fusion_lon": 0.0, "lat": 38.895457, "bike_id": "388d2a1b17c5ab417ac3a4b17e8b628c", "type": "electric_scooter", "is_reserved": 0, "lon": -76.94949683333333}, {"fusion_lat": 0.0, "name": "5726047853225a3e47ef383dffaa01dd", "is_disabled": 0, "rental_uris": {"android": "https://dc.lft.to/lastmile_qr_scan", "ios": "https://dc.lft.to/lastmile_qr_scan"}, "fusion_lon": 0.0, "lat": 38.91153516666667, "bike_id": "5726047853225a3e47ef383dffaa01dd", "type": "electric_scooter", "is_reserved": 0, "lon": -76.987243}, {"fusion_lat": 0.0, "name": "385b5aa9b2b5135cf5cb9c88ee5900eb", "is_disabled": 0, "rental_uris": {"android": "https://dc.lft.to/lastmile_qr_scan", "ios": "https://dc.lft.to/lastmile_qr_scan"}, "fusion_lon": 0.0, "lat": 38.917705, "bike_id": "385b5aa9b2b5135cf5cb9c88ee5900eb", "type": "electric_scooter", "is_reserved": 0, "lon": -77.01512866666667}, {"fusion_lat": 0.0, "name": "86ee4c0d2f4661aae0ebc4201a23f89a", "is_disabled": 0, "rental_uris": {"android": "https://dc.lft.to/lastmile_qr_scan", "ios": "https://dc.lft.to/lastmile_qr_scan"}, "fusion_lon": 0.0, "lat": 38.90399516666667, "bike_id": "86ee4c0d2f4661aae0ebc4201a23f89a", "type": "electric_scooter", "is_reserved": 0, "lon": -77.03663883333333}, {"fusion_lat": 0.0, "name": "ebe6fe8fef4b454e2826f1a81acc25cb", "is_disabled": 0, "rental_uris": {"android": "https://dc.lft.to/lastmile_qr_scan", "ios": "https://dc.lft.to/lastmile_qr_scan"}, "fusion_lon": 0.0, "lat": 38.91489833333333, "bike_id": "ebe6fe8fef4b454e2826f1a81acc25cb", "type": "electric_scooter", "is_reserved": 0, "lon": -77.01418366666667}, {"fusion_lat": 0.0, "name": "970a4864e0e7812ffeb670b0e653d453", "is_disabled": 0, "rental_uris": {"android": "https://dc.lft.to/lastmile_qr_scan", "ios": "https://dc.lft.to/lastmile_qr_scan"}, "fusion_lon": 0.0, "lat": 38.895022166666664, "bike_id": "970a4864e0e7812ffeb670b0e653d453", "type": "electric_scooter", "is_reserved": 0, "lon": -77.04172766666667}, {"fusion_lat": 0.0, "name": "49886082116b8094f863d187eb6e6d9f", "is_disabled": 0, "rental_uris": {"android": "https://dc.lft.to/lastmile_qr_scan", "ios": "https://dc.lft.to/lastmile_qr_scan"}, "fusion_lon": 0.0, "lat": 38.88002566666667, "bike_id": "49886082116b8094f863d187eb6e6d9f", "type": "electric_scooter", "is_reserved": 0, "lon": -76.98544183333334}, {"fusion_lat": 0.0, "name": "a08a242b57e3cc7951e2176e7f146c31", "is_disabled": 0, "rental_uris": {"android": "https://dc.lft.to/lastmile_qr_scan", "ios": "https://dc.lft.to/lastmile_qr_scan"}, "fusion_lon": 0.0, "lat": 38.9064645, "bike_id": "a08a242b57e3cc7951e2176e7f146c31", "type": "electric_scooter", "is_reserved": 0, "lon": -77.04857466666667}, {"fusion_lat": 0.0, "name": "aeb648e99e0783f26f496e747d2c991e", "is_disabled": 0, "rental_uris": {"android": "https://dc.lft.to/lastmile_qr_scan", "ios": "https://dc.lft.to/lastmile_qr_scan"}, "fusion_lon": 0.0, "lat": 38.89850716666667, "bike_id": "aeb648e99e0783f26f496e747d2c991e", "type": "electric_scooter", "is_reserved": 0, "lon": -77.022195}, {"fusion_lat": 0.0, "name": "eb30aacc2dba2892fb83bd2336170ebc", "is_disabled": 0, "rental_uris": {"android": "https://dc.lft.to/lastmile_qr_scan", "ios": "https://dc.lft.to/lastmile_qr_scan"}, "fusion_lon": 0.0, "lat": 38.897131, "bike_id": "eb30aacc2dba2892fb83bd2336170ebc", "type": "electric_scooter", "is_reserved": 0, "lon": -77.02365983333334}, {"fusion_lat": 0.0, "name": "de5c287bb192de901c0c9e5c849f9c4a", "is_disabled": 0, "rental_uris": {"android": "https://dc.lft.to/lastmile_qr_scan", "ios": "https://dc.lft.to/lastmile_qr_scan"}, "fusion_lon": 0.0, "lat": 38.925483666666665, "bike_id": "de5c287bb192de901c0c9e5c849f9c4a", "type": "electric_scooter", "is_reserved": 0, "lon": -77.05305783333333}, {"fusion_lat": 0.0, "name": "1bd6313abbb9e55e11ab55c1e1386651", "is_disabled": 0, "rental_uris": {"android": "https://dc.lft.to/lastmile_qr_scan", "ios": "https://dc.lft.to/lastmile_qr_scan"}, "fusion_lon": 0.0, "lat": 38.90407316666667, "bike_id": "1bd6313abbb9e55e11ab55c1e1386651", "type": "electric_scooter", "is_reserved": 0, "lon": -76.9733435}, {"fusion_lat": 0.0, "name": "7faf78793c53809d0233b5d98cd89d6b", "is_disabled": 0, "rental_uris": {"android": "https://dc.lft.to/lastmile_qr_scan", "ios": "https://dc.lft.to/lastmile_qr_scan"}, "fusion_lon": 0.0, "lat": 38.86457866666667, "bike_id": "7faf78793c53809d0233b5d98cd89d6b", "type": "electric_bike", "is_reserved": 0, "lon": -76.94540916666666}, {"fusion_lat": 0.0, "name": "c5616135ee8389d4d1c85eb0c99e5f70", "is_disabled": 0, "rental_uris": {"android": "https://dc.lft.to/lastmile_qr_scan", "ios": "https://dc.lft.to/lastmile_qr_scan"}, "fusion_lon": 0.0, "lat": 38.9002865, "bike_id": "c5616135ee8389d4d1c85eb0c99e5f70", "type": "electric_scooter", "is_reserved": 0, "lon": -77.0021635}, {"fusion_lat": 0.0, "name": "5c481853d49311a7dfd17802e92781a5", "is_disabled": 0, "rental_uris": {"android": "https://dc.lft.to/lastmile_qr_scan", "ios": "https://dc.lft.to/lastmile_qr_scan"}, "fusion_lon": 0.0, "lat": 38.844251166666666, "bike_id": "5c481853d49311a7dfd17802e92781a5", "type": "electric_scooter", "is_reserved": 0, "lon": -76.997795}, {"fusion_lat": 0.0, "name": "09b2dbd8c0380ac16cf6ff0287c6c181", "is_disabled": 0, "rental_uris": {"android": "https://dc.lft.to/lastmile_qr_scan", "ios": "https://dc.lft.to/lastmile_qr_scan"}, "fusion_lon": 0.0, "lat": 38.9319075, "bike_id": "09b2dbd8c0380ac16cf6ff0287c6c181", "type": "electric_scooter", "is_reserved": 0, "lon": -77.04299383333333}, {"fusion_lat": 0.0, "name": "e8e573d89dfe9936a4dd6180a1aec539", "is_disabled": 0, "rental_uris": {"android": "https://dc.lft.to/lastmile_qr_scan", "ios": "https://dc.lft.to/lastmile_qr_scan"}, "fusion_lon": 0.0, "lat": 38.884424833333334, "bike_id": "e8e573d89dfe9936a4dd6180a1aec539", "type": "electric_scooter", "is_reserved": 0, "lon": -77.02502016666666}, {"fusion_lat": 0.0, "name": "b6aacf108d68f88930cc2a18107d3d85", "is_disabled": 0, "rental_uris": {"android": "https://dc.lft.to/lastmile_qr_scan", "ios": "https://dc.lft.to/lastmile_qr_scan"}, "fusion_lon": 0.0, "lat": 38.9178195, "bike_id": "b6aacf108d68f88930cc2a18107d3d85", "type": "electric_scooter", "is_reserved": 0, "lon": -77.02282216666667}, {"fusion_lat": 0.0, "name": "e982e9d45fb29363c2f0c60eac01f42f", "is_disabled": 0, "rental_uris": {"android": "https://dc.lft.to/lastmile_qr_scan", "ios": "https://dc.lft.to/lastmile_qr_scan"}, "fusion_lon": 0.0, "lat": 38.90986316666667, "bike_id": "e982e9d45fb29363c2f0c60eac01f42f", "type": "electric_scooter", "is_reserved": 0, "lon": -77.0338525}, {"fusion_lat": 0.0, "name": "470bafeeec955100ec6171cc03c9c1a5", "is_disabled": 0, "rental_uris": {"android": "https://dc.lft.to/lastmile_qr_scan", "ios": "https://dc.lft.to/lastmile_qr_scan"}, "fusion_lon": 0.0, "lat": 38.84130733333333, "bike_id": "470bafeeec955100ec6171cc03c9c1a5", "type": "electric_bike", "is_reserved": 0, "lon": -76.947637}, {"fusion_lat": 0.0, "name": "ebd17d62b2ee7aa02565dd1c777f241b", "is_disabled": 0, "rental_uris": {"android": "https://dc.lft.to/lastmile_qr_scan", "ios": "https://dc.lft.to/lastmile_qr_scan"}, "fusion_lon": 0.0, "lat": 38.881255333333335, "bike_id": "ebd17d62b2ee7aa02565dd1c777f241b", "type": "electric_scooter", "is_reserved": 0, "lon": -77.01654466666666}, {"fusion_lat": 0.0, "name": "dbd7fd63aefb4c14849e8ee497c06ea9", "is_disabled": 0, "rental_uris": {"android": "https://dc.lft.to/lastmile_qr_scan", "ios": "https://dc.lft.to/lastmile_qr_scan"}, "fusion_lon": 0.0, "lat": 38.910054833333334, "bike_id": "dbd7fd63aefb4c14849e8ee497c06ea9", "type": "electric_scooter", "is_reserved": 0, "lon": -77.05277816666667}, {"fusion_lat": 0.0, "name": "2abfc052086ffddedd33865bc144793b", "is_disabled": 0, "rental_uris": {"android": "https://dc.lft.to/lastmile_qr_scan", "ios": "https://dc.lft.to/lastmile_qr_scan"}, "fusion_lon": 0.0, "lat": 38.8625795, "bike_id": "2abfc052086ffddedd33865bc144793b", "type": "electric_bike", "is_reserved": 0, "lon": -76.983539}, {"fusion_lat": 0.0, "name": "bed51687385f6615cc04d49e9e7e76cb", "is_disabled": 0, "rental_uris": {"android": "https://dc.lft.to/lastmile_qr_scan", "ios": "https://dc.lft.to/lastmile_qr_scan"}, "fusion_lon": 0.0, "lat": 38.9038155, "bike_id": "bed51687385f6615cc04d49e9e7e76cb", "type": "electric_scooter", "is_reserved": 0, "lon": -77.06734033333333}, {"fusion_lat": 0.0, "name": "6d6635b465629869d834e4b2d01f621e", "is_disabled": 0, "rental_uris": {"android": "https://dc.lft.to/lastmile_qr_scan", "ios": "https://dc.lft.to/lastmile_qr_scan"}, "fusion_lon": 0.0, "lat": 38.966324, "bike_id": "6d6635b465629869d834e4b2d01f621e", "type": "electric_bike", "is_reserved": 0, "lon": -77.027572}, {"fusion_lat": 0.0, "name": "eacea9e89e755b48b902c4e925155523", "is_disabled": 0, "rental_uris": {"android": "https://dc.lft.to/lastmile_qr_scan", "ios": "https://dc.lft.to/lastmile_qr_scan"}, "fusion_lon": 0.0, "lat": 38.90514533333333, "bike_id": "eacea9e89e755b48b902c4e925155523", "type": "electric_scooter", "is_reserved": 0, "lon": -77.06787483333333}, {"fusion_lat": 0.0, "name": "edd6ad201bf308f859f10cf545e79614", "is_disabled": 0, "rental_uris": {"android": "https://dc.lft.to/lastmile_qr_scan", "ios": "https://dc.lft.to/lastmile_qr_scan"}, "fusion_lon": 0.0, "lat": 38.88357833333333, "bike_id": "edd6ad201bf308f859f10cf545e79614", "type": "electric_scooter", "is_reserved": 0, "lon": -77.01368916666667}, {"fusion_lat": 0.0, "name": "be21ffe81a6a58990b9f66f2908c132a", "is_disabled": 0, "rental_uris": {"android": "https://dc.lft.to/lastmile_qr_scan", "ios": "https://dc.lft.to/lastmile_qr_scan"}, "fusion_lon": 0.0, "lat": 38.841898, "bike_id": "be21ffe81a6a58990b9f66f2908c132a", "type": "electric_bike", "is_reserved": 0, "lon": -77.07755416666667}, {"fusion_lat": 0.0, "name": "3f756313515965862243a22f7b965c5b", "is_disabled": 0, "rental_uris": {"android": "https://dc.lft.to/lastmile_qr_scan", "ios": "https://dc.lft.to/lastmile_qr_scan"}, "fusion_lon": 0.0, "lat": 38.8838395, "bike_id": "3f756313515965862243a22f7b965c5b", "type": "electric_scooter", "is_reserved": 0, "lon": -76.93045716666667}, {"fusion_lat": 0.0, "name": "ad755c3534ef0233a4137f37ceab39fc", "is_disabled": 0, "rental_uris": {"android": "https://dc.lft.to/lastmile_qr_scan", "ios": "https://dc.lft.to/lastmile_qr_scan"}, "fusion_lon": 0.0, "lat": 38.900608, "bike_id": "ad755c3534ef0233a4137f37ceab39fc", "type": "electric_scooter", "is_reserved": 0, "lon": -77.04964616666666}, {"fusion_lat": 0.0, "name": "42e94f798c858f807caa3dbe354d4663", "is_disabled": 0, "rental_uris": {"android": "https://dc.lft.to/lastmile_qr_scan", "ios": "https://dc.lft.to/lastmile_qr_scan"}, "fusion_lon": 0.0, "lat": 38.914449166666664, "bike_id": "42e94f798c858f807caa3dbe354d4663", "type": "electric_scooter", "is_reserved": 0, "lon": -77.04159466666667}, {"fusion_lat": 0.0, "name": "6c5d558176823352b2606dc837d3c5c4", "is_disabled": 0, "rental_uris": {"android": "https://dc.lft.to/lastmile_qr_scan", "ios": "https://dc.lft.to/lastmile_qr_scan"}, "fusion_lon": 0.0, "lat": 38.942005, "bike_id": "6c5d558176823352b2606dc837d3c5c4", "type": "electric_scooter", "is_reserved": 0, "lon": -77.02590683333334}, {"fusion_lat": 0.0, "name": "8c6e4f83dce75ce84820e2a89a5afa73", "is_disabled": 0, "rental_uris": {"android": "https://dc.lft.to/lastmile_qr_scan", "ios": "https://dc.lft.to/lastmile_qr_scan"}, "fusion_lon": 0.0, "lat": 38.910554166666664, "bike_id": "8c6e4f83dce75ce84820e2a89a5afa73", "type": "electric_scooter", "is_reserved": 0, "lon": -77.04576133333333}, {"fusion_lat": 0.0, "name": "bbf18dd245b05e8f7a38de4a3b8631b2", "is_disabled": 0, "rental_uris": {"android": "https://dc.lft.to/lastmile_qr_scan", "ios": "https://dc.lft.to/lastmile_qr_scan"}, "fusion_lon": 0.0, "lat": 38.86333833333333, "bike_id": "bbf18dd245b05e8f7a38de4a3b8631b2", "type": "electric_bike", "is_reserved": 0, "lon": -76.987222}, {"fusion_lat": 0.0, "name": "81b51fd5446229614b4f50d3ee917c19", "is_disabled": 0, "rental_uris": {"android": "https://dc.lft.to/lastmile_qr_scan", "ios": "https://dc.lft.to/lastmile_qr_scan"}, "fusion_lon": 0.0, "lat": 38.956328, "bike_id": "81b51fd5446229614b4f50d3ee917c19", "type": "electric_scooter", "is_reserved": 0, "lon": -77.03305866666666}, {"fusion_lat": 0.0, "name": "dd7d62ee4bec04048a32abbb6311825c", "is_disabled": 0, "rental_uris": {"android": "https://dc.lft.to/lastmile_qr_scan", "ios": "https://dc.lft.to/lastmile_qr_scan"}, "fusion_lon": 0.0, "lat": 38.902884, "bike_id": "dd7d62ee4bec04048a32abbb6311825c", "type": "electric_scooter", "is_reserved": 0, "lon": -77.020034}, {"fusion_lat": 0.0, "name": "7808711caa15edf9b8b73ecb1a9a27f0", "is_disabled": 0, "rental_uris": {"android": "https://dc.lft.to/lastmile_qr_scan", "ios": "https://dc.lft.to/lastmile_qr_scan"}, "fusion_lon": 0.0, "lat": 38.90226166666667, "bike_id": "7808711caa15edf9b8b73ecb1a9a27f0", "type": "electric_scooter", "is_reserved": 0, "lon": -77.03474866666667}, {"fusion_lat": 0.0, "name": "daed59d5955d8df31e0d40b80f1df9ed", "is_disabled": 0, "rental_uris": {"android": "https://dc.lft.to/lastmile_qr_scan", "ios": "https://dc.lft.to/lastmile_qr_scan"}, "fusion_lon": 0.0, "lat": 38.8836225, "bike_id": "daed59d5955d8df31e0d40b80f1df9ed", "type": "electric_scooter", "is_reserved": 0, "lon": -76.941635}, {"fusion_lat": 0.0, "name": "3db0ba01f42a4acf875a55eea6188fa3", "is_disabled": 0, "rental_uris": {"android": "https://dc.lft.to/lastmile_qr_scan", "ios": "https://dc.lft.to/lastmile_qr_scan"}, "fusion_lon": 0.0, "lat": 38.895262, "bike_id": "3db0ba01f42a4acf875a55eea6188fa3", "type": "electric_scooter", "is_reserved": 0, "lon": -77.04233216666667}, {"fusion_lat": 0.0, "name": "ae6ce33b3afe6988c2dd14c3da74ebef", "is_disabled": 0, "rental_uris": {"android": "https://dc.lft.to/lastmile_qr_scan", "ios": "https://dc.lft.to/lastmile_qr_scan"}, "fusion_lon": 0.0, "lat": 38.8435215, "bike_id": "ae6ce33b3afe6988c2dd14c3da74ebef", "type": "electric_bike", "is_reserved": 0, "lon": -76.97824433333334}, {"fusion_lat": 0.0, "name": "67581a409912d865a5935145fc0162e8", "is_disabled": 0, "rental_uris": {"android": "https://dc.lft.to/lastmile_qr_scan", "ios": "https://dc.lft.to/lastmile_qr_scan"}, "fusion_lon": 0.0, "lat": 38.914217666666666, "bike_id": "67581a409912d865a5935145fc0162e8", "type": "electric_scooter", "is_reserved": 0, "lon": -77.03203183333333}, {"fusion_lat": 0.0, "name": "7bc21ad148872b4d502f9ae5a6b6ffaa", "is_disabled": 0, "rental_uris": {"android": "https://dc.lft.to/lastmile_qr_scan", "ios": "https://dc.lft.to/lastmile_qr_scan"}, "fusion_lon": 0.0, "lat": 38.90998333333334, "bike_id": "7bc21ad148872b4d502f9ae5a6b6ffaa", "type": "electric_scooter", "is_reserved": 0, "lon": -77.01511833333333}, {"fusion_lat": 0.0, "name": "067d97c4782ff48b439d594e37dd38ac", "is_disabled": 0, "rental_uris": {"android": "https://dc.lft.to/lastmile_qr_scan", "ios": "https://dc.lft.to/lastmile_qr_scan"}, "fusion_lon": 0.0, "lat": 38.945020166666666, "bike_id": "067d97c4782ff48b439d594e37dd38ac", "type": "electric_scooter", "is_reserved": 0, "lon": -77.031495}, {"fusion_lat": 0.0, "name": "ba1394a5d0d2859e5e98e5db87c3113f", "is_disabled": 0, "rental_uris": {"android": "https://dc.lft.to/lastmile_qr_scan", "ios": "https://dc.lft.to/lastmile_qr_scan"}, "fusion_lon": 0.0, "lat": 38.906825166666664, "bike_id": "ba1394a5d0d2859e5e98e5db87c3113f", "type": "electric_bike", "is_reserved": 0, "lon": -76.9449595}, {"fusion_lat": 0.0, "name": "fafe766247b0ec91dd1eecb6f7455c9a", "is_disabled": 0, "rental_uris": {"android": "https://dc.lft.to/lastmile_qr_scan", "ios": "https://dc.lft.to/lastmile_qr_scan"}, "fusion_lon": 0.0, "lat": 38.90150533333333, "bike_id": "fafe766247b0ec91dd1eecb6f7455c9a", "type": "electric_scooter", "is_reserved": 0, "lon": -76.93067366666666}, {"fusion_lat": 0.0, "name": "b378517f1d6abe1297e9fa133058fa50", "is_disabled": 0, "rental_uris": {"android": "https://dc.lft.to/lastmile_qr_scan", "ios": "https://dc.lft.to/lastmile_qr_scan"}, "fusion_lon": 0.0, "lat": 38.90933966666667, "bike_id": "b378517f1d6abe1297e9fa133058fa50", "type": "electric_scooter", "is_reserved": 0, "lon": -77.01848633333333}, {"fusion_lat": 0.0, "name": "a82d1ac025678bc6efb6b556d843c9ba", "is_disabled": 0, "rental_uris": {"android": "https://dc.lft.to/lastmile_qr_scan", "ios": "https://dc.lft.to/lastmile_qr_scan"}, "fusion_lon": 0.0, "lat": 38.9181695, "bike_id": "a82d1ac025678bc6efb6b556d843c9ba", "type": "electric_scooter", "is_reserved": 0, "lon": -77.02530916666667}, {"fusion_lat": 0.0, "name": "b47bb742bc3f6fe55ad9a2caa140aa71", "is_disabled": 0, "rental_uris": {"android": "https://dc.lft.to/lastmile_qr_scan", "ios": "https://dc.lft.to/lastmile_qr_scan"}, "fusion_lon": 0.0, "lat": 38.9155475, "bike_id": "b47bb742bc3f6fe55ad9a2caa140aa71", "type": "electric_scooter", "is_reserved": 0, "lon": -77.03176083333334}, {"fusion_lat": 0.0, "name": "40bd1c3f98c7df3f43ab4c4b96cb99b5", "is_disabled": 0, "rental_uris": {"android": "https://dc.lft.to/lastmile_qr_scan", "ios": "https://dc.lft.to/lastmile_qr_scan"}, "fusion_lon": 0.0, "lat": 38.91708833333333, "bike_id": "40bd1c3f98c7df3f43ab4c4b96cb99b5", "type": "electric_scooter", "is_reserved": 0, "lon": -77.02478716666667}, {"fusion_lat": 0.0, "name": "41a5ab7615f97e8ad69d1d44cde67094", "is_disabled": 0, "rental_uris": {"android": "https://dc.lft.to/lastmile_qr_scan", "ios": "https://dc.lft.to/lastmile_qr_scan"}, "fusion_lon": 0.0, "lat": 38.894409333333336, "bike_id": "41a5ab7615f97e8ad69d1d44cde67094", "type": "electric_scooter", "is_reserved": 0, "lon": -76.979938}, {"fusion_lat": 0.0, "name": "515d37b185f1937912af92527bad7628", "is_disabled": 0, "rental_uris": {"android": "https://dc.lft.to/lastmile_qr_scan", "ios": "https://dc.lft.to/lastmile_qr_scan"}, "fusion_lon": 0.0, "lat": 38.9280565, "bike_id": "515d37b185f1937912af92527bad7628", "type": "electric_scooter", "is_reserved": 0, "lon": -77.0436025}, {"fusion_lat": 0.0, "name": "e16d0d862672437e487da9db9ff79eaa", "is_disabled": 0, "rental_uris": {"android": "https://dc.lft.to/lastmile_qr_scan", "ios": "https://dc.lft.to/lastmile_qr_scan"}, "fusion_lon": 0.0, "lat": 38.98391083333333, "bike_id": "e16d0d862672437e487da9db9ff79eaa", "type": "electric_scooter", "is_reserved": 0, "lon": -77.026312}, {"fusion_lat": 0.0, "name": "1dc759026b084c5e62cacf6521a08b7f", "is_disabled": 0, "rental_uris": {"android": "https://dc.lft.to/lastmile_qr_scan", "ios": "https://dc.lft.to/lastmile_qr_scan"}, "fusion_lon": 0.0, "lat": 38.89568916666666, "bike_id": "1dc759026b084c5e62cacf6521a08b7f", "type": "electric_scooter", "is_reserved": 0, "lon": -76.94883333333334}, {"fusion_lat": 0.0, "name": "c0a1f571db32415de3e4e4594242d687", "is_disabled": 0, "rental_uris": {"android": "https://dc.lft.to/lastmile_qr_scan", "ios": "https://dc.lft.to/lastmile_qr_scan"}, "fusion_lon": 0.0, "lat": 38.91839183333333, "bike_id": "c0a1f571db32415de3e4e4594242d687", "type": "electric_scooter", "is_reserved": 0, "lon": -77.04013133333333}, {"fusion_lat": 0.0, "name": "a0fb47edf1adc52e74ea676d7fd01d2f", "is_disabled": 0, "rental_uris": {"android": "https://dc.lft.to/lastmile_qr_scan", "ios": "https://dc.lft.to/lastmile_qr_scan"}, "fusion_lon": 0.0, "lat": 38.917731833333335, "bike_id": "a0fb47edf1adc52e74ea676d7fd01d2f", "type": "electric_scooter", "is_reserved": 0, "lon": -77.04100416666667}, {"fusion_lat": 0.0, "name": "a936874cd8970f10c525eb963c338c25", "is_disabled": 0, "rental_uris": {"android": "https://dc.lft.to/lastmile_qr_scan", "ios": "https://dc.lft.to/lastmile_qr_scan"}, "fusion_lon": 0.0, "lat": 38.9140175, "bike_id": "a936874cd8970f10c525eb963c338c25", "type": "electric_scooter", "is_reserved": 0, "lon": -77.03220683333333}, {"fusion_lat": 0.0, "name": "1db8372dc6a434fbe32b79b188fba161", "is_disabled": 0, "rental_uris": {"android": "https://dc.lft.to/lastmile_qr_scan", "ios": "https://dc.lft.to/lastmile_qr_scan"}, "fusion_lon": 0.0, "lat": 38.945205666666666, "bike_id": "1db8372dc6a434fbe32b79b188fba161", "type": "electric_scooter", "is_reserved": 0, "lon": -77.02273516666666}, {"fusion_lat": 0.0, "name": "a5f4af80e2cda599102169a420c981fb", "is_disabled": 0, "rental_uris": {"android": "https://dc.lft.to/lastmile_qr_scan", "ios": "https://dc.lft.to/lastmile_qr_scan"}, "fusion_lon": 0.0, "lat": 38.915179333333334, "bike_id": "a5f4af80e2cda599102169a420c981fb", "type": "electric_scooter", "is_reserved": 0, "lon": -77.02694566666666}, {"fusion_lat": 0.0, "name": "942a27052daaf4d5fbb6a64082235b6e", "is_disabled": 0, "rental_uris": {"android": "https://dc.lft.to/lastmile_qr_scan", "ios": "https://dc.lft.to/lastmile_qr_scan"}, "fusion_lon": 0.0, "lat": 38.8901185, "bike_id": "942a27052daaf4d5fbb6a64082235b6e", "type": "electric_scooter", "is_reserved": 0, "lon": -76.9373615}, {"fusion_lat": 0.0, "name": "03f10b7bff97be36769bf5e3aa528dd2", "is_disabled": 0, "rental_uris": {"android": "https://dc.lft.to/lastmile_qr_scan", "ios": "https://dc.lft.to/lastmile_qr_scan"}, "fusion_lon": 0.0, "lat": 38.9355505, "bike_id": "03f10b7bff97be36769bf5e3aa528dd2", "type": "electric_scooter", "is_reserved": 0, "lon": -77.0346585}, {"fusion_lat": 0.0, "name": "a63cd042560cd2fd321417751007086c", "is_disabled": 0, "rental_uris": {"android": "https://dc.lft.to/lastmile_qr_scan", "ios": "https://dc.lft.to/lastmile_qr_scan"}, "fusion_lon": 0.0, "lat": 38.900250166666666, "bike_id": "a63cd042560cd2fd321417751007086c", "type": "electric_scooter", "is_reserved": 0, "lon": -76.98930866666667}, {"fusion_lat": 0.0, "name": "c177dda012c4863d0032568cf516f03c", "is_disabled": 0, "rental_uris": {"android": "https://dc.lft.to/lastmile_qr_scan", "ios": "https://dc.lft.to/lastmile_qr_scan"}, "fusion_lon": 0.0, "lat": 38.89972566666667, "bike_id": "c177dda012c4863d0032568cf516f03c", "type": "electric_scooter", "is_reserved": 0, "lon": -77.01931766666667}, {"fusion_lat": 0.0, "name": "b4bbfe9d957af8d39dd0de43a989ac4f", "is_disabled": 0, "rental_uris": {"android": "https://dc.lft.to/lastmile_qr_scan", "ios": "https://dc.lft.to/lastmile_qr_scan"}, "fusion_lon": 0.0, "lat": 38.876959666666664, "bike_id": "b4bbfe9d957af8d39dd0de43a989ac4f", "type": "electric_scooter", "is_reserved": 0, "lon": -77.01769333333333}, {"fusion_lat": 0.0, "name": "40000a7ee6abe6e1a59d9d0680c66584", "is_disabled": 0, "rental_uris": {"android": "https://dc.lft.to/lastmile_qr_scan", "ios": "https://dc.lft.to/lastmile_qr_scan"}, "fusion_lon": 0.0, "lat": 38.90966233333333, "bike_id": "40000a7ee6abe6e1a59d9d0680c66584", "type": "electric_scooter", "is_reserved": 0, "lon": -77.0392925}, {"fusion_lat": 0.0, "name": "5b10e77a60aa94a3037c5fb82b5bdef9", "is_disabled": 0, "rental_uris": {"android": "https://dc.lft.to/lastmile_qr_scan", "ios": "https://dc.lft.to/lastmile_qr_scan"}, "fusion_lon": 0.0, "lat": 38.884991166666666, "bike_id": "5b10e77a60aa94a3037c5fb82b5bdef9", "type": "electric_scooter", "is_reserved": 0, "lon": -77.021002}, {"fusion_lat": 0.0, "name": "858b4ed426d6102c625e68562197230c", "is_disabled": 0, "rental_uris": {"android": "https://dc.lft.to/lastmile_qr_scan", "ios": "https://dc.lft.to/lastmile_qr_scan"}, "fusion_lon": 0.0, "lat": 39.07049583333333, "bike_id": "858b4ed426d6102c625e68562197230c", "type": "electric_bike", "is_reserved": 0, "lon": -77.114862}, {"fusion_lat": 0.0, "name": "38e93a77fc43a9220c6abd65ed0e471d", "is_disabled": 0, "rental_uris": {"android": "https://dc.lft.to/lastmile_qr_scan", "ios": "https://dc.lft.to/lastmile_qr_scan"}, "fusion_lon": 0.0, "lat": 38.90271583333333, "bike_id": "38e93a77fc43a9220c6abd65ed0e471d", "type": "electric_scooter", "is_reserved": 0, "lon": -77.01675466666667}, {"fusion_lat": 0.0, "name": "81005bf60dc7ace80a9cf33cdf235552", "is_disabled": 0, "rental_uris": {"android": "https://dc.lft.to/lastmile_qr_scan", "ios": "https://dc.lft.to/lastmile_qr_scan"}, "fusion_lon": 0.0, "lat": 38.93056266666667, "bike_id": "81005bf60dc7ace80a9cf33cdf235552", "type": "electric_scooter", "is_reserved": 0, "lon": -77.03213483333333}, {"fusion_lat": 0.0, "name": "ef586a6e1d063761ca103b1b38cf0b8e", "is_disabled": 0, "rental_uris": {"android": "https://dc.lft.to/lastmile_qr_scan", "ios": "https://dc.lft.to/lastmile_qr_scan"}, "fusion_lon": 0.0, "lat": 38.907928, "bike_id": "ef586a6e1d063761ca103b1b38cf0b8e", "type": "electric_scooter", "is_reserved": 0, "lon": -77.04343533333333}, {"fusion_lat": 0.0, "name": "854f44405f2e03a720eeba23b44ad603", "is_disabled": 0, "rental_uris": {"android": "https://dc.lft.to/lastmile_qr_scan", "ios": "https://dc.lft.to/lastmile_qr_scan"}, "fusion_lon": 0.0, "lat": 38.900295166666666, "bike_id": "854f44405f2e03a720eeba23b44ad603", "type": "electric_scooter", "is_reserved": 0, "lon": -77.02405233333333}, {"fusion_lat": 0.0, "name": "f054a06c59672f0e464d775c498a0607", "is_disabled": 0, "rental_uris": {"android": "https://dc.lft.to/lastmile_qr_scan", "ios": "https://dc.lft.to/lastmile_qr_scan"}, "fusion_lon": 0.0, "lat": 38.92983666666667, "bike_id": "f054a06c59672f0e464d775c498a0607", "type": "electric_scooter", "is_reserved": 0, "lon": -77.03471883333333}, {"fusion_lat": 0.0, "name": "c8383e30ca50c405868b2ee555bbf288", "is_disabled": 0, "rental_uris": {"android": "https://dc.lft.to/lastmile_qr_scan", "ios": "https://dc.lft.to/lastmile_qr_scan"}, "fusion_lon": 0.0, "lat": 38.92216616666666, "bike_id": "c8383e30ca50c405868b2ee555bbf288", "type": "electric_scooter", "is_reserved": 0, "lon": -77.04339466666667}, {"fusion_lat": 0.0, "name": "0ddd237e2094fa1b31ba49b1882fbc73", "is_disabled": 0, "rental_uris": {"android": "https://dc.lft.to/lastmile_qr_scan", "ios": "https://dc.lft.to/lastmile_qr_scan"}, "fusion_lon": 0.0, "lat": 38.856965833333334, "bike_id": "0ddd237e2094fa1b31ba49b1882fbc73", "type": "electric_scooter", "is_reserved": 0, "lon": -76.99581633333334}, {"fusion_lat": 0.0, "name": "d30eb0c5649c7813fabea74fc564e13e", "is_disabled": 0, "rental_uris": {"android": "https://dc.lft.to/lastmile_qr_scan", "ios": "https://dc.lft.to/lastmile_qr_scan"}, "fusion_lon": 0.0, "lat": 38.88794733333334, "bike_id": "d30eb0c5649c7813fabea74fc564e13e", "type": "electric_bike", "is_reserved": 0, "lon": -76.93001383333333}, {"fusion_lat": 0.0, "name": "6797a8ba62bfbde02897a9a91a0513b6", "is_disabled": 0, "rental_uris": {"android": "https://dc.lft.to/lastmile_qr_scan", "ios": "https://dc.lft.to/lastmile_qr_scan"}, "fusion_lon": 0.0, "lat": 38.9155185, "bike_id": "6797a8ba62bfbde02897a9a91a0513b6", "type": "electric_scooter", "is_reserved": 0, "lon": -77.03175116666667}, {"fusion_lat": 0.0, "name": "0d7b7e9e747aab17b29408f2d06a976c", "is_disabled": 0, "rental_uris": {"android": "https://dc.lft.to/lastmile_qr_scan", "ios": "https://dc.lft.to/lastmile_qr_scan"}, "fusion_lon": 0.0, "lat": 38.895296, "bike_id": "0d7b7e9e747aab17b29408f2d06a976c", "type": "electric_scooter", "is_reserved": 0, "lon": -77.011205}, {"fusion_lat": 0.0, "name": "37d529b2204b9265101c1e8fce8c30ae", "is_disabled": 0, "rental_uris": {"android": "https://dc.lft.to/lastmile_qr_scan", "ios": "https://dc.lft.to/lastmile_qr_scan"}, "fusion_lon": 0.0, "lat": 38.92177616666667, "bike_id": "37d529b2204b9265101c1e8fce8c30ae", "type": "electric_scooter", "is_reserved": 0, "lon": -77.02661433333333}, {"fusion_lat": 0.0, "name": "2c843fc6485b704c4f0b68b70f4b00d7", "is_disabled": 0, "rental_uris": {"android": "https://dc.lft.to/lastmile_qr_scan", "ios": "https://dc.lft.to/lastmile_qr_scan"}, "fusion_lon": 0.0, "lat": 38.88217483333333, "bike_id": "2c843fc6485b704c4f0b68b70f4b00d7", "type": "electric_scooter", "is_reserved": 0, "lon": -77.02940066666666}, {"fusion_lat": 0.0, "name": "9e1a9cbf118bb543e6ba71f315fc6909", "is_disabled": 0, "rental_uris": {"android": "https://dc.lft.to/lastmile_qr_scan", "ios": "https://dc.lft.to/lastmile_qr_scan"}, "fusion_lon": 0.0, "lat": 38.919957, "bike_id": "9e1a9cbf118bb543e6ba71f315fc6909", "type": "electric_scooter", "is_reserved": 0, "lon": -77.0718905}, {"fusion_lat": 0.0, "name": "23d1c88001c592d1a1f37d462a11ad65", "is_disabled": 0, "rental_uris": {"android": "https://dc.lft.to/lastmile_qr_scan", "ios": "https://dc.lft.to/lastmile_qr_scan"}, "fusion_lon": 0.0, "lat": 38.8829765, "bike_id": "23d1c88001c592d1a1f37d462a11ad65", "type": "electric_scooter", "is_reserved": 0, "lon": -76.94853083333334}, {"fusion_lat": 0.0, "name": "6a652cb61983e30cc4005be198d49ed6", "is_disabled": 0, "rental_uris": {"android": "https://dc.lft.to/lastmile_qr_scan", "ios": "https://dc.lft.to/lastmile_qr_scan"}, "fusion_lon": 0.0, "lat": 38.9522055, "bike_id": "6a652cb61983e30cc4005be198d49ed6", "type": "electric_scooter", "is_reserved": 0, "lon": -77.0821745}, {"fusion_lat": 0.0, "name": "41aaed7de33eef575ce723e93f18d9f7", "is_disabled": 0, "rental_uris": {"android": "https://dc.lft.to/lastmile_qr_scan", "ios": "https://dc.lft.to/lastmile_qr_scan"}, "fusion_lon": 0.0, "lat": 38.807526833333334, "bike_id": "41aaed7de33eef575ce723e93f18d9f7", "type": "electric_bike", "is_reserved": 0, "lon": -77.09454883333333}, {"fusion_lat": 0.0, "name": "83195187121e65644071cfde19a26352", "is_disabled": 0, "rental_uris": {"android": "https://dc.lft.to/lastmile_qr_scan", "ios": "https://dc.lft.to/lastmile_qr_scan"}, "fusion_lon": 0.0, "lat": 38.931419, "bike_id": "83195187121e65644071cfde19a26352", "type": "electric_scooter", "is_reserved": 0, "lon": -77.0396115}, {"fusion_lat": 0.0, "name": "204c1c9ea53731c20c9c86178061955e", "is_disabled": 0, "rental_uris": {"android": "https://dc.lft.to/lastmile_qr_scan", "ios": "https://dc.lft.to/lastmile_qr_scan"}, "fusion_lon": 0.0, "lat": 38.854197666666664, "bike_id": "204c1c9ea53731c20c9c86178061955e", "type": "electric_bike", "is_reserved": 0, "lon": -77.12079983333334}, {"fusion_lat": 0.0, "name": "a6cf34eb650223e3ae5514df9ca32152", "is_disabled": 0, "rental_uris": {"android": "https://dc.lft.to/lastmile_qr_scan", "ios": "https://dc.lft.to/lastmile_qr_scan"}, "fusion_lon": 0.0, "lat": 38.903437333333336, "bike_id": "a6cf34eb650223e3ae5514df9ca32152", "type": "electric_scooter", "is_reserved": 0, "lon": -77.06655283333333}, {"fusion_lat": 0.0, "name": "4cc8e49278b8d2954a5245205f1d1ea4", "is_disabled": 0, "rental_uris": {"android": "https://dc.lft.to/lastmile_qr_scan", "ios": "https://dc.lft.to/lastmile_qr_scan"}, "fusion_lon": 0.0, "lat": 38.9140055, "bike_id": "4cc8e49278b8d2954a5245205f1d1ea4", "type": "electric_scooter", "is_reserved": 0, "lon": -77.04102733333333}, {"fusion_lat": 0.0, "name": "9f5b8d69f476d8b8e700aa462b4f77a4", "is_disabled": 0, "rental_uris": {"android": "https://dc.lft.to/lastmile_qr_scan", "ios": "https://dc.lft.to/lastmile_qr_scan"}, "fusion_lon": 0.0, "lat": 38.90633833333333, "bike_id": "9f5b8d69f476d8b8e700aa462b4f77a4", "type": "electric_scooter", "is_reserved": 0, "lon": -77.006581}, {"fusion_lat": 0.0, "name": "ffe30148636b42bbb737a555f27fef0e", "is_disabled": 0, "rental_uris": {"android": "https://dc.lft.to/lastmile_qr_scan", "ios": "https://dc.lft.to/lastmile_qr_scan"}, "fusion_lon": 0.0, "lat": 38.966674833333336, "bike_id": "ffe30148636b42bbb737a555f27fef0e", "type": "electric_scooter", "is_reserved": 0, "lon": -77.0255375}, {"fusion_lat": 0.0, "name": "185ed5f42298d29989f8bc1b9e716579", "is_disabled": 0, "rental_uris": {"android": "https://dc.lft.to/lastmile_qr_scan", "ios": "https://dc.lft.to/lastmile_qr_scan"}, "fusion_lon": 0.0, "lat": 38.9131005, "bike_id": "185ed5f42298d29989f8bc1b9e716579", "type": "electric_scooter", "is_reserved": 0, "lon": -77.03664816666667}, {"fusion_lat": 0.0, "name": "146831bcb49c8623cd019946531885c3", "is_disabled": 0, "rental_uris": {"android": "https://dc.lft.to/lastmile_qr_scan", "ios": "https://dc.lft.to/lastmile_qr_scan"}, "fusion_lon": 0.0, "lat": 38.881409, "bike_id": "146831bcb49c8623cd019946531885c3", "type": "electric_scooter", "is_reserved": 0, "lon": -76.99503533333333}, {"fusion_lat": 0.0, "name": "3dd2653c4f01c50cd939955160f17d26", "is_disabled": 0, "rental_uris": {"android": "https://dc.lft.to/lastmile_qr_scan", "ios": "https://dc.lft.to/lastmile_qr_scan"}, "fusion_lon": 0.0, "lat": 38.902412, "bike_id": "3dd2653c4f01c50cd939955160f17d26", "type": "electric_scooter", "is_reserved": 0, "lon": -77.00350883333333}, {"fusion_lat": 0.0, "name": "f0a1a39cb3321cf32211a649d5ef84ef", "is_disabled": 0, "rental_uris": {"android": "https://dc.lft.to/lastmile_qr_scan", "ios": "https://dc.lft.to/lastmile_qr_scan"}, "fusion_lon": 0.0, "lat": 38.89685516666667, "bike_id": "f0a1a39cb3321cf32211a649d5ef84ef", "type": "electric_scooter", "is_reserved": 0, "lon": -77.0055005}, {"fusion_lat": 0.0, "name": "a783c80bc6f2bca225db554528b81043", "is_disabled": 0, "rental_uris": {"android": "https://dc.lft.to/lastmile_qr_scan", "ios": "https://dc.lft.to/lastmile_qr_scan"}, "fusion_lon": 0.0, "lat": 38.91307966666667, "bike_id": "a783c80bc6f2bca225db554528b81043", "type": "electric_scooter", "is_reserved": 0, "lon": -77.02356083333333}, {"fusion_lat": 0.0, "name": "114b7896161805cfeddb3a85fabced5d", "is_disabled": 0, "rental_uris": {"android": "https://dc.lft.to/lastmile_qr_scan", "ios": "https://dc.lft.to/lastmile_qr_scan"}, "fusion_lon": 0.0, "lat": 38.910780333333335, "bike_id": "114b7896161805cfeddb3a85fabced5d", "type": "electric_scooter", "is_reserved": 0, "lon": -77.02098966666667}, {"fusion_lat": 0.0, "name": "0b220abeb95ee8b40a98d1b4c0eda067", "is_disabled": 0, "rental_uris": {"android": "https://dc.lft.to/lastmile_qr_scan", "ios": "https://dc.lft.to/lastmile_qr_scan"}, "fusion_lon": 0.0, "lat": 38.9214465, "bike_id": "0b220abeb95ee8b40a98d1b4c0eda067", "type": "electric_scooter", "is_reserved": 0, "lon": -77.0340405}, {"fusion_lat": 0.0, "name": "051bd9659d1c00b2b1eaa86ab22c0b66", "is_disabled": 0, "rental_uris": {"android": "https://dc.lft.to/lastmile_qr_scan", "ios": "https://dc.lft.to/lastmile_qr_scan"}, "fusion_lon": 0.0, "lat": 38.84755666666667, "bike_id": "051bd9659d1c00b2b1eaa86ab22c0b66", "type": "electric_scooter", "is_reserved": 0, "lon": -76.99504366666666}, {"fusion_lat": 0.0, "name": "f79d72340f48d0471193473689874640", "is_disabled": 0, "rental_uris": {"android": "https://dc.lft.to/lastmile_qr_scan", "ios": "https://dc.lft.to/lastmile_qr_scan"}, "fusion_lon": 0.0, "lat": 38.9157795, "bike_id": "f79d72340f48d0471193473689874640", "type": "electric_scooter", "is_reserved": 0, "lon": -77.0123735}, {"fusion_lat": 0.0, "name": "16ee1a01dea43981a1e264251aa49f31", "is_disabled": 0, "rental_uris": {"android": "https://dc.lft.to/lastmile_qr_scan", "ios": "https://dc.lft.to/lastmile_qr_scan"}, "fusion_lon": 0.0, "lat": 38.87493883333333, "bike_id": "16ee1a01dea43981a1e264251aa49f31", "type": "electric_scooter", "is_reserved": 0, "lon": -77.0002495}, {"fusion_lat": 0.0, "name": "bddd8ccc96cbed5c5b26af2b94ec8a8e", "is_disabled": 0, "rental_uris": {"android": "https://dc.lft.to/lastmile_qr_scan", "ios": "https://dc.lft.to/lastmile_qr_scan"}, "fusion_lon": 0.0, "lat": 38.922719666666666, "bike_id": "bddd8ccc96cbed5c5b26af2b94ec8a8e", "type": "electric_scooter", "is_reserved": 0, "lon": -77.04236633333333}, {"fusion_lat": 0.0, "name": "e8ddb3eae6b62ffc1558feeb826d0e86", "is_disabled": 0, "rental_uris": {"android": "https://dc.lft.to/lastmile_qr_scan", "ios": "https://dc.lft.to/lastmile_qr_scan"}, "fusion_lon": 0.0, "lat": 38.91488066666667, "bike_id": "e8ddb3eae6b62ffc1558feeb826d0e86", "type": "electric_scooter", "is_reserved": 0, "lon": -77.01323133333334}, {"fusion_lat": 0.0, "name": "df117015028cb34b3bc5f6c068eca2b2", "is_disabled": 0, "rental_uris": {"android": "https://dc.lft.to/lastmile_qr_scan", "ios": "https://dc.lft.to/lastmile_qr_scan"}, "fusion_lon": 0.0, "lat": 38.900454333333336, "bike_id": "df117015028cb34b3bc5f6c068eca2b2", "type": "electric_scooter", "is_reserved": 0, "lon": -77.03196033333333}, {"fusion_lat": 0.0, "name": "16eaedf4184b064a86f6e661f5d7633a", "is_disabled": 0, "rental_uris": {"android": "https://dc.lft.to/lastmile_qr_scan", "ios": "https://dc.lft.to/lastmile_qr_scan"}, "fusion_lon": 0.0, "lat": 38.91479566666667, "bike_id": "16eaedf4184b064a86f6e661f5d7633a", "type": "electric_scooter", "is_reserved": 0, "lon": -77.03667416666667}, {"fusion_lat": 0.0, "name": "5391394f8e04efd31c5226bbaf4c98ad", "is_disabled": 0, "rental_uris": {"android": "https://dc.lft.to/lastmile_qr_scan", "ios": "https://dc.lft.to/lastmile_qr_scan"}, "fusion_lon": 0.0, "lat": 38.905087333333334, "bike_id": "5391394f8e04efd31c5226bbaf4c98ad", "type": "electric_scooter", "is_reserved": 0, "lon": -77.01713016666666}, {"fusion_lat": 0.0, "name": "34d97c9f682f4861405607286ba50447", "is_disabled": 0, "rental_uris": {"android": "https://dc.lft.to/lastmile_qr_scan", "ios": "https://dc.lft.to/lastmile_qr_scan"}, "fusion_lon": 0.0, "lat": 38.916518833333335, "bike_id": "34d97c9f682f4861405607286ba50447", "type": "electric_scooter", "is_reserved": 0, "lon": -77.03865283333333}, {"fusion_lat": 0.0, "name": "58fce80f268f8c28b974e183ddf5a77c", "is_disabled": 0, "rental_uris": {"android": "https://dc.lft.to/lastmile_qr_scan", "ios": "https://dc.lft.to/lastmile_qr_scan"}, "fusion_lon": 0.0, "lat": 38.85507483333333, "bike_id": "58fce80f268f8c28b974e183ddf5a77c", "type": "electric_bike", "is_reserved": 0, "lon": -77.10543583333333}, {"fusion_lat": 0.0, "name": "44cffc0152f3350fb477100a9f2e4862", "is_disabled": 0, "rental_uris": {"android": "https://dc.lft.to/lastmile_qr_scan", "ios": "https://dc.lft.to/lastmile_qr_scan"}, "fusion_lon": 0.0, "lat": 38.88868166666666, "bike_id": "44cffc0152f3350fb477100a9f2e4862", "type": "electric_scooter", "is_reserved": 0, "lon": -76.98457533333334}, {"fusion_lat": 0.0, "name": "a0dd0e1965c7e6979ae0b6ae9f8385b7", "is_disabled": 0, "rental_uris": {"android": "https://dc.lft.to/lastmile_qr_scan", "ios": "https://dc.lft.to/lastmile_qr_scan"}, "fusion_lon": 0.0, "lat": 38.906832333333334, "bike_id": "a0dd0e1965c7e6979ae0b6ae9f8385b7", "type": "electric_scooter", "is_reserved": 0, "lon": -77.02718816666666}, {"fusion_lat": 0.0, "name": "2a195295ac8948cff06f06020f278e6f", "is_disabled": 0, "rental_uris": {"android": "https://dc.lft.to/lastmile_qr_scan", "ios": "https://dc.lft.to/lastmile_qr_scan"}, "fusion_lon": 0.0, "lat": 38.894744833333334, "bike_id": "2a195295ac8948cff06f06020f278e6f", "type": "electric_scooter", "is_reserved": 0, "lon": -76.99742483333333}, {"fusion_lat": 0.0, "name": "5c09818fae874518a8505cae7a910f79", "is_disabled": 0, "rental_uris": {"android": "https://dc.lft.to/lastmile_qr_scan", "ios": "https://dc.lft.to/lastmile_qr_scan"}, "fusion_lon": 0.0, "lat": 38.88252516666667, "bike_id": "5c09818fae874518a8505cae7a910f79", "type": "electric_scooter", "is_reserved": 0, "lon": -76.99036916666667}, {"fusion_lat": 0.0, "name": "1a63271ef0c705316207a860df000384", "is_disabled": 0, "rental_uris": {"android": "https://dc.lft.to/lastmile_qr_scan", "ios": "https://dc.lft.to/lastmile_qr_scan"}, "fusion_lon": 0.0, "lat": 38.8842205, "bike_id": "1a63271ef0c705316207a860df000384", "type": "electric_scooter", "is_reserved": 0, "lon": -77.02568516666666}, {"fusion_lat": 0.0, "name": "e6cb99548e95c8a25812d172d667b550", "is_disabled": 0, "rental_uris": {"android": "https://dc.lft.to/lastmile_qr_scan", "ios": "https://dc.lft.to/lastmile_qr_scan"}, "fusion_lon": 0.0, "lat": 38.90648316666667, "bike_id": "e6cb99548e95c8a25812d172d667b550", "type": "electric_bike", "is_reserved": 0, "lon": -77.00876666666667}, {"fusion_lat": 0.0, "name": "057f885051111cd26c7a3b79152b5bbe", "is_disabled": 0, "rental_uris": {"android": "https://dc.lft.to/lastmile_qr_scan", "ios": "https://dc.lft.to/lastmile_qr_scan"}, "fusion_lon": 0.0, "lat": 38.94117416666667, "bike_id": "057f885051111cd26c7a3b79152b5bbe", "type": "electric_bike", "is_reserved": 0, "lon": -76.99033366666667}, {"fusion_lat": 0.0, "name": "c55e8fb06281c4c0a2f9690f80633c03", "is_disabled": 0, "rental_uris": {"android": "https://dc.lft.to/lastmile_qr_scan", "ios": "https://dc.lft.to/lastmile_qr_scan"}, "fusion_lon": 0.0, "lat": 38.884049166666664, "bike_id": "c55e8fb06281c4c0a2f9690f80633c03", "type": "electric_scooter", "is_reserved": 0, "lon": -77.02564533333333}, {"fusion_lat": 0.0, "name": "b8e3dcc26c839098f94e446035cb6977", "is_disabled": 0, "rental_uris": {"android": "https://dc.lft.to/lastmile_qr_scan", "ios": "https://dc.lft.to/lastmile_qr_scan"}, "fusion_lon": 0.0, "lat": 38.900622, "bike_id": "b8e3dcc26c839098f94e446035cb6977", "type": "electric_scooter", "is_reserved": 0, "lon": -77.01349433333333}, {"fusion_lat": 0.0, "name": "8adee487e3b7d41ba1d4c0e8e5818fb9", "is_disabled": 0, "rental_uris": {"android": "https://dc.lft.to/lastmile_qr_scan", "ios": "https://dc.lft.to/lastmile_qr_scan"}, "fusion_lon": 0.0, "lat": 38.906839166666664, "bike_id": "8adee487e3b7d41ba1d4c0e8e5818fb9", "type": "electric_scooter", "is_reserved": 0, "lon": -77.02721383333333}, {"fusion_lat": 0.0, "name": "83e3d8b1a5fee0d678340e077013e256", "is_disabled": 0, "rental_uris": {"android": "https://dc.lft.to/lastmile_qr_scan", "ios": "https://dc.lft.to/lastmile_qr_scan"}, "fusion_lon": 0.0, "lat": 38.91922733333333, "bike_id": "83e3d8b1a5fee0d678340e077013e256", "type": "electric_scooter", "is_reserved": 0, "lon": -77.0318065}, {"fusion_lat": 0.0, "name": "f741acb1176965f6d6f6db48a094e6af", "is_disabled": 0, "rental_uris": {"android": "https://dc.lft.to/lastmile_qr_scan", "ios": "https://dc.lft.to/lastmile_qr_scan"}, "fusion_lon": 0.0, "lat": 38.933864666666665, "bike_id": "f741acb1176965f6d6f6db48a094e6af", "type": "electric_scooter", "is_reserved": 0, "lon": -77.02414416666667}, {"fusion_lat": 0.0, "name": "cf98e5de97602a712df9f4d7496331a4", "is_disabled": 0, "rental_uris": {"android": "https://dc.lft.to/lastmile_qr_scan", "ios": "https://dc.lft.to/lastmile_qr_scan"}, "fusion_lon": 0.0, "lat": 38.934053, "bike_id": "cf98e5de97602a712df9f4d7496331a4", "type": "electric_scooter", "is_reserved": 0, "lon": -77.03264833333333}, {"fusion_lat": 0.0, "name": "dd36e90d9a94add483a6d8ac67036f5d", "is_disabled": 0, "rental_uris": {"android": "https://dc.lft.to/lastmile_qr_scan", "ios": "https://dc.lft.to/lastmile_qr_scan"}, "fusion_lon": 0.0, "lat": 38.8763145, "bike_id": "dd36e90d9a94add483a6d8ac67036f5d", "type": "electric_scooter", "is_reserved": 0, "lon": -77.00839366666666}, {"fusion_lat": 0.0, "name": "0b71a4fb182ea0e50d193188e8a10731", "is_disabled": 0, "rental_uris": {"android": "https://dc.lft.to/lastmile_qr_scan", "ios": "https://dc.lft.to/lastmile_qr_scan"}, "fusion_lon": 0.0, "lat": 38.931182, "bike_id": "0b71a4fb182ea0e50d193188e8a10731", "type": "electric_scooter", "is_reserved": 0, "lon": -77.03523333333334}, {"fusion_lat": 0.0, "name": "143eed2256e5740e95e4a21a25dc2ee4", "is_disabled": 0, "rental_uris": {"android": "https://dc.lft.to/lastmile_qr_scan", "ios": "https://dc.lft.to/lastmile_qr_scan"}, "fusion_lon": 0.0, "lat": 38.893073333333334, "bike_id": "143eed2256e5740e95e4a21a25dc2ee4", "type": "electric_scooter", "is_reserved": 0, "lon": -77.05590716666667}, {"fusion_lat": 0.0, "name": "f0665b3bc20ee7a09a1999f68ed1a5ca", "is_disabled": 0, "rental_uris": {"android": "https://dc.lft.to/lastmile_qr_scan", "ios": "https://dc.lft.to/lastmile_qr_scan"}, "fusion_lon": 0.0, "lat": 38.91848916666667, "bike_id": "f0665b3bc20ee7a09a1999f68ed1a5ca", "type": "electric_scooter", "is_reserved": 0, "lon": -77.045937}, {"fusion_lat": 0.0, "name": "b418307096010a45ecb2c8d0d1640cf7", "is_disabled": 0, "rental_uris": {"android": "https://dc.lft.to/lastmile_qr_scan", "ios": "https://dc.lft.to/lastmile_qr_scan"}, "fusion_lon": 0.0, "lat": 38.91765683333333, "bike_id": "b418307096010a45ecb2c8d0d1640cf7", "type": "electric_scooter", "is_reserved": 0, "lon": -77.01491016666667}, {"fusion_lat": 0.0, "name": "ead959edb5728b2b22e3b9d74b5a2cdf", "is_disabled": 0, "rental_uris": {"android": "https://dc.lft.to/lastmile_qr_scan", "ios": "https://dc.lft.to/lastmile_qr_scan"}, "fusion_lon": 0.0, "lat": 38.94977383333333, "bike_id": "ead959edb5728b2b22e3b9d74b5a2cdf", "type": "electric_scooter", "is_reserved": 0, "lon": -77.02701233333333}, {"fusion_lat": 0.0, "name": "8ab38dd2598fc8a6978863f651403a68", "is_disabled": 0, "rental_uris": {"android": "https://dc.lft.to/lastmile_qr_scan", "ios": "https://dc.lft.to/lastmile_qr_scan"}, "fusion_lon": 0.0, "lat": 38.91175366666667, "bike_id": "8ab38dd2598fc8a6978863f651403a68", "type": "electric_scooter", "is_reserved": 0, "lon": -77.0686545}, {"fusion_lat": 0.0, "name": "aced83622bcc1425c6c8a4a229599e1b", "is_disabled": 0, "rental_uris": {"android": "https://dc.lft.to/lastmile_qr_scan", "ios": "https://dc.lft.to/lastmile_qr_scan"}, "fusion_lon": 0.0, "lat": 38.90544583333333, "bike_id": "aced83622bcc1425c6c8a4a229599e1b", "type": "electric_scooter", "is_reserved": 0, "lon": -77.03245533333333}, {"fusion_lat": 0.0, "name": "343e25a647aafc700299e82d0603f65e", "is_disabled": 0, "rental_uris": {"android": "https://dc.lft.to/lastmile_qr_scan", "ios": "https://dc.lft.to/lastmile_qr_scan"}, "fusion_lon": 0.0, "lat": 38.86135266666667, "bike_id": "343e25a647aafc700299e82d0603f65e", "type": "electric_bike", "is_reserved": 0, "lon": -76.97175316666667}, {"fusion_lat": 0.0, "name": "34e2ad4784ea6957e4eb9c60129ec4e5", "is_disabled": 0, "rental_uris": {"android": "https://dc.lft.to/lastmile_qr_scan", "ios": "https://dc.lft.to/lastmile_qr_scan"}, "fusion_lon": 0.0, "lat": 38.94491383333333, "bike_id": "34e2ad4784ea6957e4eb9c60129ec4e5", "type": "electric_bike", "is_reserved": 0, "lon": -77.0054655}, {"fusion_lat": 0.0, "name": "9c04d00eb78ef22fc4543743b1fc056f", "is_disabled": 0, "rental_uris": {"android": "https://dc.lft.to/lastmile_qr_scan", "ios": "https://dc.lft.to/lastmile_qr_scan"}, "fusion_lon": 0.0, "lat": 38.922984666666665, "bike_id": "9c04d00eb78ef22fc4543743b1fc056f", "type": "electric_scooter", "is_reserved": 0, "lon": -77.01822416666667}, {"fusion_lat": 0.0, "name": "ef6bcce3690005aa572e15891ab1382a", "is_disabled": 0, "rental_uris": {"android": "https://dc.lft.to/lastmile_qr_scan", "ios": "https://dc.lft.to/lastmile_qr_scan"}, "fusion_lon": 0.0, "lat": 38.91127866666667, "bike_id": "ef6bcce3690005aa572e15891ab1382a", "type": "electric_scooter", "is_reserved": 0, "lon": -77.010526}, {"fusion_lat": 0.0, "name": "96ad0b0de1f4ea1fd860ca8291289a98", "is_disabled": 0, "rental_uris": {"android": "https://dc.lft.to/lastmile_qr_scan", "ios": "https://dc.lft.to/lastmile_qr_scan"}, "fusion_lon": 0.0, "lat": 38.895629666666665, "bike_id": "96ad0b0de1f4ea1fd860ca8291289a98", "type": "electric_bike", "is_reserved": 0, "lon": -77.127399}, {"fusion_lat": 0.0, "name": "f280cf3ea38333c84c5b1e30cf1ac4da", "is_disabled": 0, "rental_uris": {"android": "https://dc.lft.to/lastmile_qr_scan", "ios": "https://dc.lft.to/lastmile_qr_scan"}, "fusion_lon": 0.0, "lat": 38.85312033333334, "bike_id": "f280cf3ea38333c84c5b1e30cf1ac4da", "type": "electric_bike", "is_reserved": 0, "lon": -77.04601666666667}, {"fusion_lat": 0.0, "name": "cfd606ce2c3a96ed563b869af4464dfa", "is_disabled": 0, "rental_uris": {"android": "https://dc.lft.to/lastmile_qr_scan", "ios": "https://dc.lft.to/lastmile_qr_scan"}, "fusion_lon": 0.0, "lat": 38.9170435, "bike_id": "cfd606ce2c3a96ed563b869af4464dfa", "type": "electric_scooter", "is_reserved": 0, "lon": -77.034759}, {"fusion_lat": 0.0, "name": "c146d2bb3efa8f89f0d5d995e01d1d27", "is_disabled": 0, "rental_uris": {"android": "https://dc.lft.to/lastmile_qr_scan", "ios": "https://dc.lft.to/lastmile_qr_scan"}, "fusion_lon": 0.0, "lat": 38.917973333333336, "bike_id": "c146d2bb3efa8f89f0d5d995e01d1d27", "type": "electric_scooter", "is_reserved": 0, "lon": -77.03455133333334}, {"fusion_lat": 0.0, "name": "1422344dd357a6562b931f186ab30eed", "is_disabled": 0, "rental_uris": {"android": "https://dc.lft.to/lastmile_qr_scan", "ios": "https://dc.lft.to/lastmile_qr_scan"}, "fusion_lon": 0.0, "lat": 38.922108333333334, "bike_id": "1422344dd357a6562b931f186ab30eed", "type": "electric_scooter", "is_reserved": 0, "lon": -76.99620483333334}, {"fusion_lat": 0.0, "name": "4f7644d041026e2715877b90a7f21245", "is_disabled": 0, "rental_uris": {"android": "https://dc.lft.to/lastmile_qr_scan", "ios": "https://dc.lft.to/lastmile_qr_scan"}, "fusion_lon": 0.0, "lat": 38.92946516666667, "bike_id": "4f7644d041026e2715877b90a7f21245", "type": "electric_scooter", "is_reserved": 0, "lon": -77.03467816666667}, {"fusion_lat": 0.0, "name": "f4c0f22e967fc32887d00f9a1a3bd96c", "is_disabled": 0, "rental_uris": {"android": "https://dc.lft.to/lastmile_qr_scan", "ios": "https://dc.lft.to/lastmile_qr_scan"}, "fusion_lon": 0.0, "lat": 38.92102166666667, "bike_id": "f4c0f22e967fc32887d00f9a1a3bd96c", "type": "electric_scooter", "is_reserved": 0, "lon": -77.02196833333333}, {"fusion_lat": 0.0, "name": "87b9e8e829ff8b231a2e8ffe7d5a7261", "is_disabled": 0, "rental_uris": {"android": "https://dc.lft.to/lastmile_qr_scan", "ios": "https://dc.lft.to/lastmile_qr_scan"}, "fusion_lon": 0.0, "lat": 38.88405516666667, "bike_id": "87b9e8e829ff8b231a2e8ffe7d5a7261", "type": "electric_scooter", "is_reserved": 0, "lon": -77.02564433333333}, {"fusion_lat": 0.0, "name": "d0d44c014380dc974e26f9f2105ac240", "is_disabled": 0, "rental_uris": {"android": "https://dc.lft.to/lastmile_qr_scan", "ios": "https://dc.lft.to/lastmile_qr_scan"}, "fusion_lon": 0.0, "lat": 38.8427995, "bike_id": "d0d44c014380dc974e26f9f2105ac240", "type": "electric_bike", "is_reserved": 0, "lon": -77.04506033333334}, {"fusion_lat": 0.0, "name": "9ae9868b7b9e3eb9e296aa1aca03eaa8", "is_disabled": 0, "rental_uris": {"android": "https://dc.lft.to/lastmile_qr_scan", "ios": "https://dc.lft.to/lastmile_qr_scan"}, "fusion_lon": 0.0, "lat": 38.907685666666666, "bike_id": "9ae9868b7b9e3eb9e296aa1aca03eaa8", "type": "electric_scooter", "is_reserved": 0, "lon": -77.0623695}, {"fusion_lat": 0.0, "name": "c06c88755f6327f42001d6f3d0ae586f", "is_disabled": 0, "rental_uris": {"android": "https://dc.lft.to/lastmile_qr_scan", "ios": "https://dc.lft.to/lastmile_qr_scan"}, "fusion_lon": 0.0, "lat": 38.8982575, "bike_id": "c06c88755f6327f42001d6f3d0ae586f", "type": "electric_bike", "is_reserved": 0, "lon": -77.04682366666667}, {"fusion_lat": 0.0, "name": "7e09dc04c52286239367c40952384edf", "is_disabled": 0, "rental_uris": {"android": "https://dc.lft.to/lastmile_qr_scan", "ios": "https://dc.lft.to/lastmile_qr_scan"}, "fusion_lon": 0.0, "lat": 38.931823666666666, "bike_id": "7e09dc04c52286239367c40952384edf", "type": "electric_scooter", "is_reserved": 0, "lon": -77.033073}, {"fusion_lat": 0.0, "name": "9405ed1a6ee390f0f95938aa2cf33823", "is_disabled": 0, "rental_uris": {"android": "https://dc.lft.to/lastmile_qr_scan", "ios": "https://dc.lft.to/lastmile_qr_scan"}, "fusion_lon": 0.0, "lat": 38.911139, "bike_id": "9405ed1a6ee390f0f95938aa2cf33823", "type": "electric_scooter", "is_reserved": 0, "lon": -77.038306}, {"fusion_lat": 0.0, "name": "762c45cffd12aebd9c7467370ac6108c", "is_disabled": 0, "rental_uris": {"android": "https://dc.lft.to/lastmile_qr_scan", "ios": "https://dc.lft.to/lastmile_qr_scan"}, "fusion_lon": 0.0, "lat": 38.93057566666667, "bike_id": "762c45cffd12aebd9c7467370ac6108c", "type": "electric_scooter", "is_reserved": 0, "lon": -77.03947766666667}, {"fusion_lat": 0.0, "name": "ce97a2163b0c7d754207368f616f801d", "is_disabled": 0, "rental_uris": {"android": "https://dc.lft.to/lastmile_qr_scan", "ios": "https://dc.lft.to/lastmile_qr_scan"}, "fusion_lon": 0.0, "lat": 38.904864, "bike_id": "ce97a2163b0c7d754207368f616f801d", "type": "electric_scooter", "is_reserved": 0, "lon": -76.94977383333334}, {"fusion_lat": 0.0, "name": "8bf1543e460936729484297753428cc4", "is_disabled": 0, "rental_uris": {"android": "https://dc.lft.to/lastmile_qr_scan", "ios": "https://dc.lft.to/lastmile_qr_scan"}, "fusion_lon": 0.0, "lat": 38.927961833333335, "bike_id": "8bf1543e460936729484297753428cc4", "type": "electric_scooter", "is_reserved": 0, "lon": -76.95557333333333}, {"fusion_lat": 0.0, "name": "7428786911c5edd214cfed29ad25fb1c", "is_disabled": 0, "rental_uris": {"android": "https://dc.lft.to/lastmile_qr_scan", "ios": "https://dc.lft.to/lastmile_qr_scan"}, "fusion_lon": 0.0, "lat": 38.9226715, "bike_id": "7428786911c5edd214cfed29ad25fb1c", "type": "electric_scooter", "is_reserved": 0, "lon": -77.04237016666667}, {"fusion_lat": 0.0, "name": "18b05c515e158a9801409a5b92f849ec", "is_disabled": 0, "rental_uris": {"android": "https://dc.lft.to/lastmile_qr_scan", "ios": "https://dc.lft.to/lastmile_qr_scan"}, "fusion_lon": 0.0, "lat": 38.912579, "bike_id": "18b05c515e158a9801409a5b92f849ec", "type": "electric_scooter", "is_reserved": 0, "lon": -77.03797266666666}, {"fusion_lat": 0.0, "name": "52a14c70ff57e4e3ca0fb8809ef98364", "is_disabled": 0, "rental_uris": {"android": "https://dc.lft.to/lastmile_qr_scan", "ios": "https://dc.lft.to/lastmile_qr_scan"}, "fusion_lon": 0.0, "lat": 38.92667616666667, "bike_id": "52a14c70ff57e4e3ca0fb8809ef98364", "type": "electric_scooter", "is_reserved": 0, "lon": -77.03053316666667}, {"fusion_lat": 0.0, "name": "2ed276d94af4bf74e921676d025abd88", "is_disabled": 0, "rental_uris": {"android": "https://dc.lft.to/lastmile_qr_scan", "ios": "https://dc.lft.to/lastmile_qr_scan"}, "fusion_lon": 0.0, "lat": 38.890932666666664, "bike_id": "2ed276d94af4bf74e921676d025abd88", "type": "electric_scooter", "is_reserved": 0, "lon": -76.9193195}, {"fusion_lat": 0.0, "name": "6b9f77f6feded1cb24291f20bc59c6fa", "is_disabled": 0, "rental_uris": {"android": "https://dc.lft.to/lastmile_qr_scan", "ios": "https://dc.lft.to/lastmile_qr_scan"}, "fusion_lon": 0.0, "lat": 38.790208666666665, "bike_id": "6b9f77f6feded1cb24291f20bc59c6fa", "type": "electric_bike", "is_reserved": 0, "lon": -77.01546933333333}, {"fusion_lat": 0.0, "name": "818c6fbb5149d6e480dd8ba2ab11a58f", "is_disabled": 0, "rental_uris": {"android": "https://dc.lft.to/lastmile_qr_scan", "ios": "https://dc.lft.to/lastmile_qr_scan"}, "fusion_lon": 0.0, "lat": 38.91773883333333, "bike_id": "818c6fbb5149d6e480dd8ba2ab11a58f", "type": "electric_scooter", "is_reserved": 0, "lon": -77.022844}, {"fusion_lat": 0.0, "name": "cf60092a1c0299877933c0a8af9f16f7", "is_disabled": 0, "rental_uris": {"android": "https://dc.lft.to/lastmile_qr_scan", "ios": "https://dc.lft.to/lastmile_qr_scan"}, "fusion_lon": 0.0, "lat": 38.935953, "bike_id": "cf60092a1c0299877933c0a8af9f16f7", "type": "electric_scooter", "is_reserved": 0, "lon": -77.02296716666666}, {"fusion_lat": 0.0, "name": "6faafeaad8e126dd6eef388ec79b578b", "is_disabled": 0, "rental_uris": {"android": "https://dc.lft.to/lastmile_qr_scan", "ios": "https://dc.lft.to/lastmile_qr_scan"}, "fusion_lon": 0.0, "lat": 38.892991, "bike_id": "6faafeaad8e126dd6eef388ec79b578b", "type": "electric_scooter", "is_reserved": 0, "lon": -77.01237066666667}, {"fusion_lat": 0.0, "name": "1a5bf5b1a0763601c4a11efbb87b626e", "is_disabled": 0, "rental_uris": {"android": "https://dc.lft.to/lastmile_qr_scan", "ios": "https://dc.lft.to/lastmile_qr_scan"}, "fusion_lon": 0.0, "lat": 38.9443055, "bike_id": "1a5bf5b1a0763601c4a11efbb87b626e", "type": "electric_bike", "is_reserved": 0, "lon": -77.02605816666667}, {"fusion_lat": 0.0, "name": "77110d957e300f9f54bf4aea9397c9ff", "is_disabled": 0, "rental_uris": {"android": "https://dc.lft.to/lastmile_qr_scan", "ios": "https://dc.lft.to/lastmile_qr_scan"}, "fusion_lon": 0.0, "lat": 38.905750166666664, "bike_id": "77110d957e300f9f54bf4aea9397c9ff", "type": "electric_scooter", "is_reserved": 0, "lon": -77.0341485}, {"fusion_lat": 0.0, "name": "3b4eeeee198c0346478886cfe50fdd43", "is_disabled": 0, "rental_uris": {"android": "https://dc.lft.to/lastmile_qr_scan", "ios": "https://dc.lft.to/lastmile_qr_scan"}, "fusion_lon": 0.0, "lat": 38.936439166666666, "bike_id": "3b4eeeee198c0346478886cfe50fdd43", "type": "electric_scooter", "is_reserved": 0, "lon": -77.03361033333333}, {"fusion_lat": 0.0, "name": "14c4400f22ca39b07fc069c5fa88f3aa", "is_disabled": 0, "rental_uris": {"android": "https://dc.lft.to/lastmile_qr_scan", "ios": "https://dc.lft.to/lastmile_qr_scan"}, "fusion_lon": 0.0, "lat": 38.943895833333336, "bike_id": "14c4400f22ca39b07fc069c5fa88f3aa", "type": "electric_scooter", "is_reserved": 0, "lon": -77.09506666666667}, {"fusion_lat": 0.0, "name": "472c68f83d7697851e9cfeb1546042ea", "is_disabled": 0, "rental_uris": {"android": "https://dc.lft.to/lastmile_qr_scan", "ios": "https://dc.lft.to/lastmile_qr_scan"}, "fusion_lon": 0.0, "lat": 38.920805666666666, "bike_id": "472c68f83d7697851e9cfeb1546042ea", "type": "electric_scooter", "is_reserved": 0, "lon": -77.014794}, {"fusion_lat": 0.0, "name": "8efc10e8b9c59dfd6013a8edc0d2a46d", "is_disabled": 0, "rental_uris": {"android": "https://dc.lft.to/lastmile_qr_scan", "ios": "https://dc.lft.to/lastmile_qr_scan"}, "fusion_lon": 0.0, "lat": 38.91740716666666, "bike_id": "8efc10e8b9c59dfd6013a8edc0d2a46d", "type": "electric_scooter", "is_reserved": 0, "lon": -77.00670666666667}, {"fusion_lat": 0.0, "name": "d5d54ff0ef160de73480502bf944d4ad", "is_disabled": 0, "rental_uris": {"android": "https://dc.lft.to/lastmile_qr_scan", "ios": "https://dc.lft.to/lastmile_qr_scan"}, "fusion_lon": 0.0, "lat": 38.9155665, "bike_id": "d5d54ff0ef160de73480502bf944d4ad", "type": "electric_scooter", "is_reserved": 0, "lon": -77.0103735}, {"fusion_lat": 0.0, "name": "7dae22cf8a80eca1e30e452b7177b295", "is_disabled": 0, "rental_uris": {"android": "https://dc.lft.to/lastmile_qr_scan", "ios": "https://dc.lft.to/lastmile_qr_scan"}, "fusion_lon": 0.0, "lat": 38.9012845, "bike_id": "7dae22cf8a80eca1e30e452b7177b295", "type": "electric_scooter", "is_reserved": 0, "lon": -77.0446335}, {"fusion_lat": 0.0, "name": "e054a5eca84e8dc21804be813074815b", "is_disabled": 0, "rental_uris": {"android": "https://dc.lft.to/lastmile_qr_scan", "ios": "https://dc.lft.to/lastmile_qr_scan"}, "fusion_lon": 0.0, "lat": 38.905528333333336, "bike_id": "e054a5eca84e8dc21804be813074815b", "type": "electric_scooter", "is_reserved": 0, "lon": -77.00789283333333}, {"fusion_lat": 0.0, "name": "e6547f3c82f0a169969c6655e44df7e6", "is_disabled": 0, "rental_uris": {"android": "https://dc.lft.to/lastmile_qr_scan", "ios": "https://dc.lft.to/lastmile_qr_scan"}, "fusion_lon": 0.0, "lat": 38.903906166666665, "bike_id": "e6547f3c82f0a169969c6655e44df7e6", "type": "electric_scooter", "is_reserved": 0, "lon": -77.06137816666667}, {"fusion_lat": 0.0, "name": "510bade06e1240f17dadd9cd992c9ea7", "is_disabled": 0, "rental_uris": {"android": "https://dc.lft.to/lastmile_qr_scan", "ios": "https://dc.lft.to/lastmile_qr_scan"}, "fusion_lon": 0.0, "lat": 38.840528166666665, "bike_id": "510bade06e1240f17dadd9cd992c9ea7", "type": "electric_scooter", "is_reserved": 0, "lon": -76.97667566666667}, {"fusion_lat": 0.0, "name": "60b735c0067d74b6328932327e1eb9ec", "is_disabled": 0, "rental_uris": {"android": "https://dc.lft.to/lastmile_qr_scan", "ios": "https://dc.lft.to/lastmile_qr_scan"}, "fusion_lon": 0.0, "lat": 38.89994083333333, "bike_id": "60b735c0067d74b6328932327e1eb9ec", "type": "electric_scooter", "is_reserved": 0, "lon": -77.02208116666667}, {"fusion_lat": 0.0, "name": "8669a98d59f892ddffa10db88fc5ddbe", "is_disabled": 0, "rental_uris": {"android": "https://dc.lft.to/lastmile_qr_scan", "ios": "https://dc.lft.to/lastmile_qr_scan"}, "fusion_lon": 0.0, "lat": 38.881892666666666, "bike_id": "8669a98d59f892ddffa10db88fc5ddbe", "type": "electric_scooter", "is_reserved": 0, "lon": -77.028761}, {"fusion_lat": 0.0, "name": "af4c116ee9de5f904e778a9dcc41811f", "is_disabled": 0, "rental_uris": {"android": "https://dc.lft.to/lastmile_qr_scan", "ios": "https://dc.lft.to/lastmile_qr_scan"}, "fusion_lon": 0.0, "lat": 38.89605233333333, "bike_id": "af4c116ee9de5f904e778a9dcc41811f", "type": "electric_scooter", "is_reserved": 0, "lon": -77.050603}, {"fusion_lat": 0.0, "name": "929f13101266395e0469b1ad35031a1f", "is_disabled": 0, "rental_uris": {"android": "https://dc.lft.to/lastmile_qr_scan", "ios": "https://dc.lft.to/lastmile_qr_scan"}, "fusion_lon": 0.0, "lat": 38.895646666666664, "bike_id": "929f13101266395e0469b1ad35031a1f", "type": "electric_bike", "is_reserved": 0, "lon": -77.127426}, {"fusion_lat": 0.0, "name": "62b9de6c47a42ffad5df07f87b69d5b9", "is_disabled": 0, "rental_uris": {"android": "https://dc.lft.to/lastmile_qr_scan", "ios": "https://dc.lft.to/lastmile_qr_scan"}, "fusion_lon": 0.0, "lat": 38.97490416666667, "bike_id": "62b9de6c47a42ffad5df07f87b69d5b9", "type": "electric_scooter", "is_reserved": 0, "lon": -77.01418333333334}, {"fusion_lat": 0.0, "name": "90ca493f4e5a1a283eb9f117dfaa7204", "is_disabled": 0, "rental_uris": {"android": "https://dc.lft.to/lastmile_qr_scan", "ios": "https://dc.lft.to/lastmile_qr_scan"}, "fusion_lon": 0.0, "lat": 38.900623833333334, "bike_id": "90ca493f4e5a1a283eb9f117dfaa7204", "type": "electric_scooter", "is_reserved": 0, "lon": -76.93387416666667}, {"fusion_lat": 0.0, "name": "4532214c5481f10b38ea03c16c27adfb", "is_disabled": 0, "rental_uris": {"android": "https://dc.lft.to/lastmile_qr_scan", "ios": "https://dc.lft.to/lastmile_qr_scan"}, "fusion_lon": 0.0, "lat": 38.894234833333336, "bike_id": "4532214c5481f10b38ea03c16c27adfb", "type": "electric_scooter", "is_reserved": 0, "lon": -77.01220016666667}, {"fusion_lat": 0.0, "name": "428dffe7f275b1095c1fb62469d4c0f6", "is_disabled": 0, "rental_uris": {"android": "https://dc.lft.to/lastmile_qr_scan", "ios": "https://dc.lft.to/lastmile_qr_scan"}, "fusion_lon": 0.0, "lat": 38.942843833333335, "bike_id": "428dffe7f275b1095c1fb62469d4c0f6", "type": "electric_scooter", "is_reserved": 0, "lon": -77.02001666666666}, {"fusion_lat": 0.0, "name": "b83428e401b8c3a51692f1817034b6cc", "is_disabled": 0, "rental_uris": {"android": "https://dc.lft.to/lastmile_qr_scan", "ios": "https://dc.lft.to/lastmile_qr_scan"}, "fusion_lon": 0.0, "lat": 38.909567, "bike_id": "b83428e401b8c3a51692f1817034b6cc", "type": "electric_scooter", "is_reserved": 0, "lon": -77.04613433333333}, {"fusion_lat": 0.0, "name": "9a1d1f8be72e31f3b139f402780bcb9d", "is_disabled": 0, "rental_uris": {"android": "https://dc.lft.to/lastmile_qr_scan", "ios": "https://dc.lft.to/lastmile_qr_scan"}, "fusion_lon": 0.0, "lat": 38.905294, "bike_id": "9a1d1f8be72e31f3b139f402780bcb9d", "type": "electric_bike", "is_reserved": 0, "lon": -76.99803116666666}, {"fusion_lat": 0.0, "name": "c1c4afa323cf6d766d3f32c41dd9813b", "is_disabled": 0, "rental_uris": {"android": "https://dc.lft.to/lastmile_qr_scan", "ios": "https://dc.lft.to/lastmile_qr_scan"}, "fusion_lon": 0.0, "lat": 38.866247333333334, "bike_id": "c1c4afa323cf6d766d3f32c41dd9813b", "type": "electric_scooter", "is_reserved": 0, "lon": -76.98716466666667}, {"fusion_lat": 0.0, "name": "f315bce8093e46ef5290a706324a492b", "is_disabled": 0, "rental_uris": {"android": "https://dc.lft.to/lastmile_qr_scan", "ios": "https://dc.lft.to/lastmile_qr_scan"}, "fusion_lon": 0.0, "lat": 38.95110616666667, "bike_id": "f315bce8093e46ef5290a706324a492b", "type": "electric_scooter", "is_reserved": 0, "lon": -77.05858916666666}, {"fusion_lat": 0.0, "name": "815dc92133be4b7836feee28e6af4845", "is_disabled": 0, "rental_uris": {"android": "https://dc.lft.to/lastmile_qr_scan", "ios": "https://dc.lft.to/lastmile_qr_scan"}, "fusion_lon": 0.0, "lat": 38.915048, "bike_id": "815dc92133be4b7836feee28e6af4845", "type": "electric_scooter", "is_reserved": 0, "lon": -77.03267133333334}, {"fusion_lat": 0.0, "name": "00e9d3c2ca705662cda72fa11c967b4b", "is_disabled": 0, "rental_uris": {"android": "https://dc.lft.to/lastmile_qr_scan", "ios": "https://dc.lft.to/lastmile_qr_scan"}, "fusion_lon": 0.0, "lat": 38.91693316666667, "bike_id": "00e9d3c2ca705662cda72fa11c967b4b", "type": "electric_scooter", "is_reserved": 0, "lon": -77.037103}, {"fusion_lat": 0.0, "name": "bdb694b2213c80b0d73c02f8fd64e629", "is_disabled": 0, "rental_uris": {"android": "https://dc.lft.to/lastmile_qr_scan", "ios": "https://dc.lft.to/lastmile_qr_scan"}, "fusion_lon": 0.0, "lat": 38.920442, "bike_id": "bdb694b2213c80b0d73c02f8fd64e629", "type": "electric_scooter", "is_reserved": 0, "lon": -77.02436016666667}, {"fusion_lat": 0.0, "name": "c1bae0a9902a6dc9887ae21f92863d00", "is_disabled": 0, "rental_uris": {"android": "https://dc.lft.to/lastmile_qr_scan", "ios": "https://dc.lft.to/lastmile_qr_scan"}, "fusion_lon": 0.0, "lat": 38.90780783333334, "bike_id": "c1bae0a9902a6dc9887ae21f92863d00", "type": "electric_scooter", "is_reserved": 0, "lon": -77.00158916666666}, {"fusion_lat": 0.0, "name": "75af4c58ba9b5be1f945bba17f93c060", "is_disabled": 0, "rental_uris": {"android": "https://dc.lft.to/lastmile_qr_scan", "ios": "https://dc.lft.to/lastmile_qr_scan"}, "fusion_lon": 0.0, "lat": 38.913375, "bike_id": "75af4c58ba9b5be1f945bba17f93c060", "type": "electric_scooter", "is_reserved": 0, "lon": -77.04870616666666}, {"fusion_lat": 0.0, "name": "0f96ce7d4d9150c82f81580f0a20fa33", "is_disabled": 0, "rental_uris": {"android": "https://dc.lft.to/lastmile_qr_scan", "ios": "https://dc.lft.to/lastmile_qr_scan"}, "fusion_lon": 0.0, "lat": 38.924057833333336, "bike_id": "0f96ce7d4d9150c82f81580f0a20fa33", "type": "electric_scooter", "is_reserved": 0, "lon": -77.0364245}, {"fusion_lat": 0.0, "name": "62518f334a8a7b1d34d974ed7596b36a", "is_disabled": 0, "rental_uris": {"android": "https://dc.lft.to/lastmile_qr_scan", "ios": "https://dc.lft.to/lastmile_qr_scan"}, "fusion_lon": 0.0, "lat": 38.912571666666665, "bike_id": "62518f334a8a7b1d34d974ed7596b36a", "type": "electric_scooter", "is_reserved": 0, "lon": -77.0493345}, {"fusion_lat": 0.0, "name": "3903fc87f3a889f36e40eb4f66cc6d94", "is_disabled": 0, "rental_uris": {"android": "https://dc.lft.to/lastmile_qr_scan", "ios": "https://dc.lft.to/lastmile_qr_scan"}, "fusion_lon": 0.0, "lat": 38.90770716666667, "bike_id": "3903fc87f3a889f36e40eb4f66cc6d94", "type": "electric_scooter", "is_reserved": 0, "lon": -77.03465866666667}, {"fusion_lat": 0.0, "name": "ee2538f507abcbc117d0c96e746d8398", "is_disabled": 0, "rental_uris": {"android": "https://dc.lft.to/lastmile_qr_scan", "ios": "https://dc.lft.to/lastmile_qr_scan"}, "fusion_lon": 0.0, "lat": 38.894640833333334, "bike_id": "ee2538f507abcbc117d0c96e746d8398", "type": "electric_scooter", "is_reserved": 0, "lon": -77.01826216666667}, {"fusion_lat": 0.0, "name": "46e9c644b28e4b8209e9d0473596041b", "is_disabled": 0, "rental_uris": {"android": "https://dc.lft.to/lastmile_qr_scan", "ios": "https://dc.lft.to/lastmile_qr_scan"}, "fusion_lon": 0.0, "lat": 38.914037, "bike_id": "46e9c644b28e4b8209e9d0473596041b", "type": "electric_scooter", "is_reserved": 0, "lon": -77.03219766666666}, {"fusion_lat": 0.0, "name": "0ef33def5ad08b3e4bbf12b520b712b3", "is_disabled": 0, "rental_uris": {"android": "https://dc.lft.to/lastmile_qr_scan", "ios": "https://dc.lft.to/lastmile_qr_scan"}, "fusion_lon": 0.0, "lat": 38.9238065, "bike_id": "0ef33def5ad08b3e4bbf12b520b712b3", "type": "electric_scooter", "is_reserved": 0, "lon": -77.02038916666666}, {"fusion_lat": 0.0, "name": "6b4f56410846a01a5b3fb464cf04d10f", "is_disabled": 0, "rental_uris": {"android": "https://dc.lft.to/lastmile_qr_scan", "ios": "https://dc.lft.to/lastmile_qr_scan"}, "fusion_lon": 0.0, "lat": 38.926444333333336, "bike_id": "6b4f56410846a01a5b3fb464cf04d10f", "type": "electric_scooter", "is_reserved": 0, "lon": -77.04145833333334}, {"fusion_lat": 0.0, "name": "143b8be424c026b83863cefef74edac7", "is_disabled": 0, "rental_uris": {"android": "https://dc.lft.to/lastmile_qr_scan", "ios": "https://dc.lft.to/lastmile_qr_scan"}, "fusion_lon": 0.0, "lat": 38.8737315, "bike_id": "143b8be424c026b83863cefef74edac7", "type": "electric_scooter", "is_reserved": 0, "lon": -77.00066166666667}, {"fusion_lat": 0.0, "name": "862ecb646a9de096031c700380607cbe", "is_disabled": 0, "rental_uris": {"android": "https://dc.lft.to/lastmile_qr_scan", "ios": "https://dc.lft.to/lastmile_qr_scan"}, "fusion_lon": 0.0, "lat": 38.9179845, "bike_id": "862ecb646a9de096031c700380607cbe", "type": "electric_scooter", "is_reserved": 0, "lon": -77.03442566666666}, {"fusion_lat": 0.0, "name": "03fb4ab013e6e92bc8ac67f8f2fd9d81", "is_disabled": 0, "rental_uris": {"android": "https://dc.lft.to/lastmile_qr_scan", "ios": "https://dc.lft.to/lastmile_qr_scan"}, "fusion_lon": 0.0, "lat": 38.90564783333333, "bike_id": "03fb4ab013e6e92bc8ac67f8f2fd9d81", "type": "electric_scooter", "is_reserved": 0, "lon": -77.0222725}, {"fusion_lat": 0.0, "name": "e83c1f30eb6dc955a0f9a08bff0aafa5", "is_disabled": 0, "rental_uris": {"android": "https://dc.lft.to/lastmile_qr_scan", "ios": "https://dc.lft.to/lastmile_qr_scan"}, "fusion_lon": 0.0, "lat": 38.91518716666667, "bike_id": "e83c1f30eb6dc955a0f9a08bff0aafa5", "type": "electric_scooter", "is_reserved": 0, "lon": -77.07282183333334}, {"fusion_lat": 0.0, "name": "8ec59b40701ea9784886500555855521", "is_disabled": 0, "rental_uris": {"android": "https://dc.lft.to/lastmile_qr_scan", "ios": "https://dc.lft.to/lastmile_qr_scan"}, "fusion_lon": 0.0, "lat": 38.9535105, "bike_id": "8ec59b40701ea9784886500555855521", "type": "electric_bike", "is_reserved": 0, "lon": -76.98093583333333}, {"fusion_lat": 0.0, "name": "8366fdf799857181c2391e6f27f7c422", "is_disabled": 0, "rental_uris": {"android": "https://dc.lft.to/lastmile_qr_scan", "ios": "https://dc.lft.to/lastmile_qr_scan"}, "fusion_lon": 0.0, "lat": 38.905156833333336, "bike_id": "8366fdf799857181c2391e6f27f7c422", "type": "electric_scooter", "is_reserved": 0, "lon": -77.06783133333333}, {"fusion_lat": 0.0, "name": "b5917f93166907f0b3600e1c76da5b27", "is_disabled": 0, "rental_uris": {"android": "https://dc.lft.to/lastmile_qr_scan", "ios": "https://dc.lft.to/lastmile_qr_scan"}, "fusion_lon": 0.0, "lat": 38.924843333333335, "bike_id": "b5917f93166907f0b3600e1c76da5b27", "type": "electric_bike", "is_reserved": 0, "lon": -77.233428}, {"fusion_lat": 0.0, "name": "05c0fc9cb398c8e96f889c0e7448f5ba", "is_disabled": 0, "rental_uris": {"android": "https://dc.lft.to/lastmile_qr_scan", "ios": "https://dc.lft.to/lastmile_qr_scan"}, "fusion_lon": 0.0, "lat": 38.931157666666664, "bike_id": "05c0fc9cb398c8e96f889c0e7448f5ba", "type": "electric_scooter", "is_reserved": 0, "lon": -77.02087516666667}, {"fusion_lat": 0.0, "name": "51ab5551bdb83e1af544190fcf79d258", "is_disabled": 0, "rental_uris": {"android": "https://dc.lft.to/lastmile_qr_scan", "ios": "https://dc.lft.to/lastmile_qr_scan"}, "fusion_lon": 0.0, "lat": 38.93256383333333, "bike_id": "51ab5551bdb83e1af544190fcf79d258", "type": "electric_scooter", "is_reserved": 0, "lon": -77.019162}, {"fusion_lat": 0.0, "name": "4ca971f0ff650d4f1d4e4b262f84f1f9", "is_disabled": 0, "rental_uris": {"android": "https://dc.lft.to/lastmile_qr_scan", "ios": "https://dc.lft.to/lastmile_qr_scan"}, "fusion_lon": 0.0, "lat": 38.88218483333333, "bike_id": "4ca971f0ff650d4f1d4e4b262f84f1f9", "type": "electric_scooter", "is_reserved": 0, "lon": -77.04148183333334}, {"fusion_lat": 0.0, "name": "f6daed1e001f30066f157bf9f2ed24be", "is_disabled": 0, "rental_uris": {"android": "https://dc.lft.to/lastmile_qr_scan", "ios": "https://dc.lft.to/lastmile_qr_scan"}, "fusion_lon": 0.0, "lat": 38.90236483333333, "bike_id": "f6daed1e001f30066f157bf9f2ed24be", "type": "electric_scooter", "is_reserved": 0, "lon": -77.02712916666667}, {"fusion_lat": 0.0, "name": "bc0d483b87ef2926cfeee2c2c01396b8", "is_disabled": 0, "rental_uris": {"android": "https://dc.lft.to/lastmile_qr_scan", "ios": "https://dc.lft.to/lastmile_qr_scan"}, "fusion_lon": 0.0, "lat": 38.934879333333335, "bike_id": "bc0d483b87ef2926cfeee2c2c01396b8", "type": "electric_scooter", "is_reserved": 0, "lon": -77.0453915}, {"fusion_lat": 0.0, "name": "05c208714078102a4fb67fc95ed9d356", "is_disabled": 0, "rental_uris": {"android": "https://dc.lft.to/lastmile_qr_scan", "ios": "https://dc.lft.to/lastmile_qr_scan"}, "fusion_lon": 0.0, "lat": 38.90935783333333, "bike_id": "05c208714078102a4fb67fc95ed9d356", "type": "electric_scooter", "is_reserved": 0, "lon": -77.0626965}, {"fusion_lat": 0.0, "name": "05e3528271f7b7beb70d7edfa257631f", "is_disabled": 0, "rental_uris": {"android": "https://dc.lft.to/lastmile_qr_scan", "ios": "https://dc.lft.to/lastmile_qr_scan"}, "fusion_lon": 0.0, "lat": 38.93961733333333, "bike_id": "05e3528271f7b7beb70d7edfa257631f", "type": "electric_scooter", "is_reserved": 0, "lon": -77.03286716666666}, {"fusion_lat": 0.0, "name": "15f1545a0f861de7059b77d1ce99ff27", "is_disabled": 0, "rental_uris": {"android": "https://dc.lft.to/lastmile_qr_scan", "ios": "https://dc.lft.to/lastmile_qr_scan"}, "fusion_lon": 0.0, "lat": 38.96487116666667, "bike_id": "15f1545a0f861de7059b77d1ce99ff27", "type": "electric_bike", "is_reserved": 0, "lon": -77.022145}, {"fusion_lat": 0.0, "name": "944f9ca3751e3d268feb6b6a8ab563fc", "is_disabled": 0, "rental_uris": {"android": "https://dc.lft.to/lastmile_qr_scan", "ios": "https://dc.lft.to/lastmile_qr_scan"}, "fusion_lon": 0.0, "lat": 38.92764583333334, "bike_id": "944f9ca3751e3d268feb6b6a8ab563fc", "type": "electric_scooter", "is_reserved": 0, "lon": -77.02780016666667}, {"fusion_lat": 0.0, "name": "f336fd35586d612a6ff0469e4245b664", "is_disabled": 0, "rental_uris": {"android": "https://dc.lft.to/lastmile_qr_scan", "ios": "https://dc.lft.to/lastmile_qr_scan"}, "fusion_lon": 0.0, "lat": 38.92420633333333, "bike_id": "f336fd35586d612a6ff0469e4245b664", "type": "electric_scooter", "is_reserved": 0, "lon": -77.02710583333334}, {"fusion_lat": 0.0, "name": "7534a22b4539ea8c2b61da306e0dcb4a", "is_disabled": 0, "rental_uris": {"android": "https://dc.lft.to/lastmile_qr_scan", "ios": "https://dc.lft.to/lastmile_qr_scan"}, "fusion_lon": 0.0, "lat": 38.91878916666667, "bike_id": "7534a22b4539ea8c2b61da306e0dcb4a", "type": "electric_scooter", "is_reserved": 0, "lon": -77.023024}, {"fusion_lat": 0.0, "name": "4fa230b54bf18b57561ff2261bd44415", "is_disabled": 0, "rental_uris": {"android": "https://dc.lft.to/lastmile_qr_scan", "ios": "https://dc.lft.to/lastmile_qr_scan"}, "fusion_lon": 0.0, "lat": 38.92427766666667, "bike_id": "4fa230b54bf18b57561ff2261bd44415", "type": "electric_scooter", "is_reserved": 0, "lon": -77.02028616666666}, {"fusion_lat": 0.0, "name": "abda203ba9743a313fc3e94adaa676b0", "is_disabled": 0, "rental_uris": {"android": "https://dc.lft.to/lastmile_qr_scan", "ios": "https://dc.lft.to/lastmile_qr_scan"}, "fusion_lon": 0.0, "lat": 38.876925666666665, "bike_id": "abda203ba9743a313fc3e94adaa676b0", "type": "electric_scooter", "is_reserved": 0, "lon": -77.0074315}, {"fusion_lat": 0.0, "name": "b5879b9f9e3b494a1c5e47cf8c0199fe", "is_disabled": 0, "rental_uris": {"android": "https://dc.lft.to/lastmile_qr_scan", "ios": "https://dc.lft.to/lastmile_qr_scan"}, "fusion_lon": 0.0, "lat": 38.87809633333333, "bike_id": "b5879b9f9e3b494a1c5e47cf8c0199fe", "type": "electric_scooter", "is_reserved": 0, "lon": -77.0132815}, {"fusion_lat": 0.0, "name": "3e769935eb5d38178f147bd6796d3110", "is_disabled": 0, "rental_uris": {"android": "https://dc.lft.to/lastmile_qr_scan", "ios": "https://dc.lft.to/lastmile_qr_scan"}, "fusion_lon": 0.0, "lat": 38.88231916666667, "bike_id": "3e769935eb5d38178f147bd6796d3110", "type": "electric_scooter", "is_reserved": 0, "lon": -77.0261705}, {"fusion_lat": 0.0, "name": "372c703578171bd1bb8d93e8e89c354d", "is_disabled": 0, "rental_uris": {"android": "https://dc.lft.to/lastmile_qr_scan", "ios": "https://dc.lft.to/lastmile_qr_scan"}, "fusion_lon": 0.0, "lat": 38.900462833333336, "bike_id": "372c703578171bd1bb8d93e8e89c354d", "type": "electric_scooter", "is_reserved": 0, "lon": -77.03200866666667}, {"fusion_lat": 0.0, "name": "30dea94ea7ed1c75b4c527e1a031bc04", "is_disabled": 0, "rental_uris": {"android": "https://dc.lft.to/lastmile_qr_scan", "ios": "https://dc.lft.to/lastmile_qr_scan"}, "fusion_lon": 0.0, "lat": 38.884863333333335, "bike_id": "30dea94ea7ed1c75b4c527e1a031bc04", "type": "electric_scooter", "is_reserved": 0, "lon": -77.00716283333334}, {"fusion_lat": 0.0, "name": "f667924c81864f442368ebb24ec008e6", "is_disabled": 0, "rental_uris": {"android": "https://dc.lft.to/lastmile_qr_scan", "ios": "https://dc.lft.to/lastmile_qr_scan"}, "fusion_lon": 0.0, "lat": 38.92682533333333, "bike_id": "f667924c81864f442368ebb24ec008e6", "type": "electric_scooter", "is_reserved": 0, "lon": -77.02275366666667}, {"fusion_lat": 0.0, "name": "57f39337988ae118d0cce02048e7806e", "is_disabled": 0, "rental_uris": {"android": "https://dc.lft.to/lastmile_qr_scan", "ios": "https://dc.lft.to/lastmile_qr_scan"}, "fusion_lon": 0.0, "lat": 38.898763, "bike_id": "57f39337988ae118d0cce02048e7806e", "type": "electric_scooter", "is_reserved": 0, "lon": -76.93184616666667}, {"fusion_lat": 0.0, "name": "be1e11aa6094987dfcc5454abb8a0da6", "is_disabled": 0, "rental_uris": {"android": "https://dc.lft.to/lastmile_qr_scan", "ios": "https://dc.lft.to/lastmile_qr_scan"}, "fusion_lon": 0.0, "lat": 38.8999135, "bike_id": "be1e11aa6094987dfcc5454abb8a0da6", "type": "electric_scooter", "is_reserved": 0, "lon": -76.99011516666667}, {"fusion_lat": 0.0, "name": "903a45cfbbf5483cde9026ff14185c25", "is_disabled": 0, "rental_uris": {"android": "https://dc.lft.to/lastmile_qr_scan", "ios": "https://dc.lft.to/lastmile_qr_scan"}, "fusion_lon": 0.0, "lat": 38.901491, "bike_id": "903a45cfbbf5483cde9026ff14185c25", "type": "electric_scooter", "is_reserved": 0, "lon": -77.02298266666666}, {"fusion_lat": 0.0, "name": "8c7ca9b86f6be91e97dc7ea58fd05ee2", "is_disabled": 0, "rental_uris": {"android": "https://dc.lft.to/lastmile_qr_scan", "ios": "https://dc.lft.to/lastmile_qr_scan"}, "fusion_lon": 0.0, "lat": 38.90678916666667, "bike_id": "8c7ca9b86f6be91e97dc7ea58fd05ee2", "type": "electric_scooter", "is_reserved": 0, "lon": -77.072147}, {"fusion_lat": 0.0, "name": "1536846a6814ce4217b9902260482321", "is_disabled": 0, "rental_uris": {"android": "https://dc.lft.to/lastmile_qr_scan", "ios": "https://dc.lft.to/lastmile_qr_scan"}, "fusion_lon": 0.0, "lat": 38.9076575, "bike_id": "1536846a6814ce4217b9902260482321", "type": "electric_scooter", "is_reserved": 0, "lon": -77.0559495}, {"fusion_lat": 0.0, "name": "477ab8a90f63fae43dc70e03a7e74382", "is_disabled": 0, "rental_uris": {"android": "https://dc.lft.to/lastmile_qr_scan", "ios": "https://dc.lft.to/lastmile_qr_scan"}, "fusion_lon": 0.0, "lat": 38.942712, "bike_id": "477ab8a90f63fae43dc70e03a7e74382", "type": "electric_scooter", "is_reserved": 0, "lon": -77.03258483333333}, {"fusion_lat": 0.0, "name": "0e08395963557e9f3f99c79d489083a9", "is_disabled": 0, "rental_uris": {"android": "https://dc.lft.to/lastmile_qr_scan", "ios": "https://dc.lft.to/lastmile_qr_scan"}, "fusion_lon": 0.0, "lat": 38.8350695, "bike_id": "0e08395963557e9f3f99c79d489083a9", "type": "electric_bike", "is_reserved": 0, "lon": -76.98688083333333}, {"fusion_lat": 0.0, "name": "719166796c4e9fc0db6a0866c2f531e2", "is_disabled": 0, "rental_uris": {"android": "https://dc.lft.to/lastmile_qr_scan", "ios": "https://dc.lft.to/lastmile_qr_scan"}, "fusion_lon": 0.0, "lat": 38.91544616666667, "bike_id": "719166796c4e9fc0db6a0866c2f531e2", "type": "electric_scooter", "is_reserved": 0, "lon": -77.01137633333333}, {"fusion_lat": 0.0, "name": "361c6996c6c904d12914561bf2fd246d", "is_disabled": 0, "rental_uris": {"android": "https://dc.lft.to/lastmile_qr_scan", "ios": "https://dc.lft.to/lastmile_qr_scan"}, "fusion_lon": 0.0, "lat": 38.94007716666667, "bike_id": "361c6996c6c904d12914561bf2fd246d", "type": "electric_scooter", "is_reserved": 0, "lon": -77.0841575}, {"fusion_lat": 0.0, "name": "9ef2a5ab232d5d96c7759d3a97629218", "is_disabled": 0, "rental_uris": {"android": "https://dc.lft.to/lastmile_qr_scan", "ios": "https://dc.lft.to/lastmile_qr_scan"}, "fusion_lon": 0.0, "lat": 38.901744, "bike_id": "9ef2a5ab232d5d96c7759d3a97629218", "type": "electric_scooter", "is_reserved": 0, "lon": -77.020106},